{"last_updated":1761675360,"ttl":60,"version":"2.2","data":{"bikes":[{"bike_id":"c5670090-28e4-4a30-8b52-6f97e9f95071","system_id":"levelo_inurba_marseille","lat":43.29643,"lon":5.39172,"is_reserved":false,"is_disabled":false,"rental_uris":{"android":"levelo://app?vid=c5670090-28e4-4a30-8b52-6f97e9f95071","ios":"levelo://app?vid=c5670090-28e4-4a30-8b52-6f97e9f95071"},"vehicle_type_id":"4","last_reported":1761675360,"current_range_meters":2800,"station_id":"","pricing_plan_id":"cebpf4jnsgd1na2vs0mg"},{"bike_id":"43cb0444-520b-4c36-8796-9efc105cef40","system_id":"levelo_inurba_marseille","lat":43.29024,"lon":5.39996,"is_reserved":false,"is_disabled":false,"rental_uris":{"android":"levelo://app?vid=43cb0444-520b-4c36-8796-9efc105cef40","ios":"levelo://app?vid=43cb0444-520b-4c36-8796-9efc105cef40"},"vehicle_type_id":"4","last_reported":1761675360,"current_range_meters":2800,"station_id":"ce4bh392rcd13ifvqdm0","pricing_plan_id":"cebpf4jnsgd1na2vs0mg"},{"bike_id":"18437c20-8fec-4087-921a-d133ad0cd78e","system_id":"levelo_inurba_marseille","lat":43.299864,"lon":5.384676,"is_reserved":false,"is_disabled":false,"rental_uris":{"android":"levelo://app?vid=18437c20-8fec-4087-921a-d133ad0cd78e","ios":"levelo://app?vid=18437c20-8fec-4087-921a-d133ad0cd78e"},"vehicle_type_id":"4","last_reported":1761675360,"current_range_meters":2800,"station_id":"","pricing_plan_id":"cebpf4jnsgd1na2vs0mg"},{"bike_id":"5a41dbd5-b6fb-404a-8a10-c6dae5b7bd4c","system_id":"levelo_inurba_marseille","lat":43.255804,"lon":5.382354,"is_reserved":false,"is_disabled":false,"rental_uris":{"android":"levelo://app?vid=5a41dbd5-b6fb-404a-8a10-c6dae5b7bd4c","ios":"levelo://app?vid=5a41dbd5-b6fb-404a-8a10-c6dae5b7bd4c"},"vehicle_type_id":"4","last_reported":1761675360,"current_range_meters":2800,"station_id":"ce4bhih2rcd13ifvqfs0","pricing_plan_id":"cebpf4jnsgd1na2vs0mg"},{"bike_id":"a4a7cac5-4396-42da-aca6-fa6a65d0dbb9","system_id":"levelo_inurba_marseille","lat":43.29973,"lon":5.37174,"is_reserved":false,"is_disabled":false,"rental_uris":{"android":"levelo://app?vid=a4a7cac5-4396-42da-aca6-fa6a65d0dbb9","ios":"levelo://app?vid=a4a7cac5-4396-42da-aca6-fa6a65d0dbb9"},"vehicle_type_id":"4","last_reported":1761675360,"current_range_meters":2800,"station_id":"ce4bgr92rcd13ifvqc7g","pricing_plan_id":"cebpf4jnsgd1na2vs0mg"},{"bike_id":"dbc0e999-85bd-4a1d-a4d4-696c0adb85db","system_id":"levelo_inurba_marseille","lat":43.29842,"lon":5.36305,"is_reserved":false,"is_disabled":true,"rental_uris":{"android":"levelo://app?vid=dbc0e999-85bd-4a1d-a4d4-696c0adb85db","ios":"levelo://app?vid=dbc0e999-85bd-4a1d-a4d4-696c0adb85db"},"vehicle_type_id":"4","last_reported":1761675360,"current_range_meters":3200,"station_id":"ce4bgpp2rcd13ifvqc3g","pricing_plan_id":"cebpf4jnsgd1na2vs0mg"},{"bike_id":"d0771583-dde9-4926-b574-1e81e8deb462","system_id":"levelo_inurba_marseille","lat":43.30115,"lon":5.43122,"is_reserved":false,"is_disabled":false,"rental_uris":{"android":"levelo://app?vid=d0771583-dde9-4926-b574-1e81e8deb462","ios":"levelo://app?vid=d0771583-dde9-4926-b574-1e81e8deb462"},"vehicle_type_id":"4","last_reported":1761675360,"current_range_meters":3200,"station_id":"st_d3js3co5814s73ftftug","pricing_plan_id":"cebpf4jnsgd1na2vs0mg"},{"bike_id":"41d45b45-3a52-4b5a-b2b3-1e62d5490ada","system_id":"levelo_inurba_marseille","lat":43.28513,"lon":5.44114,"is_reserved":false,"is_disabled":false,"rental_uris":{"android":"levelo://app?vid=41d45b45-3a52-4b5a-b2b3-1e62d5490ada","ios":"levelo://app?vid=41d45b45-3a52-4b5a-b2b3-1e62d5490ada"},"vehicle_type_id":"4","last_reported":1761675360,"current_range_meters":3200,"station_id":"st_d3j3df2ikq2c7380ej80","pricing_plan_id":"cebpf4jnsgd1na2vs0mg"},{"bike_id":"f27ff263-9f71-4aaf-877f-50a73cba7a9b","system_id":"levelo_inurba_marseille","lat":43.30207,"lon":5.36653,"is_reserved":false,"is_disabled":true,"rental_uris":{"android":"levelo://app?vid=f27ff263-9f71-4aaf-877f-50a73cba7a9b","ios":"levelo://app?vid=f27ff263-9f71-4aaf-877f-50a73cba7a9b"},"vehicle_type_id":"4","last_reported":1761675360,"current_range_meters":3200,"station_id":"ce4bgrh2rcd13ifvqc8g","pricing_plan_id":"cebpf4jnsgd1na2vs0mg"},{"bike_id":"ce83f49d-15a4-45ce-bcbe-b3f4a555f5c9","system_id":"levelo_inurba_marseille","lat":43.304303,"lon":5.38905,"is_reserved":false,"is_disabled":false,"rental_uris":{"android":"levelo://app?vid=ce83f49d-15a4-45ce-bcbe-b3f4a555f5c9","ios":"levelo://app?vid=ce83f49d-15a4-45ce-bcbe-b3f4a555f5c9"},"vehicle_type_id":"4","last_reported":1761675360,"current_range_meters":3200,"station_id":"ce4bgk12rcd13ifvqbi0","pricing_plan_id":"cebpf4jnsgd1na2vs0mg"},{"bike_id":"54fcbf79-3592-4256-b750-5dc14b152ee4","system_id":"levelo_inurba_marseille","lat":43.32034,"lon":5.4156,"is_reserved":false,"is_disabled":false,"rental_uris":{"android":"levelo://app?vid=54fcbf79-3592-4256-b750-5dc14b152ee4","ios":"levelo://app?vid=54fcbf79-3592-4256-b750-5dc14b152ee4"},"vehicle_type_id":"4","last_reported":1761675360,"current_range_meters":3200,"station_id":"ce4bhq92rcd13ifvqhkg","pricing_plan_id":"cebpf4jnsgd1na2vs0mg"},{"bike_id":"4fd47588-e92c-4f77-9bf0-ab93adc35e2b","system_id":"levelo_inurba_marseille","lat":43.29579,"lon":5.399677,"is_reserved":false,"is_disabled":false,"rental_uris":{"android":"levelo://app?vid=4fd47588-e92c-4f77-9bf0-ab93adc35e2b","ios":"levelo://app?vid=4fd47588-e92c-4f77-9bf0-ab93adc35e2b"},"vehicle_type_id":"4","last_reported":1761675360,"current_range_meters":3200,"station_id":"ce4bh312rcd13ifvqdj0","pricing_plan_id":"cebpf4jnsgd1na2vs0mg"},{"bike_id":"111a0a03-59c5-4742-bac4-355fed318658","system_id":"levelo_inurba_marseille","lat":43.30298,"lon":5.39201,"is_reserved":false,"is_disabled":false,"rental_uris":{"android":"levelo://app?vid=111a0a03-59c5-4742-bac4-355fed318658","ios":"levelo://app?vid=111a0a03-59c5-4742-bac4-355fed318658"},"vehicle_type_id":"4","last_reported":1761675360,"current_range_meters":3200,"station_id":"ce4bgkh2rcd13ifvqbk0","pricing_plan_id":"cebpf4jnsgd1na2vs0mg"},{"bike_id":"e7d2a8fb-b225-42fe-b471-adf2723b3773","system_id":"levelo_inurba_marseille","lat":43.24996,"lon":5.38931,"is_reserved":false,"is_disabled":false,"rental_uris":{"android":"levelo://app?vid=e7d2a8fb-b225-42fe-b471-adf2723b3773","ios":"levelo://app?vid=e7d2a8fb-b225-42fe-b471-adf2723b3773"},"vehicle_type_id":"4","last_reported":1761675360,"current_range_meters":3600,"station_id":"ce4bhgp2rcd13ifvqfd0","pricing_plan_id":"cebpf4jnsgd1na2vs0mg"},{"bike_id":"4506bf9b-b91f-463e-bc36-c5db4691e001","system_id":"levelo_inurba_marseille","lat":43.28036,"lon":5.36939,"is_reserved":false,"is_disabled":false,"rental_uris":{"android":"levelo://app?vid=4506bf9b-b91f-463e-bc36-c5db4691e001","ios":"levelo://app?vid=4506bf9b-b91f-463e-bc36-c5db4691e001"},"vehicle_type_id":"4","last_reported":1761675360,"current_range_meters":3600,"station_id":"ce4bha12rcd13ifvqef0","pricing_plan_id":"cebpf4jnsgd1na2vs0mg"},{"bike_id":"a457c72d-ad34-44ba-9bb8-67a237af833e","system_id":"levelo_inurba_marseille","lat":43.28681,"lon":5.39963,"is_reserved":false,"is_disabled":false,"rental_uris":{"android":"levelo://app?vid=a457c72d-ad34-44ba-9bb8-67a237af833e","ios":"levelo://app?vid=a457c72d-ad34-44ba-9bb8-67a237af833e"},"vehicle_type_id":"4","last_reported":1761675360,"current_range_meters":3600,"station_id":"ce4bho92rcd13ifvqh3g","pricing_plan_id":"cebpf4jnsgd1na2vs0mg"},{"bike_id":"64b75b4a-3497-4861-8cc2-90dd62cd9f5e","system_id":"levelo_inurba_marseille","lat":43.2936,"lon":5.43442,"is_reserved":false,"is_disabled":false,"rental_uris":{"android":"levelo://app?vid=64b75b4a-3497-4861-8cc2-90dd62cd9f5e","ios":"levelo://app?vid=64b75b4a-3497-4861-8cc2-90dd62cd9f5e"},"vehicle_type_id":"4","last_reported":1761675360,"current_range_meters":3600,"station_id":"","pricing_plan_id":"cebpf4jnsgd1na2vs0mg"},{"bike_id":"1abfb55b-23b5-441f-abd9-97b458863c6c","system_id":"levelo_inurba_marseille","lat":43.296009,"lon":5.38091,"is_reserved":false,"is_disabled":false,"rental_uris":{"android":"levelo://app?vid=1abfb55b-23b5-441f-abd9-97b458863c6c","ios":"levelo://app?vid=1abfb55b-23b5-441f-abd9-97b458863c6c"},"vehicle_type_id":"4","last_reported":1761675360,"current_range_meters":3600,"station_id":"ce4bgl12rcd13ifvqbo0","pricing_plan_id":"cebpf4jnsgd1na2vs0mg"},{"bike_id":"eba816c1-980c-4661-8acf-85c38cc602b5","system_id":"levelo_inurba_marseille","lat":43.26064,"lon":5.39397,"is_reserved":false,"is_disabled":false,"rental_uris":{"android":"levelo://app?vid=eba816c1-980c-4661-8acf-85c38cc602b5","ios":"levelo://app?vid=eba816c1-980c-4661-8acf-85c38cc602b5"},"vehicle_type_id":"4","last_reported":1761675360,"current_range_meters":3600,"station_id":"ce4bhh92rcd13ifvqfj0","pricing_plan_id":"cebpf4jnsgd1na2vs0mg"},{"bike_id":"2c09e33b-95e1-46e8-946c-069abd0b71c1","system_id":"levelo_inurba_marseille","lat":43.28663,"lon":5.38669,"is_reserved":false,"is_disabled":false,"rental_uris":{"android":"levelo://app?vid=2c09e33b-95e1-46e8-946c-069abd0b71c1","ios":"levelo://app?vid=2c09e33b-95e1-46e8-946c-069abd0b71c1"},"vehicle_type_id":"4","last_reported":1761675360,"current_range_meters":4000,"station_id":"ce4bh492rcd13ifvqdug","pricing_plan_id":"cebpf4jnsgd1na2vs0mg"},{"bike_id":"64e02289-0b8d-465f-b70f-bc68989c7489","system_id":"levelo_inurba_marseille","lat":43.23965,"lon":5.36637,"is_reserved":false,"is_disabled":false,"rental_uris":{"android":"levelo://app?vid=64e02289-0b8d-465f-b70f-bc68989c7489","ios":"levelo://app?vid=64e02289-0b8d-465f-b70f-bc68989c7489"},"vehicle_type_id":"4","last_reported":1761675360,"current_range_meters":4000,"station_id":"ce4bhi12rcd13ifvqfp0","pricing_plan_id":"cebpf4jnsgd1na2vs0mg"},{"bike_id":"c8382cd6-dff3-4209-9458-18c57fbbe39d","system_id":"levelo_inurba_marseille","lat":43.28697,"lon":5.37393,"is_reserved":false,"is_disabled":false,"rental_uris":{"android":"levelo://app?vid=c8382cd6-dff3-4209-9458-18c57fbbe39d","ios":"levelo://app?vid=c8382cd6-dff3-4209-9458-18c57fbbe39d"},"vehicle_type_id":"4","last_reported":1761675360,"current_range_meters":4000,"station_id":"ce4bh3p2rcd13ifvqdq0","pricing_plan_id":"cebpf4jnsgd1na2vs0mg"},{"bike_id":"736f0497-891f-421f-8009-d4e63ca0ce08","system_id":"levelo_inurba_marseille","lat":43.27065,"lon":5.42277,"is_reserved":false,"is_disabled":false,"rental_uris":{"android":"levelo://app?vid=736f0497-891f-421f-8009-d4e63ca0ce08","ios":"levelo://app?vid=736f0497-891f-421f-8009-d4e63ca0ce08"},"vehicle_type_id":"4","last_reported":1761675360,"current_range_meters":4000,"station_id":"ce4bhk92rcd13ifvqgb0","pricing_plan_id":"cebpf4jnsgd1na2vs0mg"},{"bike_id":"c5ce22ea-6593-4593-abd7-97a1c13a6faa","system_id":"levelo_inurba_marseille","lat":43.260712,"lon":5.393958,"is_reserved":false,"is_disabled":false,"rental_uris":{"android":"levelo://app?vid=c5ce22ea-6593-4593-abd7-97a1c13a6faa","ios":"levelo://app?vid=c5ce22ea-6593-4593-abd7-97a1c13a6faa"},"vehicle_type_id":"4","last_reported":1761675360,"current_range_meters":4000,"station_id":"ce4bhh92rcd13ifvqfj0","pricing_plan_id":"cebpf4jnsgd1na2vs0mg"},{"bike_id":"d7a8dcde-b98b-41ad-8d78-9e5ce974d680","system_id":"levelo_inurba_marseille","lat":43.23177,"lon":5.39986,"is_reserved":false,"is_disabled":false,"rental_uris":{"android":"levelo://app?vid=d7a8dcde-b98b-41ad-8d78-9e5ce974d680","ios":"levelo://app?vid=d7a8dcde-b98b-41ad-8d78-9e5ce974d680"},"vehicle_type_id":"4","last_reported":1761675360,"current_range_meters":4000,"station_id":"ce4bhn12rcd13ifvqgqg","pricing_plan_id":"cebpf4jnsgd1na2vs0mg"},{"bike_id":"3ea13603-c9ad-4550-9948-b83f47812af6","system_id":"levelo_inurba_marseille","lat":43.29086,"lon":5.36623,"is_reserved":false,"is_disabled":false,"rental_uris":{"android":"levelo://app?vid=3ea13603-c9ad-4550-9948-b83f47812af6","ios":"levelo://app?vid=3ea13603-c9ad-4550-9948-b83f47812af6"},"vehicle_type_id":"4","last_reported":1761675360,"current_range_meters":4000,"station_id":"","pricing_plan_id":"cebpf4jnsgd1na2vs0mg"},{"bike_id":"f44c85da-800c-451d-a604-ffff7f067da5","system_id":"levelo_inurba_marseille","lat":43.299683,"lon":5.384934,"is_reserved":false,"is_disabled":false,"rental_uris":{"android":"levelo://app?vid=f44c85da-800c-451d-a604-ffff7f067da5","ios":"levelo://app?vid=f44c85da-800c-451d-a604-ffff7f067da5"},"vehicle_type_id":"4","last_reported":1761675360,"current_range_meters":4000,"station_id":"","pricing_plan_id":"cebpf4jnsgd1na2vs0mg"},{"bike_id":"de5cece4-6186-4ccb-b70e-a25e8bd3fc86","system_id":"levelo_inurba_marseille","lat":43.337444,"lon":5.374475,"is_reserved":false,"is_disabled":false,"rental_uris":{"android":"levelo://app?vid=de5cece4-6186-4ccb-b70e-a25e8bd3fc86","ios":"levelo://app?vid=de5cece4-6186-4ccb-b70e-a25e8bd3fc86"},"vehicle_type_id":"4","last_reported":1761675360,"current_range_meters":4000,"station_id":"","pricing_plan_id":"cebpf4jnsgd1na2vs0mg"},{"bike_id":"5aa78499-8a08-4970-af08-4326dc8ea971","system_id":"levelo_inurba_marseille","lat":43.29036,"lon":5.39972,"is_reserved":false,"is_disabled":false,"rental_uris":{"android":"levelo://app?vid=5aa78499-8a08-4970-af08-4326dc8ea971","ios":"levelo://app?vid=5aa78499-8a08-4970-af08-4326dc8ea971"},"vehicle_type_id":"4","last_reported":1761675360,"current_range_meters":4400,"station_id":"ce4bh392rcd13ifvqdm0","pricing_plan_id":"cebpf4jnsgd1na2vs0mg"},{"bike_id":"c1728c84-71cf-4a63-a1d0-ef30d2bfb996","system_id":"levelo_inurba_marseille","lat":43.29601,"lon":5.38099,"is_reserved":false,"is_disabled":false,"rental_uris":{"android":"levelo://app?vid=c1728c84-71cf-4a63-a1d0-ef30d2bfb996","ios":"levelo://app?vid=c1728c84-71cf-4a63-a1d0-ef30d2bfb996"},"vehicle_type_id":"4","last_reported":1761675360,"current_range_meters":4400,"station_id":"ce4bgl12rcd13ifvqbo0","pricing_plan_id":"cebpf4jnsgd1na2vs0mg"},{"bike_id":"84f3e4a8-172c-427e-9540-b7a26a0b763f","system_id":"levelo_inurba_marseille","lat":43.29965,"lon":5.38505,"is_reserved":false,"is_disabled":false,"rental_uris":{"android":"levelo://app?vid=84f3e4a8-172c-427e-9540-b7a26a0b763f","ios":"levelo://app?vid=84f3e4a8-172c-427e-9540-b7a26a0b763f"},"vehicle_type_id":"4","last_reported":1761675360,"current_range_meters":4400,"station_id":"ce4bgj92rcd13ifvqbd0","pricing_plan_id":"cebpf4jnsgd1na2vs0mg"},{"bike_id":"e4ccce50-4824-4895-aa8c-033835526f23","system_id":"levelo_inurba_marseille","lat":43.31874,"lon":5.39999,"is_reserved":false,"is_disabled":false,"rental_uris":{"android":"levelo://app?vid=e4ccce50-4824-4895-aa8c-033835526f23","ios":"levelo://app?vid=e4ccce50-4824-4895-aa8c-033835526f23"},"vehicle_type_id":"4","last_reported":1761675360,"current_range_meters":4400,"station_id":"","pricing_plan_id":"cebpf4jnsgd1na2vs0mg"},{"bike_id":"1e115b0a-1c8f-4974-8a03-1edcee913d93","system_id":"levelo_inurba_marseille","lat":43.31065,"lon":5.38366,"is_reserved":false,"is_disabled":false,"rental_uris":{"android":"levelo://app?vid=1e115b0a-1c8f-4974-8a03-1edcee913d93","ios":"levelo://app?vid=1e115b0a-1c8f-4974-8a03-1edcee913d93"},"vehicle_type_id":"4","last_reported":1761675360,"current_range_meters":4400,"station_id":"ce4bgv92rcd13ifvqcr0","pricing_plan_id":"cebpf4jnsgd1na2vs0mg"},{"bike_id":"1af9f137-34a0-458d-8370-f7dc0d02ca2a","system_id":"levelo_inurba_marseille","lat":43.27802,"lon":5.40741,"is_reserved":false,"is_disabled":false,"rental_uris":{"android":"levelo://app?vid=1af9f137-34a0-458d-8370-f7dc0d02ca2a","ios":"levelo://app?vid=1af9f137-34a0-458d-8370-f7dc0d02ca2a"},"vehicle_type_id":"4","last_reported":1761675360,"current_range_meters":4800,"station_id":"ce4bhnh2rcd13ifvqgtg","pricing_plan_id":"cebpf4jnsgd1na2vs0mg"},{"bike_id":"70f122f3-2606-4b65-95ab-a5bbd7aa9ad2","system_id":"levelo_inurba_marseille","lat":43.29257,"lon":5.40916,"is_reserved":false,"is_disabled":false,"rental_uris":{"android":"levelo://app?vid=70f122f3-2606-4b65-95ab-a5bbd7aa9ad2","ios":"levelo://app?vid=70f122f3-2606-4b65-95ab-a5bbd7aa9ad2"},"vehicle_type_id":"4","last_reported":1761675360,"current_range_meters":4800,"station_id":"ce4bh192rcd13ifvqdc0","pricing_plan_id":"cebpf4jnsgd1na2vs0mg"},{"bike_id":"db89d7d3-195a-4681-861b-514f5dfab54b","system_id":"levelo_inurba_marseille","lat":43.287109,"lon":5.373883,"is_reserved":false,"is_disabled":false,"rental_uris":{"android":"levelo://app?vid=db89d7d3-195a-4681-861b-514f5dfab54b","ios":"levelo://app?vid=db89d7d3-195a-4681-861b-514f5dfab54b"},"vehicle_type_id":"4","last_reported":1761675360,"current_range_meters":4800,"station_id":"ce4bh3p2rcd13ifvqdq0","pricing_plan_id":"cebpf4jnsgd1na2vs0mg"},{"bike_id":"3f7970de-111e-4874-aff2-52a7cbbf72dc","system_id":"levelo_inurba_marseille","lat":43.28849,"lon":5.3586,"is_reserved":false,"is_disabled":false,"rental_uris":{"android":"levelo://app?vid=3f7970de-111e-4874-aff2-52a7cbbf72dc","ios":"levelo://app?vid=3f7970de-111e-4874-aff2-52a7cbbf72dc"},"vehicle_type_id":"4","last_reported":1761675360,"current_range_meters":4800,"station_id":"ce4bhb12rcd13ifvqem0","pricing_plan_id":"cebpf4jnsgd1na2vs0mg"},{"bike_id":"ec75bae6-422e-4d1d-a8c5-cf23d17d8c07","system_id":"levelo_inurba_marseille","lat":43.29975,"lon":5.385,"is_reserved":false,"is_disabled":false,"rental_uris":{"android":"levelo://app?vid=ec75bae6-422e-4d1d-a8c5-cf23d17d8c07","ios":"levelo://app?vid=ec75bae6-422e-4d1d-a8c5-cf23d17d8c07"},"vehicle_type_id":"4","last_reported":1761675360,"current_range_meters":4800,"station_id":"ce4bgj92rcd13ifvqbd0","pricing_plan_id":"cebpf4jnsgd1na2vs0mg"},{"bike_id":"f3f87f04-e395-4539-a84e-a16ca37a8ad7","system_id":"levelo_inurba_marseille","lat":43.308127,"lon":5.401001,"is_reserved":false,"is_disabled":false,"rental_uris":{"android":"levelo://app?vid=f3f87f04-e395-4539-a84e-a16ca37a8ad7","ios":"levelo://app?vid=f3f87f04-e395-4539-a84e-a16ca37a8ad7"},"vehicle_type_id":"4","last_reported":1761675360,"current_range_meters":4800,"station_id":"ce4bgup2rcd13ifvqco0","pricing_plan_id":"cebpf4jnsgd1na2vs0mg"},{"bike_id":"cc9a7774-072a-4a46-be3a-e9857242ed03","system_id":"levelo_inurba_marseille","lat":43.30246,"lon":5.40052,"is_reserved":false,"is_disabled":false,"rental_uris":{"android":"levelo://app?vid=cc9a7774-072a-4a46-be3a-e9857242ed03","ios":"levelo://app?vid=cc9a7774-072a-4a46-be3a-e9857242ed03"},"vehicle_type_id":"4","last_reported":1761675360,"current_range_meters":5600,"station_id":"ce4bgvh2rcd13ifvqcs0","pricing_plan_id":"cebpf4jnsgd1na2vs0mg"},{"bike_id":"3f7c552a-2a9b-4bf8-95bd-507570380f71","system_id":"levelo_inurba_marseille","lat":43.28696,"lon":5.37937,"is_reserved":false,"is_disabled":false,"rental_uris":{"android":"levelo://app?vid=3f7c552a-2a9b-4bf8-95bd-507570380f71","ios":"levelo://app?vid=3f7c552a-2a9b-4bf8-95bd-507570380f71"},"vehicle_type_id":"4","last_reported":1761675360,"current_range_meters":5600,"station_id":"","pricing_plan_id":"cebpf4jnsgd1na2vs0mg"},{"bike_id":"062766cc-d070-4075-85d2-815d1bc3498d","system_id":"levelo_inurba_marseille","lat":43.30443,"lon":5.38921,"is_reserved":false,"is_disabled":false,"rental_uris":{"android":"levelo://app?vid=062766cc-d070-4075-85d2-815d1bc3498d","ios":"levelo://app?vid=062766cc-d070-4075-85d2-815d1bc3498d"},"vehicle_type_id":"4","last_reported":1761675360,"current_range_meters":5600,"station_id":"ce4bgk12rcd13ifvqbi0","pricing_plan_id":"cebpf4jnsgd1na2vs0mg"},{"bike_id":"c48dc094-4c25-4b99-9aa9-ff1b8c1db8dc","system_id":"levelo_inurba_marseille","lat":43.225322,"lon":5.348327,"is_reserved":false,"is_disabled":false,"rental_uris":{"android":"levelo://app?vid=c48dc094-4c25-4b99-9aa9-ff1b8c1db8dc","ios":"levelo://app?vid=c48dc094-4c25-4b99-9aa9-ff1b8c1db8dc"},"vehicle_type_id":"4","last_reported":1761675360,"current_range_meters":5600,"station_id":"","pricing_plan_id":"cebpf4jnsgd1na2vs0mg"},{"bike_id":"1b8b63ec-7548-4816-b198-44e2162337ac","system_id":"levelo_inurba_marseille","lat":43.30681,"lon":5.40096,"is_reserved":false,"is_disabled":true,"rental_uris":{"android":"levelo://app?vid=1b8b63ec-7548-4816-b198-44e2162337ac","ios":"levelo://app?vid=1b8b63ec-7548-4816-b198-44e2162337ac"},"vehicle_type_id":"4","last_reported":1761675360,"current_range_meters":5600,"station_id":"ce4bh112rcd13ifvqda0","pricing_plan_id":"cebpf4jnsgd1na2vs0mg"},{"bike_id":"b0f4919d-ab64-4629-8214-496b02018a07","system_id":"levelo_inurba_marseille","lat":43.30924,"lon":5.40144,"is_reserved":false,"is_disabled":false,"rental_uris":{"android":"levelo://app?vid=b0f4919d-ab64-4629-8214-496b02018a07","ios":"levelo://app?vid=b0f4919d-ab64-4629-8214-496b02018a07"},"vehicle_type_id":"4","last_reported":1761675360,"current_range_meters":5600,"station_id":"ce4bgvp2rcd13ifvqct0","pricing_plan_id":"cebpf4jnsgd1na2vs0mg"},{"bike_id":"4e28daa6-a65d-4100-beac-b73051d9da9d","system_id":"levelo_inurba_marseille","lat":43.295624,"lon":5.385689,"is_reserved":false,"is_disabled":false,"rental_uris":{"android":"levelo://app?vid=4e28daa6-a65d-4100-beac-b73051d9da9d","ios":"levelo://app?vid=4e28daa6-a65d-4100-beac-b73051d9da9d"},"vehicle_type_id":"4","last_reported":1761675360,"current_range_meters":5600,"station_id":"ce4bgih2rcd13ifvqba0","pricing_plan_id":"cebpf4jnsgd1na2vs0mg"},{"bike_id":"8e6d2e00-7d4a-4ee4-9817-a2bb08c3ad6a","system_id":"levelo_inurba_marseille","lat":43.29261,"lon":5.38443,"is_reserved":false,"is_disabled":false,"rental_uris":{"android":"levelo://app?vid=8e6d2e00-7d4a-4ee4-9817-a2bb08c3ad6a","ios":"levelo://app?vid=8e6d2e00-7d4a-4ee4-9817-a2bb08c3ad6a"},"vehicle_type_id":"4","last_reported":1761675360,"current_range_meters":5600,"station_id":"ce4bh692rcd13ifvqea0","pricing_plan_id":"cebpf4jnsgd1na2vs0mg"},{"bike_id":"cb35b0ab-d341-404c-8914-23bbeb855e1e","system_id":"levelo_inurba_marseille","lat":43.27999,"lon":5.41665,"is_reserved":false,"is_disabled":false,"rental_uris":{"android":"levelo://app?vid=cb35b0ab-d341-404c-8914-23bbeb855e1e","ios":"levelo://app?vid=cb35b0ab-d341-404c-8914-23bbeb855e1e"},"vehicle_type_id":"4","last_reported":1761675360,"current_range_meters":6000,"station_id":"ce4bho12rcd13ifvqh1g","pricing_plan_id":"cebpf4jnsgd1na2vs0mg"},{"bike_id":"94c9a43b-b7dc-4881-a564-0bcdec9dd42a","system_id":"levelo_inurba_marseille","lat":43.27945,"lon":5.41041,"is_reserved":false,"is_disabled":false,"rental_uris":{"android":"levelo://app?vid=94c9a43b-b7dc-4881-a564-0bcdec9dd42a","ios":"levelo://app?vid=94c9a43b-b7dc-4881-a564-0bcdec9dd42a"},"vehicle_type_id":"4","last_reported":1761675360,"current_range_meters":6000,"station_id":"ce4bhnp2rcd13ifvqh0g","pricing_plan_id":"cebpf4jnsgd1na2vs0mg"},{"bike_id":"d5032000-7098-4b73-8a73-34864b580277","system_id":"levelo_inurba_marseille","lat":43.29256,"lon":5.38445,"is_reserved":false,"is_disabled":false,"rental_uris":{"android":"levelo://app?vid=d5032000-7098-4b73-8a73-34864b580277","ios":"levelo://app?vid=d5032000-7098-4b73-8a73-34864b580277"},"vehicle_type_id":"4","last_reported":1761675360,"current_range_meters":6000,"station_id":"ce4bh692rcd13ifvqea0","pricing_plan_id":"cebpf4jnsgd1na2vs0mg"},{"bike_id":"d33a3e7a-3977-404d-97c8-3671481ed32b","system_id":"levelo_inurba_marseille","lat":43.29033,"lon":5.38649,"is_reserved":false,"is_disabled":false,"rental_uris":{"android":"levelo://app?vid=d33a3e7a-3977-404d-97c8-3671481ed32b","ios":"levelo://app?vid=d33a3e7a-3977-404d-97c8-3671481ed32b"},"vehicle_type_id":"4","last_reported":1761675360,"current_range_meters":6000,"station_id":"ce4bh4p2rcd13ifvqe0g","pricing_plan_id":"cebpf4jnsgd1na2vs0mg"},{"bike_id":"467aa7e5-4809-41ab-b8b2-17022e5b8834","system_id":"levelo_inurba_marseille","lat":43.279376,"lon":5.41047,"is_reserved":false,"is_disabled":false,"rental_uris":{"android":"levelo://app?vid=467aa7e5-4809-41ab-b8b2-17022e5b8834","ios":"levelo://app?vid=467aa7e5-4809-41ab-b8b2-17022e5b8834"},"vehicle_type_id":"4","last_reported":1761675360,"current_range_meters":6000,"station_id":"ce4bhnp2rcd13ifvqh0g","pricing_plan_id":"cebpf4jnsgd1na2vs0mg"},{"bike_id":"019f8763-46c9-4175-b065-52bcdf738b89","system_id":"levelo_inurba_marseille","lat":43.28927,"lon":5.36402,"is_reserved":false,"is_disabled":false,"rental_uris":{"android":"levelo://app?vid=019f8763-46c9-4175-b065-52bcdf738b89","ios":"levelo://app?vid=019f8763-46c9-4175-b065-52bcdf738b89"},"vehicle_type_id":"4","last_reported":1761675360,"current_range_meters":6000,"station_id":"ce4bhc92rcd13ifvqetg","pricing_plan_id":"cebpf4jnsgd1na2vs0mg"},{"bike_id":"38d8888b-d036-490a-9b81-444cd1cf73c2","system_id":"levelo_inurba_marseille","lat":43.30139,"lon":5.39859,"is_reserved":false,"is_disabled":false,"rental_uris":{"android":"levelo://app?vid=38d8888b-d036-490a-9b81-444cd1cf73c2","ios":"levelo://app?vid=38d8888b-d036-490a-9b81-444cd1cf73c2"},"vehicle_type_id":"4","last_reported":1761675360,"current_range_meters":6000,"station_id":"ce4bh0h2rcd13ifvqd40","pricing_plan_id":"cebpf4jnsgd1na2vs0mg"},{"bike_id":"2f22d606-7c25-430e-8b6f-03014ec1cf33","system_id":"levelo_inurba_marseille","lat":43.305251,"lon":5.391517,"is_reserved":false,"is_disabled":false,"rental_uris":{"android":"levelo://app?vid=2f22d606-7c25-430e-8b6f-03014ec1cf33","ios":"levelo://app?vid=2f22d606-7c25-430e-8b6f-03014ec1cf33"},"vehicle_type_id":"4","last_reported":1761675360,"current_range_meters":6000,"station_id":"ce4bh012rcd13ifvqcv0","pricing_plan_id":"cebpf4jnsgd1na2vs0mg"},{"bike_id":"53e8a7b3-8d90-49b0-a347-b6c9d39d23ea","system_id":"levelo_inurba_marseille","lat":43.2841,"lon":5.37521,"is_reserved":false,"is_disabled":false,"rental_uris":{"android":"levelo://app?vid=53e8a7b3-8d90-49b0-a347-b6c9d39d23ea","ios":"levelo://app?vid=53e8a7b3-8d90-49b0-a347-b6c9d39d23ea"},"vehicle_type_id":"4","last_reported":1761675360,"current_range_meters":6400,"station_id":"ce4bh412rcd13ifvqds0","pricing_plan_id":"cebpf4jnsgd1na2vs0mg"},{"bike_id":"df32b937-65a1-4812-b22f-354e54094c9e","system_id":"levelo_inurba_marseille","lat":43.31521,"lon":5.38038,"is_reserved":false,"is_disabled":false,"rental_uris":{"android":"levelo://app?vid=df32b937-65a1-4812-b22f-354e54094c9e","ios":"levelo://app?vid=df32b937-65a1-4812-b22f-354e54094c9e"},"vehicle_type_id":"4","last_reported":1761675360,"current_range_meters":6400,"station_id":"ce4bhsp2rcd13ifvqi50","pricing_plan_id":"cebpf4jnsgd1na2vs0mg"},{"bike_id":"c4a6a5ab-f472-4bff-80e2-092ca4fca1a0","system_id":"levelo_inurba_marseille","lat":43.29517,"lon":5.39043,"is_reserved":false,"is_disabled":true,"rental_uris":{"android":"levelo://app?vid=c4a6a5ab-f472-4bff-80e2-092ca4fca1a0","ios":"levelo://app?vid=c4a6a5ab-f472-4bff-80e2-092ca4fca1a0"},"vehicle_type_id":"4","last_reported":1761675360,"current_range_meters":6400,"station_id":"ce4bh3p2rcd13ifvqdp0","pricing_plan_id":"cebpf4jnsgd1na2vs0mg"},{"bike_id":"5d9560e2-125c-4403-be2a-1cf468628c74","system_id":"levelo_inurba_marseille","lat":43.30135,"lon":5.38785,"is_reserved":false,"is_disabled":false,"rental_uris":{"android":"levelo://app?vid=5d9560e2-125c-4403-be2a-1cf468628c74","ios":"levelo://app?vid=5d9560e2-125c-4403-be2a-1cf468628c74"},"vehicle_type_id":"4","last_reported":1761675360,"current_range_meters":6400,"station_id":"ce4bghh2rcd13ifvqb60","pricing_plan_id":"cebpf4jnsgd1na2vs0mg"},{"bike_id":"aba6b563-5093-4f2c-abdc-45b501f05388","system_id":"levelo_inurba_marseille","lat":43.27061,"lon":5.38297,"is_reserved":false,"is_disabled":true,"rental_uris":{"android":"levelo://app?vid=aba6b563-5093-4f2c-abdc-45b501f05388","ios":"levelo://app?vid=aba6b563-5093-4f2c-abdc-45b501f05388"},"vehicle_type_id":"4","last_reported":1761675360,"current_range_meters":6400,"station_id":"st_d3n2fo6cfp8s73cte1j0","pricing_plan_id":"cebpf4jnsgd1na2vs0mg"},{"bike_id":"89d74206-cf0b-4879-96b3-cff4ca86ea96","system_id":"levelo_inurba_marseille","lat":43.29517,"lon":5.39041,"is_reserved":false,"is_disabled":false,"rental_uris":{"android":"levelo://app?vid=89d74206-cf0b-4879-96b3-cff4ca86ea96","ios":"levelo://app?vid=89d74206-cf0b-4879-96b3-cff4ca86ea96"},"vehicle_type_id":"4","last_reported":1761675360,"current_range_meters":6400,"station_id":"ce4bh3p2rcd13ifvqdp0","pricing_plan_id":"cebpf4jnsgd1na2vs0mg"},{"bike_id":"104bfb82-2463-479d-bf2d-61023789c0fe","system_id":"levelo_inurba_marseille","lat":43.284621,"lon":5.358835,"is_reserved":false,"is_disabled":false,"rental_uris":{"android":"levelo://app?vid=104bfb82-2463-479d-bf2d-61023789c0fe","ios":"levelo://app?vid=104bfb82-2463-479d-bf2d-61023789c0fe"},"vehicle_type_id":"4","last_reported":1761675360,"current_range_meters":6400,"station_id":"ce4bghh2rcd13ifvqb60","pricing_plan_id":"cebpf4jnsgd1na2vs0mg"},{"bike_id":"bb64888c-4e9d-42ab-a140-e2dfb4e9bae9","system_id":"levelo_inurba_marseille","lat":43.299468,"lon":5.371947,"is_reserved":false,"is_disabled":false,"rental_uris":{"android":"levelo://app?vid=bb64888c-4e9d-42ab-a140-e2dfb4e9bae9","ios":"levelo://app?vid=bb64888c-4e9d-42ab-a140-e2dfb4e9bae9"},"vehicle_type_id":"4","last_reported":1761675360,"current_range_meters":6800,"station_id":"ce4bgr92rcd13ifvqc7g","pricing_plan_id":"cebpf4jnsgd1na2vs0mg"},{"bike_id":"5365bf1e-a509-4be8-9045-f7da9c3da202","system_id":"levelo_inurba_marseille","lat":43.2867,"lon":5.3867,"is_reserved":false,"is_disabled":false,"rental_uris":{"android":"levelo://app?vid=5365bf1e-a509-4be8-9045-f7da9c3da202","ios":"levelo://app?vid=5365bf1e-a509-4be8-9045-f7da9c3da202"},"vehicle_type_id":"4","last_reported":1761675360,"current_range_meters":6800,"station_id":"ce4bh492rcd13ifvqdug","pricing_plan_id":"cebpf4jnsgd1na2vs0mg"},{"bike_id":"d53f36cd-b27a-43d9-ac86-06cfed905945","system_id":"levelo_inurba_marseille","lat":43.3065,"lon":5.40083,"is_reserved":false,"is_disabled":false,"rental_uris":{"android":"levelo://app?vid=d53f36cd-b27a-43d9-ac86-06cfed905945","ios":"levelo://app?vid=d53f36cd-b27a-43d9-ac86-06cfed905945"},"vehicle_type_id":"4","last_reported":1761675360,"current_range_meters":6800,"station_id":"ce4bh112rcd13ifvqda0","pricing_plan_id":"cebpf4jnsgd1na2vs0mg"},{"bike_id":"cd3cde32-8a3e-41a1-ad26-9a3a18507d4f","system_id":"levelo_inurba_marseille","lat":43.28643,"lon":5.3869,"is_reserved":false,"is_disabled":false,"rental_uris":{"android":"levelo://app?vid=cd3cde32-8a3e-41a1-ad26-9a3a18507d4f","ios":"levelo://app?vid=cd3cde32-8a3e-41a1-ad26-9a3a18507d4f"},"vehicle_type_id":"4","last_reported":1761675360,"current_range_meters":6800,"station_id":"ce4bh492rcd13ifvqdug","pricing_plan_id":"cebpf4jnsgd1na2vs0mg"},{"bike_id":"6af779d0-9abd-4ba4-b342-f17d40dff091","system_id":"levelo_inurba_marseille","lat":43.272087,"lon":5.391731,"is_reserved":false,"is_disabled":false,"rental_uris":{"android":"levelo://app?vid=6af779d0-9abd-4ba4-b342-f17d40dff091","ios":"levelo://app?vid=6af779d0-9abd-4ba4-b342-f17d40dff091"},"vehicle_type_id":"4","last_reported":1761675360,"current_range_meters":6800,"station_id":"ce4bhhp2rcd13ifvqfm0","pricing_plan_id":"cebpf4jnsgd1na2vs0mg"},{"bike_id":"18619ea4-1d14-4ba8-9170-8189de5d4da4","system_id":"levelo_inurba_marseille","lat":43.29219,"lon":5.37736,"is_reserved":false,"is_disabled":false,"rental_uris":{"android":"levelo://app?vid=18619ea4-1d14-4ba8-9170-8189de5d4da4","ios":"levelo://app?vid=18619ea4-1d14-4ba8-9170-8189de5d4da4"},"vehicle_type_id":"4","last_reported":1761675360,"current_range_meters":6800,"station_id":"","pricing_plan_id":"cebpf4jnsgd1na2vs0mg"},{"bike_id":"dec891a9-556f-4383-9a6e-f419d69f44dc","system_id":"levelo_inurba_marseille","lat":43.299733,"lon":5.384837,"is_reserved":false,"is_disabled":false,"rental_uris":{"android":"levelo://app?vid=dec891a9-556f-4383-9a6e-f419d69f44dc","ios":"levelo://app?vid=dec891a9-556f-4383-9a6e-f419d69f44dc"},"vehicle_type_id":"4","last_reported":1761675360,"current_range_meters":6800,"station_id":"","pricing_plan_id":"cebpf4jnsgd1na2vs0mg"},{"bike_id":"e4285008-a726-48d9-8f1d-81fcfedc4dfa","system_id":"levelo_inurba_marseille","lat":43.301344,"lon":5.387959,"is_reserved":false,"is_disabled":false,"rental_uris":{"android":"levelo://app?vid=e4285008-a726-48d9-8f1d-81fcfedc4dfa","ios":"levelo://app?vid=e4285008-a726-48d9-8f1d-81fcfedc4dfa"},"vehicle_type_id":"4","last_reported":1761675360,"current_range_meters":7200,"station_id":"ce4bghh2rcd13ifvqb60","pricing_plan_id":"cebpf4jnsgd1na2vs0mg"},{"bike_id":"9e1174d0-a764-4a62-8946-37bc9925f8e1","system_id":"levelo_inurba_marseille","lat":43.29956,"lon":5.41319,"is_reserved":false,"is_disabled":false,"rental_uris":{"android":"levelo://app?vid=9e1174d0-a764-4a62-8946-37bc9925f8e1","ios":"levelo://app?vid=9e1174d0-a764-4a62-8946-37bc9925f8e1"},"vehicle_type_id":"4","last_reported":1761675360,"current_range_meters":7200,"station_id":"ce4bhp12rcd13ifvqh9g","pricing_plan_id":"cebpf4jnsgd1na2vs0mg"},{"bike_id":"3a591387-6da9-410a-aff6-f5a7de1ca55e","system_id":"levelo_inurba_marseille","lat":43.295277,"lon":5.38539,"is_reserved":false,"is_disabled":false,"rental_uris":{"android":"levelo://app?vid=3a591387-6da9-410a-aff6-f5a7de1ca55e","ios":"levelo://app?vid=3a591387-6da9-410a-aff6-f5a7de1ca55e"},"vehicle_type_id":"4","last_reported":1761675360,"current_range_meters":7200,"station_id":"ce4bgih2rcd13ifvqba0","pricing_plan_id":"cebpf4jnsgd1na2vs0mg"},{"bike_id":"dda7b71c-dcbd-4bfc-ae5e-d8372b69d564","system_id":"levelo_inurba_marseille","lat":43.2961,"lon":5.37711,"is_reserved":false,"is_disabled":true,"rental_uris":{"android":"levelo://app?vid=dda7b71c-dcbd-4bfc-ae5e-d8372b69d564","ios":"levelo://app?vid=dda7b71c-dcbd-4bfc-ae5e-d8372b69d564"},"vehicle_type_id":"4","last_reported":1761675360,"current_range_meters":7200,"station_id":"ce4bgi92rcd13ifvqb90","pricing_plan_id":"cebpf4jnsgd1na2vs0mg"},{"bike_id":"d6a95fea-2e7a-4ab8-92df-136f266b51d7","system_id":"levelo_inurba_marseille","lat":43.27069,"lon":5.42281,"is_reserved":false,"is_disabled":false,"rental_uris":{"android":"levelo://app?vid=d6a95fea-2e7a-4ab8-92df-136f266b51d7","ios":"levelo://app?vid=d6a95fea-2e7a-4ab8-92df-136f266b51d7"},"vehicle_type_id":"4","last_reported":1761675360,"current_range_meters":7200,"station_id":"ce4bhk92rcd13ifvqgb0","pricing_plan_id":"cebpf4jnsgd1na2vs0mg"},{"bike_id":"39768015-41b9-430d-9ac3-6307b00575e8","system_id":"levelo_inurba_marseille","lat":43.28344,"lon":5.38088,"is_reserved":false,"is_disabled":false,"rental_uris":{"android":"levelo://app?vid=39768015-41b9-430d-9ac3-6307b00575e8","ios":"levelo://app?vid=39768015-41b9-430d-9ac3-6307b00575e8"},"vehicle_type_id":"4","last_reported":1761675360,"current_range_meters":7200,"station_id":"ce4bh412rcd13ifvqdr0","pricing_plan_id":"cebpf4jnsgd1na2vs0mg"},{"bike_id":"33845059-42e0-41e8-9cab-638337c05c0a","system_id":"levelo_inurba_marseille","lat":43.294977,"lon":5.394092,"is_reserved":false,"is_disabled":false,"rental_uris":{"android":"levelo://app?vid=33845059-42e0-41e8-9cab-638337c05c0a","ios":"levelo://app?vid=33845059-42e0-41e8-9cab-638337c05c0a"},"vehicle_type_id":"4","last_reported":1761675360,"current_range_meters":7200,"station_id":"ce4bh292rcd13ifvqdf0","pricing_plan_id":"cebpf4jnsgd1na2vs0mg"},{"bike_id":"56c4d96c-b13b-4733-a704-dc1074ca7d41","system_id":"levelo_inurba_marseille","lat":43.30264,"lon":5.40085,"is_reserved":false,"is_disabled":false,"rental_uris":{"android":"levelo://app?vid=56c4d96c-b13b-4733-a704-dc1074ca7d41","ios":"levelo://app?vid=56c4d96c-b13b-4733-a704-dc1074ca7d41"},"vehicle_type_id":"4","last_reported":1761675360,"current_range_meters":7200,"station_id":"ce4bgvh2rcd13ifvqcs0","pricing_plan_id":"cebpf4jnsgd1na2vs0mg"},{"bike_id":"66b6e8bc-c430-4d9a-8cce-3b25c01e7005","system_id":"levelo_inurba_marseille","lat":43.24623,"lon":5.43148,"is_reserved":false,"is_disabled":false,"rental_uris":{"android":"levelo://app?vid=66b6e8bc-c430-4d9a-8cce-3b25c01e7005","ios":"levelo://app?vid=66b6e8bc-c430-4d9a-8cce-3b25c01e7005"},"vehicle_type_id":"4","last_reported":1761675360,"current_range_meters":7200,"station_id":"st_d2m6c4gdas8pm72e190g","pricing_plan_id":"cebpf4jnsgd1na2vs0mg"},{"bike_id":"13d1043b-24ed-4f5f-b2f6-b6e70f112158","system_id":"levelo_inurba_marseille","lat":43.29614,"lon":5.37729,"is_reserved":false,"is_disabled":false,"rental_uris":{"android":"levelo://app?vid=13d1043b-24ed-4f5f-b2f6-b6e70f112158","ios":"levelo://app?vid=13d1043b-24ed-4f5f-b2f6-b6e70f112158"},"vehicle_type_id":"4","last_reported":1761675360,"current_range_meters":7200,"station_id":"ce4bgi92rcd13ifvqb90","pricing_plan_id":"cebpf4jnsgd1na2vs0mg"},{"bike_id":"20a650cb-f075-420f-9a60-7b849e3fbf4c","system_id":"levelo_inurba_marseille","lat":43.24647,"lon":5.38894,"is_reserved":false,"is_disabled":false,"rental_uris":{"android":"levelo://app?vid=20a650cb-f075-420f-9a60-7b849e3fbf4c","ios":"levelo://app?vid=20a650cb-f075-420f-9a60-7b849e3fbf4c"},"vehicle_type_id":"4","last_reported":1761675360,"current_range_meters":7200,"station_id":"ce4bhg12rcd13ifvqf60","pricing_plan_id":"cebpf4jnsgd1na2vs0mg"},{"bike_id":"fd09dbe7-0bec-431b-9705-875a0c7a7829","system_id":"levelo_inurba_marseille","lat":43.23052,"lon":5.35495,"is_reserved":false,"is_disabled":true,"rental_uris":{"android":"levelo://app?vid=fd09dbe7-0bec-431b-9705-875a0c7a7829","ios":"levelo://app?vid=fd09dbe7-0bec-431b-9705-875a0c7a7829"},"vehicle_type_id":"4","last_reported":1761675360,"current_range_meters":8000,"station_id":"cpo3342slgdg3j2ifvpg","pricing_plan_id":"cebpf4jnsgd1na2vs0mg"},{"bike_id":"e1c0c575-b983-4b66-bfec-65fea5af2449","system_id":"levelo_inurba_marseille","lat":43.30143,"lon":5.39861,"is_reserved":false,"is_disabled":false,"rental_uris":{"android":"levelo://app?vid=e1c0c575-b983-4b66-bfec-65fea5af2449","ios":"levelo://app?vid=e1c0c575-b983-4b66-bfec-65fea5af2449"},"vehicle_type_id":"4","last_reported":1761675360,"current_range_meters":8000,"station_id":"ce4bh0h2rcd13ifvqd40","pricing_plan_id":"cebpf4jnsgd1na2vs0mg"},{"bike_id":"45d1b937-ba5d-4b03-bf91-90910ab6d9ec","system_id":"levelo_inurba_marseille","lat":43.24661,"lon":5.38167,"is_reserved":false,"is_disabled":false,"rental_uris":{"android":"levelo://app?vid=45d1b937-ba5d-4b03-bf91-90910ab6d9ec","ios":"levelo://app?vid=45d1b937-ba5d-4b03-bf91-90910ab6d9ec"},"vehicle_type_id":"4","last_reported":1761675360,"current_range_meters":8000,"station_id":"ce4bhih2rcd13ifvqfr0","pricing_plan_id":"cebpf4jnsgd1na2vs0mg"},{"bike_id":"eea3c3c3-734f-4fd3-8061-ed84cfe47b38","system_id":"levelo_inurba_marseille","lat":43.32562,"lon":5.39147,"is_reserved":false,"is_disabled":false,"rental_uris":{"android":"levelo://app?vid=eea3c3c3-734f-4fd3-8061-ed84cfe47b38","ios":"levelo://app?vid=eea3c3c3-734f-4fd3-8061-ed84cfe47b38"},"vehicle_type_id":"4","last_reported":1761675360,"current_range_meters":8000,"station_id":"","pricing_plan_id":"cebpf4jnsgd1na2vs0mg"},{"bike_id":"ee481740-1492-489d-a140-b93c62b22a16","system_id":"levelo_inurba_marseille","lat":43.23056,"lon":5.35488,"is_reserved":false,"is_disabled":false,"rental_uris":{"android":"levelo://app?vid=ee481740-1492-489d-a140-b93c62b22a16","ios":"levelo://app?vid=ee481740-1492-489d-a140-b93c62b22a16"},"vehicle_type_id":"4","last_reported":1761675360,"current_range_meters":8000,"station_id":"cpo3342slgdg3j2ifvpg","pricing_plan_id":"cebpf4jnsgd1na2vs0mg"},{"bike_id":"a0a76f76-926e-454d-87c4-edcf51a661b6","system_id":"levelo_inurba_marseille","lat":43.28546,"lon":5.44096,"is_reserved":false,"is_disabled":false,"rental_uris":{"android":"levelo://app?vid=a0a76f76-926e-454d-87c4-edcf51a661b6","ios":"levelo://app?vid=a0a76f76-926e-454d-87c4-edcf51a661b6"},"vehicle_type_id":"4","last_reported":1761675360,"current_range_meters":8000,"station_id":"st_d3j3df2ikq2c7380ej80","pricing_plan_id":"cebpf4jnsgd1na2vs0mg"},{"bike_id":"2b88709c-bab2-4822-b70e-c640720a7dd1","system_id":"levelo_inurba_marseille","lat":43.29314,"lon":5.371484,"is_reserved":false,"is_disabled":false,"rental_uris":{"android":"levelo://app?vid=2b88709c-bab2-4822-b70e-c640720a7dd1","ios":"levelo://app?vid=2b88709c-bab2-4822-b70e-c640720a7dd1"},"vehicle_type_id":"4","last_reported":1761675360,"current_range_meters":8000,"station_id":"ce4bgh92rcd13ifvqb40","pricing_plan_id":"cebpf4jnsgd1na2vs0mg"},{"bike_id":"c6404bd5-ad1f-42e5-ba85-6f1ec8eb693f","system_id":"levelo_inurba_marseille","lat":43.23184,"lon":5.39984,"is_reserved":false,"is_disabled":false,"rental_uris":{"android":"levelo://app?vid=c6404bd5-ad1f-42e5-ba85-6f1ec8eb693f","ios":"levelo://app?vid=c6404bd5-ad1f-42e5-ba85-6f1ec8eb693f"},"vehicle_type_id":"4","last_reported":1761675360,"current_range_meters":8000,"station_id":"ce4bhn12rcd13ifvqgqg","pricing_plan_id":"cebpf4jnsgd1na2vs0mg"},{"bike_id":"841254ee-1567-4a5c-95e4-102b95266e7c","system_id":"levelo_inurba_marseille","lat":43.281286,"lon":5.426477,"is_reserved":false,"is_disabled":false,"rental_uris":{"android":"levelo://app?vid=841254ee-1567-4a5c-95e4-102b95266e7c","ios":"levelo://app?vid=841254ee-1567-4a5c-95e4-102b95266e7c"},"vehicle_type_id":"4","last_reported":1761675360,"current_range_meters":8000,"station_id":"ce4bhnh2rcd13ifvqgug","pricing_plan_id":"cebpf4jnsgd1na2vs0mg"},{"bike_id":"51ac4272-a72b-4280-beb8-4bbdc59949da","system_id":"levelo_inurba_marseille","lat":43.29765,"lon":5.37114,"is_reserved":false,"is_disabled":false,"rental_uris":{"android":"levelo://app?vid=51ac4272-a72b-4280-beb8-4bbdc59949da","ios":"levelo://app?vid=51ac4272-a72b-4280-beb8-4bbdc59949da"},"vehicle_type_id":"4","last_reported":1761675360,"current_range_meters":8000,"station_id":"ce4bgop2rcd13ifvqc1g","pricing_plan_id":"cebpf4jnsgd1na2vs0mg"},{"bike_id":"7aeb52b8-bbd0-486c-bdda-3a0583784124","system_id":"levelo_inurba_marseille","lat":43.28839,"lon":5.39315,"is_reserved":false,"is_disabled":false,"rental_uris":{"android":"levelo://app?vid=7aeb52b8-bbd0-486c-bdda-3a0583784124","ios":"levelo://app?vid=7aeb52b8-bbd0-486c-bdda-3a0583784124"},"vehicle_type_id":"4","last_reported":1761675360,"current_range_meters":8000,"station_id":"ce4bh2p2rcd13ifvqdi0","pricing_plan_id":"cebpf4jnsgd1na2vs0mg"},{"bike_id":"6349bdbd-c661-4149-9eab-ffb846c22dc4","system_id":"levelo_inurba_marseille","lat":43.2866,"lon":5.38687,"is_reserved":false,"is_disabled":false,"rental_uris":{"android":"levelo://app?vid=6349bdbd-c661-4149-9eab-ffb846c22dc4","ios":"levelo://app?vid=6349bdbd-c661-4149-9eab-ffb846c22dc4"},"vehicle_type_id":"4","last_reported":1761675360,"current_range_meters":8400,"station_id":"ce4bh492rcd13ifvqdug","pricing_plan_id":"cebpf4jnsgd1na2vs0mg"},{"bike_id":"609a9047-57e2-4b1e-851d-8b6ef3587f94","system_id":"levelo_inurba_marseille","lat":43.28609,"lon":5.37058,"is_reserved":false,"is_disabled":false,"rental_uris":{"android":"levelo://app?vid=609a9047-57e2-4b1e-851d-8b6ef3587f94","ios":"levelo://app?vid=609a9047-57e2-4b1e-851d-8b6ef3587f94"},"vehicle_type_id":"4","last_reported":1761675360,"current_range_meters":8400,"station_id":"ce4bht12rcd13ifvqi60","pricing_plan_id":"cebpf4jnsgd1na2vs0mg"},{"bike_id":"94ab1d89-3cdf-4641-96eb-5d59090df0f8","system_id":"levelo_inurba_marseille","lat":43.29092,"lon":5.38139,"is_reserved":false,"is_disabled":false,"rental_uris":{"android":"levelo://app?vid=94ab1d89-3cdf-4641-96eb-5d59090df0f8","ios":"levelo://app?vid=94ab1d89-3cdf-4641-96eb-5d59090df0f8"},"vehicle_type_id":"4","last_reported":1761675360,"current_range_meters":8400,"station_id":"ce4bh512rcd13ifvqe2g","pricing_plan_id":"cebpf4jnsgd1na2vs0mg"},{"bike_id":"28f0469f-83a2-4147-a9cc-1b9d865ae19b","system_id":"levelo_inurba_marseille","lat":43.287351,"lon":5.379371,"is_reserved":false,"is_disabled":false,"rental_uris":{"android":"levelo://app?vid=28f0469f-83a2-4147-a9cc-1b9d865ae19b","ios":"levelo://app?vid=28f0469f-83a2-4147-a9cc-1b9d865ae19b"},"vehicle_type_id":"4","last_reported":1761675360,"current_range_meters":8400,"station_id":"ce4bh9p2rcd13ifvqec0","pricing_plan_id":"cebpf4jnsgd1na2vs0mg"},{"bike_id":"25f701b8-2971-4d85-bac1-6dca0fd482b0","system_id":"levelo_inurba_marseille","lat":43.29874,"lon":5.39733,"is_reserved":false,"is_disabled":false,"rental_uris":{"android":"levelo://app?vid=25f701b8-2971-4d85-bac1-6dca0fd482b0","ios":"levelo://app?vid=25f701b8-2971-4d85-bac1-6dca0fd482b0"},"vehicle_type_id":"4","last_reported":1761675360,"current_range_meters":8400,"station_id":"ce4bh0h2rcd13ifvqd50","pricing_plan_id":"cebpf4jnsgd1na2vs0mg"},{"bike_id":"91aee8ac-ed33-48f6-a5dc-e6e7c4ec6b61","system_id":"levelo_inurba_marseille","lat":43.29847,"lon":5.36286,"is_reserved":false,"is_disabled":false,"rental_uris":{"android":"levelo://app?vid=91aee8ac-ed33-48f6-a5dc-e6e7c4ec6b61","ios":"levelo://app?vid=91aee8ac-ed33-48f6-a5dc-e6e7c4ec6b61"},"vehicle_type_id":"4","last_reported":1761675360,"current_range_meters":8400,"station_id":"ce4bgpp2rcd13ifvqc3g","pricing_plan_id":"cebpf4jnsgd1na2vs0mg"},{"bike_id":"c8f51553-37e6-437f-ae47-3a6f0674c4b8","system_id":"levelo_inurba_marseille","lat":43.309234,"lon":5.401508,"is_reserved":false,"is_disabled":false,"rental_uris":{"android":"levelo://app?vid=c8f51553-37e6-437f-ae47-3a6f0674c4b8","ios":"levelo://app?vid=c8f51553-37e6-437f-ae47-3a6f0674c4b8"},"vehicle_type_id":"4","last_reported":1761675360,"current_range_meters":8800,"station_id":"ce4bgvp2rcd13ifvqct0","pricing_plan_id":"cebpf4jnsgd1na2vs0mg"},{"bike_id":"9eaad2d7-676f-4c42-aca8-b13b6a977d52","system_id":"levelo_inurba_marseille","lat":43.3067,"lon":5.40072,"is_reserved":false,"is_disabled":false,"rental_uris":{"android":"levelo://app?vid=9eaad2d7-676f-4c42-aca8-b13b6a977d52","ios":"levelo://app?vid=9eaad2d7-676f-4c42-aca8-b13b6a977d52"},"vehicle_type_id":"4","last_reported":1761675360,"current_range_meters":8800,"station_id":"ce4bh112rcd13ifvqda0","pricing_plan_id":"cebpf4jnsgd1na2vs0mg"},{"bike_id":"0dbafeed-1bd8-401f-9293-5f8d9a349cae","system_id":"levelo_inurba_marseille","lat":43.290133,"lon":5.381431,"is_reserved":false,"is_disabled":false,"rental_uris":{"android":"levelo://app?vid=0dbafeed-1bd8-401f-9293-5f8d9a349cae","ios":"levelo://app?vid=0dbafeed-1bd8-401f-9293-5f8d9a349cae"},"vehicle_type_id":"4","last_reported":1761675360,"current_range_meters":8800,"station_id":"ce4bh4p2rcd13ifvqe1g","pricing_plan_id":"cebpf4jnsgd1na2vs0mg"},{"bike_id":"2e06cfd7-52dc-4b3d-8741-6902cc19e888","system_id":"levelo_inurba_marseille","lat":43.29254,"lon":5.38444,"is_reserved":false,"is_disabled":false,"rental_uris":{"android":"levelo://app?vid=2e06cfd7-52dc-4b3d-8741-6902cc19e888","ios":"levelo://app?vid=2e06cfd7-52dc-4b3d-8741-6902cc19e888"},"vehicle_type_id":"4","last_reported":1761675360,"current_range_meters":8800,"station_id":"ce4bh692rcd13ifvqea0","pricing_plan_id":"cebpf4jnsgd1na2vs0mg"},{"bike_id":"208a1fa9-c371-4a9e-bc97-d54ccd03a0b4","system_id":"levelo_inurba_marseille","lat":43.33773,"lon":5.37478,"is_reserved":false,"is_disabled":false,"rental_uris":{"android":"levelo://app?vid=208a1fa9-c371-4a9e-bc97-d54ccd03a0b4","ios":"levelo://app?vid=208a1fa9-c371-4a9e-bc97-d54ccd03a0b4"},"vehicle_type_id":"4","last_reported":1761675360,"current_range_meters":8800,"station_id":"","pricing_plan_id":"cebpf4jnsgd1na2vs0mg"},{"bike_id":"cbeb12a1-2f8c-408f-b036-bfcf200371a9","system_id":"levelo_inurba_marseille","lat":43.27425,"lon":5.39418,"is_reserved":false,"is_disabled":false,"rental_uris":{"android":"levelo://app?vid=cbeb12a1-2f8c-408f-b036-bfcf200371a9","ios":"levelo://app?vid=cbeb12a1-2f8c-408f-b036-bfcf200371a9"},"vehicle_type_id":"4","last_reported":1761675360,"current_range_meters":8800,"station_id":"ce4bhdp2rcd13ifvqf20","pricing_plan_id":"cebpf4jnsgd1na2vs0mg"},{"bike_id":"ed107aa5-bcb3-4b77-aa27-ac96008e4c40","system_id":"levelo_inurba_marseille","lat":43.29592,"lon":5.38093,"is_reserved":false,"is_disabled":false,"rental_uris":{"android":"levelo://app?vid=ed107aa5-bcb3-4b77-aa27-ac96008e4c40","ios":"levelo://app?vid=ed107aa5-bcb3-4b77-aa27-ac96008e4c40"},"vehicle_type_id":"4","last_reported":1761675360,"current_range_meters":8800,"station_id":"ce4bgl12rcd13ifvqbo0","pricing_plan_id":"cebpf4jnsgd1na2vs0mg"},{"bike_id":"8d5f994b-c3c7-4d3a-a5f2-19a8daa75dbf","system_id":"levelo_inurba_marseille","lat":43.27827,"lon":5.40701,"is_reserved":false,"is_disabled":false,"rental_uris":{"android":"levelo://app?vid=8d5f994b-c3c7-4d3a-a5f2-19a8daa75dbf","ios":"levelo://app?vid=8d5f994b-c3c7-4d3a-a5f2-19a8daa75dbf"},"vehicle_type_id":"4","last_reported":1761675360,"current_range_meters":8800,"station_id":"ce4bhnh2rcd13ifvqgtg","pricing_plan_id":"cebpf4jnsgd1na2vs0mg"},{"bike_id":"7190a5c9-4b35-4ee2-808a-39e7fede7df3","system_id":"levelo_inurba_marseille","lat":43.27495,"lon":5.42451,"is_reserved":false,"is_disabled":false,"rental_uris":{"android":"levelo://app?vid=7190a5c9-4b35-4ee2-808a-39e7fede7df3","ios":"levelo://app?vid=7190a5c9-4b35-4ee2-808a-39e7fede7df3"},"vehicle_type_id":"4","last_reported":1761675360,"current_range_meters":8800,"station_id":"ce4bhn92rcd13ifvqgrg","pricing_plan_id":"cebpf4jnsgd1na2vs0mg"},{"bike_id":"abafdeef-8cda-46b6-a09b-e75bf023f789","system_id":"levelo_inurba_marseille","lat":43.29255,"lon":5.40911,"is_reserved":false,"is_disabled":false,"rental_uris":{"android":"levelo://app?vid=abafdeef-8cda-46b6-a09b-e75bf023f789","ios":"levelo://app?vid=abafdeef-8cda-46b6-a09b-e75bf023f789"},"vehicle_type_id":"4","last_reported":1761675360,"current_range_meters":8800,"station_id":"ce4bh192rcd13ifvqdc0","pricing_plan_id":"cebpf4jnsgd1na2vs0mg"},{"bike_id":"38525bd7-0784-454f-8908-c4e44ea0bdc5","system_id":"levelo_inurba_marseille","lat":43.28922,"lon":5.38397,"is_reserved":false,"is_disabled":false,"rental_uris":{"android":"levelo://app?vid=38525bd7-0784-454f-8908-c4e44ea0bdc5","ios":"levelo://app?vid=38525bd7-0784-454f-8908-c4e44ea0bdc5"},"vehicle_type_id":"4","last_reported":1761675360,"current_range_meters":8800,"station_id":"ce4bh612rcd13ifvqe6g","pricing_plan_id":"cebpf4jnsgd1na2vs0mg"},{"bike_id":"251ba673-6c40-4497-9858-df8951197393","system_id":"levelo_inurba_marseille","lat":43.29256,"lon":5.40909,"is_reserved":false,"is_disabled":false,"rental_uris":{"android":"levelo://app?vid=251ba673-6c40-4497-9858-df8951197393","ios":"levelo://app?vid=251ba673-6c40-4497-9858-df8951197393"},"vehicle_type_id":"4","last_reported":1761675360,"current_range_meters":8800,"station_id":"ce4bh192rcd13ifvqdc0","pricing_plan_id":"cebpf4jnsgd1na2vs0mg"},{"bike_id":"3540c216-2714-4036-ad54-e28339261291","system_id":"levelo_inurba_marseille","lat":43.29253,"lon":5.38449,"is_reserved":false,"is_disabled":false,"rental_uris":{"android":"levelo://app?vid=3540c216-2714-4036-ad54-e28339261291","ios":"levelo://app?vid=3540c216-2714-4036-ad54-e28339261291"},"vehicle_type_id":"4","last_reported":1761675360,"current_range_meters":9200,"station_id":"ce4bh692rcd13ifvqea0","pricing_plan_id":"cebpf4jnsgd1na2vs0mg"},{"bike_id":"287caf32-f1f1-48b0-9bf4-b5470eeffcae","system_id":"levelo_inurba_marseille","lat":43.27831,"lon":5.39211,"is_reserved":false,"is_disabled":false,"rental_uris":{"android":"levelo://app?vid=287caf32-f1f1-48b0-9bf4-b5470eeffcae","ios":"levelo://app?vid=287caf32-f1f1-48b0-9bf4-b5470eeffcae"},"vehicle_type_id":"4","last_reported":1761675360,"current_range_meters":9200,"station_id":"ce4bhjp2rcd13ifvqga0","pricing_plan_id":"cebpf4jnsgd1na2vs0mg"},{"bike_id":"1880ebb9-7edb-463e-976b-226e958b9ebe","system_id":"levelo_inurba_marseille","lat":43.31097,"lon":5.37487,"is_reserved":false,"is_disabled":false,"rental_uris":{"android":"levelo://app?vid=1880ebb9-7edb-463e-976b-226e958b9ebe","ios":"levelo://app?vid=1880ebb9-7edb-463e-976b-226e958b9ebe"},"vehicle_type_id":"4","last_reported":1761675360,"current_range_meters":9600,"station_id":"ce4bgt12rcd13ifvqce0","pricing_plan_id":"cebpf4jnsgd1na2vs0mg"},{"bike_id":"ff3ce436-1785-418e-8081-70fae0b4c310","system_id":"levelo_inurba_marseille","lat":43.27063,"lon":5.42279,"is_reserved":false,"is_disabled":false,"rental_uris":{"android":"levelo://app?vid=ff3ce436-1785-418e-8081-70fae0b4c310","ios":"levelo://app?vid=ff3ce436-1785-418e-8081-70fae0b4c310"},"vehicle_type_id":"4","last_reported":1761675360,"current_range_meters":9600,"station_id":"ce4bhk92rcd13ifvqgb0","pricing_plan_id":"cebpf4jnsgd1na2vs0mg"},{"bike_id":"ff72b89b-f85b-460f-8e0e-69815d158c6f","system_id":"levelo_inurba_marseille","lat":43.25821,"lon":5.39435,"is_reserved":false,"is_disabled":false,"rental_uris":{"android":"levelo://app?vid=ff72b89b-f85b-460f-8e0e-69815d158c6f","ios":"levelo://app?vid=ff72b89b-f85b-460f-8e0e-69815d158c6f"},"vehicle_type_id":"4","last_reported":1761675360,"current_range_meters":9600,"station_id":"ce4bhip2rcd13ifvqft0","pricing_plan_id":"cebpf4jnsgd1na2vs0mg"},{"bike_id":"f9484733-c07f-4293-8628-46871c65b913","system_id":"levelo_inurba_marseille","lat":43.25456,"lon":5.38104,"is_reserved":false,"is_disabled":false,"rental_uris":{"android":"levelo://app?vid=f9484733-c07f-4293-8628-46871c65b913","ios":"levelo://app?vid=f9484733-c07f-4293-8628-46871c65b913"},"vehicle_type_id":"4","last_reported":1761675360,"current_range_meters":9600,"station_id":"","pricing_plan_id":"cebpf4jnsgd1na2vs0mg"},{"bike_id":"6aea8849-7e01-4da5-ac51-a50a431efe95","system_id":"levelo_inurba_marseille","lat":43.29199,"lon":5.39311,"is_reserved":false,"is_disabled":false,"rental_uris":{"android":"levelo://app?vid=6aea8849-7e01-4da5-ac51-a50a431efe95","ios":"levelo://app?vid=6aea8849-7e01-4da5-ac51-a50a431efe95"},"vehicle_type_id":"4","last_reported":1761675360,"current_range_meters":9600,"station_id":"ce4bh192rcd13ifvqdd0","pricing_plan_id":"cebpf4jnsgd1na2vs0mg"},{"bike_id":"3b82aff6-7cb9-43aa-944c-0f02fe4ef9fa","system_id":"levelo_inurba_marseille","lat":43.27952,"lon":5.38717,"is_reserved":false,"is_disabled":true,"rental_uris":{"android":"levelo://app?vid=3b82aff6-7cb9-43aa-944c-0f02fe4ef9fa","ios":"levelo://app?vid=3b82aff6-7cb9-43aa-944c-0f02fe4ef9fa"},"vehicle_type_id":"4","last_reported":1761675360,"current_range_meters":9600,"station_id":"ce4bhg12rcd13ifvqf80","pricing_plan_id":"cebpf4jnsgd1na2vs0mg"},{"bike_id":"76e5559f-3075-44de-b410-d63522fe874e","system_id":"levelo_inurba_marseille","lat":43.286626,"lon":5.386674,"is_reserved":false,"is_disabled":false,"rental_uris":{"android":"levelo://app?vid=76e5559f-3075-44de-b410-d63522fe874e","ios":"levelo://app?vid=76e5559f-3075-44de-b410-d63522fe874e"},"vehicle_type_id":"4","last_reported":1761675360,"current_range_meters":9600,"station_id":"ce4bh492rcd13ifvqdug","pricing_plan_id":"cebpf4jnsgd1na2vs0mg"},{"bike_id":"77ff52c4-f895-40b1-834c-7087e2e6c3fb","system_id":"levelo_inurba_marseille","lat":43.270719,"lon":5.422805,"is_reserved":false,"is_disabled":false,"rental_uris":{"android":"levelo://app?vid=77ff52c4-f895-40b1-834c-7087e2e6c3fb","ios":"levelo://app?vid=77ff52c4-f895-40b1-834c-7087e2e6c3fb"},"vehicle_type_id":"4","last_reported":1761675360,"current_range_meters":9600,"station_id":"ce4bhk92rcd13ifvqgb0","pricing_plan_id":"cebpf4jnsgd1na2vs0mg"},{"bike_id":"4b362e1d-451a-4f97-b2f0-2662c5b1b4e0","system_id":"levelo_inurba_marseille","lat":43.29749,"lon":5.42776,"is_reserved":false,"is_disabled":false,"rental_uris":{"android":"levelo://app?vid=4b362e1d-451a-4f97-b2f0-2662c5b1b4e0","ios":"levelo://app?vid=4b362e1d-451a-4f97-b2f0-2662c5b1b4e0"},"vehicle_type_id":"4","last_reported":1761675360,"current_range_meters":10000,"station_id":"st_d3md5207bmas73dh9klg","pricing_plan_id":"cebpf4jnsgd1na2vs0mg"},{"bike_id":"dda7652b-3b1c-41c3-9c9a-0bd1480572f3","system_id":"levelo_inurba_marseille","lat":43.299,"lon":5.38915,"is_reserved":false,"is_disabled":false,"rental_uris":{"android":"levelo://app?vid=dda7652b-3b1c-41c3-9c9a-0bd1480572f3","ios":"levelo://app?vid=dda7652b-3b1c-41c3-9c9a-0bd1480572f3"},"vehicle_type_id":"4","last_reported":1761675360,"current_range_meters":10000,"station_id":"ce4bh392rcd13ifvqdl0","pricing_plan_id":"cebpf4jnsgd1na2vs0mg"},{"bike_id":"d667dab1-fe5c-4481-a98f-3a13bb36e687","system_id":"levelo_inurba_marseille","lat":43.29192,"lon":5.35801,"is_reserved":false,"is_disabled":false,"rental_uris":{"android":"levelo://app?vid=d667dab1-fe5c-4481-a98f-3a13bb36e687","ios":"levelo://app?vid=d667dab1-fe5c-4481-a98f-3a13bb36e687"},"vehicle_type_id":"4","last_reported":1761675360,"current_range_meters":10000,"station_id":"ce4bhb12rcd13ifvqel0","pricing_plan_id":"cebpf4jnsgd1na2vs0mg"},{"bike_id":"dbcbcef0-4b5f-446e-9d2e-80d991993c2b","system_id":"levelo_inurba_marseille","lat":43.29539,"lon":5.40229,"is_reserved":false,"is_disabled":false,"rental_uris":{"android":"levelo://app?vid=dbcbcef0-4b5f-446e-9d2e-80d991993c2b","ios":"levelo://app?vid=dbcbcef0-4b5f-446e-9d2e-80d991993c2b"},"vehicle_type_id":"4","last_reported":1761675360,"current_range_meters":10000,"station_id":"","pricing_plan_id":"cebpf4jnsgd1na2vs0mg"},{"bike_id":"77a6d8b7-e945-4b4c-9356-bd5efb34e703","system_id":"levelo_inurba_marseille","lat":43.30929,"lon":5.40158,"is_reserved":false,"is_disabled":false,"rental_uris":{"android":"levelo://app?vid=77a6d8b7-e945-4b4c-9356-bd5efb34e703","ios":"levelo://app?vid=77a6d8b7-e945-4b4c-9356-bd5efb34e703"},"vehicle_type_id":"4","last_reported":1761675360,"current_range_meters":10000,"station_id":"ce4bgvp2rcd13ifvqct0","pricing_plan_id":"cebpf4jnsgd1na2vs0mg"},{"bike_id":"97a31a90-5aec-4742-929e-de62da0db225","system_id":"levelo_inurba_marseille","lat":43.30649,"lon":5.40063,"is_reserved":false,"is_disabled":false,"rental_uris":{"android":"levelo://app?vid=97a31a90-5aec-4742-929e-de62da0db225","ios":"levelo://app?vid=97a31a90-5aec-4742-929e-de62da0db225"},"vehicle_type_id":"4","last_reported":1761675360,"current_range_meters":10000,"station_id":"ce4bh112rcd13ifvqda0","pricing_plan_id":"cebpf4jnsgd1na2vs0mg"},{"bike_id":"8fcf11ca-ce24-49d1-99ef-ad6962efcab9","system_id":"levelo_inurba_marseille","lat":43.31722,"lon":5.42396,"is_reserved":false,"is_disabled":false,"rental_uris":{"android":"levelo://app?vid=8fcf11ca-ce24-49d1-99ef-ad6962efcab9","ios":"levelo://app?vid=8fcf11ca-ce24-49d1-99ef-ad6962efcab9"},"vehicle_type_id":"4","last_reported":1761675360,"current_range_meters":10000,"station_id":"ce4bhp92rcd13ifvqhbg","pricing_plan_id":"cebpf4jnsgd1na2vs0mg"},{"bike_id":"50458368-3c2e-46e5-bc6a-25ba3116f6df","system_id":"levelo_inurba_marseille","lat":43.298072,"lon":5.440582,"is_reserved":false,"is_disabled":false,"rental_uris":{"android":"levelo://app?vid=50458368-3c2e-46e5-bc6a-25ba3116f6df","ios":"levelo://app?vid=50458368-3c2e-46e5-bc6a-25ba3116f6df"},"vehicle_type_id":"4","last_reported":1761675360,"current_range_meters":10800,"station_id":"st_d3jp68qikq2c7381ktn0","pricing_plan_id":"cebpf4jnsgd1na2vs0mg"},{"bike_id":"68782dba-0ff6-4045-8f19-8bde0de47e70","system_id":"levelo_inurba_marseille","lat":43.25114,"lon":5.40322,"is_reserved":false,"is_disabled":false,"rental_uris":{"android":"levelo://app?vid=68782dba-0ff6-4045-8f19-8bde0de47e70","ios":"levelo://app?vid=68782dba-0ff6-4045-8f19-8bde0de47e70"},"vehicle_type_id":"4","last_reported":1761675360,"current_range_meters":10800,"station_id":"ce4bhlh2rcd13ifvqgig","pricing_plan_id":"cebpf4jnsgd1na2vs0mg"},{"bike_id":"142bebf4-51bc-4f57-9cc1-4d34f7b1c3f8","system_id":"levelo_inurba_marseille","lat":43.33031,"lon":5.39096,"is_reserved":false,"is_disabled":false,"rental_uris":{"android":"levelo://app?vid=142bebf4-51bc-4f57-9cc1-4d34f7b1c3f8","ios":"levelo://app?vid=142bebf4-51bc-4f57-9cc1-4d34f7b1c3f8"},"vehicle_type_id":"4","last_reported":1761675360,"current_range_meters":10800,"station_id":"ce4bhr92rcd13ifvqhrg","pricing_plan_id":"cebpf4jnsgd1na2vs0mg"},{"bike_id":"03a2d6e9-8d0d-44f3-a31b-6f213015a184","system_id":"levelo_inurba_marseille","lat":43.29567,"lon":5.39976,"is_reserved":false,"is_disabled":false,"rental_uris":{"android":"levelo://app?vid=03a2d6e9-8d0d-44f3-a31b-6f213015a184","ios":"levelo://app?vid=03a2d6e9-8d0d-44f3-a31b-6f213015a184"},"vehicle_type_id":"4","last_reported":1761675360,"current_range_meters":10800,"station_id":"ce4bh312rcd13ifvqdj0","pricing_plan_id":"cebpf4jnsgd1na2vs0mg"},{"bike_id":"75a010c9-b233-4ec2-892d-b9e74d7a514b","system_id":"levelo_inurba_marseille","lat":43.32029,"lon":5.4155,"is_reserved":false,"is_disabled":false,"rental_uris":{"android":"levelo://app?vid=75a010c9-b233-4ec2-892d-b9e74d7a514b","ios":"levelo://app?vid=75a010c9-b233-4ec2-892d-b9e74d7a514b"},"vehicle_type_id":"4","last_reported":1761675360,"current_range_meters":10800,"station_id":"ce4bhq92rcd13ifvqhkg","pricing_plan_id":"cebpf4jnsgd1na2vs0mg"},{"bike_id":"65ff85e1-345c-43f0-86e0-d455962953dc","system_id":"levelo_inurba_marseille","lat":43.29527,"lon":5.38552,"is_reserved":false,"is_disabled":false,"rental_uris":{"android":"levelo://app?vid=65ff85e1-345c-43f0-86e0-d455962953dc","ios":"levelo://app?vid=65ff85e1-345c-43f0-86e0-d455962953dc"},"vehicle_type_id":"4","last_reported":1761675360,"current_range_meters":10800,"station_id":"ce4bgih2rcd13ifvqba0","pricing_plan_id":"cebpf4jnsgd1na2vs0mg"},{"bike_id":"a35244ce-a00e-42cc-8f96-50ceefbe6aff","system_id":"levelo_inurba_marseille","lat":43.30919,"lon":5.40159,"is_reserved":false,"is_disabled":false,"rental_uris":{"android":"levelo://app?vid=a35244ce-a00e-42cc-8f96-50ceefbe6aff","ios":"levelo://app?vid=a35244ce-a00e-42cc-8f96-50ceefbe6aff"},"vehicle_type_id":"4","last_reported":1761675360,"current_range_meters":10800,"station_id":"ce4bgvp2rcd13ifvqct0","pricing_plan_id":"cebpf4jnsgd1na2vs0mg"},{"bike_id":"822e0135-1e5f-4369-a383-fccf18146351","system_id":"levelo_inurba_marseille","lat":43.31325,"lon":5.39691,"is_reserved":false,"is_disabled":false,"rental_uris":{"android":"levelo://app?vid=822e0135-1e5f-4369-a383-fccf18146351","ios":"levelo://app?vid=822e0135-1e5f-4369-a383-fccf18146351"},"vehicle_type_id":"4","last_reported":1761675360,"current_range_meters":10800,"station_id":"ce4bgvp2rcd13ifvqcu0","pricing_plan_id":"cebpf4jnsgd1na2vs0mg"},{"bike_id":"66f7bd8c-1370-4eda-a320-7158d77c3c63","system_id":"levelo_inurba_marseille","lat":43.29446,"lon":5.39751,"is_reserved":false,"is_disabled":false,"rental_uris":{"android":"levelo://app?vid=66f7bd8c-1370-4eda-a320-7158d77c3c63","ios":"levelo://app?vid=66f7bd8c-1370-4eda-a320-7158d77c3c63"},"vehicle_type_id":"4","last_reported":1761675360,"current_range_meters":11200,"station_id":"ce4bh3h2rcd13ifvqdo0","pricing_plan_id":"cebpf4jnsgd1na2vs0mg"},{"bike_id":"d16a717f-a2ef-466b-b587-e27aa2adb774","system_id":"levelo_inurba_marseille","lat":43.31167,"lon":5.38719,"is_reserved":false,"is_disabled":false,"rental_uris":{"android":"levelo://app?vid=d16a717f-a2ef-466b-b587-e27aa2adb774","ios":"levelo://app?vid=d16a717f-a2ef-466b-b587-e27aa2adb774"},"vehicle_type_id":"4","last_reported":1761675360,"current_range_meters":11200,"station_id":"ce4bgv12rcd13ifvqcp0","pricing_plan_id":"cebpf4jnsgd1na2vs0mg"},{"bike_id":"6abb9e09-33f3-43f3-9417-8cc0cf0144f6","system_id":"levelo_inurba_marseille","lat":43.29919,"lon":5.3746,"is_reserved":false,"is_disabled":true,"rental_uris":{"android":"levelo://app?vid=6abb9e09-33f3-43f3-9417-8cc0cf0144f6","ios":"levelo://app?vid=6abb9e09-33f3-43f3-9417-8cc0cf0144f6"},"vehicle_type_id":"4","last_reported":1761675360,"current_range_meters":11200,"station_id":"ce4bgjh2rcd13ifvqbg0","pricing_plan_id":"cebpf4jnsgd1na2vs0mg"},{"bike_id":"6ffa1fa0-5b2e-4e10-b5e6-d0754a9a16fa","system_id":"levelo_inurba_marseille","lat":43.28702,"lon":5.36096,"is_reserved":false,"is_disabled":false,"rental_uris":{"android":"levelo://app?vid=6ffa1fa0-5b2e-4e10-b5e6-d0754a9a16fa","ios":"levelo://app?vid=6ffa1fa0-5b2e-4e10-b5e6-d0754a9a16fa"},"vehicle_type_id":"4","last_reported":1761675360,"current_range_meters":11200,"station_id":"cki0cbj6b192h4jlfktg","pricing_plan_id":"cebpf4jnsgd1na2vs0mg"},{"bike_id":"39367e89-2a8c-48f7-a1f6-afbd3c7b862c","system_id":"levelo_inurba_marseille","lat":43.27836,"lon":5.39205,"is_reserved":false,"is_disabled":false,"rental_uris":{"android":"levelo://app?vid=39367e89-2a8c-48f7-a1f6-afbd3c7b862c","ios":"levelo://app?vid=39367e89-2a8c-48f7-a1f6-afbd3c7b862c"},"vehicle_type_id":"4","last_reported":1761675360,"current_range_meters":11200,"station_id":"ce4bhjp2rcd13ifvqga0","pricing_plan_id":"cebpf4jnsgd1na2vs0mg"},{"bike_id":"cf53e33f-ae06-4ea6-bc69-05b5a409883e","system_id":"levelo_inurba_marseille","lat":43.288685,"lon":5.35847,"is_reserved":false,"is_disabled":false,"rental_uris":{"android":"levelo://app?vid=cf53e33f-ae06-4ea6-bc69-05b5a409883e","ios":"levelo://app?vid=cf53e33f-ae06-4ea6-bc69-05b5a409883e"},"vehicle_type_id":"4","last_reported":1761675360,"current_range_meters":11200,"station_id":"ce4bhb12rcd13ifvqem0","pricing_plan_id":"cebpf4jnsgd1na2vs0mg"},{"bike_id":"6bd17967-2021-4fe8-b8bc-802064b656cc","system_id":"levelo_inurba_marseille","lat":43.299092,"lon":5.381565,"is_reserved":false,"is_disabled":false,"rental_uris":{"android":"levelo://app?vid=6bd17967-2021-4fe8-b8bc-802064b656cc","ios":"levelo://app?vid=6bd17967-2021-4fe8-b8bc-802064b656cc"},"vehicle_type_id":"4","last_reported":1761675360,"current_range_meters":11600,"station_id":"ce4bgj12rcd13ifvqbc0","pricing_plan_id":"cebpf4jnsgd1na2vs0mg"},{"bike_id":"1d3b177f-b94c-4b69-b81b-06c3e31e4efc","system_id":"levelo_inurba_marseille","lat":43.30648,"lon":5.40086,"is_reserved":false,"is_disabled":false,"rental_uris":{"android":"levelo://app?vid=1d3b177f-b94c-4b69-b81b-06c3e31e4efc","ios":"levelo://app?vid=1d3b177f-b94c-4b69-b81b-06c3e31e4efc"},"vehicle_type_id":"4","last_reported":1761675360,"current_range_meters":11600,"station_id":"ce4bh112rcd13ifvqda0","pricing_plan_id":"cebpf4jnsgd1na2vs0mg"},{"bike_id":"29902583-9450-4aea-886e-f84d10138293","system_id":"levelo_inurba_marseille","lat":43.29984,"lon":5.38486,"is_reserved":false,"is_disabled":false,"rental_uris":{"android":"levelo://app?vid=29902583-9450-4aea-886e-f84d10138293","ios":"levelo://app?vid=29902583-9450-4aea-886e-f84d10138293"},"vehicle_type_id":"4","last_reported":1761675360,"current_range_meters":11600,"station_id":"ce4bgj92rcd13ifvqbd0","pricing_plan_id":"cebpf4jnsgd1na2vs0mg"},{"bike_id":"897d1025-cdde-48ec-9b73-6418bafdbbc5","system_id":"levelo_inurba_marseille","lat":43.28064,"lon":5.34762,"is_reserved":false,"is_disabled":false,"rental_uris":{"android":"levelo://app?vid=897d1025-cdde-48ec-9b73-6418bafdbbc5","ios":"levelo://app?vid=897d1025-cdde-48ec-9b73-6418bafdbbc5"},"vehicle_type_id":"4","last_reported":1761675360,"current_range_meters":11600,"station_id":"","pricing_plan_id":"cebpf4jnsgd1na2vs0mg"},{"bike_id":"e1ca1064-3ac1-495e-b8d2-df8047d11b2e","system_id":"levelo_inurba_marseille","lat":43.28492,"lon":5.48397,"is_reserved":false,"is_disabled":false,"rental_uris":{"android":"levelo://app?vid=e1ca1064-3ac1-495e-b8d2-df8047d11b2e","ios":"levelo://app?vid=e1ca1064-3ac1-495e-b8d2-df8047d11b2e"},"vehicle_type_id":"4","last_reported":1761675360,"current_range_meters":11600,"station_id":"st_d3svhcjqgbts73a3dn0g","pricing_plan_id":"cebpf4jnsgd1na2vs0mg"},{"bike_id":"4802e827-5d5e-4d4b-a7d0-3078a013f8f6","system_id":"levelo_inurba_marseille","lat":43.2951,"lon":5.39052,"is_reserved":false,"is_disabled":false,"rental_uris":{"android":"levelo://app?vid=4802e827-5d5e-4d4b-a7d0-3078a013f8f6","ios":"levelo://app?vid=4802e827-5d5e-4d4b-a7d0-3078a013f8f6"},"vehicle_type_id":"4","last_reported":1761675360,"current_range_meters":12000,"station_id":"ce4bh3p2rcd13ifvqdp0","pricing_plan_id":"cebpf4jnsgd1na2vs0mg"},{"bike_id":"bdef663f-09db-4874-bcba-510d82c05dff","system_id":"levelo_inurba_marseille","lat":43.293,"lon":5.37439,"is_reserved":false,"is_disabled":false,"rental_uris":{"android":"levelo://app?vid=bdef663f-09db-4874-bcba-510d82c05dff","ios":"levelo://app?vid=bdef663f-09db-4874-bcba-510d82c05dff"},"vehicle_type_id":"4","last_reported":1761675360,"current_range_meters":12000,"station_id":"ce4bgi12rcd13ifvqb70","pricing_plan_id":"cebpf4jnsgd1na2vs0mg"},{"bike_id":"dccef0b1-edb3-49b5-866c-43e10e5763cc","system_id":"levelo_inurba_marseille","lat":43.28802,"lon":5.43848,"is_reserved":false,"is_disabled":false,"rental_uris":{"android":"levelo://app?vid=dccef0b1-edb3-49b5-866c-43e10e5763cc","ios":"levelo://app?vid=dccef0b1-edb3-49b5-866c-43e10e5763cc"},"vehicle_type_id":"4","last_reported":1761675360,"current_range_meters":12000,"station_id":"","pricing_plan_id":"cebpf4jnsgd1na2vs0mg"},{"bike_id":"3690fbf3-7a51-48d7-8e62-462adcd8c849","system_id":"levelo_inurba_marseille","lat":43.30209,"lon":5.3946,"is_reserved":false,"is_disabled":false,"rental_uris":{"android":"levelo://app?vid=3690fbf3-7a51-48d7-8e62-462adcd8c849","ios":"levelo://app?vid=3690fbf3-7a51-48d7-8e62-462adcd8c849"},"vehicle_type_id":"4","last_reported":1761675360,"current_range_meters":12000,"station_id":"ce4bh0p2rcd13ifvqd70","pricing_plan_id":"cebpf4jnsgd1na2vs0mg"},{"bike_id":"40e52c33-4d92-4b05-9b87-a4a2799306a2","system_id":"levelo_inurba_marseille","lat":43.250934,"lon":5.39516,"is_reserved":false,"is_disabled":false,"rental_uris":{"android":"levelo://app?vid=40e52c33-4d92-4b05-9b87-a4a2799306a2","ios":"levelo://app?vid=40e52c33-4d92-4b05-9b87-a4a2799306a2"},"vehicle_type_id":"4","last_reported":1761675360,"current_range_meters":12000,"station_id":"","pricing_plan_id":"cebpf4jnsgd1na2vs0mg"},{"bike_id":"bfe48c56-ee45-4c38-a424-2d93e85389db","system_id":"levelo_inurba_marseille","lat":43.30412,"lon":5.41284,"is_reserved":false,"is_disabled":false,"rental_uris":{"android":"levelo://app?vid=bfe48c56-ee45-4c38-a424-2d93e85389db","ios":"levelo://app?vid=bfe48c56-ee45-4c38-a424-2d93e85389db"},"vehicle_type_id":"4","last_reported":1761675360,"current_range_meters":12000,"station_id":"ce4bhop2rcd13ifvqh8g","pricing_plan_id":"cebpf4jnsgd1na2vs0mg"},{"bike_id":"d5ca831f-8041-403e-ada8-7b4196c3d5be","system_id":"levelo_inurba_marseille","lat":43.293714,"lon":5.379385,"is_reserved":false,"is_disabled":false,"rental_uris":{"android":"levelo://app?vid=d5ca831f-8041-403e-ada8-7b4196c3d5be","ios":"levelo://app?vid=d5ca831f-8041-403e-ada8-7b4196c3d5be"},"vehicle_type_id":"4","last_reported":1761675360,"current_range_meters":12000,"station_id":"","pricing_plan_id":"cebpf4jnsgd1na2vs0mg"},{"bike_id":"62d4a5d2-c2c0-4150-a0f6-8ed40e3d9f1d","system_id":"levelo_inurba_marseille","lat":43.318811,"lon":5.407355,"is_reserved":false,"is_disabled":false,"rental_uris":{"android":"levelo://app?vid=62d4a5d2-c2c0-4150-a0f6-8ed40e3d9f1d","ios":"levelo://app?vid=62d4a5d2-c2c0-4150-a0f6-8ed40e3d9f1d"},"vehicle_type_id":"4","last_reported":1761675360,"current_range_meters":12000,"station_id":"ce4bhq12rcd13ifvqhig","pricing_plan_id":"cebpf4jnsgd1na2vs0mg"},{"bike_id":"d2ce14a1-e9f5-407b-a0c3-2e69d0a16a79","system_id":"levelo_inurba_marseille","lat":43.28215,"lon":5.39085,"is_reserved":false,"is_disabled":true,"rental_uris":{"android":"levelo://app?vid=d2ce14a1-e9f5-407b-a0c3-2e69d0a16a79","ios":"levelo://app?vid=d2ce14a1-e9f5-407b-a0c3-2e69d0a16a79"},"vehicle_type_id":"4","last_reported":1761675360,"current_range_meters":12400,"station_id":"ce4bhn92rcd13ifvqgsg","pricing_plan_id":"cebpf4jnsgd1na2vs0mg"},{"bike_id":"3a5fa061-2677-4afd-93d9-188630c74779","system_id":"levelo_inurba_marseille","lat":43.2926,"lon":5.38445,"is_reserved":false,"is_disabled":false,"rental_uris":{"android":"levelo://app?vid=3a5fa061-2677-4afd-93d9-188630c74779","ios":"levelo://app?vid=3a5fa061-2677-4afd-93d9-188630c74779"},"vehicle_type_id":"4","last_reported":1761675360,"current_range_meters":12400,"station_id":"ce4bh692rcd13ifvqea0","pricing_plan_id":"cebpf4jnsgd1na2vs0mg"},{"bike_id":"5dae57e2-b476-4f3b-801e-fed4e7b0c558","system_id":"levelo_inurba_marseille","lat":43.24402,"lon":5.37069,"is_reserved":false,"is_disabled":false,"rental_uris":{"android":"levelo://app?vid=5dae57e2-b476-4f3b-801e-fed4e7b0c558","ios":"levelo://app?vid=5dae57e2-b476-4f3b-801e-fed4e7b0c558"},"vehicle_type_id":"4","last_reported":1761675360,"current_range_meters":12400,"station_id":"ce4bhhh2rcd13ifvqfk0","pricing_plan_id":"cebpf4jnsgd1na2vs0mg"},{"bike_id":"f1b32764-5ab9-4e8e-a35a-116f87feb363","system_id":"levelo_inurba_marseille","lat":43.303193,"lon":5.404397,"is_reserved":false,"is_disabled":false,"rental_uris":{"android":"levelo://app?vid=f1b32764-5ab9-4e8e-a35a-116f87feb363","ios":"levelo://app?vid=f1b32764-5ab9-4e8e-a35a-116f87feb363"},"vehicle_type_id":"4","last_reported":1761675360,"current_range_meters":12400,"station_id":"ce4bh012rcd13ifvqd10","pricing_plan_id":"cebpf4jnsgd1na2vs0mg"},{"bike_id":"9642bd65-853c-43a7-8196-06ab60abfbf1","system_id":"levelo_inurba_marseille","lat":43.29576,"lon":5.36736,"is_reserved":false,"is_disabled":false,"rental_uris":{"android":"levelo://app?vid=9642bd65-853c-43a7-8196-06ab60abfbf1","ios":"levelo://app?vid=9642bd65-853c-43a7-8196-06ab60abfbf1"},"vehicle_type_id":"4","last_reported":1761675360,"current_range_meters":12400,"station_id":"ce4bgph2rcd13ifvqc2g","pricing_plan_id":"cebpf4jnsgd1na2vs0mg"},{"bike_id":"1975be38-f301-42ba-a022-50bba37a3dac","system_id":"levelo_inurba_marseille","lat":43.284149,"lon":5.375119,"is_reserved":false,"is_disabled":false,"rental_uris":{"android":"levelo://app?vid=1975be38-f301-42ba-a022-50bba37a3dac","ios":"levelo://app?vid=1975be38-f301-42ba-a022-50bba37a3dac"},"vehicle_type_id":"4","last_reported":1761675360,"current_range_meters":12400,"station_id":"ce4bh412rcd13ifvqds0","pricing_plan_id":"cebpf4jnsgd1na2vs0mg"},{"bike_id":"6d00c014-a77c-4726-8c0c-4256d866f2b6","system_id":"levelo_inurba_marseille","lat":43.24657,"lon":5.38161,"is_reserved":false,"is_disabled":false,"rental_uris":{"android":"levelo://app?vid=6d00c014-a77c-4726-8c0c-4256d866f2b6","ios":"levelo://app?vid=6d00c014-a77c-4726-8c0c-4256d866f2b6"},"vehicle_type_id":"4","last_reported":1761675360,"current_range_meters":12800,"station_id":"ce4bhih2rcd13ifvqfr0","pricing_plan_id":"cebpf4jnsgd1na2vs0mg"},{"bike_id":"6ffc91ae-0208-44d7-9cd6-1a3aca6748a5","system_id":"levelo_inurba_marseille","lat":43.288358,"lon":5.358711,"is_reserved":false,"is_disabled":false,"rental_uris":{"android":"levelo://app?vid=6ffc91ae-0208-44d7-9cd6-1a3aca6748a5","ios":"levelo://app?vid=6ffc91ae-0208-44d7-9cd6-1a3aca6748a5"},"vehicle_type_id":"4","last_reported":1761675360,"current_range_meters":12800,"station_id":"ce4bhb12rcd13ifvqem0","pricing_plan_id":"cebpf4jnsgd1na2vs0mg"},{"bike_id":"db88a8a5-5637-4384-a6d7-41d8f099747a","system_id":"levelo_inurba_marseille","lat":43.312379,"lon":5.368484,"is_reserved":false,"is_disabled":false,"rental_uris":{"android":"levelo://app?vid=db88a8a5-5637-4384-a6d7-41d8f099747a","ios":"levelo://app?vid=db88a8a5-5637-4384-a6d7-41d8f099747a"},"vehicle_type_id":"4","last_reported":1761675360,"current_range_meters":12800,"station_id":"ce4bgr92rcd13ifvqc6g","pricing_plan_id":"cebpf4jnsgd1na2vs0mg"},{"bike_id":"b48829b3-3391-4565-844a-f128f6964b7b","system_id":"levelo_inurba_marseille","lat":43.301392,"lon":5.387716,"is_reserved":false,"is_disabled":false,"rental_uris":{"android":"levelo://app?vid=b48829b3-3391-4565-844a-f128f6964b7b","ios":"levelo://app?vid=b48829b3-3391-4565-844a-f128f6964b7b"},"vehicle_type_id":"4","last_reported":1761675360,"current_range_meters":12800,"station_id":"ce4bghh2rcd13ifvqb60","pricing_plan_id":"cebpf4jnsgd1na2vs0mg"},{"bike_id":"08a0beac-adf8-43e3-bb69-80c73bb51866","system_id":"levelo_inurba_marseille","lat":43.289457,"lon":5.366333,"is_reserved":false,"is_disabled":false,"rental_uris":{"android":"levelo://app?vid=08a0beac-adf8-43e3-bb69-80c73bb51866","ios":"levelo://app?vid=08a0beac-adf8-43e3-bb69-80c73bb51866"},"vehicle_type_id":"4","last_reported":1761675360,"current_range_meters":12800,"station_id":"ce4bhap2rcd13ifvqek0","pricing_plan_id":"cebpf4jnsgd1na2vs0mg"},{"bike_id":"e68f19ec-6316-4a47-919b-a01164633315","system_id":"levelo_inurba_marseille","lat":43.25096,"lon":5.39523,"is_reserved":false,"is_disabled":true,"rental_uris":{"android":"levelo://app?vid=e68f19ec-6316-4a47-919b-a01164633315","ios":"levelo://app?vid=e68f19ec-6316-4a47-919b-a01164633315"},"vehicle_type_id":"4","last_reported":1761675360,"current_range_meters":12800,"station_id":"ce4bhm12rcd13ifvqgkg","pricing_plan_id":"cebpf4jnsgd1na2vs0mg"},{"bike_id":"9b7dad63-7e0d-43ff-98dd-76937d5167e6","system_id":"levelo_inurba_marseille","lat":43.298396,"lon":5.362626,"is_reserved":false,"is_disabled":false,"rental_uris":{"android":"levelo://app?vid=9b7dad63-7e0d-43ff-98dd-76937d5167e6","ios":"levelo://app?vid=9b7dad63-7e0d-43ff-98dd-76937d5167e6"},"vehicle_type_id":"4","last_reported":1761675360,"current_range_meters":12800,"station_id":"ce4bgpp2rcd13ifvqc3g","pricing_plan_id":"cebpf4jnsgd1na2vs0mg"},{"bike_id":"49ed0d39-51fe-4cd4-8527-50556baa8749","system_id":"levelo_inurba_marseille","lat":43.22531,"lon":5.348321,"is_reserved":false,"is_disabled":false,"rental_uris":{"android":"levelo://app?vid=49ed0d39-51fe-4cd4-8527-50556baa8749","ios":"levelo://app?vid=49ed0d39-51fe-4cd4-8527-50556baa8749"},"vehicle_type_id":"4","last_reported":1761675360,"current_range_meters":12800,"station_id":"","pricing_plan_id":"cebpf4jnsgd1na2vs0mg"},{"bike_id":"f68a18ee-6e48-48c5-9f27-936e422ff9c4","system_id":"levelo_inurba_marseille","lat":43.30732,"lon":5.42453,"is_reserved":false,"is_disabled":false,"rental_uris":{"android":"levelo://app?vid=f68a18ee-6e48-48c5-9f27-936e422ff9c4","ios":"levelo://app?vid=f68a18ee-6e48-48c5-9f27-936e422ff9c4"},"vehicle_type_id":"4","last_reported":1761675360,"current_range_meters":13600,"station_id":"st_cvj6ca6bvosntc0bfgr0","pricing_plan_id":"cebpf4jnsgd1na2vs0mg"},{"bike_id":"52bf1b00-9bc6-4974-bcbe-3de2e887d819","system_id":"levelo_inurba_marseille","lat":43.25337,"lon":5.42171,"is_reserved":false,"is_disabled":false,"rental_uris":{"android":"levelo://app?vid=52bf1b00-9bc6-4974-bcbe-3de2e887d819","ios":"levelo://app?vid=52bf1b00-9bc6-4974-bcbe-3de2e887d819"},"vehicle_type_id":"4","last_reported":1761675360,"current_range_meters":13600,"station_id":"st_d2m65c5bi1j21697t3ng","pricing_plan_id":"cebpf4jnsgd1na2vs0mg"},{"bike_id":"dced2bcc-e95f-44ce-b7d8-7bb47def612a","system_id":"levelo_inurba_marseille","lat":43.23063,"lon":5.35496,"is_reserved":false,"is_disabled":false,"rental_uris":{"android":"levelo://app?vid=dced2bcc-e95f-44ce-b7d8-7bb47def612a","ios":"levelo://app?vid=dced2bcc-e95f-44ce-b7d8-7bb47def612a"},"vehicle_type_id":"4","last_reported":1761675360,"current_range_meters":13600,"station_id":"cpo3342slgdg3j2ifvpg","pricing_plan_id":"cebpf4jnsgd1na2vs0mg"},{"bike_id":"e362f4ba-3ff5-409c-847f-dbee0482ec04","system_id":"levelo_inurba_marseille","lat":43.299883,"lon":5.371665,"is_reserved":false,"is_disabled":true,"rental_uris":{"android":"levelo://app?vid=e362f4ba-3ff5-409c-847f-dbee0482ec04","ios":"levelo://app?vid=e362f4ba-3ff5-409c-847f-dbee0482ec04"},"vehicle_type_id":"4","last_reported":1761675360,"current_range_meters":13600,"station_id":"ce4bgr92rcd13ifvqc7g","pricing_plan_id":"cebpf4jnsgd1na2vs0mg"},{"bike_id":"a6638b8e-59ab-4332-b921-51394022472c","system_id":"levelo_inurba_marseille","lat":43.303753,"lon":5.424861,"is_reserved":false,"is_disabled":false,"rental_uris":{"android":"levelo://app?vid=a6638b8e-59ab-4332-b921-51394022472c","ios":"levelo://app?vid=a6638b8e-59ab-4332-b921-51394022472c"},"vehicle_type_id":"4","last_reported":1761675360,"current_range_meters":14000,"station_id":"ce4bhoh2rcd13ifvqh6g","pricing_plan_id":"cebpf4jnsgd1na2vs0mg"},{"bike_id":"f202aef9-db9c-4b5f-b19b-62f40b9a9dba","system_id":"levelo_inurba_marseille","lat":43.2407,"lon":5.37756,"is_reserved":false,"is_disabled":false,"rental_uris":{"android":"levelo://app?vid=f202aef9-db9c-4b5f-b19b-62f40b9a9dba","ios":"levelo://app?vid=f202aef9-db9c-4b5f-b19b-62f40b9a9dba"},"vehicle_type_id":"4","last_reported":1761675360,"current_range_meters":14000,"station_id":"ce4bhnp2rcd13ifvqgvg","pricing_plan_id":"cebpf4jnsgd1na2vs0mg"},{"bike_id":"29255825-fa0b-4e9b-a0e8-63ac201f3a2a","system_id":"levelo_inurba_marseille","lat":43.30135,"lon":5.398724,"is_reserved":false,"is_disabled":false,"rental_uris":{"android":"levelo://app?vid=29255825-fa0b-4e9b-a0e8-63ac201f3a2a","ios":"levelo://app?vid=29255825-fa0b-4e9b-a0e8-63ac201f3a2a"},"vehicle_type_id":"4","last_reported":1761675360,"current_range_meters":14000,"station_id":"ce4bh0h2rcd13ifvqd40","pricing_plan_id":"cebpf4jnsgd1na2vs0mg"},{"bike_id":"8f944ffd-c292-4319-a984-89e4080491ae","system_id":"levelo_inurba_marseille","lat":43.28929,"lon":5.36398,"is_reserved":false,"is_disabled":false,"rental_uris":{"android":"levelo://app?vid=8f944ffd-c292-4319-a984-89e4080491ae","ios":"levelo://app?vid=8f944ffd-c292-4319-a984-89e4080491ae"},"vehicle_type_id":"4","last_reported":1761675360,"current_range_meters":14000,"station_id":"ce4bhc92rcd13ifvqetg","pricing_plan_id":"cebpf4jnsgd1na2vs0mg"},{"bike_id":"94e6b0aa-f8c9-477e-8091-c3a189e0f238","system_id":"levelo_inurba_marseille","lat":43.29687,"lon":5.38094,"is_reserved":false,"is_disabled":false,"rental_uris":{"android":"levelo://app?vid=94e6b0aa-f8c9-477e-8091-c3a189e0f238","ios":"levelo://app?vid=94e6b0aa-f8c9-477e-8091-c3a189e0f238"},"vehicle_type_id":"4","last_reported":1761675360,"current_range_meters":14400,"station_id":"","pricing_plan_id":"cebpf4jnsgd1na2vs0mg"},{"bike_id":"97bcee1d-f8ba-46e9-9de7-15ebd0cf1f75","system_id":"levelo_inurba_marseille","lat":43.25571,"lon":5.38262,"is_reserved":false,"is_disabled":false,"rental_uris":{"android":"levelo://app?vid=97bcee1d-f8ba-46e9-9de7-15ebd0cf1f75","ios":"levelo://app?vid=97bcee1d-f8ba-46e9-9de7-15ebd0cf1f75"},"vehicle_type_id":"4","last_reported":1761675360,"current_range_meters":14400,"station_id":"ce4bhih2rcd13ifvqfs0","pricing_plan_id":"cebpf4jnsgd1na2vs0mg"},{"bike_id":"d4a6eedb-255e-426c-b736-24d5529985de","system_id":"levelo_inurba_marseille","lat":43.26931,"lon":5.38915,"is_reserved":false,"is_disabled":false,"rental_uris":{"android":"levelo://app?vid=d4a6eedb-255e-426c-b736-24d5529985de","ios":"levelo://app?vid=d4a6eedb-255e-426c-b736-24d5529985de"},"vehicle_type_id":"4","last_reported":1761675360,"current_range_meters":14400,"station_id":"ce4bhhh2rcd13ifvqfl0","pricing_plan_id":"cebpf4jnsgd1na2vs0mg"},{"bike_id":"32d7653e-b033-4183-b4c0-f44169bb9067","system_id":"levelo_inurba_marseille","lat":43.327141,"lon":5.392212,"is_reserved":false,"is_disabled":false,"rental_uris":{"android":"levelo://app?vid=32d7653e-b033-4183-b4c0-f44169bb9067","ios":"levelo://app?vid=32d7653e-b033-4183-b4c0-f44169bb9067"},"vehicle_type_id":"4","last_reported":1761675360,"current_range_meters":14400,"station_id":"","pricing_plan_id":"cebpf4jnsgd1na2vs0mg"},{"bike_id":"2be3bf9b-39f4-4c37-8c01-9e9bcabe1c53","system_id":"levelo_inurba_marseille","lat":43.33741,"lon":5.37444,"is_reserved":false,"is_disabled":false,"rental_uris":{"android":"levelo://app?vid=2be3bf9b-39f4-4c37-8c01-9e9bcabe1c53","ios":"levelo://app?vid=2be3bf9b-39f4-4c37-8c01-9e9bcabe1c53"},"vehicle_type_id":"4","last_reported":1761675360,"current_range_meters":14400,"station_id":"","pricing_plan_id":"cebpf4jnsgd1na2vs0mg"},{"bike_id":"21e22530-6d97-4961-83bb-b9004448e9d2","system_id":"levelo_inurba_marseille","lat":43.31698,"lon":5.37719,"is_reserved":false,"is_disabled":false,"rental_uris":{"android":"levelo://app?vid=21e22530-6d97-4961-83bb-b9004448e9d2","ios":"levelo://app?vid=21e22530-6d97-4961-83bb-b9004448e9d2"},"vehicle_type_id":"4","last_reported":1761675360,"current_range_meters":14400,"station_id":"ce4bgth2rcd13ifvqch0","pricing_plan_id":"cebpf4jnsgd1na2vs0mg"},{"bike_id":"ce00e885-a781-4efe-acd7-bb2e5665d1e7","system_id":"levelo_inurba_marseille","lat":43.28409,"lon":5.37532,"is_reserved":false,"is_disabled":false,"rental_uris":{"android":"levelo://app?vid=ce00e885-a781-4efe-acd7-bb2e5665d1e7","ios":"levelo://app?vid=ce00e885-a781-4efe-acd7-bb2e5665d1e7"},"vehicle_type_id":"4","last_reported":1761675360,"current_range_meters":14800,"station_id":"ce4bh412rcd13ifvqds0","pricing_plan_id":"cebpf4jnsgd1na2vs0mg"},{"bike_id":"ae8ebe94-fc0f-4409-8f77-39eb5c613a67","system_id":"levelo_inurba_marseille","lat":43.337444,"lon":5.374475,"is_reserved":false,"is_disabled":false,"rental_uris":{"android":"levelo://app?vid=ae8ebe94-fc0f-4409-8f77-39eb5c613a67","ios":"levelo://app?vid=ae8ebe94-fc0f-4409-8f77-39eb5c613a67"},"vehicle_type_id":"4","last_reported":1761675360,"current_range_meters":14800,"station_id":"","pricing_plan_id":"cebpf4jnsgd1na2vs0mg"},{"bike_id":"d0ca2203-6378-4315-b02e-f5cc67204ac9","system_id":"levelo_inurba_marseille","lat":43.275703,"lon":5.384309,"is_reserved":false,"is_disabled":false,"rental_uris":{"android":"levelo://app?vid=d0ca2203-6378-4315-b02e-f5cc67204ac9","ios":"levelo://app?vid=d0ca2203-6378-4315-b02e-f5cc67204ac9"},"vehicle_type_id":"4","last_reported":1761675360,"current_range_meters":14800,"station_id":"ce4bhh92rcd13ifvqfi0","pricing_plan_id":"cebpf4jnsgd1na2vs0mg"},{"bike_id":"428b5760-f370-4832-ab8c-edaeacd9f1c2","system_id":"levelo_inurba_marseille","lat":43.30896,"lon":5.37182,"is_reserved":false,"is_disabled":false,"rental_uris":{"android":"levelo://app?vid=428b5760-f370-4832-ab8c-edaeacd9f1c2","ios":"levelo://app?vid=428b5760-f370-4832-ab8c-edaeacd9f1c2"},"vehicle_type_id":"4","last_reported":1761675360,"current_range_meters":14800,"station_id":"ce4bguh2rcd13ifvqckg","pricing_plan_id":"cebpf4jnsgd1na2vs0mg"},{"bike_id":"0c3db037-ece2-44e4-8a99-b9820c71b5d4","system_id":"levelo_inurba_marseille","lat":43.292902,"lon":5.379771,"is_reserved":false,"is_disabled":false,"rental_uris":{"android":"levelo://app?vid=0c3db037-ece2-44e4-8a99-b9820c71b5d4","ios":"levelo://app?vid=0c3db037-ece2-44e4-8a99-b9820c71b5d4"},"vehicle_type_id":"4","last_reported":1761675360,"current_range_meters":14800,"station_id":"ce4bgjh2rcd13ifvqbf0","pricing_plan_id":"cebpf4jnsgd1na2vs0mg"},{"bike_id":"dc8a8d4b-83f4-4d63-866c-c2f2de09dc22","system_id":"levelo_inurba_marseille","lat":43.24661,"lon":5.38165,"is_reserved":false,"is_disabled":false,"rental_uris":{"android":"levelo://app?vid=dc8a8d4b-83f4-4d63-866c-c2f2de09dc22","ios":"levelo://app?vid=dc8a8d4b-83f4-4d63-866c-c2f2de09dc22"},"vehicle_type_id":"4","last_reported":1761675360,"current_range_meters":14800,"station_id":"ce4bhih2rcd13ifvqfr0","pricing_plan_id":"cebpf4jnsgd1na2vs0mg"},{"bike_id":"62b5fb27-3cad-4cd0-90df-f9b430bde5ef","system_id":"levelo_inurba_marseille","lat":43.280365,"lon":5.369492,"is_reserved":false,"is_disabled":false,"rental_uris":{"android":"levelo://app?vid=62b5fb27-3cad-4cd0-90df-f9b430bde5ef","ios":"levelo://app?vid=62b5fb27-3cad-4cd0-90df-f9b430bde5ef"},"vehicle_type_id":"4","last_reported":1761675360,"current_range_meters":14800,"station_id":"ce4bha12rcd13ifvqef0","pricing_plan_id":"cebpf4jnsgd1na2vs0mg"},{"bike_id":"a4789786-f970-4b80-af54-2ad8711de780","system_id":"levelo_inurba_marseille","lat":43.29197,"lon":5.39317,"is_reserved":false,"is_disabled":false,"rental_uris":{"android":"levelo://app?vid=a4789786-f970-4b80-af54-2ad8711de780","ios":"levelo://app?vid=a4789786-f970-4b80-af54-2ad8711de780"},"vehicle_type_id":"4","last_reported":1761675360,"current_range_meters":15200,"station_id":"ce4bh192rcd13ifvqdd0","pricing_plan_id":"cebpf4jnsgd1na2vs0mg"},{"bike_id":"e1d22725-9c8c-4e83-a662-458ac8df0338","system_id":"levelo_inurba_marseille","lat":43.30644,"lon":5.40087,"is_reserved":false,"is_disabled":false,"rental_uris":{"android":"levelo://app?vid=e1d22725-9c8c-4e83-a662-458ac8df0338","ios":"levelo://app?vid=e1d22725-9c8c-4e83-a662-458ac8df0338"},"vehicle_type_id":"4","last_reported":1761675360,"current_range_meters":15200,"station_id":"ce4bh112rcd13ifvqda0","pricing_plan_id":"cebpf4jnsgd1na2vs0mg"},{"bike_id":"1e953b64-9cca-4062-9f54-1649622e8a5d","system_id":"levelo_inurba_marseille","lat":43.30125,"lon":5.3986,"is_reserved":false,"is_disabled":false,"rental_uris":{"android":"levelo://app?vid=1e953b64-9cca-4062-9f54-1649622e8a5d","ios":"levelo://app?vid=1e953b64-9cca-4062-9f54-1649622e8a5d"},"vehicle_type_id":"4","last_reported":1761675360,"current_range_meters":15200,"station_id":"ce4bh0h2rcd13ifvqd40","pricing_plan_id":"cebpf4jnsgd1na2vs0mg"},{"bike_id":"1e8da0da-fa39-4af8-8c7b-55cd3d16868e","system_id":"levelo_inurba_marseille","lat":43.27569,"lon":5.38427,"is_reserved":false,"is_disabled":false,"rental_uris":{"android":"levelo://app?vid=1e8da0da-fa39-4af8-8c7b-55cd3d16868e","ios":"levelo://app?vid=1e8da0da-fa39-4af8-8c7b-55cd3d16868e"},"vehicle_type_id":"4","last_reported":1761675360,"current_range_meters":16000,"station_id":"ce4bhh92rcd13ifvqfi0","pricing_plan_id":"cebpf4jnsgd1na2vs0mg"},{"bike_id":"aa0e7e4b-f890-4f53-a40a-615d9f77115a","system_id":"levelo_inurba_marseille","lat":43.32098,"lon":5.36796,"is_reserved":false,"is_disabled":false,"rental_uris":{"android":"levelo://app?vid=aa0e7e4b-f890-4f53-a40a-615d9f77115a","ios":"levelo://app?vid=aa0e7e4b-f890-4f53-a40a-615d9f77115a"},"vehicle_type_id":"4","last_reported":1761675360,"current_range_meters":16000,"station_id":"ce4bhrh2rcd13ifvqhug","pricing_plan_id":"cebpf4jnsgd1na2vs0mg"},{"bike_id":"1d734414-7078-483b-ad67-416ab778328e","system_id":"levelo_inurba_marseille","lat":43.29789,"lon":5.39354,"is_reserved":false,"is_disabled":false,"rental_uris":{"android":"levelo://app?vid=1d734414-7078-483b-ad67-416ab778328e","ios":"levelo://app?vid=1d734414-7078-483b-ad67-416ab778328e"},"vehicle_type_id":"4","last_reported":1761675360,"current_range_meters":16000,"station_id":"chh1huq6cuj3fo74tm60","pricing_plan_id":"cebpf4jnsgd1na2vs0mg"},{"bike_id":"d24a2c68-94c2-4577-88eb-bd161c9ebb38","system_id":"levelo_inurba_marseille","lat":43.225311,"lon":5.348358,"is_reserved":false,"is_disabled":false,"rental_uris":{"android":"levelo://app?vid=d24a2c68-94c2-4577-88eb-bd161c9ebb38","ios":"levelo://app?vid=d24a2c68-94c2-4577-88eb-bd161c9ebb38"},"vehicle_type_id":"4","last_reported":1761675360,"current_range_meters":16000,"station_id":"","pricing_plan_id":"cebpf4jnsgd1na2vs0mg"},{"bike_id":"02dd205b-e97c-4104-9683-066d2523fd3f","system_id":"levelo_inurba_marseille","lat":43.2306,"lon":5.355,"is_reserved":false,"is_disabled":false,"rental_uris":{"android":"levelo://app?vid=02dd205b-e97c-4104-9683-066d2523fd3f","ios":"levelo://app?vid=02dd205b-e97c-4104-9683-066d2523fd3f"},"vehicle_type_id":"4","last_reported":1761675360,"current_range_meters":16000,"station_id":"cpo3342slgdg3j2ifvpg","pricing_plan_id":"cebpf4jnsgd1na2vs0mg"},{"bike_id":"a2c44ae7-52cc-4b80-a772-211a26fa85b1","system_id":"levelo_inurba_marseille","lat":43.30168,"lon":5.36658,"is_reserved":false,"is_disabled":true,"rental_uris":{"android":"levelo://app?vid=a2c44ae7-52cc-4b80-a772-211a26fa85b1","ios":"levelo://app?vid=a2c44ae7-52cc-4b80-a772-211a26fa85b1"},"vehicle_type_id":"4","last_reported":1761675360,"current_range_meters":16400,"station_id":"ce4bgrh2rcd13ifvqc8g","pricing_plan_id":"cebpf4jnsgd1na2vs0mg"},{"bike_id":"65d27d5c-c7ca-4c04-a90c-499ec8525ef5","system_id":"levelo_inurba_marseille","lat":43.29528,"lon":5.38554,"is_reserved":false,"is_disabled":false,"rental_uris":{"android":"levelo://app?vid=65d27d5c-c7ca-4c04-a90c-499ec8525ef5","ios":"levelo://app?vid=65d27d5c-c7ca-4c04-a90c-499ec8525ef5"},"vehicle_type_id":"4","last_reported":1761675360,"current_range_meters":16400,"station_id":"ce4bgih2rcd13ifvqba0","pricing_plan_id":"cebpf4jnsgd1na2vs0mg"},{"bike_id":"7dadf09d-637b-4168-9565-faf64f3eb916","system_id":"levelo_inurba_marseille","lat":43.23155,"lon":5.43779,"is_reserved":false,"is_disabled":false,"rental_uris":{"android":"levelo://app?vid=7dadf09d-637b-4168-9565-faf64f3eb916","ios":"levelo://app?vid=7dadf09d-637b-4168-9565-faf64f3eb916"},"vehicle_type_id":"4","last_reported":1761675360,"current_range_meters":16400,"station_id":"","pricing_plan_id":"cebpf4jnsgd1na2vs0mg"},{"bike_id":"6aaba1cd-8f9d-4314-9dec-4c0e510c268d","system_id":"levelo_inurba_marseille","lat":43.275652,"lon":5.384271,"is_reserved":false,"is_disabled":false,"rental_uris":{"android":"levelo://app?vid=6aaba1cd-8f9d-4314-9dec-4c0e510c268d","ios":"levelo://app?vid=6aaba1cd-8f9d-4314-9dec-4c0e510c268d"},"vehicle_type_id":"4","last_reported":1761675360,"current_range_meters":16400,"station_id":"ce4bhh92rcd13ifvqfi0","pricing_plan_id":"cebpf4jnsgd1na2vs0mg"},{"bike_id":"b946c1a0-9905-4ad8-a0cd-946c1e97101d","system_id":"levelo_inurba_marseille","lat":43.27906,"lon":5.3958,"is_reserved":false,"is_disabled":false,"rental_uris":{"android":"levelo://app?vid=b946c1a0-9905-4ad8-a0cd-946c1e97101d","ios":"levelo://app?vid=b946c1a0-9905-4ad8-a0cd-946c1e97101d"},"vehicle_type_id":"4","last_reported":1761675360,"current_range_meters":16400,"station_id":"ce4bhf92rcd13ifvqf40","pricing_plan_id":"cebpf4jnsgd1na2vs0mg"},{"bike_id":"92c6c169-2035-4ba5-8daf-3ee009aac373","system_id":"levelo_inurba_marseille","lat":43.30313,"lon":5.40446,"is_reserved":false,"is_disabled":false,"rental_uris":{"android":"levelo://app?vid=92c6c169-2035-4ba5-8daf-3ee009aac373","ios":"levelo://app?vid=92c6c169-2035-4ba5-8daf-3ee009aac373"},"vehicle_type_id":"4","last_reported":1761675360,"current_range_meters":16400,"station_id":"ce4bh012rcd13ifvqd10","pricing_plan_id":"cebpf4jnsgd1na2vs0mg"},{"bike_id":"1865ef05-97c3-493c-a003-52c6cb9c10db","system_id":"levelo_inurba_marseille","lat":43.293,"lon":5.37458,"is_reserved":false,"is_disabled":false,"rental_uris":{"android":"levelo://app?vid=1865ef05-97c3-493c-a003-52c6cb9c10db","ios":"levelo://app?vid=1865ef05-97c3-493c-a003-52c6cb9c10db"},"vehicle_type_id":"4","last_reported":1761675360,"current_range_meters":16400,"station_id":"ce4bgi12rcd13ifvqb70","pricing_plan_id":"cebpf4jnsgd1na2vs0mg"},{"bike_id":"a0d0537c-eeeb-4dfe-9bfc-af1b0eec44f3","system_id":"levelo_inurba_marseille","lat":43.29896,"lon":5.38158,"is_reserved":false,"is_disabled":false,"rental_uris":{"android":"levelo://app?vid=a0d0537c-eeeb-4dfe-9bfc-af1b0eec44f3","ios":"levelo://app?vid=a0d0537c-eeeb-4dfe-9bfc-af1b0eec44f3"},"vehicle_type_id":"4","last_reported":1761675360,"current_range_meters":16400,"station_id":"ce4bgj12rcd13ifvqbc0","pricing_plan_id":"cebpf4jnsgd1na2vs0mg"},{"bike_id":"6c98db49-96bc-4ce1-997a-82bafc4a059b","system_id":"levelo_inurba_marseille","lat":43.299829,"lon":5.385043,"is_reserved":false,"is_disabled":false,"rental_uris":{"android":"levelo://app?vid=6c98db49-96bc-4ce1-997a-82bafc4a059b","ios":"levelo://app?vid=6c98db49-96bc-4ce1-997a-82bafc4a059b"},"vehicle_type_id":"4","last_reported":1761675360,"current_range_meters":16800,"station_id":"ce4bgj92rcd13ifvqbd0","pricing_plan_id":"cebpf4jnsgd1na2vs0mg"},{"bike_id":"d798dcd0-3180-4850-b8c7-5b89672ba022","system_id":"levelo_inurba_marseille","lat":43.29188,"lon":5.3932,"is_reserved":false,"is_disabled":false,"rental_uris":{"android":"levelo://app?vid=d798dcd0-3180-4850-b8c7-5b89672ba022","ios":"levelo://app?vid=d798dcd0-3180-4850-b8c7-5b89672ba022"},"vehicle_type_id":"4","last_reported":1761675360,"current_range_meters":16800,"station_id":"ce4bh192rcd13ifvqdd0","pricing_plan_id":"cebpf4jnsgd1na2vs0mg"},{"bike_id":"ac9edf3e-d981-4a30-9a51-700436b0aeda","system_id":"levelo_inurba_marseille","lat":43.301248,"lon":5.398529,"is_reserved":false,"is_disabled":false,"rental_uris":{"android":"levelo://app?vid=ac9edf3e-d981-4a30-9a51-700436b0aeda","ios":"levelo://app?vid=ac9edf3e-d981-4a30-9a51-700436b0aeda"},"vehicle_type_id":"4","last_reported":1761675360,"current_range_meters":16800,"station_id":"ce4bh0h2rcd13ifvqd40","pricing_plan_id":"cebpf4jnsgd1na2vs0mg"},{"bike_id":"1ff14011-1bb3-49a1-9941-97d38a0c81be","system_id":"levelo_inurba_marseille","lat":43.25091,"lon":5.39528,"is_reserved":false,"is_disabled":false,"rental_uris":{"android":"levelo://app?vid=1ff14011-1bb3-49a1-9941-97d38a0c81be","ios":"levelo://app?vid=1ff14011-1bb3-49a1-9941-97d38a0c81be"},"vehicle_type_id":"4","last_reported":1761675360,"current_range_meters":16800,"station_id":"ce4bhm12rcd13ifvqgkg","pricing_plan_id":"cebpf4jnsgd1na2vs0mg"},{"bike_id":"2f285ee4-0e57-4a4e-b38e-1795e09068f9","system_id":"levelo_inurba_marseille","lat":43.28935,"lon":5.36411,"is_reserved":false,"is_disabled":false,"rental_uris":{"android":"levelo://app?vid=2f285ee4-0e57-4a4e-b38e-1795e09068f9","ios":"levelo://app?vid=2f285ee4-0e57-4a4e-b38e-1795e09068f9"},"vehicle_type_id":"4","last_reported":1761675360,"current_range_meters":16800,"station_id":"ce4bhc92rcd13ifvqetg","pricing_plan_id":"cebpf4jnsgd1na2vs0mg"},{"bike_id":"025f0b58-2ca1-4f6f-a038-9584999cd0cc","system_id":"levelo_inurba_marseille","lat":43.29258,"lon":5.3845,"is_reserved":false,"is_disabled":false,"rental_uris":{"android":"levelo://app?vid=025f0b58-2ca1-4f6f-a038-9584999cd0cc","ios":"levelo://app?vid=025f0b58-2ca1-4f6f-a038-9584999cd0cc"},"vehicle_type_id":"4","last_reported":1761675360,"current_range_meters":16800,"station_id":"ce4bh692rcd13ifvqea0","pricing_plan_id":"cebpf4jnsgd1na2vs0mg"},{"bike_id":"b005496b-8a3b-4161-a576-546e38f71d30","system_id":"levelo_inurba_marseille","lat":43.29964,"lon":5.38499,"is_reserved":false,"is_disabled":false,"rental_uris":{"android":"levelo://app?vid=b005496b-8a3b-4161-a576-546e38f71d30","ios":"levelo://app?vid=b005496b-8a3b-4161-a576-546e38f71d30"},"vehicle_type_id":"4","last_reported":1761675360,"current_range_meters":16800,"station_id":"ce4bgj92rcd13ifvqbd0","pricing_plan_id":"cebpf4jnsgd1na2vs0mg"},{"bike_id":"82c3d2c8-f0bf-446e-b125-018f07998329","system_id":"levelo_inurba_marseille","lat":43.32734,"lon":5.40115,"is_reserved":false,"is_disabled":false,"rental_uris":{"android":"levelo://app?vid=82c3d2c8-f0bf-446e-b125-018f07998329","ios":"levelo://app?vid=82c3d2c8-f0bf-446e-b125-018f07998329"},"vehicle_type_id":"4","last_reported":1761675360,"current_range_meters":17200,"station_id":"","pricing_plan_id":"cebpf4jnsgd1na2vs0mg"},{"bike_id":"3f0f8ef9-c6de-40b9-81ea-f0cec46f3eb5","system_id":"levelo_inurba_marseille","lat":43.30652,"lon":5.40078,"is_reserved":false,"is_disabled":false,"rental_uris":{"android":"levelo://app?vid=3f0f8ef9-c6de-40b9-81ea-f0cec46f3eb5","ios":"levelo://app?vid=3f0f8ef9-c6de-40b9-81ea-f0cec46f3eb5"},"vehicle_type_id":"4","last_reported":1761675360,"current_range_meters":17200,"station_id":"ce4bh112rcd13ifvqda0","pricing_plan_id":"cebpf4jnsgd1na2vs0mg"},{"bike_id":"d9d1b4f1-902a-4b64-90ea-a69428b9fee5","system_id":"levelo_inurba_marseille","lat":43.29588,"lon":5.38096,"is_reserved":false,"is_disabled":false,"rental_uris":{"android":"levelo://app?vid=d9d1b4f1-902a-4b64-90ea-a69428b9fee5","ios":"levelo://app?vid=d9d1b4f1-902a-4b64-90ea-a69428b9fee5"},"vehicle_type_id":"4","last_reported":1761675360,"current_range_meters":17200,"station_id":"ce4bgl12rcd13ifvqbo0","pricing_plan_id":"cebpf4jnsgd1na2vs0mg"},{"bike_id":"dfd4c79e-3388-49b5-84b2-912c7d005892","system_id":"levelo_inurba_marseille","lat":43.28861,"lon":5.35865,"is_reserved":false,"is_disabled":false,"rental_uris":{"android":"levelo://app?vid=dfd4c79e-3388-49b5-84b2-912c7d005892","ios":"levelo://app?vid=dfd4c79e-3388-49b5-84b2-912c7d005892"},"vehicle_type_id":"4","last_reported":1761675360,"current_range_meters":17200,"station_id":"ce4bhb12rcd13ifvqem0","pricing_plan_id":"cebpf4jnsgd1na2vs0mg"},{"bike_id":"b7853e2d-9fd8-47b7-b418-f5a31a67b88f","system_id":"levelo_inurba_marseille","lat":43.295114,"lon":5.379263,"is_reserved":false,"is_disabled":false,"rental_uris":{"android":"levelo://app?vid=b7853e2d-9fd8-47b7-b418-f5a31a67b88f","ios":"levelo://app?vid=b7853e2d-9fd8-47b7-b418-f5a31a67b88f"},"vehicle_type_id":"4","last_reported":1761675360,"current_range_meters":17200,"station_id":"","pricing_plan_id":"cebpf4jnsgd1na2vs0mg"},{"bike_id":"e24d731b-c32a-455b-b794-f045c63c4d85","system_id":"levelo_inurba_marseille","lat":43.2481,"lon":5.37456,"is_reserved":false,"is_disabled":false,"rental_uris":{"android":"levelo://app?vid=e24d731b-c32a-455b-b794-f045c63c4d85","ios":"levelo://app?vid=e24d731b-c32a-455b-b794-f045c63c4d85"},"vehicle_type_id":"4","last_reported":1761675360,"current_range_meters":17200,"station_id":"ce4bhgh2rcd13ifvqfb0","pricing_plan_id":"cebpf4jnsgd1na2vs0mg"},{"bike_id":"eaa27f99-1b2b-451b-9b6e-d89600e0e460","system_id":"levelo_inurba_marseille","lat":43.29531,"lon":5.38555,"is_reserved":false,"is_disabled":false,"rental_uris":{"android":"levelo://app?vid=eaa27f99-1b2b-451b-9b6e-d89600e0e460","ios":"levelo://app?vid=eaa27f99-1b2b-451b-9b6e-d89600e0e460"},"vehicle_type_id":"4","last_reported":1761675360,"current_range_meters":17200,"station_id":"ce4bgih2rcd13ifvqba0","pricing_plan_id":"cebpf4jnsgd1na2vs0mg"},{"bike_id":"79291fa6-7eb4-4fdc-bcb4-f6d54d1fa287","system_id":"levelo_inurba_marseille","lat":43.29526,"lon":5.38543,"is_reserved":false,"is_disabled":false,"rental_uris":{"android":"levelo://app?vid=79291fa6-7eb4-4fdc-bcb4-f6d54d1fa287","ios":"levelo://app?vid=79291fa6-7eb4-4fdc-bcb4-f6d54d1fa287"},"vehicle_type_id":"4","last_reported":1761675360,"current_range_meters":17200,"station_id":"ce4bgih2rcd13ifvqba0","pricing_plan_id":"cebpf4jnsgd1na2vs0mg"},{"bike_id":"dfcc53da-eeb9-403f-b3bd-77fadc591c23","system_id":"levelo_inurba_marseille","lat":43.29516,"lon":5.39039,"is_reserved":false,"is_disabled":false,"rental_uris":{"android":"levelo://app?vid=dfcc53da-eeb9-403f-b3bd-77fadc591c23","ios":"levelo://app?vid=dfcc53da-eeb9-403f-b3bd-77fadc591c23"},