{"last_updated":1721156851,"ttl":30,"version":"2.2","data":{"bikes":[{"bike_id":"e5dad060-d9a9-48cd-b9d3-d3f2409ca036","system_id":"levelo_inurba_marseille","lat":43.31225,"lon":5.36851,"is_reserved":false,"is_disabled":false,"rental_uris":{"android":"levelo://app?vid=e5dad060-d9a9-48cd-b9d3-d3f2409ca036","ios":"levelo://app?vid=e5dad060-d9a9-48cd-b9d3-d3f2409ca036"},"vehicle_type_id":"4","last_reported":1721156851,"current_range_meters":3600,"station_id":"ce4bgl92rcd13ifvqbq0","pricing_plan_id":"cebpf4jnsgd1na2vs0mg"},{"bike_id":"09385ae9-9399-4f82-b63f-76ffd1956f6c","system_id":"levelo_inurba_marseille","lat":43.312239,"lon":5.368562,"is_reserved":false,"is_disabled":false,"rental_uris":{"android":"levelo://app?vid=09385ae9-9399-4f82-b63f-76ffd1956f6c","ios":"levelo://app?vid=09385ae9-9399-4f82-b63f-76ffd1956f6c"},"vehicle_type_id":"4","last_reported":1721156851,"current_range_meters":2800,"station_id":"ce4bgl92rcd13ifvqbq0","pricing_plan_id":"cebpf4jnsgd1na2vs0mg"},{"bike_id":"f4e9524c-9deb-44ba-9d5b-40f3afa98323","system_id":"levelo_inurba_marseille","lat":43.31225,"lon":5.36862,"is_reserved":false,"is_disabled":false,"rental_uris":{"android":"levelo://app?vid=f4e9524c-9deb-44ba-9d5b-40f3afa98323","ios":"levelo://app?vid=f4e9524c-9deb-44ba-9d5b-40f3afa98323"},"vehicle_type_id":"4","last_reported":1721156851,"current_range_meters":4800,"station_id":"ce4bgl92rcd13ifvqbq0","pricing_plan_id":"cebpf4jnsgd1na2vs0mg"},{"bike_id":"5391ef54-d268-427c-a157-71761be0a956","system_id":"levelo_inurba_marseille","lat":43.312239,"lon":5.368562,"is_reserved":false,"is_disabled":false,"rental_uris":{"android":"levelo://app?vid=5391ef54-d268-427c-a157-71761be0a956","ios":"levelo://app?vid=5391ef54-d268-427c-a157-71761be0a956"},"vehicle_type_id":"4","last_reported":1721156851,"current_range_meters":0,"station_id":"ce4bgl92rcd13ifvqbq0","pricing_plan_id":"cebpf4jnsgd1na2vs0mg"},{"bike_id":"bf52faa6-b937-4dd5-a784-17b7b2177e73","system_id":"levelo_inurba_marseille","lat":43.31219,"lon":5.36859,"is_reserved":false,"is_disabled":false,"rental_uris":{"android":"levelo://app?vid=bf52faa6-b937-4dd5-a784-17b7b2177e73","ios":"levelo://app?vid=bf52faa6-b937-4dd5-a784-17b7b2177e73"},"vehicle_type_id":"4","last_reported":1721156851,"current_range_meters":0,"station_id":"ce4bgl92rcd13ifvqbq0","pricing_plan_id":"cebpf4jnsgd1na2vs0mg"},{"bike_id":"29dab052-43ea-49ce-a62a-82ab32ac0205","system_id":"levelo_inurba_marseille","lat":43.31216,"lon":5.36864,"is_reserved":false,"is_disabled":false,"rental_uris":{"android":"levelo://app?vid=29dab052-43ea-49ce-a62a-82ab32ac0205","ios":"levelo://app?vid=29dab052-43ea-49ce-a62a-82ab32ac0205"},"vehicle_type_id":"4","last_reported":1721156851,"current_range_meters":0,"station_id":"ce4bgl92rcd13ifvqbq0","pricing_plan_id":"cebpf4jnsgd1na2vs0mg"},{"bike_id":"a28aafeb-3ac8-4ef9-883a-5f2c71c40b1d","system_id":"levelo_inurba_marseille","lat":43.309076,"lon":5.368465,"is_reserved":false,"is_disabled":false,"rental_uris":{"android":"levelo://app?vid=a28aafeb-3ac8-4ef9-883a-5f2c71c40b1d","ios":"levelo://app?vid=a28aafeb-3ac8-4ef9-883a-5f2c71c40b1d"},"vehicle_type_id":"4","last_reported":1721156851,"current_range_meters":26400,"station_id":"ce4bgn92rcd13ifvqbvg","pricing_plan_id":"cebpf4jnsgd1na2vs0mg"},{"bike_id":"246f6bd9-7340-4189-85f8-8368702a4280","system_id":"levelo_inurba_marseille","lat":43.309076,"lon":5.368465,"is_reserved":false,"is_disabled":false,"rental_uris":{"android":"levelo://app?vid=246f6bd9-7340-4189-85f8-8368702a4280","ios":"levelo://app?vid=246f6bd9-7340-4189-85f8-8368702a4280"},"vehicle_type_id":"4","last_reported":1721156851,"current_range_meters":30400,"station_id":"ce4bgn92rcd13ifvqbvg","pricing_plan_id":"cebpf4jnsgd1na2vs0mg"},{"bike_id":"25eaab3e-8c03-4367-a4ea-fbc3ec66b3d2","system_id":"levelo_inurba_marseille","lat":43.314811,"lon":5.373104,"is_reserved":false,"is_disabled":false,"rental_uris":{"android":"levelo://app?vid=25eaab3e-8c03-4367-a4ea-fbc3ec66b3d2","ios":"levelo://app?vid=25eaab3e-8c03-4367-a4ea-fbc3ec66b3d2"},"vehicle_type_id":"4","last_reported":1721156851,"current_range_meters":30000,"station_id":"ce4bgt12rcd13ifvqcd0","pricing_plan_id":"cebpf4jnsgd1na2vs0mg"},{"bike_id":"022df433-d85b-4b81-9dba-d098358038a8","system_id":"levelo_inurba_marseille","lat":43.309039,"lon":5.371797,"is_reserved":false,"is_disabled":false,"rental_uris":{"android":"levelo://app?vid=022df433-d85b-4b81-9dba-d098358038a8","ios":"levelo://app?vid=022df433-d85b-4b81-9dba-d098358038a8"},"vehicle_type_id":"4","last_reported":1721156851,"current_range_meters":30000,"station_id":"ce4bguh2rcd13ifvqckg","pricing_plan_id":"cebpf4jnsgd1na2vs0mg"},{"bike_id":"1c3293ce-ccd3-4c00-b219-dace0fd0acdd","system_id":"levelo_inurba_marseille","lat":43.309039,"lon":5.371797,"is_reserved":false,"is_disabled":false,"rental_uris":{"android":"levelo://app?vid=1c3293ce-ccd3-4c00-b219-dace0fd0acdd","ios":"levelo://app?vid=1c3293ce-ccd3-4c00-b219-dace0fd0acdd"},"vehicle_type_id":"4","last_reported":1721156851,"current_range_meters":2800,"station_id":"ce4bguh2rcd13ifvqckg","pricing_plan_id":"cebpf4jnsgd1na2vs0mg"},{"bike_id":"d028a4f9-4c7a-4b9e-bd78-b560e6027e32","system_id":"levelo_inurba_marseille","lat":43.314627,"lon":5.373827,"is_reserved":false,"is_disabled":false,"rental_uris":{"android":"levelo://app?vid=d028a4f9-4c7a-4b9e-bd78-b560e6027e32","ios":"levelo://app?vid=d028a4f9-4c7a-4b9e-bd78-b560e6027e32"},"vehicle_type_id":"4","last_reported":1721156851,"current_range_meters":18800,"station_id":"","pricing_plan_id":"cebpf4jnsgd1na2vs0mg"},{"bike_id":"2aeaaab9-ad82-417d-8e44-8375dffaf90a","system_id":"levelo_inurba_marseille","lat":43.30622,"lon":5.36725,"is_reserved":false,"is_disabled":false,"rental_uris":{"android":"levelo://app?vid=2aeaaab9-ad82-417d-8e44-8375dffaf90a","ios":"levelo://app?vid=2aeaaab9-ad82-417d-8e44-8375dffaf90a"},"vehicle_type_id":"4","last_reported":1721156851,"current_range_meters":31600,"station_id":"","pricing_plan_id":"cebpf4jnsgd1na2vs0mg"},{"bike_id":"524bb20a-bbde-4ec1-bc31-e936e13ea2ff","system_id":"levelo_inurba_marseille","lat":43.305712,"lon":5.365641,"is_reserved":false,"is_disabled":false,"rental_uris":{"android":"levelo://app?vid=524bb20a-bbde-4ec1-bc31-e936e13ea2ff","ios":"levelo://app?vid=524bb20a-bbde-4ec1-bc31-e936e13ea2ff"},"vehicle_type_id":"4","last_reported":1721156851,"current_range_meters":9600,"station_id":"ce4bgs12rcd13ifvqcag","pricing_plan_id":"cebpf4jnsgd1na2vs0mg"},{"bike_id":"f31d07b7-17b9-4132-aa0d-b592304733a3","system_id":"levelo_inurba_marseille","lat":43.30537,"lon":5.367345,"is_reserved":false,"is_disabled":false,"rental_uris":{"android":"levelo://app?vid=f31d07b7-17b9-4132-aa0d-b592304733a3","ios":"levelo://app?vid=f31d07b7-17b9-4132-aa0d-b592304733a3"},"vehicle_type_id":"4","last_reported":1721156851,"current_range_meters":9600,"station_id":"ce4bgrp2rcd13ifvqc9g","pricing_plan_id":"cebpf4jnsgd1na2vs0mg"},{"bike_id":"ff815bac-dbec-4a73-8ab5-b8d859c49559","system_id":"levelo_inurba_marseille","lat":43.30543,"lon":5.367,"is_reserved":false,"is_disabled":false,"rental_uris":{"android":"levelo://app?vid=ff815bac-dbec-4a73-8ab5-b8d859c49559","ios":"levelo://app?vid=ff815bac-dbec-4a73-8ab5-b8d859c49559"},"vehicle_type_id":"4","last_reported":1721156851,"current_range_meters":22800,"station_id":"ce4bgrp2rcd13ifvqc9g","pricing_plan_id":"cebpf4jnsgd1na2vs0mg"},{"bike_id":"86e82632-28ea-4281-816a-2c63bb6b5b14","system_id":"levelo_inurba_marseille","lat":43.30537,"lon":5.367345,"is_reserved":false,"is_disabled":false,"rental_uris":{"android":"levelo://app?vid=86e82632-28ea-4281-816a-2c63bb6b5b14","ios":"levelo://app?vid=86e82632-28ea-4281-816a-2c63bb6b5b14"},"vehicle_type_id":"4","last_reported":1721156851,"current_range_meters":23200,"station_id":"ce4bgrp2rcd13ifvqc9g","pricing_plan_id":"cebpf4jnsgd1na2vs0mg"},{"bike_id":"c9076d28-8359-4228-baaf-bb9fb8ec0893","system_id":"levelo_inurba_marseille","lat":43.30537,"lon":5.367345,"is_reserved":false,"is_disabled":false,"rental_uris":{"android":"levelo://app?vid=c9076d28-8359-4228-baaf-bb9fb8ec0893","ios":"levelo://app?vid=c9076d28-8359-4228-baaf-bb9fb8ec0893"},"vehicle_type_id":"4","last_reported":1721156851,"current_range_meters":17200,"station_id":"ce4bgrp2rcd13ifvqc9g","pricing_plan_id":"cebpf4jnsgd1na2vs0mg"},{"bike_id":"ace92ed4-c135-4584-8c87-2f84d0adbafc","system_id":"levelo_inurba_marseille","lat":43.305368,"lon":5.367343,"is_reserved":false,"is_disabled":false,"rental_uris":{"android":"levelo://app?vid=ace92ed4-c135-4584-8c87-2f84d0adbafc","ios":"levelo://app?vid=ace92ed4-c135-4584-8c87-2f84d0adbafc"},"vehicle_type_id":"4","last_reported":1721156851,"current_range_meters":13200,"station_id":"ce4bgrp2rcd13ifvqc9g","pricing_plan_id":"cebpf4jnsgd1na2vs0mg"},{"bike_id":"0eaf3c9b-1655-4f96-abea-f686077e4f21","system_id":"levelo_inurba_marseille","lat":43.305368,"lon":5.367343,"is_reserved":false,"is_disabled":false,"rental_uris":{"android":"levelo://app?vid=0eaf3c9b-1655-4f96-abea-f686077e4f21","ios":"levelo://app?vid=0eaf3c9b-1655-4f96-abea-f686077e4f21"},"vehicle_type_id":"4","last_reported":1721156851,"current_range_meters":14000,"station_id":"ce4bgrp2rcd13ifvqc9g","pricing_plan_id":"cebpf4jnsgd1na2vs0mg"},{"bike_id":"20364224-7f75-436a-b7b0-f2889f60745e","system_id":"levelo_inurba_marseille","lat":43.305706,"lon":5.365654,"is_reserved":false,"is_disabled":false,"rental_uris":{"android":"levelo://app?vid=20364224-7f75-436a-b7b0-f2889f60745e","ios":"levelo://app?vid=20364224-7f75-436a-b7b0-f2889f60745e"},"vehicle_type_id":"4","last_reported":1721156851,"current_range_meters":0,"station_id":"ce4bgs12rcd13ifvqcag","pricing_plan_id":"cebpf4jnsgd1na2vs0mg"},{"bike_id":"f0a1b968-0204-42cb-a16f-7cd7d9effa2f","system_id":"levelo_inurba_marseille","lat":43.305989,"lon":5.37225,"is_reserved":false,"is_disabled":false,"rental_uris":{"android":"levelo://app?vid=f0a1b968-0204-42cb-a16f-7cd7d9effa2f","ios":"levelo://app?vid=f0a1b968-0204-42cb-a16f-7cd7d9effa2f"},"vehicle_type_id":"4","last_reported":1721156851,"current_range_meters":9200,"station_id":"ce4bgqh2rcd13ifvqc4g","pricing_plan_id":"cebpf4jnsgd1na2vs0mg"},{"bike_id":"358df4bf-ae44-4354-8175-5ed1d98bb29b","system_id":"levelo_inurba_marseille","lat":43.31114,"lon":5.37766,"is_reserved":false,"is_disabled":false,"rental_uris":{"android":"levelo://app?vid=358df4bf-ae44-4354-8175-5ed1d98bb29b","ios":"levelo://app?vid=358df4bf-ae44-4354-8175-5ed1d98bb29b"},"vehicle_type_id":"4","last_reported":1721156851,"current_range_meters":0,"station_id":"ce4bgt92rcd13ifvqcg0","pricing_plan_id":"cebpf4jnsgd1na2vs0mg"},{"bike_id":"74e5e438-58ac-4187-a5d1-ebb88fad7272","system_id":"levelo_inurba_marseille","lat":43.311125,"lon":5.377624,"is_reserved":false,"is_disabled":false,"rental_uris":{"android":"levelo://app?vid=74e5e438-58ac-4187-a5d1-ebb88fad7272","ios":"levelo://app?vid=74e5e438-58ac-4187-a5d1-ebb88fad7272"},"vehicle_type_id":"4","last_reported":1721156851,"current_range_meters":4000,"station_id":"ce4bgt92rcd13ifvqcg0","pricing_plan_id":"cebpf4jnsgd1na2vs0mg"},{"bike_id":"2a118bd7-3c69-4ed6-a217-90ca9accbd43","system_id":"levelo_inurba_marseille","lat":43.311125,"lon":5.377624,"is_reserved":false,"is_disabled":false,"rental_uris":{"android":"levelo://app?vid=2a118bd7-3c69-4ed6-a217-90ca9accbd43","ios":"levelo://app?vid=2a118bd7-3c69-4ed6-a217-90ca9accbd43"},"vehicle_type_id":"4","last_reported":1721156851,"current_range_meters":9600,"station_id":"ce4bgt92rcd13ifvqcg0","pricing_plan_id":"cebpf4jnsgd1na2vs0mg"},{"bike_id":"d6603f47-cb7b-4945-9790-ea08bf2331d4","system_id":"levelo_inurba_marseille","lat":43.31712,"lon":5.37735,"is_reserved":false,"is_disabled":false,"rental_uris":{"android":"levelo://app?vid=d6603f47-cb7b-4945-9790-ea08bf2331d4","ios":"levelo://app?vid=d6603f47-cb7b-4945-9790-ea08bf2331d4"},"vehicle_type_id":"4","last_reported":1721156851,"current_range_meters":23600,"station_id":"ce4bgth2rcd13ifvqch0","pricing_plan_id":"cebpf4jnsgd1na2vs0mg"},{"bike_id":"a567eb7a-c623-4f36-b979-942163eceb7d","system_id":"levelo_inurba_marseille","lat":43.317075,"lon":5.377367,"is_reserved":false,"is_disabled":false,"rental_uris":{"android":"levelo://app?vid=a567eb7a-c623-4f36-b979-942163eceb7d","ios":"levelo://app?vid=a567eb7a-c623-4f36-b979-942163eceb7d"},"vehicle_type_id":"4","last_reported":1721156851,"current_range_meters":18000,"station_id":"ce4bgth2rcd13ifvqch0","pricing_plan_id":"cebpf4jnsgd1na2vs0mg"},{"bike_id":"289b7023-e878-4c95-9e1c-20c57f410bbb","system_id":"levelo_inurba_marseille","lat":43.315289,"lon":5.380349,"is_reserved":false,"is_disabled":false,"rental_uris":{"android":"levelo://app?vid=289b7023-e878-4c95-9e1c-20c57f410bbb","ios":"levelo://app?vid=289b7023-e878-4c95-9e1c-20c57f410bbb"},"vehicle_type_id":"4","last_reported":1721156851,"current_range_meters":4000,"station_id":"ce4bhsp2rcd13ifvqi50","pricing_plan_id":"cebpf4jnsgd1na2vs0mg"},{"bike_id":"d89e05d4-1ec6-48f1-948b-bbca82680765","system_id":"levelo_inurba_marseille","lat":43.30911,"lon":5.38032,"is_reserved":false,"is_disabled":false,"rental_uris":{"android":"levelo://app?vid=d89e05d4-1ec6-48f1-948b-bbca82680765","ios":"levelo://app?vid=d89e05d4-1ec6-48f1-948b-bbca82680765"},"vehicle_type_id":"4","last_reported":1721156851,"current_range_meters":4000,"station_id":"","pricing_plan_id":"cebpf4jnsgd1na2vs0mg"},{"bike_id":"05f45271-1c50-4e06-ba58-34aa74e5c754","system_id":"levelo_inurba_marseille","lat":43.301939,"lon":5.366286,"is_reserved":false,"is_disabled":false,"rental_uris":{"android":"levelo://app?vid=05f45271-1c50-4e06-ba58-34aa74e5c754","ios":"levelo://app?vid=05f45271-1c50-4e06-ba58-34aa74e5c754"},"vehicle_type_id":"4","last_reported":1721156851,"current_range_meters":5600,"station_id":"ce4bgrh2rcd13ifvqc8g","pricing_plan_id":"cebpf4jnsgd1na2vs0mg"},{"bike_id":"772f0b7a-e20b-4c6b-80fd-36fee9dc8414","system_id":"levelo_inurba_marseille","lat":43.301939,"lon":5.366286,"is_reserved":false,"is_disabled":false,"rental_uris":{"android":"levelo://app?vid=772f0b7a-e20b-4c6b-80fd-36fee9dc8414","ios":"levelo://app?vid=772f0b7a-e20b-4c6b-80fd-36fee9dc8414"},"vehicle_type_id":"4","last_reported":1721156851,"current_range_meters":30000,"station_id":"ce4bgrh2rcd13ifvqc8g","pricing_plan_id":"cebpf4jnsgd1na2vs0mg"},{"bike_id":"5914690d-1e65-4c69-8e8c-06b2ab8a9dc5","system_id":"levelo_inurba_marseille","lat":43.301939,"lon":5.366286,"is_reserved":false,"is_disabled":false,"rental_uris":{"android":"levelo://app?vid=5914690d-1e65-4c69-8e8c-06b2ab8a9dc5","ios":"levelo://app?vid=5914690d-1e65-4c69-8e8c-06b2ab8a9dc5"},"vehicle_type_id":"4","last_reported":1721156851,"current_range_meters":27600,"station_id":"ce4bgrh2rcd13ifvqc8g","pricing_plan_id":"cebpf4jnsgd1na2vs0mg"},{"bike_id":"164c1cef-0eb6-4d52-bb88-fbe9ce0ab3d8","system_id":"levelo_inurba_marseille","lat":43.324771,"lon":5.36557,"is_reserved":false,"is_disabled":false,"rental_uris":{"android":"levelo://app?vid=164c1cef-0eb6-4d52-bb88-fbe9ce0ab3d8","ios":"levelo://app?vid=164c1cef-0eb6-4d52-bb88-fbe9ce0ab3d8"},"vehicle_type_id":"4","last_reported":1721156851,"current_range_meters":28400,"station_id":"ce4bhs12rcd13ifvqhvg","pricing_plan_id":"cebpf4jnsgd1na2vs0mg"},{"bike_id":"a9bd770c-f7c2-4e42-b207-9afc1dc1cbbd","system_id":"levelo_inurba_marseille","lat":43.324771,"lon":5.36557,"is_reserved":false,"is_disabled":false,"rental_uris":{"android":"levelo://app?vid=a9bd770c-f7c2-4e42-b207-9afc1dc1cbbd","ios":"levelo://app?vid=a9bd770c-f7c2-4e42-b207-9afc1dc1cbbd"},"vehicle_type_id":"4","last_reported":1721156851,"current_range_meters":6400,"station_id":"ce4bhs12rcd13ifvqhvg","pricing_plan_id":"cebpf4jnsgd1na2vs0mg"},{"bike_id":"e6f01fc3-90c0-4a40-b15f-9509de2e5d81","system_id":"levelo_inurba_marseille","lat":43.324771,"lon":5.36557,"is_reserved":false,"is_disabled":false,"rental_uris":{"android":"levelo://app?vid=e6f01fc3-90c0-4a40-b15f-9509de2e5d81","ios":"levelo://app?vid=e6f01fc3-90c0-4a40-b15f-9509de2e5d81"},"vehicle_type_id":"4","last_reported":1721156851,"current_range_meters":4000,"station_id":"ce4bhs12rcd13ifvqhvg","pricing_plan_id":"cebpf4jnsgd1na2vs0mg"},{"bike_id":"93c6105e-f512-4f7f-8ba0-6e7be4388f7e","system_id":"levelo_inurba_marseille","lat":43.310804,"lon":5.38359,"is_reserved":false,"is_disabled":false,"rental_uris":{"android":"levelo://app?vid=93c6105e-f512-4f7f-8ba0-6e7be4388f7e","ios":"levelo://app?vid=93c6105e-f512-4f7f-8ba0-6e7be4388f7e"},"vehicle_type_id":"4","last_reported":1721156851,"current_range_meters":19600,"station_id":"ce4bgv92rcd13ifvqcr0","pricing_plan_id":"cebpf4jnsgd1na2vs0mg"},{"bike_id":"8db20f76-3cc9-4ac1-9958-47108c324faf","system_id":"levelo_inurba_marseille","lat":43.31071,"lon":5.38357,"is_reserved":false,"is_disabled":false,"rental_uris":{"android":"levelo://app?vid=8db20f76-3cc9-4ac1-9958-47108c324faf","ios":"levelo://app?vid=8db20f76-3cc9-4ac1-9958-47108c324faf"},"vehicle_type_id":"4","last_reported":1721156851,"current_range_meters":12400,"station_id":"ce4bgv92rcd13ifvqcr0","pricing_plan_id":"cebpf4jnsgd1na2vs0mg"},{"bike_id":"c38e3729-1dfe-43bd-a51d-2c832cf0767f","system_id":"levelo_inurba_marseille","lat":43.30143,"lon":5.37413,"is_reserved":false,"is_disabled":false,"rental_uris":{"android":"levelo://app?vid=c38e3729-1dfe-43bd-a51d-2c832cf0767f","ios":"levelo://app?vid=c38e3729-1dfe-43bd-a51d-2c832cf0767f"},"vehicle_type_id":"4","last_reported":1721156851,"current_range_meters":800,"station_id":"ce4bgs92rcd13ifvqcc0","pricing_plan_id":"cebpf4jnsgd1na2vs0mg"},{"bike_id":"a045dc95-8adf-48d6-aa12-50bf51869764","system_id":"levelo_inurba_marseille","lat":43.319935,"lon":5.381699,"is_reserved":false,"is_disabled":false,"rental_uris":{"android":"levelo://app?vid=a045dc95-8adf-48d6-aa12-50bf51869764","ios":"levelo://app?vid=a045dc95-8adf-48d6-aa12-50bf51869764"},"vehicle_type_id":"4","last_reported":1721156851,"current_range_meters":22400,"station_id":"ce4bhr12rcd13ifvqhpg","pricing_plan_id":"cebpf4jnsgd1na2vs0mg"},{"bike_id":"526a2a2e-6984-449c-b7cf-7d7555fc28a2","system_id":"levelo_inurba_marseille","lat":43.31995,"lon":5.38147,"is_reserved":false,"is_disabled":false,"rental_uris":{"android":"levelo://app?vid=526a2a2e-6984-449c-b7cf-7d7555fc28a2","ios":"levelo://app?vid=526a2a2e-6984-449c-b7cf-7d7555fc28a2"},"vehicle_type_id":"4","last_reported":1721156851,"current_range_meters":31200,"station_id":"ce4bhr12rcd13ifvqhpg","pricing_plan_id":"cebpf4jnsgd1na2vs0mg"},{"bike_id":"c6547000-71ac-46b4-b7f5-e33973303541","system_id":"levelo_inurba_marseille","lat":43.319935,"lon":5.381699,"is_reserved":false,"is_disabled":false,"rental_uris":{"android":"levelo://app?vid=c6547000-71ac-46b4-b7f5-e33973303541","ios":"levelo://app?vid=c6547000-71ac-46b4-b7f5-e33973303541"},"vehicle_type_id":"4","last_reported":1721156851,"current_range_meters":29200,"station_id":"ce4bhr12rcd13ifvqhpg","pricing_plan_id":"cebpf4jnsgd1na2vs0mg"},{"bike_id":"62acbaf5-c320-46ce-9fb3-d16f3f1a64b4","system_id":"levelo_inurba_marseille","lat":43.319935,"lon":5.381699,"is_reserved":false,"is_disabled":false,"rental_uris":{"android":"levelo://app?vid=62acbaf5-c320-46ce-9fb3-d16f3f1a64b4","ios":"levelo://app?vid=62acbaf5-c320-46ce-9fb3-d16f3f1a64b4"},"vehicle_type_id":"4","last_reported":1721156851,"current_range_meters":6400,"station_id":"ce4bhr12rcd13ifvqhpg","pricing_plan_id":"cebpf4jnsgd1na2vs0mg"},{"bike_id":"2591dbe8-7706-4dd5-a118-13aebf468394","system_id":"levelo_inurba_marseille","lat":43.319935,"lon":5.381699,"is_reserved":false,"is_disabled":false,"rental_uris":{"android":"levelo://app?vid=2591dbe8-7706-4dd5-a118-13aebf468394","ios":"levelo://app?vid=2591dbe8-7706-4dd5-a118-13aebf468394"},"vehicle_type_id":"4","last_reported":1721156851,"current_range_meters":24000,"station_id":"ce4bhr12rcd13ifvqhpg","pricing_plan_id":"cebpf4jnsgd1na2vs0mg"},{"bike_id":"e9f52d0c-79f5-4074-825d-d7321ae22e90","system_id":"levelo_inurba_marseille","lat":43.319935,"lon":5.381699,"is_reserved":false,"is_disabled":false,"rental_uris":{"android":"levelo://app?vid=e9f52d0c-79f5-4074-825d-d7321ae22e90","ios":"levelo://app?vid=e9f52d0c-79f5-4074-825d-d7321ae22e90"},"vehicle_type_id":"4","last_reported":1721156851,"current_range_meters":15600,"station_id":"ce4bhr12rcd13ifvqhpg","pricing_plan_id":"cebpf4jnsgd1na2vs0mg"},{"bike_id":"41984021-7053-4eb8-8955-c997ccd67ec0","system_id":"levelo_inurba_marseille","lat":43.30332,"lon":5.37921,"is_reserved":false,"is_disabled":false,"rental_uris":{"android":"levelo://app?vid=41984021-7053-4eb8-8955-c997ccd67ec0","ios":"levelo://app?vid=41984021-7053-4eb8-8955-c997ccd67ec0"},"vehicle_type_id":"4","last_reported":1721156851,"current_range_meters":12400,"station_id":"ce4bhq12rcd13ifvqhig","pricing_plan_id":"cebpf4jnsgd1na2vs0mg"},{"bike_id":"049b5914-1537-4322-867d-ec74d7188086","system_id":"levelo_inurba_marseille","lat":43.313604,"lon":5.384883,"is_reserved":false,"is_disabled":false,"rental_uris":{"android":"levelo://app?vid=049b5914-1537-4322-867d-ec74d7188086","ios":"levelo://app?vid=049b5914-1537-4322-867d-ec74d7188086"},"vehicle_type_id":"4","last_reported":1721156851,"current_range_meters":10000,"station_id":"","pricing_plan_id":"cebpf4jnsgd1na2vs0mg"},{"bike_id":"81a7e7ce-a8cd-4ca2-8333-446aba152639","system_id":"levelo_inurba_marseille","lat":43.313571,"lon":5.384829,"is_reserved":false,"is_disabled":false,"rental_uris":{"android":"levelo://app?vid=81a7e7ce-a8cd-4ca2-8333-446aba152639","ios":"levelo://app?vid=81a7e7ce-a8cd-4ca2-8333-446aba152639"},"vehicle_type_id":"4","last_reported":1721156851,"current_range_meters":20800,"station_id":"ce4bgt92rcd13ifvqcf0","pricing_plan_id":"cebpf4jnsgd1na2vs0mg"},{"bike_id":"429d6bf7-354d-4c1f-86a4-7301b3a367bb","system_id":"levelo_inurba_marseille","lat":43.30142,"lon":5.37658,"is_reserved":false,"is_disabled":false,"rental_uris":{"android":"levelo://app?vid=429d6bf7-354d-4c1f-86a4-7301b3a367bb","ios":"levelo://app?vid=429d6bf7-354d-4c1f-86a4-7301b3a367bb"},"vehicle_type_id":"4","last_reported":1721156851,"current_range_meters":28400,"station_id":"","pricing_plan_id":"cebpf4jnsgd1na2vs0mg"},{"bike_id":"7475210c-47c3-4dd1-95e8-adb8b1555f81","system_id":"levelo_inurba_marseille","lat":43.30144,"lon":5.37673,"is_reserved":false,"is_disabled":false,"rental_uris":{"android":"levelo://app?vid=7475210c-47c3-4dd1-95e8-adb8b1555f81","ios":"levelo://app?vid=7475210c-47c3-4dd1-95e8-adb8b1555f81"},"vehicle_type_id":"4","last_reported":1721156851,"current_range_meters":27200,"station_id":"","pricing_plan_id":"cebpf4jnsgd1na2vs0mg"},{"bike_id":"f06e7279-3c29-4fad-86de-b597fcf50a45","system_id":"levelo_inurba_marseille","lat":43.30147,"lon":5.37686,"is_reserved":false,"is_disabled":false,"rental_uris":{"android":"levelo://app?vid=f06e7279-3c29-4fad-86de-b597fcf50a45","ios":"levelo://app?vid=f06e7279-3c29-4fad-86de-b597fcf50a45"},"vehicle_type_id":"4","last_reported":1721156851,"current_range_meters":0,"station_id":"","pricing_plan_id":"cebpf4jnsgd1na2vs0mg"},{"bike_id":"68bcfd26-783b-4bd5-8559-05c53999807d","system_id":"levelo_inurba_marseille","lat":43.30142,"lon":5.37688,"is_reserved":false,"is_disabled":false,"rental_uris":{"android":"levelo://app?vid=68bcfd26-783b-4bd5-8559-05c53999807d","ios":"levelo://app?vid=68bcfd26-783b-4bd5-8559-05c53999807d"},"vehicle_type_id":"4","last_reported":1721156851,"current_range_meters":20800,"station_id":"","pricing_plan_id":"cebpf4jnsgd1na2vs0mg"},{"bike_id":"604ec276-3301-4184-9c98-71e8a5aaa5c8","system_id":"levelo_inurba_marseille","lat":43.299724,"lon":5.371829,"is_reserved":false,"is_disabled":false,"rental_uris":{"android":"levelo://app?vid=604ec276-3301-4184-9c98-71e8a5aaa5c8","ios":"levelo://app?vid=604ec276-3301-4184-9c98-71e8a5aaa5c8"},"vehicle_type_id":"4","last_reported":1721156851,"current_range_meters":11200,"station_id":"ce4bgr92rcd13ifvqc7g","pricing_plan_id":"cebpf4jnsgd1na2vs0mg"},{"bike_id":"ca73a6c2-11ad-4c39-b376-25a1a7808262","system_id":"levelo_inurba_marseille","lat":43.309532,"lon":5.38627,"is_reserved":false,"is_disabled":false,"rental_uris":{"android":"levelo://app?vid=ca73a6c2-11ad-4c39-b376-25a1a7808262","ios":"levelo://app?vid=ca73a6c2-11ad-4c39-b376-25a1a7808262"},"vehicle_type_id":"4","last_reported":1721156851,"current_range_meters":25600,"station_id":"","pricing_plan_id":"cebpf4jnsgd1na2vs0mg"},{"bike_id":"e5f13404-d447-455b-b39e-97f8d9cedd3f","system_id":"levelo_inurba_marseille","lat":43.298433,"lon":5.362774,"is_reserved":false,"is_disabled":false,"rental_uris":{"android":"levelo://app?vid=e5f13404-d447-455b-b39e-97f8d9cedd3f","ios":"levelo://app?vid=e5f13404-d447-455b-b39e-97f8d9cedd3f"},"vehicle_type_id":"4","last_reported":1721156851,"current_range_meters":0,"station_id":"ce4bgpp2rcd13ifvqc3g","pricing_plan_id":"cebpf4jnsgd1na2vs0mg"},{"bike_id":"8c1eb9ab-822a-4f34-adb0-e75e20bf4d9a","system_id":"levelo_inurba_marseille","lat":43.298433,"lon":5.362774,"is_reserved":false,"is_disabled":false,"rental_uris":{"android":"levelo://app?vid=8c1eb9ab-822a-4f34-adb0-e75e20bf4d9a","ios":"levelo://app?vid=8c1eb9ab-822a-4f34-adb0-e75e20bf4d9a"},"vehicle_type_id":"4","last_reported":1721156851,"current_range_meters":13600,"station_id":"ce4bgpp2rcd13ifvqc3g","pricing_plan_id":"cebpf4jnsgd1na2vs0mg"},{"bike_id":"20d2a5fa-44f1-4eb1-87b2-90de5437a08b","system_id":"levelo_inurba_marseille","lat":43.298433,"lon":5.362774,"is_reserved":false,"is_disabled":false,"rental_uris":{"android":"levelo://app?vid=20d2a5fa-44f1-4eb1-87b2-90de5437a08b","ios":"levelo://app?vid=20d2a5fa-44f1-4eb1-87b2-90de5437a08b"},"vehicle_type_id":"4","last_reported":1721156851,"current_range_meters":8800,"station_id":"ce4bgpp2rcd13ifvqc3g","pricing_plan_id":"cebpf4jnsgd1na2vs0mg"},{"bike_id":"a8b8b78e-2d8f-4d65-827b-afb953d18478","system_id":"levelo_inurba_marseille","lat":43.298433,"lon":5.362774,"is_reserved":false,"is_disabled":false,"rental_uris":{"android":"levelo://app?vid=a8b8b78e-2d8f-4d65-827b-afb953d18478","ios":"levelo://app?vid=a8b8b78e-2d8f-4d65-827b-afb953d18478"},"vehicle_type_id":"4","last_reported":1721156851,"current_range_meters":0,"station_id":"ce4bgpp2rcd13ifvqc3g","pricing_plan_id":"cebpf4jnsgd1na2vs0mg"},{"bike_id":"40bd5d77-7470-4e2c-8b48-05a71133ebeb","system_id":"levelo_inurba_marseille","lat":43.299243,"lon":5.374807,"is_reserved":false,"is_disabled":false,"rental_uris":{"android":"levelo://app?vid=40bd5d77-7470-4e2c-8b48-05a71133ebeb","ios":"levelo://app?vid=40bd5d77-7470-4e2c-8b48-05a71133ebeb"},"vehicle_type_id":"4","last_reported":1721156851,"current_range_meters":0,"station_id":"ce4bgjh2rcd13ifvqbg0","pricing_plan_id":"cebpf4jnsgd1na2vs0mg"},{"bike_id":"e37bd250-4298-4f03-9f58-714946b59332","system_id":"levelo_inurba_marseille","lat":43.299243,"lon":5.374807,"is_reserved":false,"is_disabled":false,"rental_uris":{"android":"levelo://app?vid=e37bd250-4298-4f03-9f58-714946b59332","ios":"levelo://app?vid=e37bd250-4298-4f03-9f58-714946b59332"},"vehicle_type_id":"4","last_reported":1721156851,"current_range_meters":29600,"station_id":"ce4bgjh2rcd13ifvqbg0","pricing_plan_id":"cebpf4jnsgd1na2vs0mg"},{"bike_id":"d3ff8585-ce8d-467a-b55e-1c4788646b48","system_id":"levelo_inurba_marseille","lat":43.297774,"lon":5.370875,"is_reserved":false,"is_disabled":false,"rental_uris":{"android":"levelo://app?vid=d3ff8585-ce8d-467a-b55e-1c4788646b48","ios":"levelo://app?vid=d3ff8585-ce8d-467a-b55e-1c4788646b48"},"vehicle_type_id":"4","last_reported":1721156851,"current_range_meters":0,"station_id":"ce4bgop2rcd13ifvqc1g","pricing_plan_id":"cebpf4jnsgd1na2vs0mg"},{"bike_id":"4a20e6f9-b43b-4472-bcf1-74864b4a0004","system_id":"levelo_inurba_marseille","lat":43.32291,"lon":5.382642,"is_reserved":false,"is_disabled":false,"rental_uris":{"android":"levelo://app?vid=4a20e6f9-b43b-4472-bcf1-74864b4a0004","ios":"levelo://app?vid=4a20e6f9-b43b-4472-bcf1-74864b4a0004"},"vehicle_type_id":"4","last_reported":1721156851,"current_range_meters":27200,"station_id":"ce4bhr12rcd13ifvqhqg","pricing_plan_id":"cebpf4jnsgd1na2vs0mg"},{"bike_id":"bf88fd81-3fba-4217-a64f-28c728e137d7","system_id":"levelo_inurba_marseille","lat":43.322872,"lon":5.382756,"is_reserved":false,"is_disabled":false,"rental_uris":{"android":"levelo://app?vid=bf88fd81-3fba-4217-a64f-28c728e137d7","ios":"levelo://app?vid=bf88fd81-3fba-4217-a64f-28c728e137d7"},"vehicle_type_id":"4","last_reported":1721156851,"current_range_meters":26000,"station_id":"ce4bhr12rcd13ifvqhqg","pricing_plan_id":"cebpf4jnsgd1na2vs0mg"},{"bike_id":"c1721e32-a716-4644-9fdb-6fd95a6aeccf","system_id":"levelo_inurba_marseille","lat":43.297163,"lon":5.365866,"is_reserved":false,"is_disabled":false,"rental_uris":{"android":"levelo://app?vid=c1721e32-a716-4644-9fdb-6fd95a6aeccf","ios":"levelo://app?vid=c1721e32-a716-4644-9fdb-6fd95a6aeccf"},"vehicle_type_id":"4","last_reported":1721156851,"current_range_meters":3600,"station_id":"ce4bgn12rcd13ifvqbt0","pricing_plan_id":"cebpf4jnsgd1na2vs0mg"},{"bike_id":"740fea16-fb8b-4d78-9fb4-35683ca17283","system_id":"levelo_inurba_marseille","lat":43.296131,"lon":5.370791,"is_reserved":false,"is_disabled":false,"rental_uris":{"android":"levelo://app?vid=740fea16-fb8b-4d78-9fb4-35683ca17283","ios":"levelo://app?vid=740fea16-fb8b-4d78-9fb4-35683ca17283"},"vehicle_type_id":"4","last_reported":1721156851,"current_range_meters":21200,"station_id":"ce4bgnh2rcd13ifvqc0g","pricing_plan_id":"cebpf4jnsgd1na2vs0mg"},{"bike_id":"64c294f6-7908-48bc-b7bc-3f8b0bfefb7e","system_id":"levelo_inurba_marseille","lat":43.296131,"lon":5.370773,"is_reserved":false,"is_disabled":false,"rental_uris":{"android":"levelo://app?vid=64c294f6-7908-48bc-b7bc-3f8b0bfefb7e","ios":"levelo://app?vid=64c294f6-7908-48bc-b7bc-3f8b0bfefb7e"},"vehicle_type_id":"4","last_reported":1721156851,"current_range_meters":27600,"station_id":"ce4bgnh2rcd13ifvqc0g","pricing_plan_id":"cebpf4jnsgd1na2vs0mg"},{"bike_id":"7e6e652b-9b42-444a-9750-0008672d80bc","system_id":"levelo_inurba_marseille","lat":43.296131,"lon":5.370773,"is_reserved":false,"is_disabled":false,"rental_uris":{"android":"levelo://app?vid=7e6e652b-9b42-444a-9750-0008672d80bc","ios":"levelo://app?vid=7e6e652b-9b42-444a-9750-0008672d80bc"},"vehicle_type_id":"4","last_reported":1721156851,"current_range_meters":29200,"station_id":"ce4bgnh2rcd13ifvqc0g","pricing_plan_id":"cebpf4jnsgd1na2vs0mg"},{"bike_id":"93debb89-173b-481d-a34c-22b4e55a4b99","system_id":"levelo_inurba_marseille","lat":43.29573,"lon":5.367355,"is_reserved":false,"is_disabled":false,"rental_uris":{"android":"levelo://app?vid=93debb89-173b-481d-a34c-22b4e55a4b99","ios":"levelo://app?vid=93debb89-173b-481d-a34c-22b4e55a4b99"},"vehicle_type_id":"4","last_reported":1721156851,"current_range_meters":14400,"station_id":"ce4bgph2rcd13ifvqc2g","pricing_plan_id":"cebpf4jnsgd1na2vs0mg"},{"bike_id":"213f8644-a848-4f04-9f3a-4bdb730e43b6","system_id":"levelo_inurba_marseille","lat":43.296129,"lon":5.370777,"is_reserved":false,"is_disabled":false,"rental_uris":{"android":"levelo://app?vid=213f8644-a848-4f04-9f3a-4bdb730e43b6","ios":"levelo://app?vid=213f8644-a848-4f04-9f3a-4bdb730e43b6"},"vehicle_type_id":"4","last_reported":1721156851,"current_range_meters":19600,"station_id":"ce4bgnh2rcd13ifvqc0g","pricing_plan_id":"cebpf4jnsgd1na2vs0mg"},{"bike_id":"9280b4bc-6b35-4d7a-9c58-3a0ae3e84393","system_id":"levelo_inurba_marseille","lat":43.296935,"lon":5.376544,"is_reserved":false,"is_disabled":false,"rental_uris":{"android":"levelo://app?vid=9280b4bc-6b35-4d7a-9c58-3a0ae3e84393","ios":"levelo://app?vid=9280b4bc-6b35-4d7a-9c58-3a0ae3e84393"},"vehicle_type_id":"4","last_reported":1721156851,"current_range_meters":22000,"station_id":"ce4bgkh2rcd13ifvqbl0","pricing_plan_id":"cebpf4jnsgd1na2vs0mg"},{"bike_id":"3b6f03b7-0fe0-477c-8251-f93ac5944379","system_id":"levelo_inurba_marseille","lat":43.299028,"lon":5.381509,"is_reserved":false,"is_disabled":false,"rental_uris":{"android":"levelo://app?vid=3b6f03b7-0fe0-477c-8251-f93ac5944379","ios":"levelo://app?vid=3b6f03b7-0fe0-477c-8251-f93ac5944379"},"vehicle_type_id":"4","last_reported":1721156851,"current_range_meters":1200,"station_id":"ce4bgj12rcd13ifvqbc0","pricing_plan_id":"cebpf4jnsgd1na2vs0mg"},{"bike_id":"03190a02-83b7-4167-ac78-e1f92299bd5b","system_id":"levelo_inurba_marseille","lat":43.296921,"lon":5.376579,"is_reserved":false,"is_disabled":false,"rental_uris":{"android":"levelo://app?vid=03190a02-83b7-4167-ac78-e1f92299bd5b","ios":"levelo://app?vid=03190a02-83b7-4167-ac78-e1f92299bd5b"},"vehicle_type_id":"4","last_reported":1721156851,"current_range_meters":3200,"station_id":"ce4bgkh2rcd13ifvqbl0","pricing_plan_id":"cebpf4jnsgd1na2vs0mg"},{"bike_id":"6c1cf0aa-8dc1-4a01-aead-c8f7e8eee00c","system_id":"levelo_inurba_marseille","lat":43.296935,"lon":5.376544,"is_reserved":false,"is_disabled":false,"rental_uris":{"android":"levelo://app?vid=6c1cf0aa-8dc1-4a01-aead-c8f7e8eee00c","ios":"levelo://app?vid=6c1cf0aa-8dc1-4a01-aead-c8f7e8eee00c"},"vehicle_type_id":"4","last_reported":1721156851,"current_range_meters":1600,"station_id":"ce4bgkh2rcd13ifvqbl0","pricing_plan_id":"cebpf4jnsgd1na2vs0mg"},{"bike_id":"bc9cf380-a078-4ae7-a3a5-f088aff0c907","system_id":"levelo_inurba_marseille","lat":43.299028,"lon":5.381509,"is_reserved":false,"is_disabled":false,"rental_uris":{"android":"levelo://app?vid=bc9cf380-a078-4ae7-a3a5-f088aff0c907","ios":"levelo://app?vid=bc9cf380-a078-4ae7-a3a5-f088aff0c907"},"vehicle_type_id":"4","last_reported":1721156851,"current_range_meters":9600,"station_id":"ce4bgj12rcd13ifvqbc0","pricing_plan_id":"cebpf4jnsgd1na2vs0mg"},{"bike_id":"cf50ca3d-c9af-450c-9007-4e00379abfef","system_id":"levelo_inurba_marseille","lat":43.298037,"lon":5.381066,"is_reserved":false,"is_disabled":false,"rental_uris":{"android":"levelo://app?vid=cf50ca3d-c9af-450c-9007-4e00379abfef","ios":"levelo://app?vid=cf50ca3d-c9af-450c-9007-4e00379abfef"},"vehicle_type_id":"4","last_reported":1721156851,"current_range_meters":0,"station_id":"ce4bgip2rcd13ifvqbb0","pricing_plan_id":"cebpf4jnsgd1na2vs0mg"},{"bike_id":"238e56c2-e370-41ec-8f69-c2ff91704a41","system_id":"levelo_inurba_marseille","lat":43.295279,"lon":5.375048,"is_reserved":false,"is_disabled":false,"rental_uris":{"android":"levelo://app?vid=238e56c2-e370-41ec-8f69-c2ff91704a41","ios":"levelo://app?vid=238e56c2-e370-41ec-8f69-c2ff91704a41"},"vehicle_type_id":"4","last_reported":1721156851,"current_range_meters":28400,"station_id":"ce4bgkp2rcd13ifvqbmg","pricing_plan_id":"cebpf4jnsgd1na2vs0mg"},{"bike_id":"6dee53e4-0d16-4ad8-ae65-03d4126af656","system_id":"levelo_inurba_marseille","lat":43.29528,"lon":5.37452,"is_reserved":false,"is_disabled":false,"rental_uris":{"android":"levelo://app?vid=6dee53e4-0d16-4ad8-ae65-03d4126af656","ios":"levelo://app?vid=6dee53e4-0d16-4ad8-ae65-03d4126af656"},"vehicle_type_id":"4","last_reported":1721156851,"current_range_meters":0,"station_id":"ce4bgkp2rcd13ifvqbmg","pricing_plan_id":"cebpf4jnsgd1na2vs0mg"},{"bike_id":"24b5be77-c9cf-44c3-ba3f-35c994239c4e","system_id":"levelo_inurba_marseille","lat":43.29977,"lon":5.3849,"is_reserved":false,"is_disabled":false,"rental_uris":{"android":"levelo://app?vid=24b5be77-c9cf-44c3-ba3f-35c994239c4e","ios":"levelo://app?vid=24b5be77-c9cf-44c3-ba3f-35c994239c4e"},"vehicle_type_id":"4","last_reported":1721156851,"current_range_meters":0,"station_id":"ce4bgj92rcd13ifvqbd0","pricing_plan_id":"cebpf4jnsgd1na2vs0mg"},{"bike_id":"f25fec1b-d165-498c-b015-04b72a23f6e3","system_id":"levelo_inurba_marseille","lat":43.2997,"lon":5.3849,"is_reserved":false,"is_disabled":false,"rental_uris":{"android":"levelo://app?vid=f25fec1b-d165-498c-b015-04b72a23f6e3","ios":"levelo://app?vid=f25fec1b-d165-498c-b015-04b72a23f6e3"},"vehicle_type_id":"4","last_reported":1721156851,"current_range_meters":28800,"station_id":"ce4bgj92rcd13ifvqbd0","pricing_plan_id":"cebpf4jnsgd1na2vs0mg"},{"bike_id":"8a906da3-621e-4568-a965-b9ebf80c66d9","system_id":"levelo_inurba_marseille","lat":43.295279,"lon":5.375048,"is_reserved":false,"is_disabled":false,"rental_uris":{"android":"levelo://app?vid=8a906da3-621e-4568-a965-b9ebf80c66d9","ios":"levelo://app?vid=8a906da3-621e-4568-a965-b9ebf80c66d9"},"vehicle_type_id":"4","last_reported":1721156851,"current_range_meters":26000,"station_id":"ce4bgkp2rcd13ifvqbmg","pricing_plan_id":"cebpf4jnsgd1na2vs0mg"},{"bike_id":"9127579e-a9f7-46dd-a848-3b58eb76fee8","system_id":"levelo_inurba_marseille","lat":43.299724,"lon":5.384848,"is_reserved":false,"is_disabled":false,"rental_uris":{"android":"levelo://app?vid=9127579e-a9f7-46dd-a848-3b58eb76fee8","ios":"levelo://app?vid=9127579e-a9f7-46dd-a848-3b58eb76fee8"},"vehicle_type_id":"4","last_reported":1721156851,"current_range_meters":25200,"station_id":"ce4bgj92rcd13ifvqbd0","pricing_plan_id":"cebpf4jnsgd1na2vs0mg"},{"bike_id":"25e43ddc-b9e5-4990-a18f-d2064530defc","system_id":"levelo_inurba_marseille","lat":43.29516,"lon":5.37499,"is_reserved":false,"is_disabled":false,"rental_uris":{"android":"levelo://app?vid=25e43ddc-b9e5-4990-a18f-d2064530defc","ios":"levelo://app?vid=25e43ddc-b9e5-4990-a18f-d2064530defc"},"vehicle_type_id":"4","last_reported":1721156851,"current_range_meters":0,"station_id":"ce4bgkp2rcd13ifvqbmg","pricing_plan_id":"cebpf4jnsgd1na2vs0mg"},{"bike_id":"18491e9b-089a-423d-92a6-2224fb4ac1cb","system_id":"levelo_inurba_marseille","lat":43.30473,"lon":5.39011,"is_reserved":false,"is_disabled":false,"rental_uris":{"android":"levelo://app?vid=18491e9b-089a-423d-92a6-2224fb4ac1cb","ios":"levelo://app?vid=18491e9b-089a-423d-92a6-2224fb4ac1cb"},"vehicle_type_id":"4","last_reported":1721156851,"current_range_meters":18000,"station_id":"","pricing_plan_id":"cebpf4jnsgd1na2vs0mg"},{"bike_id":"239e0100-b84f-4d5b-85c7-945abfb4d8fa","system_id":"levelo_inurba_marseille","lat":43.29553,"lon":5.37723,"is_reserved":false,"is_disabled":false,"rental_uris":{"android":"levelo://app?vid=239e0100-b84f-4d5b-85c7-945abfb4d8fa","ios":"levelo://app?vid=239e0100-b84f-4d5b-85c7-945abfb4d8fa"},"vehicle_type_id":"4","last_reported":1721156851,"current_range_meters":4000,"station_id":"","pricing_plan_id":"cebpf4jnsgd1na2vs0mg"},{"bike_id":"314ab464-169e-4bc9-88fe-dc4abd3d9b25","system_id":"levelo_inurba_marseille","lat":43.32365,"lon":5.38878,"is_reserved":false,"is_disabled":false,"rental_uris":{"android":"levelo://app?vid=314ab464-169e-4bc9-88fe-dc4abd3d9b25","ios":"levelo://app?vid=314ab464-169e-4bc9-88fe-dc4abd3d9b25"},"vehicle_type_id":"4","last_reported":1721156851,"current_range_meters":2800,"station_id":"ce4bhqp2rcd13ifvqhog","pricing_plan_id":"cebpf4jnsgd1na2vs0mg"},{"bike_id":"95815b0e-5229-46d5-95b9-c5f670fed171","system_id":"levelo_inurba_marseille","lat":43.32362,"lon":5.38882,"is_reserved":false,"is_disabled":false,"rental_uris":{"android":"levelo://app?vid=95815b0e-5229-46d5-95b9-c5f670fed171","ios":"levelo://app?vid=95815b0e-5229-46d5-95b9-c5f670fed171"},"vehicle_type_id":"4","last_reported":1721156851,"current_range_meters":31200,"station_id":"ce4bhqp2rcd13ifvqhog","pricing_plan_id":"cebpf4jnsgd1na2vs0mg"},{"bike_id":"86d5ed7e-d1ee-4d8a-90bc-237e6dd5883f","system_id":"levelo_inurba_marseille","lat":43.32367,"lon":5.3888,"is_reserved":false,"is_disabled":false,"rental_uris":{"android":"levelo://app?vid=86d5ed7e-d1ee-4d8a-90bc-237e6dd5883f","ios":"levelo://app?vid=86d5ed7e-d1ee-4d8a-90bc-237e6dd5883f"},"vehicle_type_id":"4","last_reported":1721156851,"current_range_meters":31200,"station_id":"ce4bhqp2rcd13ifvqhog","pricing_plan_id":"cebpf4jnsgd1na2vs0mg"},{"bike_id":"8979b432-209d-4965-a77d-aa796a7d014b","system_id":"levelo_inurba_marseille","lat":43.32361,"lon":5.38887,"is_reserved":false,"is_disabled":false,"rental_uris":{"android":"levelo://app?vid=8979b432-209d-4965-a77d-aa796a7d014b","ios":"levelo://app?vid=8979b432-209d-4965-a77d-aa796a7d014b"},"vehicle_type_id":"4","last_reported":1721156851,"current_range_meters":31200,"station_id":"ce4bhqp2rcd13ifvqhog","pricing_plan_id":"cebpf4jnsgd1na2vs0mg"},{"bike_id":"93caa171-7e15-47a3-9c37-7255178aa401","system_id":"levelo_inurba_marseille","lat":43.32371,"lon":5.38882,"is_reserved":false,"is_disabled":false,"rental_uris":{"android":"levelo://app?vid=93caa171-7e15-47a3-9c37-7255178aa401","ios":"levelo://app?vid=93caa171-7e15-47a3-9c37-7255178aa401"},"vehicle_type_id":"4","last_reported":1721156851,"current_range_meters":31200,"station_id":"ce4bhqp2rcd13ifvqhog","pricing_plan_id":"cebpf4jnsgd1na2vs0mg"},{"bike_id":"dc865874-53a2-48af-a33e-86a2501afde6","system_id":"levelo_inurba_marseille","lat":43.29339,"lon":5.371178,"is_reserved":false,"is_disabled":false,"rental_uris":{"android":"levelo://app?vid=dc865874-53a2-48af-a33e-86a2501afde6","ios":"levelo://app?vid=dc865874-53a2-48af-a33e-86a2501afde6"},"vehicle_type_id":"4","last_reported":1721156851,"current_range_meters":23200,"station_id":"ce4bhbh2rcd13ifvqeqg","pricing_plan_id":"cebpf4jnsgd1na2vs0mg"},{"bike_id":"5e4a06c7-935b-4d5b-8a66-0fd0312b876f","system_id":"levelo_inurba_marseille","lat":43.29276,"lon":5.36841,"is_reserved":false,"is_disabled":false,"rental_uris":{"android":"levelo://app?vid=5e4a06c7-935b-4d5b-8a66-0fd0312b876f","ios":"levelo://app?vid=5e4a06c7-935b-4d5b-8a66-0fd0312b876f"},"vehicle_type_id":"4","last_reported":1721156851,"current_range_meters":31200,"station_id":"ce4bhbp2rcd13ifvqesg","pricing_plan_id":"cebpf4jnsgd1na2vs0mg"},{"bike_id":"62541e04-7caf-42ad-91f3-06bafc952187","system_id":"levelo_inurba_marseille","lat":43.29302,"lon":5.3717,"is_reserved":false,"is_disabled":false,"rental_uris":{"android":"levelo://app?vid=62541e04-7caf-42ad-91f3-06bafc952187","ios":"levelo://app?vid=62541e04-7caf-42ad-91f3-06bafc952187"},"vehicle_type_id":"4","last_reported":1721156851,"current_range_meters":2000,"station_id":"ce4bgh92rcd13ifvqb40","pricing_plan_id":"cebpf4jnsgd1na2vs0mg"},{"bike_id":"2f258906-0811-4345-a552-1964d8954fc5","system_id":"levelo_inurba_marseille","lat":43.2951,"lon":5.37998,"is_reserved":false,"is_disabled":false,"rental_uris":{"android":"levelo://app?vid=2f258906-0811-4345-a552-1964d8954fc5","ios":"levelo://app?vid=2f258906-0811-4345-a552-1964d8954fc5"},"vehicle_type_id":"4","last_reported":1721156851,"current_range_meters":3200,"station_id":"","pricing_plan_id":"cebpf4jnsgd1na2vs0mg"},{"bike_id":"560db12f-1c5b-4eb6-94b6-d200544b7ff4","system_id":"levelo_inurba_marseille","lat":43.29272,"lon":5.36841,"is_reserved":false,"is_disabled":false,"rental_uris":{"android":"levelo://app?vid=560db12f-1c5b-4eb6-94b6-d200544b7ff4","ios":"levelo://app?vid=560db12f-1c5b-4eb6-94b6-d200544b7ff4"},"vehicle_type_id":"4","last_reported":1721156851,"current_range_meters":26000,"station_id":"ce4bhbp2rcd13ifvqesg","pricing_plan_id":"cebpf4jnsgd1na2vs0mg"},{"bike_id":"59428e26-56a6-41ff-a12d-608d9e5b5e6d","system_id":"levelo_inurba_marseille","lat":43.29271,"lon":5.36836,"is_reserved":false,"is_disabled":false,"rental_uris":{"android":"levelo://app?vid=59428e26-56a6-41ff-a12d-608d9e5b5e6d","ios":"levelo://app?vid=59428e26-56a6-41ff-a12d-608d9e5b5e6d"},"vehicle_type_id":"4","last_reported":1721156851,"current_range_meters":30000,"station_id":"ce4bhbp2rcd13ifvqesg","pricing_plan_id":"cebpf4jnsgd1na2vs0mg"},{"bike_id":"1eed7411-8944-4d47-b673-7ec7882fdccb","system_id":"levelo_inurba_marseille","lat":43.293009,"lon":5.374584,"is_reserved":false,"is_disabled":false,"rental_uris":{"android":"levelo://app?vid=1eed7411-8944-4d47-b673-7ec7882fdccb","ios":"levelo://app?vid=1eed7411-8944-4d47-b673-7ec7882fdccb"},"vehicle_type_id":"4","last_reported":1721156851,"current_range_meters":1200,"station_id":"ce4bgi12rcd13ifvqb70","pricing_plan_id":"cebpf4jnsgd1na2vs0mg"},{"bike_id":"a7a23437-e16b-450a-b5fe-272010bbb7ce","system_id":"levelo_inurba_marseille","lat":43.293009,"lon":5.374584,"is_reserved":false,"is_disabled":false,"rental_uris":{"android":"levelo://app?vid=a7a23437-e16b-450a-b5fe-272010bbb7ce","ios":"levelo://app?vid=a7a23437-e16b-450a-b5fe-272010bbb7ce"},"vehicle_type_id":"4","last_reported":1721156851,"current_range_meters":24400,"station_id":"ce4bgi12rcd13ifvqb70","pricing_plan_id":"cebpf4jnsgd1na2vs0mg"},{"bike_id":"c7ec99b0-b7bf-40d8-970b-5dfa6a608ea1","system_id":"levelo_inurba_marseille","lat":43.293009,"lon":5.374584,"is_reserved":false,"is_disabled":false,"rental_uris":{"android":"levelo://app?vid=c7ec99b0-b7bf-40d8-970b-5dfa6a608ea1","ios":"levelo://app?vid=c7ec99b0-b7bf-40d8-970b-5dfa6a608ea1"},"vehicle_type_id":"4","last_reported":1721156851,"current_range_meters":16800,"station_id":"ce4bgi12rcd13ifvqb70","pricing_plan_id":"cebpf4jnsgd1na2vs0mg"},{"bike_id":"25d4c96e-9e42-4d94-8bb3-ccee38679ef7","system_id":"levelo_inurba_marseille","lat":43.293009,"lon":5.374584,"is_reserved":false,"is_disabled":false,"rental_uris":{"android":"levelo://app?vid=25d4c96e-9e42-4d94-8bb3-ccee38679ef7","ios":"levelo://app?vid=25d4c96e-9e42-4d94-8bb3-ccee38679ef7"},"vehicle_type_id":"4","last_reported":1721156851,"current_range_meters":2400,"station_id":"ce4bgi12rcd13ifvqb70","pricing_plan_id":"cebpf4jnsgd1na2vs0mg"},{"bike_id":"8adda901-9b88-4cdb-ba81-c9c7986e3a6d","system_id":"levelo_inurba_marseille","lat":43.29372,"lon":5.37832,"is_reserved":false,"is_disabled":false,"rental_uris":{"android":"levelo://app?vid=8adda901-9b88-4cdb-ba81-c9c7986e3a6d","ios":"levelo://app?vid=8adda901-9b88-4cdb-ba81-c9c7986e3a6d"},"vehicle_type_id":"4","last_reported":1721156851,"current_range_meters":18400,"station_id":"ce4bgjh2rcd13ifvqbf0","pricing_plan_id":"cebpf4jnsgd1na2vs0mg"},{"bike_id":"55fb99c9-d06f-451a-a7f9-ba8577e6e597","system_id":"levelo_inurba_marseille","lat":43.2936,"lon":5.37835,"is_reserved":false,"is_disabled":false,"rental_uris":{"android":"levelo://app?vid=55fb99c9-d06f-451a-a7f9-ba8577e6e597","ios":"levelo://app?vid=55fb99c9-d06f-451a-a7f9-ba8577e6e597"},"vehicle_type_id":"4","last_reported":1721156851,"current_range_meters":2000,"station_id":"ce4bgjh2rcd13ifvqbf0","pricing_plan_id":"cebpf4jnsgd1na2vs0mg"},{"bike_id":"88357af1-230b-4ab3-ad48-d14e44189d0a","system_id":"levelo_inurba_marseille","lat":43.2936,"lon":5.37835,"is_reserved":false,"is_disabled":false,"rental_uris":{"android":"levelo://app?vid=88357af1-230b-4ab3-ad48-d14e44189d0a","ios":"levelo://app?vid=88357af1-230b-4ab3-ad48-d14e44189d0a"},"vehicle_type_id":"4","last_reported":1721156851,"current_range_meters":0,"station_id":"ce4bgjh2rcd13ifvqbf0","pricing_plan_id":"cebpf4jnsgd1na2vs0mg"},{"bike_id":"0a40d45e-d7a0-45c3-8fe1-156d31ae401d","system_id":"levelo_inurba_marseille","lat":43.300852,"lon":5.390859,"is_reserved":false,"is_disabled":false,"rental_uris":{"android":"levelo://app?vid=0a40d45e-d7a0-45c3-8fe1-156d31ae401d","ios":"levelo://app?vid=0a40d45e-d7a0-45c3-8fe1-156d31ae401d"},"vehicle_type_id":"4","last_reported":1721156851,"current_range_meters":13600,"station_id":"ce4bh192rcd13ifvqdb0","pricing_plan_id":"cebpf4jnsgd1na2vs0mg"},{"bike_id":"5c205d8c-7bb2-46e1-91ed-144ca977b497","system_id":"levelo_inurba_marseille","lat":43.30085,"lon":5.390856,"is_reserved":false,"is_disabled":false,"rental_uris":{"android":"levelo://app?vid=5c205d8c-7bb2-46e1-91ed-144ca977b497","ios":"levelo://app?vid=5c205d8c-7bb2-46e1-91ed-144ca977b497"},"vehicle_type_id":"4","last_reported":1721156851,"current_range_meters":17600,"station_id":"ce4bh192rcd13ifvqdb0","pricing_plan_id":"cebpf4jnsgd1na2vs0mg"},{"bike_id":"e9135d44-1ada-464e-aa87-f4876916ca32","system_id":"levelo_inurba_marseille","lat":43.29226,"lon":5.36057,"is_reserved":false,"is_disabled":false,"rental_uris":{"android":"levelo://app?vid=e9135d44-1ada-464e-aa87-f4876916ca32","ios":"levelo://app?vid=e9135d44-1ada-464e-aa87-f4876916ca32"},"vehicle_type_id":"4","last_reported":1721156851,"current_range_meters":0,"station_id":"ce4bhbh2rcd13ifvqeqg","pricing_plan_id":"cebpf4jnsgd1na2vs0mg"},{"bike_id":"1e8f5082-8e35-4ce9-b313-c4a440437b3c","system_id":"levelo_inurba_marseille","lat":43.29224,"lon":5.36067,"is_reserved":false,"is_disabled":false,"rental_uris":{"android":"levelo://app?vid=1e8f5082-8e35-4ce9-b313-c4a440437b3c","ios":"levelo://app?vid=1e8f5082-8e35-4ce9-b313-c4a440437b3c"},"vehicle_type_id":"4","last_reported":1721156851,"current_range_meters":0,"station_id":"ce4bhbh2rcd13ifvqeqg","pricing_plan_id":"cebpf4jnsgd1na2vs0mg"},{"bike_id":"056e1878-cc2f-4a66-ab8a-4d43148774f9","system_id":"levelo_inurba_marseille","lat":43.29226,"lon":5.360503,"is_reserved":false,"is_disabled":false,"rental_uris":{"android":"levelo://app?vid=056e1878-cc2f-4a66-ab8a-4d43148774f9","ios":"levelo://app?vid=056e1878-cc2f-4a66-ab8a-4d43148774f9"},"vehicle_type_id":"4","last_reported":1721156851,"current_range_meters":4000,"station_id":"ce4bhbh2rcd13ifvqeqg","pricing_plan_id":"cebpf4jnsgd1na2vs0mg"},{"bike_id":"12b8459a-6a87-4648-bb13-5fdd4422523f","system_id":"levelo_inurba_marseille","lat":43.298764,"lon":5.388973,"is_reserved":false,"is_disabled":false,"rental_uris":{"android":"levelo://app?vid=12b8459a-6a87-4648-bb13-5fdd4422523f","ios":"levelo://app?vid=12b8459a-6a87-4648-bb13-5fdd4422523f"},"vehicle_type_id":"4","last_reported":1721156851,"current_range_meters":18400,"station_id":"ce4bh392rcd13ifvqdl0","pricing_plan_id":"cebpf4jnsgd1na2vs0mg"},{"bike_id":"fbd55d1f-c593-47ea-8e62-4e427a4a121d","system_id":"levelo_inurba_marseille","lat":43.29871,"lon":5.38904,"is_reserved":false,"is_disabled":false,"rental_uris":{"android":"levelo://app?vid=fbd55d1f-c593-47ea-8e62-4e427a4a121d","ios":"levelo://app?vid=fbd55d1f-c593-47ea-8e62-4e427a4a121d"},"vehicle_type_id":"4","last_reported":1721156851,"current_range_meters":25600,"station_id":"ce4bh392rcd13ifvqdl0","pricing_plan_id":"cebpf4jnsgd1na2vs0mg"},{"bike_id":"6a440954-1676-40cb-8b1b-125ed3f81272","system_id":"levelo_inurba_marseille","lat":43.298764,"lon":5.388973,"is_reserved":false,"is_disabled":false,"rental_uris":{"android":"levelo://app?vid=6a440954-1676-40cb-8b1b-125ed3f81272","ios":"levelo://app?vid=6a440954-1676-40cb-8b1b-125ed3f81272"},"vehicle_type_id":"4","last_reported":1721156851,"current_range_meters":0,"station_id":"ce4bh392rcd13ifvqdl0","pricing_plan_id":"cebpf4jnsgd1na2vs0mg"},{"bike_id":"bcce10e0-8adc-49e5-a54a-d96cdb585d35","system_id":"levelo_inurba_marseille","lat":43.29874,"lon":5.38911,"is_reserved":false,"is_disabled":false,"rental_uris":{"android":"levelo://app?vid=bcce10e0-8adc-49e5-a54a-d96cdb585d35","ios":"levelo://app?vid=bcce10e0-8adc-49e5-a54a-d96cdb585d35"},"vehicle_type_id":"4","last_reported":1721156851,"current_range_meters":29600,"station_id":"ce4bh392rcd13ifvqdl0","pricing_plan_id":"cebpf4jnsgd1na2vs0mg"},{"bike_id":"5a84ed5d-f1d7-44ca-b764-2ab4a7db033c","system_id":"levelo_inurba_marseille","lat":43.301217,"lon":5.391657,"is_reserved":false,"is_disabled":false,"rental_uris":{"android":"levelo://app?vid=5a84ed5d-f1d7-44ca-b764-2ab4a7db033c","ios":"levelo://app?vid=5a84ed5d-f1d7-44ca-b764-2ab4a7db033c"},"vehicle_type_id":"4","last_reported":1721156851,"current_range_meters":0,"station_id":"","pricing_plan_id":"cebpf4jnsgd1na2vs0mg"},{"bike_id":"4aa1ee8b-6d97-467f-9176-144826aafb34","system_id":"levelo_inurba_marseille","lat":43.298623,"lon":5.388992,"is_reserved":false,"is_disabled":false,"rental_uris":{"android":"levelo://app?vid=4aa1ee8b-6d97-467f-9176-144826aafb34","ios":"levelo://app?vid=4aa1ee8b-6d97-467f-9176-144826aafb34"},"vehicle_type_id":"4","last_reported":1721156851,"current_range_meters":30800,"station_id":"ce4bh392rcd13ifvqdl0","pricing_plan_id":"cebpf4jnsgd1na2vs0mg"},{"bike_id":"70bcf954-faba-48a4-9b66-67d42bc07b9c","system_id":"levelo_inurba_marseille","lat":43.29864,"lon":5.38904,"is_reserved":false,"is_disabled":false,"rental_uris":{"android":"levelo://app?vid=70bcf954-faba-48a4-9b66-67d42bc07b9c","ios":"levelo://app?vid=70bcf954-faba-48a4-9b66-67d42bc07b9c"},"vehicle_type_id":"4","last_reported":1721156851,"current_range_meters":28400,"station_id":"ce4bh392rcd13ifvqdl0","pricing_plan_id":"cebpf4jnsgd1na2vs0mg"},{"bike_id":"2bddf1b0-1d75-4a3f-9911-1ab384ef4b03","system_id":"levelo_inurba_marseille","lat":43.298713,"lon":5.389177,"is_reserved":false,"is_disabled":false,"rental_uris":{"android":"levelo://app?vid=2bddf1b0-1d75-4a3f-9911-1ab384ef4b03","ios":"levelo://app?vid=2bddf1b0-1d75-4a3f-9911-1ab384ef4b03"},"vehicle_type_id":"4","last_reported":1721156851,"current_range_meters":24000,"station_id":"ce4bh392rcd13ifvqdl0","pricing_plan_id":"cebpf4jnsgd1na2vs0mg"},{"bike_id":"6d864dbc-83cd-4644-9cfa-5410824af8e9","system_id":"levelo_inurba_marseille","lat":43.31326,"lon":5.39689,"is_reserved":false,"is_disabled":false,"rental_uris":{"android":"levelo://app?vid=6d864dbc-83cd-4644-9cfa-5410824af8e9","ios":"levelo://app?vid=6d864dbc-83cd-4644-9cfa-5410824af8e9"},"vehicle_type_id":"4","last_reported":1721156851,"current_range_meters":11600,"station_id":"ce4bgvp2rcd13ifvqcu0","pricing_plan_id":"cebpf4jnsgd1na2vs0mg"},{"bike_id":"bbc90188-5187-4cc8-b2fc-049e8379751f","system_id":"levelo_inurba_marseille","lat":43.313291,"lon":5.396838,"is_reserved":false,"is_disabled":false,"rental_uris":{"android":"levelo://app?vid=bbc90188-5187-4cc8-b2fc-049e8379751f","ios":"levelo://app?vid=bbc90188-5187-4cc8-b2fc-049e8379751f"},"vehicle_type_id":"4","last_reported":1721156851,"current_range_meters":4400,"station_id":"ce4bgvp2rcd13ifvqcu0","pricing_plan_id":"cebpf4jnsgd1na2vs0mg"},{"bike_id":"06b0f8ae-887c-4ed2-8324-b5c4787ad1f3","system_id":"levelo_inurba_marseille","lat":43.313291,"lon":5.396838,"is_reserved":false,"is_disabled":false,"rental_uris":{"android":"levelo://app?vid=06b0f8ae-887c-4ed2-8324-b5c4787ad1f3","ios":"levelo://app?vid=06b0f8ae-887c-4ed2-8324-b5c4787ad1f3"},"vehicle_type_id":"4","last_reported":1721156851,"current_range_meters":23200,"station_id":"ce4bgvp2rcd13ifvqcu0","pricing_plan_id":"cebpf4jnsgd1na2vs0mg"},{"bike_id":"d7d03ecc-1585-43ed-9023-0bfd9e2e1b18","system_id":"levelo_inurba_marseille","lat":43.313291,"lon":5.396838,"is_reserved":false,"is_disabled":false,"rental_uris":{"android":"levelo://app?vid=d7d03ecc-1585-43ed-9023-0bfd9e2e1b18","ios":"levelo://app?vid=d7d03ecc-1585-43ed-9023-0bfd9e2e1b18"},"vehicle_type_id":"4","last_reported":1721156851,"current_range_meters":28000,"station_id":"ce4bgvp2rcd13ifvqcu0","pricing_plan_id":"cebpf4jnsgd1na2vs0mg"},{"bike_id":"932b22c6-f21d-403f-a508-416faf9897cc","system_id":"levelo_inurba_marseille","lat":43.313291,"lon":5.396838,"is_reserved":false,"is_disabled":false,"rental_uris":{"android":"levelo://app?vid=932b22c6-f21d-403f-a508-416faf9897cc","ios":"levelo://app?vid=932b22c6-f21d-403f-a508-416faf9897cc"},"vehicle_type_id":"4","last_reported":1721156851,"current_range_meters":30400,"station_id":"ce4bgvp2rcd13ifvqcu0","pricing_plan_id":"cebpf4jnsgd1na2vs0mg"},{"bike_id":"2241c111-a47d-4f4e-bc90-c9460f8bb4a3","system_id":"levelo_inurba_marseille","lat":43.313291,"lon":5.396838,"is_reserved":false,"is_disabled":false,"rental_uris":{"android":"levelo://app?vid=2241c111-a47d-4f4e-bc90-c9460f8bb4a3","ios":"levelo://app?vid=2241c111-a47d-4f4e-bc90-c9460f8bb4a3"},"vehicle_type_id":"4","last_reported":1721156851,"current_range_meters":15600,"station_id":"ce4bgvp2rcd13ifvqcu0","pricing_plan_id":"cebpf4jnsgd1na2vs0mg"},{"bike_id":"9cbfb522-e32d-4d6f-b5ee-a87ce39cc3e7","system_id":"levelo_inurba_marseille","lat":43.30154,"lon":5.39273,"is_reserved":false,"is_disabled":false,"rental_uris":{"android":"levelo://app?vid=9cbfb522-e32d-4d6f-b5ee-a87ce39cc3e7","ios":"levelo://app?vid=9cbfb522-e32d-4d6f-b5ee-a87ce39cc3e7"},"vehicle_type_id":"4","last_reported":1721156851,"current_range_meters":14800,"station_id":"","pricing_plan_id":"cebpf4jnsgd1na2vs0mg"},{"bike_id":"008890ff-12f4-4b23-98ee-af4bae608b44","system_id":"levelo_inurba_marseille","lat":43.302008,"lon":5.394694,"is_reserved":false,"is_disabled":false,"rental_uris":{"android":"levelo://app?vid=008890ff-12f4-4b23-98ee-af4bae608b44","ios":"levelo://app?vid=008890ff-12f4-4b23-98ee-af4bae608b44"},"vehicle_type_id":"4","last_reported":1721156851,"current_range_meters":4000,"station_id":"ce4bh0p2rcd13ifvqd70","pricing_plan_id":"cebpf4jnsgd1na2vs0mg"},{"bike_id":"67c907ef-0d4f-40fc-8559-dbeac165b23b","system_id":"levelo_inurba_marseille","lat":43.29529,"lon":5.385581,"is_reserved":false,"is_disabled":false,"rental_uris":{"android":"levelo://app?vid=67c907ef-0d4f-40fc-8559-dbeac165b23b","ios":"levelo://app?vid=67c907ef-0d4f-40fc-8559-dbeac165b23b"},"vehicle_type_id":"4","last_reported":1721156851,"current_range_meters":22000,"station_id":"ce4bgih2rcd13ifvqba0","pricing_plan_id":"cebpf4jnsgd1na2vs0mg"},{"bike_id":"7576c95b-e3aa-4ce5-982b-15d861eebeb5","system_id":"levelo_inurba_marseille","lat":43.29529,"lon":5.385581,"is_reserved":false,"is_disabled":false,"rental_uris":{"android":"levelo://app?vid=7576c95b-e3aa-4ce5-982b-15d861eebeb5","ios":"levelo://app?vid=7576c95b-e3aa-4ce5-982b-15d861eebeb5"},"vehicle_type_id":"4","last_reported":1721156851,"current_range_meters":24000,"station_id":"ce4bgih2rcd13ifvqba0","pricing_plan_id":"cebpf4jnsgd1na2vs0mg"},{"bike_id":"a2583f75-2fde-4f00-a1c1-0bcdc18f161a","system_id":"levelo_inurba_marseille","lat":43.29529,"lon":5.385581,"is_reserved":false,"is_disabled":false,"rental_uris":{"android":"levelo://app?vid=a2583f75-2fde-4f00-a1c1-0bcdc18f161a","ios":"levelo://app?vid=a2583f75-2fde-4f00-a1c1-0bcdc18f161a"},"vehicle_type_id":"4","last_reported":1721156851,"current_range_meters":11200,"station_id":"ce4bgih2rcd13ifvqba0","pricing_plan_id":"cebpf4jnsgd1na2vs0mg"},{"bike_id":"886bd381-62fd-4edc-8f0f-ee9cd1a857b3","system_id":"levelo_inurba_marseille","lat":43.29529,"lon":5.385581,"is_reserved":false,"is_disabled":false,"rental_uris":{"android":"levelo://app?vid=886bd381-62fd-4edc-8f0f-ee9cd1a857b3","ios":"levelo://app?vid=886bd381-62fd-4edc-8f0f-ee9cd1a857b3"},"vehicle_type_id":"4","last_reported":1721156851,"current_range_meters":6000,"station_id":"ce4bgih2rcd13ifvqba0","pricing_plan_id":"cebpf4jnsgd1na2vs0mg"},{"bike_id":"e2876e3d-8c02-4118-afed-260bfb29f43b","system_id":"levelo_inurba_marseille","lat":43.29529,"lon":5.385581,"is_reserved":false,"is_disabled":false,"rental_uris":{"android":"levelo://app?vid=e2876e3d-8c02-4118-afed-260bfb29f43b","ios":"levelo://app?vid=e2876e3d-8c02-4118-afed-260bfb29f43b"},"vehicle_type_id":"4","last_reported":1721156851,"current_range_meters":9600,"station_id":"ce4bgih2rcd13ifvqba0","pricing_plan_id":"cebpf4jnsgd1na2vs0mg"},{"bike_id":"e2e6266d-1982-433b-942d-f095a5ef1800","system_id":"levelo_inurba_marseille","lat":43.29529,"lon":5.385581,"is_reserved":false,"is_disabled":false,"rental_uris":{"android":"levelo://app?vid=e2e6266d-1982-433b-942d-f095a5ef1800","ios":"levelo://app?vid=e2e6266d-1982-433b-942d-f095a5ef1800"},"vehicle_type_id":"4","last_reported":1721156851,"current_range_meters":11600,"station_id":"ce4bgih2rcd13ifvqba0","pricing_plan_id":"cebpf4jnsgd1na2vs0mg"},{"bike_id":"97ed91ee-d4ce-41e4-bc35-5ad4bee8a1ce","system_id":"levelo_inurba_marseille","lat":43.29529,"lon":5.385581,"is_reserved":false,"is_disabled":false,"rental_uris":{"android":"levelo://app?vid=97ed91ee-d4ce-41e4-bc35-5ad4bee8a1ce","ios":"levelo://app?vid=97ed91ee-d4ce-41e4-bc35-5ad4bee8a1ce"},"vehicle_type_id":"4","last_reported":1721156851,"current_range_meters":30800,"station_id":"ce4bgih2rcd13ifvqba0","pricing_plan_id":"cebpf4jnsgd1na2vs0mg"},{"bike_id":"d975cdfa-453c-440a-a949-62618c4d4a86","system_id":"levelo_inurba_marseille","lat":43.29529,"lon":5.385581,"is_reserved":false,"is_disabled":false,"rental_uris":{"android":"levelo://app?vid=d975cdfa-453c-440a-a949-62618c4d4a86","ios":"levelo://app?vid=d975cdfa-453c-440a-a949-62618c4d4a86"},"vehicle_type_id":"4","last_reported":1721156851,"current_range_meters":10800,"station_id":"ce4bgih2rcd13ifvqba0","pricing_plan_id":"cebpf4jnsgd1na2vs0mg"},{"bike_id":"72575c8a-312f-4530-958f-072d84b24098","system_id":"levelo_inurba_marseille","lat":43.29529,"lon":5.385581,"is_reserved":false,"is_disabled":false,"rental_uris":{"android":"levelo://app?vid=72575c8a-312f-4530-958f-072d84b24098","ios":"levelo://app?vid=72575c8a-312f-4530-958f-072d84b24098"},"vehicle_type_id":"4","last_reported":1721156851,"current_range_meters":16400,"station_id":"ce4bgih2rcd13ifvqba0","pricing_plan_id":"cebpf4jnsgd1na2vs0mg"},{"bike_id":"ddb15a62-17b8-45a0-903d-edd0902b4b2b","system_id":"levelo_inurba_marseille","lat":43.29529,"lon":5.385581,"is_reserved":false,"is_disabled":false,"rental_uris":{"android":"levelo://app?vid=ddb15a62-17b8-45a0-903d-edd0902b4b2b","ios":"levelo://app?vid=ddb15a62-17b8-45a0-903d-edd0902b4b2b"},"vehicle_type_id":"4","last_reported":1721156851,"current_range_meters":19200,"station_id":"ce4bgih2rcd13ifvqba0","pricing_plan_id":"cebpf4jnsgd1na2vs0mg"},{"bike_id":"14df7939-8492-453d-aeb2-f0ab221c5e22","system_id":"levelo_inurba_marseille","lat":43.29524,"lon":5.38534,"is_reserved":false,"is_disabled":false,"rental_uris":{"android":"levelo://app?vid=14df7939-8492-453d-aeb2-f0ab221c5e22","ios":"levelo://app?vid=14df7939-8492-453d-aeb2-f0ab221c5e22"},"vehicle_type_id":"4","last_reported":1721156851,"current_range_meters":6400,"station_id":"ce4bgih2rcd13ifvqba0","pricing_plan_id":"cebpf4jnsgd1na2vs0mg"},{"bike_id":"22aba94c-1078-4ea6-bb67-f09d21292905","system_id":"levelo_inurba_marseille","lat":43.29529,"lon":5.385581,"is_reserved":false,"is_disabled":false,"rental_uris":{"android":"levelo://app?vid=22aba94c-1078-4ea6-bb67-f09d21292905","ios":"levelo://app?vid=22aba94c-1078-4ea6-bb67-f09d21292905"},"vehicle_type_id":"4","last_reported":1721156851,"current_range_meters":19600,"station_id":"ce4bgih2rcd13ifvqba0","pricing_plan_id":"cebpf4jnsgd1na2vs0mg"},{"bike_id":"f93e3900-35e0-4978-9131-b6994badb1c0","system_id":"levelo_inurba_marseille","lat":43.29529,"lon":5.385581,"is_reserved":false,"is_disabled":false,"rental_uris":{"android":"levelo://app?vid=f93e3900-35e0-4978-9131-b6994badb1c0","ios":"levelo://app?vid=f93e3900-35e0-4978-9131-b6994badb1c0"},"vehicle_type_id":"4","last_reported":1721156851,"current_range_meters":10000,"station_id":"ce4bgih2rcd13ifvqba0","pricing_plan_id":"cebpf4jnsgd1na2vs0mg"},{"bike_id":"0b5893e0-8b88-4ee9-98cd-88744cd382a0","system_id":"levelo_inurba_marseille","lat":43.29529,"lon":5.385581,"is_reserved":false,"is_disabled":false,"rental_uris":{"android":"levelo://app?vid=0b5893e0-8b88-4ee9-98cd-88744cd382a0","ios":"levelo://app?vid=0b5893e0-8b88-4ee9-98cd-88744cd382a0"},"vehicle_type_id":"4","last_reported":1721156851,"current_range_meters":21200,"station_id":"ce4bgih2rcd13ifvqba0","pricing_plan_id":"cebpf4jnsgd1na2vs0mg"},{"bike_id":"91db1a55-13b2-4ac3-b05c-0073f3f65cd6","system_id":"levelo_inurba_marseille","lat":43.302008,"lon":5.394694,"is_reserved":false,"is_disabled":false,"rental_uris":{"android":"levelo://app?vid=91db1a55-13b2-4ac3-b05c-0073f3f65cd6","ios":"levelo://app?vid=91db1a55-13b2-4ac3-b05c-0073f3f65cd6"},"vehicle_type_id":"4","last_reported":1721156851,"current_range_meters":25200,"station_id":"ce4bh0p2rcd13ifvqd70","pricing_plan_id":"cebpf4jnsgd1na2vs0mg"},{"bike_id":"497c5532-7ff3-4f60-9e04-6bd8e7ffdf8e","system_id":"levelo_inurba_marseille","lat":43.290624,"lon":5.359245,"is_reserved":false,"is_disabled":false,"rental_uris":{"android":"levelo://app?vid=497c5532-7ff3-4f60-9e04-6bd8e7ffdf8e","ios":"levelo://app?vid=497c5532-7ff3-4f60-9e04-6bd8e7ffdf8e"},"vehicle_type_id":"4","last_reported":1721156851,"current_range_meters":4400,"station_id":"ce4bha92rcd13ifvqeg0","pricing_plan_id":"cebpf4jnsgd1na2vs0mg"},{"bike_id":"2884e366-c67b-46fb-83ca-aa9ccc4f41ab","system_id":"levelo_inurba_marseille","lat":43.294837,"lon":5.387081,"is_reserved":false,"is_disabled":false,"rental_uris":{"android":"levelo://app?vid=2884e366-c67b-46fb-83ca-aa9ccc4f41ab","ios":"levelo://app?vid=2884e366-c67b-46fb-83ca-aa9ccc4f41ab"},"vehicle_type_id":"4","last_reported":1721156851,"current_range_meters":2400,"station_id":"ce4bh2h2rcd13ifvqdh0","pricing_plan_id":"cebpf4jnsgd1na2vs0mg"},{"bike_id":"6c36b4c9-01a6-4345-b28f-57e10ceaead4","system_id":"levelo_inurba_marseille","lat":43.294153,"lon":5.386305,"is_reserved":false,"is_disabled":false,"rental_uris":{"android":"levelo://app?vid=6c36b4c9-01a6-4345-b28f-57e10ceaead4","ios":"levelo://app?vid=6c36b4c9-01a6-4345-b28f-57e10ceaead4"},"vehicle_type_id":"4","last_reported":1721156851,"current_range_meters":5200,"station_id":"ce4bh2h2rcd13ifvqdh0","pricing_plan_id":"cebpf4jnsgd1na2vs0mg"},{"bike_id":"cfebc5a0-e706-4c76-af09-0d9ea273c5cd","system_id":"levelo_inurba_marseille","lat":43.294153,"lon":5.386305,"is_reserved":false,"is_disabled":false,"rental_uris":{"android":"levelo://app?vid=cfebc5a0-e706-4c76-af09-0d9ea273c5cd","ios":"levelo://app?vid=cfebc5a0-e706-4c76-af09-0d9ea273c5cd"},"vehicle_type_id":"4","last_reported":1721156851,"current_range_meters":0,"station_id":"ce4bh2h2rcd13ifvqdh0","pricing_plan_id":"cebpf4jnsgd1na2vs0mg"},{"bike_id":"0a4f1ac1-0b90-40d5-acf9-44a10f7e05a9","system_id":"levelo_inurba_marseille","lat":43.29421,"lon":5.38623,"is_reserved":false,"is_disabled":false,"rental_uris":{"android":"levelo://app?vid=0a4f1ac1-0b90-40d5-acf9-44a10f7e05a9","ios":"levelo://app?vid=0a4f1ac1-0b90-40d5-acf9-44a10f7e05a9"},"vehicle_type_id":"4","last_reported":1721156851,"current_range_meters":17200,"station_id":"ce4bh2h2rcd13ifvqdh0","pricing_plan_id":"cebpf4jnsgd1na2vs0mg"},{"bike_id":"37607963-1f14-4c04-8b4e-dd983510fc4e","system_id":"levelo_inurba_marseille","lat":43.294162,"lon":5.386292,"is_reserved":false,"is_disabled":false,"rental_uris":{"android":"levelo://app?vid=37607963-1f14-4c04-8b4e-dd983510fc4e","ios":"levelo://app?vid=37607963-1f14-4c04-8b4e-dd983510fc4e"},"vehicle_type_id":"4","last_reported":1721156851,"current_range_meters":15600,"station_id":"ce4bh2h2rcd13ifvqdh0","pricing_plan_id":"cebpf4jnsgd1na2vs0mg"},{"bike_id":"39f27bb0-7398-402c-91d6-99d4d738b14d","system_id":"levelo_inurba_marseille","lat":43.294162,"lon":5.386292,"is_reserved":false,"is_disabled":false,"rental_uris":{"android":"levelo://app?vid=39f27bb0-7398-402c-91d6-99d4d738b14d","ios":"levelo://app?vid=39f27bb0-7398-402c-91d6-99d4d738b14d"},"vehicle_type_id":"4","last_reported":1721156851,"current_range_meters":14000,"station_id":"ce4bh2h2rcd13ifvqdh0","pricing_plan_id":"cebpf4jnsgd1na2vs0mg"},{"bike_id":"0968decf-90a9-493c-81fa-0907fd9612f0","system_id":"levelo_inurba_marseille","lat":43.28947,"lon":5.36635,"is_reserved":false,"is_disabled":false,"rental_uris":{"android":"levelo://app?vid=0968decf-90a9-493c-81fa-0907fd9612f0","ios":"levelo://app?vid=0968decf-90a9-493c-81fa-0907fd9612f0"},"vehicle_type_id":"4","last_reported":1721156851,"current_range_meters":17600,"station_id":"ce4bhap2rcd13ifvqek0","pricing_plan_id":"cebpf4jnsgd1na2vs0mg"},{"bike_id":"90bab823-25dc-4926-a403-81512a2d9d97","system_id":"levelo_inurba_marseille","lat":43.29417,"lon":5.38622,"is_reserved":false,"is_disabled":false,"rental_uris":{"android":"levelo://app?vid=90bab823-25dc-4926-a403-81512a2d9d97","ios":"levelo://app?vid=90bab823-25dc-4926-a403-81512a2d9d97"},"vehicle_type_id":"4","last_reported":1721156851,"current_range_meters":20400,"station_id":"ce4bh2h2rcd13ifvqdh0","pricing_plan_id":"cebpf4jnsgd1na2vs0mg"},{"bike_id":"87be9758-22c5-48d0-92ff-a8f5156c3904","system_id":"levelo_inurba_marseille","lat":43.294173,"lon":5.386227,"is_reserved":false,"is_disabled":false,"rental_uris":{"android":"levelo://app?vid=87be9758-22c5-48d0-92ff-a8f5156c3904","ios":"levelo://app?vid=87be9758-22c5-48d0-92ff-a8f5156c3904"},"vehicle_type_id":"4","last_reported":1721156851,"current_range_meters":0,"station_id":"ce4bh2h2rcd13ifvqdh0","pricing_plan_id":"cebpf4jnsgd1na2vs0mg"},{"bike_id":"59cc3ed1-573f-4b3a-a82a-3264666eda82","system_id":"levelo_inurba_marseille","lat":43.29415,"lon":5.38619,"is_reserved":false,"is_disabled":false,"rental_uris":{"android":"levelo://app?vid=59cc3ed1-573f-4b3a-a82a-3264666eda82","ios":"levelo://app?vid=59cc3ed1-573f-4b3a-a82a-3264666eda82"},"vehicle_type_id":"4","last_reported":1721156851,"current_range_meters":800,"station_id":"ce4bh2h2rcd13ifvqdh0","pricing_plan_id":"cebpf4jnsgd1na2vs0mg"},{"bike_id":"c5b660c1-83d5-4443-bd2b-34c839a04563","system_id":"levelo_inurba_marseille","lat":43.294153,"lon":5.386305,"is_reserved":false,"is_disabled":false,"rental_uris":{"android":"levelo://app?vid=c5b660c1-83d5-4443-bd2b-34c839a04563","ios":"levelo://app?vid=c5b660c1-83d5-4443-bd2b-34c839a04563"},"vehicle_type_id":"4","last_reported":1721156851,"current_range_meters":0,"station_id":"ce4bh2h2rcd13ifvqdh0","pricing_plan_id":"cebpf4jnsgd1na2vs0mg"},{"bike_id":"23906c52-24eb-412b-b4ed-fa941dc67651","system_id":"levelo_inurba_marseille","lat":43.29416,"lon":5.38623,"is_reserved":false,"is_disabled":false,"rental_uris":{"android":"levelo://app?vid=23906c52-24eb-412b-b4ed-fa941dc67651","ios":"levelo://app?vid=23906c52-24eb-412b-b4ed-fa941dc67651"},"vehicle_type_id":"4","last_reported":1721156851,"current_range_meters":0,"station_id":"ce4bh2h2rcd13ifvqdh0","pricing_plan_id":"cebpf4jnsgd1na2vs0mg"},{"bike_id":"f6a66e1b-4532-452f-a6d9-98504f47daba","system_id":"levelo_inurba_marseille","lat":43.294183,"lon":5.38628,"is_reserved":false,"is_disabled":false,"rental_uris":{"android":"levelo://app?vid=f6a66e1b-4532-452f-a6d9-98504f47daba","ios":"levelo://app?vid=f6a66e1b-4532-452f-a6d9-98504f47daba"},"vehicle_type_id":"4","last_reported":1721156851,"current_range_meters":16800,"station_id":"ce4bh2h2rcd13ifvqdh0","pricing_plan_id":"cebpf4jnsgd1na2vs0mg"},{"bike_id":"f5d033af-0611-4822-b583-ce252457a106","system_id":"levelo_inurba_marseille","lat":43.294162,"lon":5.386292,"is_reserved":false,"is_disabled":false,"rental_uris":{"android":"levelo://app?vid=f5d033af-0611-4822-b583-ce252457a106","ios":"levelo://app?vid=f5d033af-0611-4822-b583-ce252457a106"},"vehicle_type_id":"4","last_reported":1721156851,"current_range_meters":25200,"station_id":"ce4bh2h2rcd13ifvqdh0","pricing_plan_id":"cebpf4jnsgd1na2vs0mg"},{"bike_id":"dccee282-7629-4837-9e35-cf76f9573999","system_id":"levelo_inurba_marseille","lat":43.29418,"lon":5.38632,"is_reserved":false,"is_disabled":false,"rental_uris":{"android":"levelo://app?vid=dccee282-7629-4837-9e35-cf76f9573999","ios":"levelo://app?vid=dccee282-7629-4837-9e35-cf76f9573999"},"vehicle_type_id":"4","last_reported":1721156851,"current_range_meters":0,"station_id":"ce4bh2h2rcd13ifvqdh0","pricing_plan_id":"cebpf4jnsgd1na2vs0mg"},{"bike_id":"c5202ed9-c2f8-4f9a-ba73-97797c8e9b79","system_id":"levelo_inurba_marseille","lat":43.294125,"lon":5.386224,"is_reserved":false,"is_disabled":false,"rental_uris":{"android":"levelo://app?vid=c5202ed9-c2f8-4f9a-ba73-97797c8e9b79","ios":"levelo://app?vid=c5202ed9-c2f8-4f9a-ba73-97797c8e9b79"},"vehicle_type_id":"4","last_reported":1721156851,"current_range_meters":17200,"station_id":"ce4bh2h2rcd13ifvqdh0","pricing_plan_id":"cebpf4jnsgd1na2vs0mg"},{"bike_id":"4c2e08a0-ddeb-4845-9a2d-93630d2d2542","system_id":"levelo_inurba_marseille","lat":43.28942,"lon":5.3663,"is_reserved":false,"is_disabled":false,"rental_uris":{"android":"levelo://app?vid=4c2e08a0-ddeb-4845-9a2d-93630d2d2542","ios":"levelo://app?vid=4c2e08a0-ddeb-4845-9a2d-93630d2d2542"},"vehicle_type_id":"4","last_reported":1721156851,"current_range_meters":31200,"station_id":"ce4bhap2rcd13ifvqek0","pricing_plan_id":"cebpf4jnsgd1na2vs0mg"},{"bike_id":"6cdcbf1a-1f8e-49d2-aa4f-115742488b30","system_id":"levelo_inurba_marseille","lat":43.289408,"lon":5.366444,"is_reserved":false,"is_disabled":false,"rental_uris":{"android":"levelo://app?vid=6cdcbf1a-1f8e-49d2-aa4f-115742488b30","ios":"levelo://app?vid=6cdcbf1a-1f8e-49d2-aa4f-115742488b30"},"vehicle_type_id":"4","last_reported":1721156851,"current_range_meters":400,"station_id":"ce4bhap2rcd13ifvqek0","pricing_plan_id":"cebpf4jnsgd1na2vs0mg"},{"bike_id":"100f4c2c-b283-4e26-9b2f-36b7b06c47e2","system_id":"levelo_inurba_marseille","lat":43.2894,"lon":5.36626,"is_reserved":false,"is_disabled":false,"rental_uris":{"android":"levelo://app?vid=100f4c2c-b283-4e26-9b2f-36b7b06c47e2","ios":"levelo://app?vid=100f4c2c-b283-4e26-9b2f-36b7b06c47e2"},"vehicle_type_id":"4","last_reported":1721156851,"current_range_meters":31200,"station_id":"","pricing_plan_id":"cebpf4jnsgd1na2vs0mg"},{"bike_id":"f0bef864-b099-4eae-bfc8-672ad52ffe37","system_id":"levelo_inurba_marseille","lat":43.289396,"lon":5.366478,"is_reserved":false,"is_disabled":false,"rental_uris":{"android":"levelo://app?vid=f0bef864-b099-4eae-bfc8-672ad52ffe37","ios":"levelo://app?vid=f0bef864-b099-4eae-bfc8-672ad52ffe37"},"vehicle_type_id":"4","last_reported":1721156851,"current_range_meters":0,"station_id":"ce4bh512rcd13ifvqe2g","pricing_plan_id":"cebpf4jnsgd1na2vs0mg"},{"bike_id":"3ce410d3-b882-4eea-b5f6-c8ff1a4a0db7","system_id":"levelo_inurba_marseille","lat":43.29414,"lon":5.38633,"is_reserved":false,"is_disabled":false,"rental_uris":{"android":"levelo://app?vid=3ce410d3-b882-4eea-b5f6-c8ff1a4a0db7","ios":"levelo://app?vid=3ce410d3-b882-4eea-b5f6-c8ff1a4a0db7"},"vehicle_type_id":"4","last_reported":1721156851,"current_range_meters":10800,"station_id":"ce4bh2h2rcd13ifvqdh0","pricing_plan_id":"cebpf4jnsgd1na2vs0mg"},{"bike_id":"73d338a7-42b8-4596-837d-81523ee033d8","system_id":"levelo_inurba_marseille","lat":43.2941,"lon":5.38626,"is_reserved":false,"is_disabled":false,"rental_uris":{"android":"levelo://app?vid=73d338a7-42b8-4596-837d-81523ee033d8","ios":"levelo://app?vid=73d338a7-42b8-4596-837d-81523ee033d8"},"vehicle_type_id":"4","last_reported":1721156851,"current_range_meters":22400,"station_id":"ce4bh2h2rcd13ifvqdh0","pricing_plan_id":"cebpf4jnsgd1na2vs0mg"},{"bike_id":"c9636a9d-7d77-4209-af82-d3c1dfc6e575","system_id":"levelo_inurba_marseille","lat":43.289184,"lon":5.366408,"is_reserved":false,"is_disabled":false,"rental_uris":{"android":"levelo://app?vid=c9636a9d-7d77-4209-af82-d3c1dfc6e575","ios":"levelo://app?vid=c9636a9d-7d77-4209-af82-d3c1dfc6e575"},"vehicle_type_id":"4","last_reported":1721156851,"current_range_meters":13600,"station_id":"ce4bhap2rcd13ifvqek0","pricing_plan_id":"cebpf4jnsgd1na2vs0mg"},{"bike_id":"14a2ccd3-51a3-44d4-8a38-da66449fe25f","system_id":"levelo_inurba_marseille","lat":43.289791,"lon":5.373342,"is_reserved":false,"is_disabled":false,"rental_uris":{"android":"levelo://app?vid=14a2ccd3-51a3-44d4-8a38-da66449fe25f","ios":"levelo://app?vid=14a2ccd3-51a3-44d4-8a38-da66449fe25f"},"vehicle_type_id":"4","last_reported":1721156851,"current_range_meters":4000,"station_id":"","pricing_plan_id":"cebpf4jnsgd1na2vs0mg"},{"bike_id":"23b51b92-6648-4118-8984-bd747fcba811","system_id":"levelo_inurba_marseille","lat":43.289468,"lon":5.363719,"is_reserved":false,"is_disabled":false,"rental_uris":{"android":"levelo://app?vid=23b51b92-6648-4118-8984-bd747fcba811","ios":"levelo://app?vid=23b51b92-6648-4118-8984-bd747fcba811"},"vehicle_type_id":"4","last_reported":1721156851,"current_range_meters":1200,"station_id":"ce4bhc92rcd13ifvqetg","pricing_plan_id":"cebpf4jnsgd1na2vs0mg"},{"bike_id":"716c6d23-96cb-4f9f-87c9-2f446a0adf58","system_id":"levelo_inurba_marseille","lat":43.31566,"lon":5.39887,"is_reserved":false,"is_disabled":false,"rental_uris":{"android":"levelo://app?vid=716c6d23-96cb-4f9f-87c9-2f446a0adf58","ios":"levelo://app?vid=716c6d23-96cb-4f9f-87c9-2f446a0adf58"},"vehicle_type_id":"4","last_reported":1721156851,"current_range_meters":12400,"station_id":"","pricing_plan_id":"cebpf4jnsgd1na2vs0mg"},{"bike_id":"fb996f31-fb58-4b93-88d7-c322f231469f","system_id":"levelo_inurba_marseille","lat":43.292644,"lon":5.384257,"is_reserved":false,"is_disabled":false,"rental_uris":{"android":"levelo://app?vid=fb996f31-fb58-4b93-88d7-c322f231469f","ios":"levelo://app?vid=fb996f31-fb58-4b93-88d7-c322f231469f"},"vehicle_type_id":"4","last_reported":1721156851,"current_range_meters":6000,"station_id":"ce4bh692rcd13ifvqea0","pricing_plan_id":"cebpf4jnsgd1na2vs0mg"},{"bike_id":"fc614f30-581c-4572-8808-e57d413374fe","system_id":"levelo_inurba_marseille","lat":43.2927,"lon":5.38435,"is_reserved":false,"is_disabled":false,"rental_uris":{"android":"levelo://app?vid=fc614f30-581c-4572-8808-e57d413374fe","ios":"levelo://app?vid=fc614f30-581c-4572-8808-e57d413374fe"},"vehicle_type_id":"4","last_reported":1721156851,"current_range_meters":4800,"station_id":"ce4bh692rcd13ifvqea0","pricing_plan_id":"cebpf4jnsgd1na2vs0mg"},{"bike_id":"f7766fc8-ae8e-419e-bfae-677d998fa38b","system_id":"levelo_inurba_marseille","lat":43.29268,"lon":5.38434,"is_reserved":false,"is_disabled":false,"rental_uris":{"android":"levelo://app?vid=f7766fc8-ae8e-419e-bfae-677d998fa38b","ios":"levelo://app?vid=f7766fc8-ae8e-419e-bfae-677d998fa38b"},"vehicle_type_id":"4","last_reported":1721156851,"current_range_meters":14000,"station_id":"ce4bh692rcd13ifvqea0","pricing_plan_id":"cebpf4jnsgd1na2vs0mg"},{"bike_id":"fc7d43f6-e8dd-49fe-9dcb-26b38b88963e","system_id":"levelo_inurba_marseille","lat":43.29271,"lon":5.38441,"is_reserved":false,"is_disabled":false,"rental_uris":{"android":"levelo://app?vid=fc7d43f6-e8dd-49fe-9dcb-26b38b88963e","ios":"levelo://app?vid=fc7d43f6-e8dd-49fe-9dcb-26b38b88963e"},"vehicle_type_id":"4","last_reported":1721156851,"current_range_meters":5600,"station_id":"ce4bh692rcd13ifvqea0","pricing_plan_id":"cebpf4jnsgd1na2vs0mg"},{"bike_id":"cf471bf7-d4b7-4d2b-9b8f-ea7dfebeb160","system_id":"levelo_inurba_marseille","lat":43.292695,"lon":5.38442,"is_reserved":false,"is_disabled":false,"rental_uris":{"android":"levelo://app?vid=cf471bf7-d4b7-4d2b-9b8f-ea7dfebeb160","ios":"levelo://app?vid=cf471bf7-d4b7-4d2b-9b8f-ea7dfebeb160"},"vehicle_type_id":"4","last_reported":1721156851,"current_range_meters":1600,"station_id":"ce4bh692rcd13ifvqea0","pricing_plan_id":"cebpf4jnsgd1na2vs0mg"},{"bike_id":"23040d69-2f2e-4fa1-b532-8a3e46f1dc24","system_id":"levelo_inurba_marseille","lat":43.29266,"lon":5.38439,"is_reserved":false,"is_disabled":false,"rental_uris":{"android":"levelo://app?vid=23040d69-2f2e-4fa1-b532-8a3e46f1dc24","ios":"levelo://app?vid=23040d69-2f2e-4fa1-b532-8a3e46f1dc24"},"vehicle_type_id":"4","last_reported":1721156851,"current_range_meters":0,"station_id":"ce4bh692rcd13ifvqea0","pricing_plan_id":"cebpf4jnsgd1na2vs0mg"},{"bike_id":"968059ff-79fd-40b3-88d0-1ad18578acf7","system_id":"levelo_inurba_marseille","lat":43.292683,"lon":5.384451,"is_reserved":false,"is_disabled":false,"rental_uris":{"android":"levelo://app?vid=968059ff-79fd-40b3-88d0-1ad18578acf7","ios":"levelo://app?vid=968059ff-79fd-40b3-88d0-1ad18578acf7"},"vehicle_type_id":"4","last_reported":1721156851,"current_range_meters":2000,"station_id":"ce4bh692rcd13ifvqea0","pricing_plan_id":"cebpf4jnsgd1na2vs0mg"},{"bike_id":"63b03a03-e30a-44d6-8363-4e4cf20cb985","system_id":"levelo_inurba_marseille","lat":43.29264,"lon":5.38436,"is_reserved":false,"is_disabled":false,"rental_uris":{"android":"levelo://app?vid=63b03a03-e30a-44d6-8363-4e4cf20cb985","ios":"levelo://app?vid=63b03a03-e30a-44d6-8363-4e4cf20cb985"},"vehicle_type_id":"4","last_reported":1721156851,"current_range_meters":28400,"station_id":"ce4bh692rcd13ifvqea0","pricing_plan_id":"cebpf4jnsgd1na2vs0mg"},{"bike_id":"e91a0461-8909-4511-bef0-2aa674649312","system_id":"levelo_inurba_marseille","lat":43.292635,"lon":5.38437,"is_reserved":false,"is_disabled":false,"rental_uris":{"android":"levelo://app?vid=e91a0461-8909-4511-bef0-2aa674649312","ios":"levelo://app?vid=e91a0461-8909-4511-bef0-2aa674649312"},"vehicle_type_id":"4","last_reported":1721156851,"current_range_meters":0,"station_id":"ce4bh692rcd13ifvqea0","pricing_plan_id":"cebpf4jnsgd1na2vs0mg"},{"bike_id":"2b3249df-218e-4011-85f2-cb77c2208ac8","system_id":"levelo_inurba_marseille","lat":43.292519,"lon":5.38412,"is_reserved":false,"is_disabled":false,"rental_uris":{"android":"levelo://app?vid=2b3249df-218e-4011-85f2-cb77c2208ac8","ios":"levelo://app?vid=2b3249df-218e-4011-85f2-cb77c2208ac8"},"vehicle_type_id":"4","last_reported":1721156851,"current_range_meters":23200,"station_id":"ce4bh692rcd13ifvqea0","pricing_plan_id":"cebpf4jnsgd1na2vs0mg"},{"bike_id":"3039ba40-cb44-4641-838d-3d60bec70f8c","system_id":"levelo_inurba_marseille","lat":43.304296,"lon":5.397513,"is_reserved":false,"is_disabled":false,"rental_uris":{"android":"levelo://app?vid=3039ba40-cb44-4641-838d-3d60bec70f8c","ios":"levelo://app?vid=3039ba40-cb44-4641-838d-3d60bec70f8c"},"vehicle_type_id":"4","last_reported":1721156851,"current_range_meters":17600,"station_id":"ce4bh092rcd13ifvqd20","pricing_plan_id":"cebpf4jnsgd1na2vs0mg"},{"bike_id":"d9529158-cad1-4252-9883-eec2677afe3d","system_id":"levelo_inurba_marseille","lat":43.29262,"lon":5.38436,"is_reserved":false,"is_disabled":false,"rental_uris":{"android":"levelo://app?vid=d9529158-cad1-4252-9883-eec2677afe3d","ios":"levelo://app?vid=d9529158-cad1-4252-9883-eec2677afe3d"},"vehicle_type_id":"4","last_reported":1721156851,"current_range_meters":0,"station_id":"ce4bh692rcd13ifvqea0","pricing_plan_id":"cebpf4jnsgd1na2vs0mg"},{"bike_id":"f9a73ed2-1c46-47ce-96d4-03162f6a3523","system_id":"levelo_inurba_marseille","lat":43.29263,"lon":5.3844,"is_reserved":false,"is_disabled":false,"rental_uris":{"android":"levelo://app?vid=f9a73ed2-1c46-47ce-96d4-03162f6a3523","ios":"levelo://app?vid=f9a73ed2-1c46-47ce-96d4-03162f6a3523"},"vehicle_type_id":"4","last_reported":1721156851,"current_range_meters":1200,"station_id":"ce4bh692rcd13ifvqea0","pricing_plan_id":"cebpf4jnsgd1na2vs0mg"},{"bike_id":"eaa8c4b3-09ce-4423-b97c-ed2f331b2db8","system_id":"levelo_inurba_marseille","lat":43.29261,"lon":5.38436,"is_reserved":false,"is_disabled":false,"rental_uris":{"android":"levelo://app?vid=eaa8c4b3-09ce-4423-b97c-ed2f331b2db8","ios":"levelo://app?vid=eaa8c4b3-09ce-4423-b97c-ed2f331b2db8"},"vehicle_type_id":"4","last_reported":1721156851,"current_range_meters":28000,"station_id":"ce4bh692rcd13ifvqea0","pricing_plan_id":"cebpf4jnsgd1na2vs0mg"},{"bike_id":"08a028d4-b015-4493-b711-654d5cf665d9","system_id":"levelo_inurba_marseille","lat":43.29262,"lon":5.3844,"is_reserved":false,"is_disabled":false,"rental_uris":{"android":"levelo://app?vid=08a028d4-b015-4493-b711-654d5cf665d9","ios":"levelo://app?vid=08a028d4-b015-4493-b711-654d5cf665d9"},"vehicle_type_id":"4","last_reported":1721156851,"current_range_meters":0,"station_id":"ce4bh692rcd13ifvqea0","pricing_plan_id":"cebpf4jnsgd1na2vs0mg"},{"bike_id":"a99ff396-4d04-46f2-8ba6-72a318bf5a3f","system_id":"levelo_inurba_marseille","lat":43.29261,"lon":5.38438,"is_reserved":false,"is_disabled":false,"rental_uris":{"android":"levelo://app?vid=a99ff396-4d04-46f2-8ba6-72a318bf5a3f","ios":"levelo://app?vid=a99ff396-4d04-46f2-8ba6-72a318bf5a3f"},"vehicle_type_id":"4","last_reported":1721156851,"current_range_meters":0,"station_id":"ce4bh692rcd13ifvqea0","pricing_plan_id":"cebpf4jnsgd1na2vs0mg"},{"bike_id":"b980f0e1-819d-463f-8aff-e644ba76985c","system_id":"levelo_inurba_marseille","lat":43.29261,"lon":5.38438,"is_reserved":false,"is_disabled":false,"rental_uris":{"android":"levelo://app?vid=b980f0e1-819d-463f-8aff-e644ba76985c","ios":"levelo://app?vid=b980f0e1-819d-463f-8aff-e644ba76985c"},"vehicle_type_id":"4","last_reported":1721156851,"current_range_meters":10000,"station_id":"ce4bh692rcd13ifvqea0","pricing_plan_id":"cebpf4jnsgd1na2vs0mg"},{"bike_id":"b3f96f12-b38f-432b-b113-816a5302ceeb","system_id":"levelo_inurba_marseille","lat":43.29261,"lon":5.38438,"is_reserved":false,"is_disabled":false,"rental_uris":{"android":"levelo://app?vid=b3f96f12-b38f-432b-b113-816a5302ceeb","ios":"levelo://app?vid=b3f96f12-b38f-432b-b113-816a5302ceeb"},"vehicle_type_id":"4","last_reported":1721156851,"current_range_meters":20000,"station_id":"ce4bh692rcd13ifvqea0","pricing_plan_id":"cebpf4jnsgd1na2vs0mg"},{"bike_id":"f4c0b32f-5d19-4966-a5b8-d44332b23da9","system_id":"levelo_inurba_marseille","lat":43.2926,"lon":5.3844,"is_reserved":false,"is_disabled":false,"rental_uris":{"android":"levelo://app?vid=f4c0b32f-5d19-4966-a5b8-d44332b23da9","ios":"levelo://app?vid=f4c0b32f-5d19-4966-a5b8-d44332b23da9"},"vehicle_type_id":"4","last_reported":1721156851,"current_range_meters":0,"station_id":"ce4bh692rcd13ifvqea0","pricing_plan_id":"cebpf4jnsgd1na2vs0mg"},{"bike_id":"32562195-92ff-4af4-bb4f-b49530e16f0e","system_id":"levelo_inurba_marseille","lat":43.29255,"lon":5.38448,"is_reserved":false,"is_disabled":false,"rental_uris":{"android":"levelo://app?vid=32562195-92ff-4af4-bb4f-b49530e16f0e","ios":"levelo://app?vid=32562195-92ff-4af4-bb4f-b49530e16f0e"},"vehicle_type_id":"4","last_reported":1721156851,"current_range_meters":0,"station_id":"ce4bh692rcd13ifvqea0","pricing_plan_id":"cebpf4jnsgd1na2vs0mg"},{"bike_id":"3db54fb9-d92e-4bff-ab19-35733fffb318","system_id":"levelo_inurba_marseille","lat":43.290103,"lon":5.356114,"is_reserved":false,"is_disabled":false,"rental_uris":{"android":"levelo://app?vid=3db54fb9-d92e-4bff-ab19-35733fffb318","ios":"levelo://app?vid=3db54fb9-d92e-4bff-ab19-35733fffb318"},"vehicle_type_id":"4","last_reported":1721156851,"current_range_meters":14400,"station_id":"ce4bhb92rcd13ifvqen0","pricing_plan_id":"cebpf4jnsgd1na2vs0mg"},{"bike_id":"cb6e2d1b-d7f1-4c81-a7c8-c44154d446db","system_id":"levelo_inurba_marseille","lat":43.290104,"lon":5.356111,"is_reserved":false,"is_disabled":false,"rental_uris":{"android":"levelo://app?vid=cb6e2d1b-d7f1-4c81-a7c8-c44154d446db","ios":"levelo://app?vid=cb6e2d1b-d7f1-4c81-a7c8-c44154d446db"},"vehicle_type_id":"4","last_reported":1721156851,"current_range_meters":800,"station_id":"ce4bhb92rcd13ifvqen0","pricing_plan_id":"cebpf4jnsgd1na2vs0mg"},{"bike_id":"120ae17d-b9fe-427f-90ee-3fc12cd67554","system_id":"levelo_inurba_marseille","lat":43.290995,"lon":5.381361,"is_reserved":false,"is_disabled":false,"rental_uris":{"android":"levelo://app?vid=120ae17d-b9fe-427f-90ee-3fc12cd67554","ios":"levelo://app?vid=120ae17d-b9fe-427f-90ee-3fc12cd67554"},"vehicle_type_id":"4","last_reported":1721156851,"current_range_meters":28800,"station_id":"ce4bh512rcd13ifvqe2g","pricing_plan_id":"cebpf4jnsgd1na2vs0mg"},{"bike_id":"18e654bb-084c-48b6-a2da-7c78a737a27f","system_id":"levelo_inurba_marseille","lat":43.290995,"lon":5.381361,"is_reserved":false,"is_disabled":false,"rental_uris":{"android":"levelo://app?vid=18e654bb-084c-48b6-a2da-7c78a737a27f","ios":"levelo://app?vid=18e654bb-084c-48b6-a2da-7c78a737a27f"},"vehicle_type_id":"4","last_reported":1721156851,"current_range_meters":0,"station_id":"ce4bh512rcd13ifvqe2g","pricing_plan_id":"cebpf4jnsgd1na2vs0mg"},{"bike_id":"27a3e9ca-6046-42a3-8a6c-811ac61798c2","system_id":"levelo_inurba_marseille","lat":43.295169,"lon":5.390426,"is_reserved":false,"is_disabled":false,"rental_uris":{"android":"levelo://app?vid=27a3e9ca-6046-42a3-8a6c-811ac61798c2","ios":"levelo://app?vid=27a3e9ca-6046-42a3-8a6c-811ac61798c2"},"vehicle_type_id":"4","last_reported":1721156851,"current_range_meters":26400,"station_id":"ce4bh3p2rcd13ifvqdp0","pricing_plan_id":"cebpf4jnsgd1na2vs0mg"},{"bike_id":"2e936419-b32f-481a-a6ca-ffb554683cd6","system_id":"levelo_inurba_marseille","lat":43.295169,"lon":5.390426,"is_reserved":false,"is_disabled":false,"rental_uris":{"android":"levelo://app?vid=2e936419-b32f-481a-a6ca-ffb554683cd6","ios":"levelo://app?vid=2e936419-b32f-481a-a6ca-ffb554683cd6"},"vehicle_type_id":"4","last_reported":1721156851,"current_range_meters":5200,"station_id":"ce4bh3p2rcd13ifvqdp0","pricing_plan_id":"cebpf4jnsgd1na2vs0mg"},{"bike_id":"b487707c-6ede-433e-8dd7-63c0033ae85e","system_id":"levelo_inurba_marseille","lat":43.297815,"lon":5.393548,"is_reserved":false,"is_disabled":false,"rental_uris":{"android":"levelo://app?vid=b487707c-6ede-433e-8dd7-63c0033ae85e","ios":"levelo://app?vid=b487707c-6ede-433e-8dd7-63c0033ae85e"},"vehicle_type_id":"4","last_reported":1721156851,"current_range_meters":4400,"station_id":"chh1huq6cuj3fo74tm60","pricing_plan_id":"cebpf4jnsgd1na2vs0mg"},{"bike_id":"653221a7-7445-4bac-859b-5d4aebcf844b","system_id":"levelo_inurba_marseille","lat":43.289797,"lon":5.378308,"is_reserved":false,"is_disabled":false,"rental_uris":{"android":"levelo://app?vid=653221a7-7445-4bac-859b-5d4aebcf844b","ios":"levelo://app?vid=653221a7-7445-4bac-859b-5d4aebcf844b"},"vehicle_type_id":"4","last_reported":1721156851,"current_range_meters":0,"station_id":"ce4bh9p2rcd13ifvqed0","pricing_plan_id":"cebpf4jnsgd1na2vs0mg"},{"bike_id":"255395b3-8ac1-447f-a798-a7f688371603","system_id":"levelo_inurba_marseille","lat":43.289743,"lon":5.378304,"is_reserved":false,"is_disabled":false,"rental_uris":{"android":"levelo://app?vid=255395b3-8ac1-447f-a798-a7f688371603","ios":"levelo://app?vid=255395b3-8ac1-447f-a798-a7f688371603"},"vehicle_type_id":"4","last_reported":1721156851,"current_range_meters":0,"station_id":"ce4bh9p2rcd13ifvqed0","pricing_plan_id":"cebpf4jnsgd1na2vs0mg"},{"bike_id":"37cacb1a-1f0a-477e-9b60-6fb42a681c8f","system_id":"levelo_inurba_marseille","lat":43.33025,"lon":5.39031,"is_reserved":false,"is_disabled":false,"rental_uris":{"android":"levelo://app?vid=37cacb1a-1f0a-477e-9b60-6fb42a681c8f","ios":"levelo://app?vid=37cacb1a-1f0a-477e-9b60-6fb42a681c8f"},"vehicle_type_id":"4","last_reported":1721156851,"current_range_meters":30400,"station_id":"ce4bhr92rcd13ifvqhrg","pricing_plan_id":"cebpf4jnsgd1na2vs0mg"},{"bike_id":"da401643-3a5d-4f9e-ad03-e804ee35e9df","system_id":"levelo_inurba_marseille","lat":43.295169,"lon":5.390426,"is_reserved":false,"is_disabled":false,"rental_uris":{"android":"levelo://app?vid=da401643-3a5d-4f9e-ad03-e804ee35e9df","ios":"levelo://app?vid=da401643-3a5d-4f9e-ad03-e804ee35e9df"},"vehicle_type_id":"4","last_reported":1721156851,"current_range_meters":25600,"station_id":"ce4bh3p2rcd13ifvqdp0","pricing_plan_id":"cebpf4jnsgd1na2vs0mg"},{"bike_id":"c445f74a-3c76-47c9-aae0-f23b1f365c28","system_id":"levelo_inurba_marseille","lat":43.28971,"lon":5.37822,"is_reserved":false,"is_disabled":false,"rental_uris":{"android":"levelo://app?vid=c445f74a-3c76-47c9-aae0-f23b1f365c28","ios":"levelo://app?vid=c445f74a-3c76-47c9-aae0-f23b1f365c28"},"vehicle_type_id":"4","last_reported":1721156851,"current_range_meters":0,"station_id":"ce4bh9p2rcd13ifvqed0","pricing_plan_id":"cebpf4jnsgd1na2vs0mg"},{"bike_id":"63eb1f10-8f50-4056-b906-ae38bd1078bb","system_id":"levelo_inurba_marseille","lat":43.330442,"lon":5.389148,"is_reserved":false,"is_disabled":false,"rental_uris":{"android":"levelo://app?vid=63eb1f10-8f50-4056-b906-ae38bd1078bb","ios":"levelo://app?vid=63eb1f10-8f50-4056-b906-ae38bd1078bb"},"vehicle_type_id":"4","last_reported":1721156851,"current_range_meters":12800,"station_id":"ce4bhr92rcd13ifvqhrg","pricing_plan_id":"cebpf4jnsgd1na2vs0mg"},{"bike_id":"c11066d3-608f-4432-a211-974ca1fa71e9","system_id":"levelo_inurba_marseille","lat":43.330442,"lon":5.389148,"is_reserved":false,"is_disabled":false,"rental_uris":{"android":"levelo://app?vid=c11066d3-608f-4432-a211-974ca1fa71e9","ios":"levelo://app?vid=c11066d3-608f-4432-a211-974ca1fa71e9"},"vehicle_type_id":"4","last_reported":1721156851,"current_range_meters":9600,"station_id":"ce4bhr92rcd13ifvqhrg","pricing_plan_id":"cebpf4jnsgd1na2vs0mg"},{"bike_id":"816e6443-c451-485e-bf20-57da3530966f","system_id":"levelo_inurba_marseille","lat":43.28969,"lon":5.37829,"is_reserved":false,"is_disabled":false,"rental_uris":{"android":"levelo://app?vid=816e6443-c451-485e-bf20-57da3530966f","ios":"levelo://app?vid=816e6443-c451-485e-bf20-57da3530966f"},"vehicle_type_id":"4","last_reported":1721156851,"current_range_meters":0,"station_id":"ce4bh9p2rcd13ifvqed0","pricing_plan_id":"cebpf4jnsgd1na2vs0mg"},{"bike_id":"081ee620-be93-408f-860c-c3ac8f92c7c3","system_id":"levelo_inurba_marseille","lat":43.295169,"lon":5.390426,"is_reserved":false,"is_disabled":false,"rental_uris":{"android":"levelo://app?vid=081ee620-be93-408f-860c-c3ac8f92c7c3","ios":"levelo://app?vid=081ee620-be93-408f-860c-c3ac8f92c7c3"},"vehicle_type_id":"4","last_reported":1721156851,"current_range_meters":2000,"station_id":"ce4bh3p2rcd13ifvqdp0","pricing_plan_id":"cebpf4jnsgd1na2vs0mg"},{"bike_id":"a40a1eb4-4932-4543-ab54-fdc38dc75d84","system_id":"levelo_inurba_marseille","lat":43.310767,"lon":5.400843,"is_reserved":false,"is_disabled":false,"rental_uris":{"android":"levelo://app?vid=a40a1eb4-4932-4543-ab54-fdc38dc75d84","ios":"levelo://app?vid=a40a1eb4-4932-4543-ab54-fdc38dc75d84"},"vehicle_type_id":"4","last_reported":1721156851,"current_range_meters":21600,"station_id":"","pricing_plan_id":"cebpf4jnsgd1na2vs0mg"},{"bike_id":"3e4322e0-0cb3-4431-9090-e58c65f4aa24","system_id":"levelo_inurba_marseille","lat":43.28856,"lon":5.358371,"is_reserved":false,"is_disabled":false,"rental_uris":{"android":"levelo://app?vid=3e4322e0-0cb3-4431-9090-e58c65f4aa24","ios":"levelo://app?vid=3e4322e0-0cb3-4431-9090-e58c65f4aa24"},"vehicle_type_id":"4","last_reported":1721156851,"current_range_meters":30000,"station_id":"ce4bhb12rcd13ifvqem0","pricing_plan_id":"cebpf4jnsgd1na2vs0mg"},{"bike_id":"5429d8ad-639c-43fb-90e3-5ba93d995049","system_id":"levelo_inurba_marseille","lat":43.28856,"lon":5.358371,"is_reserved":false,"is_disabled":false,"rental_uris":{"android":"levelo://app?vid=5429d8ad-639c-43fb-90e3-5ba93d995049","ios":"levelo://app?vid=5429d8ad-639c-43fb-90e3-5ba93d995049"},"vehicle_type_id":"4","last_reported":1721156851,"current_range_meters":2800,"station_id":"ce4bhb12rcd13ifvqem0","pricing_plan_id":"cebpf4jnsgd1na2vs0mg"},{"bike_id":"4cef0082-35dc-445b-8829-702dfc55694f","system_id":"levelo_inurba_marseille","lat":43.309371,"lon":5.401449,"is_reserved":false,"is_disabled":false,"rental_uris":{"android":"levelo://app?vid=4cef0082-35dc-445b-8829-702dfc55694f","ios":"levelo://app?vid=4cef0082-35dc-445b-8829-702dfc55694f"},"vehicle_type_id":"4","last_reported":1721156851,"current_range_meters":6800,"station_id":"ce4bgvp2rcd13ifvqct0","pricing_plan_id":"cebpf4jnsgd1na2vs0mg"},{"bike_id":"2591bc70-ab41-4966-9726-9e88dec53846","system_id":"levelo_inurba_marseille","lat":43.30934,"lon":5.40142,"is_reserved":false,"is_disabled":false,"rental_uris":{"android":"levelo://app?vid=2591bc70-ab41-4966-9726-9e88dec53846","ios":"levelo://app?vid=2591bc70-ab41-4966-9726-9e88dec53846"},"vehicle_type_id":"4","last_reported":1721156851,"current_range_meters":27200,"station_id":"ce4bgvp2rcd13ifvqct0","pricing_plan_id":"cebpf4jnsgd1na2vs0mg"},{"bike_id":"ffba9479-7cfc-4efd-be77-29da7a0badae","system_id":"levelo_inurba_marseille","lat":43.33743,"lon":5.37482,"is_reserved":false,"is_disabled":false,"rental_uris":{"android":"levelo://app?vid=ffba9479-7cfc-4efd-be77-29da7a0badae","ios":"levelo://app?vid=ffba9479-7cfc-4efd-be77-29da7a0badae"},"vehicle_type_id":"4","last_reported":1721156851,"current_range_meters":27600,"station_id":"","pricing_plan_id":"cebpf4jnsgd1na2vs0mg"},{"bike_id":"83329204-f8b4-4061-9e68-3aba39e87a6d","system_id":"levelo_inurba_marseille","lat":43.309371,"lon":5.401449,"is_reserved":false,"is_disabled":false,"rental_uris":{"android":"levelo://app?vid=83329204-f8b4-4061-9e68-3aba39e87a6d","ios":"levelo://app?vid=83329204-f8b4-4061-9e68-3aba39e87a6d"},"vehicle_type_id":"4","last_reported":1721156851,"current_range_meters":28400,"station_id":"ce4bgvp2rcd13ifvqct0","pricing_plan_id":"cebpf4jnsgd1na2vs0mg"},{"bike_id":"0091de75-016b-45ba-9fb9-87214e1f255e","system_id":"levelo_inurba_marseille","lat":43.33752,"lon":5.37451,"is_reserved":false,"is_disabled":false,"rental_uris":{"android":"levelo://app?vid=0091de75-016b-45ba-9fb9-87214e1f255e","ios":"levelo://app?vid=0091de75-016b-45ba-9fb9-87214e1f255e"},"vehicle_type_id":"4","last_reported":1721156851,"current_range_meters":20400,"station_id":"","pricing_plan_id":"cebpf4jnsgd1na2vs0mg"},{"bike_id":"d84b913f-b872-4ace-b943-d782c848dc21","system_id":"levelo_inurba_marseille","lat":43.309371,"lon":5.401449,"is_reserved":false,"is_disabled":false,"rental_uris":{"android":"levelo://app?vid=d84b913f-b872-4ace-b943-d782c848dc21","ios":"levelo://app?vid=d84b913f-b872-4ace-b943-d782c848dc21"},"vehicle_type_id":"4","last_reported":1721156851,"current_range_meters":22800,"station_id":"ce4bgvp2rcd13ifvqct0","pricing_plan_id":"cebpf4jnsgd1na2vs0mg"},{"bike_id":"1af5f287-d103-48a7-b5e1-e8059521cf33","system_id":"levelo_inurba_marseille","lat":43.337572,"lon":5.37456,"is_reserved":false,"is_disabled":false,"rental_uris":{"android":"levelo://app?vid=1af5f287-d103-48a7-b5e1-e8059521cf33","ios":"levelo://app?vid=1af5f287-d103-48a7-b5e1-e8059521cf33"},"vehicle_type_id":"4","last_reported":1721156851,"current_range_meters":29600,"station_id":"","pricing_plan_id":"cebpf4jnsgd1na2vs0mg"},{"bike_id":"6d86028a-7fba-4d34-8c2b-1bb6866deb60","system_id":"levelo_inurba_marseille","lat":43.337579,"lon":5.374557,"is_reserved":false,"is_disabled":false,"rental_uris":{"android":"levelo://app?vid=6d86028a-7fba-4d34-8c2b-1bb6866deb60","ios":"levelo://app?vid=6d86028a-7fba-4d34-8c2b-1bb6866deb60"},"vehicle_type_id":"4","last_reported":1721156851,"current_range_meters":18800,"station_id":"","pricing_plan_id":"cebpf4jnsgd1na2vs0mg"},{"bike_id":"70aef0a8-40cc-455e-8245-79620dc0db48","system_id":"levelo_inurba_marseille","lat":43.33766,"lon":5.374353,"is_reserved":false,"is_disabled":false,"rental_uris":{"android":"levelo://app?vid=70aef0a8-40cc-455e-8245-79620dc0db48","ios":"levelo://app?vid=70aef0a8-40cc-455e-8245-79620dc0db48"},"vehicle_type_id":"4","last_reported":1721156851,"current_range_meters":27600,"station_id":"","pricing_plan_id":"cebpf4jnsgd1na2vs0mg"},{"bike_id":"efea0c1a-9233-4ab8-a745-eca80a25a57b","system_id":"levelo_inurba_marseille","lat":43.33758,"lon":5.37486,"is_reserved":false,"is_disabled":false,"rental_uris":{"android":"levelo://app?vid=efea0c1a-9233-4ab8-a745-eca80a25a57b","ios":"levelo://app?vid=efea0c1a-9233-4ab8-a745-eca80a25a57b"},"vehicle_type_id":"4","last_reported":1721156851,"current_range_meters":5600,"station_id":"","pricing_plan_id":"cebpf4jnsgd1na2vs0mg"},{"bike_id":"59d3ee0a-15e6-4bb5-88d9-262f805555c4","system_id":"levelo_inurba_marseille","lat":43.337661,"lon":5.374567,"is_reserved":false,"is_disabled":false,"rental_uris":{"android":"levelo://app?vid=59d3ee0a-15e6-4bb5-88d9-262f805555c4","ios":"levelo://app?vid=59d3ee0a-15e6-4bb5-88d9-262f805555c4"},"vehicle_type_id":"4","last_reported":1721156851,"current_range_meters":26400,"station_id":"","pricing_plan_id":"cebpf4jnsgd1na2vs0mg"},{"bike_id":"c3e60c23-7a15-4cb1-826c-62f603ea40ae","system_id":"levelo_inurba_marseille","lat":43.28727,"lon":5.36078,"is_reserved":false,"is_disabled":false,"rental_uris":{"android":"levelo://app?vid=c3e60c23-7a15-4cb1-826c-62f603ea40ae","ios":"levelo://app?vid=c3e60c23-7a15-4cb1-826c-62f603ea40ae"},"vehicle_type_id":"4","last_reported":1721156851,"current_range_meters":5600,"station_id":"cki0cbj6b192h4jlfktg","pricing_plan_id":"cebpf4jnsgd1na2vs0mg"},{"bike_id":"615362c3-adf7-479f-ad13-f59812cb2fcf","system_id":"levelo_inurba_marseille","lat":43.337758,"lon":5.374389,"is_reserved":false,"is_disabled":false,"rental_uris":{"android":"levelo://app?vid=615362c3-adf7-479f-ad13-f59812cb2fcf","ios":"levelo://app?vid=615362c3-adf7-479f-ad13-f59812cb2fcf"},"vehicle_type_id":"4","last_reported":1721156851,"current_range_meters":27200,"station_id":"","pricing_plan_id":"cebpf4jnsgd1na2vs0mg"},{"bike_id":"7084d9f0-e423-4e4a-b248-7c0acc689dc5","system_id":"levelo_inurba_marseille","lat":43.3377,"lon":5.37476,"is_reserved":false,"is_disabled":false,"rental_uris":{"android":"levelo://app?vid=7084d9f0-e423-4e4a-b248-7c0acc689dc5","ios":"levelo://app?vid=7084d9f0-e423-4e4a-b248-7c0acc689dc5"},"vehicle_type_id":"4","last_reported":1721156851,"current_range_meters":28000,"station_id":"","pricing_plan_id":"cebpf4jnsgd1na2vs0mg"},{"bike_id":"f1a8fbbb-71c4-424b-bf72-99476589e5bb","system_id":"levelo_inurba_marseille","lat":43.30642,"lon":5.401031,"is_reserved":false,"is_disabled":false,"rental_uris":{"android":"levelo://app?vid=f1a8fbbb-71c4-424b-bf72-99476589e5bb","ios":"levelo://app?vid=f1a8fbbb-71c4-424b-bf72-99476589e5bb"},"vehicle_type_id":"4","last_reported":1721156851,"current_range_meters":7600,"station_id":"ce4bh112rcd13ifvqda0","pricing_plan_id":"cebpf4jnsgd1na2vs0mg"},{"bike_id":"fd96ed46-5780-43d0-adef-5be7f37ed123","system_id":"levelo_inurba_marseille","lat":43.301117,"lon":5.398795,"is_reserved":false,"is_disabled":false,"rental_uris":{"android":"levelo://app?vid=fd96ed46-5780-43d0-adef-5be7f37ed123","ios":"levelo://app?vid=fd96ed46-5780-43d0-adef-5be7f37ed123"},"vehicle_type_id":"4","last_reported":1721156851,"current_range_meters":20000,"station_id":"ce4bh0h2rcd13ifvqd40","pricing_plan_id":"cebpf4jnsgd1na2vs0mg"},{"bike_id":"5930e3f9-d5d5-4f8d-8b8a-872f35617e43","system_id":"levelo_inurba_marseille","lat":43.28731,"lon":5.36086,"is_reserved":false,"is_disabled":false,"rental_uris":{"android":"levelo://app?vid=5930e3f9-d5d5-4f8d-8b8a-872f35617e43","ios":"levelo://app?vid=5930e3f9-d5d5-4f8d-8b8a-872f35617e43"},