{"last_updated":1736449631,"ttl":60,"version":"2.2","data":{"bikes":[{"bike_id":"63c920e7-8d35-4253-a5d0-4ae8113a8577","system_id":"levelo_inurba_marseille","lat":43.28414,"lon":5.37491,"is_reserved":false,"is_disabled":false,"rental_uris":{"android":"levelo://app?vid=63c920e7-8d35-4253-a5d0-4ae8113a8577","ios":"levelo://app?vid=63c920e7-8d35-4253-a5d0-4ae8113a8577"},"vehicle_type_id":"4","last_reported":1736449631,"current_range_meters":11200,"station_id":"ce4bh412rcd13ifvqds0","pricing_plan_id":"cebpf4jnsgd1na2vs0mg"},{"bike_id":"01030598-7e5b-4658-9c08-654b4b038c29","system_id":"levelo_inurba_marseille","lat":43.32282,"lon":5.38272,"is_reserved":false,"is_disabled":false,"rental_uris":{"android":"levelo://app?vid=01030598-7e5b-4658-9c08-654b4b038c29","ios":"levelo://app?vid=01030598-7e5b-4658-9c08-654b4b038c29"},"vehicle_type_id":"4","last_reported":1736449631,"current_range_meters":19600,"station_id":"ce4bhr12rcd13ifvqhqg","pricing_plan_id":"cebpf4jnsgd1na2vs0mg"},{"bike_id":"b85397c8-62e6-44c6-8651-e9ccbd05dc54","system_id":"levelo_inurba_marseille","lat":43.31694,"lon":5.4048,"is_reserved":false,"is_disabled":false,"rental_uris":{"android":"levelo://app?vid=b85397c8-62e6-44c6-8651-e9ccbd05dc54","ios":"levelo://app?vid=b85397c8-62e6-44c6-8651-e9ccbd05dc54"},"vehicle_type_id":"4","last_reported":1736449631,"current_range_meters":26800,"station_id":"ce4bh012rcd13ifvqd00","pricing_plan_id":"cebpf4jnsgd1na2vs0mg"},{"bike_id":"b04e6453-5197-407a-9142-cb38f697b3e4","system_id":"levelo_inurba_marseille","lat":43.31366,"lon":5.38494,"is_reserved":false,"is_disabled":false,"rental_uris":{"android":"levelo://app?vid=b04e6453-5197-407a-9142-cb38f697b3e4","ios":"levelo://app?vid=b04e6453-5197-407a-9142-cb38f697b3e4"},"vehicle_type_id":"4","last_reported":1736449631,"current_range_meters":16400,"station_id":"ce4bgt92rcd13ifvqcf0","pricing_plan_id":"cebpf4jnsgd1na2vs0mg"},{"bike_id":"87c59741-1f05-4e3d-8c14-38f01f8816a9","system_id":"levelo_inurba_marseille","lat":43.23202,"lon":5.35547,"is_reserved":false,"is_disabled":false,"rental_uris":{"android":"levelo://app?vid=87c59741-1f05-4e3d-8c14-38f01f8816a9","ios":"levelo://app?vid=87c59741-1f05-4e3d-8c14-38f01f8816a9"},"vehicle_type_id":"4","last_reported":1736449631,"current_range_meters":14400,"station_id":"ce4bhu92rcd13ifvqi70","pricing_plan_id":"cebpf4jnsgd1na2vs0mg"},{"bike_id":"e3ed715f-8540-4a0c-8d1a-84fadaf0dd0f","system_id":"levelo_inurba_marseille","lat":43.34137,"lon":5.37742,"is_reserved":false,"is_disabled":false,"rental_uris":{"android":"levelo://app?vid=e3ed715f-8540-4a0c-8d1a-84fadaf0dd0f","ios":"levelo://app?vid=e3ed715f-8540-4a0c-8d1a-84fadaf0dd0f"},"vehicle_type_id":"4","last_reported":1736449631,"current_range_meters":38000,"station_id":"","pricing_plan_id":"cebpf4jnsgd1na2vs0mg"},{"bike_id":"079a2489-d193-414b-8b47-82e93bfb4b65","system_id":"levelo_inurba_marseille","lat":43.288915,"lon":5.380024,"is_reserved":false,"is_disabled":false,"rental_uris":{"android":"levelo://app?vid=079a2489-d193-414b-8b47-82e93bfb4b65","ios":"levelo://app?vid=079a2489-d193-414b-8b47-82e93bfb4b65"},"vehicle_type_id":"4","last_reported":1736449631,"current_range_meters":31200,"station_id":"","pricing_plan_id":"cebpf4jnsgd1na2vs0mg"},{"bike_id":"08d8bb07-59de-4a24-b07e-94f8244a758c","system_id":"levelo_inurba_marseille","lat":43.28028,"lon":5.41651,"is_reserved":false,"is_disabled":false,"rental_uris":{"android":"levelo://app?vid=08d8bb07-59de-4a24-b07e-94f8244a758c","ios":"levelo://app?vid=08d8bb07-59de-4a24-b07e-94f8244a758c"},"vehicle_type_id":"4","last_reported":1736449631,"current_range_meters":38800,"station_id":"ce4bho12rcd13ifvqh1g","pricing_plan_id":"cebpf4jnsgd1na2vs0mg"},{"bike_id":"c92ca6c7-287c-448c-adc4-6db9973f23fb","system_id":"levelo_inurba_marseille","lat":43.27171,"lon":5.40988,"is_reserved":false,"is_disabled":false,"rental_uris":{"android":"levelo://app?vid=c92ca6c7-287c-448c-adc4-6db9973f23fb","ios":"levelo://app?vid=c92ca6c7-287c-448c-adc4-6db9973f23fb"},"vehicle_type_id":"4","last_reported":1736449631,"current_range_meters":31200,"station_id":"ce4bhl12rcd13ifvqgf0","pricing_plan_id":"cebpf4jnsgd1na2vs0mg"},{"bike_id":"55a02019-1e86-4005-a9d2-298fc0cff8d0","system_id":"levelo_inurba_marseille","lat":43.29785,"lon":5.39356,"is_reserved":false,"is_disabled":false,"rental_uris":{"android":"levelo://app?vid=55a02019-1e86-4005-a9d2-298fc0cff8d0","ios":"levelo://app?vid=55a02019-1e86-4005-a9d2-298fc0cff8d0"},"vehicle_type_id":"4","last_reported":1736449631,"current_range_meters":28000,"station_id":"chh1huq6cuj3fo74tm60","pricing_plan_id":"cebpf4jnsgd1na2vs0mg"},{"bike_id":"90665ac2-a6cf-443c-89c0-0f0e8642d0af","system_id":"levelo_inurba_marseille","lat":43.29529,"lon":5.3854,"is_reserved":false,"is_disabled":false,"rental_uris":{"android":"levelo://app?vid=90665ac2-a6cf-443c-89c0-0f0e8642d0af","ios":"levelo://app?vid=90665ac2-a6cf-443c-89c0-0f0e8642d0af"},"vehicle_type_id":"4","last_reported":1736449631,"current_range_meters":36800,"station_id":"ce4bgih2rcd13ifvqba0","pricing_plan_id":"cebpf4jnsgd1na2vs0mg"},{"bike_id":"6727a1a4-fd3a-4415-a389-697df82e67ba","system_id":"levelo_inurba_marseille","lat":43.27995,"lon":5.41666,"is_reserved":false,"is_disabled":true,"rental_uris":{"android":"levelo://app?vid=6727a1a4-fd3a-4415-a389-697df82e67ba","ios":"levelo://app?vid=6727a1a4-fd3a-4415-a389-697df82e67ba"},"vehicle_type_id":"4","last_reported":1736449631,"current_range_meters":27200,"station_id":"ce4bho12rcd13ifvqh1g","pricing_plan_id":"cebpf4jnsgd1na2vs0mg"},{"bike_id":"b1346f2c-7cab-41f4-b9e9-053904c9fb2b","system_id":"levelo_inurba_marseille","lat":43.23962,"lon":5.36635,"is_reserved":false,"is_disabled":false,"rental_uris":{"android":"levelo://app?vid=b1346f2c-7cab-41f4-b9e9-053904c9fb2b","ios":"levelo://app?vid=b1346f2c-7cab-41f4-b9e9-053904c9fb2b"},"vehicle_type_id":"4","last_reported":1736449631,"current_range_meters":10000,"station_id":"ce4bhi12rcd13ifvqfp0","pricing_plan_id":"cebpf4jnsgd1na2vs0mg"},{"bike_id":"e3caf4fe-1067-47fd-8fc1-7a292d695a1f","system_id":"levelo_inurba_marseille","lat":43.30133,"lon":5.39844,"is_reserved":false,"is_disabled":false,"rental_uris":{"android":"levelo://app?vid=e3caf4fe-1067-47fd-8fc1-7a292d695a1f","ios":"levelo://app?vid=e3caf4fe-1067-47fd-8fc1-7a292d695a1f"},"vehicle_type_id":"4","last_reported":1736449631,"current_range_meters":28800,"station_id":"ce4bh0h2rcd13ifvqd40","pricing_plan_id":"cebpf4jnsgd1na2vs0mg"},{"bike_id":"a1cec5d9-735a-4697-b930-ba66dc42c1f0","system_id":"levelo_inurba_marseille","lat":43.30207,"lon":5.39486,"is_reserved":false,"is_disabled":false,"rental_uris":{"android":"levelo://app?vid=a1cec5d9-735a-4697-b930-ba66dc42c1f0","ios":"levelo://app?vid=a1cec5d9-735a-4697-b930-ba66dc42c1f0"},"vehicle_type_id":"4","last_reported":1736449631,"current_range_meters":19600,"station_id":"ce4bh0p2rcd13ifvqd70","pricing_plan_id":"cebpf4jnsgd1na2vs0mg"},{"bike_id":"93fa7c71-5d8f-4feb-89b1-77e70dee5a4d","system_id":"levelo_inurba_marseille","lat":43.28433,"lon":5.3918,"is_reserved":false,"is_disabled":true,"rental_uris":{"android":"levelo://app?vid=93fa7c71-5d8f-4feb-89b1-77e70dee5a4d","ios":"levelo://app?vid=93fa7c71-5d8f-4feb-89b1-77e70dee5a4d"},"vehicle_type_id":"4","last_reported":1736449631,"current_range_meters":16000,"station_id":"ce4bhoh2rcd13ifvqh5g","pricing_plan_id":"cebpf4jnsgd1na2vs0mg"},{"bike_id":"1dd50d83-8960-43b6-9680-5ca7c87a3318","system_id":"levelo_inurba_marseille","lat":43.28927,"lon":5.38387,"is_reserved":false,"is_disabled":false,"rental_uris":{"android":"levelo://app?vid=1dd50d83-8960-43b6-9680-5ca7c87a3318","ios":"levelo://app?vid=1dd50d83-8960-43b6-9680-5ca7c87a3318"},"vehicle_type_id":"4","last_reported":1736449631,"current_range_meters":38800,"station_id":"ce4bh612rcd13ifvqe6g","pricing_plan_id":"cebpf4jnsgd1na2vs0mg"},{"bike_id":"ece82557-6569-4215-9027-5b44a37fe52e","system_id":"levelo_inurba_marseille","lat":43.29091,"lon":5.3803,"is_reserved":false,"is_disabled":true,"rental_uris":{"android":"levelo://app?vid=ece82557-6569-4215-9027-5b44a37fe52e","ios":"levelo://app?vid=ece82557-6569-4215-9027-5b44a37fe52e"},"vehicle_type_id":"4","last_reported":1736449631,"current_range_meters":0,"station_id":"","pricing_plan_id":"cebpf4jnsgd1na2vs0mg"},{"bike_id":"7e512c8d-b0d0-4ed3-8ad0-dfeb94018a1a","system_id":"levelo_inurba_marseille","lat":43.28459,"lon":5.35886,"is_reserved":false,"is_disabled":false,"rental_uris":{"android":"levelo://app?vid=7e512c8d-b0d0-4ed3-8ad0-dfeb94018a1a","ios":"levelo://app?vid=7e512c8d-b0d0-4ed3-8ad0-dfeb94018a1a"},"vehicle_type_id":"4","last_reported":1736449631,"current_range_meters":8400,"station_id":"ce4bhah2rcd13ifvqei0","pricing_plan_id":"cebpf4jnsgd1na2vs0mg"},{"bike_id":"87980e4e-c450-47ec-a1d1-ecb21f9d9ceb","system_id":"levelo_inurba_marseille","lat":43.30801,"lon":5.38141,"is_reserved":false,"is_disabled":false,"rental_uris":{"android":"levelo://app?vid=87980e4e-c450-47ec-a1d1-ecb21f9d9ceb","ios":"levelo://app?vid=87980e4e-c450-47ec-a1d1-ecb21f9d9ceb"},"vehicle_type_id":"4","last_reported":1736449631,"current_range_meters":25200,"station_id":"ce4bgt12rcd13ifvqce0","pricing_plan_id":"cebpf4jnsgd1na2vs0mg"},{"bike_id":"934725f6-5cad-40a1-8a97-600d971f4e47","system_id":"levelo_inurba_marseille","lat":43.28268,"lon":5.35064,"is_reserved":false,"is_disabled":false,"rental_uris":{"android":"levelo://app?vid=934725f6-5cad-40a1-8a97-600d971f4e47","ios":"levelo://app?vid=934725f6-5cad-40a1-8a97-600d971f4e47"},"vehicle_type_id":"4","last_reported":1736449631,"current_range_meters":21600,"station_id":"ce4bhbp2rcd13ifvqerg","pricing_plan_id":"cebpf4jnsgd1na2vs0mg"},{"bike_id":"38f0dbc0-5843-45de-a0cf-8d4a0f6c60f2","system_id":"levelo_inurba_marseille","lat":43.28664,"lon":5.36355,"is_reserved":false,"is_disabled":false,"rental_uris":{"android":"levelo://app?vid=38f0dbc0-5843-45de-a0cf-8d4a0f6c60f2","ios":"levelo://app?vid=38f0dbc0-5843-45de-a0cf-8d4a0f6c60f2"},"vehicle_type_id":"4","last_reported":1736449631,"current_range_meters":38800,"station_id":"ce4bhah2rcd13ifvqej0","pricing_plan_id":"cebpf4jnsgd1na2vs0mg"},{"bike_id":"563c4a7d-5391-46eb-ab20-093cc97fac26","system_id":"levelo_inurba_marseille","lat":43.28454,"lon":5.35905,"is_reserved":false,"is_disabled":false,"rental_uris":{"android":"levelo://app?vid=563c4a7d-5391-46eb-ab20-093cc97fac26","ios":"levelo://app?vid=563c4a7d-5391-46eb-ab20-093cc97fac26"},"vehicle_type_id":"4","last_reported":1736449631,"current_range_meters":11600,"station_id":"ce4bhah2rcd13ifvqei0","pricing_plan_id":"cebpf4jnsgd1na2vs0mg"},{"bike_id":"74843fae-7642-4c61-9ef4-00fd0f8d5ae6","system_id":"levelo_inurba_marseille","lat":43.29418,"lon":5.38629,"is_reserved":false,"is_disabled":false,"rental_uris":{"android":"levelo://app?vid=74843fae-7642-4c61-9ef4-00fd0f8d5ae6","ios":"levelo://app?vid=74843fae-7642-4c61-9ef4-00fd0f8d5ae6"},"vehicle_type_id":"4","last_reported":1736449631,"current_range_meters":20800,"station_id":"ce4bh2h2rcd13ifvqdh0","pricing_plan_id":"cebpf4jnsgd1na2vs0mg"},{"bike_id":"30450efa-dc48-4906-a9fa-9b860b90b050","system_id":"levelo_inurba_marseille","lat":43.30215,"lon":5.39466,"is_reserved":false,"is_disabled":true,"rental_uris":{"android":"levelo://app?vid=30450efa-dc48-4906-a9fa-9b860b90b050","ios":"levelo://app?vid=30450efa-dc48-4906-a9fa-9b860b90b050"},"vehicle_type_id":"4","last_reported":1736449631,"current_range_meters":1200,"station_id":"ce4bh0p2rcd13ifvqd70","pricing_plan_id":"cebpf4jnsgd1na2vs0mg"},{"bike_id":"004c2ac5-7f25-4e48-8a80-9a02537f6ba6","system_id":"levelo_inurba_marseille","lat":43.32097,"lon":5.36796,"is_reserved":false,"is_disabled":false,"rental_uris":{"android":"levelo://app?vid=004c2ac5-7f25-4e48-8a80-9a02537f6ba6","ios":"levelo://app?vid=004c2ac5-7f25-4e48-8a80-9a02537f6ba6"},"vehicle_type_id":"4","last_reported":1736449631,"current_range_meters":38400,"station_id":"ce4bhrh2rcd13ifvqhug","pricing_plan_id":"cebpf4jnsgd1na2vs0mg"},{"bike_id":"be8f2ffe-9cb3-405c-b420-528c08d93838","system_id":"levelo_inurba_marseille","lat":43.27813,"lon":5.40716,"is_reserved":false,"is_disabled":false,"rental_uris":{"android":"levelo://app?vid=be8f2ffe-9cb3-405c-b420-528c08d93838","ios":"levelo://app?vid=be8f2ffe-9cb3-405c-b420-528c08d93838"},"vehicle_type_id":"4","last_reported":1736449631,"current_range_meters":6000,"station_id":"ce4bhnh2rcd13ifvqgtg","pricing_plan_id":"cebpf4jnsgd1na2vs0mg"},{"bike_id":"1b43a706-db0c-42b3-850f-d5a5958a20c9","system_id":"levelo_inurba_marseille","lat":43.26204,"lon":5.3793,"is_reserved":false,"is_disabled":true,"rental_uris":{"android":"levelo://app?vid=1b43a706-db0c-42b3-850f-d5a5958a20c9","ios":"levelo://app?vid=1b43a706-db0c-42b3-850f-d5a5958a20c9"},"vehicle_type_id":"4","last_reported":1736449631,"current_range_meters":400,"station_id":"ce4bhjp2rcd13ifvqg90","pricing_plan_id":"cebpf4jnsgd1na2vs0mg"},{"bike_id":"533bc63a-db50-4c62-9b68-283781947748","system_id":"levelo_inurba_marseille","lat":43.28464,"lon":5.35889,"is_reserved":false,"is_disabled":false,"rental_uris":{"android":"levelo://app?vid=533bc63a-db50-4c62-9b68-283781947748","ios":"levelo://app?vid=533bc63a-db50-4c62-9b68-283781947748"},"vehicle_type_id":"4","last_reported":1736449631,"current_range_meters":7200,"station_id":"ce4bhah2rcd13ifvqei0","pricing_plan_id":"cebpf4jnsgd1na2vs0mg"},{"bike_id":"4a2601ce-b8a3-401d-9bcf-b1a5174e0572","system_id":"levelo_inurba_marseille","lat":43.29526,"lon":5.3906,"is_reserved":false,"is_disabled":false,"rental_uris":{"android":"levelo://app?vid=4a2601ce-b8a3-401d-9bcf-b1a5174e0572","ios":"levelo://app?vid=4a2601ce-b8a3-401d-9bcf-b1a5174e0572"},"vehicle_type_id":"4","last_reported":1736449631,"current_range_meters":38400,"station_id":"ce4bh3p2rcd13ifvqdp0","pricing_plan_id":"cebpf4jnsgd1na2vs0mg"},{"bike_id":"ca0bb423-3f33-4e39-9f4e-1a0269c2026d","system_id":"levelo_inurba_marseille","lat":43.29004,"lon":5.35614,"is_reserved":false,"is_disabled":false,"rental_uris":{"android":"levelo://app?vid=ca0bb423-3f33-4e39-9f4e-1a0269c2026d","ios":"levelo://app?vid=ca0bb423-3f33-4e39-9f4e-1a0269c2026d"},"vehicle_type_id":"4","last_reported":1736449631,"current_range_meters":24400,"station_id":"ce4bhb92rcd13ifvqen0","pricing_plan_id":"cebpf4jnsgd1na2vs0mg"},{"bike_id":"8a0df70f-3b60-4510-bdf9-1eb41a2abb80","system_id":"levelo_inurba_marseille","lat":43.33588,"lon":5.40979,"is_reserved":false,"is_disabled":true,"rental_uris":{"android":"levelo://app?vid=8a0df70f-3b60-4510-bdf9-1eb41a2abb80","ios":"levelo://app?vid=8a0df70f-3b60-4510-bdf9-1eb41a2abb80"},"vehicle_type_id":"4","last_reported":1736449631,"current_range_meters":0,"station_id":"ce4bhqh2rcd13ifvqhmg","pricing_plan_id":"cebpf4jnsgd1na2vs0mg"},{"bike_id":"cb153d91-817b-4c66-9c1b-0ef2fcb66fe0","system_id":"levelo_inurba_marseille","lat":43.31531,"lon":5.38024,"is_reserved":false,"is_disabled":false,"rental_uris":{"android":"levelo://app?vid=cb153d91-817b-4c66-9c1b-0ef2fcb66fe0","ios":"levelo://app?vid=cb153d91-817b-4c66-9c1b-0ef2fcb66fe0"},"vehicle_type_id":"4","last_reported":1736449631,"current_range_meters":24800,"station_id":"ce4bhsp2rcd13ifvqi50","pricing_plan_id":"cebpf4jnsgd1na2vs0mg"},{"bike_id":"835f179d-37b2-4d12-b2a5-89b347fb933a","system_id":"levelo_inurba_marseille","lat":43.29631,"lon":5.40602,"is_reserved":false,"is_disabled":false,"rental_uris":{"android":"levelo://app?vid=835f179d-37b2-4d12-b2a5-89b347fb933a","ios":"levelo://app?vid=835f179d-37b2-4d12-b2a5-89b347fb933a"},"vehicle_type_id":"4","last_reported":1736449631,"current_range_meters":22400,"station_id":"ce4bh0h2rcd13ifvqd60","pricing_plan_id":"cebpf4jnsgd1na2vs0mg"},{"bike_id":"f9e4f5b2-99ce-4b23-af4d-c9ac3bd24a65","system_id":"levelo_inurba_marseille","lat":43.29251,"lon":5.38435,"is_reserved":false,"is_disabled":false,"rental_uris":{"android":"levelo://app?vid=f9e4f5b2-99ce-4b23-af4d-c9ac3bd24a65","ios":"levelo://app?vid=f9e4f5b2-99ce-4b23-af4d-c9ac3bd24a65"},"vehicle_type_id":"4","last_reported":1736449631,"current_range_meters":38400,"station_id":"ce4bh692rcd13ifvqea0","pricing_plan_id":"cebpf4jnsgd1na2vs0mg"},{"bike_id":"a890ddda-8431-42d9-95b9-2952fd899a75","system_id":"levelo_inurba_marseille","lat":43.27997,"lon":5.41668,"is_reserved":false,"is_disabled":true,"rental_uris":{"android":"levelo://app?vid=a890ddda-8431-42d9-95b9-2952fd899a75","ios":"levelo://app?vid=a890ddda-8431-42d9-95b9-2952fd899a75"},"vehicle_type_id":"4","last_reported":1736449631,"current_range_meters":38000,"station_id":"ce4bho12rcd13ifvqh1g","pricing_plan_id":"cebpf4jnsgd1na2vs0mg"},{"bike_id":"d9174f36-5460-448c-87ec-6ab90d5712b3","system_id":"levelo_inurba_marseille","lat":43.29534,"lon":5.38538,"is_reserved":false,"is_disabled":false,"rental_uris":{"android":"levelo://app?vid=d9174f36-5460-448c-87ec-6ab90d5712b3","ios":"levelo://app?vid=d9174f36-5460-448c-87ec-6ab90d5712b3"},"vehicle_type_id":"4","last_reported":1736449631,"current_range_meters":36800,"station_id":"ce4bgih2rcd13ifvqba0","pricing_plan_id":"cebpf4jnsgd1na2vs0mg"},{"bike_id":"9d5535df-7edb-47f9-ac14-54793dd626e0","system_id":"levelo_inurba_marseille","lat":43.22932,"lon":5.35374,"is_reserved":false,"is_disabled":false,"rental_uris":{"android":"levelo://app?vid=9d5535df-7edb-47f9-ac14-54793dd626e0","ios":"levelo://app?vid=9d5535df-7edb-47f9-ac14-54793dd626e0"},"vehicle_type_id":"4","last_reported":1736449631,"current_range_meters":27600,"station_id":"cpo3532slgdg3j2ikp40","pricing_plan_id":"cebpf4jnsgd1na2vs0mg"},{"bike_id":"3ca2cf6e-3b23-4345-a859-0106a2e40ca6","system_id":"levelo_inurba_marseille","lat":43.33599,"lon":5.41012,"is_reserved":false,"is_disabled":false,"rental_uris":{"android":"levelo://app?vid=3ca2cf6e-3b23-4345-a859-0106a2e40ca6","ios":"levelo://app?vid=3ca2cf6e-3b23-4345-a859-0106a2e40ca6"},"vehicle_type_id":"4","last_reported":1736449631,"current_range_meters":38000,"station_id":"ce4bhqh2rcd13ifvqhmg","pricing_plan_id":"cebpf4jnsgd1na2vs0mg"},{"bike_id":"0617fde0-97c2-4716-8570-25581d6a6543","system_id":"levelo_inurba_marseille","lat":43.27514,"lon":5.42453,"is_reserved":false,"is_disabled":false,"rental_uris":{"android":"levelo://app?vid=0617fde0-97c2-4716-8570-25581d6a6543","ios":"levelo://app?vid=0617fde0-97c2-4716-8570-25581d6a6543"},"vehicle_type_id":"4","last_reported":1736449631,"current_range_meters":38800,"station_id":"ce4bhn92rcd13ifvqgrg","pricing_plan_id":"cebpf4jnsgd1na2vs0mg"},{"bike_id":"30dba63a-a770-457b-9ff6-ffd38dfa754b","system_id":"levelo_inurba_marseille","lat":43.26995,"lon":5.39965,"is_reserved":false,"is_disabled":false,"rental_uris":{"android":"levelo://app?vid=30dba63a-a770-457b-9ff6-ffd38dfa754b","ios":"levelo://app?vid=30dba63a-a770-457b-9ff6-ffd38dfa754b"},"vehicle_type_id":"4","last_reported":1736449631,"current_range_meters":6000,"station_id":"","pricing_plan_id":"cebpf4jnsgd1na2vs0mg"},{"bike_id":"a794bfbc-d8c8-48f6-92f2-175016d70307","system_id":"levelo_inurba_marseille","lat":43.31113,"lon":5.37776,"is_reserved":false,"is_disabled":true,"rental_uris":{"android":"levelo://app?vid=a794bfbc-d8c8-48f6-92f2-175016d70307","ios":"levelo://app?vid=a794bfbc-d8c8-48f6-92f2-175016d70307"},"vehicle_type_id":"4","last_reported":1736449631,"current_range_meters":2000,"station_id":"ce4bgt92rcd13ifvqcg0","pricing_plan_id":"cebpf4jnsgd1na2vs0mg"},{"bike_id":"985f4a98-88ce-44df-a377-306817541fa4","system_id":"levelo_inurba_marseille","lat":43.28616,"lon":5.35084,"is_reserved":false,"is_disabled":false,"rental_uris":{"android":"levelo://app?vid=985f4a98-88ce-44df-a377-306817541fa4","ios":"levelo://app?vid=985f4a98-88ce-44df-a377-306817541fa4"},"vehicle_type_id":"4","last_reported":1736449631,"current_range_meters":14400,"station_id":"ce4bhch2rcd13ifvqeug","pricing_plan_id":"cebpf4jnsgd1na2vs0mg"},{"bike_id":"b4e93bde-c7c0-45ab-a558-80aa5d2eccf8","system_id":"levelo_inurba_marseille","lat":43.30232,"lon":5.40043,"is_reserved":false,"is_disabled":false,"rental_uris":{"android":"levelo://app?vid=b4e93bde-c7c0-45ab-a558-80aa5d2eccf8","ios":"levelo://app?vid=b4e93bde-c7c0-45ab-a558-80aa5d2eccf8"},"vehicle_type_id":"4","last_reported":1736449631,"current_range_meters":35600,"station_id":"ce4bgvh2rcd13ifvqcs0","pricing_plan_id":"cebpf4jnsgd1na2vs0mg"},{"bike_id":"feeeae9a-4bcc-477a-bc8c-e9391fa8aedd","system_id":"levelo_inurba_marseille","lat":43.29188,"lon":5.3931,"is_reserved":false,"is_disabled":true,"rental_uris":{"android":"levelo://app?vid=feeeae9a-4bcc-477a-bc8c-e9391fa8aedd","ios":"levelo://app?vid=feeeae9a-4bcc-477a-bc8c-e9391fa8aedd"},"vehicle_type_id":"4","last_reported":1736449631,"current_range_meters":0,"station_id":"ce4bh192rcd13ifvqdd0","pricing_plan_id":"cebpf4jnsgd1na2vs0mg"},{"bike_id":"bbb42691-618e-438b-93dc-2acd2c34e075","system_id":"levelo_inurba_marseille","lat":43.30552,"lon":5.4407,"is_reserved":false,"is_disabled":false,"rental_uris":{"android":"levelo://app?vid=bbb42691-618e-438b-93dc-2acd2c34e075","ios":"levelo://app?vid=bbb42691-618e-438b-93dc-2acd2c34e075"},"vehicle_type_id":"4","last_reported":1736449631,"current_range_meters":39200,"station_id":"ce4bhph2rcd13ifvqheg","pricing_plan_id":"cebpf4jnsgd1na2vs0mg"},{"bike_id":"dbe4d7d2-95f9-4a28-b000-f9ac7c3f52eb","system_id":"levelo_inurba_marseille","lat":43.29216,"lon":5.39297,"is_reserved":false,"is_disabled":true,"rental_uris":{"android":"levelo://app?vid=dbe4d7d2-95f9-4a28-b000-f9ac7c3f52eb","ios":"levelo://app?vid=dbe4d7d2-95f9-4a28-b000-f9ac7c3f52eb"},"vehicle_type_id":"4","last_reported":1736449631,"current_range_meters":0,"station_id":"ce4bh192rcd13ifvqdd0","pricing_plan_id":"cebpf4jnsgd1na2vs0mg"},{"bike_id":"1f332f31-305b-4f1a-b8af-5b121ba52cb2","system_id":"levelo_inurba_marseille","lat":43.27573,"lon":5.38423,"is_reserved":false,"is_disabled":false,"rental_uris":{"android":"levelo://app?vid=1f332f31-305b-4f1a-b8af-5b121ba52cb2","ios":"levelo://app?vid=1f332f31-305b-4f1a-b8af-5b121ba52cb2"},"vehicle_type_id":"4","last_reported":1736449631,"current_range_meters":16800,"station_id":"ce4bhh92rcd13ifvqfi0","pricing_plan_id":"cebpf4jnsgd1na2vs0mg"},{"bike_id":"2dc66654-3021-43ef-bbb3-3e8b62333eb6","system_id":"levelo_inurba_marseille","lat":43.30882,"lon":5.39633,"is_reserved":false,"is_disabled":true,"rental_uris":{"android":"levelo://app?vid=2dc66654-3021-43ef-bbb3-3e8b62333eb6","ios":"levelo://app?vid=2dc66654-3021-43ef-bbb3-3e8b62333eb6"},"vehicle_type_id":"4","last_reported":1736449631,"current_range_meters":1600,"station_id":"ce4bh012rcd13ifvqcv0","pricing_plan_id":"cebpf4jnsgd1na2vs0mg"},{"bike_id":"3b0e496e-fb5d-467b-9517-d654f577d492","system_id":"levelo_inurba_marseille","lat":43.31084,"lon":5.3836,"is_reserved":false,"is_disabled":false,"rental_uris":{"android":"levelo://app?vid=3b0e496e-fb5d-467b-9517-d654f577d492","ios":"levelo://app?vid=3b0e496e-fb5d-467b-9517-d654f577d492"},"vehicle_type_id":"4","last_reported":1736449631,"current_range_meters":32800,"station_id":"ce4bgv92rcd13ifvqcr0","pricing_plan_id":"cebpf4jnsgd1na2vs0mg"},{"bike_id":"1b347b6b-23fa-46e1-b35b-40be16793e4d","system_id":"levelo_inurba_marseille","lat":43.31093,"lon":5.42433,"is_reserved":false,"is_disabled":false,"rental_uris":{"android":"levelo://app?vid=1b347b6b-23fa-46e1-b35b-40be16793e4d","ios":"levelo://app?vid=1b347b6b-23fa-46e1-b35b-40be16793e4d"},"vehicle_type_id":"4","last_reported":1736449631,"current_range_meters":26000,"station_id":"ce4bhp92rcd13ifvqhag","pricing_plan_id":"cebpf4jnsgd1na2vs0mg"},{"bike_id":"6d907632-b7a4-409f-98d5-031bae93ab87","system_id":"levelo_inurba_marseille","lat":43.23965,"lon":5.36622,"is_reserved":false,"is_disabled":false,"rental_uris":{"android":"levelo://app?vid=6d907632-b7a4-409f-98d5-031bae93ab87","ios":"levelo://app?vid=6d907632-b7a4-409f-98d5-031bae93ab87"},"vehicle_type_id":"4","last_reported":1736449631,"current_range_meters":10000,"station_id":"ce4bhi12rcd13ifvqfp0","pricing_plan_id":"cebpf4jnsgd1na2vs0mg"},{"bike_id":"c578e259-3de8-445c-801e-bca618442a69","system_id":"levelo_inurba_marseille","lat":43.29788,"lon":5.38105,"is_reserved":false,"is_disabled":true,"rental_uris":{"android":"levelo://app?vid=c578e259-3de8-445c-801e-bca618442a69","ios":"levelo://app?vid=c578e259-3de8-445c-801e-bca618442a69"},"vehicle_type_id":"4","last_reported":1736449631,"current_range_meters":2000,"station_id":"ce4bgip2rcd13ifvqbb0","pricing_plan_id":"cebpf4jnsgd1na2vs0mg"},{"bike_id":"9ff6c79f-1655-47c9-9a82-00fc79052237","system_id":"levelo_inurba_marseille","lat":43.2871,"lon":5.37197,"is_reserved":false,"is_disabled":false,"rental_uris":{"android":"levelo://app?vid=9ff6c79f-1655-47c9-9a82-00fc79052237","ios":"levelo://app?vid=9ff6c79f-1655-47c9-9a82-00fc79052237"},"vehicle_type_id":"4","last_reported":1736449631,"current_range_meters":39200,"station_id":"ce4bhap2rcd13ifvqek0","pricing_plan_id":"cebpf4jnsgd1na2vs0mg"},{"bike_id":"47bf1d3b-9ea4-46ae-bef4-a3eab10562ba","system_id":"levelo_inurba_marseille","lat":43.29703,"lon":5.37693,"is_reserved":false,"is_disabled":false,"rental_uris":{"android":"levelo://app?vid=47bf1d3b-9ea4-46ae-bef4-a3eab10562ba","ios":"levelo://app?vid=47bf1d3b-9ea4-46ae-bef4-a3eab10562ba"},"vehicle_type_id":"4","last_reported":1736449631,"current_range_meters":26800,"station_id":"ce4bgkh2rcd13ifvqbl0","pricing_plan_id":"cebpf4jnsgd1na2vs0mg"},{"bike_id":"10462dcc-e13f-45f1-946d-e86779b50486","system_id":"levelo_inurba_marseille","lat":43.30795,"lon":5.38171,"is_reserved":false,"is_disabled":false,"rental_uris":{"android":"levelo://app?vid=10462dcc-e13f-45f1-946d-e86779b50486","ios":"levelo://app?vid=10462dcc-e13f-45f1-946d-e86779b50486"},"vehicle_type_id":"4","last_reported":1736449631,"current_range_meters":38800,"station_id":"ce4bgt12rcd13ifvqce0","pricing_plan_id":"cebpf4jnsgd1na2vs0mg"},{"bike_id":"a816258e-3246-4099-b421-3c9b784b731d","system_id":"levelo_inurba_marseille","lat":43.24168,"lon":5.39705,"is_reserved":false,"is_disabled":false,"rental_uris":{"android":"levelo://app?vid=a816258e-3246-4099-b421-3c9b784b731d","ios":"levelo://app?vid=a816258e-3246-4099-b421-3c9b784b731d"},"vehicle_type_id":"4","last_reported":1736449631,"current_range_meters":38800,"station_id":"ce4bhn12rcd13ifvqgpg","pricing_plan_id":"cebpf4jnsgd1na2vs0mg"},{"bike_id":"8b16fe75-4fb4-4490-bf9c-50851b300223","system_id":"levelo_inurba_marseille","lat":43.29536,"lon":5.38544,"is_reserved":false,"is_disabled":false,"rental_uris":{"android":"levelo://app?vid=8b16fe75-4fb4-4490-bf9c-50851b300223","ios":"levelo://app?vid=8b16fe75-4fb4-4490-bf9c-50851b300223"},"vehicle_type_id":"4","last_reported":1736449631,"current_range_meters":38800,"station_id":"ce4bgih2rcd13ifvqba0","pricing_plan_id":"cebpf4jnsgd1na2vs0mg"},{"bike_id":"20daafc9-4aaa-4b54-8b79-eac236f93e15","system_id":"levelo_inurba_marseille","lat":43.27913,"lon":5.39584,"is_reserved":false,"is_disabled":false,"rental_uris":{"android":"levelo://app?vid=20daafc9-4aaa-4b54-8b79-eac236f93e15","ios":"levelo://app?vid=20daafc9-4aaa-4b54-8b79-eac236f93e15"},"vehicle_type_id":"4","last_reported":1736449631,"current_range_meters":16400,"station_id":"ce4bhf92rcd13ifvqf40","pricing_plan_id":"cebpf4jnsgd1na2vs0mg"},{"bike_id":"7a8815b0-b3da-47e7-ba3a-9a1b15d56a99","system_id":"levelo_inurba_marseille","lat":43.2943,"lon":5.39738,"is_reserved":false,"is_disabled":false,"rental_uris":{"android":"levelo://app?vid=7a8815b0-b3da-47e7-ba3a-9a1b15d56a99","ios":"levelo://app?vid=7a8815b0-b3da-47e7-ba3a-9a1b15d56a99"},"vehicle_type_id":"4","last_reported":1736449631,"current_range_meters":39200,"station_id":"ce4bh3h2rcd13ifvqdo0","pricing_plan_id":"cebpf4jnsgd1na2vs0mg"},{"bike_id":"12aac73f-6586-4b71-a4c7-8bc7522a187e","system_id":"levelo_inurba_marseille","lat":43.30815,"lon":5.43497,"is_reserved":false,"is_disabled":false,"rental_uris":{"android":"levelo://app?vid=12aac73f-6586-4b71-a4c7-8bc7522a187e","ios":"levelo://app?vid=12aac73f-6586-4b71-a4c7-8bc7522a187e"},"vehicle_type_id":"4","last_reported":1736449631,"current_range_meters":28400,"station_id":"ce4bhph2rcd13ifvqheg","pricing_plan_id":"cebpf4jnsgd1na2vs0mg"},{"bike_id":"8fe05cd3-a784-46ac-b769-4a3bb713f28f","system_id":"levelo_inurba_marseille","lat":43.2319,"lon":5.3999,"is_reserved":false,"is_disabled":false,"rental_uris":{"android":"levelo://app?vid=8fe05cd3-a784-46ac-b769-4a3bb713f28f","ios":"levelo://app?vid=8fe05cd3-a784-46ac-b769-4a3bb713f28f"},"vehicle_type_id":"4","last_reported":1736449631,"current_range_meters":38800,"station_id":"ce4bhn12rcd13ifvqgqg","pricing_plan_id":"cebpf4jnsgd1na2vs0mg"},{"bike_id":"38d0c53e-a765-4eb8-9fcf-204c9744ffd4","system_id":"levelo_inurba_marseille","lat":43.26201,"lon":5.37905,"is_reserved":false,"is_disabled":false,"rental_uris":{"android":"levelo://app?vid=38d0c53e-a765-4eb8-9fcf-204c9744ffd4","ios":"levelo://app?vid=38d0c53e-a765-4eb8-9fcf-204c9744ffd4"},"vehicle_type_id":"4","last_reported":1736449631,"current_range_meters":28400,"station_id":"ce4bhjp2rcd13ifvqg90","pricing_plan_id":"cebpf4jnsgd1na2vs0mg"},{"bike_id":"db65d957-a342-4176-8e62-fe90d61f5fb1","system_id":"levelo_inurba_marseille","lat":43.28443,"lon":5.39198,"is_reserved":false,"is_disabled":false,"rental_uris":{"android":"levelo://app?vid=db65d957-a342-4176-8e62-fe90d61f5fb1","ios":"levelo://app?vid=db65d957-a342-4176-8e62-fe90d61f5fb1"},"vehicle_type_id":"4","last_reported":1736449631,"current_range_meters":37600,"station_id":"ce4bhoh2rcd13ifvqh5g","pricing_plan_id":"cebpf4jnsgd1na2vs0mg"},{"bike_id":"120c4d4b-acde-4f17-a9c0-a60a79b74caa","system_id":"levelo_inurba_marseille","lat":43.26052,"lon":5.39397,"is_reserved":false,"is_disabled":false,"rental_uris":{"android":"levelo://app?vid=120c4d4b-acde-4f17-a9c0-a60a79b74caa","ios":"levelo://app?vid=120c4d4b-acde-4f17-a9c0-a60a79b74caa"},"vehicle_type_id":"4","last_reported":1736449631,"current_range_meters":38800,"station_id":"ce4bhh92rcd13ifvqfj0","pricing_plan_id":"cebpf4jnsgd1na2vs0mg"},{"bike_id":"3965b4bc-83b0-48b6-8bba-edbef38dd6c5","system_id":"levelo_inurba_marseille","lat":43.29419,"lon":5.38614,"is_reserved":false,"is_disabled":false,"rental_uris":{"android":"levelo://app?vid=3965b4bc-83b0-48b6-8bba-edbef38dd6c5","ios":"levelo://app?vid=3965b4bc-83b0-48b6-8bba-edbef38dd6c5"},"vehicle_type_id":"4","last_reported":1736449631,"current_range_meters":36800,"station_id":"ce4bh2h2rcd13ifvqdh0","pricing_plan_id":"cebpf4jnsgd1na2vs0mg"},{"bike_id":"24181dd3-0787-4379-b3c6-dd5adf68524c","system_id":"levelo_inurba_marseille","lat":43.30441,"lon":5.38894,"is_reserved":false,"is_disabled":false,"rental_uris":{"android":"levelo://app?vid=24181dd3-0787-4379-b3c6-dd5adf68524c","ios":"levelo://app?vid=24181dd3-0787-4379-b3c6-dd5adf68524c"},"vehicle_type_id":"4","last_reported":1736449631,"current_range_meters":32000,"station_id":"ce4bgk12rcd13ifvqbi0","pricing_plan_id":"cebpf4jnsgd1na2vs0mg"},{"bike_id":"f5ca1267-8796-4e04-ae34-eb0613d65667","system_id":"levelo_inurba_marseille","lat":43.29603,"lon":5.37712,"is_reserved":false,"is_disabled":true,"rental_uris":{"android":"levelo://app?vid=f5ca1267-8796-4e04-ae34-eb0613d65667","ios":"levelo://app?vid=f5ca1267-8796-4e04-ae34-eb0613d65667"},"vehicle_type_id":"4","last_reported":1736449631,"current_range_meters":18800,"station_id":"ce4bgi92rcd13ifvqb90","pricing_plan_id":"cebpf4jnsgd1na2vs0mg"},{"bike_id":"5575814a-2de5-4bcf-aa99-2d5f79f9f325","system_id":"levelo_inurba_marseille","lat":43.28159,"lon":5.42646,"is_reserved":false,"is_disabled":false,"rental_uris":{"android":"levelo://app?vid=5575814a-2de5-4bcf-aa99-2d5f79f9f325","ios":"levelo://app?vid=5575814a-2de5-4bcf-aa99-2d5f79f9f325"},"vehicle_type_id":"4","last_reported":1736449631,"current_range_meters":24000,"station_id":"ce4bhnh2rcd13ifvqgug","pricing_plan_id":"cebpf4jnsgd1na2vs0mg"},{"bike_id":"964909e1-d37e-4d41-b9d3-5b5f9c487c33","system_id":"levelo_inurba_marseille","lat":43.27953,"lon":5.38714,"is_reserved":false,"is_disabled":false,"rental_uris":{"android":"levelo://app?vid=964909e1-d37e-4d41-b9d3-5b5f9c487c33","ios":"levelo://app?vid=964909e1-d37e-4d41-b9d3-5b5f9c487c33"},"vehicle_type_id":"4","last_reported":1736449631,"current_range_meters":38800,"station_id":"ce4bhg12rcd13ifvqf80","pricing_plan_id":"cebpf4jnsgd1na2vs0mg"},{"bike_id":"2f7753a3-c1a9-49b7-88cb-919e6920ff96","system_id":"levelo_inurba_marseille","lat":43.31074,"lon":5.38346,"is_reserved":false,"is_disabled":false,"rental_uris":{"android":"levelo://app?vid=2f7753a3-c1a9-49b7-88cb-919e6920ff96","ios":"levelo://app?vid=2f7753a3-c1a9-49b7-88cb-919e6920ff96"},"vehicle_type_id":"4","last_reported":1736449631,"current_range_meters":27600,"station_id":"ce4bgv92rcd13ifvqcr0","pricing_plan_id":"cebpf4jnsgd1na2vs0mg"},{"bike_id":"4b38882c-ba9d-4741-88fd-5a0cd2a690f7","system_id":"levelo_inurba_marseille","lat":43.28431,"lon":5.39212,"is_reserved":false,"is_disabled":true,"rental_uris":{"android":"levelo://app?vid=4b38882c-ba9d-4741-88fd-5a0cd2a690f7","ios":"levelo://app?vid=4b38882c-ba9d-4741-88fd-5a0cd2a690f7"},"vehicle_type_id":"4","last_reported":1736449631,"current_range_meters":12000,"station_id":"ce4bhoh2rcd13ifvqh5g","pricing_plan_id":"cebpf4jnsgd1na2vs0mg"},{"bike_id":"0317929c-89b6-4577-9aca-e7837e00f864","system_id":"levelo_inurba_marseille","lat":43.31755,"lon":5.39016,"is_reserved":false,"is_disabled":false,"rental_uris":{"android":"levelo://app?vid=0317929c-89b6-4577-9aca-e7837e00f864","ios":"levelo://app?vid=0317929c-89b6-4577-9aca-e7837e00f864"},"vehicle_type_id":"4","last_reported":1736449631,"current_range_meters":36000,"station_id":"ce4bhqp2rcd13ifvqhng","pricing_plan_id":"cebpf4jnsgd1na2vs0mg"},{"bike_id":"72695a90-f74a-4962-9a9d-a8645f38fe53","system_id":"levelo_inurba_marseille","lat":43.24168,"lon":5.397134,"is_reserved":false,"is_disabled":false,"rental_uris":{"android":"levelo://app?vid=72695a90-f74a-4962-9a9d-a8645f38fe53","ios":"levelo://app?vid=72695a90-f74a-4962-9a9d-a8645f38fe53"},"vehicle_type_id":"4","last_reported":1736449631,"current_range_meters":36400,"station_id":"ce4bhn12rcd13ifvqgpg","pricing_plan_id":"cebpf4jnsgd1na2vs0mg"},{"bike_id":"caf5ed2e-07d8-4a5f-ab48-1ed045ef0cf9","system_id":"levelo_inurba_marseille","lat":43.32541,"lon":5.41457,"is_reserved":false,"is_disabled":false,"rental_uris":{"android":"levelo://app?vid=caf5ed2e-07d8-4a5f-ab48-1ed045ef0cf9","ios":"levelo://app?vid=caf5ed2e-07d8-4a5f-ab48-1ed045ef0cf9"},"vehicle_type_id":"4","last_reported":1736449631,"current_range_meters":5600,"station_id":"ce4bhq12rcd13ifvqhhg","pricing_plan_id":"cebpf4jnsgd1na2vs0mg"},{"bike_id":"c603c76e-af9c-449d-bf09-0700cc0eea19","system_id":"levelo_inurba_marseille","lat":43.29567,"lon":5.39965,"is_reserved":false,"is_disabled":true,"rental_uris":{"android":"levelo://app?vid=c603c76e-af9c-449d-bf09-0700cc0eea19","ios":"levelo://app?vid=c603c76e-af9c-449d-bf09-0700cc0eea19"},"vehicle_type_id":"4","last_reported":1736449631,"current_range_meters":33200,"station_id":"ce4bh312rcd13ifvqdj0","pricing_plan_id":"cebpf4jnsgd1na2vs0mg"},{"bike_id":"9db7b284-dd9c-4dc0-bd6a-ed3491ea1f27","system_id":"levelo_inurba_marseille","lat":43.31686,"lon":5.40473,"is_reserved":false,"is_disabled":true,"rental_uris":{"android":"levelo://app?vid=9db7b284-dd9c-4dc0-bd6a-ed3491ea1f27","ios":"levelo://app?vid=9db7b284-dd9c-4dc0-bd6a-ed3491ea1f27"},"vehicle_type_id":"4","last_reported":1736449631,"current_range_meters":800,"station_id":"ce4bh012rcd13ifvqd00","pricing_plan_id":"cebpf4jnsgd1na2vs0mg"},{"bike_id":"51c3f502-8de0-4bec-90c6-1b4e9958e81a","system_id":"levelo_inurba_marseille","lat":43.30214,"lon":5.39464,"is_reserved":false,"is_disabled":false,"rental_uris":{"android":"levelo://app?vid=51c3f502-8de0-4bec-90c6-1b4e9958e81a","ios":"levelo://app?vid=51c3f502-8de0-4bec-90c6-1b4e9958e81a"},"vehicle_type_id":"4","last_reported":1736449631,"current_range_meters":4800,"station_id":"ce4bh0p2rcd13ifvqd70","pricing_plan_id":"cebpf4jnsgd1na2vs0mg"},{"bike_id":"b650dde2-7848-41a4-9900-7fee56d7cee4","system_id":"levelo_inurba_marseille","lat":43.27208,"lon":5.39183,"is_reserved":false,"is_disabled":false,"rental_uris":{"android":"levelo://app?vid=b650dde2-7848-41a4-9900-7fee56d7cee4","ios":"levelo://app?vid=b650dde2-7848-41a4-9900-7fee56d7cee4"},"vehicle_type_id":"4","last_reported":1736449631,"current_range_meters":22400,"station_id":"ce4bhhp2rcd13ifvqfm0","pricing_plan_id":"cebpf4jnsgd1na2vs0mg"},{"bike_id":"2265611f-d5d9-449a-9b3f-b3fd2fa0d0b4","system_id":"levelo_inurba_marseille","lat":43.31688,"lon":5.40477,"is_reserved":false,"is_disabled":false,"rental_uris":{"android":"levelo://app?vid=2265611f-d5d9-449a-9b3f-b3fd2fa0d0b4","ios":"levelo://app?vid=2265611f-d5d9-449a-9b3f-b3fd2fa0d0b4"},"vehicle_type_id":"4","last_reported":1736449631,"current_range_meters":32000,"station_id":"ce4bh012rcd13ifvqd00","pricing_plan_id":"cebpf4jnsgd1na2vs0mg"},{"bike_id":"bc3bf521-2cf8-4b22-8ddb-c08f932b90e2","system_id":"levelo_inurba_marseille","lat":43.27065,"lon":5.42285,"is_reserved":false,"is_disabled":false,"rental_uris":{"android":"levelo://app?vid=bc3bf521-2cf8-4b22-8ddb-c08f932b90e2","ios":"levelo://app?vid=bc3bf521-2cf8-4b22-8ddb-c08f932b90e2"},"vehicle_type_id":"4","last_reported":1736449631,"current_range_meters":38800,"station_id":"ce4bhk92rcd13ifvqgb0","pricing_plan_id":"cebpf4jnsgd1na2vs0mg"},{"bike_id":"88c98fdb-e6ef-4d4a-b03f-b63184fecd5d","system_id":"levelo_inurba_marseille","lat":43.3301,"lon":5.39036,"is_reserved":false,"is_disabled":false,"rental_uris":{"android":"levelo://app?vid=88c98fdb-e6ef-4d4a-b03f-b63184fecd5d","ios":"levelo://app?vid=88c98fdb-e6ef-4d4a-b03f-b63184fecd5d"},"vehicle_type_id":"4","last_reported":1736449631,"current_range_meters":30000,"station_id":"ce4bhr92rcd13ifvqhrg","pricing_plan_id":"cebpf4jnsgd1na2vs0mg"},{"bike_id":"6f350ce5-d059-48a9-a90e-2ae70aae492e","system_id":"levelo_inurba_marseille","lat":43.29415,"lon":5.38614,"is_reserved":false,"is_disabled":false,"rental_uris":{"android":"levelo://app?vid=6f350ce5-d059-48a9-a90e-2ae70aae492e","ios":"levelo://app?vid=6f350ce5-d059-48a9-a90e-2ae70aae492e"},"vehicle_type_id":"4","last_reported":1736449631,"current_range_meters":14000,"station_id":"ce4bh2h2rcd13ifvqdh0","pricing_plan_id":"cebpf4jnsgd1na2vs0mg"},{"bike_id":"6c16b955-c13c-49a6-a5bb-29559922d02c","system_id":"levelo_inurba_marseille","lat":43.23956,"lon":5.36631,"is_reserved":false,"is_disabled":false,"rental_uris":{"android":"levelo://app?vid=6c16b955-c13c-49a6-a5bb-29559922d02c","ios":"levelo://app?vid=6c16b955-c13c-49a6-a5bb-29559922d02c"},"vehicle_type_id":"4","last_reported":1736449631,"current_range_meters":28000,"station_id":"ce4bhi12rcd13ifvqfp0","pricing_plan_id":"cebpf4jnsgd1na2vs0mg"},{"bike_id":"fccbecdc-7f6b-4c85-b510-cd5a92912b79","system_id":"levelo_inurba_marseille","lat":43.29681,"lon":5.37307,"is_reserved":false,"is_disabled":false,"rental_uris":{"android":"levelo://app?vid=fccbecdc-7f6b-4c85-b510-cd5a92912b79","ios":"levelo://app?vid=fccbecdc-7f6b-4c85-b510-cd5a92912b79"},"vehicle_type_id":"4","last_reported":1736449631,"current_range_meters":38800,"station_id":"ce4bgk12rcd13ifvqbj0","pricing_plan_id":"cebpf4jnsgd1na2vs0mg"},{"bike_id":"3fbdda11-26ab-4d79-94fa-413bedce8d9d","system_id":"levelo_inurba_marseille","lat":43.29025,"lon":5.38656,"is_reserved":false,"is_disabled":false,"rental_uris":{"android":"levelo://app?vid=3fbdda11-26ab-4d79-94fa-413bedce8d9d","ios":"levelo://app?vid=3fbdda11-26ab-4d79-94fa-413bedce8d9d"},"vehicle_type_id":"4","last_reported":1736449631,"current_range_meters":28400,"station_id":"ce4bh4p2rcd13ifvqe0g","pricing_plan_id":"cebpf4jnsgd1na2vs0mg"},{"bike_id":"dd95b172-24fd-4056-9bb1-1ba37d74b460","system_id":"levelo_inurba_marseille","lat":43.25585,"lon":5.38221,"is_reserved":false,"is_disabled":false,"rental_uris":{"android":"levelo://app?vid=dd95b172-24fd-4056-9bb1-1ba37d74b460","ios":"levelo://app?vid=dd95b172-24fd-4056-9bb1-1ba37d74b460"},"vehicle_type_id":"4","last_reported":1736449631,"current_range_meters":19200,"station_id":"ce4bhih2rcd13ifvqfs0","pricing_plan_id":"cebpf4jnsgd1na2vs0mg"},{"bike_id":"0bbc859e-e283-4bab-84ca-62723c8ed104","system_id":"levelo_inurba_marseille","lat":43.30136,"lon":5.39882,"is_reserved":false,"is_disabled":false,"rental_uris":{"android":"levelo://app?vid=0bbc859e-e283-4bab-84ca-62723c8ed104","ios":"levelo://app?vid=0bbc859e-e283-4bab-84ca-62723c8ed104"},"vehicle_type_id":"4","last_reported":1736449631,"current_range_meters":8400,"station_id":"ce4bh0h2rcd13ifvqd40","pricing_plan_id":"cebpf4jnsgd1na2vs0mg"},{"bike_id":"22ac7b71-1a85-40cf-b497-8c8a2d755c87","system_id":"levelo_inurba_marseille","lat":43.2925,"lon":5.40936,"is_reserved":false,"is_disabled":false,"rental_uris":{"android":"levelo://app?vid=22ac7b71-1a85-40cf-b497-8c8a2d755c87","ios":"levelo://app?vid=22ac7b71-1a85-40cf-b497-8c8a2d755c87"},"vehicle_type_id":"4","last_reported":1736449631,"current_range_meters":32800,"station_id":"ce4bh192rcd13ifvqdc0","pricing_plan_id":"cebpf4jnsgd1na2vs0mg"},{"bike_id":"142db499-b67d-4264-beb3-1cb30de10576","system_id":"levelo_inurba_marseille","lat":43.28354,"lon":5.38107,"is_reserved":false,"is_disabled":true,"rental_uris":{"android":"levelo://app?vid=142db499-b67d-4264-beb3-1cb30de10576","ios":"levelo://app?vid=142db499-b67d-4264-beb3-1cb30de10576"},"vehicle_type_id":"4","last_reported":1736449631,"current_range_meters":0,"station_id":"ce4bh412rcd13ifvqdr0","pricing_plan_id":"cebpf4jnsgd1na2vs0mg"},{"bike_id":"2af16f84-bbd1-4100-9266-148d4163daee","system_id":"levelo_inurba_marseille","lat":43.307809,"lon":5.376494,"is_reserved":false,"is_disabled":false,"rental_uris":{"android":"levelo://app?vid=2af16f84-bbd1-4100-9266-148d4163daee","ios":"levelo://app?vid=2af16f84-bbd1-4100-9266-148d4163daee"},"vehicle_type_id":"4","last_reported":1736449631,"current_range_meters":14000,"station_id":"ce4bgv92rcd13ifvqcq0","pricing_plan_id":"cebpf4jnsgd1na2vs0mg"},{"bike_id":"c6c08f57-1b2b-4d53-aabf-26763484169b","system_id":"levelo_inurba_marseille","lat":43.26556,"lon":5.39014,"is_reserved":false,"is_disabled":true,"rental_uris":{"android":"levelo://app?vid=c6c08f57-1b2b-4d53-aabf-26763484169b","ios":"levelo://app?vid=c6c08f57-1b2b-4d53-aabf-26763484169b"},"vehicle_type_id":"4","last_reported":1736449631,"current_range_meters":800,"station_id":"ce4bhe12rcd13ifvqf30","pricing_plan_id":"cebpf4jnsgd1na2vs0mg"},{"bike_id":"3b4478aa-aa08-44e3-8c3e-0ca0badb5e7a","system_id":"levelo_inurba_marseille","lat":43.31493,"lon":5.38915,"is_reserved":false,"is_disabled":false,"rental_uris":{"android":"levelo://app?vid=3b4478aa-aa08-44e3-8c3e-0ca0badb5e7a","ios":"levelo://app?vid=3b4478aa-aa08-44e3-8c3e-0ca0badb5e7a"},"vehicle_type_id":"4","last_reported":1736449631,"current_range_meters":38800,"station_id":"","pricing_plan_id":"cebpf4jnsgd1na2vs0mg"},{"bike_id":"e9187396-3f49-41b8-ab71-e99b599fd155","system_id":"levelo_inurba_marseille","lat":43.2987,"lon":5.39733,"is_reserved":false,"is_disabled":false,"rental_uris":{"android":"levelo://app?vid=e9187396-3f49-41b8-ab71-e99b599fd155","ios":"levelo://app?vid=e9187396-3f49-41b8-ab71-e99b599fd155"},"vehicle_type_id":"4","last_reported":1736449631,"current_range_meters":30400,"station_id":"ce4bh0h2rcd13ifvqd50","pricing_plan_id":"cebpf4jnsgd1na2vs0mg"},{"bike_id":"2a2319f3-5df5-4a7d-afc9-396339b99459","system_id":"levelo_inurba_marseille","lat":43.27186,"lon":5.41,"is_reserved":false,"is_disabled":true,"rental_uris":{"android":"levelo://app?vid=2a2319f3-5df5-4a7d-afc9-396339b99459","ios":"levelo://app?vid=2a2319f3-5df5-4a7d-afc9-396339b99459"},"vehicle_type_id":"4","last_reported":1736449631,"current_range_meters":32400,"station_id":"ce4bhl12rcd13ifvqgf0","pricing_plan_id":"cebpf4jnsgd1na2vs0mg"},{"bike_id":"f55b6854-a04c-4b41-a774-9a1dc98b3b82","system_id":"levelo_inurba_marseille","lat":43.28925,"lon":5.38384,"is_reserved":false,"is_disabled":false,"rental_uris":{"android":"levelo://app?vid=f55b6854-a04c-4b41-a774-9a1dc98b3b82","ios":"levelo://app?vid=f55b6854-a04c-4b41-a774-9a1dc98b3b82"},"vehicle_type_id":"4","last_reported":1736449631,"current_range_meters":16400,"station_id":"ce4bh612rcd13ifvqe6g","pricing_plan_id":"cebpf4jnsgd1na2vs0mg"},{"bike_id":"db2bb327-84ca-49b3-a980-9c69d6ef41a2","system_id":"levelo_inurba_marseille","lat":43.23187,"lon":5.35518,"is_reserved":false,"is_disabled":false,"rental_uris":{"android":"levelo://app?vid=db2bb327-84ca-49b3-a980-9c69d6ef41a2","ios":"levelo://app?vid=db2bb327-84ca-49b3-a980-9c69d6ef41a2"},"vehicle_type_id":"4","last_reported":1736449631,"current_range_meters":38800,"station_id":"ce4bhu92rcd13ifvqi70","pricing_plan_id":"cebpf4jnsgd1na2vs0mg"},{"bike_id":"b1cd05bd-cc6d-452b-8b8c-f24ee7fb627f","system_id":"levelo_inurba_marseille","lat":43.25832,"lon":5.39441,"is_reserved":false,"is_disabled":false,"rental_uris":{"android":"levelo://app?vid=b1cd05bd-cc6d-452b-8b8c-f24ee7fb627f","ios":"levelo://app?vid=b1cd05bd-cc6d-452b-8b8c-f24ee7fb627f"},"vehicle_type_id":"4","last_reported":1736449631,"current_range_meters":38800,"station_id":"ce4bhip2rcd13ifvqft0","pricing_plan_id":"cebpf4jnsgd1na2vs0mg"},{"bike_id":"ecebfc51-06e9-4dc9-bb43-d7f1d839de0c","system_id":"levelo_inurba_marseille","lat":43.3133,"lon":5.39693,"is_reserved":false,"is_disabled":false,"rental_uris":{"android":"levelo://app?vid=ecebfc51-06e9-4dc9-bb43-d7f1d839de0c","ios":"levelo://app?vid=ecebfc51-06e9-4dc9-bb43-d7f1d839de0c"},"vehicle_type_id":"4","last_reported":1736449631,"current_range_meters":8400,"station_id":"ce4bgvp2rcd13ifvqcu0","pricing_plan_id":"cebpf4jnsgd1na2vs0mg"},{"bike_id":"9d27d288-9638-4ffa-a41f-98c9e72676c0","system_id":"levelo_inurba_marseille","lat":43.2319,"lon":5.35552,"is_reserved":false,"is_disabled":false,"rental_uris":{"android":"levelo://app?vid=9d27d288-9638-4ffa-a41f-98c9e72676c0","ios":"levelo://app?vid=9d27d288-9638-4ffa-a41f-98c9e72676c0"},"vehicle_type_id":"4","last_reported":1736449631,"current_range_meters":11600,"station_id":"ce4bhu92rcd13ifvqi70","pricing_plan_id":"cebpf4jnsgd1na2vs0mg"},{"bike_id":"5aee579e-4d1a-4cdd-b13b-286ee35e83d9","system_id":"levelo_inurba_marseille","lat":43.25955,"lon":5.40845,"is_reserved":false,"is_disabled":true,"rental_uris":{"android":"levelo://app?vid=5aee579e-4d1a-4cdd-b13b-286ee35e83d9","ios":"levelo://app?vid=5aee579e-4d1a-4cdd-b13b-286ee35e83d9"},"vehicle_type_id":"4","last_reported":1736449631,"current_range_meters":400,"station_id":"ce4bhm92rcd13ifvqglg","pricing_plan_id":"cebpf4jnsgd1na2vs0mg"},{"bike_id":"24692b26-9147-44e6-9128-52ea796d8c27","system_id":"levelo_inurba_marseille","lat":43.27828,"lon":5.39205,"is_reserved":false,"is_disabled":false,"rental_uris":{"android":"levelo://app?vid=24692b26-9147-44e6-9128-52ea796d8c27","ios":"levelo://app?vid=24692b26-9147-44e6-9128-52ea796d8c27"},"vehicle_type_id":"4","last_reported":1736449631,"current_range_meters":22000,"station_id":"ce4bhjp2rcd13ifvqga0","pricing_plan_id":"cebpf4jnsgd1na2vs0mg"},{"bike_id":"30855527-fe56-47d6-ba1d-1df258e6cb43","system_id":"levelo_inurba_marseille","lat":43.29911,"lon":5.38137,"is_reserved":false,"is_disabled":false,"rental_uris":{"android":"levelo://app?vid=30855527-fe56-47d6-ba1d-1df258e6cb43","ios":"levelo://app?vid=30855527-fe56-47d6-ba1d-1df258e6cb43"},"vehicle_type_id":"4","last_reported":1736449631,"current_range_meters":9200,"station_id":"ce4bgj12rcd13ifvqbc0","pricing_plan_id":"cebpf4jnsgd1na2vs0mg"},{"bike_id":"46ad2ccd-8213-4ab1-b357-16f88eabb83e","system_id":"levelo_inurba_marseille","lat":43.27554,"lon":5.38416,"is_reserved":false,"is_disabled":false,"rental_uris":{"android":"levelo://app?vid=46ad2ccd-8213-4ab1-b357-16f88eabb83e","ios":"levelo://app?vid=46ad2ccd-8213-4ab1-b357-16f88eabb83e"},"vehicle_type_id":"4","last_reported":1736449631,"current_range_meters":38800,"station_id":"ce4bhh92rcd13ifvqfi0","pricing_plan_id":"cebpf4jnsgd1na2vs0mg"},{"bike_id":"36435023-15d2-44c3-9410-0d2b25524aaf","system_id":"levelo_inurba_marseille","lat":43.26944,"lon":5.38916,"is_reserved":false,"is_disabled":false,"rental_uris":{"android":"levelo://app?vid=36435023-15d2-44c3-9410-0d2b25524aaf","ios":"levelo://app?vid=36435023-15d2-44c3-9410-0d2b25524aaf"},"vehicle_type_id":"4","last_reported":1736449631,"current_range_meters":30400,"station_id":"ce4bhhh2rcd13ifvqfl0","pricing_plan_id":"cebpf4jnsgd1na2vs0mg"},{"bike_id":"a023b9e2-2413-4b3d-a218-b9727e7097b5","system_id":"levelo_inurba_marseille","lat":43.292991,"lon":5.374633,"is_reserved":false,"is_disabled":true,"rental_uris":{"android":"levelo://app?vid=a023b9e2-2413-4b3d-a218-b9727e7097b5","ios":"levelo://app?vid=a023b9e2-2413-4b3d-a218-b9727e7097b5"},"vehicle_type_id":"4","last_reported":1736449631,"current_range_meters":28400,"station_id":"ce4bgi12rcd13ifvqb70","pricing_plan_id":"cebpf4jnsgd1na2vs0mg"},{"bike_id":"0674d2ef-86ed-4426-8d32-8e7450b119f1","system_id":"levelo_inurba_marseille","lat":43.330212,"lon":5.390483,"is_reserved":false,"is_disabled":false,"rental_uris":{"android":"levelo://app?vid=0674d2ef-86ed-4426-8d32-8e7450b119f1","ios":"levelo://app?vid=0674d2ef-86ed-4426-8d32-8e7450b119f1"},"vehicle_type_id":"4","last_reported":1736449631,"current_range_meters":24800,"station_id":"ce4bhr92rcd13ifvqhrg","pricing_plan_id":"cebpf4jnsgd1na2vs0mg"},{"bike_id":"b61410a3-14e1-4aff-ac94-d44098cd6c7f","system_id":"levelo_inurba_marseille","lat":43.31352,"lon":5.385,"is_reserved":false,"is_disabled":false,"rental_uris":{"android":"levelo://app?vid=b61410a3-14e1-4aff-ac94-d44098cd6c7f","ios":"levelo://app?vid=b61410a3-14e1-4aff-ac94-d44098cd6c7f"},"vehicle_type_id":"4","last_reported":1736449631,"current_range_meters":38800,"station_id":"ce4bgt92rcd13ifvqcf0","pricing_plan_id":"cebpf4jnsgd1na2vs0mg"},{"bike_id":"205f2137-8395-4cb7-bca0-efc24bb31e80","system_id":"levelo_inurba_marseille","lat":43.30139,"lon":5.39857,"is_reserved":false,"is_disabled":false,"rental_uris":{"android":"levelo://app?vid=205f2137-8395-4cb7-bca0-efc24bb31e80","ios":"levelo://app?vid=205f2137-8395-4cb7-bca0-efc24bb31e80"},"vehicle_type_id":"4","last_reported":1736449631,"current_range_meters":35600,"station_id":"ce4bh0h2rcd13ifvqd40","pricing_plan_id":"cebpf4jnsgd1na2vs0mg"},{"bike_id":"445a7992-bb54-4808-b82b-0c43883ca8bf","system_id":"levelo_inurba_marseille","lat":43.30605,"lon":5.37219,"is_reserved":false,"is_disabled":false,"rental_uris":{"android":"levelo://app?vid=445a7992-bb54-4808-b82b-0c43883ca8bf","ios":"levelo://app?vid=445a7992-bb54-4808-b82b-0c43883ca8bf"},"vehicle_type_id":"4","last_reported":1736449631,"current_range_meters":23200,"station_id":"ce4bgqh2rcd13ifvqc4g","pricing_plan_id":"cebpf4jnsgd1na2vs0mg"},{"bike_id":"24ea8ae4-f4e3-4d71-83f1-331d481602f8","system_id":"levelo_inurba_marseille","lat":43.25578,"lon":5.38231,"is_reserved":false,"is_disabled":false,"rental_uris":{"android":"levelo://app?vid=24ea8ae4-f4e3-4d71-83f1-331d481602f8","ios":"levelo://app?vid=24ea8ae4-f4e3-4d71-83f1-331d481602f8"},"vehicle_type_id":"4","last_reported":1736449631,"current_range_meters":8400,"station_id":"ce4bhih2rcd13ifvqfs0","pricing_plan_id":"cebpf4jnsgd1na2vs0mg"},{"bike_id":"009b4081-956e-4bb1-aaf7-4285a5596d11","system_id":"levelo_inurba_marseille","lat":43.3136,"lon":5.38492,"is_reserved":false,"is_disabled":false,"rental_uris":{"android":"levelo://app?vid=009b4081-956e-4bb1-aaf7-4285a5596d11","ios":"levelo://app?vid=009b4081-956e-4bb1-aaf7-4285a5596d11"},"vehicle_type_id":"4","last_reported":1736449631,"current_range_meters":35200,"station_id":"ce4bgt92rcd13ifvqcf0","pricing_plan_id":"cebpf4jnsgd1na2vs0mg"},{"bike_id":"a43f7552-0a62-4506-88df-96446908765d","system_id":"levelo_inurba_marseille","lat":43.28043,"lon":5.36938,"is_reserved":false,"is_disabled":false,"rental_uris":{"android":"levelo://app?vid=a43f7552-0a62-4506-88df-96446908765d","ios":"levelo://app?vid=a43f7552-0a62-4506-88df-96446908765d"},"vehicle_type_id":"4","last_reported":1736449631,"current_range_meters":17200,"station_id":"ce4bha12rcd13ifvqef0","pricing_plan_id":"cebpf4jnsgd1na2vs0mg"},{"bike_id":"063cbda8-456d-4f34-94f5-412d67beccb1","system_id":"levelo_inurba_marseille","lat":43.30794,"lon":5.38146,"is_reserved":false,"is_disabled":false,"rental_uris":{"android":"levelo://app?vid=063cbda8-456d-4f34-94f5-412d67beccb1","ios":"levelo://app?vid=063cbda8-456d-4f34-94f5-412d67beccb1"},"vehicle_type_id":"4","last_reported":1736449631,"current_range_meters":28400,"station_id":"ce4bgt12rcd13ifvqce0","pricing_plan_id":"cebpf4jnsgd1na2vs0mg"},{"bike_id":"d0cb6644-6994-4b59-8ded-2c511cef14e7","system_id":"levelo_inurba_marseille","lat":43.30299,"lon":5.39212,"is_reserved":false,"is_disabled":false,"rental_uris":{"android":"levelo://app?vid=d0cb6644-6994-4b59-8ded-2c511cef14e7","ios":"levelo://app?vid=d0cb6644-6994-4b59-8ded-2c511cef14e7"},"vehicle_type_id":"4","last_reported":1736449631,"current_range_meters":24400,"station_id":"ce4bgkh2rcd13ifvqbk0","pricing_plan_id":"cebpf4jnsgd1na2vs0mg"},{"bike_id":"d1f1a38d-ffc5-45d8-bb7b-5e810c833bf4","system_id":"levelo_inurba_marseille","lat":43.29201,"lon":5.35802,"is_reserved":false,"is_disabled":false,"rental_uris":{"android":"levelo://app?vid=d1f1a38d-ffc5-45d8-bb7b-5e810c833bf4","ios":"levelo://app?vid=d1f1a38d-ffc5-45d8-bb7b-5e810c833bf4"},"vehicle_type_id":"4","last_reported":1736449631,"current_range_meters":39200,"station_id":"ce4bhb12rcd13ifvqel0","pricing_plan_id":"cebpf4jnsgd1na2vs0mg"},{"bike_id":"5aa46582-8066-4fee-8988-4c6252810ea1","system_id":"levelo_inurba_marseille","lat":43.32346,"lon":5.38938,"is_reserved":false,"is_disabled":false,"rental_uris":{"android":"levelo://app?vid=5aa46582-8066-4fee-8988-4c6252810ea1","ios":"levelo://app?vid=5aa46582-8066-4fee-8988-4c6252810ea1"},"vehicle_type_id":"4","last_reported":1736449631,"current_range_meters":17200,"station_id":"ce4bhqp2rcd13ifvqhog","pricing_plan_id":"cebpf4jnsgd1na2vs0mg"},{"bike_id":"29116848-88b6-4e0d-8d81-30048aa28dfa","system_id":"levelo_inurba_marseille","lat":43.28693,"lon":5.38648,"is_reserved":false,"is_disabled":false,"rental_uris":{"android":"levelo://app?vid=29116848-88b6-4e0d-8d81-30048aa28dfa","ios":"levelo://app?vid=29116848-88b6-4e0d-8d81-30048aa28dfa"},"vehicle_type_id":"4","last_reported":1736449631,"current_range_meters":38000,"station_id":"ce4bh492rcd13ifvqdug","pricing_plan_id":"cebpf4jnsgd1na2vs0mg"},{"bike_id":"305ec27c-7b37-49a8-8ebc-0d861b475388","system_id":"levelo_inurba_marseille","lat":43.31324,"lon":5.39695,"is_reserved":false,"is_disabled":false,"rental_uris":{"android":"levelo://app?vid=305ec27c-7b37-49a8-8ebc-0d861b475388","ios":"levelo://app?vid=305ec27c-7b37-49a8-8ebc-0d861b475388"},"vehicle_type_id":"4","last_reported":1736449631,"current_range_meters":22000,"station_id":"ce4bgvp2rcd13ifvqcu0","pricing_plan_id":"cebpf4jnsgd1na2vs0mg"},{"bike_id":"0c5ad775-fef0-4a26-9f1d-1b4895730d26","system_id":"levelo_inurba_marseille","lat":43.25817,"lon":5.3944,"is_reserved":false,"is_disabled":false,"rental_uris":{"android":"levelo://app?vid=0c5ad775-fef0-4a26-9f1d-1b4895730d26","ios":"levelo://app?vid=0c5ad775-fef0-4a26-9f1d-1b4895730d26"},"vehicle_type_id":"4","last_reported":1736449631,"current_range_meters":24400,"station_id":"ce4bhip2rcd13ifvqft0","pricing_plan_id":"cebpf4jnsgd1na2vs0mg"},{"bike_id":"877806f5-fd4c-4780-b9e2-22d68bbc29a6","system_id":"levelo_inurba_marseille","lat":43.28441,"lon":5.39175,"is_reserved":false,"is_disabled":true,"rental_uris":{"android":"levelo://app?vid=877806f5-fd4c-4780-b9e2-22d68bbc29a6","ios":"levelo://app?vid=877806f5-fd4c-4780-b9e2-22d68bbc29a6"},"vehicle_type_id":"4","last_reported":1736449631,"current_range_meters":0,"station_id":"ce4bhoh2rcd13ifvqh5g","pricing_plan_id":"cebpf4jnsgd1na2vs0mg"},{"bike_id":"b373a3f4-759d-4e2a-9ed0-30b7bfc7326d","system_id":"levelo_inurba_marseille","lat":43.2903,"lon":5.38626,"is_reserved":false,"is_disabled":false,"rental_uris":{"android":"levelo://app?vid=b373a3f4-759d-4e2a-9ed0-30b7bfc7326d","ios":"levelo://app?vid=b373a3f4-759d-4e2a-9ed0-30b7bfc7326d"},"vehicle_type_id":"4","last_reported":1736449631,"current_range_meters":25600,"station_id":"ce4bh4p2rcd13ifvqe0g","pricing_plan_id":"cebpf4jnsgd1na2vs0mg"},{"bike_id":"7a0a8a69-615c-43f3-a001-073b74f4a57b","system_id":"levelo_inurba_marseille","lat":43.2558,"lon":5.3823,"is_reserved":false,"is_disabled":false,"rental_uris":{"android":"levelo://app?vid=7a0a8a69-615c-43f3-a001-073b74f4a57b","ios":"levelo://app?vid=7a0a8a69-615c-43f3-a001-073b74f4a57b"},"vehicle_type_id":"4","last_reported":1736449631,"current_range_meters":29600,"station_id":"ce4bhih2rcd13ifvqfs0","pricing_plan_id":"cebpf4jnsgd1na2vs0mg"},{"bike_id":"8e9b7426-4337-4cd7-9c5d-8fb0e8d9b77e","system_id":"levelo_inurba_marseille","lat":43.25862,"lon":5.39892,"is_reserved":false,"is_disabled":true,"rental_uris":{"android":"levelo://app?vid=8e9b7426-4337-4cd7-9c5d-8fb0e8d9b77e","ios":"levelo://app?vid=8e9b7426-4337-4cd7-9c5d-8fb0e8d9b77e"},"vehicle_type_id":"4","last_reported":1736449631,"current_range_meters":400,"station_id":"ce4bhl92rcd13ifvqghg","pricing_plan_id":"cebpf4jnsgd1na2vs0mg"},{"bike_id":"c61c17c8-3a65-4468-827d-51401c4b01a4","system_id":"levelo_inurba_marseille","lat":43.33016,"lon":5.39025,"is_reserved":false,"is_disabled":false,"rental_uris":{"android":"levelo://app?vid=c61c17c8-3a65-4468-827d-51401c4b01a4","ios":"levelo://app?vid=c61c17c8-3a65-4468-827d-51401c4b01a4"},"vehicle_type_id":"4","last_reported":1736449631,"current_range_meters":38800,"station_id":"ce4bhr92rcd13ifvqhrg","pricing_plan_id":"cebpf4jnsgd1na2vs0mg"},{"bike_id":"284e1831-9922-4f3c-809c-0f802c9ef2e6","system_id":"levelo_inurba_marseille","lat":43.29539,"lon":5.42275,"is_reserved":false,"is_disabled":false,"rental_uris":{"android":"levelo://app?vid=284e1831-9922-4f3c-809c-0f802c9ef2e6","ios":"levelo://app?vid=284e1831-9922-4f3c-809c-0f802c9ef2e6"},"vehicle_type_id":"4","last_reported":1736449631,"current_range_meters":18800,"station_id":"ce4bhph2rcd13ifvqhdg","pricing_plan_id":"cebpf4jnsgd1na2vs0mg"},{"bike_id":"ad744619-fbc5-4026-9541-81b1adebd4d3","system_id":"levelo_inurba_marseille","lat":43.26034,"lon":5.37556,"is_reserved":false,"is_disabled":true,"rental_uris":{"android":"levelo://app?vid=ad744619-fbc5-4026-9541-81b1adebd4d3","ios":"levelo://app?vid=ad744619-fbc5-4026-9541-81b1adebd4d3"},"vehicle_type_id":"4","last_reported":1736449631,"current_range_meters":38800,"station_id":"ce4bhgh2rcd13ifvqfa0","pricing_plan_id":"cebpf4jnsgd1na2vs0mg"},{"bike_id":"2b68127b-8c99-46f9-b65f-98bf288dc9b7","system_id":"levelo_inurba_marseille","lat":43.25586,"lon":5.38206,"is_reserved":false,"is_disabled":false,"rental_uris":{"android":"levelo://app?vid=2b68127b-8c99-46f9-b65f-98bf288dc9b7","ios":"levelo://app?vid=2b68127b-8c99-46f9-b65f-98bf288dc9b7"},"vehicle_type_id":"4","last_reported":1736449631,"current_range_meters":9200,"station_id":"ce4bhih2rcd13ifvqfs0","pricing_plan_id":"cebpf4jnsgd1na2vs0mg"},{"bike_id":"158ce550-9027-4eb4-a6f3-847091d6ac12","system_id":"levelo_inurba_marseille","lat":43.29421,"lon":5.38621,"is_reserved":false,"is_disabled":false,"rental_uris":{"android":"levelo://app?vid=158ce550-9027-4eb4-a6f3-847091d6ac12","ios":"levelo://app?vid=158ce550-9027-4eb4-a6f3-847091d6ac12"},"vehicle_type_id":"4","last_reported":1736449631,"current_range_meters":36800,"station_id":"ce4bh2h2rcd13ifvqdh0","pricing_plan_id":"cebpf4jnsgd1na2vs0mg"},{"bike_id":"9be46d68-6ca0-4115-b5af-edfc42caa060","system_id":"levelo_inurba_marseille","lat":43.29805,"lon":5.40412,"is_reserved":false,"is_disabled":false,"rental_uris":{"android":"levelo://app?vid=9be46d68-6ca0-4115-b5af-edfc42caa060","ios":"levelo://app?vid=9be46d68-6ca0-4115-b5af-edfc42caa060"},"vehicle_type_id":"4","last_reported":1736449631,"current_range_meters":34800,"station_id":"ce4bh112rcd13ifvqd90","pricing_plan_id":"cebpf4jnsgd1na2vs0mg"},{"bike_id":"b6a7d90c-fc30-4e28-b46f-4a2512799700","system_id":"levelo_inurba_marseille","lat":43.26555,"lon":5.39016,"is_reserved":false,"is_disabled":false,"rental_uris":{"android":"levelo://app?vid=b6a7d90c-fc30-4e28-b46f-4a2512799700","ios":"levelo://app?vid=b6a7d90c-fc30-4e28-b46f-4a2512799700"},"vehicle_type_id":"4","last_reported":1736449631,"current_range_meters":38800,"station_id":"ce4bhe12rcd13ifvqf30","pricing_plan_id":"cebpf4jnsgd1na2vs0mg"},{"bike_id":"a909d044-925f-4cad-9d20-5633b42ae69f","system_id":"levelo_inurba_marseille","lat":43.24654,"lon":5.38894,"is_reserved":false,"is_disabled":false,"rental_uris":{"android":"levelo://app?vid=a909d044-925f-4cad-9d20-5633b42ae69f","ios":"levelo://app?vid=a909d044-925f-4cad-9d20-5633b42ae69f"},"vehicle_type_id":"4","last_reported":1736449631,"current_range_meters":38000,"station_id":"ce4bhg12rcd13ifvqf60","pricing_plan_id":"cebpf4jnsgd1na2vs0mg"},{"bike_id":"f72ec506-2b55-4620-84fe-c24c2d579719","system_id":"levelo_inurba_marseille","lat":43.31079,"lon":5.38359,"is_reserved":false,"is_disabled":false,"rental_uris":{"android":"levelo://app?vid=f72ec506-2b55-4620-84fe-c24c2d579719","ios":"levelo://app?vid=f72ec506-2b55-4620-84fe-c24c2d579719"},"vehicle_type_id":"4","last_reported":1736449631,"current_range_meters":22800,"station_id":"ce4bgv92rcd13ifvqcr0","pricing_plan_id":"cebpf4jnsgd1na2vs0mg"},{"bike_id":"55fea5e7-e440-416a-842c-fc1fe848fa87","system_id":"levelo_inurba_marseille","lat":43.308041,"lon":5.435213,"is_reserved":false,"is_disabled":false,"rental_uris":{"android":"levelo://app?vid=55fea5e7-e440-416a-842c-fc1fe848fa87","ios":"levelo://app?vid=55fea5e7-e440-416a-842c-fc1fe848fa87"},"vehicle_type_id":"4","last_reported":1736449631,"current_range_meters":9200,"station_id":"ce4bhph2rcd13ifvqheg","pricing_plan_id":"cebpf4jnsgd1na2vs0mg"},{"bike_id":"5d684afe-3749-41c9-ace1-e345b0530b92","system_id":"levelo_inurba_marseille","lat":43.31504,"lon":5.37243,"is_reserved":false,"is_disabled":true,"rental_uris":{"android":"levelo://app?vid=5d684afe-3749-41c9-ace1-e345b0530b92","ios":"levelo://app?vid=5d684afe-3749-41c9-ace1-e345b0530b92"},"vehicle_type_id":"4","last_reported":1736449631,"current_range_meters":400,"station_id":"","pricing_plan_id":"cebpf4jnsgd1na2vs0mg"},{"bike_id":"e93f83ab-0e3e-4fd9-8d9e-6775678c8e02","system_id":"levelo_inurba_marseille","lat":43.33019,"lon":5.39041,"is_reserved":false,"is_disabled":false,"rental_uris":{"android":"levelo://app?vid=e93f83ab-0e3e-4fd9-8d9e-6775678c8e02","ios":"levelo://app?vid=e93f83ab-0e3e-4fd9-8d9e-6775678c8e02"},"vehicle_type_id":"4","last_reported":1736449631,"current_range_meters":38800,"station_id":"ce4bhr92rcd13ifvqhrg","pricing_plan_id":"cebpf4jnsgd1na2vs0mg"},{"bike_id":"63c28a27-4281-4c19-a194-95b864bba408","system_id":"levelo_inurba_marseille","lat":43.310727,"lon":5.383588,"is_reserved":false,"is_disabled":false,"rental_uris":{"android":"levelo://app?vid=63c28a27-4281-4c19-a194-95b864bba408","ios":"levelo://app?vid=63c28a27-4281-4c19-a194-95b864bba408"},"vehicle_type_id":"4","last_reported":1736449631,"current_range_meters":6400,"station_id":"ce4bgv92rcd13ifvqcr0","pricing_plan_id":"cebpf4jnsgd1na2vs0mg"},{"bike_id":"85b73f4a-74db-454b-85c0-9ce23ef13905","system_id":"levelo_inurba_marseille","lat":43.2893,"lon":5.36632,"is_reserved":false,"is_disabled":false,"rental_uris":{"android":"levelo://app?vid=85b73f4a-74db-454b-85c0-9ce23ef13905","ios":"levelo://app?vid=85b73f4a-74db-454b-85c0-9ce23ef13905"},"vehicle_type_id":"4","last_reported":1736449631,"current_range_meters":39200,"station_id":"ce4bhap2rcd13ifvqek0","pricing_plan_id":"cebpf4jnsgd1na2vs0mg"},{"bike_id":"1d34c4ed-7b9b-4f1b-a4a4-1c74dc785bd9","system_id":"levelo_inurba_marseille","lat":43.3013,"lon":5.39868,"is_reserved":false,"is_disabled":false,"rental_uris":{"android":"levelo://app?vid=1d34c4ed-7b9b-4f1b-a4a4-1c74dc785bd9","ios":"levelo://app?vid=1d34c4ed-7b9b-4f1b-a4a4-1c74dc785bd9"},"vehicle_type_id":"4","last_reported":1736449631,"current_range_meters":27200,"station_id":"ce4bh0h2rcd13ifvqd40","pricing_plan_id":"cebpf4jnsgd1na2vs0mg"},{"bike_id":"a671a824-8d9d-4fbe-a075-0e8db2d17853","system_id":"levelo_inurba_marseille","lat":43.29025,"lon":5.38639,"is_reserved":false,"is_disabled":false,"rental_uris":{"android":"levelo://app?vid=a671a824-8d9d-4fbe-a075-0e8db2d17853","ios":"levelo://app?vid=a671a824-8d9d-4fbe-a075-0e8db2d17853"},"vehicle_type_id":"4","last_reported":1736449631,"current_range_meters":17600,"station_id":"ce4bh4p2rcd13ifvqe0g","pricing_plan_id":"cebpf4jnsgd1na2vs0mg"},{"bike_id":"780493d4-89a9-4cb8-8c11-206c98688626","system_id":"levelo_inurba_marseille","lat":43.2408,"lon":5.37752,"is_reserved":false,"is_disabled":false,"rental_uris":{"android":"levelo://app?vid=780493d4-89a9-4cb8-8c11-206c98688626","ios":"levelo://app?vid=780493d4-89a9-4cb8-8c11-206c98688626"},"vehicle_type_id":"4","last_reported":1736449631,"current_range_meters":25600,"station_id":"ce4bhnp2rcd13ifvqgvg","pricing_plan_id":"cebpf4jnsgd1na2vs0mg"},{"bike_id":"725e1796-e8db-4864-b0f4-aa6493a9abf6","system_id":"levelo_inurba_marseille","lat":43.30602,"lon":5.39364,"is_reserved":false,"is_disabled":false,"rental_uris":{"android":"levelo://app?vid=725e1796-e8db-4864-b0f4-aa6493a9abf6","ios":"levelo://app?vid=725e1796-e8db-4864-b0f4-aa6493a9abf6"},"vehicle_type_id":"4","last_reported":1736449631,"current_range_meters":38000,"station_id":"ce4bh0p2rcd13ifvqd80","pricing_plan_id":"cebpf4jnsgd1na2vs0mg"},{"bike_id":"285094c8-1653-4966-a361-ca5e541b78a0","system_id":"levelo_inurba_marseille","lat":43.30211,"lon":5.38711,"is_reserved":false,"is_disabled":false,"rental_uris":{"android":"levelo://app?vid=285094c8-1653-4966-a361-ca5e541b78a0","ios":"levelo://app?vid=285094c8-1653-4966-a361-ca5e541b78a0"},"vehicle_type_id":"4","last_reported":1736449631,"current_range_meters":28000,"station_id":"ce4bgk12rcd13ifvqbi0","pricing_plan_id":"cebpf4jnsgd1na2vs0mg"},{"bike_id":"9c034c72-3b9e-49ce-9a4d-4c4d5e20e5dd","system_id":"levelo_inurba_marseille","lat":43.33019,"lon":5.39033,"is_reserved":false,"is_disabled":false,"rental_uris":{"android":"levelo://app?vid=9c034c72-3b9e-49ce-9a4d-4c4d5e20e5dd","ios":"levelo://app?vid=9c034c72-3b9e-49ce-9a4d-4c4d5e20e5dd"},"vehicle_type_id":"4","last_reported":1736449631,"current_range_meters":12400,"station_id":"ce4bhr92rcd13ifvqhrg","pricing_plan_id":"cebpf4jnsgd1na2vs0mg"},{"bike_id":"5521374a-910d-44eb-8d93-ffc242709188","system_id":"levelo_inurba_marseille","lat":43.31393,"lon":5.37416,"is_reserved":false,"is_disabled":false,"rental_uris":{"android":"levelo://app?vid=5521374a-910d-44eb-8d93-ffc242709188","ios":"levelo://app?vid=5521374a-910d-44eb-8d93-ffc242709188"},"vehicle_type_id":"4","last_reported":1736449631,"current_range_meters":13600,"station_id":"","pricing_plan_id":"cebpf4jnsgd1na2vs0mg"},{"bike_id":"d4b9ec52-492e-41b6-8dae-be3aec56cf81","system_id":"levelo_inurba_marseille","lat":43.28614,"lon":5.35099,"is_reserved":false,"is_disabled":false,"rental_uris":{"android":"levelo://app?vid=d4b9ec52-492e-41b6-8dae-be3aec56cf81","ios":"levelo://app?vid=d4b9ec52-492e-41b6-8dae-be3aec56cf81"},"vehicle_type_id":"4","last_reported":1736449631,"current_range_meters":14000,"station_id":"ce4bhch2rcd13ifvqeug","pricing_plan_id":"cebpf4jnsgd1na2vs0mg"},{"bike_id":"d564cb8f-aa2f-4363-8156-40c4871cbd15","system_id":"levelo_inurba_marseille","lat":43.25117,"lon":5.40318,"is_reserved":false,"is_disabled":false,"rental_uris":{"android":"levelo://app?vid=d564cb8f-aa2f-4363-8156-40c4871cbd15","ios":"levelo://app?vid=d564cb8f-aa2f-4363-8156-40c4871cbd15"},"vehicle_type_id":"4","last_reported":1736449631,"current_range_meters":8800,"station_id":"ce4bhlh2rcd13ifvqgig","pricing_plan_id":"cebpf4jnsgd1na2vs0mg"},{"bike_id":"37d8e1ef-d932-49d7-b893-49542cf44d13","system_id":"levelo_inurba_marseille","lat":43.32345,"lon":5.40629,"is_reserved":false,"is_disabled":true,"rental_uris":{"android":"levelo://app?vid=37d8e1ef-d932-49d7-b893-49542cf44d13","ios":"levelo://app?vid=37d8e1ef-d932-49d7-b893-49542cf44d13"},"vehicle_type_id":"4","last_reported":1736449631,"current_range_meters":0,"station_id":"ce4bhq92rcd13ifvqhjg","pricing_plan_id":"cebpf4jnsgd1na2vs0mg"},{"bike_id":"458c3d58-e6a5-4d1a-8df2-05d9cb3e0072","system_id":"levelo_inurba_marseille","lat":43.25581,"lon":5.38208,"is_reserved":false,"is_disabled":false,"rental_uris":{"android":"levelo://app?vid=458c3d58-e6a5-4d1a-8df2-05d9cb3e0072","ios":"levelo://app?vid=458c3d58-e6a5-4d1a-8df2-05d9cb3e0072"},"vehicle_type_id":"4","last_reported":1736449631,"current_range_meters":20000,"station_id":"ce4bhih2rcd13ifvqfs0","pricing_plan_id":"cebpf4jnsgd1na2vs0mg"},{"bike_id":"46b44dc2-d756-4d81-b503-d802b4d8de00","system_id":"levelo_inurba_marseille","lat":43.24394,"lon":5.37054,"is_reserved":false,"is_disabled":false,"rental_uris":{"android":"levelo://app?vid=46b44dc2-d756-4d81-b503-d802b4d8de00","ios":"levelo://app?vid=46b44dc2-d756-4d81-b503-d802b4d8de00"},"vehicle_type_id":"4","last_reported":1736449631,"current_range_meters":27600,"station_id":"ce4bhhh2rcd13ifvqfk0","pricing_plan_id":"cebpf4jnsgd1na2vs0mg"},{"bike_id":"265ccaa9-677e-4387-a485-17aa67c4f6fa","system_id":"levelo_inurba_marseille","lat":43.29262,"lon":5.37254,"is_reserved":false,"is_disabled":false,"rental_uris":{"android":"levelo://app?vid=265ccaa9-677e-4387-a485-17aa67c4f6fa","ios":"levelo://app?vid=265ccaa9-677e-4387-a485-17aa67c4f6fa"},"vehicle_type_id":"4","last_reported":1736449631,"current_range_meters":30000,"station_id":"","pricing_plan_id":"cebpf4jnsgd1na2vs0mg"},{"bike_id":"a2b8733f-18d3-4c7f-a699-4ad1eee082fe","system_id":"levelo_inurba_marseille","lat":43.31724,"lon":5.424,"is_reserved":false,"is_disabled":false,"rental_uris":{"android":"levelo://app?vid=a2b8733f-18d3-4c7f-a699-4ad1eee082fe","ios":"levelo://app?vid=a2b8733f-18d3-4c7f-a699-4ad1eee082fe"},"vehicle_type_id":"4","last_reported":1736449631,"current_range_meters":38800,"station_id":"ce4bhp92rcd13ifvqhbg","pricing_plan_id":"cebpf4jnsgd1na2vs0mg"},{"bike_id":"21604ad2-8e93-462b-ac6c-95b2c76f3d2e","system_id":"levelo_inurba_marseille","lat":43.29535,"lon":5.38541,"is_reserved":false,"is_disabled":false,"rental_uris":{"android":"levelo://app?vid=21604ad2-8e93-462b-ac6c-95b2c76f3d2e","ios":"levelo://app?vid=21604ad2-8e93-462b-ac6c-95b2c76f3d2e"},"vehicle_type_id":"4","last_reported":1736449631,"current_range_meters":26800,"station_id":"ce4bgih2rcd13ifvqba0","pricing_plan_id":"cebpf4jnsgd1na2vs0mg"},{"bike_id":"c0206d3b-e2e9-423c-9056-fc2381d7e8b1","system_id":"levelo_inurba_marseille","lat":43.29604,"lon":5.381,"is_reserved":false,"is_disabled":true,"rental_uris":{"android":"levelo://app?vid=c0206d3b-e2e9-423c-9056-fc2381d7e8b1","ios":"levelo://app?vid=c0206d3b-e2e9-423c-9056-fc2381d7e8b1"},"vehicle_type_id":"4","last_reported":1736449631,"current_range_meters":28800,"station_id":"ce4bgl12rcd13ifvqbo0","pricing_plan_id":"cebpf4jnsgd1na2vs0mg"},{"bike_id":"385264b1-4061-488d-8853-f978ac44f3cb","system_id":"levelo_inurba_marseille","lat":43.29269,"lon":5.40914,"is_reserved":false,"is_disabled":false,"rental_uris":{"android":"levelo://app?vid=385264b1-4061-488d-8853-f978ac44f3cb","ios":"levelo://app?vid=385264b1-4061-488d-8853-f978ac44f3cb"},"vehicle_type_id":"4","last_reported":1736449631,"current_range_meters":38800,"station_id":"ce4bh192rcd13ifvqdc0","pricing_plan_id":"cebpf4jnsgd1na2vs0mg"},{"bike_id":"4b9552e7-7313-44cc-ba72-6ebb3cfea997","system_id":"levelo_inurba_marseille","lat":43.26056,"lon":5.39397,"is_reserved":false,"is_disabled":false,"rental_uris":{"android":"levelo://app?vid=4b9552e7-7313-44cc-ba72-6ebb3cfea997","ios":"levelo://app?vid=4b9552e7-7313-44cc-ba72-6ebb3cfea997"},"vehicle_type_id":"4","last_reported":1736449631,"current_range_meters":39200,"station_id":"ce4bhh92rcd13ifvqfj0","pricing_plan_id":"cebpf4jnsgd1na2vs0mg"},{"bike_id":"c150f8af-fc8f-4eb5-ac98-0b06dadf4ce0","system_id":"levelo_inurba_marseille","lat":43.25576,"lon":5.38244,"is_reserved":false,"is_disabled":false,"rental_uris":{"android":"levelo://app?vid=c150f8af-fc8f-4eb5-ac98-0b06dadf4ce0","ios":"levelo://app?vid=c150f8af-fc8f-4eb5-ac98-0b06dadf4ce0"},"vehicle_type_id":"4","last_reported":1736449631,"current_range_meters":36800,"station_id":"ce4bhih2rcd13ifvqfs0","pricing_plan_id":"cebpf4jnsgd1na2vs0mg"},{"bike_id":"98516c6c-770c-419d-b009-47d399b69de8","system_id":"levelo_inurba_marseille","lat":43.28046,"lon":5.3696,"is_reserved":false,"is_disabled":false,"rental_uris":{"android":"levelo://app?vid=98516c6c-770c-419d-b009-47d399b69de8","ios":"levelo://app?vid=98516c6c-770c-419d-b009-47d399b69de8"},"vehicle_type_id":"4","last_reported":1736449631,"current_range_meters":38400,"station_id":"ce4bha12rcd13ifvqef0","pricing_plan_id":"cebpf4jnsgd1na2vs0mg"},{"bike_id":"80e6d864-209b-44fb-bebb-aeae347160a6","system_id":"levelo_inurba_marseille","lat":43.24074,"lon":5.37763,"is_reserved":false,"is_disabled":false,"rental_uris":{"android":"levelo://app?vid=80e6d864-209b-44fb-bebb-aeae347160a6","ios":"levelo://app?vid=80e6d864-209b-44fb-bebb-aeae347160a6"},"vehicle_type_id":"4","last_reported":1736449631,"current_range_meters":22800,"station_id":"ce4bhnp2rcd13ifvqgvg","pricing_plan_id":"cebpf4jnsgd1na2vs0mg"},{"bike_id":"08865dc0-63c5-48bd-9a7d-eaaf67b57930","system_id":"levelo_inurba_marseille","lat":43.30473,"lon":5.38926,"is_reserved":false,"is_disabled":false,"rental_uris":{"android":"levelo://app?vid=08865dc0-63c5-48bd-9a7d-eaaf67b57930","ios":"levelo://app?vid=08865dc0-63c5-48bd-9a7d-eaaf67b57930"},"vehicle_type_id":"4","last_reported":1736449631,"current_range_meters":28000,"station_id":"","pricing_plan_id":"cebpf4jnsgd1na2vs0mg"},{"bike_id":"2b2889ef-0ca5-4d3a-a816-5750883ad8a6","system_id":"levelo_inurba_marseille","lat":43.30924,"lon":5.40137,"is_reserved":false,"is_disabled":false,"rental_uris":{"android":"levelo://app?vid=2b2889ef-0ca5-4d3a-a816-5750883ad8a6","ios":"levelo://app?vid=2b2889ef-0ca5-4d3a-a816-5750883ad8a6"},"vehicle_type_id":"4","last_reported":1736449631,"current_range_meters":38800,"station_id":"ce4bgvp2rcd13ifvqct0","pricing_plan_id":"cebpf4jnsgd1na2vs0mg"},{"bike_id":"fa2456f8-e4e0-4f7a-ab86-6f93d7842be8","system_id":"levelo_inurba_marseille","lat":43.2928,"lon":5.36842,"is_reserved":false,"is_disabled":false,"rental_uris":{"android":"levelo://app?vid=fa2456f8-e4e0-4f7a-ab86-6f93d7842be8","ios":"levelo://app?vid=fa2456f8-e4e0-4f7a-ab86-6f93d7842be8"},"vehicle_type_id":"4","last_reported":1736449631,"current_range_meters":8400,"station_id":"ce4bhbp2rcd13ifvqesg","pricing_plan_id":"cebpf4jnsgd1na2vs0mg"},{"bike_id":"60ce1b70-e47d-4caf-abee-52e7d5bfe299","system_id":"levelo_inurba_marseille","lat":43.24644,"lon":5.38882,"is_reserved":false,"is_disabled":false,"rental_uris":{"android":"levelo://app?vid=60ce1b70-e47d-4caf-abee-52e7d5bfe299","ios":"levelo://app?vid=60ce1b70-e47d-4caf-abee-52e7d5bfe299"},"vehicle_type_id":"4","last_reported":1736449631,"current_range_meters":37600,"station_id":"ce4bhg12rcd13ifvqf60","pricing_plan_id":"cebpf4jnsgd1na2vs0mg"},{"bike_id":"7627c0f8-e30b-4018-a991-3dd21750fc78","system_id":"levelo_inurba_marseille","lat":43.287278,"lon":5.379445,"is_reserved":false,"is_disabled":true,"rental_uris":{"android":"levelo://app?vid=7627c0f8-e30b-4018-a991-3dd21750fc78","ios":"levelo://app?vid=7627c0f8-e30b-4018-a991-3dd21750fc78"},"vehicle_type_id":"4","last_reported":1736449631,"current_range_meters":38800,"station_id":"ce4bh9p2rcd13ifvqec0","pricing_plan_id":"cebpf4jnsgd1na2vs0mg"},{"bike_id":"bf34816d-cef3-45df-a814-b99e8dc67c6d","system_id":"levelo_inurba_marseille","lat":43.23182,"lon":5.40007,"is_reserved":false,"is_disabled":false,"rental_uris":{"android":"levelo://app?vid=bf34816d-cef3-45df-a814-b99e8dc67c6d","ios":"levelo://app?vid=bf34816d-cef3-45df-a814-b99e8dc67c6d"},"vehicle_type_id":"4","last_reported":1736449631,"current_range_meters":39200,"station_id":"ce4bhn12rcd13ifvqgqg","pricing_plan_id":"cebpf4jnsgd1na2vs0mg"},{"bike_id":"fdd1c975-72e3-4a95-84d0-3b98dbe8418d","system_id":"levelo_inurba_marseille","lat":43.27818,"lon":5.40718,"is_reserved":false,"is_disabled":false,"rental_uris":{"android":"levelo://app?vid=fdd1c975-72e3-4a95-84d0-3b98dbe8418d","ios":"levelo://app?vid=fdd1c975-72e3-4a95-84d0-3b98dbe8418d"},"vehicle_type_id":"4","last_reported":1736449631,"current_range_meters":38000,"station_id":"ce4bhnh2rcd13ifvqgtg","pricing_plan_id":"cebpf4jnsgd1na2vs0mg"},{"bike_id":"b7fa7034-b1b7-4432-81ad-7cd9060b906d","system_id":"levelo_inurba_marseille","lat":43.30156,"lon":5.39869,"is_reserved":false,"is_disabled":false,"rental_uris":{"android":"levelo://app?vid=b7fa7034-b1b7-4432-81ad-7cd9060b906d","ios":"levelo://app?vid=b7fa7034-b1b7-4432-81ad-7cd9060b906d"},"vehicle_type_id":"4","last_reported":1736449631,"current_range_meters":38800,"station_id":"ce4bh0h2rcd13ifvqd40","pricing_plan_id":"cebpf4jnsgd1na2vs0mg"},{"bike_id":"46c5285c-92dd-4d2f-adc2-d47c981c8703","system_id":"levelo_inurba_marseille","lat":43.29231,"lon":5.36069,"is_reserved":false,"is_disabled":false,"rental_uris":{"android":"levelo://app?vid=46c5285c-92dd-4d2f-adc2-d47c981c8703","ios":"levelo://app?vid=46c5285c-92dd-4d2f-adc2-d47c981c8703"},"vehicle_type_id":"4","last_reported":1736449631,"current_range_meters":24400,"station_id":"ce4bhbh2rcd13ifvqeqg","pricing_plan_id":"cebpf4jnsgd1na2vs0mg"},{"bike_id":"4b4165a2-cf34-497a-a955-c9336504b59d","system_id":"levelo_inurba_marseille","lat":43.29202,"lon":5.35814,"is_reserved":false,"is_disabled":false,"rental_uris":{"android":"levelo://app?vid=4b4165a2-cf34-497a-a955-c9336504b59d","ios":"levelo://app?vid=4b4165a2-cf34-497a-a955-c9336504b59d"},"vehicle_type_id":"4","last_reported":1736449631,"current_range_meters":39200,"station_id":"ce4bhb12rcd13ifvqel0","pricing_plan_id":"cebpf4jnsgd1na2vs0mg"},{"bike_id":"48998462-e2fe-4046-8dbf-a3db091ad704","system_id":"levelo_inurba_marseille","lat":43.2558,"lon":5.38241,"is_reserved":false,"is_disabled":true,"rental_uris":{"android":"levelo://app?vid=48998462-e2fe-4046-8dbf-a3db091ad704","ios":"levelo://app?vid=48998462-e2fe-4046-8dbf-a3db091ad704"},"vehicle_type_id":"4","last_reported":1736449631,"current_range_meters":26800,"station_id":"ce4bhih2rcd13ifvqfs0","pricing_plan_id":"cebpf4jnsgd1na2vs0mg"},{"bike_id":"cad4a6a5-5208-47dd-a17d-ca38efa63f22","system_id":"levelo_inurba_marseille","lat":43.30491,"lon":5.37786,"is_reserved":false,"is_disabled":true,"rental_uris":{"android":"levelo://app?vid=cad4a6a5-5208-47dd-a17d-ca38efa63f22","ios":"levelo://app?vid=cad4a6a5-5208-47dd-a17d-ca38efa63f22"},"vehicle_type_id":"4","last_reported":1736449631,"current_range_meters":29600,"station_id":"","pricing_plan_id":"cebpf4jnsgd1na2vs0mg"},{"bike_id":"59680959-993e-49d5-827b-d5b17bfefc71","system_id":"levelo_inurba_marseille","lat":43.27834,"lon":5.39214,"is_reserved":false,"is_disabled":false,"rental_uris":{"android":"levelo://app?vid=59680959-993e-49d5-827b-d5b17bfefc71","ios":"levelo://app?vid=59680959-993e-49d5-827b-d5b17bfefc71"},"vehicle_type_id":"4","last_reported":1736449631,"current_range_meters":3200,"station_id":"ce4bhjp2rcd13ifvqga0","pricing_plan_id":"cebpf4jnsgd1na2vs0mg"},{"bike_id":"20446b4d-08fa-4d1a-8eef-2aa7f8d6d1eb","system_id":"levelo_inurba_marseille","lat":43.2846,"lon":5.35881,"is_reserved":false,"is_disabled":false,"rental_uris":{"android":"levelo://app?vid=20446b4d-08fa-4d1a-8eef-2aa7f8d6d1eb","ios":"levelo://app?vid=20446b4d-08fa-4d1a-8eef-2aa7f8d6d1eb"},"vehicle_type_id":"4","last_reported":1736449631,"current_range_meters":38400,"station_id":"ce4bhah2rcd13ifvqei0","pricing_plan_id":"cebpf4jnsgd1na2vs0mg"},{"bike_id":"a038e794-ced5-4cce-8097-ad88796f3839","system_id":"levelo_inurba_marseille","lat":43.29243,"lon":5.36848,"is_reserved":false,"is_disabled":false,"rental_uris":{"android":"levelo://app?vid=a038e794-ced5-4cce-8097-ad88796f3839","ios":"levelo://app?vid=a038e794-ced5-4cce-8097-ad88796f3839"},"vehicle_type_id":"4","last_reported":1736449631,"current_range_meters":33600,"station_id":"ce4bhbp2rcd13ifvqesg","pricing_plan_id":"cebpf4jnsgd1na2vs0mg"},{"bike_id":"b940ee68-1c7c-4562-a765-5b411475b18d","system_id":"levelo_inurba_marseille","lat":43.296,"lon":5.38096,"is_reserved":false,"is_disabled":true,"rental_uris":{"android":"levelo://app?vid=b940ee68-1c7c-4562-a765-5b411475b18d","ios":"levelo://app?vid=b940ee68-1c7c-4562-a765-5b411475b18d"},"vehicle_type_id":"4","last_reported":1736449631,"current_range_meters":0,"station_id":"ce4bgl12rcd13ifvqbo0","pricing_plan_id":"cebpf4jnsgd1na2vs0mg"},{"bike_id":"aa637afa-5dab-4e4f-a5b1-a846e41a59b6","system_id":"levelo_inurba_marseille","lat":43.24074,"lon":5.37757,"is_reserved":false,"is_disabled":false,"rental_uris":{"android":"levelo://app?vid=aa637afa-5dab-4e4f-a5b1-a846e41a59b6","ios":"levelo://app?vid=aa637afa-5dab-4e4f-a5b1-a846e41a59b6"},"vehicle_type_id":"4","last_reported":1736449631,"current_range_meters":16000,"station_id":"ce4bhnp2rcd13ifvqgvg","pricing_plan_id":"cebpf4jnsgd1na2vs0mg"},{"bike_id":"bbd9e2d8-cdb4-44bb-b40e-7515c70eda48","system_id":"levelo_inurba_marseille","lat":43.30797,"lon":5.38155,"is_reserved":false,"is_disabled":false,"rental_uris":{"android":"levelo://app?vid=bbd9e2d8-cdb4-44bb-b40e-7515c70eda48","ios":"levelo://app?vid=bbd9e2d8-cdb4-44bb-b40e-7515c70eda48"},"vehicle_type_id":"4","last_reported":1736449631,"current_range_meters":35600,"station_id":"ce4bgt12rcd13ifvqce0","pricing_plan_id":"cebpf4jnsgd1na2vs0mg"},{"bike_id":"7475f743-fa68-4b23-ab37-60e01b01184f","system_id":"levelo_inurba_marseille","lat":43.32113,"lon":5.36792,"is_reserved":false,"is_disabled":false,"rental_uris":{"android":"levelo://app?vid=7475f743-fa68-4b23-ab37-60e01b01184f","ios":"levelo://app?vid=7475f743-fa68-4b23-ab37-60e01b01184f"},"vehicle_type_id":"4","last_reported":1736449631,"current_range_meters":35600,"station_id":"ce4bhrh2rcd13ifvqhug","pricing_plan_id":"cebpf4jnsgd1na2vs0mg"},{"bike_id":"89608420-8481-4393-a670-5fb3db31b751","system_id":"levelo_inurba_marseille","lat":43.29629,"lon":5.4061,"is_reserved":false,"is_disabled":false,"rental_uris":{"android":"levelo://app?vid=89608420-8481-4393-a670-5fb3db31b751","ios":"levelo://app?vid=89608420-8481-4393-a670-5fb3db31b751"},"vehicle_type_id":"4","last_reported":1736449631,"current_range_meters":20800,"station_id":"ce4bh0h2rcd13ifvqd60","pricing_plan_id":"cebpf4jnsgd1na2vs0mg"},{"bike_id":"5cf29208-2372-494a-8ba6-49dc999fdb5d","system_id":"levelo_inurba_marseille","lat":43.284608,"lon":5.358883,"is_reserved":false,"is_disabled":false,"rental_uris":{"android":"levelo://app?vid=5cf29208-2372-494a-8ba6-49dc999fdb5d","ios":"levelo://app?vid=5cf29208-2372-494a-8ba6-49dc999fdb5d"},"vehicle_type_id":"4","last_reported":1736449631,"current_range_meters":6800,"station_id":"ce4bhah2rcd13ifvqei0","pricing_plan_id":"cebpf4jnsgd1na2vs0mg"},{"bike_id":"32e4f23c-4681-4116-80d2-6e73c5fc5a79","system_id":"levelo_inurba_marseille","lat":43.284596,"lon":5.358904,"is_reserved":false,"is_disabled":false,"rental_uris":{"android":"levelo://app?vid=32e4f23c-4681-4116-80d2-6e73c5fc5a79","ios":"levelo://app?vid=32e4f23c-4681-4116-80d2-6e73c5fc5a79"},"vehicle_type_id":"4","last_reported":1736449631,"current_range_meters":30400,"station_id":"ce4bhah2rcd13ifvqei0","pricing_plan_id":"cebpf4jnsgd1na2vs0mg"},{"bike_id":"b74b09ca-0e16-4f0b-8082-2d0148a94b49","system_id":"levelo_inurba_marseille","lat":43.29039,"lon":5.38665,"is_reserved":false,"is_disabled":false,"rental_uris":{"android":"levelo://app?vid=b74b09ca-0e16-4f0b-8082-2d0148a94b49","ios":"levelo://app?vid=b74b09ca-0e16-4f0b-8082-2d0148a94b49"},"vehicle_type_id":"4","last_reported":1736449631,"current_range_meters":31200,"station_id":"ce4bh4p2rcd13ifvqe0g","pricing_plan_id":"cebpf4jnsgd1na2vs0mg"},{"bike_id":"a6d29160-7dcb-4dc1-ad80-3af8255c9f21","system_id":"levelo_inurba_marseille","lat":43.31317,"lon":5.37024,"is_reserved":false,"is_disabled":false,"rental_uris":{"android":"levelo://app?vid=a6d29160-7dcb-4dc1-ad80-3af8255c9f21","ios":"levelo://app?vid=a6d29160-7dcb-4dc1-ad80-3af8255c9f21"},"vehicle_type_id":"4","last_reported":1736449631,"current_range_meters":32000,"station_id":"","pricing_plan_id":"cebpf4jnsgd1na2vs0mg"},{"bike_id":"3d97d3e0-d45c-47c2-9a56-3b2182dc5b15","system_id":"levelo_inurba_marseille","lat":43.27939,"lon":5.38702,"is_reserved":false,"is_disabled":true,"rental_uris":{"android":"levelo://app?vid=3d97d3e0-d45c-47c2-9a56-3b2182dc5b15","ios":"levelo://app?vid=3d97d3e0-d45c-47c2-9a56-3b2182dc5b15"},"vehicle_type_id":"4","last_reported":1736449631,"current_range_meters":0,"station_id":"","pricing_plan_id":"cebpf4jnsgd1na2vs0mg"},{"bike_id":"10628653-e151-4a45-9bf7-fb705cfbec72","system_id":"levelo_inurba_marseille","lat":43.30876,"lon":5.37189,"is_reserved":false,"is_disabled":false,"rental_uris":{"android":"levelo://app?vid=10628653-e151-4a45-9bf7-fb705cfbec72","ios":"levelo://app?vid=10628653-e151-4a45-9bf7-fb705cfbec72"},"vehicle_type_id":"4","last_reported":1736449631,"current_range_meters":3600,"station_id":"ce4bguh2rcd13ifvqckg","pricing_plan_id":"cebpf4jnsgd1na2vs0mg"},{"bike_id":"f2d24c5d-4ef8-4f15-ae40-953b4d776eb1","system_id":"levelo_inurba_marseille","lat":43.26957,"lon":5.38639,"is_reserved":false,"is_disabled":false,"rental_uris":{"android":"levelo://app?vid=f2d24c5d-4ef8-4f15-ae40-953b4d776eb1","ios":"levelo://app?vid=f2d24c5d-4ef8-4f15-ae40-953b4d776eb1"},"vehicle_type_id":"4","last_reported":1736449631,"current_range_meters":38000,"station_id":"ce4bhh92rcd13ifvqfh0","pricing_plan_id":"cebpf4jnsgd1na2vs0mg"},{"bike_id":"60259ae4-70b6-4659-a982-39ae7d57f554","system_id":"levelo_inurba_marseille","lat":43.29436,"lon":5.39738,"is_reserved":false,"is_disabled":false,"rental_uris":{"android":"levelo://app?vid=60259ae4-70b6-4659-a982-39ae7d57f554","ios":"levelo://app?vid=60259ae4-70b6-4659-a982-39ae7d57f554"},"vehicle_type_id":"4","last_reported":1736449631,"current_range_meters":30400,"station_id":"ce4bh3h2rcd13ifvqdo0","pricing_plan_id":"cebpf4jnsgd1na2vs0mg"},{"bike_id":"77267a50-c259-4717-b95f-9948e26dfef1","system_id":"levelo_inurba_marseille","lat":43.32048,"lon":5.41545,"is_reserved":false,"is_disabled":false,"rental_uris":{"android":"levelo://app?vid=77267a50-c259-4717-b95f-9948e26dfef1","ios":"levelo://app?vid=77267a50-c259-4717-b95f-9948e26dfef1"},"vehicle_type_id":"4","last_reported":1736449631,"current_range_meters":21600,"station_id":"ce4bhq92rcd13ifvqhkg","pricing_plan_id":"cebpf4jnsgd1na2vs0mg"},{"bike_id":"2eb264c8-1e8d-4f17-a831-3cda07857865","system_id":"levelo_inurba_marseille","lat":43.3211,"lon":5.36771,"is_reserved":false,"is_disabled":false,"rental_uris":{"android":"levelo://app?vid=2eb264c8-1e8d-4f17-a831-3cda07857865","ios":"levelo://app?vid=2eb264c8-1e8d-4f17-a831-3cda07857865"},"vehicle_type_id":"4","last_reported":1736449631,"current_range_meters":37600,"station_id":"ce4bhrh2rcd13ifvqhug","pricing_plan_id":"cebpf4jnsgd1na2vs0mg"},{"bike_id":"2ed5e248-eecf-4dd7-9c5f-5c0805032a4c","system_id":"levelo_inurba_marseille","lat":43.30186,"lon":5.36627,"is_reserved":false,"is_disabled":true,"rental_uris":{"android":"levelo://app?vid=2ed5e248-eecf-4dd7-9c5f-5c0805032a4c","ios":"levelo://app?vid=2ed5e248-eecf-4dd7-9c5f-5c0805032a4c"},"vehicle_type_id":"4","last_reported":1736449631,"current_range_meters":1600,"station_id":"ce4bgrh2rcd13ifvqc8g","pricing_plan_id":"cebpf4jnsgd1na2vs0mg"},{"bike_id":"c6797cf1-f0cd-4826-b75a-873856b4d3b9","system_id":"levelo_inurba_marseille","lat":43.3045,"lon":5.38909,"is_reserved":false,"is_disabled":false,"rental_uris":{"android":"levelo://app?vid=c6797cf1-f0cd-4826-b75a-873856b4d3b9","ios":"levelo://app?vid=c6797cf1-f0cd-4826-b75a-873856b4d3b9"},"vehicle_type_id":"4","last_reported":1736449631,"current_range_meters":39200,"station_id":"ce4bgk12rcd13ifvqbi0","pricing_plan_id":"cebpf4jnsgd1na2vs0mg"},{"bike_id":"1e2223a2-c032-49e7-8dbf-982df86a0520","system_id":"levelo_inurba_marseille","lat":43.22919,"lon":5.35389,"is_reserved":false,"is_disabled":false,"rental_uris":{"android":"levelo://app?vid=1e2223a2-c032-49e7-8dbf-982df86a0520","ios":"levelo://app?vid=1e2223a2-c032-49e7-8dbf-982df86a0520"},"vehicle_type_id":"4","last_reported":1736449631,"current_range_meters":36000,"station_id":"cpo3532slgdg3j2ikp40","pricing_plan_id":"cebpf4jnsgd1na2vs0mg"},{"bike_id":"4a20735a-ebc8-49e8-b75a-98caa4fb63fb","system_id":"levelo_inurba_marseille","lat":43.29869,"lon":5.39732,"is_reserved":false,"is_disabled":false,"rental_uris":{"android":"levelo://app?vid=4a20735a-ebc8-49e8-b75a-98caa4fb63fb","ios":"levelo://app?vid=4a20735a-ebc8-49e8-b75a-98caa4fb63fb"},"vehicle_type_id":"4","last_reported":1736449631,"current_range_meters":34800,"station_id":"ce4bh0h2rcd13ifvqd50","pricing_plan_id":"cebpf4jnsgd1na2vs0mg"},{"bike_id":"b3cae444-a187-4808-83e8-a4d3eec30618","system_id":"levelo_inurba_marseille","lat":43.30692,"lon":5.40084,"is_reserved":false,"is_disabled":false,"rental_uris":{"android":"levelo://app?vid=b3cae444-a187-4808-83e8-a4d3eec30618","ios":"levelo://app?vid=b3cae444-a187-4808-83e8-a4d3eec30618"},"vehicle_type_id":"4","last_reported":1736449631,"current_range_meters":25600,"station_id":"","pricing_plan_id":"cebpf4jnsgd1na2vs0mg"},{"bike_id":"d46f057d-b699-44ae-990e-92298c2b7139","system_id":"levelo_inurba_marseille","lat":43.23152,"lon":5.43713,"is_reserved":false,"is_disabled":false,"rental_uris":{"android":"levelo://app?vid=d46f057d-b699-44ae-990e-92298c2b7139","ios":"levelo://app?vid=d46f057d-b699-44ae-990e-92298c2b7139"},"vehicle_type_id":"4","last_reported":1736449631,"current_range_meters":24800,"station_id":"ce4bhmp2rcd13ifvqgog","pricing_plan_id":"cebpf4jnsgd1na2vs0mg"},{"bike_id":"be8a233f-ad85-41b2-af03-bfa1e3033438","system_id":"levelo_inurba_marseille","lat":43.23203,"lon":5.35541,"is_reserved":false,"is_disabled":false,"rental_uris":{"android":"levelo://app?vid=be8a233f-ad85-41b2-af03-bfa1e3033438","ios":"levelo://app?vid=be8a233f-ad85-41b2-af03-bfa1e3033438"},"vehicle_type_id":"4","last_reported":1736449631,"current_range_meters":27600,"station_id":"ce4bhu92rcd13ifvqi70","pricing_plan_id":"cebpf4jnsgd1na2vs0mg"},{"bike_id":"b124ca2f-2fd0-4c56-960f-1b8a90949c3b","system_id":"levelo_inurba_marseille","lat":43.29483,"lon":5.3752,"is_reserved":false,"is_disabled":true,"rental_uris":{"android":"levelo://app?vid=b124ca2f-2fd0-4c56-960f-1b8a90949c3b","ios":"levelo://app?vid=b124ca2f-2fd0-4c56-960f-1b8a90949c3b"},"vehicle_type_id":"4","last_reported":1736449631,"current_range_meters":28400,"station_id":"ce4bgkp2rcd13ifvqbmg","pricing_plan_id":"cebpf4jnsgd1na2vs0mg"},{"bike_id":"4e961a78-0f5c-4fc7-98ca-40069191b9f0","system_id":"levelo_inurba_marseille","lat":43.28424,"lon":5.34986,"is_reserved":false,"is_disabled":false,"rental_uris":{"android":"levelo://app?vid=4e961a78-0f5c-4fc7-98ca-40069191b9f0","ios":"levelo://app?vid=4e961a78-0f5c-4fc7-98ca-40069191b9f0"},"vehicle_type_id":"4","last_reported":1736449631,"current_range_meters":36800,"station_id":"ce4bhbh2rcd13ifvqepg","pricing_plan_id":"cebpf4jnsgd1na2vs0mg"},{"bike_id":"e03df17b-80ba-4930-a472-9acf99767675","system_id":"levelo_inurba_marseille","lat":43.31083,"lon":5.42432,"is_reserved":false,"is_disabled":false,"rental_uris":{"android":"levelo://app?vid=e03df17b-80ba-4930-a472-9acf99767675","ios":"levelo://app?vid=e03df17b-80ba-4930-a472-9acf99767675"},"vehicle_type_id":"4","last_reported":1736449631,"current_range_meters":35600,"station_id":"ce4bhp92rcd13ifvqhag","pricing_plan_id":"cebpf4jnsgd1na2vs0mg"},{"bike_id":"2bf137df-75b1-44ad-8782-8d7ae5906911","system_id":"levelo_inurba_marseille","lat":43.3043,"lon":5.38894,"is_reserved":false,"is_disabled":false,"rental_uris":{"android":"levelo://app?vid=2bf137df-75b1-44ad-8782-8d7ae5906911","ios":"levelo://app?vid=2bf137df-75b1-44ad-8782-8d7ae5906911"},"vehicle_type_id":"4","last_reported":1736449631,"current_range_meters":36400,"station_id":"ce4bgk12rcd13ifvqbi0","pricing_plan_id":"cebpf4jnsgd1na2vs0mg"},{"bike_id":"ea0719f3-eceb-440b-85a2-c16b31e4d610","system_id":"levelo_inurba_marseille","lat":43.292177,"lon":5.36073,"is_reserved":false,"is_disabled":false,"rental_uris":{"android":"levelo://app?vid=ea0719f3-eceb-440b-85a2-c16b31e4d610","ios":"levelo://app?vid=ea0719f3-eceb-440b-85a2-c16b31e4d610"},"vehicle_type_id":"4","last_reported":1736449631,"current_range_meters":38800,"station_id":"ce4bhbh2rcd13ifvqeqg","pricing_plan_id":"cebpf4jnsgd1na2vs0mg"},{"bike_id":"d85f28c7-d3a2-47fc-8fc7-067b6a5a5b57","system_id":"levelo_inurba_marseille","lat":43.29097,"lon":5.38127,"is_reserved":false,"is_disabled":true,"rental_uris":{"android":"levelo://app?vid=d85f28c7-d3a2-47fc-8fc7-067b6a5a5b57","ios":"levelo://app?vid=d85f28c7-d3a2-47fc-8fc7-067b6a5a5b57"},"vehicle_type_id":"4","last_reported":1736449631,"current_range_meters":30800,"station_id":"ce4bh512rcd13ifvqe2g","pricing_plan_id":"cebpf4jnsgd1na2vs0mg"},{"bike_id":"e4cd9167-1ac4-4f3e-96a9-1a577bffaaed","system_id":"levelo_inurba_marseille","lat":43.25582,"lon":5.38246,"is_reserved":false,"is_disabled":false,"rental_uris":{"android":"levelo://app?vid=e4cd9167-1ac4-4f3e-96a9-1a577bffaaed","ios":"levelo://app?vid=e4cd9167-1ac4-4f3e-96a9-1a577bffaaed"},"vehicle_type_id":"4","last_reported":1736449631,"current_range_meters":31200,"station_id":"ce4bhih2rcd13ifvqfs0","pricing_plan_id":"cebpf4jnsgd1na2vs0mg"},{"bike_id":"ec016917-782e-4dd0-a036-90e2b30ce585","system_id":"levelo_inurba_marseille","lat":43.3022,"lon":5.39469,"is_reserved":false,"is_disabled":false,"rental_uris":{"android":"levelo://app?vid=ec016917-782e-4dd0-a036-90e2b30ce585","ios":"levelo://app?vid=ec016917-782e-4dd0-a036-90e2b30ce585"},"vehicle_type_id":"4","last_reported":1736449631,"current_range_meters":18800,"station_id":"ce4bh0p2rcd13ifvqd70","pricing_plan_id":"cebpf4jnsgd1na2vs0mg"},{"bike_id":"bf9f8dc0-fe29-4988-b195-24737592967a","system_id":"levelo_inurba_marseille","lat":43.23191,"lon":5.39989,"is_reserved":false,"is_disabled":false,"rental_uris":{"android":"levelo://app?vid=bf9f8dc0-fe29-4988-b195-24737592967a","ios":"levelo://app?vid=bf9f8dc0-fe29-4988-b195-24737592967a"},"vehicle_type_id":"4","last_reported":1736449631,"current_range_meters":28000,"station_id":"ce4bhn12rcd13ifvqgqg","pricing_plan_id":"cebpf4jnsgd1na2vs0mg"},{"bike_id":"fd1791cc-d513-46aa-86f5-45066a889da9","system_id":"levelo_inurba_marseille","lat":43.31725,"lon":5.42391,"is_reserved":false,"is_disabled":false,"rental_uris":{"android":"levelo://app?vid=fd1791cc-d513-46aa-86f5-45066a889da9","ios":"levelo://app?vid=fd1791cc-d513-46aa-86f5-45066a889da9"},"vehicle_type_id":"4","last_reported":1736449631,"current_range_meters":37600,"station_id":"ce4bhp92rcd13ifvqhbg","pricing_plan_id":"cebpf4jnsgd1na2vs0mg"},{"bike_id":"661421ef-43d8-4a9a-9b63-a317032c4e73","system_id":"levelo_inurba_marseille","lat":43.30133,"lon":5.38793,"is_reserved":false,"is_disabled":true,"rental_uris":{"android":"levelo://app?vid=661421ef-43d8-4a9a-9b63-a317032c4e73","ios":"levelo://app?vid=661421ef-43d8-4a9a-9b63-a317032c4e73"},"vehicle_type_id":"4","last_reported":1736449631,"current_range_meters":38800,"station_id":"ce4bghh2rcd13ifvqb60","pricing_plan_id":"cebpf4jnsgd1na2vs0mg"},{"bike_id":"fc9288ed-9da0-4c7f-9aba-d64070cdbf51","system_id":"levelo_inurba_marseille","lat":43.23149,"lon":5.43698,"is_reserved":false,"is_disabled":false,"rental_uris":{"android":"levelo://app?vid=fc9288ed-9da0-4c7f-9aba-d64070cdbf51","ios":"levelo://app?vid=fc9288ed-9da0-4c7f-9aba-d64070cdbf51"},"vehicle_type_id":"4","last_reported":1736449631,"current_range_meters":38800,"station_id":"ce4bhmp2rcd13ifvqgog","pricing_plan_id":"cebpf4jnsgd1na2vs0mg"},{"bike_id":"898cfc52-28d2-4c66-bada-16b711616c58","system_id":"levelo_inurba_marseille","lat":43.29716,"lon":5.37691,"is_reserved":false,"is_disabled":false,"rental_uris":{"android":"levelo://app?vid=898cfc52-28d2-4c66-bada-16b711616c58","ios":"levelo://app?vid=898cfc52-28d2-4c66-bada-16b711616c58"},"vehicle_type_id":"4","last_reported":1736449631,"current_range_meters":32000,"station_id":"ce4bgkh2rcd13ifvqbl0","pricing_plan_id":"cebpf4jnsgd1na2vs0mg"},{"bike_id":"ad28bd53-1c8c-44ea-9a1c-1e5a5b2498fe","system_id":"levelo_inurba_marseille","lat":43.24172,"lon":5.36367,"is_reserved":false,"is_disabled":false,"rental_uris":{"android":"levelo://app?vid=ad28bd53-1c8c-44ea-9a1c-1e5a5b2498fe","ios":"levelo://app?vid=ad28bd53-1c8c-44ea-9a1c-1e5a5b2498fe"},"vehicle_type_id":"4","last_reported":1736449631,"current_range_meters":13600,"station_id":"cpo36qri1sfpv3e86is0","pricing_plan_id":"cebpf4jnsgd1na2vs0mg"},{"bike_id":"6885ed5d-53a7-49fe-9e2a-bb08dbe1c700","system_id":"levelo_inurba_marseille","lat":43.2924,"lon":5.4092,"is_reserved":false,"is_disabled":true,"rental_uris":{"android":"levelo://app?vid=6885ed5d-53a7-49fe-9e2a-bb08dbe1c700","ios":"levelo://app?vid=6885ed5d-53a7-49fe-9e2a-bb08dbe1c700"},"vehicle_type_id":"4","last_reported":1736449631,"current_range_meters":0,"station_id":"ce4bh192rcd13ifvqdc0","pricing_plan_id":"cebpf4jnsgd1na2vs0mg"},{"bike_id":"ed5f8f9c-24db-4495-ba73-b7cea4b154a2","system_id":"levelo_inurba_marseille","lat":43.24079,"lon":5.37748,"is_reserved":false,"is_disabled":false,"rental_uris":{"android":"levelo://app?vid=ed5f8f9c-24db-4495-ba73-b7cea4b154a2","ios":"levelo://app?vid=ed5f8f9c-24db-4495-ba73-b7cea4b154a2"},"vehicle_type_id":"4","last_reported":1736449631,"current_range_meters":38000,"station_id":"ce4bhnp2rcd13ifvqgvg","pricing_plan_id":"cebpf4jnsgd1na2vs0mg"},{"bike_id":"817e9b1d-4955-494b-9c6b-7556500fe21a","system_id":"levelo_inurba_marseille","lat":43.29267,"lon":5.36842,"is_reserved":false,"is_disabled":false,"rental_uris":{"android":"levelo://app?vid=817e9b1d-4955-494b-9c6b-7556500fe21a","ios":"levelo://app?vid=817e9b1d-4955-494b-9c6b-7556500fe21a"},"vehicle_type_id":"4","last_reported":1736449631,"current_range_meters":13600,"station_id":"ce4bhbp2rcd13ifvqesg","pricing_plan_id":"cebpf4jnsgd1na2vs0mg"},{"bike_id":"e3dc1723-c304-42fb-b1ea-ebc3611aa765","system_id":"levelo_inurba_marseille","lat":43.25944,"lon":5.40909,"is_reserved":false,"is_disabled":true,"rental_uris":{"android":"levelo://app?vid=e3dc1723-c304-42fb-b1ea-ebc3611aa765","ios":"levelo://app?vid=e3dc1723-c304-42fb-b1ea-ebc3611aa765"},"vehicle_type_id":"4","last_reported":1736449631,"current_range_meters":0,"station_id":"ce4bhm92rcd13ifvqglg","pricing_plan_id":"cebpf4jnsgd1na2vs0mg"},{"bike_id":"69193c43-77f1-4f09-92b5-288a5a6474bb","system_id":"levelo_inurba_marseille","lat":43.29203,"lon":5.35811,"is_reserved":false,"is_disabled":false,"rental_uris":{"android":"levelo://app?vid=69193c43-77f1-4f09-92b5-288a5a6474bb","ios":"levelo://app?vid=69193c43-77f1-4f09-92b5-288a5a6474bb"},"vehicle_type_id":"4","last_reported":1736449631,"current_range_meters":26000,"station_id":"ce4bhb12rcd13ifvqel0","pricing_plan_id":"cebpf4jnsgd1na2vs0mg"},{"bike_id":"7cc324a9-304a-4a9d-933c-9a915149f8fc","system_id":"levelo_inurba_marseille","lat":43.26685,"lon":5.3827,"is_reserved":false,"is_disabled":true,"rental_uris":{"android":"levelo://app?vid=7cc324a9-304a-4a9d-933c-9a915149f8fc","ios":"levelo://app?vid=7cc324a9-304a-4a9d-933c-9a915149f8fc"},"vehicle_type_id":"4","last_reported":1736449631,"current_range_meters":38800,"station_id":"ce4bhg92rcd13ifvqf90","pricing_plan_id":"cebpf4jnsgd1na2vs0mg"},{"bike_id":"ed73949d-7075-4f03-ad56-134b441416f0","system_id":"levelo_inurba_marseille","lat":43.30668,"lon":5.401,"is_reserved":false,"is_disabled":false,"rental_uris":{"android":"levelo://app?vid=ed73949d-7075-4f03-ad56-134b441416f0","ios":"levelo://app?vid=ed73949d-7075-4f03-ad56-134b441416f0"},"vehicle_type_id":"4","last_reported":1736449631,"current_range_meters":38800,"station_id":"ce4bh112rcd13ifvqda0","pricing_plan_id":"cebpf4jnsgd1na2vs0mg"},{"bike_id":"f413de04-6d04-4eec-b46e-ebe29d5929e2","system_id":"levelo_inurba_marseille","lat":43.27563,"lon":5.38417,"is_reserved":false,"is_disabled":false,"rental_uris":{"android":"levelo://app?vid=f413de04-6d04-4eec-b46e-ebe29d5929e2","ios":"levelo://app?vid=f413de04-6d04-4eec-b46e-ebe29d5929e2"},"vehicle_type_id":"4","last_reported":1736449631,"current_range_meters":23200,"station_id":"ce4bhh92rcd13ifvqfi0","pricing_plan_id":"cebpf4jnsgd1na2vs0mg"},{"bike_id":"b8acbba0-a715-4ced-a2aa-0517db10ac9d","system_id":"levelo_inurba_marseille","lat":43.22934,"lon":5.3537,"is_reserved":false,"is_disabled":false,"rental_uris":{"android":"levelo://app?vid=b8acbba0-a715-4ced-a2aa-0517db10ac9d","ios":"levelo://app?vid=b8acbba0-a715-4ced-a2aa-0517db10ac9d"},"vehicle_type_id":"4","last_reported":1736449631,"current_range_meters":10000,"station_id":"cpo3532slgdg3j2ikp40","pricing_plan_id":"cebpf4jnsgd1na2vs0mg"},