{"last_updated":1746238939,"ttl":60,"version":"2.2","data":{"bikes":[{"bike_id":"587033e8-9114-4237-990e-deafe4f5ad79","system_id":"levelo_inurba_marseille","lat":43.242567,"lon":5.370493,"is_reserved":false,"is_disabled":true,"rental_uris":{"android":"levelo://app?vid=587033e8-9114-4237-990e-deafe4f5ad79","ios":"levelo://app?vid=587033e8-9114-4237-990e-deafe4f5ad79"},"vehicle_type_id":"4","last_reported":1746238939,"current_range_meters":0,"station_id":"","pricing_plan_id":"cebpf4jnsgd1na2vs0mg"},{"bike_id":"76c1809e-b03a-4489-8d04-2161a1946c9d","system_id":"levelo_inurba_marseille","lat":43.2795,"lon":5.37181,"is_reserved":false,"is_disabled":true,"rental_uris":{"android":"levelo://app?vid=76c1809e-b03a-4489-8d04-2161a1946c9d","ios":"levelo://app?vid=76c1809e-b03a-4489-8d04-2161a1946c9d"},"vehicle_type_id":"4","last_reported":1746238939,"current_range_meters":0,"station_id":"","pricing_plan_id":"cebpf4jnsgd1na2vs0mg"},{"bike_id":"98e592b3-5fa3-4a83-b8d7-4600d55d353f","system_id":"levelo_inurba_marseille","lat":43.24644,"lon":5.43659,"is_reserved":false,"is_disabled":true,"rental_uris":{"android":"levelo://app?vid=98e592b3-5fa3-4a83-b8d7-4600d55d353f","ios":"levelo://app?vid=98e592b3-5fa3-4a83-b8d7-4600d55d353f"},"vehicle_type_id":"4","last_reported":1746238939,"current_range_meters":0,"station_id":"","pricing_plan_id":"cebpf4jnsgd1na2vs0mg"},{"bike_id":"f35a4c3e-288c-46e6-a156-ce98b822e31c","system_id":"levelo_inurba_marseille","lat":43.26612,"lon":5.39386,"is_reserved":false,"is_disabled":true,"rental_uris":{"android":"levelo://app?vid=f35a4c3e-288c-46e6-a156-ce98b822e31c","ios":"levelo://app?vid=f35a4c3e-288c-46e6-a156-ce98b822e31c"},"vehicle_type_id":"4","last_reported":1746238939,"current_range_meters":0,"station_id":"","pricing_plan_id":"cebpf4jnsgd1na2vs0mg"},{"bike_id":"27c926f4-2e8c-4fe5-8d0a-ce234b43b164","system_id":"levelo_inurba_marseille","lat":43.27876,"lon":5.38808,"is_reserved":false,"is_disabled":true,"rental_uris":{"android":"levelo://app?vid=27c926f4-2e8c-4fe5-8d0a-ce234b43b164","ios":"levelo://app?vid=27c926f4-2e8c-4fe5-8d0a-ce234b43b164"},"vehicle_type_id":"4","last_reported":1746238939,"current_range_meters":0,"station_id":"","pricing_plan_id":"cebpf4jnsgd1na2vs0mg"},{"bike_id":"7f770ba9-2e48-47c9-8bb4-942855273bad","system_id":"levelo_inurba_marseille","lat":43.253258,"lon":5.424109,"is_reserved":false,"is_disabled":true,"rental_uris":{"android":"levelo://app?vid=7f770ba9-2e48-47c9-8bb4-942855273bad","ios":"levelo://app?vid=7f770ba9-2e48-47c9-8bb4-942855273bad"},"vehicle_type_id":"4","last_reported":1746238939,"current_range_meters":0,"station_id":"","pricing_plan_id":"cebpf4jnsgd1na2vs0mg"},{"bike_id":"dcf471e5-50d7-4c6d-8c76-01b9d58b8521","system_id":"levelo_inurba_marseille","lat":43.217532,"lon":5.346012,"is_reserved":false,"is_disabled":true,"rental_uris":{"android":"levelo://app?vid=dcf471e5-50d7-4c6d-8c76-01b9d58b8521","ios":"levelo://app?vid=dcf471e5-50d7-4c6d-8c76-01b9d58b8521"},"vehicle_type_id":"4","last_reported":1746238939,"current_range_meters":0,"station_id":"","pricing_plan_id":"cebpf4jnsgd1na2vs0mg"},{"bike_id":"eefa78c8-4f9d-4d38-a7d3-c880870c89cc","system_id":"levelo_inurba_marseille","lat":43.28115,"lon":5.398541,"is_reserved":false,"is_disabled":true,"rental_uris":{"android":"levelo://app?vid=eefa78c8-4f9d-4d38-a7d3-c880870c89cc","ios":"levelo://app?vid=eefa78c8-4f9d-4d38-a7d3-c880870c89cc"},"vehicle_type_id":"4","last_reported":1746238939,"current_range_meters":0,"station_id":"","pricing_plan_id":"cebpf4jnsgd1na2vs0mg"},{"bike_id":"f1838310-e644-4cc5-b131-598db146ee41","system_id":"levelo_inurba_marseille","lat":43.33762,"lon":5.37469,"is_reserved":false,"is_disabled":true,"rental_uris":{"android":"levelo://app?vid=f1838310-e644-4cc5-b131-598db146ee41","ios":"levelo://app?vid=f1838310-e644-4cc5-b131-598db146ee41"},"vehicle_type_id":"4","last_reported":1746238939,"current_range_meters":0,"station_id":"","pricing_plan_id":"cebpf4jnsgd1na2vs0mg"},{"bike_id":"e93b949e-1738-47f2-ad13-8f512df2ffaf","system_id":"levelo_inurba_marseille","lat":43.28135,"lon":5.44379,"is_reserved":false,"is_disabled":true,"rental_uris":{"android":"levelo://app?vid=e93b949e-1738-47f2-ad13-8f512df2ffaf","ios":"levelo://app?vid=e93b949e-1738-47f2-ad13-8f512df2ffaf"},"vehicle_type_id":"4","last_reported":1746238939,"current_range_meters":0,"station_id":"","pricing_plan_id":"cebpf4jnsgd1na2vs0mg"},{"bike_id":"b963e88a-26c0-4a95-ae5a-b06fcd035fe1","system_id":"levelo_inurba_marseille","lat":43.30551,"lon":5.36739,"is_reserved":false,"is_disabled":true,"rental_uris":{"android":"levelo://app?vid=b963e88a-26c0-4a95-ae5a-b06fcd035fe1","ios":"levelo://app?vid=b963e88a-26c0-4a95-ae5a-b06fcd035fe1"},"vehicle_type_id":"4","last_reported":1746238939,"current_range_meters":0,"station_id":"ce4bgrp2rcd13ifvqc9g","pricing_plan_id":"cebpf4jnsgd1na2vs0mg"},{"bike_id":"51b41003-8348-4751-b129-7d082e325107","system_id":"levelo_inurba_marseille","lat":43.308824,"lon":5.396509,"is_reserved":false,"is_disabled":true,"rental_uris":{"android":"levelo://app?vid=51b41003-8348-4751-b129-7d082e325107","ios":"levelo://app?vid=51b41003-8348-4751-b129-7d082e325107"},"vehicle_type_id":"4","last_reported":1746238939,"current_range_meters":0,"station_id":"ce4bh012rcd13ifvqcv0","pricing_plan_id":"cebpf4jnsgd1na2vs0mg"},{"bike_id":"5e56ef74-a089-4171-8e18-60341d23a231","system_id":"levelo_inurba_marseille","lat":43.305943,"lon":5.393613,"is_reserved":false,"is_disabled":true,"rental_uris":{"android":"levelo://app?vid=5e56ef74-a089-4171-8e18-60341d23a231","ios":"levelo://app?vid=5e56ef74-a089-4171-8e18-60341d23a231"},"vehicle_type_id":"4","last_reported":1746238939,"current_range_meters":0,"station_id":"ce4bh0p2rcd13ifvqd80","pricing_plan_id":"cebpf4jnsgd1na2vs0mg"},{"bike_id":"f57de508-232c-4a4c-80e4-b674e5b4d6bd","system_id":"levelo_inurba_marseille","lat":43.29073,"lon":5.38147,"is_reserved":false,"is_disabled":true,"rental_uris":{"android":"levelo://app?vid=f57de508-232c-4a4c-80e4-b674e5b4d6bd","ios":"levelo://app?vid=f57de508-232c-4a4c-80e4-b674e5b4d6bd"},"vehicle_type_id":"4","last_reported":1746238939,"current_range_meters":0,"station_id":"ce4bh512rcd13ifvqe2g","pricing_plan_id":"cebpf4jnsgd1na2vs0mg"},{"bike_id":"a3282d87-fb1b-4228-a5ac-d635c8d79766","system_id":"levelo_inurba_marseille","lat":43.24389,"lon":5.37072,"is_reserved":false,"is_disabled":true,"rental_uris":{"android":"levelo://app?vid=a3282d87-fb1b-4228-a5ac-d635c8d79766","ios":"levelo://app?vid=a3282d87-fb1b-4228-a5ac-d635c8d79766"},"vehicle_type_id":"4","last_reported":1746238939,"current_range_meters":0,"station_id":"ce4bhhh2rcd13ifvqfk0","pricing_plan_id":"cebpf4jnsgd1na2vs0mg"},{"bike_id":"95b129d8-231b-44e8-a724-dc3041b12460","system_id":"levelo_inurba_marseille","lat":43.24154,"lon":5.39708,"is_reserved":false,"is_disabled":true,"rental_uris":{"android":"levelo://app?vid=95b129d8-231b-44e8-a724-dc3041b12460","ios":"levelo://app?vid=95b129d8-231b-44e8-a724-dc3041b12460"},"vehicle_type_id":"4","last_reported":1746238939,"current_range_meters":0,"station_id":"ce4bhn12rcd13ifvqgpg","pricing_plan_id":"cebpf4jnsgd1na2vs0mg"},{"bike_id":"e682e778-ea1c-4d6f-b221-e69b96a4477e","system_id":"levelo_inurba_marseille","lat":43.27948,"lon":5.41047,"is_reserved":false,"is_disabled":true,"rental_uris":{"android":"levelo://app?vid=e682e778-ea1c-4d6f-b221-e69b96a4477e","ios":"levelo://app?vid=e682e778-ea1c-4d6f-b221-e69b96a4477e"},"vehicle_type_id":"4","last_reported":1746238939,"current_range_meters":0,"station_id":"ce4bhnp2rcd13ifvqh0g","pricing_plan_id":"cebpf4jnsgd1na2vs0mg"},{"bike_id":"e336b0c2-a2be-4eca-b6c2-a513a8ae7843","system_id":"levelo_inurba_marseille","lat":43.2176,"lon":5.34634,"is_reserved":false,"is_disabled":true,"rental_uris":{"android":"levelo://app?vid=e336b0c2-a2be-4eca-b6c2-a513a8ae7843","ios":"levelo://app?vid=e336b0c2-a2be-4eca-b6c2-a513a8ae7843"},"vehicle_type_id":"4","last_reported":1746238939,"current_range_meters":0,"station_id":"st_cvj6r9ubvosntc0bgbag","pricing_plan_id":"cebpf4jnsgd1na2vs0mg"},{"bike_id":"3ecf66e2-44b6-472c-af09-0855bf590a80","system_id":"levelo_inurba_marseille","lat":43.21739,"lon":5.34603,"is_reserved":false,"is_disabled":true,"rental_uris":{"android":"levelo://app?vid=3ecf66e2-44b6-472c-af09-0855bf590a80","ios":"levelo://app?vid=3ecf66e2-44b6-472c-af09-0855bf590a80"},"vehicle_type_id":"4","last_reported":1746238939,"current_range_meters":0,"station_id":"st_cvj6r9ubvosntc0bgbag","pricing_plan_id":"cebpf4jnsgd1na2vs0mg"},{"bike_id":"02ef3096-14c5-4060-a88c-c36fcdf56e5a","system_id":"levelo_inurba_marseille","lat":43.217644,"lon":5.346026,"is_reserved":false,"is_disabled":true,"rental_uris":{"android":"levelo://app?vid=02ef3096-14c5-4060-a88c-c36fcdf56e5a","ios":"levelo://app?vid=02ef3096-14c5-4060-a88c-c36fcdf56e5a"},"vehicle_type_id":"4","last_reported":1746238939,"current_range_meters":0,"station_id":"st_cvj6r9ubvosntc0bgbag","pricing_plan_id":"cebpf4jnsgd1na2vs0mg"},{"bike_id":"a9271c4c-cb08-419c-89df-c865809695a8","system_id":"levelo_inurba_marseille","lat":43.21759,"lon":5.34634,"is_reserved":false,"is_disabled":true,"rental_uris":{"android":"levelo://app?vid=a9271c4c-cb08-419c-89df-c865809695a8","ios":"levelo://app?vid=a9271c4c-cb08-419c-89df-c865809695a8"},"vehicle_type_id":"4","last_reported":1746238939,"current_range_meters":0,"station_id":"st_cvj6r9ubvosntc0bgbag","pricing_plan_id":"cebpf4jnsgd1na2vs0mg"},{"bike_id":"41649255-c38b-42cb-ae7f-67f2787c354c","system_id":"levelo_inurba_marseille","lat":43.23764,"lon":5.43562,"is_reserved":false,"is_disabled":true,"rental_uris":{"android":"levelo://app?vid=41649255-c38b-42cb-ae7f-67f2787c354c","ios":"levelo://app?vid=41649255-c38b-42cb-ae7f-67f2787c354c"},"vehicle_type_id":"4","last_reported":1746238939,"current_range_meters":800,"station_id":"","pricing_plan_id":"cebpf4jnsgd1na2vs0mg"},{"bike_id":"b7976ca9-abc2-4dfe-8dbe-f287f1766bd0","system_id":"levelo_inurba_marseille","lat":43.28699,"lon":5.36299,"is_reserved":false,"is_disabled":true,"rental_uris":{"android":"levelo://app?vid=b7976ca9-abc2-4dfe-8dbe-f287f1766bd0","ios":"levelo://app?vid=b7976ca9-abc2-4dfe-8dbe-f287f1766bd0"},"vehicle_type_id":"4","last_reported":1746238939,"current_range_meters":800,"station_id":"","pricing_plan_id":"cebpf4jnsgd1na2vs0mg"},{"bike_id":"412ce004-28d4-40cc-9ab8-49f2e3bf45b1","system_id":"levelo_inurba_marseille","lat":43.260677,"lon":5.393943,"is_reserved":false,"is_disabled":true,"rental_uris":{"android":"levelo://app?vid=412ce004-28d4-40cc-9ab8-49f2e3bf45b1","ios":"levelo://app?vid=412ce004-28d4-40cc-9ab8-49f2e3bf45b1"},"vehicle_type_id":"4","last_reported":1746238939,"current_range_meters":800,"station_id":"ce4bhh92rcd13ifvqfj0","pricing_plan_id":"cebpf4jnsgd1na2vs0mg"},{"bike_id":"6f191500-dc26-4577-bb56-b85957d57936","system_id":"levelo_inurba_marseille","lat":43.2467,"lon":5.381458,"is_reserved":false,"is_disabled":true,"rental_uris":{"android":"levelo://app?vid=6f191500-dc26-4577-bb56-b85957d57936","ios":"levelo://app?vid=6f191500-dc26-4577-bb56-b85957d57936"},"vehicle_type_id":"4","last_reported":1746238939,"current_range_meters":800,"station_id":"ce4bhih2rcd13ifvqfr0","pricing_plan_id":"cebpf4jnsgd1na2vs0mg"},{"bike_id":"bb65b838-6f77-4057-bf86-bceb8e478284","system_id":"levelo_inurba_marseille","lat":43.25116,"lon":5.4031,"is_reserved":false,"is_disabled":true,"rental_uris":{"android":"levelo://app?vid=bb65b838-6f77-4057-bf86-bceb8e478284","ios":"levelo://app?vid=bb65b838-6f77-4057-bf86-bceb8e478284"},"vehicle_type_id":"4","last_reported":1746238939,"current_range_meters":800,"station_id":"ce4bhlh2rcd13ifvqgig","pricing_plan_id":"cebpf4jnsgd1na2vs0mg"},{"bike_id":"b9ebcf07-e3dc-4561-b80b-5815fdee7e07","system_id":"levelo_inurba_marseille","lat":43.3127,"lon":5.4017,"is_reserved":false,"is_disabled":true,"rental_uris":{"android":"levelo://app?vid=b9ebcf07-e3dc-4561-b80b-5815fdee7e07","ios":"levelo://app?vid=b9ebcf07-e3dc-4561-b80b-5815fdee7e07"},"vehicle_type_id":"4","last_reported":1746238939,"current_range_meters":1200,"station_id":"ce4bh092rcd13ifvqd30","pricing_plan_id":"cebpf4jnsgd1na2vs0mg"},{"bike_id":"99276ebc-8e7e-4f69-9f3a-62311f510619","system_id":"levelo_inurba_marseille","lat":43.25493,"lon":5.3765,"is_reserved":false,"is_disabled":true,"rental_uris":{"android":"levelo://app?vid=99276ebc-8e7e-4f69-9f3a-62311f510619","ios":"levelo://app?vid=99276ebc-8e7e-4f69-9f3a-62311f510619"},"vehicle_type_id":"4","last_reported":1746238939,"current_range_meters":1200,"station_id":"ce4bhh12rcd13ifvqff0","pricing_plan_id":"cebpf4jnsgd1na2vs0mg"},{"bike_id":"75b62ebf-ee38-4cac-9568-21c315ebd89e","system_id":"levelo_inurba_marseille","lat":43.27553,"lon":5.38405,"is_reserved":false,"is_disabled":true,"rental_uris":{"android":"levelo://app?vid=75b62ebf-ee38-4cac-9568-21c315ebd89e","ios":"levelo://app?vid=75b62ebf-ee38-4cac-9568-21c315ebd89e"},"vehicle_type_id":"4","last_reported":1746238939,"current_range_meters":1600,"station_id":"ce4bhh92rcd13ifvqfi0","pricing_plan_id":"cebpf4jnsgd1na2vs0mg"},{"bike_id":"82823425-488a-4456-af27-76b5f2be6048","system_id":"levelo_inurba_marseille","lat":43.23186,"lon":5.39995,"is_reserved":false,"is_disabled":true,"rental_uris":{"android":"levelo://app?vid=82823425-488a-4456-af27-76b5f2be6048","ios":"levelo://app?vid=82823425-488a-4456-af27-76b5f2be6048"},"vehicle_type_id":"4","last_reported":1746238939,"current_range_meters":1600,"station_id":"ce4bhn12rcd13ifvqgqg","pricing_plan_id":"cebpf4jnsgd1na2vs0mg"},{"bike_id":"5f9e4410-4f7a-47e5-8527-a7552cb12a19","system_id":"levelo_inurba_marseille","lat":43.30318,"lon":5.40447,"is_reserved":false,"is_disabled":true,"rental_uris":{"android":"levelo://app?vid=5f9e4410-4f7a-47e5-8527-a7552cb12a19","ios":"levelo://app?vid=5f9e4410-4f7a-47e5-8527-a7552cb12a19"},"vehicle_type_id":"4","last_reported":1746238939,"current_range_meters":2000,"station_id":"ce4bh012rcd13ifvqd10","pricing_plan_id":"cebpf4jnsgd1na2vs0mg"},{"bike_id":"484b13dc-511f-4326-a9e8-421051fa1187","system_id":"levelo_inurba_marseille","lat":43.28933,"lon":5.36412,"is_reserved":false,"is_disabled":true,"rental_uris":{"android":"levelo://app?vid=484b13dc-511f-4326-a9e8-421051fa1187","ios":"levelo://app?vid=484b13dc-511f-4326-a9e8-421051fa1187"},"vehicle_type_id":"4","last_reported":1746238939,"current_range_meters":2000,"station_id":"ce4bhc92rcd13ifvqetg","pricing_plan_id":"cebpf4jnsgd1na2vs0mg"},{"bike_id":"1f693de2-4039-4fe7-a312-33be95ea043e","system_id":"levelo_inurba_marseille","lat":43.24799,"lon":5.37464,"is_reserved":false,"is_disabled":true,"rental_uris":{"android":"levelo://app?vid=1f693de2-4039-4fe7-a312-33be95ea043e","ios":"levelo://app?vid=1f693de2-4039-4fe7-a312-33be95ea043e"},"vehicle_type_id":"4","last_reported":1746238939,"current_range_meters":2000,"station_id":"ce4bhgh2rcd13ifvqfb0","pricing_plan_id":"cebpf4jnsgd1na2vs0mg"},{"bike_id":"fb1a961d-a942-4d57-b471-468013633b9d","system_id":"levelo_inurba_marseille","lat":43.29902,"lon":5.43675,"is_reserved":false,"is_disabled":false,"rental_uris":{"android":"levelo://app?vid=fb1a961d-a942-4d57-b471-468013633b9d","ios":"levelo://app?vid=fb1a961d-a942-4d57-b471-468013633b9d"},"vehicle_type_id":"4","last_reported":1746238939,"current_range_meters":3200,"station_id":"ce4bhpp2rcd13ifvqhfg","pricing_plan_id":"cebpf4jnsgd1na2vs0mg"},{"bike_id":"277b09f7-c239-408c-a98f-da7583ea5f2b","system_id":"levelo_inurba_marseille","lat":43.28509,"lon":5.39202,"is_reserved":false,"is_disabled":false,"rental_uris":{"android":"levelo://app?vid=277b09f7-c239-408c-a98f-da7583ea5f2b","ios":"levelo://app?vid=277b09f7-c239-408c-a98f-da7583ea5f2b"},"vehicle_type_id":"4","last_reported":1746238939,"current_range_meters":3600,"station_id":"","pricing_plan_id":"cebpf4jnsgd1na2vs0mg"},{"bike_id":"34294dd3-b27d-4ffb-860f-a93d9867f32f","system_id":"levelo_inurba_marseille","lat":43.25083,"lon":5.39499,"is_reserved":false,"is_disabled":false,"rental_uris":{"android":"levelo://app?vid=34294dd3-b27d-4ffb-860f-a93d9867f32f","ios":"levelo://app?vid=34294dd3-b27d-4ffb-860f-a93d9867f32f"},"vehicle_type_id":"4","last_reported":1746238939,"current_range_meters":3600,"station_id":"ce4bhm12rcd13ifvqgkg","pricing_plan_id":"cebpf4jnsgd1na2vs0mg"},{"bike_id":"fa134cb6-b345-4226-8e0d-33916763269e","system_id":"levelo_inurba_marseille","lat":43.3229,"lon":5.38278,"is_reserved":false,"is_disabled":false,"rental_uris":{"android":"levelo://app?vid=fa134cb6-b345-4226-8e0d-33916763269e","ios":"levelo://app?vid=fa134cb6-b345-4226-8e0d-33916763269e"},"vehicle_type_id":"4","last_reported":1746238939,"current_range_meters":3600,"station_id":"ce4bhr12rcd13ifvqhqg","pricing_plan_id":"cebpf4jnsgd1na2vs0mg"},{"bike_id":"f0773e55-3c03-408c-b52d-9fefc787e6d2","system_id":"levelo_inurba_marseille","lat":43.291608,"lon":5.386027,"is_reserved":false,"is_disabled":false,"rental_uris":{"android":"levelo://app?vid=f0773e55-3c03-408c-b52d-9fefc787e6d2","ios":"levelo://app?vid=f0773e55-3c03-408c-b52d-9fefc787e6d2"},"vehicle_type_id":"4","last_reported":1746238939,"current_range_meters":4000,"station_id":"","pricing_plan_id":"cebpf4jnsgd1na2vs0mg"},{"bike_id":"885d5381-9902-418c-bec9-d084ccc99c30","system_id":"levelo_inurba_marseille","lat":43.24173,"lon":5.39739,"is_reserved":false,"is_disabled":false,"rental_uris":{"android":"levelo://app?vid=885d5381-9902-418c-bec9-d084ccc99c30","ios":"levelo://app?vid=885d5381-9902-418c-bec9-d084ccc99c30"},"vehicle_type_id":"4","last_reported":1746238939,"current_range_meters":4000,"station_id":"ce4bhn12rcd13ifvqgpg","pricing_plan_id":"cebpf4jnsgd1na2vs0mg"},{"bike_id":"fc109967-526e-464b-ab42-6068e7d67950","system_id":"levelo_inurba_marseille","lat":43.292741,"lon":5.401114,"is_reserved":false,"is_disabled":false,"rental_uris":{"android":"levelo://app?vid=fc109967-526e-464b-ab42-6068e7d67950","ios":"levelo://app?vid=fc109967-526e-464b-ab42-6068e7d67950"},"vehicle_type_id":"4","last_reported":1746238939,"current_range_meters":4400,"station_id":"ce4bh312rcd13ifvqdk0","pricing_plan_id":"cebpf4jnsgd1na2vs0mg"},{"bike_id":"7d5b0478-8afb-4bbe-9549-55d6044e7a97","system_id":"levelo_inurba_marseille","lat":43.2811,"lon":5.37835,"is_reserved":false,"is_disabled":false,"rental_uris":{"android":"levelo://app?vid=7d5b0478-8afb-4bbe-9549-55d6044e7a97","ios":"levelo://app?vid=7d5b0478-8afb-4bbe-9549-55d6044e7a97"},"vehicle_type_id":"4","last_reported":1746238939,"current_range_meters":4800,"station_id":"ce4bha12rcd13ifvqee0","pricing_plan_id":"cebpf4jnsgd1na2vs0mg"},{"bike_id":"41bb2761-8828-48a1-b3fe-095b50781a70","system_id":"levelo_inurba_marseille","lat":43.30349,"lon":5.41885,"is_reserved":false,"is_disabled":false,"rental_uris":{"android":"levelo://app?vid=41bb2761-8828-48a1-b3fe-095b50781a70","ios":"levelo://app?vid=41bb2761-8828-48a1-b3fe-095b50781a70"},"vehicle_type_id":"4","last_reported":1746238939,"current_range_meters":4800,"station_id":"ce4bhop2rcd13ifvqh7g","pricing_plan_id":"cebpf4jnsgd1na2vs0mg"},{"bike_id":"56c2a0ae-09a7-4f7b-b71e-617f925a787c","system_id":"levelo_inurba_marseille","lat":43.25172,"lon":5.40334,"is_reserved":false,"is_disabled":false,"rental_uris":{"android":"levelo://app?vid=56c2a0ae-09a7-4f7b-b71e-617f925a787c","ios":"levelo://app?vid=56c2a0ae-09a7-4f7b-b71e-617f925a787c"},"vehicle_type_id":"4","last_reported":1746238939,"current_range_meters":5600,"station_id":"ce4bhlh2rcd13ifvqgig","pricing_plan_id":"cebpf4jnsgd1na2vs0mg"},{"bike_id":"b83fde30-817f-4ac4-9298-d090a6421e2d","system_id":"levelo_inurba_marseille","lat":43.2816,"lon":5.42644,"is_reserved":false,"is_disabled":false,"rental_uris":{"android":"levelo://app?vid=b83fde30-817f-4ac4-9298-d090a6421e2d","ios":"levelo://app?vid=b83fde30-817f-4ac4-9298-d090a6421e2d"},"vehicle_type_id":"4","last_reported":1746238939,"current_range_meters":6000,"station_id":"ce4bhnh2rcd13ifvqgug","pricing_plan_id":"cebpf4jnsgd1na2vs0mg"},{"bike_id":"2be6c5ac-db75-4c9d-95c6-9c66882f14b8","system_id":"levelo_inurba_marseille","lat":43.278957,"lon":5.36309,"is_reserved":false,"is_disabled":false,"rental_uris":{"android":"levelo://app?vid=2be6c5ac-db75-4c9d-95c6-9c66882f14b8","ios":"levelo://app?vid=2be6c5ac-db75-4c9d-95c6-9c66882f14b8"},"vehicle_type_id":"4","last_reported":1746238939,"current_range_meters":6400,"station_id":"","pricing_plan_id":"cebpf4jnsgd1na2vs0mg"},{"bike_id":"f73daf93-45c7-48c0-a61a-2d28ac89db8d","system_id":"levelo_inurba_marseille","lat":43.33944,"lon":5.42028,"is_reserved":false,"is_disabled":false,"rental_uris":{"android":"levelo://app?vid=f73daf93-45c7-48c0-a61a-2d28ac89db8d","ios":"levelo://app?vid=f73daf93-45c7-48c0-a61a-2d28ac89db8d"},"vehicle_type_id":"4","last_reported":1746238939,"current_range_meters":6400,"station_id":"","pricing_plan_id":"cebpf4jnsgd1na2vs0mg"},{"bike_id":"6cfabc10-3bc2-4c76-8c71-8322ec2fb58c","system_id":"levelo_inurba_marseille","lat":43.3094,"lon":5.40144,"is_reserved":false,"is_disabled":false,"rental_uris":{"android":"levelo://app?vid=6cfabc10-3bc2-4c76-8c71-8322ec2fb58c","ios":"levelo://app?vid=6cfabc10-3bc2-4c76-8c71-8322ec2fb58c"},"vehicle_type_id":"4","last_reported":1746238939,"current_range_meters":6400,"station_id":"ce4bgvp2rcd13ifvqct0","pricing_plan_id":"cebpf4jnsgd1na2vs0mg"},{"bike_id":"221d1909-7de9-44ec-9fde-224fe0a7b083","system_id":"levelo_inurba_marseille","lat":43.28024,"lon":5.36963,"is_reserved":false,"is_disabled":false,"rental_uris":{"android":"levelo://app?vid=221d1909-7de9-44ec-9fde-224fe0a7b083","ios":"levelo://app?vid=221d1909-7de9-44ec-9fde-224fe0a7b083"},"vehicle_type_id":"4","last_reported":1746238939,"current_range_meters":6400,"station_id":"ce4bha12rcd13ifvqef0","pricing_plan_id":"cebpf4jnsgd1na2vs0mg"},{"bike_id":"d99ea345-8cfb-49ba-882a-5e78c2103060","system_id":"levelo_inurba_marseille","lat":43.28936,"lon":5.36637,"is_reserved":false,"is_disabled":false,"rental_uris":{"android":"levelo://app?vid=d99ea345-8cfb-49ba-882a-5e78c2103060","ios":"levelo://app?vid=d99ea345-8cfb-49ba-882a-5e78c2103060"},"vehicle_type_id":"4","last_reported":1746238939,"current_range_meters":6400,"station_id":"ce4bhap2rcd13ifvqek0","pricing_plan_id":"cebpf4jnsgd1na2vs0mg"},{"bike_id":"ee49d34d-334f-42a3-9509-f7be509b03ba","system_id":"levelo_inurba_marseille","lat":43.24068,"lon":5.37756,"is_reserved":false,"is_disabled":false,"rental_uris":{"android":"levelo://app?vid=ee49d34d-334f-42a3-9509-f7be509b03ba","ios":"levelo://app?vid=ee49d34d-334f-42a3-9509-f7be509b03ba"},"vehicle_type_id":"4","last_reported":1746238939,"current_range_meters":6400,"station_id":"ce4bhnp2rcd13ifvqgvg","pricing_plan_id":"cebpf4jnsgd1na2vs0mg"},{"bike_id":"0d6c5100-7db5-44d0-b9d6-cf2b96014798","system_id":"levelo_inurba_marseille","lat":43.31021,"lon":5.37484,"is_reserved":false,"is_disabled":false,"rental_uris":{"android":"levelo://app?vid=0d6c5100-7db5-44d0-b9d6-cf2b96014798","ios":"levelo://app?vid=0d6c5100-7db5-44d0-b9d6-cf2b96014798"},"vehicle_type_id":"4","last_reported":1746238939,"current_range_meters":6800,"station_id":"","pricing_plan_id":"cebpf4jnsgd1na2vs0mg"},{"bike_id":"ba1291bf-568d-477b-8e17-c284858000b8","system_id":"levelo_inurba_marseille","lat":43.33775,"lon":5.37491,"is_reserved":false,"is_disabled":false,"rental_uris":{"android":"levelo://app?vid=ba1291bf-568d-477b-8e17-c284858000b8","ios":"levelo://app?vid=ba1291bf-568d-477b-8e17-c284858000b8"},"vehicle_type_id":"4","last_reported":1746238939,"current_range_meters":6800,"station_id":"","pricing_plan_id":"cebpf4jnsgd1na2vs0mg"},{"bike_id":"7971fe93-5f1d-4a59-8508-b415e64fcb18","system_id":"levelo_inurba_marseille","lat":43.30964,"lon":5.37385,"is_reserved":false,"is_disabled":false,"rental_uris":{"android":"levelo://app?vid=7971fe93-5f1d-4a59-8508-b415e64fcb18","ios":"levelo://app?vid=7971fe93-5f1d-4a59-8508-b415e64fcb18"},"vehicle_type_id":"4","last_reported":1746238939,"current_range_meters":6800,"station_id":"","pricing_plan_id":"cebpf4jnsgd1na2vs0mg"},{"bike_id":"cbca9e67-f74a-49e5-89e0-175f24c44894","system_id":"levelo_inurba_marseille","lat":43.30139,"lon":5.38775,"is_reserved":false,"is_disabled":false,"rental_uris":{"android":"levelo://app?vid=cbca9e67-f74a-49e5-89e0-175f24c44894","ios":"levelo://app?vid=cbca9e67-f74a-49e5-89e0-175f24c44894"},"vehicle_type_id":"4","last_reported":1746238939,"current_range_meters":6800,"station_id":"ce4bghh2rcd13ifvqb60","pricing_plan_id":"cebpf4jnsgd1na2vs0mg"},{"bike_id":"d15b3352-dae1-4f12-a9ce-16648fbe6bd0","system_id":"levelo_inurba_marseille","lat":43.33583,"lon":5.41026,"is_reserved":false,"is_disabled":false,"rental_uris":{"android":"levelo://app?vid=d15b3352-dae1-4f12-a9ce-16648fbe6bd0","ios":"levelo://app?vid=d15b3352-dae1-4f12-a9ce-16648fbe6bd0"},"vehicle_type_id":"4","last_reported":1746238939,"current_range_meters":6800,"station_id":"ce4bhqh2rcd13ifvqhmg","pricing_plan_id":"cebpf4jnsgd1na2vs0mg"},{"bike_id":"73219f34-f88f-43ad-b335-3964e38f3ca8","system_id":"levelo_inurba_marseille","lat":43.311724,"lon":5.387223,"is_reserved":false,"is_disabled":false,"rental_uris":{"android":"levelo://app?vid=73219f34-f88f-43ad-b335-3964e38f3ca8","ios":"levelo://app?vid=73219f34-f88f-43ad-b335-3964e38f3ca8"},"vehicle_type_id":"4","last_reported":1746238939,"current_range_meters":7200,"station_id":"ce4bgv12rcd13ifvqcp0","pricing_plan_id":"cebpf4jnsgd1na2vs0mg"},{"bike_id":"f58ab010-fda0-4638-9a03-36c041df6640","system_id":"levelo_inurba_marseille","lat":43.31272,"lon":5.40178,"is_reserved":false,"is_disabled":false,"rental_uris":{"android":"levelo://app?vid=f58ab010-fda0-4638-9a03-36c041df6640","ios":"levelo://app?vid=f58ab010-fda0-4638-9a03-36c041df6640"},"vehicle_type_id":"4","last_reported":1746238939,"current_range_meters":7200,"station_id":"ce4bh092rcd13ifvqd30","pricing_plan_id":"cebpf4jnsgd1na2vs0mg"},{"bike_id":"3f4c587d-47af-49a5-b812-629cea65764c","system_id":"levelo_inurba_marseille","lat":43.30412,"lon":5.41282,"is_reserved":false,"is_disabled":false,"rental_uris":{"android":"levelo://app?vid=3f4c587d-47af-49a5-b812-629cea65764c","ios":"levelo://app?vid=3f4c587d-47af-49a5-b812-629cea65764c"},"vehicle_type_id":"4","last_reported":1746238939,"current_range_meters":7200,"station_id":"ce4bhop2rcd13ifvqh8g","pricing_plan_id":"cebpf4jnsgd1na2vs0mg"},{"bike_id":"0174a141-e111-49c0-b280-bdc0e65bf254","system_id":"levelo_inurba_marseille","lat":43.32989,"lon":5.39031,"is_reserved":false,"is_disabled":false,"rental_uris":{"android":"levelo://app?vid=0174a141-e111-49c0-b280-bdc0e65bf254","ios":"levelo://app?vid=0174a141-e111-49c0-b280-bdc0e65bf254"},"vehicle_type_id":"4","last_reported":1746238939,"current_range_meters":7200,"station_id":"ce4bhr92rcd13ifvqhrg","pricing_plan_id":"cebpf4jnsgd1na2vs0mg"},{"bike_id":"6ba917b4-55ac-4db5-b03f-423dd22a3f42","system_id":"levelo_inurba_marseille","lat":43.298,"lon":5.40404,"is_reserved":false,"is_disabled":false,"rental_uris":{"android":"levelo://app?vid=6ba917b4-55ac-4db5-b03f-423dd22a3f42","ios":"levelo://app?vid=6ba917b4-55ac-4db5-b03f-423dd22a3f42"},"vehicle_type_id":"4","last_reported":1746238939,"current_range_meters":8000,"station_id":"ce4bh112rcd13ifvqd90","pricing_plan_id":"cebpf4jnsgd1na2vs0mg"},{"bike_id":"078de466-9cf8-4f1f-bb9b-8307330abfd1","system_id":"levelo_inurba_marseille","lat":43.29289,"lon":5.40179,"is_reserved":false,"is_disabled":false,"rental_uris":{"android":"levelo://app?vid=078de466-9cf8-4f1f-bb9b-8307330abfd1","ios":"levelo://app?vid=078de466-9cf8-4f1f-bb9b-8307330abfd1"},"vehicle_type_id":"4","last_reported":1746238939,"current_range_meters":8000,"station_id":"ce4bh312rcd13ifvqdk0","pricing_plan_id":"cebpf4jnsgd1na2vs0mg"},{"bike_id":"29a83445-0753-40f4-8ed7-c02207f310e3","system_id":"levelo_inurba_marseille","lat":43.283246,"lon":5.385109,"is_reserved":false,"is_disabled":false,"rental_uris":{"android":"levelo://app?vid=29a83445-0753-40f4-8ed7-c02207f310e3","ios":"levelo://app?vid=29a83445-0753-40f4-8ed7-c02207f310e3"},"vehicle_type_id":"4","last_reported":1746238939,"current_range_meters":8400,"station_id":"","pricing_plan_id":"cebpf4jnsgd1na2vs0mg"},{"bike_id":"8ab96c8b-eb43-4dbc-803d-75eeb7ace558","system_id":"levelo_inurba_marseille","lat":43.30247,"lon":5.40058,"is_reserved":false,"is_disabled":false,"rental_uris":{"android":"levelo://app?vid=8ab96c8b-eb43-4dbc-803d-75eeb7ace558","ios":"levelo://app?vid=8ab96c8b-eb43-4dbc-803d-75eeb7ace558"},"vehicle_type_id":"4","last_reported":1746238939,"current_range_meters":8400,"station_id":"ce4bgvh2rcd13ifvqcs0","pricing_plan_id":"cebpf4jnsgd1na2vs0mg"},{"bike_id":"fafaa201-3c20-4a42-a117-d01a8ab08ed6","system_id":"levelo_inurba_marseille","lat":43.30251,"lon":5.40068,"is_reserved":false,"is_disabled":false,"rental_uris":{"android":"levelo://app?vid=fafaa201-3c20-4a42-a117-d01a8ab08ed6","ios":"levelo://app?vid=fafaa201-3c20-4a42-a117-d01a8ab08ed6"},"vehicle_type_id":"4","last_reported":1746238939,"current_range_meters":8400,"station_id":"ce4bgvh2rcd13ifvqcs0","pricing_plan_id":"cebpf4jnsgd1na2vs0mg"},{"bike_id":"ad7b9ae4-9983-42fc-8cdc-30d005232021","system_id":"levelo_inurba_marseille","lat":43.24659,"lon":5.38158,"is_reserved":false,"is_disabled":false,"rental_uris":{"android":"levelo://app?vid=ad7b9ae4-9983-42fc-8cdc-30d005232021","ios":"levelo://app?vid=ad7b9ae4-9983-42fc-8cdc-30d005232021"},"vehicle_type_id":"4","last_reported":1746238939,"current_range_meters":8400,"station_id":"ce4bhih2rcd13ifvqfr0","pricing_plan_id":"cebpf4jnsgd1na2vs0mg"},{"bike_id":"7f2b25f6-014d-4712-b80f-ffce5f418b5b","system_id":"levelo_inurba_marseille","lat":43.27493,"lon":5.4245,"is_reserved":false,"is_disabled":false,"rental_uris":{"android":"levelo://app?vid=7f2b25f6-014d-4712-b80f-ffce5f418b5b","ios":"levelo://app?vid=7f2b25f6-014d-4712-b80f-ffce5f418b5b"},"vehicle_type_id":"4","last_reported":1746238939,"current_range_meters":8400,"station_id":"ce4bhn92rcd13ifvqgrg","pricing_plan_id":"cebpf4jnsgd1na2vs0mg"},{"bike_id":"54760b0b-132f-429d-94cf-76f36461e8a9","system_id":"levelo_inurba_marseille","lat":43.30139,"lon":5.38775,"is_reserved":false,"is_disabled":false,"rental_uris":{"android":"levelo://app?vid=54760b0b-132f-429d-94cf-76f36461e8a9","ios":"levelo://app?vid=54760b0b-132f-429d-94cf-76f36461e8a9"},"vehicle_type_id":"4","last_reported":1746238939,"current_range_meters":8800,"station_id":"ce4bghh2rcd13ifvqb60","pricing_plan_id":"cebpf4jnsgd1na2vs0mg"},{"bike_id":"6c8f2ed0-8cbc-4ec6-a7e3-532618592f45","system_id":"levelo_inurba_marseille","lat":43.23963,"lon":5.36624,"is_reserved":false,"is_disabled":false,"rental_uris":{"android":"levelo://app?vid=6c8f2ed0-8cbc-4ec6-a7e3-532618592f45","ios":"levelo://app?vid=6c8f2ed0-8cbc-4ec6-a7e3-532618592f45"},"vehicle_type_id":"4","last_reported":1746238939,"current_range_meters":8800,"station_id":"ce4bhi12rcd13ifvqfp0","pricing_plan_id":"cebpf4jnsgd1na2vs0mg"},{"bike_id":"271d1032-0e9c-4509-ac1f-b2a948175d86","system_id":"levelo_inurba_marseille","lat":43.28147,"lon":5.42645,"is_reserved":false,"is_disabled":false,"rental_uris":{"android":"levelo://app?vid=271d1032-0e9c-4509-ac1f-b2a948175d86","ios":"levelo://app?vid=271d1032-0e9c-4509-ac1f-b2a948175d86"},"vehicle_type_id":"4","last_reported":1746238939,"current_range_meters":8800,"station_id":"ce4bhnh2rcd13ifvqgug","pricing_plan_id":"cebpf4jnsgd1na2vs0mg"},{"bike_id":"9f5d1477-1a0b-4ab7-bf49-958ce5caccd6","system_id":"levelo_inurba_marseille","lat":43.2957,"lon":5.4228,"is_reserved":false,"is_disabled":false,"rental_uris":{"android":"levelo://app?vid=9f5d1477-1a0b-4ab7-bf49-958ce5caccd6","ios":"levelo://app?vid=9f5d1477-1a0b-4ab7-bf49-958ce5caccd6"},"vehicle_type_id":"4","last_reported":1746238939,"current_range_meters":8800,"station_id":"ce4bhph2rcd13ifvqhdg","pricing_plan_id":"cebpf4jnsgd1na2vs0mg"},{"bike_id":"52653438-d935-4f61-a0a5-dc59b768eafc","system_id":"levelo_inurba_marseille","lat":43.32356,"lon":5.36765,"is_reserved":false,"is_disabled":false,"rental_uris":{"android":"levelo://app?vid=52653438-d935-4f61-a0a5-dc59b768eafc","ios":"levelo://app?vid=52653438-d935-4f61-a0a5-dc59b768eafc"},"vehicle_type_id":"4","last_reported":1746238939,"current_range_meters":8800,"station_id":"ce4bhsh2rcd13ifvqi2g","pricing_plan_id":"cebpf4jnsgd1na2vs0mg"},{"bike_id":"90bc8e4b-bc31-4a0c-be0e-6b642d81fc0d","system_id":"levelo_inurba_marseille","lat":43.30154,"lon":5.38787,"is_reserved":false,"is_disabled":false,"rental_uris":{"android":"levelo://app?vid=90bc8e4b-bc31-4a0c-be0e-6b642d81fc0d","ios":"levelo://app?vid=90bc8e4b-bc31-4a0c-be0e-6b642d81fc0d"},"vehicle_type_id":"4","last_reported":1746238939,"current_range_meters":9200,"station_id":"ce4bghh2rcd13ifvqb60","pricing_plan_id":"cebpf4jnsgd1na2vs0mg"},{"bike_id":"70b05b75-420e-4e34-8e9b-69eab3a4eab2","system_id":"levelo_inurba_marseille","lat":43.30646,"lon":5.40072,"is_reserved":false,"is_disabled":false,"rental_uris":{"android":"levelo://app?vid=70b05b75-420e-4e34-8e9b-69eab3a4eab2","ios":"levelo://app?vid=70b05b75-420e-4e34-8e9b-69eab3a4eab2"},"vehicle_type_id":"4","last_reported":1746238939,"current_range_meters":9200,"station_id":"ce4bh112rcd13ifvqda0","pricing_plan_id":"cebpf4jnsgd1na2vs0mg"},{"bike_id":"1bac20cf-d8ec-42b0-b306-748bd95fc366","system_id":"levelo_inurba_marseille","lat":43.27502,"lon":5.42449,"is_reserved":false,"is_disabled":false,"rental_uris":{"android":"levelo://app?vid=1bac20cf-d8ec-42b0-b306-748bd95fc366","ios":"levelo://app?vid=1bac20cf-d8ec-42b0-b306-748bd95fc366"},"vehicle_type_id":"4","last_reported":1746238939,"current_range_meters":9200,"station_id":"ce4bhn92rcd13ifvqgrg","pricing_plan_id":"cebpf4jnsgd1na2vs0mg"},{"bike_id":"5a3e71be-16dc-472c-a836-0a1eb6c38cde","system_id":"levelo_inurba_marseille","lat":43.31726,"lon":5.42402,"is_reserved":false,"is_disabled":false,"rental_uris":{"android":"levelo://app?vid=5a3e71be-16dc-472c-a836-0a1eb6c38cde","ios":"levelo://app?vid=5a3e71be-16dc-472c-a836-0a1eb6c38cde"},"vehicle_type_id":"4","last_reported":1746238939,"current_range_meters":9200,"station_id":"ce4bhp92rcd13ifvqhbg","pricing_plan_id":"cebpf4jnsgd1na2vs0mg"},{"bike_id":"3370706f-3c60-4448-9fa7-c3c667e2e849","system_id":"levelo_inurba_marseille","lat":43.235293,"lon":5.403298,"is_reserved":false,"is_disabled":false,"rental_uris":{"android":"levelo://app?vid=3370706f-3c60-4448-9fa7-c3c667e2e849","ios":"levelo://app?vid=3370706f-3c60-4448-9fa7-c3c667e2e849"},"vehicle_type_id":"4","last_reported":1746238939,"current_range_meters":9600,"station_id":"","pricing_plan_id":"cebpf4jnsgd1na2vs0mg"},{"bike_id":"09dfc346-5aea-4bca-9025-b02fadb0494f","system_id":"levelo_inurba_marseille","lat":43.29003,"lon":5.35611,"is_reserved":false,"is_disabled":false,"rental_uris":{"android":"levelo://app?vid=09dfc346-5aea-4bca-9025-b02fadb0494f","ios":"levelo://app?vid=09dfc346-5aea-4bca-9025-b02fadb0494f"},"vehicle_type_id":"4","last_reported":1746238939,"current_range_meters":9600,"station_id":"ce4bhb92rcd13ifvqen0","pricing_plan_id":"cebpf4jnsgd1na2vs0mg"},{"bike_id":"f93d853b-ca78-4f88-b96f-c9c1053489aa","system_id":"levelo_inurba_marseille","lat":43.240707,"lon":5.377644,"is_reserved":false,"is_disabled":false,"rental_uris":{"android":"levelo://app?vid=f93d853b-ca78-4f88-b96f-c9c1053489aa","ios":"levelo://app?vid=f93d853b-ca78-4f88-b96f-c9c1053489aa"},"vehicle_type_id":"4","last_reported":1746238939,"current_range_meters":9600,"station_id":"ce4bhnp2rcd13ifvqgvg","pricing_plan_id":"cebpf4jnsgd1na2vs0mg"},{"bike_id":"6d74a9f5-3f03-4e8e-aa3b-29a84082925f","system_id":"levelo_inurba_marseille","lat":43.22929,"lon":5.35373,"is_reserved":false,"is_disabled":false,"rental_uris":{"android":"levelo://app?vid=6d74a9f5-3f03-4e8e-aa3b-29a84082925f","ios":"levelo://app?vid=6d74a9f5-3f03-4e8e-aa3b-29a84082925f"},"vehicle_type_id":"4","last_reported":1746238939,"current_range_meters":9600,"station_id":"cpo3532slgdg3j2ikp40","pricing_plan_id":"cebpf4jnsgd1na2vs0mg"},{"bike_id":"ad7ca592-f236-4a6d-9431-e31ab8d26c7e","system_id":"levelo_inurba_marseille","lat":43.323621,"lon":5.367608,"is_reserved":false,"is_disabled":false,"rental_uris":{"android":"levelo://app?vid=ad7ca592-f236-4a6d-9431-e31ab8d26c7e","ios":"levelo://app?vid=ad7ca592-f236-4a6d-9431-e31ab8d26c7e"},"vehicle_type_id":"4","last_reported":1746238939,"current_range_meters":10000,"station_id":"ce4bhsh2rcd13ifvqi2g","pricing_plan_id":"cebpf4jnsgd1na2vs0mg"},{"bike_id":"f48f6a8a-46ce-4c79-8fb0-19652a738d42","system_id":"levelo_inurba_marseille","lat":43.36156,"lon":5.44205,"is_reserved":false,"is_disabled":false,"rental_uris":{"android":"levelo://app?vid=f48f6a8a-46ce-4c79-8fb0-19652a738d42","ios":"levelo://app?vid=f48f6a8a-46ce-4c79-8fb0-19652a738d42"},"vehicle_type_id":"4","last_reported":1746238939,"current_range_meters":10800,"station_id":"","pricing_plan_id":"cebpf4jnsgd1na2vs0mg"},{"bike_id":"e0e163c0-b70c-478b-a240-966060226969","system_id":"levelo_inurba_marseille","lat":43.292438,"lon":5.361913,"is_reserved":false,"is_disabled":false,"rental_uris":{"android":"levelo://app?vid=e0e163c0-b70c-478b-a240-966060226969","ios":"levelo://app?vid=e0e163c0-b70c-478b-a240-966060226969"},"vehicle_type_id":"4","last_reported":1746238939,"current_range_meters":10800,"station_id":"","pricing_plan_id":"cebpf4jnsgd1na2vs0mg"},{"bike_id":"225d0730-bffb-40b8-9e8c-a58dad4a0e4b","system_id":"levelo_inurba_marseille","lat":43.30535,"lon":5.38435,"is_reserved":false,"is_disabled":false,"rental_uris":{"android":"levelo://app?vid=225d0730-bffb-40b8-9e8c-a58dad4a0e4b","ios":"levelo://app?vid=225d0730-bffb-40b8-9e8c-a58dad4a0e4b"},"vehicle_type_id":"4","last_reported":1746238939,"current_range_meters":10800,"station_id":"ce4bgg92rcd13ifvqb30","pricing_plan_id":"cebpf4jnsgd1na2vs0mg"},{"bike_id":"b84901a5-3ddc-4c9b-bfd3-3416195d688f","system_id":"levelo_inurba_marseille","lat":43.302594,"lon":5.400731,"is_reserved":false,"is_disabled":false,"rental_uris":{"android":"levelo://app?vid=b84901a5-3ddc-4c9b-bfd3-3416195d688f","ios":"levelo://app?vid=b84901a5-3ddc-4c9b-bfd3-3416195d688f"},"vehicle_type_id":"4","last_reported":1746238939,"current_range_meters":10800,"station_id":"ce4bgvh2rcd13ifvqcs0","pricing_plan_id":"cebpf4jnsgd1na2vs0mg"},{"bike_id":"313f19ff-8c45-4a02-b367-c6a7c2d5e214","system_id":"levelo_inurba_marseille","lat":43.27503,"lon":5.42462,"is_reserved":false,"is_disabled":false,"rental_uris":{"android":"levelo://app?vid=313f19ff-8c45-4a02-b367-c6a7c2d5e214","ios":"levelo://app?vid=313f19ff-8c45-4a02-b367-c6a7c2d5e214"},"vehicle_type_id":"4","last_reported":1746238939,"current_range_meters":10800,"station_id":"ce4bhn92rcd13ifvqgrg","pricing_plan_id":"cebpf4jnsgd1na2vs0mg"},{"bike_id":"5636aa3d-90e5-46b8-889b-ca722454f93e","system_id":"levelo_inurba_marseille","lat":43.24064,"lon":5.37767,"is_reserved":false,"is_disabled":false,"rental_uris":{"android":"levelo://app?vid=5636aa3d-90e5-46b8-889b-ca722454f93e","ios":"levelo://app?vid=5636aa3d-90e5-46b8-889b-ca722454f93e"},"vehicle_type_id":"4","last_reported":1746238939,"current_range_meters":10800,"station_id":"ce4bhnp2rcd13ifvqgvg","pricing_plan_id":"cebpf4jnsgd1na2vs0mg"},{"bike_id":"2cce8745-f47d-491d-9776-93cf9f036027","system_id":"levelo_inurba_marseille","lat":43.308116,"lon":5.435266,"is_reserved":false,"is_disabled":false,"rental_uris":{"android":"levelo://app?vid=2cce8745-f47d-491d-9776-93cf9f036027","ios":"levelo://app?vid=2cce8745-f47d-491d-9776-93cf9f036027"},"vehicle_type_id":"4","last_reported":1746238939,"current_range_meters":10800,"station_id":"ce4bhph2rcd13ifvqheg","pricing_plan_id":"cebpf4jnsgd1na2vs0mg"},{"bike_id":"570b486c-50df-4f1f-97df-caa86c0d419e","system_id":"levelo_inurba_marseille","lat":43.33725,"lon":5.35589,"is_reserved":false,"is_disabled":false,"rental_uris":{"android":"levelo://app?vid=570b486c-50df-4f1f-97df-caa86c0d419e","ios":"levelo://app?vid=570b486c-50df-4f1f-97df-caa86c0d419e"},"vehicle_type_id":"4","last_reported":1746238939,"current_range_meters":11200,"station_id":"","pricing_plan_id":"cebpf4jnsgd1na2vs0mg"},{"bike_id":"b012dda0-636e-4d9d-bb11-2107f4b207ea","system_id":"levelo_inurba_marseille","lat":43.26222,"lon":5.40441,"is_reserved":false,"is_disabled":false,"rental_uris":{"android":"levelo://app?vid=b012dda0-636e-4d9d-bb11-2107f4b207ea","ios":"levelo://app?vid=b012dda0-636e-4d9d-bb11-2107f4b207ea"},"vehicle_type_id":"4","last_reported":1746238939,"current_range_meters":11200,"station_id":"ce4bhmh2rcd13ifvqgmg","pricing_plan_id":"cebpf4jnsgd1na2vs0mg"},{"bike_id":"6bcfafe9-e0dc-4830-a2ef-8fbcb15314a2","system_id":"levelo_inurba_marseille","lat":43.29561,"lon":5.42287,"is_reserved":false,"is_disabled":false,"rental_uris":{"android":"levelo://app?vid=6bcfafe9-e0dc-4830-a2ef-8fbcb15314a2","ios":"levelo://app?vid=6bcfafe9-e0dc-4830-a2ef-8fbcb15314a2"},"vehicle_type_id":"4","last_reported":1746238939,"current_range_meters":11200,"station_id":"ce4bhph2rcd13ifvqhdg","pricing_plan_id":"cebpf4jnsgd1na2vs0mg"},{"bike_id":"f28a6a99-f960-44e5-8dd2-042ad6e229e6","system_id":"levelo_inurba_marseille","lat":43.27788,"lon":5.42772,"is_reserved":false,"is_disabled":false,"rental_uris":{"android":"levelo://app?vid=f28a6a99-f960-44e5-8dd2-042ad6e229e6","ios":"levelo://app?vid=f28a6a99-f960-44e5-8dd2-042ad6e229e6"},"vehicle_type_id":"4","last_reported":1746238939,"current_range_meters":11600,"station_id":"","pricing_plan_id":"cebpf4jnsgd1na2vs0mg"},{"bike_id":"b860950e-8dd9-43ac-ab45-42b462c5ee31","system_id":"levelo_inurba_marseille","lat":43.24692,"lon":5.38186,"is_reserved":false,"is_disabled":false,"rental_uris":{"android":"levelo://app?vid=b860950e-8dd9-43ac-ab45-42b462c5ee31","ios":"levelo://app?vid=b860950e-8dd9-43ac-ab45-42b462c5ee31"},"vehicle_type_id":"4","last_reported":1746238939,"current_range_meters":11600,"station_id":"ce4bhih2rcd13ifvqfr0","pricing_plan_id":"cebpf4jnsgd1na2vs0mg"},{"bike_id":"b76dcb30-fc31-4364-8bc2-26d7e0574d25","system_id":"levelo_inurba_marseille","lat":43.317253,"lon":5.423863,"is_reserved":false,"is_disabled":false,"rental_uris":{"android":"levelo://app?vid=b76dcb30-fc31-4364-8bc2-26d7e0574d25","ios":"levelo://app?vid=b76dcb30-fc31-4364-8bc2-26d7e0574d25"},"vehicle_type_id":"4","last_reported":1746238939,"current_range_meters":11600,"station_id":"ce4bhp92rcd13ifvqhbg","pricing_plan_id":"cebpf4jnsgd1na2vs0mg"},{"bike_id":"abf99a60-61a4-47e3-b419-e638d37ac354","system_id":"levelo_inurba_marseille","lat":43.30811,"lon":5.43522,"is_reserved":false,"is_disabled":false,"rental_uris":{"android":"levelo://app?vid=abf99a60-61a4-47e3-b419-e638d37ac354","ios":"levelo://app?vid=abf99a60-61a4-47e3-b419-e638d37ac354"},"vehicle_type_id":"4","last_reported":1746238939,"current_range_meters":11600,"station_id":"ce4bhph2rcd13ifvqheg","pricing_plan_id":"cebpf4jnsgd1na2vs0mg"},{"bike_id":"dfb3396e-96f5-457c-af11-f6f27dad33e9","system_id":"levelo_inurba_marseille","lat":43.27203,"lon":5.36468,"is_reserved":false,"is_disabled":false,"rental_uris":{"android":"levelo://app?vid=dfb3396e-96f5-457c-af11-f6f27dad33e9","ios":"levelo://app?vid=dfb3396e-96f5-457c-af11-f6f27dad33e9"},"vehicle_type_id":"4","last_reported":1746238939,"current_range_meters":12000,"station_id":"","pricing_plan_id":"cebpf4jnsgd1na2vs0mg"},{"bike_id":"2c9391fc-1f3c-4f21-902a-d06184a65186","system_id":"levelo_inurba_marseille","lat":43.30921,"lon":5.40156,"is_reserved":false,"is_disabled":false,"rental_uris":{"android":"levelo://app?vid=2c9391fc-1f3c-4f21-902a-d06184a65186","ios":"levelo://app?vid=2c9391fc-1f3c-4f21-902a-d06184a65186"},"vehicle_type_id":"4","last_reported":1746238939,"current_range_meters":12000,"station_id":"ce4bgvp2rcd13ifvqct0","pricing_plan_id":"cebpf4jnsgd1na2vs0mg"},{"bike_id":"b7b819c6-ae62-4e8a-a410-3625e179a9e7","system_id":"levelo_inurba_marseille","lat":43.29038,"lon":5.39924,"is_reserved":false,"is_disabled":false,"rental_uris":{"android":"levelo://app?vid=b7b819c6-ae62-4e8a-a410-3625e179a9e7","ios":"levelo://app?vid=b7b819c6-ae62-4e8a-a410-3625e179a9e7"},"vehicle_type_id":"4","last_reported":1746238939,"current_range_meters":12000,"station_id":"ce4bh392rcd13ifvqdm0","pricing_plan_id":"cebpf4jnsgd1na2vs0mg"},{"bike_id":"90fe6b2c-98b3-4084-9346-072b9cd32382","system_id":"levelo_inurba_marseille","lat":43.29251,"lon":5.40911,"is_reserved":false,"is_disabled":false,"rental_uris":{"android":"levelo://app?vid=90fe6b2c-98b3-4084-9346-072b9cd32382","ios":"levelo://app?vid=90fe6b2c-98b3-4084-9346-072b9cd32382"},"vehicle_type_id":"4","last_reported":1746238939,"current_range_meters":12400,"station_id":"ce4bh192rcd13ifvqdc0","pricing_plan_id":"cebpf4jnsgd1na2vs0mg"},{"bike_id":"2fc7066a-3168-4b00-a4fc-ece640118f70","system_id":"levelo_inurba_marseille","lat":43.28401,"lon":5.37516,"is_reserved":false,"is_disabled":false,"rental_uris":{"android":"levelo://app?vid=2fc7066a-3168-4b00-a4fc-ece640118f70","ios":"levelo://app?vid=2fc7066a-3168-4b00-a4fc-ece640118f70"},"vehicle_type_id":"4","last_reported":1746238939,"current_range_meters":12400,"station_id":"ce4bh412rcd13ifvqds0","pricing_plan_id":"cebpf4jnsgd1na2vs0mg"},{"bike_id":"8105ea61-1930-4b48-827f-ed01cb559bea","system_id":"levelo_inurba_marseille","lat":43.24688,"lon":5.38196,"is_reserved":false,"is_disabled":false,"rental_uris":{"android":"levelo://app?vid=8105ea61-1930-4b48-827f-ed01cb559bea","ios":"levelo://app?vid=8105ea61-1930-4b48-827f-ed01cb559bea"},"vehicle_type_id":"4","last_reported":1746238939,"current_range_meters":12400,"station_id":"ce4bhih2rcd13ifvqfr0","pricing_plan_id":"cebpf4jnsgd1na2vs0mg"},{"bike_id":"327ebeed-5886-450e-ae65-2063d956b849","system_id":"levelo_inurba_marseille","lat":43.24669,"lon":5.38171,"is_reserved":false,"is_disabled":false,"rental_uris":{"android":"levelo://app?vid=327ebeed-5886-450e-ae65-2063d956b849","ios":"levelo://app?vid=327ebeed-5886-450e-ae65-2063d956b849"},"vehicle_type_id":"4","last_reported":1746238939,"current_range_meters":12400,"station_id":"ce4bhih2rcd13ifvqfr0","pricing_plan_id":"cebpf4jnsgd1na2vs0mg"},{"bike_id":"7f61934c-9cb9-4176-a54d-8a502361a16e","system_id":"levelo_inurba_marseille","lat":43.303266,"lon":5.404407,"is_reserved":false,"is_disabled":false,"rental_uris":{"android":"levelo://app?vid=7f61934c-9cb9-4176-a54d-8a502361a16e","ios":"levelo://app?vid=7f61934c-9cb9-4176-a54d-8a502361a16e"},"vehicle_type_id":"4","last_reported":1746238939,"current_range_meters":13600,"station_id":"ce4bh012rcd13ifvqd10","pricing_plan_id":"cebpf4jnsgd1na2vs0mg"},{"bike_id":"f4215d2d-8cbc-42de-a4a1-5312ee7d2a19","system_id":"levelo_inurba_marseille","lat":43.2407,"lon":5.3775,"is_reserved":false,"is_disabled":false,"rental_uris":{"android":"levelo://app?vid=f4215d2d-8cbc-42de-a4a1-5312ee7d2a19","ios":"levelo://app?vid=f4215d2d-8cbc-42de-a4a1-5312ee7d2a19"},"vehicle_type_id":"4","last_reported":1746238939,"current_range_meters":13600,"station_id":"ce4bhnp2rcd13ifvqgvg","pricing_plan_id":"cebpf4jnsgd1na2vs0mg"},{"bike_id":"6c0e5220-ee62-4032-884d-af4df430249c","system_id":"levelo_inurba_marseille","lat":43.32112,"lon":5.36779,"is_reserved":false,"is_disabled":false,"rental_uris":{"android":"levelo://app?vid=6c0e5220-ee62-4032-884d-af4df430249c","ios":"levelo://app?vid=6c0e5220-ee62-4032-884d-af4df430249c"},"vehicle_type_id":"4","last_reported":1746238939,"current_range_meters":13600,"station_id":"ce4bhrh2rcd13ifvqhug","pricing_plan_id":"cebpf4jnsgd1na2vs0mg"},{"bike_id":"ef00025b-a368-4855-a90e-b9cacd1b4878","system_id":"levelo_inurba_marseille","lat":43.29271,"lon":5.40141,"is_reserved":false,"is_disabled":false,"rental_uris":{"android":"levelo://app?vid=ef00025b-a368-4855-a90e-b9cacd1b4878","ios":"levelo://app?vid=ef00025b-a368-4855-a90e-b9cacd1b4878"},"vehicle_type_id":"4","last_reported":1746238939,"current_range_meters":14000,"station_id":"ce4bh312rcd13ifvqdk0","pricing_plan_id":"cebpf4jnsgd1na2vs0mg"},{"bike_id":"801a12cb-b784-4716-b617-c7684f979dc9","system_id":"levelo_inurba_marseille","lat":43.29884,"lon":5.38906,"is_reserved":false,"is_disabled":false,"rental_uris":{"android":"levelo://app?vid=801a12cb-b784-4716-b617-c7684f979dc9","ios":"levelo://app?vid=801a12cb-b784-4716-b617-c7684f979dc9"},"vehicle_type_id":"4","last_reported":1746238939,"current_range_meters":14000,"station_id":"ce4bh392rcd13ifvqdl0","pricing_plan_id":"cebpf4jnsgd1na2vs0mg"},{"bike_id":"fd2c3c67-23a6-4380-b7ca-8f23c8f78921","system_id":"levelo_inurba_marseille","lat":43.32371,"lon":5.3676,"is_reserved":false,"is_disabled":false,"rental_uris":{"android":"levelo://app?vid=fd2c3c67-23a6-4380-b7ca-8f23c8f78921","ios":"levelo://app?vid=fd2c3c67-23a6-4380-b7ca-8f23c8f78921"},"vehicle_type_id":"4","last_reported":1746238939,"current_range_meters":14000,"station_id":"ce4bhsh2rcd13ifvqi2g","pricing_plan_id":"cebpf4jnsgd1na2vs0mg"},{"bike_id":"715d4ccd-4d07-4967-8be3-b199930f65b6","system_id":"levelo_inurba_marseille","lat":43.31067,"lon":5.40104,"is_reserved":false,"is_disabled":false,"rental_uris":{"android":"levelo://app?vid=715d4ccd-4d07-4967-8be3-b199930f65b6","ios":"levelo://app?vid=715d4ccd-4d07-4967-8be3-b199930f65b6"},"vehicle_type_id":"4","last_reported":1746238939,"current_range_meters":14800,"station_id":"","pricing_plan_id":"cebpf4jnsgd1na2vs0mg"},{"bike_id":"bfdb6247-f47d-4f2c-8e70-264fe5da42e6","system_id":"levelo_inurba_marseille","lat":43.286956,"lon":5.373832,"is_reserved":false,"is_disabled":false,"rental_uris":{"android":"levelo://app?vid=bfdb6247-f47d-4f2c-8e70-264fe5da42e6","ios":"levelo://app?vid=bfdb6247-f47d-4f2c-8e70-264fe5da42e6"},"vehicle_type_id":"4","last_reported":1746238939,"current_range_meters":14800,"station_id":"ce4bh3p2rcd13ifvqdq0","pricing_plan_id":"cebpf4jnsgd1na2vs0mg"},{"bike_id":"c3856106-206a-4f39-adcf-8916ef5dd857","system_id":"levelo_inurba_marseille","lat":43.31066,"lon":5.38375,"is_reserved":false,"is_disabled":false,"rental_uris":{"android":"levelo://app?vid=c3856106-206a-4f39-adcf-8916ef5dd857","ios":"levelo://app?vid=c3856106-206a-4f39-adcf-8916ef5dd857"},"vehicle_type_id":"4","last_reported":1746238939,"current_range_meters":15200,"station_id":"ce4bgv92rcd13ifvqcr0","pricing_plan_id":"cebpf4jnsgd1na2vs0mg"},{"bike_id":"4570aeae-1bcc-49f7-accb-37cc53ae6fc1","system_id":"levelo_inurba_marseille","lat":43.28574,"lon":5.3949,"is_reserved":false,"is_disabled":false,"rental_uris":{"android":"levelo://app?vid=4570aeae-1bcc-49f7-accb-37cc53ae6fc1","ios":"levelo://app?vid=4570aeae-1bcc-49f7-accb-37cc53ae6fc1"},"vehicle_type_id":"4","last_reported":1746238939,"current_range_meters":15200,"station_id":"ce4bh292rcd13ifvqdg0","pricing_plan_id":"cebpf4jnsgd1na2vs0mg"},{"bike_id":"944f71e1-5595-4798-833c-c7ebd783dc75","system_id":"levelo_inurba_marseille","lat":43.3087,"lon":5.39656,"is_reserved":false,"is_disabled":false,"rental_uris":{"android":"levelo://app?vid=944f71e1-5595-4798-833c-c7ebd783dc75","ios":"levelo://app?vid=944f71e1-5595-4798-833c-c7ebd783dc75"},"vehicle_type_id":"4","last_reported":1746238939,"current_range_meters":16000,"station_id":"ce4bh012rcd13ifvqcv0","pricing_plan_id":"cebpf4jnsgd1na2vs0mg"},{"bike_id":"8e33ebb8-2f43-4b42-856b-65f59b075019","system_id":"levelo_inurba_marseille","lat":43.29091,"lon":5.38138,"is_reserved":false,"is_disabled":false,"rental_uris":{"android":"levelo://app?vid=8e33ebb8-2f43-4b42-856b-65f59b075019","ios":"levelo://app?vid=8e33ebb8-2f43-4b42-856b-65f59b075019"},"vehicle_type_id":"4","last_reported":1746238939,"current_range_meters":16000,"station_id":"ce4bh512rcd13ifvqe2g","pricing_plan_id":"cebpf4jnsgd1na2vs0mg"},{"bike_id":"b06d9155-0e15-41b9-8f2a-e8f7c4b2bdbb","system_id":"levelo_inurba_marseille","lat":43.25128,"lon":5.4035,"is_reserved":false,"is_disabled":false,"rental_uris":{"android":"levelo://app?vid=b06d9155-0e15-41b9-8f2a-e8f7c4b2bdbb","ios":"levelo://app?vid=b06d9155-0e15-41b9-8f2a-e8f7c4b2bdbb"},"vehicle_type_id":"4","last_reported":1746238939,"current_range_meters":16000,"station_id":"ce4bhlh2rcd13ifvqgig","pricing_plan_id":"cebpf4jnsgd1na2vs0mg"},{"bike_id":"3fa05eab-bd38-4e51-9d14-fab3387355a7","system_id":"levelo_inurba_marseille","lat":43.32298,"lon":5.38255,"is_reserved":false,"is_disabled":false,"rental_uris":{"android":"levelo://app?vid=3fa05eab-bd38-4e51-9d14-fab3387355a7","ios":"levelo://app?vid=3fa05eab-bd38-4e51-9d14-fab3387355a7"},"vehicle_type_id":"4","last_reported":1746238939,"current_range_meters":16000,"station_id":"ce4bhr12rcd13ifvqhqg","pricing_plan_id":"cebpf4jnsgd1na2vs0mg"},{"bike_id":"5426b15c-d0d1-4b42-8d42-b676224fcebe","system_id":"levelo_inurba_marseille","lat":43.28724,"lon":5.36073,"is_reserved":false,"is_disabled":false,"rental_uris":{"android":"levelo://app?vid=5426b15c-d0d1-4b42-8d42-b676224fcebe","ios":"levelo://app?vid=5426b15c-d0d1-4b42-8d42-b676224fcebe"},"vehicle_type_id":"4","last_reported":1746238939,"current_range_meters":16000,"station_id":"cki0cbj6b192h4jlfktg","pricing_plan_id":"cebpf4jnsgd1na2vs0mg"},{"bike_id":"fb80c1da-d845-467b-9c3b-2f591f4d56ae","system_id":"levelo_inurba_marseille","lat":43.323406,"lon":5.37422,"is_reserved":false,"is_disabled":false,"rental_uris":{"android":"levelo://app?vid=fb80c1da-d845-467b-9c3b-2f591f4d56ae","ios":"levelo://app?vid=fb80c1da-d845-467b-9c3b-2f591f4d56ae"},"vehicle_type_id":"4","last_reported":1746238939,"current_range_meters":16400,"station_id":"","pricing_plan_id":"cebpf4jnsgd1na2vs0mg"},{"bike_id":"aedf206f-89f3-4f30-9da6-56fb7ff8915b","system_id":"levelo_inurba_marseille","lat":43.28093,"lon":5.40384,"is_reserved":false,"is_disabled":false,"rental_uris":{"android":"levelo://app?vid=aedf206f-89f3-4f30-9da6-56fb7ff8915b","ios":"levelo://app?vid=aedf206f-89f3-4f30-9da6-56fb7ff8915b"},"vehicle_type_id":"4","last_reported":1746238939,"current_range_meters":16400,"station_id":"","pricing_plan_id":"cebpf4jnsgd1na2vs0mg"},{"bike_id":"fb606cd2-1da9-4c3f-b584-2ec9e09f3fce","system_id":"levelo_inurba_marseille","lat":43.30474,"lon":5.37906,"is_reserved":false,"is_disabled":false,"rental_uris":{"android":"levelo://app?vid=fb606cd2-1da9-4c3f-b584-2ec9e09f3fce","ios":"levelo://app?vid=fb606cd2-1da9-4c3f-b584-2ec9e09f3fce"},"vehicle_type_id":"4","last_reported":1746238939,"current_range_meters":16400,"station_id":"ce4bgup2rcd13ifvqcn0","pricing_plan_id":"cebpf4jnsgd1na2vs0mg"},{"bike_id":"79dc9683-b42d-4990-a9a3-c0bcacc25768","system_id":"levelo_inurba_marseille","lat":43.28678,"lon":5.36319,"is_reserved":false,"is_disabled":false,"rental_uris":{"android":"levelo://app?vid=79dc9683-b42d-4990-a9a3-c0bcacc25768","ios":"levelo://app?vid=79dc9683-b42d-4990-a9a3-c0bcacc25768"},"vehicle_type_id":"4","last_reported":1746238939,"current_range_meters":16400,"station_id":"ce4bhah2rcd13ifvqej0","pricing_plan_id":"cebpf4jnsgd1na2vs0mg"},{"bike_id":"fbc566d0-26ea-499b-b5d0-565b3f2c4e97","system_id":"levelo_inurba_marseille","lat":43.28149,"lon":5.42639,"is_reserved":false,"is_disabled":false,"rental_uris":{"android":"levelo://app?vid=fbc566d0-26ea-499b-b5d0-565b3f2c4e97","ios":"levelo://app?vid=fbc566d0-26ea-499b-b5d0-565b3f2c4e97"},"vehicle_type_id":"4","last_reported":1746238939,"current_range_meters":16400,"station_id":"ce4bhnh2rcd13ifvqgug","pricing_plan_id":"cebpf4jnsgd1na2vs0mg"},{"bike_id":"701e5227-22ae-4915-aea9-f5edaf97a446","system_id":"levelo_inurba_marseille","lat":43.31769,"lon":5.38987,"is_reserved":false,"is_disabled":false,"rental_uris":{"android":"levelo://app?vid=701e5227-22ae-4915-aea9-f5edaf97a446","ios":"levelo://app?vid=701e5227-22ae-4915-aea9-f5edaf97a446"},"vehicle_type_id":"4","last_reported":1746238939,"current_range_meters":16400,"station_id":"ce4bhqp2rcd13ifvqhng","pricing_plan_id":"cebpf4jnsgd1na2vs0mg"},{"bike_id":"b9139095-2881-49e4-b714-9d611b216345","system_id":"levelo_inurba_marseille","lat":43.319214,"lon":5.368762,"is_reserved":false,"is_disabled":false,"rental_uris":{"android":"levelo://app?vid=b9139095-2881-49e4-b714-9d611b216345","ios":"levelo://app?vid=b9139095-2881-49e4-b714-9d611b216345"},"vehicle_type_id":"4","last_reported":1746238939,"current_range_meters":16800,"station_id":"","pricing_plan_id":"cebpf4jnsgd1na2vs0mg"},{"bike_id":"b8d6bd6b-e69d-4869-8d67-2bbec570ca30","system_id":"levelo_inurba_marseille","lat":43.284,"lon":5.37525,"is_reserved":false,"is_disabled":false,"rental_uris":{"android":"levelo://app?vid=b8d6bd6b-e69d-4869-8d67-2bbec570ca30","ios":"levelo://app?vid=b8d6bd6b-e69d-4869-8d67-2bbec570ca30"},"vehicle_type_id":"4","last_reported":1746238939,"current_range_meters":16800,"station_id":"ce4bh412rcd13ifvqds0","pricing_plan_id":"cebpf4jnsgd1na2vs0mg"},{"bike_id":"f06374f6-a868-497a-8787-e43e003d8559","system_id":"levelo_inurba_marseille","lat":43.30353,"lon":5.41876,"is_reserved":false,"is_disabled":false,"rental_uris":{"android":"levelo://app?vid=f06374f6-a868-497a-8787-e43e003d8559","ios":"levelo://app?vid=f06374f6-a868-497a-8787-e43e003d8559"},"vehicle_type_id":"4","last_reported":1746238939,"current_range_meters":16800,"station_id":"ce4bhop2rcd13ifvqh7g","pricing_plan_id":"cebpf4jnsgd1na2vs0mg"},{"bike_id":"b4fac8bf-7bd6-49a5-b30e-acb7f887dcd2","system_id":"levelo_inurba_marseille","lat":43.278928,"lon":5.379974,"is_reserved":false,"is_disabled":false,"rental_uris":{"android":"levelo://app?vid=b4fac8bf-7bd6-49a5-b30e-acb7f887dcd2","ios":"levelo://app?vid=b4fac8bf-7bd6-49a5-b30e-acb7f887dcd2"},"vehicle_type_id":"4","last_reported":1746238939,"current_range_meters":17200,"station_id":"ce4bhf92rcd13ifvqf50","pricing_plan_id":"cebpf4jnsgd1na2vs0mg"},{"bike_id":"e0ceefc0-61c9-406f-91eb-ef69db9dbe42","system_id":"levelo_inurba_marseille","lat":43.26116,"lon":5.41479,"is_reserved":false,"is_disabled":false,"rental_uris":{"android":"levelo://app?vid=e0ceefc0-61c9-406f-91eb-ef69db9dbe42","ios":"levelo://app?vid=e0ceefc0-61c9-406f-91eb-ef69db9dbe42"},"vehicle_type_id":"4","last_reported":1746238939,"current_range_meters":17600,"station_id":"","pricing_plan_id":"cebpf4jnsgd1na2vs0mg"},{"bike_id":"13f45c48-59a4-4b11-8dcf-2c91f5157d7a","system_id":"levelo_inurba_marseille","lat":43.31481,"lon":5.37303,"is_reserved":false,"is_disabled":false,"rental_uris":{"android":"levelo://app?vid=13f45c48-59a4-4b11-8dcf-2c91f5157d7a","ios":"levelo://app?vid=13f45c48-59a4-4b11-8dcf-2c91f5157d7a"},"vehicle_type_id":"4","last_reported":1746238939,"current_range_meters":17600,"station_id":"ce4bgt12rcd13ifvqcd0","pricing_plan_id":"cebpf4jnsgd1na2vs0mg"},{"bike_id":"3f506505-a089-4076-bc43-08024cf6ce18","system_id":"levelo_inurba_marseille","lat":43.30894,"lon":5.37206,"is_reserved":false,"is_disabled":false,"rental_uris":{"android":"levelo://app?vid=3f506505-a089-4076-bc43-08024cf6ce18","ios":"levelo://app?vid=3f506505-a089-4076-bc43-08024cf6ce18"},"vehicle_type_id":"4","last_reported":1746238939,"current_range_meters":17600,"station_id":"ce4bguh2rcd13ifvqckg","pricing_plan_id":"cebpf4jnsgd1na2vs0mg"},{"bike_id":"922093f5-03c3-4aed-b8d2-242e2267958d","system_id":"levelo_inurba_marseille","lat":43.30804,"lon":5.43524,"is_reserved":false,"is_disabled":false,"rental_uris":{"android":"levelo://app?vid=922093f5-03c3-4aed-b8d2-242e2267958d","ios":"levelo://app?vid=922093f5-03c3-4aed-b8d2-242e2267958d"},"vehicle_type_id":"4","last_reported":1746238939,"current_range_meters":17600,"station_id":"ce4bhph2rcd13ifvqheg","pricing_plan_id":"cebpf4jnsgd1na2vs0mg"},{"bike_id":"b960b3d9-efec-4356-b547-dd31cfa5d929","system_id":"levelo_inurba_marseille","lat":43.31774,"lon":5.39018,"is_reserved":false,"is_disabled":false,"rental_uris":{"android":"levelo://app?vid=b960b3d9-efec-4356-b547-dd31cfa5d929","ios":"levelo://app?vid=b960b3d9-efec-4356-b547-dd31cfa5d929"},"vehicle_type_id":"4","last_reported":1746238939,"current_range_meters":17600,"station_id":"ce4bhqp2rcd13ifvqhng","pricing_plan_id":"cebpf4jnsgd1na2vs0mg"},{"bike_id":"4fd57909-8260-462c-adea-94e67f7a5406","system_id":"levelo_inurba_marseille","lat":43.310702,"lon":5.383396,"is_reserved":false,"is_disabled":false,"rental_uris":{"android":"levelo://app?vid=4fd57909-8260-462c-adea-94e67f7a5406","ios":"levelo://app?vid=4fd57909-8260-462c-adea-94e67f7a5406"},"vehicle_type_id":"4","last_reported":1746238939,"current_range_meters":18000,"station_id":"ce4bgv92rcd13ifvqcr0","pricing_plan_id":"cebpf4jnsgd1na2vs0mg"},{"bike_id":"cdfd7ebf-d40f-442e-8508-ccaa5f6b29f7","system_id":"levelo_inurba_marseille","lat":43.25937,"lon":5.40901,"is_reserved":false,"is_disabled":false,"rental_uris":{"android":"levelo://app?vid=cdfd7ebf-d40f-442e-8508-ccaa5f6b29f7","ios":"levelo://app?vid=cdfd7ebf-d40f-442e-8508-ccaa5f6b29f7"},"vehicle_type_id":"4","last_reported":1746238939,"current_range_meters":18000,"station_id":"ce4bhm92rcd13ifvqglg","pricing_plan_id":"cebpf4jnsgd1na2vs0mg"},{"bike_id":"4cac8a45-449f-449e-9ca9-04490eb84c50","system_id":"levelo_inurba_marseille","lat":43.24068,"lon":5.377649,"is_reserved":false,"is_disabled":false,"rental_uris":{"android":"levelo://app?vid=4cac8a45-449f-449e-9ca9-04490eb84c50","ios":"levelo://app?vid=4cac8a45-449f-449e-9ca9-04490eb84c50"},"vehicle_type_id":"4","last_reported":1746238939,"current_range_meters":18000,"station_id":"ce4bhnp2rcd13ifvqgvg","pricing_plan_id":"cebpf4jnsgd1na2vs0mg"},{"bike_id":"d76bfe54-9f31-429e-b3fd-66658987c5a6","system_id":"levelo_inurba_marseille","lat":43.322507,"lon":5.367589,"is_reserved":false,"is_disabled":false,"rental_uris":{"android":"levelo://app?vid=d76bfe54-9f31-429e-b3fd-66658987c5a6","ios":"levelo://app?vid=d76bfe54-9f31-429e-b3fd-66658987c5a6"},"vehicle_type_id":"4","last_reported":1746238939,"current_range_meters":18800,"station_id":"","pricing_plan_id":"cebpf4jnsgd1na2vs0mg"},{"bike_id":"764745f4-22f3-4d3f-9ccf-0bef40653811","system_id":"levelo_inurba_marseille","lat":43.3079,"lon":5.37241,"is_reserved":false,"is_disabled":false,"rental_uris":{"android":"levelo://app?vid=764745f4-22f3-4d3f-9ccf-0bef40653811","ios":"levelo://app?vid=764745f4-22f3-4d3f-9ccf-0bef40653811"},"vehicle_type_id":"4","last_reported":1746238939,"current_range_meters":18800,"station_id":"","pricing_plan_id":"cebpf4jnsgd1na2vs0mg"},{"bike_id":"16e5f374-44c7-4248-91d7-003adf385611","system_id":"levelo_inurba_marseille","lat":43.25103,"lon":5.40327,"is_reserved":false,"is_disabled":false,"rental_uris":{"android":"levelo://app?vid=16e5f374-44c7-4248-91d7-003adf385611","ios":"levelo://app?vid=16e5f374-44c7-4248-91d7-003adf385611"},"vehicle_type_id":"4","last_reported":1746238939,"current_range_meters":18800,"station_id":"ce4bhlh2rcd13ifvqgig","pricing_plan_id":"cebpf4jnsgd1na2vs0mg"},{"bike_id":"73792d1f-5126-4fa6-ae02-d3f1f02502ac","system_id":"levelo_inurba_marseille","lat":43.25092,"lon":5.39514,"is_reserved":false,"is_disabled":false,"rental_uris":{"android":"levelo://app?vid=73792d1f-5126-4fa6-ae02-d3f1f02502ac","ios":"levelo://app?vid=73792d1f-5126-4fa6-ae02-d3f1f02502ac"},"vehicle_type_id":"4","last_reported":1746238939,"current_range_meters":18800,"station_id":"ce4bhm12rcd13ifvqgkg","pricing_plan_id":"cebpf4jnsgd1na2vs0mg"},{"bike_id":"383a9fec-74e2-4a49-b93b-c40bae44d5fc","system_id":"levelo_inurba_marseille","lat":43.30259,"lon":5.40037,"is_reserved":false,"is_disabled":false,"rental_uris":{"android":"levelo://app?vid=383a9fec-74e2-4a49-b93b-c40bae44d5fc","ios":"levelo://app?vid=383a9fec-74e2-4a49-b93b-c40bae44d5fc"},"vehicle_type_id":"4","last_reported":1746238939,"current_range_meters":19200,"station_id":"ce4bgvh2rcd13ifvqcs0","pricing_plan_id":"cebpf4jnsgd1na2vs0mg"},{"bike_id":"063a529b-14c5-42bf-96ef-4c4cc8ee1e32","system_id":"levelo_inurba_marseille","lat":43.30937,"lon":5.40159,"is_reserved":false,"is_disabled":false,"rental_uris":{"android":"levelo://app?vid=063a529b-14c5-42bf-96ef-4c4cc8ee1e32","ios":"levelo://app?vid=063a529b-14c5-42bf-96ef-4c4cc8ee1e32"},"vehicle_type_id":"4","last_reported":1746238939,"current_range_meters":19200,"station_id":"ce4bgvp2rcd13ifvqct0","pricing_plan_id":"cebpf4jnsgd1na2vs0mg"},{"bike_id":"b2627561-06d4-430f-aff3-255d3e3dfadb","system_id":"levelo_inurba_marseille","lat":43.28345,"lon":5.3811,"is_reserved":false,"is_disabled":false,"rental_uris":{"android":"levelo://app?vid=b2627561-06d4-430f-aff3-255d3e3dfadb","ios":"levelo://app?vid=b2627561-06d4-430f-aff3-255d3e3dfadb"},"vehicle_type_id":"4","last_reported":1746238939,"current_range_meters":19200,"station_id":"ce4bh412rcd13ifvqdr0","pricing_plan_id":"cebpf4jnsgd1na2vs0mg"},{"bike_id":"bc001080-a241-4df9-9258-794a1186b1b9","system_id":"levelo_inurba_marseille","lat":43.28418,"lon":5.37521,"is_reserved":false,"is_disabled":false,"rental_uris":{"android":"levelo://app?vid=bc001080-a241-4df9-9258-794a1186b1b9","ios":"levelo://app?vid=bc001080-a241-4df9-9258-794a1186b1b9"},"vehicle_type_id":"4","last_reported":1746238939,"current_range_meters":19200,"station_id":"ce4bh412rcd13ifvqds0","pricing_plan_id":"cebpf4jnsgd1na2vs0mg"},{"bike_id":"9fbef299-0b65-42ee-827c-cba9d0bfbf0f","system_id":"levelo_inurba_marseille","lat":43.23153,"lon":5.43746,"is_reserved":false,"is_disabled":false,"rental_uris":{"android":"levelo://app?vid=9fbef299-0b65-42ee-827c-cba9d0bfbf0f","ios":"levelo://app?vid=9fbef299-0b65-42ee-827c-cba9d0bfbf0f"},"vehicle_type_id":"4","last_reported":1746238939,"current_range_meters":19200,"station_id":"ce4bhmp2rcd13ifvqgog","pricing_plan_id":"cebpf4jnsgd1na2vs0mg"},{"bike_id":"c8e16fcb-5510-4723-b6e7-2aa49c1b3b8d","system_id":"levelo_inurba_marseille","lat":43.31948,"lon":5.37038,"is_reserved":false,"is_disabled":false,"rental_uris":{"android":"levelo://app?vid=c8e16fcb-5510-4723-b6e7-2aa49c1b3b8d","ios":"levelo://app?vid=c8e16fcb-5510-4723-b6e7-2aa49c1b3b8d"},"vehicle_type_id":"4","last_reported":1746238939,"current_range_meters":19600,"station_id":"","pricing_plan_id":"cebpf4jnsgd1na2vs0mg"},{"bike_id":"b5b11c1b-996f-4a82-824f-99258b33fb5c","system_id":"levelo_inurba_marseille","lat":43.30138,"lon":5.3877,"is_reserved":false,"is_disabled":false,"rental_uris":{"android":"levelo://app?vid=b5b11c1b-996f-4a82-824f-99258b33fb5c","ios":"levelo://app?vid=b5b11c1b-996f-4a82-824f-99258b33fb5c"},"vehicle_type_id":"4","last_reported":1746238939,"current_range_meters":19600,"station_id":"ce4bghh2rcd13ifvqb60","pricing_plan_id":"cebpf4jnsgd1na2vs0mg"},{"bike_id":"93bff410-b448-4e28-975b-d8631f652a97","system_id":"levelo_inurba_marseille","lat":43.28585,"lon":5.39532,"is_reserved":false,"is_disabled":false,"rental_uris":{"android":"levelo://app?vid=93bff410-b448-4e28-975b-d8631f652a97","ios":"levelo://app?vid=93bff410-b448-4e28-975b-d8631f652a97"},"vehicle_type_id":"4","last_reported":1746238939,"current_range_meters":19600,"station_id":"ce4bh292rcd13ifvqdg0","pricing_plan_id":"cebpf4jnsgd1na2vs0mg"},{"bike_id":"bc094017-5656-40be-919e-5e0cc48c39ce","system_id":"levelo_inurba_marseille","lat":43.23163,"lon":5.43748,"is_reserved":false,"is_disabled":false,"rental_uris":{"android":"levelo://app?vid=bc094017-5656-40be-919e-5e0cc48c39ce","ios":"levelo://app?vid=bc094017-5656-40be-919e-5e0cc48c39ce"},"vehicle_type_id":"4","last_reported":1746238939,"current_range_meters":19600,"station_id":"ce4bhmp2rcd13ifvqgog","pricing_plan_id":"cebpf4jnsgd1na2vs0mg"},{"bike_id":"ec6da0aa-0845-4bad-8a7b-8655154f5109","system_id":"levelo_inurba_marseille","lat":43.308036,"lon":5.435221,"is_reserved":false,"is_disabled":false,"rental_uris":{"android":"levelo://app?vid=ec6da0aa-0845-4bad-8a7b-8655154f5109","ios":"levelo://app?vid=ec6da0aa-0845-4bad-8a7b-8655154f5109"},"vehicle_type_id":"4","last_reported":1746238939,"current_range_meters":19600,"station_id":"ce4bhph2rcd13ifvqheg","pricing_plan_id":"cebpf4jnsgd1na2vs0mg"},{"bike_id":"1a877ed8-aa67-486c-a34b-30e006e67ea0","system_id":"levelo_inurba_marseille","lat":43.28502,"lon":5.3803,"is_reserved":false,"is_disabled":false,"rental_uris":{"android":"levelo://app?vid=1a877ed8-aa67-486c-a34b-30e006e67ea0","ios":"levelo://app?vid=1a877ed8-aa67-486c-a34b-30e006e67ea0"},"vehicle_type_id":"4","last_reported":1746238939,"current_range_meters":20000,"station_id":"","pricing_plan_id":"cebpf4jnsgd1na2vs0mg"},{"bike_id":"57d8bd1c-c0ef-4bc9-9141-4a198c997c47","system_id":"levelo_inurba_marseille","lat":43.30593,"lon":5.37228,"is_reserved":false,"is_disabled":false,"rental_uris":{"android":"levelo://app?vid=57d8bd1c-c0ef-4bc9-9141-4a198c997c47","ios":"levelo://app?vid=57d8bd1c-c0ef-4bc9-9141-4a198c997c47"},"vehicle_type_id":"4","last_reported":1746238939,"current_range_meters":20000,"station_id":"ce4bgqh2rcd13ifvqc4g","pricing_plan_id":"cebpf4jnsgd1na2vs0mg"},{"bike_id":"d96b6034-f549-40a4-ae9e-16b75e82b40a","system_id":"levelo_inurba_marseille","lat":43.2857,"lon":5.39511,"is_reserved":false,"is_disabled":false,"rental_uris":{"android":"levelo://app?vid=d96b6034-f549-40a4-ae9e-16b75e82b40a","ios":"levelo://app?vid=d96b6034-f549-40a4-ae9e-16b75e82b40a"},"vehicle_type_id":"4","last_reported":1746238939,"current_range_meters":20000,"station_id":"ce4bh292rcd13ifvqdg0","pricing_plan_id":"cebpf4jnsgd1na2vs0mg"},{"bike_id":"2cd00fa1-aa9b-4b46-86ba-129fb9364ad2","system_id":"levelo_inurba_marseille","lat":43.23165,"lon":5.43749,"is_reserved":false,"is_disabled":false,"rental_uris":{"android":"levelo://app?vid=2cd00fa1-aa9b-4b46-86ba-129fb9364ad2","ios":"levelo://app?vid=2cd00fa1-aa9b-4b46-86ba-129fb9364ad2"},"vehicle_type_id":"4","last_reported":1746238939,"current_range_meters":20000,"station_id":"ce4bhmp2rcd13ifvqgog","pricing_plan_id":"cebpf4jnsgd1na2vs0mg"},{"bike_id":"d6a6f75b-73c3-463c-a1a6-35bbb4932dc9","system_id":"levelo_inurba_marseille","lat":43.27495,"lon":5.42463,"is_reserved":false,"is_disabled":false,"rental_uris":{"android":"levelo://app?vid=d6a6f75b-73c3-463c-a1a6-35bbb4932dc9","ios":"levelo://app?vid=d6a6f75b-73c3-463c-a1a6-35bbb4932dc9"},"vehicle_type_id":"4","last_reported":1746238939,"current_range_meters":20000,"station_id":"ce4bhn92rcd13ifvqgrg","pricing_plan_id":"cebpf4jnsgd1na2vs0mg"},{"bike_id":"02d5d9fb-d158-4625-ad65-d55e5333397f","system_id":"levelo_inurba_marseille","lat":43.28024,"lon":5.36945,"is_reserved":false,"is_disabled":false,"rental_uris":{"android":"levelo://app?vid=02d5d9fb-d158-4625-ad65-d55e5333397f","ios":"levelo://app?vid=02d5d9fb-d158-4625-ad65-d55e5333397f"},"vehicle_type_id":"4","last_reported":1746238939,"current_range_meters":20400,"station_id":"ce4bha12rcd13ifvqef0","pricing_plan_id":"cebpf4jnsgd1na2vs0mg"},{"bike_id":"9fdd63df-700f-46ff-8794-20c6dc2d1006","system_id":"levelo_inurba_marseille","lat":43.262247,"lon":5.404427,"is_reserved":false,"is_disabled":false,"rental_uris":{"android":"levelo://app?vid=9fdd63df-700f-46ff-8794-20c6dc2d1006","ios":"levelo://app?vid=9fdd63df-700f-46ff-8794-20c6dc2d1006"},"vehicle_type_id":"4","last_reported":1746238939,"current_range_meters":20400,"station_id":"ce4bhmh2rcd13ifvqgmg","pricing_plan_id":"cebpf4jnsgd1na2vs0mg"},{"bike_id":"7f61457f-a8bd-43bb-93a3-252837b6e6b4","system_id":"levelo_inurba_marseille","lat":43.27494,"lon":5.42474,"is_reserved":false,"is_disabled":false,"rental_uris":{"android":"levelo://app?vid=7f61457f-a8bd-43bb-93a3-252837b6e6b4","ios":"levelo://app?vid=7f61457f-a8bd-43bb-93a3-252837b6e6b4"},"vehicle_type_id":"4","last_reported":1746238939,"current_range_meters":20400,"station_id":"ce4bhn92rcd13ifvqgrg","pricing_plan_id":"cebpf4jnsgd1na2vs0mg"},{"bike_id":"68a6799f-e364-47bb-9e3b-454906e28b00","system_id":"levelo_inurba_marseille","lat":43.31891,"lon":5.40739,"is_reserved":false,"is_disabled":false,"rental_uris":{"android":"levelo://app?vid=68a6799f-e364-47bb-9e3b-454906e28b00","ios":"levelo://app?vid=68a6799f-e364-47bb-9e3b-454906e28b00"},"vehicle_type_id":"4","last_reported":1746238939,"current_range_meters":20400,"station_id":"ce4bhq12rcd13ifvqhig","pricing_plan_id":"cebpf4jnsgd1na2vs0mg"},{"bike_id":"5b6e9cb6-dc4c-4834-9c3a-c1c254bbaa0f","system_id":"levelo_inurba_marseille","lat":43.27973,"lon":5.38673,"is_reserved":false,"is_disabled":false,"rental_uris":{"android":"levelo://app?vid=5b6e9cb6-dc4c-4834-9c3a-c1c254bbaa0f","ios":"levelo://app?vid=5b6e9cb6-dc4c-4834-9c3a-c1c254bbaa0f"},"vehicle_type_id":"4","last_reported":1746238939,"current_range_meters":20800,"station_id":"ce4bhg12rcd13ifvqf80","pricing_plan_id":"cebpf4jnsgd1na2vs0mg"},{"bike_id":"8247bff8-4814-4b10-9b4e-c73fe4d00d62","system_id":"levelo_inurba_marseille","lat":43.30245,"lon":5.40066,"is_reserved":false,"is_disabled":false,"rental_uris":{"android":"levelo://app?vid=8247bff8-4814-4b10-9b4e-c73fe4d00d62","ios":"levelo://app?vid=8247bff8-4814-4b10-9b4e-c73fe4d00d62"},"vehicle_type_id":"4","last_reported":1746238939,"current_range_meters":21600,"station_id":"ce4bgvh2rcd13ifvqcs0","pricing_plan_id":"cebpf4jnsgd1na2vs0mg"},{"bike_id":"5fb524f4-92fb-4585-b2e7-5d1799125681","system_id":"levelo_inurba_marseille","lat":43.316943,"lon":5.377655,"is_reserved":false,"is_disabled":false,"rental_uris":{"android":"levelo://app?vid=5fb524f4-92fb-4585-b2e7-5d1799125681","ios":"levelo://app?vid=5fb524f4-92fb-4585-b2e7-5d1799125681"},"vehicle_type_id":"4","last_reported":1746238939,"current_range_meters":22000,"station_id":"ce4bgth2rcd13ifvqch0","pricing_plan_id":"cebpf4jnsgd1na2vs0mg"},{"bike_id":"541e646e-53fe-424b-adcc-80d2ba34e340","system_id":"levelo_inurba_marseille","lat":43.23183,"lon":5.40018,"is_reserved":false,"is_disabled":false,"rental_uris":{"android":"levelo://app?vid=541e646e-53fe-424b-adcc-80d2ba34e340","ios":"levelo://app?vid=541e646e-53fe-424b-adcc-80d2ba34e340"},"vehicle_type_id":"4","last_reported":1746238939,"current_range_meters":22000,"station_id":"ce4bhn12rcd13ifvqgqg","pricing_plan_id":"cebpf4jnsgd1na2vs0mg"},{"bike_id":"f7d54ac5-5a5c-49f5-b0c0-204afd6837d2","system_id":"levelo_inurba_marseille","lat":43.2872,"lon":5.36093,"is_reserved":false,"is_disabled":false,"rental_uris":{"android":"levelo://app?vid=f7d54ac5-5a5c-49f5-b0c0-204afd6837d2","ios":"levelo://app?vid=f7d54ac5-5a5c-49f5-b0c0-204afd6837d2"},"vehicle_type_id":"4","last_reported":1746238939,"current_range_meters":22000,"station_id":"cki0cbj6b192h4jlfktg","pricing_plan_id":"cebpf4jnsgd1na2vs0mg"},{"bike_id":"899f1c13-7008-4f05-81eb-05e3064d591d","system_id":"levelo_inurba_marseille","lat":43.28495,"lon":5.35036,"is_reserved":false,"is_disabled":false,"rental_uris":{"android":"levelo://app?vid=899f1c13-7008-4f05-81eb-05e3064d591d","ios":"levelo://app?vid=899f1c13-7008-4f05-81eb-05e3064d591d"},"vehicle_type_id":"4","last_reported":1746238939,"current_range_meters":22400,"station_id":"","pricing_plan_id":"cebpf4jnsgd1na2vs0mg"},{"bike_id":"f1c3f8a0-09ea-4707-b136-a0a567b93a54","system_id":"levelo_inurba_marseille","lat":43.31374,"lon":5.3674,"is_reserved":false,"is_disabled":false,"rental_uris":{"android":"levelo://app?vid=f1c3f8a0-09ea-4707-b136-a0a567b93a54","ios":"levelo://app?vid=f1c3f8a0-09ea-4707-b136-a0a567b93a54"},"vehicle_type_id":"4","last_reported":1746238939,"current_range_meters":22400,"station_id":"ce4bgr92rcd13ifvqc6g","pricing_plan_id":"cebpf4jnsgd1na2vs0mg"},{"bike_id":"99fb61d9-fbd1-46aa-ba1b-3c73a76c50d1","system_id":"levelo_inurba_marseille","lat":43.2841,"lon":5.37505,"is_reserved":false,"is_disabled":false,"rental_uris":{"android":"levelo://app?vid=99fb61d9-fbd1-46aa-ba1b-3c73a76c50d1","ios":"levelo://app?vid=99fb61d9-fbd1-46aa-ba1b-3c73a76c50d1"},"vehicle_type_id":"4","last_reported":1746238939,"current_range_meters":22400,"station_id":"ce4bh412rcd13ifvqds0","pricing_plan_id":"cebpf4jnsgd1na2vs0mg"},{"bike_id":"1bcd479f-c6bd-409b-9e46-cc99282e8b13","system_id":"levelo_inurba_marseille","lat":43.28721,"lon":5.36108,"is_reserved":false,"is_disabled":false,"rental_uris":{"android":"levelo://app?vid=1bcd479f-c6bd-409b-9e46-cc99282e8b13","ios":"levelo://app?vid=1bcd479f-c6bd-409b-9e46-cc99282e8b13"},"vehicle_type_id":"4","last_reported":1746238939,"current_range_meters":22400,"station_id":"cki0cbj6b192h4jlfktg","pricing_plan_id":"cebpf4jnsgd1na2vs0mg"},{"bike_id":"72688617-9135-42da-8793-e5a91040f395","system_id":"levelo_inurba_marseille","lat":43.21737,"lon":5.34632,"is_reserved":false,"is_disabled":false,"rental_uris":{"android":"levelo://app?vid=72688617-9135-42da-8793-e5a91040f395","ios":"levelo://app?vid=72688617-9135-42da-8793-e5a91040f395"},"vehicle_type_id":"4","last_reported":1746238939,"current_range_meters":22400,"station_id":"st_cvj6r9ubvosntc0bgbag","pricing_plan_id":"cebpf4jnsgd1na2vs0mg"},{"bike_id":"0f9a2cd7-e6db-49af-b6da-66947cc0c4c9","system_id":"levelo_inurba_marseille","lat":43.31071,"lon":5.38351,"is_reserved":false,"is_disabled":false,"rental_uris":{"android":"levelo://app?vid=0f9a2cd7-e6db-49af-b6da-66947cc0c4c9","ios":"levelo://app?vid=0f9a2cd7-e6db-49af-b6da-66947cc0c4c9"},"vehicle_type_id":"4","last_reported":1746238939,"current_range_meters":22800,"station_id":"ce4bgv92rcd13ifvqcr0","pricing_plan_id":"cebpf4jnsgd1na2vs0mg"},{"bike_id":"c9e18556-ba6e-41fb-8567-3cec48f71bfd","system_id":"levelo_inurba_marseille","lat":43.30175,"lon":5.39485,"is_reserved":false,"is_disabled":false,"rental_uris":{"android":"levelo://app?vid=c9e18556-ba6e-41fb-8567-3cec48f71bfd","ios":"levelo://app?vid=c9e18556-ba6e-41fb-8567-3cec48f71bfd"},"vehicle_type_id":"4","last_reported":1746238939,"current_range_meters":22800,"station_id":"ce4bh0p2rcd13ifvqd70","pricing_plan_id":"cebpf4jnsgd1na2vs0mg"},{"bike_id":"f5698fc5-de90-4a49-b1b2-3922eb9990f3","system_id":"levelo_inurba_marseille","lat":43.287171,"lon":5.379424,"is_reserved":false,"is_disabled":false,"rental_uris":{"android":"levelo://app?vid=f5698fc5-de90-4a49-b1b2-3922eb9990f3","ios":"levelo://app?vid=f5698fc5-de90-4a49-b1b2-3922eb9990f3"},"vehicle_type_id":"4","last_reported":1746238939,"current_range_meters":22800,"station_id":"ce4bh9p2rcd13ifvqec0","pricing_plan_id":"cebpf4jnsgd1na2vs0mg"},{"bike_id":"3f468965-3635-47f7-bdaf-8282d59f1d1c","system_id":"levelo_inurba_marseille","lat":43.28112,"lon":5.37869,"is_reserved":false,"is_disabled":false,"rental_uris":{"android":"levelo://app?vid=3f468965-3635-47f7-bdaf-8282d59f1d1c","ios":"levelo://app?vid=3f468965-3635-47f7-bdaf-8282d59f1d1c"},"vehicle_type_id":"4","last_reported":1746238939,"current_range_meters":22800,"station_id":"ce4bha12rcd13ifvqee0","pricing_plan_id":"cebpf4jnsgd1na2vs0mg"},{"bike_id":"d2450fa2-eb02-4667-8398-67924a1ec99e","system_id":"levelo_inurba_marseille","lat":43.31684,"lon":5.43722,"is_reserved":false,"is_disabled":false,"rental_uris":{"android":"levelo://app?vid=d2450fa2-eb02-4667-8398-67924a1ec99e","ios":"levelo://app?vid=d2450fa2-eb02-4667-8398-67924a1ec99e"},"vehicle_type_id":"4","last_reported":1746238939,"current_range_meters":22800,"station_id":"ce4bhp92rcd13ifvqhcg","pricing_plan_id":"cebpf4jnsgd1na2vs0mg"},{"bike_id":"194260aa-f607-4047-b80a-7878e85c0481","system_id":"levelo_inurba_marseille","lat":43.319961,"lon":5.381627,"is_reserved":false,"is_disabled":false,"rental_uris":{"android":"levelo://app?vid=194260aa-f607-4047-b80a-7878e85c0481","ios":"levelo://app?vid=194260aa-f607-4047-b80a-7878e85c0481"},"vehicle_type_id":"4","last_reported":1746238939,"current_range_meters":22800,"station_id":"ce4bhr12rcd13ifvqhpg","pricing_plan_id":"cebpf4jnsgd1na2vs0mg"},{"bike_id":"28ccb807-7762-4922-bf94-0bc4459d2c87","system_id":"levelo_inurba_marseille","lat":43.323654,"lon":5.367634,"is_reserved":false,"is_disabled":false,"rental_uris":{"android":"levelo://app?vid=28ccb807-7762-4922-bf94-0bc4459d2c87","ios":"levelo://app?vid=28ccb807-7762-4922-bf94-0bc4459d2c87"},"vehicle_type_id":"4","last_reported":1746238939,"current_range_meters":22800,"station_id":"ce4bhsh2rcd13ifvqi2g","pricing_plan_id":"cebpf4jnsgd1na2vs0mg"},{"bike_id":"a3f87c15-8001-4dd3-8767-39432dfaf4c4","system_id":"levelo_inurba_marseille","lat":43.31392,"lon":5.36745,"is_reserved":false,"is_disabled":false,"rental_uris":{"android":"levelo://app?vid=a3f87c15-8001-4dd3-8767-39432dfaf4c4","ios":"levelo://app?vid=a3f87c15-8001-4dd3-8767-39432dfaf4c4"},"vehicle_type_id":"4","last_reported":1746238939,"current_range_meters":23200,"station_id":"","pricing_plan_id":"cebpf4jnsgd1na2vs0mg"},{"bike_id":"249dbb21-dfe4-4dd5-9e8c-27a5d98cb11a","system_id":"levelo_inurba_marseille","lat":43.310699,"lon":5.38351,"is_reserved":false,"is_disabled":false,"rental_uris":{"android":"levelo://app?vid=249dbb21-dfe4-4dd5-9e8c-27a5d98cb11a","ios":"levelo://app?vid=249dbb21-dfe4-4dd5-9e8c-27a5d98cb11a"},"vehicle_type_id":"4","last_reported":1746238939,"current_range_meters":23200,"station_id":"ce4bgv92rcd13ifvqcr0","pricing_plan_id":"cebpf4jnsgd1na2vs0mg"},{"bike_id":"730e3c9f-f6e8-4137-b97a-a7ed4689459f","system_id":"levelo_inurba_marseille","lat":43.29296,"lon":5.40126,"is_reserved":false,"is_disabled":false,"rental_uris":{"android":"levelo://app?vid=730e3c9f-f6e8-4137-b97a-a7ed4689459f","ios":"levelo://app?vid=730e3c9f-f6e8-4137-b97a-a7ed4689459f"},"vehicle_type_id":"4","last_reported":1746238939,"current_range_meters":23200,"station_id":"ce4bh312rcd13ifvqdk0","pricing_plan_id":"cebpf4jnsgd1na2vs0mg"},{"bike_id":"40870fc2-5254-446b-bf84-6c348a6e1e54","system_id":"levelo_inurba_marseille","lat":43.28708,"lon":5.37419,"is_reserved":false,"is_disabled":false,"rental_uris":{"android":"levelo://app?vid=40870fc2-5254-446b-bf84-6c348a6e1e54","ios":"levelo://app?vid=40870fc2-5254-446b-bf84-6c348a6e1e54"},"vehicle_type_id":"4","last_reported":1746238939,"current_range_meters":23200,"station_id":"ce4bh3p2rcd13ifvqdq0","pricing_plan_id":"cebpf4jnsgd1na2vs0mg"},{"bike_id":"fc67d40d-78e3-42a0-bdaa-eb1e02dacfd0","system_id":"levelo_inurba_marseille","lat":43.28729,"lon":5.36092,"is_reserved":false,"is_disabled":false,"rental_uris":{"android":"levelo://app?vid=fc67d40d-78e3-42a0-bdaa-eb1e02dacfd0","ios":"levelo://app?vid=fc67d40d-78e3-42a0-bdaa-eb1e02dacfd0"},"vehicle_type_id":"4","last_reported":1746238939,"current_range_meters":23200,"station_id":"cki0cbj6b192h4jlfktg","pricing_plan_id":"cebpf4jnsgd1na2vs0mg"},{"bike_id":"0db88102-af8b-44ef-a3e5-a17f53a559ac","system_id":"levelo_inurba_marseille","lat":43.31361,"lon":5.38542,"is_reserved":false,"is_disabled":false,"rental_uris":{"android":"levelo://app?vid=0db88102-af8b-44ef-a3e5-a17f53a559ac","ios":"levelo://app?vid=0db88102-af8b-44ef-a3e5-a17f53a559ac"},"vehicle_type_id":"4","last_reported":1746238939,"current_range_meters":24000,"station_id":"ce4bgt92rcd13ifvqcf0","pricing_plan_id":"cebpf4jnsgd1na2vs0mg"},{"bike_id":"0b04e028-a77b-4008-a5af-3ca77eb4945a","system_id":"levelo_inurba_marseille","lat":43.30882,"lon":5.39648,"is_reserved":false,"is_disabled":false,"rental_uris":{"android":"levelo://app?vid=0b04e028-a77b-4008-a5af-3ca77eb4945a","ios":"levelo://app?vid=0b04e028-a77b-4008-a5af-3ca77eb4945a"},"vehicle_type_id":"4","last_reported":1746238939,"current_range_meters":24000,"station_id":"ce4bh012rcd13ifvqcv0","pricing_plan_id":"cebpf4jnsgd1na2vs0mg"},{"bike_id":"0f7bf76e-5241-4e24-8d72-1c6af1c9204c","system_id":"levelo_inurba_marseille","lat":43.28106,"lon":5.37849,"is_reserved":false,"is_disabled":false,"rental_uris":{"android":"levelo://app?vid=0f7bf76e-5241-4e24-8d72-1c6af1c9204c","ios":"levelo://app?vid=0f7bf76e-5241-4e24-8d72-1c6af1c9204c"},"vehicle_type_id":"4","last_reported":1746238939,"current_range_meters":24000,"station_id":"ce4bha12rcd13ifvqee0","pricing_plan_id":"cebpf4jnsgd1na2vs0mg"},{"bike_id":"252c01e1-5b53-41d4-b443-f783a010ee95","system_id":"levelo_inurba_marseille","lat":43.30143,"lon":5.38788,"is_reserved":false,"is_disabled":false,"rental_uris":{"android":"levelo://app?vid=252c01e1-5b53-41d4-b443-f783a010ee95","ios":"levelo://app?vid=252c01e1-5b53-41d4-b443-f783a010ee95"},"vehicle_type_id":"4","last_reported":1746238939,"current_range_meters":24400,"station_id":"ce4bghh2rcd13ifvqb60","pricing_plan_id":"cebpf4jnsgd1na2vs0mg"},{"bike_id":"85f24af0-dee4-49a1-a83b-a442e9bc4f75","system_id":"levelo_inurba_marseille","lat":43.308027,"lon":5.381743,"is_reserved":false,"is_disabled":false,"rental_uris":{"android":"levelo://app?vid=85f24af0-dee4-49a1-a83b-a442e9bc4f75","ios":"levelo://app?vid=85f24af0-dee4-49a1-a83b-a442e9bc4f75"},"vehicle_type_id":"4","last_reported":1746238939,"current_range_meters":24400,"station_id":"ce4bgt12rcd13ifvqce0","pricing_plan_id":"cebpf4jnsgd1na2vs0mg"},{"bike_id":"56d1ed5c-3fb3-4b51-9d85-7e73c15c2c20","system_id":"levelo_inurba_marseille","lat":43.31365,"lon":5.38495,"is_reserved":false,"is_disabled":false,"rental_uris":{"android":"levelo://app?vid=56d1ed5c-3fb3-4b51-9d85-7e73c15c2c20","ios":"levelo://app?vid=56d1ed5c-3fb3-4b51-9d85-7e73c15c2c20"},"vehicle_type_id":"4","last_reported":1746238939,"current_range_meters":24400,"station_id":"ce4bgt92rcd13ifvqcf0","pricing_plan_id":"cebpf4jnsgd1na2vs0mg"},{"bike_id":"225bfeb7-740c-455d-979c-c5b312fc18d2","system_id":"levelo_inurba_marseille","lat":43.30258,"lon":5.40054,"is_reserved":false,"is_disabled":false,"rental_uris":{"android":"levelo://app?vid=225bfeb7-740c-455d-979c-c5b312fc18d2","ios":"levelo://app?vid=225bfeb7-740c-455d-979c-c5b312fc18d2"},"vehicle_type_id":"4","last_reported":1746238939,"current_range_meters":24400,"station_id":"ce4bgvh2rcd13ifvqcs0","pricing_plan_id":"cebpf4jnsgd1na2vs0mg"},{"bike_id":"2861b519-a1bd-4a39-b8f3-a3b170eed439","system_id":"levelo_inurba_marseille","lat":43.3033,"lon":5.40435,"is_reserved":false,"is_disabled":false,"rental_uris":{"android":"levelo://app?vid=2861b519-a1bd-4a39-b8f3-a3b170eed439","ios":"levelo://app?vid=2861b519-a1bd-4a39-b8f3-a3b170eed439"},"vehicle_type_id":"4","last_reported":1746238939,"current_range_meters":24400,"station_id":"ce4bh012rcd13ifvqd10","pricing_plan_id":"cebpf4jnsgd1na2vs0mg"},{"bike_id":"b897a0de-bf38-45d2-99be-eee2277da215","system_id":"levelo_inurba_marseille","lat":43.2926,"lon":5.40913,"is_reserved":false,"is_disabled":false,"rental_uris":{"android":"levelo://app?vid=b897a0de-bf38-45d2-99be-eee2277da215","ios":"levelo://app?vid=b897a0de-bf38-45d2-99be-eee2277da215"},"vehicle_type_id":"4","last_reported":1746238939,"current_range_meters":24400,"station_id":"ce4bh192rcd13ifvqdc0","pricing_plan_id":"cebpf4jnsgd1na2vs0mg"},{"bike_id":"6acc096f-014e-4b53-a342-ff428eda83fd","system_id":"levelo_inurba_marseille","lat":43.2841,"lon":5.37531,"is_reserved":false,"is_disabled":false,"rental_uris":{"android":"levelo://app?vid=6acc096f-014e-4b53-a342-ff428eda83fd","ios":"levelo://app?vid=6acc096f-014e-4b53-a342-ff428eda83fd"},"vehicle_type_id":"4","last_reported":1746238939,"current_range_meters":24400,"station_id":"ce4bh412rcd13ifvqds0","pricing_plan_id":"cebpf4jnsgd1na2vs0mg"},{"bike_id":"5d2238d0-ebee-4aa7-9421-cb75f6c46fa5","system_id":"levelo_inurba_marseille","lat":43.29215,"lon":5.36048,"is_reserved":false,"is_disabled":false,"rental_uris":{"android":"levelo://app?vid=5d2238d0-ebee-4aa7-9421-cb75f6c46fa5","ios":"levelo://app?vid=5d2238d0-ebee-4aa7-9421-cb75f6c46fa5"},"vehicle_type_id":"4","last_reported":1746238939,"current_range_meters":24400,"station_id":"ce4bhbh2rcd13ifvqeqg","pricing_plan_id":"cebpf4jnsgd1na2vs0mg"},{"bike_id":"38b61f27-5056-412a-83a3-98aec2095ab0","system_id":"levelo_inurba_marseille","lat":43.251151,"lon":5.403234,"is_reserved":false,"is_disabled":false,"rental_uris":{"android":"levelo://app?vid=38b61f27-5056-412a-83a3-98aec2095ab0","ios":"levelo://app?vid=38b61f27-5056-412a-83a3-98aec2095ab0"},"vehicle_type_id":"4","last_reported":1746238939,"current_range_meters":24400,"station_id":"ce4bhlh2rcd13ifvqgig","pricing_plan_id":"cebpf4jnsgd1na2vs0mg"},{"bike_id":"6f93ff67-b4a8-49d4-8253-cbbf1ee569d9","system_id":"levelo_inurba_marseille","lat":43.28607,"lon":5.37076,"is_reserved":false,"is_disabled":false,"rental_uris":{"android":"levelo://app?vid=6f93ff67-b4a8-49d4-8253-cbbf1ee569d9","ios":"levelo://app?vid=6f93ff67-b4a8-49d4-8253-cbbf1ee569d9"},"vehicle_type_id":"4","last_reported":1746238939,"current_range_meters":24400,"station_id":"ce4bht12rcd13ifvqi60","pricing_plan_id":"cebpf4jnsgd1na2vs0mg"},{"bike_id":"012c3de1-8d6c-4e52-8ab8-14b2f261a6bc","system_id":"levelo_inurba_marseille","lat":43.30921,"lon":5.40143,"is_reserved":false,"is_disabled":false,"rental_uris":{"android":"levelo://app?vid=012c3de1-8d6c-4e52-8ab8-14b2f261a6bc","ios":"levelo://app?vid=012c3de1-8d6c-4e52-8ab8-14b2f261a6bc"},"vehicle_type_id":"4","last_reported":1746238939,"current_range_meters":24800,"station_id":"ce4bgvp2rcd13ifvqct0","pricing_plan_id":"cebpf4jnsgd1na2vs0mg"},{"bike_id":"af8c6d88-8a86-438e-a15d-26c734b1c7b2","system_id":"levelo_inurba_marseille","lat":43.23148,"lon":5.43728,"is_reserved":false,"is_disabled":false,"rental_uris":{"android":"levelo://app?vid=af8c6d88-8a86-438e-a15d-26c734b1c7b2","ios":"levelo://app?vid=af8c6d88-8a86-438e-a15d-26c734b1c7b2"},"vehicle_type_id":"4","last_reported":1746238939,"current_range_meters":24800,"station_id":"ce4bhmp2rcd13ifvqgog","pricing_plan_id":"cebpf4jnsgd1na2vs0mg"},{"bike_id":"4e65a762-e06d-4c29-b9ea-fd31f6fe0be2","system_id":"levelo_inurba_marseille","lat":43.28608,"lon":5.37078,"is_reserved":false,"is_disabled":false,"rental_uris":{"android":"levelo://app?vid=4e65a762-e06d-4c29-b9ea-fd31f6fe0be2","ios":"levelo://app?vid=4e65a762-e06d-4c29-b9ea-fd31f6fe0be2"},"vehicle_type_id":"4","last_reported":1746238939,"current_range_meters":24800,"station_id":"ce4bht12rcd13ifvqi60","pricing_plan_id":"cebpf4jnsgd1na2vs0mg"},{"bike_id":"cbf7a679-e703-4100-88d8-ce6bf9fb3b68","system_id":"levelo_inurba_marseille","lat":43.30903,"lon":5.39716,"is_reserved":false,"is_disabled":false,"rental_uris":{"android":"levelo://app?vid=cbf7a679-e703-4100-88d8-ce6bf9fb3b68","ios":"levelo://app?vid=cbf7a679-e703-4100-88d8-ce6bf9fb3b68"},"vehicle_type_id":"4","last_reported":1746238939,"current_range_meters":25200,"station_id":"ce4bh012rcd13ifvqcv0","pricing_plan_id":"cebpf4jnsgd1na2vs0mg"},{"bike_id":"27329307-8fe2-46cc-aa15-1ac8e617fe6e","system_id":"levelo_inurba_marseille","lat":43.2926,"lon":5.40915,"is_reserved":false,"is_disabled":false,"rental_uris":{"android":"levelo://app?vid=27329307-8fe2-46cc-aa15-1ac8e617fe6e","ios":"levelo://app?vid=27329307-8fe2-46cc-aa15-1ac8e617fe6e"},"vehicle_type_id":"4","last_reported":1746238939,"current_range_meters":25200,"station_id":"ce4bh192rcd13ifvqdc0","pricing_plan_id":"cebpf4jnsgd1na2vs0mg"},{"bike_id":"31487564-ab27-4b87-aa4c-68e064ea0dd2","system_id":"levelo_inurba_marseille","lat":43.279695,"lon":5.387495,"is_reserved":false,"is_disabled":false,"rental_uris":{"android":"levelo://app?vid=31487564-ab27-4b87-aa4c-68e064ea0dd2","ios":"levelo://app?vid=31487564-ab27-4b87-aa4c-68e064ea0dd2"},"vehicle_type_id":"4","last_reported":1746238939,"current_range_meters":25200,"station_id":"ce4bhg12rcd13ifvqf80","pricing_plan_id":"cebpf4jnsgd1na2vs0mg"},{"bike_id":"dc503b06-bece-4e12-b003-42852ad2de4c","system_id":"levelo_inurba_marseille","lat":43.22935,"lon":5.35375,"is_reserved":false,"is_disabled":false,"rental_uris":{"android":"levelo://app?vid=dc503b06-bece-4e12-b003-42852ad2de4c","ios":"levelo://app?vid=dc503b06-bece-4e12-b003-42852ad2de4c"},"vehicle_type_id":"4","last_reported":1746238939,"current_range_meters":25200,"station_id":"cpo3532slgdg3j2ikp40","pricing_plan_id":"cebpf4jnsgd1na2vs0mg"},{"bike_id":"85a730b5-c28f-4c6c-8e3f-734b4281147b","system_id":"levelo_inurba_marseille","lat":43.31541,"lon":5.38985,"is_reserved":false,"is_disabled":false,"rental_uris":{"android":"levelo://app?vid=85a730b5-c28f-4c6c-8e3f-734b4281147b","ios":"levelo://app?vid=85a730b5-c28f-4c6c-8e3f-734b4281147b"},"vehicle_type_id":"4","last_reported":1746238939,"current_range_meters":25600,"station_id":"","pricing_plan_id":"cebpf4jnsgd1na2vs0mg"},{"bike_id":"6e401acb-cbcb-4322-9c9d-9735f27c2ab0","system_id":"levelo_inurba_marseille","lat":43.310704,"lon":5.383531,"is_reserved":false,"is_disabled":false,"rental_uris":{"android":"levelo://app?vid=6e401acb-cbcb-4322-9c9d-9735f27c2ab0","ios":"levelo://app?vid=6e401acb-cbcb-4322-9c9d-9735f27c2ab0"},"vehicle_type_id":"4","last_reported":1746238939,"current_range_meters":25600,"station_id":"ce4bgv92rcd13ifvqcr0","pricing_plan_id":"cebpf4jnsgd1na2vs0mg"},{"bike_id":"c8d7989c-9f94-4726-b01b-41d17f0a7ada","system_id":"levelo_inurba_marseille","lat":43.30648,"lon":5.40079,"is_reserved":false,"is_disabled":false,"rental_uris":{"android":"levelo://app?vid=c8d7989c-9f94-4726-b01b-41d17f0a7ada","ios":"levelo://app?vid=c8d7989c-9f94-4726-b01b-41d17f0a7ada"},"vehicle_type_id":"4","last_reported":1746238939,"current_range_meters":25600,"station_id":"ce4bh112rcd13ifvqda0","pricing_plan_id":"cebpf4jnsgd1na2vs0mg"},{"bike_id":"a84aef65-618c-40b7-a5b5-538aae86195e","system_id":"levelo_inurba_marseille","lat":43.28571,"lon":5.39492,"is_reserved":false,"is_disabled":false,"rental_uris":{"android":"levelo://app?vid=a84aef65-618c-40b7-a5b5-538aae86195e","ios":"levelo://app?vid=a84aef65-618c-40b7-a5b5-538aae86195e"},"vehicle_type_id":"4","last_reported":1746238939,"current_range_meters":25600,"station_id":"ce4bh292rcd13ifvqdg0","pricing_plan_id":"cebpf4jnsgd1na2vs0mg"},{"bike_id":"e3528426-d3d0-4fcf-9966-1736144fcb78","system_id":"levelo_inurba_marseille","lat":43.25106,"lon":5.40323,"is_reserved":false,"is_disabled":false,"rental_uris":{"android":"levelo://app?vid=e3528426-d3d0-4fcf-9966-1736144fcb78","ios":"levelo://app?vid=e3528426-d3d0-4fcf-9966-1736144fcb78"},"vehicle_type_id":"4","last_reported":1746238939,"current_range_meters":25600,"station_id":"ce4bhlh2rcd13ifvqgig","pricing_plan_id":"cebpf4jnsgd1na2vs0mg"},{"bike_id":"abfad075-7596-4ab7-993d-707f085a560c","system_id":"levelo_inurba_marseille","lat":43.30883,"lon":5.39641,"is_reserved":false,"is_disabled":false,"rental_uris":{"android":"levelo://app?vid=abfad075-7596-4ab7-993d-707f085a560c","ios":"levelo://app?vid=abfad075-7596-4ab7-993d-707f085a560c"},"vehicle_type_id":"4","last_reported":1746238939,"current_range_meters":26800,"station_id":"ce4bh012rcd13ifvqcv0","pricing_plan_id":"cebpf4jnsgd1na2vs0mg"},{"bike_id":"1cee4c68-db8e-4918-af27-f309760d0f49","system_id":"levelo_inurba_marseille","lat":43.28474,"lon":5.3589,"is_reserved":false,"is_disabled":false,"rental_uris":{"android":"levelo://app?vid=1cee4c68-db8e-4918-af27-f309760d0f49","ios":"levelo://app?vid=1cee4c68-db8e-4918-af27-f309760d0f49"},"vehicle_type_id":"4","last_reported":1746238939,"current_range_meters":26800,"station_id":"ce4bhah2rcd13ifvqei0","pricing_plan_id":"cebpf4jnsgd1na2vs0mg"},{"bike_id":"614fa975-1efe-492f-8005-c13db1ebd2df","system_id":"levelo_inurba_marseille","lat":43.2756,"lon":5.38424,"is_reserved":false,"is_disabled":false,"rental_uris":{"android":"levelo://app?vid=614fa975-1efe-492f-8005-c13db1ebd2df","ios":"levelo://app?vid=614fa975-1efe-492f-8005-c13db1ebd2df"},"vehicle_type_id":"4","last_reported":1746238939,"current_range_meters":26800,"station_id":"ce4bhh92rcd13ifvqfi0","pricing_plan_id":"cebpf4jnsgd1na2vs0mg"},{"bike_id":"2f53e792-5ff5-49c5-841c-a14bb11917d1","system_id":"levelo_inurba_marseille","lat":43.2465,"lon":5.38168,"is_reserved":false,"is_disabled":false,"rental_uris":{"android":"levelo://app?vid=2f53e792-5ff5-49c5-841c-a14bb11917d1","ios":"levelo://app?vid=2f53e792-5ff5-49c5-841c-a14bb11917d1"},"vehicle_type_id":"4","last_reported":1746238939,"current_range_meters":26800,"station_id":"ce4bhih2rcd13ifvqfr0","pricing_plan_id":"cebpf4jnsgd1na2vs0mg"},{"bike_id":"46582d02-0fcf-41e2-8c8c-3a1c1766aafa","system_id":"levelo_inurba_marseille","lat":43.23147,"lon":5.43744,"is_reserved":false,"is_disabled":false,"rental_uris":{"android":"levelo://app?vid=46582d02-0fcf-41e2-8c8c-3a1c1766aafa","ios":"levelo://app?vid=46582d02-0fcf-41e2-8c8c-3a1c1766aafa"},"vehicle_type_id":"4","last_reported":1746238939,"current_range_meters":26800,"station_id":"ce4bhmp2rcd13ifvqgog","pricing_plan_id":"cebpf4jnsgd1na2vs0mg"},{"bike_id":"e3d6e32b-9dc6-4a75-a56f-32d8c5570156","system_id":"levelo_inurba_marseille","lat":43.24154,"lon":5.39749,"is_reserved":false,"is_disabled":false,"rental_uris":{"android":"levelo://app?vid=e3d6e32b-9dc6-4a75-a56f-32d8c5570156","ios":"levelo://app?vid=e3d6e32b-9dc6-4a75-a56f-32d8c5570156"},"vehicle_type_id":"4","last_reported":1746238939,"current_range_meters":26800,"station_id":"ce4bhn12rcd13ifvqgpg","pricing_plan_id":"cebpf4jnsgd1na2vs0mg"},{"bike_id":"a61d4a95-4e43-4827-a24d-0777ac2aca55","system_id":"levelo_inurba_marseille","lat":43.32285,"lon":5.38274,"is_reserved":false,"is_disabled":false,"rental_uris":{"android":"levelo://app?vid=a61d4a95-4e43-4827-a24d-0777ac2aca55","ios":"levelo://app?vid=a61d4a95-4e43-4827-a24d-0777ac2aca55"},"vehicle_type_id":"4","last_reported":1746238939,"current_range_meters":26800,"station_id":"ce4bhr12rcd13ifvqhqg","pricing_plan_id":"cebpf4jnsgd1na2vs0mg"},{"bike_id":"98c18424-e0d8-45c0-8084-08e1fb42eb19","system_id":"levelo_inurba_marseille","lat":43.29945,"lon":5.43723,"is_reserved":false,"is_disabled":false,"rental_uris":{"android":"levelo://app?vid=98c18424-e0d8-45c0-8084-08e1fb42eb19","ios":"levelo://app?vid=98c18424-e0d8-45c0-8084-08e1fb42eb19"},"vehicle_type_id":"4","last_reported":1746238939,"current_range_meters":27200,"station_id":"","pricing_plan_id":"cebpf4jnsgd1na2vs0mg"},{"bike_id":"bdb3b3b3-25dd-4686-9d62-67a049c72999","system_id":"levelo_inurba_marseille","lat":43.31117,"lon":5.37776,"is_reserved":false,"is_disabled":false,"rental_uris":{"android":"levelo://app?vid=bdb3b3b3-25dd-4686-9d62-67a049c72999","ios":"levelo://app?vid=bdb3b3b3-25dd-4686-9d62-67a049c72999"},"vehicle_type_id":"4","last_reported":1746238939,"current_range_meters":27200,"station_id":"ce4bgt92rcd13ifvqcg0","pricing_plan_id":"cebpf4jnsgd1na2vs0mg"},{"bike_id":"99c9598d-7ffd-41ca-ac03-f00002f01d11","system_id":"levelo_inurba_marseille","lat":43.30914,"lon":5.40187,"is_reserved":false,"is_disabled":false,"rental_uris":{"android":"levelo://app?vid=99c9598d-7ffd-41ca-ac03-f00002f01d11","ios":"levelo://app?vid=99c9598d-7ffd-41ca-ac03-f00002f01d11"},"vehicle_type_id":"4","last_reported":1746238939,"current_range_meters":27200,"station_id":"ce4bgvp2rcd13ifvqct0","pricing_plan_id":"cebpf4jnsgd1na2vs0mg"},{"bike_id":"efe4c5b3-8314-410b-9d3e-8c0096c5cc12","system_id":"levelo_inurba_marseille","lat":43.26071,"lon":5.39402,"is_reserved":false,"is_disabled":false,"rental_uris":{"android":"levelo://app?vid=efe4c5b3-8314-410b-9d3e-8c0096c5cc12","ios":"levelo://app?vid=efe4c5b3-8314-410b-9d3e-8c0096c5cc12"},"vehicle_type_id":"4","last_reported":1746238939,"current_range_meters":27200,"station_id":"ce4bhh92rcd13ifvqfj0","pricing_plan_id":"cebpf4jnsgd1na2vs0mg"},{"bike_id":"1d8873ce-25e3-4d79-bd5b-bbbae764e6bd","system_id":"levelo_inurba_marseille","lat":43.23195,"lon":5.39961,"is_reserved":false,"is_disabled":false,"rental_uris":{"android":"levelo://app?vid=1d8873ce-25e3-4d79-bd5b-bbbae764e6bd","ios":"levelo://app?vid=1d8873ce-25e3-4d79-bd5b-bbbae764e6bd"},"vehicle_type_id":"4","last_reported":1746238939,"current_range_meters":27200,"station_id":"ce4bhn12rcd13ifvqgqg","pricing_plan_id":"cebpf4jnsgd1na2vs0mg"},{"bike_id":"5ff1f33a-e4c8-4d9b-9b15-e38ca301d528","system_id":"levelo_inurba_marseille","lat":43.27507,"lon":5.42477,"is_reserved":false,"is_disabled":false,"rental_uris":{"android":"levelo://app?vid=5ff1f33a-e4c8-4d9b-9b15-e38ca301d528","ios":"levelo://app?vid=5ff1f33a-e4c8-4d9b-9b15-e38ca301d528"},"vehicle_type_id":"4","last_reported":1746238939,"current_range_meters":27200,"station_id":"ce4bhn92rcd13ifvqgrg","pricing_plan_id":"cebpf4jnsgd1na2vs0mg"},{"bike_id":"5ce67c7c-fa63-4eb0-a954-5884cf1b1150","system_id":"levelo_inurba_marseille","lat":43.36052,"lon":5.44297,"is_reserved":false,"is_disabled":false,"rental_uris":{"android":"levelo://app?vid=5ce67c7c-fa63-4eb0-a954-5884cf1b1150","ios":"levelo://app?vid=5ce67c7c-fa63-4eb0-a954-5884cf1b1150"},"vehicle_type_id":"4","last_reported":1746238939,"current_range_meters":27600,"station_id":"","pricing_plan_id":"cebpf4jnsgd1na2vs0mg"},{"bike_id":"ca2d2f8e-8c7f-4395-bd58-271f94f85d1e","system_id":"levelo_inurba_marseille","lat":43.282676,"lon":5.361428,"is_reserved":false,"is_disabled":false,"rental_uris":{"android":"levelo://app?vid=ca2d2f8e-8c7f-4395-bd58-271f94f85d1e","ios":"levelo://app?vid=ca2d2f8e-8c7f-4395-bd58-271f94f85d1e"},"vehicle_type_id":"4","last_reported":1746238939,"current_range_meters":27600,"station_id":"","pricing_plan_id":"cebpf4jnsgd1na2vs0mg"},{"bike_id":"3fa4ad01-03b6-4b9c-8f0d-6615df4d777f","system_id":"levelo_inurba_marseille","lat":43.307982,"lon":5.381539,"is_reserved":false,"is_disabled":false,"rental_uris":{"android":"levelo://app?vid=3fa4ad01-03b6-4b9c-8f0d-6615df4d777f","ios":"levelo://app?vid=3fa4ad01-03b6-4b9c-8f0d-6615df4d777f"},"vehicle_type_id":"4","last_reported":1746238939,"current_range_meters":27600,"station_id":"ce4bgt12rcd13ifvqce0","pricing_plan_id":"cebpf4jnsgd1na2vs0mg"},{"bike_id":"4aac9f0b-291c-4336-bd92-71333e43923e","system_id":"levelo_inurba_marseille","lat":43.302193,"lon":5.394841,"is_reserved":false,"is_disabled":false,"rental_uris":{"android":"levelo://app?vid=4aac9f0b-291c-4336-bd92-71333e43923e","ios":"levelo://app?vid=4aac9f0b-291c-4336-bd92-71333e43923e"},