{"last_updated":1758305647,"ttl":60,"version":"2.2","data":{"bikes":[{"bike_id":"0178a6f1-a0db-4c89-802a-9e6800de42b8","system_id":"levelo_inurba_marseille","lat":43.286116,"lon":5.370667,"is_reserved":false,"is_disabled":false,"rental_uris":{"android":"levelo://app?vid=0178a6f1-a0db-4c89-802a-9e6800de42b8","ios":"levelo://app?vid=0178a6f1-a0db-4c89-802a-9e6800de42b8"},"vehicle_type_id":"4","last_reported":1758305647,"current_range_meters":2800,"station_id":"ce4bht12rcd13ifvqi60","pricing_plan_id":"cebpf4jnsgd1na2vs0mg"},{"bike_id":"c9795ef1-d10e-4c99-b949-a6303c6a0d2b","system_id":"levelo_inurba_marseille","lat":43.29527,"lon":5.38616,"is_reserved":false,"is_disabled":false,"rental_uris":{"android":"levelo://app?vid=c9795ef1-d10e-4c99-b949-a6303c6a0d2b","ios":"levelo://app?vid=c9795ef1-d10e-4c99-b949-a6303c6a0d2b"},"vehicle_type_id":"4","last_reported":1758305647,"current_range_meters":2800,"station_id":"ce4bgih2rcd13ifvqba0","pricing_plan_id":"cebpf4jnsgd1na2vs0mg"},{"bike_id":"6f2bd437-51a7-4cdc-abb6-82d66756d896","system_id":"levelo_inurba_marseille","lat":43.27071,"lon":5.42279,"is_reserved":false,"is_disabled":false,"rental_uris":{"android":"levelo://app?vid=6f2bd437-51a7-4cdc-abb6-82d66756d896","ios":"levelo://app?vid=6f2bd437-51a7-4cdc-abb6-82d66756d896"},"vehicle_type_id":"4","last_reported":1758305647,"current_range_meters":2800,"station_id":"ce4bhk92rcd13ifvqgb0","pricing_plan_id":"cebpf4jnsgd1na2vs0mg"},{"bike_id":"cd53bc9a-475c-4508-86a9-a6fb2fff9fe3","system_id":"levelo_inurba_marseille","lat":43.295285,"lon":5.385441,"is_reserved":false,"is_disabled":false,"rental_uris":{"android":"levelo://app?vid=cd53bc9a-475c-4508-86a9-a6fb2fff9fe3","ios":"levelo://app?vid=cd53bc9a-475c-4508-86a9-a6fb2fff9fe3"},"vehicle_type_id":"4","last_reported":1758305647,"current_range_meters":3200,"station_id":"ce4bgih2rcd13ifvqba0","pricing_plan_id":"cebpf4jnsgd1na2vs0mg"},{"bike_id":"8bb3f4ff-1371-48c0-a460-34642be2ea52","system_id":"levelo_inurba_marseille","lat":43.28991,"lon":5.37822,"is_reserved":false,"is_disabled":false,"rental_uris":{"android":"levelo://app?vid=8bb3f4ff-1371-48c0-a460-34642be2ea52","ios":"levelo://app?vid=8bb3f4ff-1371-48c0-a460-34642be2ea52"},"vehicle_type_id":"4","last_reported":1758305647,"current_range_meters":2800,"station_id":"ce4bh9p2rcd13ifvqed0","pricing_plan_id":"cebpf4jnsgd1na2vs0mg"},{"bike_id":"6a8b12d1-6fce-43b9-9abf-29648b2dfb32","system_id":"levelo_inurba_marseille","lat":43.26548,"lon":5.37312,"is_reserved":false,"is_disabled":true,"rental_uris":{"android":"levelo://app?vid=6a8b12d1-6fce-43b9-9abf-29648b2dfb32","ios":"levelo://app?vid=6a8b12d1-6fce-43b9-9abf-29648b2dfb32"},"vehicle_type_id":"4","last_reported":1758305647,"current_range_meters":3200,"station_id":"ce4bhg12rcd13ifvqf70","pricing_plan_id":"cebpf4jnsgd1na2vs0mg"},{"bike_id":"c3c9551a-6b8e-438d-9004-f26745ebc8ef","system_id":"levelo_inurba_marseille","lat":43.309376,"lon":5.401387,"is_reserved":false,"is_disabled":false,"rental_uris":{"android":"levelo://app?vid=c3c9551a-6b8e-438d-9004-f26745ebc8ef","ios":"levelo://app?vid=c3c9551a-6b8e-438d-9004-f26745ebc8ef"},"vehicle_type_id":"4","last_reported":1758305647,"current_range_meters":3200,"station_id":"ce4bgvp2rcd13ifvqct0","pricing_plan_id":"cebpf4jnsgd1na2vs0mg"},{"bike_id":"4fba6559-b5ee-4f9b-9dff-ad3b30d5c76c","system_id":"levelo_inurba_marseille","lat":43.292752,"lon":5.408804,"is_reserved":false,"is_disabled":false,"rental_uris":{"android":"levelo://app?vid=4fba6559-b5ee-4f9b-9dff-ad3b30d5c76c","ios":"levelo://app?vid=4fba6559-b5ee-4f9b-9dff-ad3b30d5c76c"},"vehicle_type_id":"4","last_reported":1758305647,"current_range_meters":3600,"station_id":"ce4bh192rcd13ifvqdc0","pricing_plan_id":"cebpf4jnsgd1na2vs0mg"},{"bike_id":"b9dd5e56-a6d7-4a33-b426-bfe4de4f472a","system_id":"levelo_inurba_marseille","lat":43.29261,"lon":5.3845,"is_reserved":false,"is_disabled":false,"rental_uris":{"android":"levelo://app?vid=b9dd5e56-a6d7-4a33-b426-bfe4de4f472a","ios":"levelo://app?vid=b9dd5e56-a6d7-4a33-b426-bfe4de4f472a"},"vehicle_type_id":"4","last_reported":1758305647,"current_range_meters":3600,"station_id":"ce4bh692rcd13ifvqea0","pricing_plan_id":"cebpf4jnsgd1na2vs0mg"},{"bike_id":"d4e42fed-b7d1-4743-b033-42e94790e119","system_id":"levelo_inurba_marseille","lat":43.24039,"lon":5.37691,"is_reserved":false,"is_disabled":false,"rental_uris":{"android":"levelo://app?vid=d4e42fed-b7d1-4743-b033-42e94790e119","ios":"levelo://app?vid=d4e42fed-b7d1-4743-b033-42e94790e119"},"vehicle_type_id":"4","last_reported":1758305647,"current_range_meters":4000,"station_id":"","pricing_plan_id":"cebpf4jnsgd1na2vs0mg"},{"bike_id":"7b51a36e-d3c1-400a-a130-b00f35dc0b10","system_id":"levelo_inurba_marseille","lat":43.225343,"lon":5.348357,"is_reserved":false,"is_disabled":false,"rental_uris":{"android":"levelo://app?vid=7b51a36e-d3c1-400a-a130-b00f35dc0b10","ios":"levelo://app?vid=7b51a36e-d3c1-400a-a130-b00f35dc0b10"},"vehicle_type_id":"4","last_reported":1758305647,"current_range_meters":4000,"station_id":"","pricing_plan_id":"cebpf4jnsgd1na2vs0mg"},{"bike_id":"2c11e5f9-3b23-4aa5-b16d-892dc51abc6a","system_id":"levelo_inurba_marseille","lat":43.29274,"lon":5.36851,"is_reserved":false,"is_disabled":false,"rental_uris":{"android":"levelo://app?vid=2c11e5f9-3b23-4aa5-b16d-892dc51abc6a","ios":"levelo://app?vid=2c11e5f9-3b23-4aa5-b16d-892dc51abc6a"},"vehicle_type_id":"4","last_reported":1758305647,"current_range_meters":4000,"station_id":"ce4bhbp2rcd13ifvqesg","pricing_plan_id":"cebpf4jnsgd1na2vs0mg"},{"bike_id":"359acfdd-6088-470c-a135-df2f79f8c3d6","system_id":"levelo_inurba_marseille","lat":43.2871,"lon":5.37944,"is_reserved":false,"is_disabled":false,"rental_uris":{"android":"levelo://app?vid=359acfdd-6088-470c-a135-df2f79f8c3d6","ios":"levelo://app?vid=359acfdd-6088-470c-a135-df2f79f8c3d6"},"vehicle_type_id":"4","last_reported":1758305647,"current_range_meters":4000,"station_id":"ce4bh9p2rcd13ifvqec0","pricing_plan_id":"cebpf4jnsgd1na2vs0mg"},{"bike_id":"059c0ba7-1dcb-4f29-8d05-6060640937cc","system_id":"levelo_inurba_marseille","lat":43.31053,"lon":5.37463,"is_reserved":false,"is_disabled":true,"rental_uris":{"android":"levelo://app?vid=059c0ba7-1dcb-4f29-8d05-6060640937cc","ios":"levelo://app?vid=059c0ba7-1dcb-4f29-8d05-6060640937cc"},"vehicle_type_id":"4","last_reported":1758305647,"current_range_meters":4400,"station_id":"","pricing_plan_id":"cebpf4jnsgd1na2vs0mg"},{"bike_id":"7918c8ea-f7f4-4157-b837-0cbefe2a77c9","system_id":"levelo_inurba_marseille","lat":43.27487,"lon":5.42469,"is_reserved":false,"is_disabled":true,"rental_uris":{"android":"levelo://app?vid=7918c8ea-f7f4-4157-b837-0cbefe2a77c9","ios":"levelo://app?vid=7918c8ea-f7f4-4157-b837-0cbefe2a77c9"},"vehicle_type_id":"4","last_reported":1758305647,"current_range_meters":4400,"station_id":"ce4bhn92rcd13ifvqgrg","pricing_plan_id":"cebpf4jnsgd1na2vs0mg"},{"bike_id":"bd90cbd4-c522-4940-b55e-d58749d6e2d7","system_id":"levelo_inurba_marseille","lat":43.260612,"lon":5.393998,"is_reserved":false,"is_disabled":false,"rental_uris":{"android":"levelo://app?vid=bd90cbd4-c522-4940-b55e-d58749d6e2d7","ios":"levelo://app?vid=bd90cbd4-c522-4940-b55e-d58749d6e2d7"},"vehicle_type_id":"4","last_reported":1758305647,"current_range_meters":4400,"station_id":"ce4bhh92rcd13ifvqfj0","pricing_plan_id":"cebpf4jnsgd1na2vs0mg"},{"bike_id":"3940e6dc-0ce3-4fe6-af95-1db436ac72b6","system_id":"levelo_inurba_marseille","lat":43.30303,"lon":5.36876,"is_reserved":false,"is_disabled":false,"rental_uris":{"android":"levelo://app?vid=3940e6dc-0ce3-4fe6-af95-1db436ac72b6","ios":"levelo://app?vid=3940e6dc-0ce3-4fe6-af95-1db436ac72b6"},"vehicle_type_id":"4","last_reported":1758305647,"current_range_meters":4400,"station_id":"ce4bgqh2rcd13ifvqc5g","pricing_plan_id":"cebpf4jnsgd1na2vs0mg"},{"bike_id":"a99928c2-ad73-4f8e-85ff-e0916a1c44d4","system_id":"levelo_inurba_marseille","lat":43.27077,"lon":5.42277,"is_reserved":false,"is_disabled":false,"rental_uris":{"android":"levelo://app?vid=a99928c2-ad73-4f8e-85ff-e0916a1c44d4","ios":"levelo://app?vid=a99928c2-ad73-4f8e-85ff-e0916a1c44d4"},"vehicle_type_id":"4","last_reported":1758305647,"current_range_meters":4400,"station_id":"ce4bhk92rcd13ifvqgb0","pricing_plan_id":"cebpf4jnsgd1na2vs0mg"},{"bike_id":"8be53c8c-f9d0-4375-8dc1-afd47afaa1b3","system_id":"levelo_inurba_marseille","lat":43.33022,"lon":5.39043,"is_reserved":false,"is_disabled":false,"rental_uris":{"android":"levelo://app?vid=8be53c8c-f9d0-4375-8dc1-afd47afaa1b3","ios":"levelo://app?vid=8be53c8c-f9d0-4375-8dc1-afd47afaa1b3"},"vehicle_type_id":"4","last_reported":1758305647,"current_range_meters":0,"station_id":"ce4bhr92rcd13ifvqhrg","pricing_plan_id":"cebpf4jnsgd1na2vs0mg"},{"bike_id":"45afe5f4-5cbe-49c2-a913-33c967100178","system_id":"levelo_inurba_marseille","lat":43.29776,"lon":5.380931,"is_reserved":false,"is_disabled":false,"rental_uris":{"android":"levelo://app?vid=45afe5f4-5cbe-49c2-a913-33c967100178","ios":"levelo://app?vid=45afe5f4-5cbe-49c2-a913-33c967100178"},"vehicle_type_id":"4","last_reported":1758305647,"current_range_meters":4400,"station_id":"","pricing_plan_id":"cebpf4jnsgd1na2vs0mg"},{"bike_id":"83fa453f-1a16-46b3-b2e1-c725ad9e7bf3","system_id":"levelo_inurba_marseille","lat":43.2882,"lon":5.3791,"is_reserved":false,"is_disabled":false,"rental_uris":{"android":"levelo://app?vid=83fa453f-1a16-46b3-b2e1-c725ad9e7bf3","ios":"levelo://app?vid=83fa453f-1a16-46b3-b2e1-c725ad9e7bf3"},"vehicle_type_id":"4","last_reported":1758305647,"current_range_meters":1600,"station_id":"","pricing_plan_id":"cebpf4jnsgd1na2vs0mg"},{"bike_id":"6e89d1ff-c084-48fc-a2d3-90498832234e","system_id":"levelo_inurba_marseille","lat":43.30738,"lon":5.3803,"is_reserved":false,"is_disabled":false,"rental_uris":{"android":"levelo://app?vid=6e89d1ff-c084-48fc-a2d3-90498832234e","ios":"levelo://app?vid=6e89d1ff-c084-48fc-a2d3-90498832234e"},"vehicle_type_id":"4","last_reported":1758305647,"current_range_meters":4800,"station_id":"","pricing_plan_id":"cebpf4jnsgd1na2vs0mg"},{"bike_id":"bbdb0b2f-bb6d-47cc-908f-75f08add81ea","system_id":"levelo_inurba_marseille","lat":43.29137,"lon":5.37193,"is_reserved":false,"is_disabled":false,"rental_uris":{"android":"levelo://app?vid=bbdb0b2f-bb6d-47cc-908f-75f08add81ea","ios":"levelo://app?vid=bbdb0b2f-bb6d-47cc-908f-75f08add81ea"},"vehicle_type_id":"4","last_reported":1758305647,"current_range_meters":4800,"station_id":"ce4bha92rcd13ifvqeh0","pricing_plan_id":"cebpf4jnsgd1na2vs0mg"},{"bike_id":"c63a575a-21ca-43ae-bcad-37ba40a4c391","system_id":"levelo_inurba_marseille","lat":43.29844,"lon":5.36268,"is_reserved":false,"is_disabled":false,"rental_uris":{"android":"levelo://app?vid=c63a575a-21ca-43ae-bcad-37ba40a4c391","ios":"levelo://app?vid=c63a575a-21ca-43ae-bcad-37ba40a4c391"},"vehicle_type_id":"4","last_reported":1758305647,"current_range_meters":4800,"station_id":"ce4bgpp2rcd13ifvqc3g","pricing_plan_id":"cebpf4jnsgd1na2vs0mg"},{"bike_id":"af67f6e6-85b3-4c07-8832-a81caf9f3259","system_id":"levelo_inurba_marseille","lat":43.29261,"lon":5.38451,"is_reserved":false,"is_disabled":false,"rental_uris":{"android":"levelo://app?vid=af67f6e6-85b3-4c07-8832-a81caf9f3259","ios":"levelo://app?vid=af67f6e6-85b3-4c07-8832-a81caf9f3259"},"vehicle_type_id":"4","last_reported":1758305647,"current_range_meters":4800,"station_id":"ce4bh692rcd13ifvqea0","pricing_plan_id":"cebpf4jnsgd1na2vs0mg"},{"bike_id":"ec753155-ece3-46e9-a454-41b891d4be01","system_id":"levelo_inurba_marseille","lat":43.29931,"lon":5.43617,"is_reserved":false,"is_disabled":false,"rental_uris":{"android":"levelo://app?vid=ec753155-ece3-46e9-a454-41b891d4be01","ios":"levelo://app?vid=ec753155-ece3-46e9-a454-41b891d4be01"},"vehicle_type_id":"4","last_reported":1758305647,"current_range_meters":5600,"station_id":"ce4bhpp2rcd13ifvqhfg","pricing_plan_id":"cebpf4jnsgd1na2vs0mg"},{"bike_id":"8d242853-b277-47cb-81da-498a2e164394","system_id":"levelo_inurba_marseille","lat":43.2958,"lon":5.36737,"is_reserved":false,"is_disabled":false,"rental_uris":{"android":"levelo://app?vid=8d242853-b277-47cb-81da-498a2e164394","ios":"levelo://app?vid=8d242853-b277-47cb-81da-498a2e164394"},"vehicle_type_id":"4","last_reported":1758305647,"current_range_meters":4800,"station_id":"ce4bgph2rcd13ifvqc2g","pricing_plan_id":"cebpf4jnsgd1na2vs0mg"},{"bike_id":"9963a081-3d47-45c3-9a5f-f912abc0ffc5","system_id":"levelo_inurba_marseille","lat":43.25014,"lon":5.38902,"is_reserved":false,"is_disabled":true,"rental_uris":{"android":"levelo://app?vid=9963a081-3d47-45c3-9a5f-f912abc0ffc5","ios":"levelo://app?vid=9963a081-3d47-45c3-9a5f-f912abc0ffc5"},"vehicle_type_id":"4","last_reported":1758305647,"current_range_meters":5600,"station_id":"ce4bhgp2rcd13ifvqfd0","pricing_plan_id":"cebpf4jnsgd1na2vs0mg"},{"bike_id":"d62c2634-7fbd-4a32-a898-66378f4ade05","system_id":"levelo_inurba_marseille","lat":43.27216,"lon":5.39175,"is_reserved":false,"is_disabled":false,"rental_uris":{"android":"levelo://app?vid=d62c2634-7fbd-4a32-a898-66378f4ade05","ios":"levelo://app?vid=d62c2634-7fbd-4a32-a898-66378f4ade05"},"vehicle_type_id":"4","last_reported":1758305647,"current_range_meters":5600,"station_id":"ce4bhhp2rcd13ifvqfm0","pricing_plan_id":"cebpf4jnsgd1na2vs0mg"},{"bike_id":"f9cdcd48-d466-4089-996d-cbdb89c93a29","system_id":"levelo_inurba_marseille","lat":43.32361,"lon":5.38894,"is_reserved":false,"is_disabled":false,"rental_uris":{"android":"levelo://app?vid=f9cdcd48-d466-4089-996d-cbdb89c93a29","ios":"levelo://app?vid=f9cdcd48-d466-4089-996d-cbdb89c93a29"},"vehicle_type_id":"4","last_reported":1758305647,"current_range_meters":5600,"station_id":"ce4bhqp2rcd13ifvqhog","pricing_plan_id":"cebpf4jnsgd1na2vs0mg"},{"bike_id":"e64445a0-40cd-4687-8ad8-b0bc327106c0","system_id":"levelo_inurba_marseille","lat":43.24076,"lon":5.37756,"is_reserved":false,"is_disabled":false,"rental_uris":{"android":"levelo://app?vid=e64445a0-40cd-4687-8ad8-b0bc327106c0","ios":"levelo://app?vid=e64445a0-40cd-4687-8ad8-b0bc327106c0"},"vehicle_type_id":"4","last_reported":1758305647,"current_range_meters":5600,"station_id":"ce4bhnp2rcd13ifvqgvg","pricing_plan_id":"cebpf4jnsgd1na2vs0mg"},{"bike_id":"f1f7416c-9251-4f8e-b7e3-0bd7964b8c51","system_id":"levelo_inurba_marseille","lat":43.26955,"lon":5.38631,"is_reserved":false,"is_disabled":false,"rental_uris":{"android":"levelo://app?vid=f1f7416c-9251-4f8e-b7e3-0bd7964b8c51","ios":"levelo://app?vid=f1f7416c-9251-4f8e-b7e3-0bd7964b8c51"},"vehicle_type_id":"4","last_reported":1758305647,"current_range_meters":5600,"station_id":"ce4bhh92rcd13ifvqfh0","pricing_plan_id":"cebpf4jnsgd1na2vs0mg"},{"bike_id":"dbcd829c-5d38-45ca-989b-8da417e0352f","system_id":"levelo_inurba_marseille","lat":43.29589,"lon":5.36742,"is_reserved":false,"is_disabled":false,"rental_uris":{"android":"levelo://app?vid=dbcd829c-5d38-45ca-989b-8da417e0352f","ios":"levelo://app?vid=dbcd829c-5d38-45ca-989b-8da417e0352f"},"vehicle_type_id":"4","last_reported":1758305647,"current_range_meters":6000,"station_id":"ce4bgph2rcd13ifvqc2g","pricing_plan_id":"cebpf4jnsgd1na2vs0mg"},{"bike_id":"91d75646-396b-4e35-8c7f-b572fede9fd4","system_id":"levelo_inurba_marseille","lat":43.30795,"lon":5.43527,"is_reserved":false,"is_disabled":false,"rental_uris":{"android":"levelo://app?vid=91d75646-396b-4e35-8c7f-b572fede9fd4","ios":"levelo://app?vid=91d75646-396b-4e35-8c7f-b572fede9fd4"},"vehicle_type_id":"4","last_reported":1758305647,"current_range_meters":6000,"station_id":"ce4bhph2rcd13ifvqheg","pricing_plan_id":"cebpf4jnsgd1na2vs0mg"},{"bike_id":"cbcb0afe-ffc9-4f5f-9e03-d50918878072","system_id":"levelo_inurba_marseille","lat":43.29211,"lon":5.392626,"is_reserved":false,"is_disabled":false,"rental_uris":{"android":"levelo://app?vid=cbcb0afe-ffc9-4f5f-9e03-d50918878072","ios":"levelo://app?vid=cbcb0afe-ffc9-4f5f-9e03-d50918878072"},"vehicle_type_id":"4","last_reported":1758305647,"current_range_meters":6000,"station_id":"ce4bh192rcd13ifvqdd0","pricing_plan_id":"cebpf4jnsgd1na2vs0mg"},{"bike_id":"7745eab8-3d48-4349-b863-861b7cc7cbd1","system_id":"levelo_inurba_marseille","lat":43.290054,"lon":5.381405,"is_reserved":false,"is_disabled":false,"rental_uris":{"android":"levelo://app?vid=7745eab8-3d48-4349-b863-861b7cc7cbd1","ios":"levelo://app?vid=7745eab8-3d48-4349-b863-861b7cc7cbd1"},"vehicle_type_id":"4","last_reported":1758305647,"current_range_meters":6000,"station_id":"","pricing_plan_id":"cebpf4jnsgd1na2vs0mg"},{"bike_id":"af5bc25f-6150-4855-8865-a709c2d0b720","system_id":"levelo_inurba_marseille","lat":43.30784,"lon":5.3765,"is_reserved":false,"is_disabled":false,"rental_uris":{"android":"levelo://app?vid=af5bc25f-6150-4855-8865-a709c2d0b720","ios":"levelo://app?vid=af5bc25f-6150-4855-8865-a709c2d0b720"},"vehicle_type_id":"4","last_reported":1758305647,"current_range_meters":6000,"station_id":"ce4bgv92rcd13ifvqcq0","pricing_plan_id":"cebpf4jnsgd1na2vs0mg"},{"bike_id":"b3c1e2b0-0296-4666-a6cf-6fb59ad11c2f","system_id":"levelo_inurba_marseille","lat":43.29828,"lon":5.36261,"is_reserved":false,"is_disabled":false,"rental_uris":{"android":"levelo://app?vid=b3c1e2b0-0296-4666-a6cf-6fb59ad11c2f","ios":"levelo://app?vid=b3c1e2b0-0296-4666-a6cf-6fb59ad11c2f"},"vehicle_type_id":"4","last_reported":1758305647,"current_range_meters":6000,"station_id":"ce4bgpp2rcd13ifvqc3g","pricing_plan_id":"cebpf4jnsgd1na2vs0mg"},{"bike_id":"ccd44948-7c00-492e-b618-36105a29ab8f","system_id":"levelo_inurba_marseille","lat":43.32646,"lon":5.41003,"is_reserved":false,"is_disabled":true,"rental_uris":{"android":"levelo://app?vid=ccd44948-7c00-492e-b618-36105a29ab8f","ios":"levelo://app?vid=ccd44948-7c00-492e-b618-36105a29ab8f"},"vehicle_type_id":"4","last_reported":1758305647,"current_range_meters":6000,"station_id":"ce4bhpp2rcd13ifvqhgg","pricing_plan_id":"cebpf4jnsgd1na2vs0mg"},{"bike_id":"e3e096d4-8287-4616-ba8f-6f3fbc252ef6","system_id":"levelo_inurba_marseille","lat":43.32364,"lon":5.38883,"is_reserved":false,"is_disabled":false,"rental_uris":{"android":"levelo://app?vid=e3e096d4-8287-4616-ba8f-6f3fbc252ef6","ios":"levelo://app?vid=e3e096d4-8287-4616-ba8f-6f3fbc252ef6"},"vehicle_type_id":"4","last_reported":1758305647,"current_range_meters":6000,"station_id":"ce4bhqp2rcd13ifvqhog","pricing_plan_id":"cebpf4jnsgd1na2vs0mg"},{"bike_id":"c383a25a-46d3-4686-afad-e874823b853e","system_id":"levelo_inurba_marseille","lat":43.2746,"lon":5.40724,"is_reserved":false,"is_disabled":false,"rental_uris":{"android":"levelo://app?vid=c383a25a-46d3-4686-afad-e874823b853e","ios":"levelo://app?vid=c383a25a-46d3-4686-afad-e874823b853e"},"vehicle_type_id":"4","last_reported":1758305647,"current_range_meters":6000,"station_id":"","pricing_plan_id":"cebpf4jnsgd1na2vs0mg"},{"bike_id":"d141e632-ade5-420d-9ddc-5a0f6cfe4dee","system_id":"levelo_inurba_marseille","lat":43.29793,"lon":5.39318,"is_reserved":false,"is_disabled":false,"rental_uris":{"android":"levelo://app?vid=d141e632-ade5-420d-9ddc-5a0f6cfe4dee","ios":"levelo://app?vid=d141e632-ade5-420d-9ddc-5a0f6cfe4dee"},"vehicle_type_id":"4","last_reported":1758305647,"current_range_meters":5600,"station_id":"chh1huq6cuj3fo74tm60","pricing_plan_id":"cebpf4jnsgd1na2vs0mg"},{"bike_id":"11d60f6e-f505-474f-a6c2-5b8f76486b7b","system_id":"levelo_inurba_marseille","lat":43.28266,"lon":5.35084,"is_reserved":false,"is_disabled":true,"rental_uris":{"android":"levelo://app?vid=11d60f6e-f505-474f-a6c2-5b8f76486b7b","ios":"levelo://app?vid=11d60f6e-f505-474f-a6c2-5b8f76486b7b"},"vehicle_type_id":"4","last_reported":1758305647,"current_range_meters":6400,"station_id":"ce4bhbp2rcd13ifvqerg","pricing_plan_id":"cebpf4jnsgd1na2vs0mg"},{"bike_id":"6c48f91d-6e1d-41b8-8d23-595cc8312591","system_id":"levelo_inurba_marseille","lat":43.29223,"lon":5.36061,"is_reserved":false,"is_disabled":false,"rental_uris":{"android":"levelo://app?vid=6c48f91d-6e1d-41b8-8d23-595cc8312591","ios":"levelo://app?vid=6c48f91d-6e1d-41b8-8d23-595cc8312591"},"vehicle_type_id":"4","last_reported":1758305647,"current_range_meters":6400,"station_id":"ce4bhbh2rcd13ifvqeqg","pricing_plan_id":"cebpf4jnsgd1na2vs0mg"},{"bike_id":"4f6ce967-8bba-4be7-a248-375f05e4b50b","system_id":"levelo_inurba_marseille","lat":43.3136,"lon":5.38493,"is_reserved":false,"is_disabled":false,"rental_uris":{"android":"levelo://app?vid=4f6ce967-8bba-4be7-a248-375f05e4b50b","ios":"levelo://app?vid=4f6ce967-8bba-4be7-a248-375f05e4b50b"},"vehicle_type_id":"4","last_reported":1758305647,"current_range_meters":6000,"station_id":"ce4bgt92rcd13ifvqcf0","pricing_plan_id":"cebpf4jnsgd1na2vs0mg"},{"bike_id":"5982c9c9-60e7-4a2e-bd7d-a80d21e02b1f","system_id":"levelo_inurba_marseille","lat":43.29809,"lon":5.38106,"is_reserved":false,"is_disabled":false,"rental_uris":{"android":"levelo://app?vid=5982c9c9-60e7-4a2e-bd7d-a80d21e02b1f","ios":"levelo://app?vid=5982c9c9-60e7-4a2e-bd7d-a80d21e02b1f"},"vehicle_type_id":"4","last_reported":1758305647,"current_range_meters":6400,"station_id":"ce4bgip2rcd13ifvqbb0","pricing_plan_id":"cebpf4jnsgd1na2vs0mg"},{"bike_id":"cb46083b-e853-4b58-bf12-588e5e78c7b6","system_id":"levelo_inurba_marseille","lat":43.28833,"lon":5.3929,"is_reserved":false,"is_disabled":false,"rental_uris":{"android":"levelo://app?vid=cb46083b-e853-4b58-bf12-588e5e78c7b6","ios":"levelo://app?vid=cb46083b-e853-4b58-bf12-588e5e78c7b6"},"vehicle_type_id":"4","last_reported":1758305647,"current_range_meters":6800,"station_id":"ce4bh2p2rcd13ifvqdi0","pricing_plan_id":"cebpf4jnsgd1na2vs0mg"},{"bike_id":"691ed75a-a44c-47e9-a88a-4a79e9749b50","system_id":"levelo_inurba_marseille","lat":43.29222,"lon":5.36053,"is_reserved":false,"is_disabled":false,"rental_uris":{"android":"levelo://app?vid=691ed75a-a44c-47e9-a88a-4a79e9749b50","ios":"levelo://app?vid=691ed75a-a44c-47e9-a88a-4a79e9749b50"},"vehicle_type_id":"4","last_reported":1758305647,"current_range_meters":6800,"station_id":"ce4bhbh2rcd13ifvqeqg","pricing_plan_id":"cebpf4jnsgd1na2vs0mg"},{"bike_id":"cf66592a-d8fa-4c6c-9927-5d7a9fef5026","system_id":"levelo_inurba_marseille","lat":43.26224,"lon":5.39708,"is_reserved":false,"is_disabled":false,"rental_uris":{"android":"levelo://app?vid=cf66592a-d8fa-4c6c-9927-5d7a9fef5026","ios":"levelo://app?vid=cf66592a-d8fa-4c6c-9927-5d7a9fef5026"},"vehicle_type_id":"4","last_reported":1758305647,"current_range_meters":6800,"station_id":"","pricing_plan_id":"cebpf4jnsgd1na2vs0mg"},{"bike_id":"0f0b035c-e70d-48a6-a933-499e54ea6c9a","system_id":"levelo_inurba_marseille","lat":43.22927,"lon":5.35378,"is_reserved":false,"is_disabled":false,"rental_uris":{"android":"levelo://app?vid=0f0b035c-e70d-48a6-a933-499e54ea6c9a","ios":"levelo://app?vid=0f0b035c-e70d-48a6-a933-499e54ea6c9a"},"vehicle_type_id":"4","last_reported":1758305647,"current_range_meters":6800,"station_id":"cpo3532slgdg3j2ikp40","pricing_plan_id":"cebpf4jnsgd1na2vs0mg"},{"bike_id":"b03963e7-f165-473d-a43d-a68e09ff2d96","system_id":"levelo_inurba_marseille","lat":43.25686,"lon":5.41934,"is_reserved":false,"is_disabled":false,"rental_uris":{"android":"levelo://app?vid=b03963e7-f165-473d-a43d-a68e09ff2d96","ios":"levelo://app?vid=b03963e7-f165-473d-a43d-a68e09ff2d96"},"vehicle_type_id":"4","last_reported":1758305647,"current_range_meters":6800,"station_id":"","pricing_plan_id":"cebpf4jnsgd1na2vs0mg"},{"bike_id":"1e356dd0-5616-43b1-ab0e-df8181473255","system_id":"levelo_inurba_marseille","lat":43.290042,"lon":5.356107,"is_reserved":false,"is_disabled":false,"rental_uris":{"android":"levelo://app?vid=1e356dd0-5616-43b1-ab0e-df8181473255","ios":"levelo://app?vid=1e356dd0-5616-43b1-ab0e-df8181473255"},"vehicle_type_id":"4","last_reported":1758305647,"current_range_meters":6800,"station_id":"ce4bha12rcd13ifvqee0","pricing_plan_id":"cebpf4jnsgd1na2vs0mg"},{"bike_id":"0f344841-0817-4b2c-81f6-dccad82df092","system_id":"levelo_inurba_marseille","lat":43.25335,"lon":5.42176,"is_reserved":false,"is_disabled":false,"rental_uris":{"android":"levelo://app?vid=0f344841-0817-4b2c-81f6-dccad82df092","ios":"levelo://app?vid=0f344841-0817-4b2c-81f6-dccad82df092"},"vehicle_type_id":"4","last_reported":1758305647,"current_range_meters":7200,"station_id":"st_d2m65c5bi1j21697t3ng","pricing_plan_id":"cebpf4jnsgd1na2vs0mg"},{"bike_id":"cba133ce-e515-497c-868a-40448b7e67c2","system_id":"levelo_inurba_marseille","lat":43.31327,"lon":5.397,"is_reserved":false,"is_disabled":false,"rental_uris":{"android":"levelo://app?vid=cba133ce-e515-497c-868a-40448b7e67c2","ios":"levelo://app?vid=cba133ce-e515-497c-868a-40448b7e67c2"},"vehicle_type_id":"4","last_reported":1758305647,"current_range_meters":7200,"station_id":"ce4bgvp2rcd13ifvqcu0","pricing_plan_id":"cebpf4jnsgd1na2vs0mg"},{"bike_id":"5588b019-ac3c-4ee0-8ce5-fb888b1a501f","system_id":"levelo_inurba_marseille","lat":43.29529,"lon":5.38534,"is_reserved":false,"is_disabled":false,"rental_uris":{"android":"levelo://app?vid=5588b019-ac3c-4ee0-8ce5-fb888b1a501f","ios":"levelo://app?vid=5588b019-ac3c-4ee0-8ce5-fb888b1a501f"},"vehicle_type_id":"4","last_reported":1758305647,"current_range_meters":7200,"station_id":"ce4bgih2rcd13ifvqba0","pricing_plan_id":"cebpf4jnsgd1na2vs0mg"},{"bike_id":"534ca291-97d8-4d1b-828b-4798c97e8208","system_id":"levelo_inurba_marseille","lat":43.29286,"lon":5.37479,"is_reserved":false,"is_disabled":false,"rental_uris":{"android":"levelo://app?vid=534ca291-97d8-4d1b-828b-4798c97e8208","ios":"levelo://app?vid=534ca291-97d8-4d1b-828b-4798c97e8208"},"vehicle_type_id":"4","last_reported":1758305647,"current_range_meters":8000,"station_id":"ce4bgi12rcd13ifvqb70","pricing_plan_id":"cebpf4jnsgd1na2vs0mg"},{"bike_id":"afa46f0e-61af-4a01-99ea-015181013280","system_id":"levelo_inurba_marseille","lat":43.31063,"lon":5.38358,"is_reserved":false,"is_disabled":false,"rental_uris":{"android":"levelo://app?vid=afa46f0e-61af-4a01-99ea-015181013280","ios":"levelo://app?vid=afa46f0e-61af-4a01-99ea-015181013280"},"vehicle_type_id":"4","last_reported":1758305647,"current_range_meters":8000,"station_id":"ce4bgv92rcd13ifvqcr0","pricing_plan_id":"cebpf4jnsgd1na2vs0mg"},{"bike_id":"f9636a44-11a8-49d6-9b1c-12db7ad64ee3","system_id":"levelo_inurba_marseille","lat":43.24231,"lon":5.39649,"is_reserved":false,"is_disabled":true,"rental_uris":{"android":"levelo://app?vid=f9636a44-11a8-49d6-9b1c-12db7ad64ee3","ios":"levelo://app?vid=f9636a44-11a8-49d6-9b1c-12db7ad64ee3"},"vehicle_type_id":"4","last_reported":1758305647,"current_range_meters":8000,"station_id":"","pricing_plan_id":"cebpf4jnsgd1na2vs0mg"},{"bike_id":"a133c9ec-fc8a-4621-ba8c-fadafb28a993","system_id":"levelo_inurba_marseille","lat":43.31345,"lon":5.36697,"is_reserved":false,"is_disabled":false,"rental_uris":{"android":"levelo://app?vid=a133c9ec-fc8a-4621-ba8c-fadafb28a993","ios":"levelo://app?vid=a133c9ec-fc8a-4621-ba8c-fadafb28a993"},"vehicle_type_id":"4","last_reported":1758305647,"current_range_meters":8000,"station_id":"ce4bgr92rcd13ifvqc6g","pricing_plan_id":"cebpf4jnsgd1na2vs0mg"},{"bike_id":"d233c532-492d-47de-836c-dc671f71a08a","system_id":"levelo_inurba_marseille","lat":43.25501,"lon":5.37651,"is_reserved":false,"is_disabled":false,"rental_uris":{"android":"levelo://app?vid=d233c532-492d-47de-836c-dc671f71a08a","ios":"levelo://app?vid=d233c532-492d-47de-836c-dc671f71a08a"},"vehicle_type_id":"4","last_reported":1758305647,"current_range_meters":8000,"station_id":"ce4bhh12rcd13ifvqff0","pricing_plan_id":"cebpf4jnsgd1na2vs0mg"},{"bike_id":"828b8f94-4293-4c49-9424-42c8f759ef6d","system_id":"levelo_inurba_marseille","lat":43.30924,"lon":5.36857,"is_reserved":false,"is_disabled":false,"rental_uris":{"android":"levelo://app?vid=828b8f94-4293-4c49-9424-42c8f759ef6d","ios":"levelo://app?vid=828b8f94-4293-4c49-9424-42c8f759ef6d"},"vehicle_type_id":"4","last_reported":1758305647,"current_range_meters":8400,"station_id":"","pricing_plan_id":"cebpf4jnsgd1na2vs0mg"},{"bike_id":"83d8e2fa-0db6-4099-8e36-7d6a3e53acc5","system_id":"levelo_inurba_marseille","lat":43.29258,"lon":5.40897,"is_reserved":false,"is_disabled":false,"rental_uris":{"android":"levelo://app?vid=83d8e2fa-0db6-4099-8e36-7d6a3e53acc5","ios":"levelo://app?vid=83d8e2fa-0db6-4099-8e36-7d6a3e53acc5"},"vehicle_type_id":"4","last_reported":1758305647,"current_range_meters":8400,"station_id":"ce4bh192rcd13ifvqdc0","pricing_plan_id":"cebpf4jnsgd1na2vs0mg"},{"bike_id":"9c617a5b-fe1f-4812-b911-57bc9fdbc741","system_id":"levelo_inurba_marseille","lat":43.28441,"lon":5.39204,"is_reserved":false,"is_disabled":false,"rental_uris":{"android":"levelo://app?vid=9c617a5b-fe1f-4812-b911-57bc9fdbc741","ios":"levelo://app?vid=9c617a5b-fe1f-4812-b911-57bc9fdbc741"},"vehicle_type_id":"4","last_reported":1758305647,"current_range_meters":8000,"station_id":"ce4bhoh2rcd13ifvqh5g","pricing_plan_id":"cebpf4jnsgd1na2vs0mg"},{"bike_id":"56a4f75d-eaf2-44b4-aa02-4a439b19699b","system_id":"levelo_inurba_marseille","lat":43.33777,"lon":5.37412,"is_reserved":false,"is_disabled":false,"rental_uris":{"android":"levelo://app?vid=56a4f75d-eaf2-44b4-aa02-4a439b19699b","ios":"levelo://app?vid=56a4f75d-eaf2-44b4-aa02-4a439b19699b"},"vehicle_type_id":"4","last_reported":1758305647,"current_range_meters":8400,"station_id":"","pricing_plan_id":"cebpf4jnsgd1na2vs0mg"},{"bike_id":"118246b6-fbe1-45d4-90a1-c5cc403cf8aa","system_id":"levelo_inurba_marseille","lat":43.282715,"lon":5.350653,"is_reserved":false,"is_disabled":false,"rental_uris":{"android":"levelo://app?vid=118246b6-fbe1-45d4-90a1-c5cc403cf8aa","ios":"levelo://app?vid=118246b6-fbe1-45d4-90a1-c5cc403cf8aa"},"vehicle_type_id":"4","last_reported":1758305647,"current_range_meters":8400,"station_id":"ce4bhbp2rcd13ifvqerg","pricing_plan_id":"cebpf4jnsgd1na2vs0mg"},{"bike_id":"42323a1a-489c-43cb-90ae-c675b27444d5","system_id":"levelo_inurba_marseille","lat":43.2165,"lon":5.34363,"is_reserved":false,"is_disabled":false,"rental_uris":{"android":"levelo://app?vid=42323a1a-489c-43cb-90ae-c675b27444d5","ios":"levelo://app?vid=42323a1a-489c-43cb-90ae-c675b27444d5"},"vehicle_type_id":"4","last_reported":1758305647,"current_range_meters":8400,"station_id":"","pricing_plan_id":"cebpf4jnsgd1na2vs0mg"},{"bike_id":"245cf8b9-cfe8-456d-a629-9d187145dcc0","system_id":"levelo_inurba_marseille","lat":43.25337,"lon":5.42174,"is_reserved":false,"is_disabled":false,"rental_uris":{"android":"levelo://app?vid=245cf8b9-cfe8-456d-a629-9d187145dcc0","ios":"levelo://app?vid=245cf8b9-cfe8-456d-a629-9d187145dcc0"},"vehicle_type_id":"4","last_reported":1758305647,"current_range_meters":8400,"station_id":"st_d2m65c5bi1j21697t3ng","pricing_plan_id":"cebpf4jnsgd1na2vs0mg"},{"bike_id":"56f34a6f-d509-4600-bf95-38b0f09f76a9","system_id":"levelo_inurba_marseille","lat":43.296818,"lon":5.37287,"is_reserved":false,"is_disabled":false,"rental_uris":{"android":"levelo://app?vid=56f34a6f-d509-4600-bf95-38b0f09f76a9","ios":"levelo://app?vid=56f34a6f-d509-4600-bf95-38b0f09f76a9"},"vehicle_type_id":"4","last_reported":1758305647,"current_range_meters":8800,"station_id":"ce4bgk12rcd13ifvqbj0","pricing_plan_id":"cebpf4jnsgd1na2vs0mg"},{"bike_id":"18c60b09-5b89-44cb-b774-782ef60a6913","system_id":"levelo_inurba_marseille","lat":43.29048,"lon":5.35918,"is_reserved":false,"is_disabled":false,"rental_uris":{"android":"levelo://app?vid=18c60b09-5b89-44cb-b774-782ef60a6913","ios":"levelo://app?vid=18c60b09-5b89-44cb-b774-782ef60a6913"},"vehicle_type_id":"4","last_reported":1758305647,"current_range_meters":8800,"station_id":"ce4bha92rcd13ifvqeg0","pricing_plan_id":"cebpf4jnsgd1na2vs0mg"},{"bike_id":"6162b192-16bc-403e-bdf1-57830dbebe4b","system_id":"levelo_inurba_marseille","lat":43.3173,"lon":5.39051,"is_reserved":false,"is_disabled":false,"rental_uris":{"android":"levelo://app?vid=6162b192-16bc-403e-bdf1-57830dbebe4b","ios":"levelo://app?vid=6162b192-16bc-403e-bdf1-57830dbebe4b"},"vehicle_type_id":"4","last_reported":1758305647,"current_range_meters":4400,"station_id":"ce4bhqp2rcd13ifvqhng","pricing_plan_id":"cebpf4jnsgd1na2vs0mg"},{"bike_id":"c2a5e644-2f72-4546-ad79-7943a1b84146","system_id":"levelo_inurba_marseille","lat":43.29529,"lon":5.38551,"is_reserved":false,"is_disabled":false,"rental_uris":{"android":"levelo://app?vid=c2a5e644-2f72-4546-ad79-7943a1b84146","ios":"levelo://app?vid=c2a5e644-2f72-4546-ad79-7943a1b84146"},"vehicle_type_id":"4","last_reported":1758305647,"current_range_meters":8800,"station_id":"ce4bgih2rcd13ifvqba0","pricing_plan_id":"cebpf4jnsgd1na2vs0mg"},{"bike_id":"75e0caf9-06bb-4888-ad0b-7b82ad8b6a4e","system_id":"levelo_inurba_marseille","lat":43.29708,"lon":5.37695,"is_reserved":false,"is_disabled":false,"rental_uris":{"android":"levelo://app?vid=75e0caf9-06bb-4888-ad0b-7b82ad8b6a4e","ios":"levelo://app?vid=75e0caf9-06bb-4888-ad0b-7b82ad8b6a4e"},"vehicle_type_id":"4","last_reported":1758305647,"current_range_meters":8800,"station_id":"ce4bgkh2rcd13ifvqbl0","pricing_plan_id":"cebpf4jnsgd1na2vs0mg"},{"bike_id":"dfe41c91-4bfb-4210-9974-eb7652daa5f7","system_id":"levelo_inurba_marseille","lat":43.28461,"lon":5.35883,"is_reserved":false,"is_disabled":false,"rental_uris":{"android":"levelo://app?vid=dfe41c91-4bfb-4210-9974-eb7652daa5f7","ios":"levelo://app?vid=dfe41c91-4bfb-4210-9974-eb7652daa5f7"},"vehicle_type_id":"4","last_reported":1758305647,"current_range_meters":8800,"station_id":"ce4bhah2rcd13ifvqei0","pricing_plan_id":"cebpf4jnsgd1na2vs0mg"},{"bike_id":"72b94006-07fe-4d17-bf0e-9679febabc71","system_id":"levelo_inurba_marseille","lat":43.28598,"lon":5.37075,"is_reserved":false,"is_disabled":false,"rental_uris":{"android":"levelo://app?vid=72b94006-07fe-4d17-bf0e-9679febabc71","ios":"levelo://app?vid=72b94006-07fe-4d17-bf0e-9679febabc71"},"vehicle_type_id":"4","last_reported":1758305647,"current_range_meters":8800,"station_id":"ce4bht12rcd13ifvqi60","pricing_plan_id":"cebpf4jnsgd1na2vs0mg"},{"bike_id":"31838f7e-d500-4c33-b341-e4cd0189676d","system_id":"levelo_inurba_marseille","lat":43.31379,"lon":5.38516,"is_reserved":false,"is_disabled":false,"rental_uris":{"android":"levelo://app?vid=31838f7e-d500-4c33-b341-e4cd0189676d","ios":"levelo://app?vid=31838f7e-d500-4c33-b341-e4cd0189676d"},"vehicle_type_id":"4","last_reported":1758305647,"current_range_meters":8800,"station_id":"ce4bgt92rcd13ifvqcf0","pricing_plan_id":"cebpf4jnsgd1na2vs0mg"},{"bike_id":"e6f8489d-fe42-4015-a82c-b604c2c8b33e","system_id":"levelo_inurba_marseille","lat":43.29795,"lon":5.36682,"is_reserved":false,"is_disabled":false,"rental_uris":{"android":"levelo://app?vid=e6f8489d-fe42-4015-a82c-b604c2c8b33e","ios":"levelo://app?vid=e6f8489d-fe42-4015-a82c-b604c2c8b33e"},"vehicle_type_id":"4","last_reported":1758305647,"current_range_meters":8800,"station_id":"","pricing_plan_id":"cebpf4jnsgd1na2vs0mg"},{"bike_id":"cad97885-b582-49b2-8b83-0a6c3d079fc6","system_id":"levelo_inurba_marseille","lat":43.297018,"lon":5.365873,"is_reserved":false,"is_disabled":false,"rental_uris":{"android":"levelo://app?vid=cad97885-b582-49b2-8b83-0a6c3d079fc6","ios":"levelo://app?vid=cad97885-b582-49b2-8b83-0a6c3d079fc6"},"vehicle_type_id":"4","last_reported":1758305647,"current_range_meters":9200,"station_id":"ce4bgn12rcd13ifvqbt0","pricing_plan_id":"cebpf4jnsgd1na2vs0mg"},{"bike_id":"22515e71-bbd8-4385-a47d-5b162cda357d","system_id":"levelo_inurba_marseille","lat":43.28376,"lon":5.35003,"is_reserved":false,"is_disabled":false,"rental_uris":{"android":"levelo://app?vid=22515e71-bbd8-4385-a47d-5b162cda357d","ios":"levelo://app?vid=22515e71-bbd8-4385-a47d-5b162cda357d"},"vehicle_type_id":"4","last_reported":1758305647,"current_range_meters":9200,"station_id":"","pricing_plan_id":"cebpf4jnsgd1na2vs0mg"},{"bike_id":"a4faa1fd-62ee-404a-aff8-b79ea6b6b5d2","system_id":"levelo_inurba_marseille","lat":43.32986,"lon":5.39245,"is_reserved":false,"is_disabled":false,"rental_uris":{"android":"levelo://app?vid=a4faa1fd-62ee-404a-aff8-b79ea6b6b5d2","ios":"levelo://app?vid=a4faa1fd-62ee-404a-aff8-b79ea6b6b5d2"},"vehicle_type_id":"4","last_reported":1758305647,"current_range_meters":9200,"station_id":"","pricing_plan_id":"cebpf4jnsgd1na2vs0mg"},{"bike_id":"e942f984-8fe7-48d1-8f04-3806656b9996","system_id":"levelo_inurba_marseille","lat":43.33633,"lon":5.37927,"is_reserved":false,"is_disabled":false,"rental_uris":{"android":"levelo://app?vid=e942f984-8fe7-48d1-8f04-3806656b9996","ios":"levelo://app?vid=e942f984-8fe7-48d1-8f04-3806656b9996"},"vehicle_type_id":"4","last_reported":1758305647,"current_range_meters":9200,"station_id":"","pricing_plan_id":"cebpf4jnsgd1na2vs0mg"},{"bike_id":"09072e22-69e4-4626-b463-ded44cfd8e7d","system_id":"levelo_inurba_marseille","lat":43.298127,"lon":5.417095,"is_reserved":false,"is_disabled":false,"rental_uris":{"android":"levelo://app?vid=09072e22-69e4-4626-b463-ded44cfd8e7d","ios":"levelo://app?vid=09072e22-69e4-4626-b463-ded44cfd8e7d"},"vehicle_type_id":"4","last_reported":1758305647,"current_range_meters":9600,"station_id":"","pricing_plan_id":"cebpf4jnsgd1na2vs0mg"},{"bike_id":"2133e5ea-2ca3-4277-8af8-7a5f3c0e7844","system_id":"levelo_inurba_marseille","lat":43.30903,"lon":5.37178,"is_reserved":false,"is_disabled":false,"rental_uris":{"android":"levelo://app?vid=2133e5ea-2ca3-4277-8af8-7a5f3c0e7844","ios":"levelo://app?vid=2133e5ea-2ca3-4277-8af8-7a5f3c0e7844"},"vehicle_type_id":"4","last_reported":1758305647,"current_range_meters":9200,"station_id":"ce4bguh2rcd13ifvqckg","pricing_plan_id":"cebpf4jnsgd1na2vs0mg"},{"bike_id":"c03db5d6-931c-41e0-bfa5-6550a106fb99","system_id":"levelo_inurba_marseille","lat":43.23278,"lon":5.3604,"is_reserved":false,"is_disabled":false,"rental_uris":{"android":"levelo://app?vid=c03db5d6-931c-41e0-bfa5-6550a106fb99","ios":"levelo://app?vid=c03db5d6-931c-41e0-bfa5-6550a106fb99"},"vehicle_type_id":"4","last_reported":1758305647,"current_range_meters":9600,"station_id":"","pricing_plan_id":"cebpf4jnsgd1na2vs0mg"},{"bike_id":"22f0687d-25d3-4094-9c4a-293a61e189a6","system_id":"levelo_inurba_marseille","lat":43.2463,"lon":5.39626,"is_reserved":false,"is_disabled":false,"rental_uris":{"android":"levelo://app?vid=22f0687d-25d3-4094-9c4a-293a61e189a6","ios":"levelo://app?vid=22f0687d-25d3-4094-9c4a-293a61e189a6"},"vehicle_type_id":"4","last_reported":1758305647,"current_range_meters":9600,"station_id":"","pricing_plan_id":"cebpf4jnsgd1na2vs0mg"},{"bike_id":"3187702a-c859-4b69-9204-d08f10374007","system_id":"levelo_inurba_marseille","lat":43.30292,"lon":5.39222,"is_reserved":false,"is_disabled":false,"rental_uris":{"android":"levelo://app?vid=3187702a-c859-4b69-9204-d08f10374007","ios":"levelo://app?vid=3187702a-c859-4b69-9204-d08f10374007"},"vehicle_type_id":"4","last_reported":1758305647,"current_range_meters":9600,"station_id":"ce4bgkh2rcd13ifvqbk0","pricing_plan_id":"cebpf4jnsgd1na2vs0mg"},{"bike_id":"1e9c94a7-43eb-41cb-a6e6-115dff4048cf","system_id":"levelo_inurba_marseille","lat":43.29958,"lon":5.4132,"is_reserved":false,"is_disabled":false,"rental_uris":{"android":"levelo://app?vid=1e9c94a7-43eb-41cb-a6e6-115dff4048cf","ios":"levelo://app?vid=1e9c94a7-43eb-41cb-a6e6-115dff4048cf"},"vehicle_type_id":"4","last_reported":1758305647,"current_range_meters":9600,"station_id":"ce4bhp12rcd13ifvqh9g","pricing_plan_id":"cebpf4jnsgd1na2vs0mg"},{"bike_id":"2070ed11-f799-4f15-bcda-f2f7c7b0bfb4","system_id":"levelo_inurba_marseille","lat":43.28941,"lon":5.36364,"is_reserved":false,"is_disabled":false,"rental_uris":{"android":"levelo://app?vid=2070ed11-f799-4f15-bcda-f2f7c7b0bfb4","ios":"levelo://app?vid=2070ed11-f799-4f15-bcda-f2f7c7b0bfb4"},"vehicle_type_id":"4","last_reported":1758305647,"current_range_meters":10000,"station_id":"ce4bhc92rcd13ifvqetg","pricing_plan_id":"cebpf4jnsgd1na2vs0mg"},{"bike_id":"0fb03ef4-5774-4eec-832d-c7f265758e2d","system_id":"levelo_inurba_marseille","lat":43.29555,"lon":5.42291,"is_reserved":false,"is_disabled":false,"rental_uris":{"android":"levelo://app?vid=0fb03ef4-5774-4eec-832d-c7f265758e2d","ios":"levelo://app?vid=0fb03ef4-5774-4eec-832d-c7f265758e2d"},"vehicle_type_id":"4","last_reported":1758305647,"current_range_meters":10000,"station_id":"ce4bhph2rcd13ifvqhdg","pricing_plan_id":"cebpf4jnsgd1na2vs0mg"},{"bike_id":"c3897c00-e950-4044-8f08-e0b1f3ccd977","system_id":"levelo_inurba_marseille","lat":43.22921,"lon":5.35391,"is_reserved":false,"is_disabled":true,"rental_uris":{"android":"levelo://app?vid=c3897c00-e950-4044-8f08-e0b1f3ccd977","ios":"levelo://app?vid=c3897c00-e950-4044-8f08-e0b1f3ccd977"},"vehicle_type_id":"4","last_reported":1758305647,"current_range_meters":10000,"station_id":"cpo3532slgdg3j2ikp40","pricing_plan_id":"cebpf4jnsgd1na2vs0mg"},{"bike_id":"fcef1dd1-5ee9-4c8d-976a-f79236403212","system_id":"levelo_inurba_marseille","lat":43.31366,"lon":5.38496,"is_reserved":false,"is_disabled":false,"rental_uris":{"android":"levelo://app?vid=fcef1dd1-5ee9-4c8d-976a-f79236403212","ios":"levelo://app?vid=fcef1dd1-5ee9-4c8d-976a-f79236403212"},"vehicle_type_id":"4","last_reported":1758305647,"current_range_meters":10000,"station_id":"ce4bgt92rcd13ifvqcf0","pricing_plan_id":"cebpf4jnsgd1na2vs0mg"},{"bike_id":"d5928ddf-0267-4868-95a5-2257412c56f7","system_id":"levelo_inurba_marseille","lat":43.28622,"lon":5.35096,"is_reserved":false,"is_disabled":false,"rental_uris":{"android":"levelo://app?vid=d5928ddf-0267-4868-95a5-2257412c56f7","ios":"levelo://app?vid=d5928ddf-0267-4868-95a5-2257412c56f7"},"vehicle_type_id":"4","last_reported":1758305647,"current_range_meters":10800,"station_id":"ce4bhch2rcd13ifvqeug","pricing_plan_id":"cebpf4jnsgd1na2vs0mg"},{"bike_id":"b8cb245e-be2f-412e-a642-d1b0dad2bc41","system_id":"levelo_inurba_marseille","lat":43.22928,"lon":5.35385,"is_reserved":false,"is_disabled":false,"rental_uris":{"android":"levelo://app?vid=b8cb245e-be2f-412e-a642-d1b0dad2bc41","ios":"levelo://app?vid=b8cb245e-be2f-412e-a642-d1b0dad2bc41"},"vehicle_type_id":"4","last_reported":1758305647,"current_range_meters":10800,"station_id":"cpo3532slgdg3j2ikp40","pricing_plan_id":"cebpf4jnsgd1na2vs0mg"},{"bike_id":"95a62c10-7ca9-4348-809a-c3089ad076d3","system_id":"levelo_inurba_marseille","lat":43.29891,"lon":5.39757,"is_reserved":false,"is_disabled":true,"rental_uris":{"android":"levelo://app?vid=95a62c10-7ca9-4348-809a-c3089ad076d3","ios":"levelo://app?vid=95a62c10-7ca9-4348-809a-c3089ad076d3"},"vehicle_type_id":"4","last_reported":1758305647,"current_range_meters":10800,"station_id":"ce4bh0h2rcd13ifvqd50","pricing_plan_id":"cebpf4jnsgd1na2vs0mg"},{"bike_id":"f9418cc9-c64d-43d9-9060-3aeedd69cdee","system_id":"levelo_inurba_marseille","lat":43.33045,"lon":5.37892,"is_reserved":false,"is_disabled":false,"rental_uris":{"android":"levelo://app?vid=f9418cc9-c64d-43d9-9060-3aeedd69cdee","ios":"levelo://app?vid=f9418cc9-c64d-43d9-9060-3aeedd69cdee"},"vehicle_type_id":"4","last_reported":1758305647,"current_range_meters":10800,"station_id":"","pricing_plan_id":"cebpf4jnsgd1na2vs0mg"},{"bike_id":"cc48539f-3363-44f7-9041-3eea5291a9db","system_id":"levelo_inurba_marseille","lat":43.21191,"lon":5.35094,"is_reserved":false,"is_disabled":true,"rental_uris":{"android":"levelo://app?vid=cc48539f-3363-44f7-9041-3eea5291a9db","ios":"levelo://app?vid=cc48539f-3363-44f7-9041-3eea5291a9db"},"vehicle_type_id":"4","last_reported":1758305647,"current_range_meters":10800,"station_id":"st_cvj6sg6p6f1abm77japg","pricing_plan_id":"cebpf4jnsgd1na2vs0mg"},{"bike_id":"3e682cf4-5ea7-4563-9004-71435c031ec4","system_id":"levelo_inurba_marseille","lat":43.21189,"lon":5.3508,"is_reserved":false,"is_disabled":true,"rental_uris":{"android":"levelo://app?vid=3e682cf4-5ea7-4563-9004-71435c031ec4","ios":"levelo://app?vid=3e682cf4-5ea7-4563-9004-71435c031ec4"},"vehicle_type_id":"4","last_reported":1758305647,"current_range_meters":11200,"station_id":"st_cvj6sg6p6f1abm77japg","pricing_plan_id":"cebpf4jnsgd1na2vs0mg"},{"bike_id":"fb78ea42-e26f-45b3-a617-d3474b811b72","system_id":"levelo_inurba_marseille","lat":43.29849,"lon":5.3796,"is_reserved":false,"is_disabled":false,"rental_uris":{"android":"levelo://app?vid=fb78ea42-e26f-45b3-a617-d3474b811b72","ios":"levelo://app?vid=fb78ea42-e26f-45b3-a617-d3474b811b72"},"vehicle_type_id":"4","last_reported":1758305647,"current_range_meters":11200,"station_id":"","pricing_plan_id":"cebpf4jnsgd1na2vs0mg"},{"bike_id":"129693f1-bec1-405c-a566-241911c46a01","system_id":"levelo_inurba_marseille","lat":43.28006,"lon":5.36515,"is_reserved":false,"is_disabled":false,"rental_uris":{"android":"levelo://app?vid=129693f1-bec1-405c-a566-241911c46a01","ios":"levelo://app?vid=129693f1-bec1-405c-a566-241911c46a01"},"vehicle_type_id":"4","last_reported":1758305647,"current_range_meters":11200,"station_id":"","pricing_plan_id":"cebpf4jnsgd1na2vs0mg"},{"bike_id":"74af45e8-68ad-402d-9309-9c11252e3c46","system_id":"levelo_inurba_marseille","lat":43.25486,"lon":5.37659,"is_reserved":false,"is_disabled":false,"rental_uris":{"android":"levelo://app?vid=74af45e8-68ad-402d-9309-9c11252e3c46","ios":"levelo://app?vid=74af45e8-68ad-402d-9309-9c11252e3c46"},"vehicle_type_id":"4","last_reported":1758305647,"current_range_meters":11600,"station_id":"ce4bhh12rcd13ifvqff0","pricing_plan_id":"cebpf4jnsgd1na2vs0mg"},{"bike_id":"c627b34a-8e81-4438-af3b-4fd0aab1c160","system_id":"levelo_inurba_marseille","lat":43.29594,"lon":5.3607,"is_reserved":false,"is_disabled":false,"rental_uris":{"android":"levelo://app?vid=c627b34a-8e81-4438-af3b-4fd0aab1c160","ios":"levelo://app?vid=c627b34a-8e81-4438-af3b-4fd0aab1c160"},"vehicle_type_id":"4","last_reported":1758305647,"current_range_meters":11200,"station_id":"","pricing_plan_id":"cebpf4jnsgd1na2vs0mg"},{"bike_id":"41855bc9-a0b6-4b3d-a1dc-6e9024caaec7","system_id":"levelo_inurba_marseille","lat":43.29021,"lon":5.38132,"is_reserved":false,"is_disabled":false,"rental_uris":{"android":"levelo://app?vid=41855bc9-a0b6-4b3d-a1dc-6e9024caaec7","ios":"levelo://app?vid=41855bc9-a0b6-4b3d-a1dc-6e9024caaec7"},"vehicle_type_id":"4","last_reported":1758305647,"current_range_meters":11600,"station_id":"ce4bh4p2rcd13ifvqe1g","pricing_plan_id":"cebpf4jnsgd1na2vs0mg"},{"bike_id":"7acae3dc-4a35-4795-a73c-b6ee3d0aa090","system_id":"levelo_inurba_marseille","lat":43.29611,"lon":5.38106,"is_reserved":false,"is_disabled":false,"rental_uris":{"android":"levelo://app?vid=7acae3dc-4a35-4795-a73c-b6ee3d0aa090","ios":"levelo://app?vid=7acae3dc-4a35-4795-a73c-b6ee3d0aa090"},"vehicle_type_id":"4","last_reported":1758305647,"current_range_meters":11600,"station_id":"ce4bgl12rcd13ifvqbo0","pricing_plan_id":"cebpf4jnsgd1na2vs0mg"},{"bike_id":"1a6ff4d0-d063-443a-93a6-b35cab3f70a7","system_id":"levelo_inurba_marseille","lat":43.311856,"lon":5.387315,"is_reserved":false,"is_disabled":false,"rental_uris":{"android":"levelo://app?vid=1a6ff4d0-d063-443a-93a6-b35cab3f70a7","ios":"levelo://app?vid=1a6ff4d0-d063-443a-93a6-b35cab3f70a7"},"vehicle_type_id":"4","last_reported":1758305647,"current_range_meters":11600,"station_id":"ce4bgv12rcd13ifvqcp0","pricing_plan_id":"cebpf4jnsgd1na2vs0mg"},{"bike_id":"d200f861-b77d-4382-8830-1b5ffcb1138c","system_id":"levelo_inurba_marseille","lat":43.28672,"lon":5.38654,"is_reserved":false,"is_disabled":false,"rental_uris":{"android":"levelo://app?vid=d200f861-b77d-4382-8830-1b5ffcb1138c","ios":"levelo://app?vid=d200f861-b77d-4382-8830-1b5ffcb1138c"},"vehicle_type_id":"4","last_reported":1758305647,"current_range_meters":11600,"station_id":"ce4bh492rcd13ifvqdug","pricing_plan_id":"cebpf4jnsgd1na2vs0mg"},{"bike_id":"9b9f6315-958e-4e43-8771-5ee5f050185e","system_id":"levelo_inurba_marseille","lat":43.2482,"lon":5.37458,"is_reserved":false,"is_disabled":true,"rental_uris":{"android":"levelo://app?vid=9b9f6315-958e-4e43-8771-5ee5f050185e","ios":"levelo://app?vid=9b9f6315-958e-4e43-8771-5ee5f050185e"},"vehicle_type_id":"4","last_reported":1758305647,"current_range_meters":12000,"station_id":"ce4bhgh2rcd13ifvqfb0","pricing_plan_id":"cebpf4jnsgd1na2vs0mg"},{"bike_id":"e85e4069-6ad0-4559-909b-c9c2ae6da260","system_id":"levelo_inurba_marseille","lat":43.292585,"lon":5.384433,"is_reserved":false,"is_disabled":false,"rental_uris":{"android":"levelo://app?vid=e85e4069-6ad0-4559-909b-c9c2ae6da260","ios":"levelo://app?vid=e85e4069-6ad0-4559-909b-c9c2ae6da260"},"vehicle_type_id":"4","last_reported":1758305647,"current_range_meters":12000,"station_id":"ce4bh692rcd13ifvqea0","pricing_plan_id":"cebpf4jnsgd1na2vs0mg"},{"bike_id":"461e0d93-3411-43e6-860f-f1d819ec1de1","system_id":"levelo_inurba_marseille","lat":43.28408,"lon":5.34997,"is_reserved":false,"is_disabled":false,"rental_uris":{"android":"levelo://app?vid=461e0d93-3411-43e6-860f-f1d819ec1de1","ios":"levelo://app?vid=461e0d93-3411-43e6-860f-f1d819ec1de1"},"vehicle_type_id":"4","last_reported":1758305647,"current_range_meters":12000,"station_id":"ce4bhbh2rcd13ifvqepg","pricing_plan_id":"cebpf4jnsgd1na2vs0mg"},{"bike_id":"492d85f6-1670-4905-95e2-855dd78c8d8c","system_id":"levelo_inurba_marseille","lat":43.29003,"lon":5.35612,"is_reserved":false,"is_disabled":false,"rental_uris":{"android":"levelo://app?vid=492d85f6-1670-4905-95e2-855dd78c8d8c","ios":"levelo://app?vid=492d85f6-1670-4905-95e2-855dd78c8d8c"},"vehicle_type_id":"4","last_reported":1758305647,"current_range_meters":11600,"station_id":"ce4bhb92rcd13ifvqen0","pricing_plan_id":"cebpf4jnsgd1na2vs0mg"},{"bike_id":"0a9888c5-7dd9-41b3-93be-ba67f31655bd","system_id":"levelo_inurba_marseille","lat":43.28856,"lon":5.35853,"is_reserved":false,"is_disabled":false,"rental_uris":{"android":"levelo://app?vid=0a9888c5-7dd9-41b3-93be-ba67f31655bd","ios":"levelo://app?vid=0a9888c5-7dd9-41b3-93be-ba67f31655bd"},"vehicle_type_id":"4","last_reported":1758305647,"current_range_meters":12000,"station_id":"ce4bhb12rcd13ifvqem0","pricing_plan_id":"cebpf4jnsgd1na2vs0mg"},{"bike_id":"bf6e6d27-c09e-4725-9fbc-20073fd5a515","system_id":"levelo_inurba_marseille","lat":43.289376,"lon":5.396214,"is_reserved":false,"is_disabled":false,"rental_uris":{"android":"levelo://app?vid=bf6e6d27-c09e-4725-9fbc-20073fd5a515","ios":"levelo://app?vid=bf6e6d27-c09e-4725-9fbc-20073fd5a515"},"vehicle_type_id":"4","last_reported":1758305647,"current_range_meters":12000,"station_id":"","pricing_plan_id":"cebpf4jnsgd1na2vs0mg"},{"bike_id":"0960e3dd-c358-4474-bd10-8223758e1f6b","system_id":"levelo_inurba_marseille","lat":43.296996,"lon":5.376855,"is_reserved":false,"is_disabled":false,"rental_uris":{"android":"levelo://app?vid=0960e3dd-c358-4474-bd10-8223758e1f6b","ios":"levelo://app?vid=0960e3dd-c358-4474-bd10-8223758e1f6b"},"vehicle_type_id":"4","last_reported":1758305647,"current_range_meters":12000,"station_id":"","pricing_plan_id":"cebpf4jnsgd1na2vs0mg"},{"bike_id":"f74ca075-8096-4dbd-9e83-2a1eeab82d26","system_id":"levelo_inurba_marseille","lat":43.28115,"lon":5.35046,"is_reserved":false,"is_disabled":false,"rental_uris":{"android":"levelo://app?vid=f74ca075-8096-4dbd-9e83-2a1eeab82d26","ios":"levelo://app?vid=f74ca075-8096-4dbd-9e83-2a1eeab82d26"},"vehicle_type_id":"4","last_reported":1758305647,"current_range_meters":12000,"station_id":"","pricing_plan_id":"cebpf4jnsgd1na2vs0mg"},{"bike_id":"41bac036-e8e5-40f7-a9ed-a9311b5b3487","system_id":"levelo_inurba_marseille","lat":43.27328,"lon":5.42377,"is_reserved":false,"is_disabled":false,"rental_uris":{"android":"levelo://app?vid=41bac036-e8e5-40f7-a9ed-a9311b5b3487","ios":"levelo://app?vid=41bac036-e8e5-40f7-a9ed-a9311b5b3487"},"vehicle_type_id":"4","last_reported":1758305647,"current_range_meters":12000,"station_id":"ce4bhk92rcd13ifvqgb0","pricing_plan_id":"cebpf4jnsgd1na2vs0mg"},{"bike_id":"d4bae581-6f79-4aa1-8124-c745f28814eb","system_id":"levelo_inurba_marseille","lat":43.26804,"lon":5.40268,"is_reserved":false,"is_disabled":false,"rental_uris":{"android":"levelo://app?vid=d4bae581-6f79-4aa1-8124-c745f28814eb","ios":"levelo://app?vid=d4bae581-6f79-4aa1-8124-c745f28814eb"},"vehicle_type_id":"4","last_reported":1758305647,"current_range_meters":12400,"station_id":"ce501612rcd8frsf0b60","pricing_plan_id":"cebpf4jnsgd1na2vs0mg"},{"bike_id":"e47c88f3-51d4-417e-9296-72712ba62660","system_id":"levelo_inurba_marseille","lat":43.298,"lon":5.38098,"is_reserved":false,"is_disabled":false,"rental_uris":{"android":"levelo://app?vid=e47c88f3-51d4-417e-9296-72712ba62660","ios":"levelo://app?vid=e47c88f3-51d4-417e-9296-72712ba62660"},"vehicle_type_id":"4","last_reported":1758305647,"current_range_meters":12400,"station_id":"ce4bgip2rcd13ifvqbb0","pricing_plan_id":"cebpf4jnsgd1na2vs0mg"},{"bike_id":"a3cf044f-7a3e-4e48-a89f-f67921fdb39a","system_id":"levelo_inurba_marseille","lat":43.29043,"lon":5.39953,"is_reserved":false,"is_disabled":false,"rental_uris":{"android":"levelo://app?vid=a3cf044f-7a3e-4e48-a89f-f67921fdb39a","ios":"levelo://app?vid=a3cf044f-7a3e-4e48-a89f-f67921fdb39a"},"vehicle_type_id":"4","last_reported":1758305647,"current_range_meters":12400,"station_id":"ce4bh392rcd13ifvqdm0","pricing_plan_id":"cebpf4jnsgd1na2vs0mg"},{"bike_id":"be3b6b32-b701-4b6c-b4ab-80f7ba7590a2","system_id":"levelo_inurba_marseille","lat":43.24182,"lon":5.39726,"is_reserved":false,"is_disabled":false,"rental_uris":{"android":"levelo://app?vid=be3b6b32-b701-4b6c-b4ab-80f7ba7590a2","ios":"levelo://app?vid=be3b6b32-b701-4b6c-b4ab-80f7ba7590a2"},"vehicle_type_id":"4","last_reported":1758305647,"current_range_meters":12800,"station_id":"ce4bhn12rcd13ifvqgpg","pricing_plan_id":"cebpf4jnsgd1na2vs0mg"},{"bike_id":"4e5c2e97-6c61-4332-9672-f5a53881b0d1","system_id":"levelo_inurba_marseille","lat":43.28447,"lon":5.35906,"is_reserved":false,"is_disabled":false,"rental_uris":{"android":"levelo://app?vid=4e5c2e97-6c61-4332-9672-f5a53881b0d1","ios":"levelo://app?vid=4e5c2e97-6c61-4332-9672-f5a53881b0d1"},"vehicle_type_id":"4","last_reported":1758305647,"current_range_meters":12800,"station_id":"ce4bhah2rcd13ifvqei0","pricing_plan_id":"cebpf4jnsgd1na2vs0mg"},{"bike_id":"f650b0a3-b3f6-43de-942b-37eeeb269151","system_id":"levelo_inurba_marseille","lat":43.2826,"lon":5.35084,"is_reserved":false,"is_disabled":false,"rental_uris":{"android":"levelo://app?vid=f650b0a3-b3f6-43de-942b-37eeeb269151","ios":"levelo://app?vid=f650b0a3-b3f6-43de-942b-37eeeb269151"},"vehicle_type_id":"4","last_reported":1758305647,"current_range_meters":12800,"station_id":"ce4bhbp2rcd13ifvqerg","pricing_plan_id":"cebpf4jnsgd1na2vs0mg"},{"bike_id":"6dc49f8f-31b8-485c-b489-e3fd253e6676","system_id":"levelo_inurba_marseille","lat":43.333009,"lon":5.410255,"is_reserved":false,"is_disabled":true,"rental_uris":{"android":"levelo://app?vid=6dc49f8f-31b8-485c-b489-e3fd253e6676","ios":"levelo://app?vid=6dc49f8f-31b8-485c-b489-e3fd253e6676"},"vehicle_type_id":"4","last_reported":1758305647,"current_range_meters":12800,"station_id":"","pricing_plan_id":"cebpf4jnsgd1na2vs0mg"},{"bike_id":"e0fa618d-316c-40f0-84a4-361066b627a3","system_id":"levelo_inurba_marseille","lat":43.2175,"lon":5.34603,"is_reserved":false,"is_disabled":true,"rental_uris":{"android":"levelo://app?vid=e0fa618d-316c-40f0-84a4-361066b627a3","ios":"levelo://app?vid=e0fa618d-316c-40f0-84a4-361066b627a3"},"vehicle_type_id":"4","last_reported":1758305647,"current_range_meters":12800,"station_id":"st_cvj6r9ubvosntc0bgbag","pricing_plan_id":"cebpf4jnsgd1na2vs0mg"},{"bike_id":"67eb8721-b3b8-4086-9ffc-60ca7e1b0555","system_id":"levelo_inurba_marseille","lat":43.28417,"lon":5.34995,"is_reserved":false,"is_disabled":false,"rental_uris":{"android":"levelo://app?vid=67eb8721-b3b8-4086-9ffc-60ca7e1b0555","ios":"levelo://app?vid=67eb8721-b3b8-4086-9ffc-60ca7e1b0555"},"vehicle_type_id":"4","last_reported":1758305647,"current_range_meters":12800,"station_id":"ce4bhbh2rcd13ifvqepg","pricing_plan_id":"cebpf4jnsgd1na2vs0mg"},{"bike_id":"5934df16-5e2e-448d-95ba-5c69834e362b","system_id":"levelo_inurba_marseille","lat":43.31134,"lon":5.37768,"is_reserved":false,"is_disabled":false,"rental_uris":{"android":"levelo://app?vid=5934df16-5e2e-448d-95ba-5c69834e362b","ios":"levelo://app?vid=5934df16-5e2e-448d-95ba-5c69834e362b"},"vehicle_type_id":"4","last_reported":1758305647,"current_range_meters":12800,"station_id":"ce4bgt92rcd13ifvqcg0","pricing_plan_id":"cebpf4jnsgd1na2vs0mg"},{"bike_id":"eccfbe0d-5d48-4415-8a59-51b74f22e9d3","system_id":"levelo_inurba_marseille","lat":43.3236,"lon":5.3889,"is_reserved":false,"is_disabled":false,"rental_uris":{"android":"levelo://app?vid=eccfbe0d-5d48-4415-8a59-51b74f22e9d3","ios":"levelo://app?vid=eccfbe0d-5d48-4415-8a59-51b74f22e9d3"},"vehicle_type_id":"4","last_reported":1758305647,"current_range_meters":13600,"station_id":"ce4bhqp2rcd13ifvqhog","pricing_plan_id":"cebpf4jnsgd1na2vs0mg"},{"bike_id":"931664d9-a1f9-4b23-9426-5b3082bf7d09","system_id":"levelo_inurba_marseille","lat":43.30948,"lon":5.40145,"is_reserved":false,"is_disabled":true,"rental_uris":{"android":"levelo://app?vid=931664d9-a1f9-4b23-9426-5b3082bf7d09","ios":"levelo://app?vid=931664d9-a1f9-4b23-9426-5b3082bf7d09"},"vehicle_type_id":"4","last_reported":1758305647,"current_range_meters":13600,"station_id":"ce4bgvp2rcd13ifvqct0","pricing_plan_id":"cebpf4jnsgd1na2vs0mg"},{"bike_id":"8bb32879-d3ab-4c6f-8d7b-d488269d347c","system_id":"levelo_inurba_marseille","lat":43.26956,"lon":5.38638,"is_reserved":false,"is_disabled":false,"rental_uris":{"android":"levelo://app?vid=8bb32879-d3ab-4c6f-8d7b-d488269d347c","ios":"levelo://app?vid=8bb32879-d3ab-4c6f-8d7b-d488269d347c"},"vehicle_type_id":"4","last_reported":1758305647,"current_range_meters":13600,"station_id":"ce4bhh92rcd13ifvqfh0","pricing_plan_id":"cebpf4jnsgd1na2vs0mg"},{"bike_id":"3f5e9678-cbd7-42e0-a9d9-d6426f396cb1","system_id":"levelo_inurba_marseille","lat":43.28468,"lon":5.35879,"is_reserved":false,"is_disabled":false,"rental_uris":{"android":"levelo://app?vid=3f5e9678-cbd7-42e0-a9d9-d6426f396cb1","ios":"levelo://app?vid=3f5e9678-cbd7-42e0-a9d9-d6426f396cb1"},"vehicle_type_id":"4","last_reported":1758305647,"current_range_meters":13600,"station_id":"ce4bhah2rcd13ifvqei0","pricing_plan_id":"cebpf4jnsgd1na2vs0mg"},{"bike_id":"01da3059-1b87-4b7c-8498-2db0feb66339","system_id":"levelo_inurba_marseille","lat":43.30899,"lon":5.37194,"is_reserved":false,"is_disabled":false,"rental_uris":{"android":"levelo://app?vid=01da3059-1b87-4b7c-8498-2db0feb66339","ios":"levelo://app?vid=01da3059-1b87-4b7c-8498-2db0feb66339"},"vehicle_type_id":"4","last_reported":1758305647,"current_range_meters":13600,"station_id":"ce4bguh2rcd13ifvqckg","pricing_plan_id":"cebpf4jnsgd1na2vs0mg"},{"bike_id":"ae82ef14-958e-42fb-9056-adf28084632d","system_id":"levelo_inurba_marseille","lat":43.28424,"lon":5.35,"is_reserved":false,"is_disabled":false,"rental_uris":{"android":"levelo://app?vid=ae82ef14-958e-42fb-9056-adf28084632d","ios":"levelo://app?vid=ae82ef14-958e-42fb-9056-adf28084632d"},"vehicle_type_id":"4","last_reported":1758305647,"current_range_meters":13600,"station_id":"ce4bhbh2rcd13ifvqepg","pricing_plan_id":"cebpf4jnsgd1na2vs0mg"},{"bike_id":"518eef5b-9e3c-4b06-94a9-56e70af9d262","system_id":"levelo_inurba_marseille","lat":43.30798,"lon":5.38165,"is_reserved":false,"is_disabled":true,"rental_uris":{"android":"levelo://app?vid=518eef5b-9e3c-4b06-94a9-56e70af9d262","ios":"levelo://app?vid=518eef5b-9e3c-4b06-94a9-56e70af9d262"},"vehicle_type_id":"4","last_reported":1758305647,"current_range_meters":13600,"station_id":"ce4bgt12rcd13ifvqce0","pricing_plan_id":"cebpf4jnsgd1na2vs0mg"},{"bike_id":"bec0d7cc-0380-4596-856b-21071801feeb","system_id":"levelo_inurba_marseille","lat":43.30307,"lon":5.36891,"is_reserved":false,"is_disabled":false,"rental_uris":{"android":"levelo://app?vid=bec0d7cc-0380-4596-856b-21071801feeb","ios":"levelo://app?vid=bec0d7cc-0380-4596-856b-21071801feeb"},"vehicle_type_id":"4","last_reported":1758305647,"current_range_meters":13600,"station_id":"ce4bgqh2rcd13ifvqc5g","pricing_plan_id":"cebpf4jnsgd1na2vs0mg"},{"bike_id":"9c0693b2-33f4-40d9-85fa-754a770a9d54","system_id":"levelo_inurba_marseille","lat":43.295188,"lon":5.390328,"is_reserved":false,"is_disabled":false,"rental_uris":{"android":"levelo://app?vid=9c0693b2-33f4-40d9-85fa-754a770a9d54","ios":"levelo://app?vid=9c0693b2-33f4-40d9-85fa-754a770a9d54"},"vehicle_type_id":"4","last_reported":1758305647,"current_range_meters":13600,"station_id":"ce4bh312rcd13ifvqdj0","pricing_plan_id":"cebpf4jnsgd1na2vs0mg"},{"bike_id":"62c315b2-4495-42d9-b7c0-94324f1e3fe9","system_id":"levelo_inurba_marseille","lat":43.28615,"lon":5.35099,"is_reserved":false,"is_disabled":false,"rental_uris":{"android":"levelo://app?vid=62c315b2-4495-42d9-b7c0-94324f1e3fe9","ios":"levelo://app?vid=62c315b2-4495-42d9-b7c0-94324f1e3fe9"},"vehicle_type_id":"4","last_reported":1758305647,"current_range_meters":13600,"station_id":"ce4bhch2rcd13ifvqeug","pricing_plan_id":"cebpf4jnsgd1na2vs0mg"},{"bike_id":"52455f70-dd0c-4195-a839-7f293a4caa23","system_id":"levelo_inurba_marseille","lat":43.308415,"lon":5.367659,"is_reserved":false,"is_disabled":false,"rental_uris":{"android":"levelo://app?vid=52455f70-dd0c-4195-a839-7f293a4caa23","ios":"levelo://app?vid=52455f70-dd0c-4195-a839-7f293a4caa23"},"vehicle_type_id":"4","last_reported":1758305647,"current_range_meters":13600,"station_id":"ce4bgn92rcd13ifvqbvg","pricing_plan_id":"cebpf4jnsgd1na2vs0mg"},{"bike_id":"c3b7252f-4ea6-44a6-9bf8-3ca05a1fafc5","system_id":"levelo_inurba_marseille","lat":43.31529,"lon":5.38061,"is_reserved":false,"is_disabled":false,"rental_uris":{"android":"levelo://app?vid=c3b7252f-4ea6-44a6-9bf8-3ca05a1fafc5","ios":"levelo://app?vid=c3b7252f-4ea6-44a6-9bf8-3ca05a1fafc5"},"vehicle_type_id":"4","last_reported":1758305647,"current_range_meters":14000,"station_id":"ce4bhsp2rcd13ifvqi50","pricing_plan_id":"cebpf4jnsgd1na2vs0mg"},{"bike_id":"36905614-b793-4d74-a47f-a5dc0a8acae3","system_id":"levelo_inurba_marseille","lat":43.31754,"lon":5.39016,"is_reserved":false,"is_disabled":false,"rental_uris":{"android":"levelo://app?vid=36905614-b793-4d74-a47f-a5dc0a8acae3","ios":"levelo://app?vid=36905614-b793-4d74-a47f-a5dc0a8acae3"},"vehicle_type_id":"4","last_reported":1758305647,"current_range_meters":14000,"station_id":"ce4bhqp2rcd13ifvqhng","pricing_plan_id":"cebpf4jnsgd1na2vs0mg"},{"bike_id":"45b73b96-2568-4267-b40c-471be47af509","system_id":"levelo_inurba_marseille","lat":43.29849,"lon":5.36287,"is_reserved":false,"is_disabled":false,"rental_uris":{"android":"levelo://app?vid=45b73b96-2568-4267-b40c-471be47af509","ios":"levelo://app?vid=45b73b96-2568-4267-b40c-471be47af509"},"vehicle_type_id":"4","last_reported":1758305647,"current_range_meters":14000,"station_id":"ce4bgpp2rcd13ifvqc3g","pricing_plan_id":"cebpf4jnsgd1na2vs0mg"},{"bike_id":"472c7967-e7c4-4df8-882d-9ca36a7f9c12","system_id":"levelo_inurba_marseille","lat":43.29247,"lon":5.38435,"is_reserved":false,"is_disabled":false,"rental_uris":{"android":"levelo://app?vid=472c7967-e7c4-4df8-882d-9ca36a7f9c12","ios":"levelo://app?vid=472c7967-e7c4-4df8-882d-9ca36a7f9c12"},"vehicle_type_id":"4","last_reported":1758305647,"current_range_meters":13600,"station_id":"ce4bh692rcd13ifvqea0","pricing_plan_id":"cebpf4jnsgd1na2vs0mg"},{"bike_id":"b44f4d09-4b7a-4a5b-af76-d60b19b3ea18","system_id":"levelo_inurba_marseille","lat":43.2656,"lon":5.40329,"is_reserved":false,"is_disabled":false,"rental_uris":{"android":"levelo://app?vid=b44f4d09-4b7a-4a5b-af76-d60b19b3ea18","ios":"levelo://app?vid=b44f4d09-4b7a-4a5b-af76-d60b19b3ea18"},"vehicle_type_id":"4","last_reported":1758305647,"current_range_meters":14400,"station_id":"ce4bhmp2rcd13ifvqgng","pricing_plan_id":"cebpf4jnsgd1na2vs0mg"},{"bike_id":"f85a8c4d-f9d0-4136-9b57-8bfb28db950c","system_id":"levelo_inurba_marseille","lat":43.31877,"lon":5.37419,"is_reserved":false,"is_disabled":false,"rental_uris":{"android":"levelo://app?vid=f85a8c4d-f9d0-4136-9b57-8bfb28db950c","ios":"levelo://app?vid=f85a8c4d-f9d0-4136-9b57-8bfb28db950c"},"vehicle_type_id":"4","last_reported":1758305647,"current_range_meters":14400,"station_id":"","pricing_plan_id":"cebpf4jnsgd1na2vs0mg"},{"bike_id":"c08c1532-c65e-44b3-bb31-126b5de6daf7","system_id":"levelo_inurba_marseille","lat":43.27057,"lon":5.40258,"is_reserved":false,"is_disabled":false,"rental_uris":{"android":"levelo://app?vid=c08c1532-c65e-44b3-bb31-126b5de6daf7","ios":"levelo://app?vid=c08c1532-c65e-44b3-bb31-126b5de6daf7"},"vehicle_type_id":"4","last_reported":1758305647,"current_range_meters":14400,"station_id":"ce4bhk92rcd13ifvqgc0","pricing_plan_id":"cebpf4jnsgd1na2vs0mg"},{"bike_id":"09e89ba2-8f72-4ffd-8b15-faf186168c2d","system_id":"levelo_inurba_marseille","lat":43.3118,"lon":5.36985,"is_reserved":false,"is_disabled":false,"rental_uris":{"android":"levelo://app?vid=09e89ba2-8f72-4ffd-8b15-faf186168c2d","ios":"levelo://app?vid=09e89ba2-8f72-4ffd-8b15-faf186168c2d"},"vehicle_type_id":"4","last_reported":1758305647,"current_range_meters":14400,"station_id":"","pricing_plan_id":"cebpf4jnsgd1na2vs0mg"},{"bike_id":"438ead59-de14-4fa0-a61d-03a70a4122ae","system_id":"levelo_inurba_marseille","lat":43.9727,"lon":4.89149,"is_reserved":false,"is_disabled":true,"rental_uris":{"android":"levelo://app?vid=438ead59-de14-4fa0-a61d-03a70a4122ae","ios":"levelo://app?vid=438ead59-de14-4fa0-a61d-03a70a4122ae"},"vehicle_type_id":"4","last_reported":1758305647,"current_range_meters":14400,"station_id":"","pricing_plan_id":"cebpf4jnsgd1na2vs0mg"},{"bike_id":"65542c90-9bb6-4030-b3c4-f6c6793e4907","system_id":"levelo_inurba_marseille","lat":43.26563,"lon":5.39011,"is_reserved":false,"is_disabled":false,"rental_uris":{"android":"levelo://app?vid=65542c90-9bb6-4030-b3c4-f6c6793e4907","ios":"levelo://app?vid=65542c90-9bb6-4030-b3c4-f6c6793e4907"},"vehicle_type_id":"4","last_reported":1758305647,"current_range_meters":14400,"station_id":"ce4bhe12rcd13ifvqf30","pricing_plan_id":"cebpf4jnsgd1na2vs0mg"},{"bike_id":"c13d8000-87b6-419a-a1ce-6f7f8094537d","system_id":"levelo_inurba_marseille","lat":43.27178,"lon":5.40989,"is_reserved":false,"is_disabled":false,"rental_uris":{"android":"levelo://app?vid=c13d8000-87b6-419a-a1ce-6f7f8094537d","ios":"levelo://app?vid=c13d8000-87b6-419a-a1ce-6f7f8094537d"},"vehicle_type_id":"4","last_reported":1758305647,"current_range_meters":14800,"station_id":"ce4bhl12rcd13ifvqgf0","pricing_plan_id":"cebpf4jnsgd1na2vs0mg"},{"bike_id":"70b2e10b-2335-41b5-ba84-2699f7d3762e","system_id":"levelo_inurba_marseille","lat":43.29934,"lon":5.36561,"is_reserved":false,"is_disabled":false,"rental_uris":{"android":"levelo://app?vid=70b2e10b-2335-41b5-ba84-2699f7d3762e","ios":"levelo://app?vid=70b2e10b-2335-41b5-ba84-2699f7d3762e"},"vehicle_type_id":"4","last_reported":1758305647,"current_range_meters":14800,"station_id":"ce4bgm92rcd13ifvqbr0","pricing_plan_id":"cebpf4jnsgd1na2vs0mg"},{"bike_id":"fbf8b3ef-fab4-496b-9171-97052b3bc0bd","system_id":"levelo_inurba_marseille","lat":43.30534,"lon":5.37253,"is_reserved":false,"is_disabled":true,"rental_uris":{"android":"levelo://app?vid=fbf8b3ef-fab4-496b-9171-97052b3bc0bd","ios":"levelo://app?vid=fbf8b3ef-fab4-496b-9171-97052b3bc0bd"},"vehicle_type_id":"4","last_reported":1758305647,"current_range_meters":14800,"station_id":"ce4bgqh2rcd13ifvqc4g","pricing_plan_id":"cebpf4jnsgd1na2vs0mg"},{"bike_id":"3c70ac7d-f6f1-4b32-a730-a5dfc2e234bf","system_id":"levelo_inurba_marseille","lat":43.29233,"lon":5.37637,"is_reserved":false,"is_disabled":true,"rental_uris":{"android":"levelo://app?vid=3c70ac7d-f6f1-4b32-a730-a5dfc2e234bf","ios":"levelo://app?vid=3c70ac7d-f6f1-4b32-a730-a5dfc2e234bf"},"vehicle_type_id":"4","last_reported":1758305647,"current_range_meters":14800,"station_id":"ce4bgi12rcd13ifvqb80","pricing_plan_id":"cebpf4jnsgd1na2vs0mg"},{"bike_id":"6cea28af-1014-4133-a350-0857093891d1","system_id":"levelo_inurba_marseille","lat":43.29256,"lon":5.38437,"is_reserved":false,"is_disabled":false,"rental_uris":{"android":"levelo://app?vid=6cea28af-1014-4133-a350-0857093891d1","ios":"levelo://app?vid=6cea28af-1014-4133-a350-0857093891d1"},"vehicle_type_id":"4","last_reported":1758305647,"current_range_meters":14400,"station_id":"ce4bh692rcd13ifvqea0","pricing_plan_id":"cebpf4jnsgd1na2vs0mg"},{"bike_id":"5ee5ed8e-e382-49b5-a1cd-4debf6217c67","system_id":"levelo_inurba_marseille","lat":43.28593,"lon":5.35125,"is_reserved":false,"is_disabled":false,"rental_uris":{"android":"levelo://app?vid=5ee5ed8e-e382-49b5-a1cd-4debf6217c67","ios":"levelo://app?vid=5ee5ed8e-e382-49b5-a1cd-4debf6217c67"},"vehicle_type_id":"4","last_reported":1758305647,"current_range_meters":15200,"station_id":"ce4bhch2rcd13ifvqeug","pricing_plan_id":"cebpf4jnsgd1na2vs0mg"},{"bike_id":"dccefeab-758e-4850-a415-f18571ed0a71","system_id":"levelo_inurba_marseille","lat":43.29537,"lon":5.38539,"is_reserved":false,"is_disabled":true,"rental_uris":{"android":"levelo://app?vid=dccefeab-758e-4850-a415-f18571ed0a71","ios":"levelo://app?vid=dccefeab-758e-4850-a415-f18571ed0a71"},"vehicle_type_id":"4","last_reported":1758305647,"current_range_meters":15200,"station_id":"ce4bgih2rcd13ifvqba0","pricing_plan_id":"cebpf4jnsgd1na2vs0mg"},{"bike_id":"2499a65f-106c-4cee-823e-c9d939ffbc5f","system_id":"levelo_inurba_marseille","lat":43.31108,"lon":5.38595,"is_reserved":false,"is_disabled":false,"rental_uris":{"android":"levelo://app?vid=2499a65f-106c-4cee-823e-c9d939ffbc5f","ios":"levelo://app?vid=2499a65f-106c-4cee-823e-c9d939ffbc5f"},"vehicle_type_id":"4","last_reported":1758305647,"current_range_meters":15200,"station_id":"","pricing_plan_id":"cebpf4jnsgd1na2vs0mg"},{"bike_id":"c4706891-6ce1-4440-91ff-a3ecf2ff007e","system_id":"levelo_inurba_marseille","lat":43.26374,"lon":5.40075,"is_reserved":false,"is_disabled":false,"rental_uris":{"android":"levelo://app?vid=c4706891-6ce1-4440-91ff-a3ecf2ff007e","ios":"levelo://app?vid=c4706891-6ce1-4440-91ff-a3ecf2ff007e"},"vehicle_type_id":"4","last_reported":1758305647,"current_range_meters":16000,"station_id":"","pricing_plan_id":"cebpf4jnsgd1na2vs0mg"},{"bike_id":"9186af57-f08c-4cc8-9050-a3582004c079","system_id":"levelo_inurba_marseille","lat":43.25331,"lon":5.42183,"is_reserved":false,"is_disabled":false,"rental_uris":{"android":"levelo://app?vid=9186af57-f08c-4cc8-9050-a3582004c079","ios":"levelo://app?vid=9186af57-f08c-4cc8-9050-a3582004c079"},"vehicle_type_id":"4","last_reported":1758305647,"current_range_meters":16000,"station_id":"st_d2m65c5bi1j21697t3ng","pricing_plan_id":"cebpf4jnsgd1na2vs0mg"},{"bike_id":"18e3aeb1-b2cc-4222-967e-3fa218817483","system_id":"levelo_inurba_marseille","lat":43.29601,"lon":5.38115,"is_reserved":false,"is_disabled":false,"rental_uris":{"android":"levelo://app?vid=18e3aeb1-b2cc-4222-967e-3fa218817483","ios":"levelo://app?vid=18e3aeb1-b2cc-4222-967e-3fa218817483"},"vehicle_type_id":"4","last_reported":1758305647,"current_range_meters":16000,"station_id":"ce4bgl12rcd13ifvqbo0","pricing_plan_id":"cebpf4jnsgd1na2vs0mg"},{"bike_id":"df0199ee-ab4f-48ab-bbe9-404b970e49dc","system_id":"levelo_inurba_marseille","lat":43.2908,"lon":5.37151,"is_reserved":false,"is_disabled":true,"rental_uris":{"android":"levelo://app?vid=df0199ee-ab4f-48ab-bbe9-404b970e49dc","ios":"levelo://app?vid=df0199ee-ab4f-48ab-bbe9-404b970e49dc"},"vehicle_type_id":"4","last_reported":1758305647,"current_range_meters":16000,"station_id":"ce4bh5p2rcd13ifvqe4g","pricing_plan_id":"cebpf4jnsgd1na2vs0mg"},{"bike_id":"835975a0-27c7-47e7-bc1c-b8ba0b505127","system_id":"levelo_inurba_marseille","lat":43.32595,"lon":5.37814,"is_reserved":false,"is_disabled":false,"rental_uris":{"android":"levelo://app?vid=835975a0-27c7-47e7-bc1c-b8ba0b505127","ios":"levelo://app?vid=835975a0-27c7-47e7-bc1c-b8ba0b505127"},"vehicle_type_id":"4","last_reported":1758305647,"current_range_meters":16000,"station_id":"","pricing_plan_id":"cebpf4jnsgd1na2vs0mg"},{"bike_id":"1599f585-12c2-4d41-ad17-017bdc44bf12","system_id":"levelo_inurba_marseille","lat":43.31323,"lon":5.39706,"is_reserved":false,"is_disabled":false,"rental_uris":{"android":"levelo://app?vid=1599f585-12c2-4d41-ad17-017bdc44bf12","ios":"levelo://app?vid=1599f585-12c2-4d41-ad17-017bdc44bf12"},"vehicle_type_id":"4","last_reported":1758305647,"current_range_meters":15200,"station_id":"ce4bgvp2rcd13ifvqcu0","pricing_plan_id":"cebpf4jnsgd1na2vs0mg"},{"bike_id":"475f73fb-9064-42b7-8631-3ace5220a169","system_id":"levelo_inurba_marseille","lat":43.29302,"lon":5.37442,"is_reserved":false,"is_disabled":false,"rental_uris":{"android":"levelo://app?vid=475f73fb-9064-42b7-8631-3ace5220a169","ios":"levelo://app?vid=475f73fb-9064-42b7-8631-3ace5220a169"},"vehicle_type_id":"4","last_reported":1758305647,"current_range_meters":16000,"station_id":"ce4bgi12rcd13ifvqb70","pricing_plan_id":"cebpf4jnsgd1na2vs0mg"},{"bike_id":"23fac069-01cc-45b6-b24d-e676fd2da16a","system_id":"levelo_inurba_marseille","lat":43.29262,"lon":5.36856,"is_reserved":false,"is_disabled":true,"rental_uris":{"android":"levelo://app?vid=23fac069-01cc-45b6-b24d-e676fd2da16a","ios":"levelo://app?vid=23fac069-01cc-45b6-b24d-e676fd2da16a"},"vehicle_type_id":"4","last_reported":1758305647,"current_range_meters":16000,"station_id":"ce4bhbp2rcd13ifvqesg","pricing_plan_id":"cebpf4jnsgd1na2vs0mg"},{"bike_id":"2966fb98-fd0a-4e97-97f0-9ba68458b923","system_id":"levelo_inurba_marseille","lat":43.29529,"lon":5.38543,"is_reserved":false,"is_disabled":false,"rental_uris":{"android":"levelo://app?vid=2966fb98-fd0a-4e97-97f0-9ba68458b923","ios":"levelo://app?vid=2966fb98-fd0a-4e97-97f0-9ba68458b923"},"vehicle_type_id":"4","last_reported":1758305647,"current_range_meters":16000,"station_id":"ce4bgih2rcd13ifvqba0","pricing_plan_id":"cebpf4jnsgd1na2vs0mg"},{"bike_id":"7f1be994-af2d-4c9a-807a-220e9a43367d","system_id":"levelo_inurba_marseille","lat":43.22914,"lon":5.35397,"is_reserved":false,"is_disabled":false,"rental_uris":{"android":"levelo://app?vid=7f1be994-af2d-4c9a-807a-220e9a43367d","ios":"levelo://app?vid=7f1be994-af2d-4c9a-807a-220e9a43367d"},"vehicle_type_id":"4","last_reported":1758305647,"current_range_meters":16400,"station_id":"cpo3532slgdg3j2ikp40","pricing_plan_id":"cebpf4jnsgd1na2vs0mg"},{"bike_id":"15056272-9948-4fb8-8a3f-0dce85d9f376","system_id":"levelo_inurba_marseille","lat":43.27828,"lon":5.39193,"is_reserved":false,"is_disabled":true,"rental_uris":{"android":"levelo://app?vid=15056272-9948-4fb8-8a3f-0dce85d9f376","ios":"levelo://app?vid=15056272-9948-4fb8-8a3f-0dce85d9f376"},"vehicle_type_id":"4","last_reported":1758305647,"current_range_meters":16400,"station_id":"ce4bhjp2rcd13ifvqga0","pricing_plan_id":"cebpf4jnsgd1na2vs0mg"},{"bike_id":"c5460364-007b-452f-80fb-856b4b8191da","system_id":"levelo_inurba_marseille","lat":43.29551,"lon":5.42278,"is_reserved":false,"is_disabled":false,"rental_uris":{"android":"levelo://app?vid=c5460364-007b-452f-80fb-856b4b8191da","ios":"levelo://app?vid=c5460364-007b-452f-80fb-856b4b8191da"},"vehicle_type_id":"4","last_reported":1758305647,"current_range_meters":16400,"station_id":"ce4bhph2rcd13ifvqhdg","pricing_plan_id":"cebpf4jnsgd1na2vs0mg"},{"bike_id":"69d3060c-3c2a-4cb9-b185-8c33865c34a1","system_id":"levelo_inurba_marseille","lat":43.291285,"lon":5.355837,"is_reserved":false,"is_disabled":false,"rental_uris":{"android":"levelo://app?vid=69d3060c-3c2a-4cb9-b185-8c33865c34a1","ios":"levelo://app?vid=69d3060c-3c2a-4cb9-b185-8c33865c34a1"},"vehicle_type_id":"4","last_reported":1758305647,"current_range_meters":16400,"station_id":"ce4bha92rcd13ifvqeh0","pricing_plan_id":"cebpf4jnsgd1na2vs0mg"},{"bike_id":"23383db8-d99e-4ba2-b160-26de04465101","system_id":"levelo_inurba_marseille","lat":43.29263,"lon":5.3843,"is_reserved":false,"is_disabled":false,"rental_uris":{"android":"levelo://app?vid=23383db8-d99e-4ba2-b160-26de04465101","ios":"levelo://app?vid=23383db8-d99e-4ba2-b160-26de04465101"},"vehicle_type_id":"4","last_reported":1758305647,"current_range_meters":16800,"station_id":"ce4bh692rcd13ifvqea0","pricing_plan_id":"cebpf4jnsgd1na2vs0mg"},{"bike_id":"43d57fd4-047e-4ac8-97e5-ec9b96239472","system_id":"levelo_inurba_marseille","lat":43.32399,"lon":5.39026,"is_reserved":false,"is_disabled":false,"rental_uris":{"android":"levelo://app?vid=43d57fd4-047e-4ac8-97e5-ec9b96239472","ios":"levelo://app?vid=43d57fd4-047e-4ac8-97e5-ec9b96239472"},"vehicle_type_id":"4","last_reported":1758305647,"current_range_meters":16400,"station_id":"","pricing_plan_id":"cebpf4jnsgd1na2vs0mg"},{"bike_id":"4a571329-2cb9-4122-8a51-9d09579b5532","system_id":"levelo_inurba_marseille","lat":43.295319,"lon":5.3855,"is_reserved":false,"is_disabled":false,"rental_uris":{"android":"levelo://app?vid=4a571329-2cb9-4122-8a51-9d09579b5532","ios":"levelo://app?vid=4a571329-2cb9-4122-8a51-9d09579b5532"},"vehicle_type_id":"4","last_reported":1758305647,"current_range_meters":16400,"station_id":"ce4bgih2rcd13ifvqba0","pricing_plan_id":"cebpf4jnsgd1na2vs0mg"},{"bike_id":"8e86fe12-b2d6-4764-9720-31f5ab462b7b","system_id":"levelo_inurba_marseille","lat":43.22578,"lon":5.41624,"is_reserved":false,"is_disabled":false,"rental_uris":{"android":"levelo://app?vid=8e86fe12-b2d6-4764-9720-31f5ab462b7b","ios":"levelo://app?vid=8e86fe12-b2d6-4764-9720-31f5ab462b7b"},"vehicle_type_id":"4","last_reported":1758305647,"current_range_meters":16800,"station_id":"st_d2o4gvlbi1j2169b742g","pricing_plan_id":"cebpf4jnsgd1na2vs0mg"},{"bike_id":"c58d7d6f-24fa-4b42-8c9f-54cab8ea6382","system_id":"levelo_inurba_marseille","lat":43.24998,"lon":5.38934,"is_reserved":false,"is_disabled":false,"rental_uris":{"android":"levelo://app?vid=c58d7d6f-24fa-4b42-8c9f-54cab8ea6382","ios":"levelo://app?vid=c58d7d6f-24fa-4b42-8c9f-54cab8ea6382"},"vehicle_type_id":"4","last_reported":1758305647,"current_range_meters":16400,"station_id":"ce4bhgp2rcd13ifvqfd0","pricing_plan_id":"cebpf4jnsgd1na2vs0mg"},{"bike_id":"a1a12c71-6d96-4648-a25f-8df642a6dc66","system_id":"levelo_inurba_marseille","lat":43.28474,"lon":5.38437,"is_reserved":false,"is_disabled":true,"rental_uris":{"android":"levelo://app?vid=a1a12c71-6d96-4648-a25f-8df642a6dc66","ios":"levelo://app?vid=a1a12c71-6d96-4648-a25f-8df642a6dc66"},"vehicle_type_id":"4","last_reported":1758305647,"current_range_meters":16800,"station_id":"ce4bh512rcd13ifvqe3g","pricing_plan_id":"cebpf4jnsgd1na2vs0mg"},{"bike_id":"af0490b6-c1c9-4895-8a15-568d23e0a730","system_id":"levelo_inurba_marseille","lat":43.28077,"lon":5.40782,"is_reserved":false,"is_disabled":false,"rental_uris":{"android":"levelo://app?vid=af0490b6-c1c9-4895-8a15-568d23e0a730","ios":"levelo://app?vid=af0490b6-c1c9-4895-8a15-568d23e0a730"},"vehicle_type_id":"4","last_reported":1758305647,"current_range_meters":16800,"station_id":"","pricing_plan_id":"cebpf4jnsgd1na2vs0mg"},{"bike_id":"11e1423d-62ff-4535-9cb8-f0d52f569ac9","system_id":"levelo_inurba_marseille","lat":43.29784,"lon":5.39342,"is_reserved":false,"is_disabled":false,"rental_uris":{"android":"levelo://app?vid=11e1423d-62ff-4535-9cb8-f0d52f569ac9","ios":"levelo://app?vid=11e1423d-62ff-4535-9cb8-f0d52f569ac9"},"vehicle_type_id":"4","last_reported":1758305647,"current_range_meters":16800,"station_id":"chh1huq6cuj3fo74tm60","pricing_plan_id":"cebpf4jnsgd1na2vs0mg"},{"bike_id":"30279a9d-e63a-446d-b6bf-61f4c5913911","system_id":"levelo_inurba_marseille","lat":43.28426,"lon":5.35014,"is_reserved":false,"is_disabled":false,"rental_uris":{"android":"levelo://app?vid=30279a9d-e63a-446d-b6bf-61f4c5913911","ios":"levelo://app?vid=30279a9d-e63a-446d-b6bf-61f4c5913911"},"vehicle_type_id":"4","last_reported":1758305647,"current_range_meters":16800,"station_id":"ce4bhbh2rcd13ifvqepg","pricing_plan_id":"cebpf4jnsgd1na2vs0mg"},{"bike_id":"1926083a-0759-4dce-af3c-1b79b119821d","system_id":"levelo_inurba_marseille","lat":43.296717,"lon":5.378892,"is_reserved":false,"is_disabled":false,"rental_uris":{"android":"levelo://app?vid=1926083a-0759-4dce-af3c-1b79b119821d","ios":"levelo://app?vid=1926083a-0759-4dce-af3c-1b79b119821d"},"vehicle_type_id":"4","last_reported":1758305647,"current_range_meters":16800,"station_id":"ce4bgkh2rcd13ifvqbk0","pricing_plan_id":"cebpf4jnsgd1na2vs0mg"},{"bike_id":"8294b693-0625-44f5-a6ee-ffe1a8baac85","system_id":"levelo_inurba_marseille","lat":43.28424,"lon":5.34986,"is_reserved":false,"is_disabled":false,"rental_uris":{"android":"levelo://app?vid=8294b693-0625-44f5-a6ee-ffe1a8baac85","ios":"levelo://app?vid=8294b693-0625-44f5-a6ee-ffe1a8baac85"},"vehicle_type_id":"4","last_reported":1758305647,"current_range_meters":17200,"station_id":"ce4bhbh2rcd13ifvqepg","pricing_plan_id":"cebpf4jnsgd1na2vs0mg"},{"bike_id":"ac0467b9-9f22-4187-b484-50de3ac635c3","system_id":"levelo_inurba_marseille","lat":43.28411,"lon":5.35001,"is_reserved":false,"is_disabled":false,"rental_uris":{"android":"levelo://app?vid=ac0467b9-9f22-4187-b484-50de3ac635c3","ios":"levelo://app?vid=ac0467b9-9f22-4187-b484-50de3ac635c3"},"vehicle_type_id":"4","last_reported":1758305647,"current_range_meters":17200,"station_id":"ce4bhbh2rcd13ifvqepg","pricing_plan_id":"cebpf4jnsgd1na2vs0mg"},{"bike_id":"f22c3afb-e3ea-4b4b-a8f8-1764b1e75d9b","system_id":"levelo_inurba_marseille","lat":43.30365,"lon":5.42497,"is_reserved":false,"is_disabled":false,"rental_uris":{"android":"levelo://app?vid=f22c3afb-e3ea-4b4b-a8f8-1764b1e75d9b","ios":"levelo://app?vid=f22c3afb-e3ea-4b4b-a8f8-1764b1e75d9b"},"vehicle_type_id":"4","last_reported":1758305647,"current_range_meters":17600,"station_id":"ce4bhoh2rcd13ifvqh6g","pricing_plan_id":"cebpf4jnsgd1na2vs0mg"},{"bike_id":"b810ec46-97ab-4356-95f9-0c9d02506d5a","system_id":"levelo_inurba_marseille","lat":43.24458,"lon":5.39039,"is_reserved":false,"is_disabled":false,"rental_uris":{"android":"levelo://app?vid=b810ec46-97ab-4356-95f9-0c9d02506d5a","ios":"levelo://app?vid=b810ec46-97ab-4356-95f9-0c9d02506d5a"},"vehicle_type_id":"4","last_reported":1758305647,"current_range_meters":17200,"station_id":"","pricing_plan_id":"cebpf4jnsgd1na2vs0mg"},{"bike_id":"e903e5a1-f822-4b3a-8695-397dcb878dea","system_id":"levelo_inurba_marseille","lat":43.30959,"lon":5.3903,"is_reserved":false,"is_disabled":false,"rental_uris":{"android":"levelo://app?vid=e903e5a1-f822-4b3a-8695-397dcb878dea","ios":"levelo://app?vid=e903e5a1-f822-4b3a-8695-397dcb878dea"},"vehicle_type_id":"4","last_reported":1758305647,"current_range_meters":17200,"station_id":"ce4bgup2rcd13ifvqco0","pricing_plan_id":"cebpf4jnsgd1na2vs0mg"},{"bike_id":"d91d423b-6376-4013-9f47-0ed220ed0f6c","system_id":"levelo_inurba_marseille","lat":43.30204,"lon":5.39468,"is_reserved":false,"is_disabled":false,"rental_uris":{"android":"levelo://app?vid=d91d423b-6376-4013-9f47-0ed220ed0f6c","ios":"levelo://app?vid=d91d423b-6376-4013-9f47-0ed220ed0f6c"},"vehicle_type_id":"4","last_reported":1758305647,"current_range_meters":17200,"station_id":"ce4bh0p2rcd13ifvqd70","pricing_plan_id":"cebpf4jnsgd1na2vs0mg"},{"bike_id":"13eb3edd-9f60-4741-ac45-2e7c3cc7d73c","system_id":"levelo_inurba_marseille","lat":43.2841,"lon":5.34985,"is_reserved":false,"is_disabled":false,"rental_uris":{"android":"levelo://app?vid=13eb3edd-9f60-4741-ac45-2e7c3cc7d73c","ios":"levelo://app?vid=13eb3edd-9f60-4741-ac45-2e7c3cc7d73c"},"vehicle_type_id":"4","last_reported":1758305647,"current_range_meters":17200,"station_id":"ce4bhbh2rcd13ifvqepg","pricing_plan_id":"cebpf4jnsgd1na2vs0mg"},{"bike_id":"92fcd53f-6854-4cc0-8454-b3a9b71f0daa","system_id":"levelo_inurba_marseille","lat":43.28543,"lon":5.34722,"is_reserved":false,"is_disabled":false,"rental_uris":{"android":"levelo://app?vid=92fcd53f-6854-4cc0-8454-b3a9b71f0daa","ios":"levelo://app?vid=92fcd53f-6854-4cc0-8454-b3a9b71f0daa"},"vehicle_type_id":"4","last_reported":1758305647,"current_range_meters":17200,"station_id":"","pricing_plan_id":"cebpf4jnsgd1na2vs0mg"},{"bike_id":"05ca0aa0-5596-4971-a0c3-94e65df6bd50","system_id":"levelo_inurba_marseille","lat":43.22557,"lon":5.41632,"is_reserved":false,"is_disabled":false,"rental_uris":{"android":"levelo://app?vid=05ca0aa0-5596-4971-a0c3-94e65df6bd50","ios":"levelo://app?vid=05ca0aa0-5596-4971-a0c3-94e65df6bd50"},"vehicle_type_id":"4","last_reported":1758305647,"current_range_meters":17200,"station_id":"st_d2o4gvlbi1j2169b742g","pricing_plan_id":"cebpf4jnsgd1na2vs0mg"},{"bike_id":"55d1bc08-fd54-4a82-afc7-2adcaa7b1c4e","system_id":"levelo_inurba_marseille","lat":43.3003,"lon":5.37708,"is_reserved":false,"is_disabled":false,"rental_uris":{"android":"levelo://app?vid=55d1bc08-fd54-4a82-afc7-2adcaa7b1c4e","ios":"levelo://app?vid=55d1bc08-fd54-4a82-afc7-2adcaa7b1c4e"},"vehicle_type_id":"4","last_reported":1758305647,"current_range_meters":17200,"station_id":"","pricing_plan_id":"cebpf4jnsgd1na2vs0mg"},{"bike_id":"01afe06f-9d33-4756-bf9d-c90253e035a9","system_id":"levelo_inurba_marseille","lat":43.2997,"lon":5.38503,"is_reserved":false,"is_disabled":false,"rental_uris":{"android":"levelo://app?vid=01afe06f-9d33-4756-bf9d-c90253e035a9","ios":"levelo://app?vid=01afe06f-9d33-4756-bf9d-c90253e035a9"},"vehicle_type_id":"4","last_reported":1758305647,"current_range_meters":17600,"station_id":"ce4bgj92rcd13ifvqbd0","pricing_plan_id":"cebpf4jnsgd1na2vs0mg"},{"bike_id":"c989fb21-7b30-4802-a9d8-9a6dd7866241","system_id":"levelo_inurba_marseille","lat":43.2495,"lon":5.40491,"is_reserved":false,"is_disabled":false,"rental_uris":{"android":"levelo://app?vid=c989fb21-7b30-4802-a9d8-9a6dd7866241","ios":"levelo://app?vid=c989fb21-7b30-4802-a9d8-9a6dd7866241"},"vehicle_type_id":"4","last_reported":1758305647,"current_range_meters":17600,"station_id":"st_d2ngiaodas8pm72gd1h0","pricing_plan_id":"cebpf4jnsgd1na2vs0mg"},{"bike_id":"0b6cb1af-f6f8-4c82-8425-934c0b271121","system_id":"levelo_inurba_marseille","lat":43.26201,"lon":5.3793,"is_reserved":false,"is_disabled":false,"rental_uris":{"android":"levelo://app?vid=0b6cb1af-f6f8-4c82-8425-934c0b271121","ios":"levelo://app?vid=0b6cb1af-f6f8-4c82-8425-934c0b271121"},"vehicle_type_id":"4","last_reported":1758305647,"current_range_meters":17600,"station_id":"ce4bhjp2rcd13ifvqg90","pricing_plan_id":"cebpf4jnsgd1na2vs0mg"},{"bike_id":"4472e2c2-9ffb-4b44-b9fb-714be0117573","system_id":"levelo_inurba_marseille","lat":43.2998,"lon":5.38474,"is_reserved":false,"is_disabled":false,"rental_uris":{"android":"levelo://app?vid=4472e2c2-9ffb-4b44-b9fb-714be0117573","ios":"levelo://app?vid=4472e2c2-9ffb-4b44-b9fb-714be0117573"},"vehicle_type_id":"4","last_reported":1758305647,"current_range_meters":17600,"station_id":"ce4bgj92rcd13ifvqbd0","pricing_plan_id":"cebpf4jnsgd1na2vs0mg"},{"bike_id":"74be8966-8d9f-4462-a6ee-04df0145586d","system_id":"levelo_inurba_marseille","lat":43.29279,"lon":5.40872,"is_reserved":false,"is_disabled":true,"rental_uris":{"android":"levelo://app?vid=74be8966-8d9f-4462-a6ee-04df0145586d","ios":"levelo://app?vid=74be8966-8d9f-4462-a6ee-04df0145586d"},"vehicle_type_id":"4","last_reported":1758305647,"current_range_meters":17600,"station_id":"ce4bh192rcd13ifvqdc0","pricing_plan_id":"cebpf4jnsgd1na2vs0mg"},{"bike_id":"2a00cb84-e9e6-4781-804d-0494d7480777","system_id":"levelo_inurba_marseille","lat":43.22551,"lon":5.41644,"is_reserved":false,"is_disabled":false,"rental_uris":{"android":"levelo://app?vid=2a00cb84-e9e6-4781-804d-0494d7480777","ios":"levelo://app?vid=2a00cb84-e9e6-4781-804d-0494d7480777"},"vehicle_type_id":"4","last_reported":1758305647,"current_range_meters":18000,"station_id":"st_d2o4gvlbi1j2169b742g","pricing_plan_id":"cebpf4jnsgd1na2vs0mg"},{"bike_id":"0f7caa9f-1d1a-40d7-9b4a-2f8720e63681","system_id":"levelo_inurba_marseille","lat":43.30852,"lon":5.37509,"is_reserved":false,"is_disabled":false,"rental_uris":{"android":"levelo://app?vid=0f7caa9f-1d1a-40d7-9b4a-2f8720e63681","ios":"levelo://app?vid=0f7caa9f-1d1a-40d7-9b4a-2f8720e63681"},"vehicle_type_id":"4","last_reported":1758305647,"current_range_meters":18000,"station_id":"","pricing_plan_id":"cebpf4jnsgd1na2vs0mg"},{"bike_id":"6e7958f5-fe20-475a-a8ac-63d9f6f301a5","system_id":"levelo_inurba_marseille","lat":43.30077,"lon":5.39075,"is_reserved":false,"is_disabled":false,"rental_uris":{"android":"levelo://app?vid=6e7958f5-fe20-475a-a8ac-63d9f6f301a5","ios":"levelo://app?vid=6e7958f5-fe20-475a-a8ac-63d9f6f301a5"},"vehicle_type_id":"4","last_reported":1758305647,"current_range_meters":17600,"station_id":"ce4bh192rcd13ifvqdb0","pricing_plan_id":"cebpf4jnsgd1na2vs0mg"},{"bike_id":"2c734c36-442f-468e-ab47-e34ad5183e32","system_id":"levelo_inurba_marseille","lat":43.25772,"lon":5.41047,"is_reserved":false,"is_disabled":false,"rental_uris":{"android":"levelo://app?vid=2c734c36-442f-468e-ab47-e34ad5183e32","ios":"levelo://app?vid=2c734c36-442f-468e-ab47-e34ad5183e32"},"vehicle_type_id":"4","last_reported":1758305647,"current_range_meters":18000,"station_id":"","pricing_plan_id":"cebpf4jnsgd1na2vs0mg"},{"bike_id":"6e619e22-8b11-40ba-9181-15712c944cc0","system_id":"levelo_inurba_marseille","lat":43.29043,"lon":5.39965,"is_reserved":false,"is_disabled":false,"rental_uris":{"android":"levelo://app?vid=6e619e22-8b11-40ba-9181-15712c944cc0","ios":"levelo://app?vid=6e619e22-8b11-40ba-9181-15712c944cc0"},"vehicle_type_id":"4","last_reported":1758305647,"current_range_meters":18000,"station_id":"ce4bh392rcd13ifvqdm0","pricing_plan_id":"cebpf4jnsgd1na2vs0mg"},{"bike_id":"5314d76e-6761-463c-9d7a-edcaa9c2da84","system_id":"levelo_inurba_marseille","lat":43.29617,"lon":5.38107,"is_reserved":false,"is_disabled":false,"rental_uris":{"android":"levelo://app?vid=5314d76e-6761-463c-9d7a-edcaa9c2da84","ios":"levelo://app?vid=5314d76e-6761-463c-9d7a-edcaa9c2da84"},"vehicle_type_id":"4","last_reported":1758305647,"current_range_meters":18000,"station_id":"ce4bgl12rcd13ifvqbo0","pricing_plan_id":"cebpf4jnsgd1na2vs0mg"},{"bike_id":"d7945e70-ece6-4fe0-a8e1-548401d1cd70","system_id":"levelo_inurba_marseille","lat":43.29001,"lon":5.35604,"is_reserved":false,"is_disabled":false,"rental_uris":{"android":"levelo://app?vid=d7945e70-ece6-4fe0-a8e1-548401d1cd70","ios":"levelo://app?vid=d7945e70-ece6-4fe0-a8e1-548401d1cd70"},"vehicle_type_id":"4","last_reported":1758305647,"current_range_meters":18000,"station_id":"ce4bhb92rcd13ifvqen0","pricing_plan_id":"cebpf4jnsgd1na2vs0mg"},{"bike_id":"265cc709-b5d8-43c4-8b80-c8875a797910","system_id":"levelo_inurba_marseille","lat":43.28622,"lon":5.37068,"is_reserved":false,"is_disabled":false,"rental_uris":{"android":"levelo://app?vid=265cc709-b5d8-43c4-8b80-c8875a797910","ios":"levelo://app?vid=265cc709-b5d8-43c4-8b80-c8875a797910"},"vehicle_type_id":"4","last_reported":1758305647,"current_range_meters":18000,"station_id":"ce4bht12rcd13ifvqi60","pricing_plan_id":"cebpf4jnsgd1na2vs0mg"},{"bike_id":"53866ee8-821f-4847-bc01-487362d4f374","system_id":"levelo_inurba_marseille","lat":43.31722,"lon":5.42395,"is_reserved":false,"is_disabled":false,"rental_uris":{"android":"levelo://app?vid=53866ee8-821f-4847-bc01-487362d4f374","ios":"levelo://app?vid=53866ee8-821f-4847-bc01-487362d4f374"},"vehicle_type_id":"4","last_reported":1758305647,"current_range_meters":18000,"station_id":"ce4bhp92rcd13ifvqhbg","pricing_plan_id":"cebpf4jnsgd1na2vs0mg"},{"bike_id":"a07a513e-e5a9-4481-8592-d991379bc662","system_id":"levelo_inurba_marseille","lat":43.337536,"lon":5.374536,"is_reserved":false,"is_disabled":false,"rental_uris":{"android":"levelo://app?vid=a07a513e-e5a9-4481-8592-d991379bc662","ios":"levelo://app?vid=a07a513e-e5a9-4481-8592-d991379bc662"},"vehicle_type_id":"4","last_reported":1758305647,"current_range_meters":18000,"station_id":"","pricing_plan_id":"cebpf4jnsgd1na2vs0mg"},{"bike_id":"68adab37-f5ad-4072-b58a-fe6c68285ca6","system_id":"levelo_inurba_marseille","lat":43.30602,"lon":5.37672,"is_reserved":false,"is_disabled":false,"rental_uris":{"android":"levelo://app?vid=68adab37-f5ad-4072-b58a-fe6c68285ca6","ios":"levelo://app?vid=68adab37-f5ad-4072-b58a-fe6c68285ca6"},"vehicle_type_id":"4","last_reported":1758305647,"current_range_meters":18800,"station_id":"","pricing_plan_id":"cebpf4jnsgd1na2vs0mg"},{"bike_id":"4ccd3ae6-055f-4601-8450-e9db810e1e88","system_id":"levelo_inurba_marseille","lat":43.2894,"lon":5.39635,"is_reserved":false,"is_disabled":false,"rental_uris":{"android":"levelo://app?vid=4ccd3ae6-055f-4601-8450-e9db810e1e88","ios":"levelo://app?vid=4ccd3ae6-055f-4601-8450-e9db810e1e88"},"vehicle_type_id":"4","last_reported":1758305647,"current_range_meters":18000,"station_id":"ce4bh3h2rcd13ifvqdn0","pricing_plan_id":"cebpf4jnsgd1na2vs0mg"},{"bike_id":"a9307188-08e6-41c4-9234-a03a3fc1ea6b","system_id":"levelo_inurba_marseille","lat":43.31758,"lon":5.39018,"is_reserved":false,"is_disabled":false,"rental_uris":{"android":"levelo://app?vid=a9307188-08e6-41c4-9234-a03a3fc1ea6b","ios":"levelo://app?vid=a9307188-08e6-41c4-9234-a03a3fc1ea6b"},"vehicle_type_id":"4","last_reported":1758305647,"current_range_meters":18800,"station_id":"ce4bhqp2rcd13ifvqhng","pricing_plan_id":"cebpf4jnsgd1na2vs0mg"},{"bike_id":"92866c45-2e92-4df3-8fa2-b671a0a645c0","system_id":"levelo_inurba_marseille","lat":43.30297,"lon":5.39235,"is_reserved":false,"is_disabled":false,"rental_uris":{"android":"levelo://app?vid=92866c45-2e92-4df3-8fa2-b671a0a645c0","ios":"levelo://app?vid=92866c45-2e92-4df3-8fa2-b671a0a645c0"},"vehicle_type_id":"4","last_reported":1758305647,"current_range_meters":18800,"station_id":"ce4bgkh2rcd13ifvqbk0","pricing_plan_id":"cebpf4jnsgd1na2vs0mg"},{"bike_id":"961324b3-3c39-4a28-b295-b3ef470a76ba","system_id":"levelo_inurba_marseille","lat":43.29451,"lon":5.38635,"is_reserved":false,"is_disabled":false,"rental_uris":{"android":"levelo://app?vid=961324b3-3c39-4a28-b295-b3ef470a76ba","ios":"levelo://app?vid=961324b3-3c39-4a28-b295-b3ef470a76ba"},"vehicle_type_id":"4","last_reported":1758305647,"current_range_meters":18800,"station_id":"","pricing_plan_id":"cebpf4jnsgd1na2vs0mg"},{"bike_id":"8e047761-4cb2-4fa7-920f-ce3feb6390f9","system_id":"levelo_inurba_marseille","lat":43.33755,"lon":5.37459,"is_reserved":false,"is_disabled":false,"rental_uris":{"android":"levelo://app?vid=8e047761-4cb2-4fa7-920f-ce3feb6390f9","ios":"levelo://app?vid=8e047761-4cb2-4fa7-920f-ce3feb6390f9"},"vehicle_type_id":"4","last_reported":1758305647,"current_range_meters":18800,"station_id":"","pricing_plan_id":"cebpf4jnsgd1na2vs0mg"},{"bike_id":"c39bd744-8b13-4d85-a629-caef7508e31e","system_id":"levelo_inurba_marseille","lat":43.29143,"lon":5.37174,"is_reserved":false,"is_disabled":false,"rental_uris":{"android":"levelo://app?vid=c39bd744-8b13-4d85-a629-caef7508e31e","ios":"levelo://app?vid=c39bd744-8b13-4d85-a629-caef7508e31e"},"vehicle_type_id":"4","last_reported":1758305647,"current_range_meters":18800,"station_id":"ce4bha92rcd13ifvqeh0","pricing_plan_id":"cebpf4jnsgd1na2vs0mg"},{"bike_id":"6a806675-2167-4960-9457-fd166d70b1e8","system_id":"levelo_inurba_marseille","lat":43.31323,"lon":5.39711,"is_reserved":false,"is_disabled":false,"rental_uris":{"android":"levelo://app?vid=6a806675-2167-4960-9457-fd166d70b1e8","ios":"levelo://app?vid=6a806675-2167-4960-9457-fd166d70b1e8"},"vehicle_type_id":"4","last_reported":1758305647,"current_range_meters":18800,"station_id":"ce4bgvp2rcd13ifvqcu0","pricing_plan_id":"cebpf4jnsgd1na2vs0mg"},{"bike_id":"6fa5e476-1c01-4eb1-abd2-5b84f6160995","system_id":"levelo_inurba_marseille","lat":43.30298,"lon":5.39212,"is_reserved":false,"is_disabled":false,"rental_uris":{"android":"levelo://app?vid=6fa5e476-1c01-4eb1-abd2-5b84f6160995","ios":"levelo://app?vid=6fa5e476-1c01-4eb1-abd2-5b84f6160995"},"vehicle_type_id":"4","last_reported":1758305647,"current_range_meters":19200,"station_id":"ce4bgkh2rcd13ifvqbk0","pricing_plan_id":"cebpf4jnsgd1na2vs0mg"},{"bike_id":"6f72b99b-ce32-4a38-83bd-472379356bd1","system_id":"levelo_inurba_marseille","lat":43.28045,"lon":5.36934,"is_reserved":false,"is_disabled":true,"rental_uris":{"android":"levelo://app?vid=6f72b99b-ce32-4a38-83bd-472379356bd1","ios":"levelo://app?vid=6f72b99b-ce32-4a38-83bd-472379356bd1"},"vehicle_type_id":"4","last_reported":1758305647,"current_range_meters":19200,"station_id":"ce4bha12rcd13ifvqef0","pricing_plan_id":"cebpf4jnsgd1na2vs0mg"},{"bike_id":"34e47056-7cba-4bff-964d-36609be34cd6","system_id":"levelo_inurba_marseille","lat":43.24069,"lon":5.37767,"is_reserved":false,"is_disabled":false,"rental_uris":{"android":"levelo://app?vid=34e47056-7cba-4bff-964d-36609be34cd6","ios":"levelo://app?vid=34e47056-7cba-4bff-964d-36609be34cd6"},"vehicle_type_id":"4","last_reported":1758305647,"current_range_meters":19200,"station_id":"ce4bhnp2rcd13ifvqgvg","pricing_plan_id":"cebpf4jnsgd1na2vs0mg"},{"bike_id":"9aeaa96e-e49c-427f-bfff-c6585ff11329","system_id":"levelo_inurba_marseille","lat":43.26216,"lon":5.3744,"is_reserved":false,"is_disabled":false,"rental_uris":{"android":"levelo://app?vid=9aeaa96e-e49c-427f-bfff-c6585ff11329","ios":"levelo://app?vid=9aeaa96e-e49c-427f-bfff-c6585ff11329"},"vehicle_type_id":"4","last_reported":1758305647,"current_range_meters":19200,"station_id":"ce4bhgp2rcd13ifvqfc0","pricing_plan_id":"cebpf4jnsgd1na2vs0mg"},{"bike_id":"c9105593-d948-408e-93e4-0a4bf28fd505","system_id":"levelo_inurba_marseille","lat":43.31325,"lon":5.39705,"is_reserved":false,"is_disabled":false,"rental_uris":{"android":"levelo://app?vid=c9105593-d948-408e-93e4-0a4bf28fd505","ios":"levelo://app?vid=c9105593-d948-408e-93e4-0a4bf28fd505"},"vehicle_type_id":"4","last_reported":1758305647,"current_range_meters":19200,"station_id":"ce4bgvp2rcd13ifvqcu0","pricing_plan_id":"cebpf4jnsgd1na2vs0mg"},{"bike_id":"6889dd1e-29ff-4280-9e69-d6af88cc5818","system_id":"levelo_inurba_marseille","lat":43.2985,"lon":5.3628,"is_reserved":false,"is_disabled":false,"rental_uris":{"android":"levelo://app?vid=6889dd1e-29ff-4280-9e69-d6af88cc5818","ios":"levelo://app?vid=6889dd1e-29ff-4280-9e69-d6af88cc5818"},"vehicle_type_id":"4","last_reported":1758305647,"current_range_meters":19200,"station_id":"ce4bgpp2rcd13ifvqc3g","pricing_plan_id":"cebpf4jnsgd1na2vs0mg"},{"bike_id":"c2e187c6-75ab-42ff-85fb-e99b4f921923","system_id":"levelo_inurba_marseille","lat":43.2558,"lon":5.38223,"is_reserved":false,"is_disabled":false,"rental_uris":{"android":"levelo://app?vid=c2e187c6-75ab-42ff-85fb-e99b4f921923","ios":"levelo://app?vid=c2e187c6-75ab-42ff-85fb-e99b4f921923"},"vehicle_type_id":"4","last_reported":1758305647,"current_range_meters":19200,"station_id":"ce4bhih2rcd13ifvqfs0","pricing_plan_id":"cebpf4jnsgd1na2vs0mg"},{"bike_id":"78bb491c-51a7-4475-b875-ea68706bd202","system_id":"levelo_inurba_marseille","lat":43.269538,"lon":5.386292,"is_reserved":false,"is_disabled":false,"rental_uris":{"android":"levelo://app?vid=78bb491c-51a7-4475-b875-ea68706bd202","ios":"levelo://app?vid=78bb491c-51a7-4475-b875-ea68706bd202"},"vehicle_type_id":"4","last_reported":1758305647,"current_range_meters":18800,"station_id":"ce4bhh92rcd13ifvqfh0","pricing_plan_id":"cebpf4jnsgd1na2vs0mg"},{"bike_id":"8f884c14-f92c-4c1e-b860-b72d333fbd7a","system_id":"levelo_inurba_marseille","lat":43.3014,"lon":5.38774,"is_reserved":false,"is_disabled":false,"rental_uris":{"android":"levelo://app?vid=8f884c14-f92c-4c1e-b860-b72d333fbd7a","ios":"levelo://app?vid=8f884c14-f92c-4c1e-b860-b72d333fbd7a"},"vehicle_type_id":"4","last_reported":1758305647,"current_range_meters":19200,"station_id":"ce4bghh2rcd13ifvqb60","pricing_plan_id":"cebpf4jnsgd1na2vs0mg"},{"bike_id":"feb7026a-8fd5-42ad-8e39-2891fadb5476","system_id":"levelo_inurba_marseille","lat":43.28043,"lon":5.36942,"is_reserved":false,"is_disabled":false,"rental_uris":{"android":"levelo://app?vid=feb7026a-8fd5-42ad-8e39-2891fadb5476","ios":"levelo://app?vid=feb7026a-8fd5-42ad-8e39-2891fadb5476"},"vehicle_type_id":"4","last_reported":1758305647,"current_range_meters":19600,"station_id":"ce4bha12rcd13ifvqef0","pricing_plan_id":"cebpf4jnsgd1na2vs0mg"},{"bike_id":"97514a44-1f4d-4ae1-a270-04ca7b75c621","system_id":"levelo_inurba_marseille","lat":43.28858,"lon":5.42531,"is_reserved":false,"is_disabled":false,"rental_uris":{"android":"levelo://app?vid=97514a44-1f4d-4ae1-a270-04ca7b75c621","ios":"levelo://app?vid=97514a44-1f4d-4ae1-a270-04ca7b75c621"},"vehicle_type_id":"4","last_reported":1758305647,"current_range_meters":19600,"station_id":"","pricing_plan_id":"cebpf4jnsgd1na2vs0mg"},{"bike_id":"350ecd1e-d3c9-4d77-b370-39417df324b3","system_id":"levelo_inurba_marseille","lat":43.29034,"lon":5.38103,"is_reserved":false,"is_disabled":true,"rental_uris":{"android":"levelo://app?vid=350ecd1e-d3c9-4d77-b370-39417df324b3","ios":"levelo://app?vid=350ecd1e-d3c9-4d77-b370-39417df324b3"},"vehicle_type_id":"4","last_reported":1758305647,"current_range_meters":19600,"station_id":"ce4bh4p2rcd13ifvqe1g","pricing_plan_id":"cebpf4jnsgd1na2vs0mg"},{"bike_id":"1f977bff-d1b4-4bf8-9052-7ce7d6469f2f","system_id":"levelo_inurba_marseille","lat":43.29892,"lon":5.43665,"is_reserved":false,"is_disabled":false,"rental_uris":{"android":"levelo://app?vid=1f977bff-d1b4-4bf8-9052-7ce7d6469f2f","ios":"levelo://app?vid=1f977bff-d1b4-4bf8-9052-7ce7d6469f2f"},