{"last_updated":1728022396,"ttl":60,"version":"2.2","data":{"bikes":[{"bike_id":"fcc0dea3-a4f1-4cdd-9155-e6fbe4a49d1b","system_id":"levelo_inurba_marseille","lat":43.28348,"lon":5.38102,"is_reserved":false,"is_disabled":false,"rental_uris":{"android":"levelo://app?vid=fcc0dea3-a4f1-4cdd-9155-e6fbe4a49d1b","ios":"levelo://app?vid=fcc0dea3-a4f1-4cdd-9155-e6fbe4a49d1b"},"vehicle_type_id":"4","last_reported":1728022397,"current_range_meters":26000,"station_id":"ce4bh412rcd13ifvqdr0","pricing_plan_id":"cebpf4jnsgd1na2vs0mg"},{"bike_id":"744e4a44-dd09-428b-b207-19a8f0678fae","system_id":"levelo_inurba_marseille","lat":43.26555,"lon":5.39003,"is_reserved":false,"is_disabled":false,"rental_uris":{"android":"levelo://app?vid=744e4a44-dd09-428b-b207-19a8f0678fae","ios":"levelo://app?vid=744e4a44-dd09-428b-b207-19a8f0678fae"},"vehicle_type_id":"4","last_reported":1728022397,"current_range_meters":8000,"station_id":"ce4bhe12rcd13ifvqf30","pricing_plan_id":"cebpf4jnsgd1na2vs0mg"},{"bike_id":"086b36b2-8fa9-4a21-a966-d0afeb3875cc","system_id":"levelo_inurba_marseille","lat":43.30154,"lon":5.38081,"is_reserved":false,"is_disabled":false,"rental_uris":{"android":"levelo://app?vid=086b36b2-8fa9-4a21-a966-d0afeb3875cc","ios":"levelo://app?vid=086b36b2-8fa9-4a21-a966-d0afeb3875cc"},"vehicle_type_id":"4","last_reported":1728022397,"current_range_meters":36800,"station_id":"ce4bgjp2rcd13ifvqbh0","pricing_plan_id":"cebpf4jnsgd1na2vs0mg"},{"bike_id":"8ca22dee-0f94-4629-af04-8bbe3303795c","system_id":"levelo_inurba_marseille","lat":43.24088,"lon":5.37746,"is_reserved":false,"is_disabled":false,"rental_uris":{"android":"levelo://app?vid=8ca22dee-0f94-4629-af04-8bbe3303795c","ios":"levelo://app?vid=8ca22dee-0f94-4629-af04-8bbe3303795c"},"vehicle_type_id":"4","last_reported":1728022397,"current_range_meters":27200,"station_id":"ce4bhnp2rcd13ifvqgvg","pricing_plan_id":"cebpf4jnsgd1na2vs0mg"},{"bike_id":"37ab7eeb-5394-4ff8-9547-016ed179c2b1","system_id":"levelo_inurba_marseille","lat":43.30475,"lon":5.3791,"is_reserved":false,"is_disabled":false,"rental_uris":{"android":"levelo://app?vid=37ab7eeb-5394-4ff8-9547-016ed179c2b1","ios":"levelo://app?vid=37ab7eeb-5394-4ff8-9547-016ed179c2b1"},"vehicle_type_id":"4","last_reported":1728022397,"current_range_meters":36400,"station_id":"ce4bgup2rcd13ifvqcn0","pricing_plan_id":"cebpf4jnsgd1na2vs0mg"},{"bike_id":"75b808a8-3e4e-4929-a3df-3685cc3fd84c","system_id":"levelo_inurba_marseille","lat":43.30466,"lon":5.37895,"is_reserved":false,"is_disabled":false,"rental_uris":{"android":"levelo://app?vid=75b808a8-3e4e-4929-a3df-3685cc3fd84c","ios":"levelo://app?vid=75b808a8-3e4e-4929-a3df-3685cc3fd84c"},"vehicle_type_id":"4","last_reported":1728022397,"current_range_meters":23200,"station_id":"ce4bgup2rcd13ifvqcn0","pricing_plan_id":"cebpf4jnsgd1na2vs0mg"},{"bike_id":"423ab14e-af93-4d1f-b820-2acf3dc9b782","system_id":"levelo_inurba_marseille","lat":43.28677,"lon":5.38659,"is_reserved":false,"is_disabled":false,"rental_uris":{"android":"levelo://app?vid=423ab14e-af93-4d1f-b820-2acf3dc9b782","ios":"levelo://app?vid=423ab14e-af93-4d1f-b820-2acf3dc9b782"},"vehicle_type_id":"4","last_reported":1728022397,"current_range_meters":38800,"station_id":"ce4bh492rcd13ifvqdug","pricing_plan_id":"cebpf4jnsgd1na2vs0mg"},{"bike_id":"2dfebff4-a57f-4b75-b92b-f8e9ce84dd7c","system_id":"levelo_inurba_marseille","lat":43.32469,"lon":5.40994,"is_reserved":false,"is_disabled":false,"rental_uris":{"android":"levelo://app?vid=2dfebff4-a57f-4b75-b92b-f8e9ce84dd7c","ios":"levelo://app?vid=2dfebff4-a57f-4b75-b92b-f8e9ce84dd7c"},"vehicle_type_id":"4","last_reported":1728022397,"current_range_meters":26800,"station_id":"ce4bhp92rcd13ifvqhag","pricing_plan_id":"cebpf4jnsgd1na2vs0mg"},{"bike_id":"dfa316ed-31fe-4eb7-ae98-3312a562d760","system_id":"levelo_inurba_marseille","lat":43.27199,"lon":5.40992,"is_reserved":false,"is_disabled":false,"rental_uris":{"android":"levelo://app?vid=dfa316ed-31fe-4eb7-ae98-3312a562d760","ios":"levelo://app?vid=dfa316ed-31fe-4eb7-ae98-3312a562d760"},"vehicle_type_id":"4","last_reported":1728022397,"current_range_meters":36800,"station_id":"ce4bhl12rcd13ifvqgf0","pricing_plan_id":"cebpf4jnsgd1na2vs0mg"},{"bike_id":"86398195-9834-4659-b8f5-8139a78118a0","system_id":"levelo_inurba_marseille","lat":43.27495,"lon":5.42452,"is_reserved":false,"is_disabled":false,"rental_uris":{"android":"levelo://app?vid=86398195-9834-4659-b8f5-8139a78118a0","ios":"levelo://app?vid=86398195-9834-4659-b8f5-8139a78118a0"},"vehicle_type_id":"4","last_reported":1728022397,"current_range_meters":22800,"station_id":"ce4bhn92rcd13ifvqgrg","pricing_plan_id":"cebpf4jnsgd1na2vs0mg"},{"bike_id":"dbd41b7c-64ff-4475-a866-79d8e074ec71","system_id":"levelo_inurba_marseille","lat":43.29009,"lon":5.35598,"is_reserved":false,"is_disabled":false,"rental_uris":{"android":"levelo://app?vid=dbd41b7c-64ff-4475-a866-79d8e074ec71","ios":"levelo://app?vid=dbd41b7c-64ff-4475-a866-79d8e074ec71"},"vehicle_type_id":"4","last_reported":1728022397,"current_range_meters":14800,"station_id":"ce4bhb92rcd13ifvqen0","pricing_plan_id":"cebpf4jnsgd1na2vs0mg"},{"bike_id":"756088e4-bd38-4606-aa6f-cbbf1461af00","system_id":"levelo_inurba_marseille","lat":43.22937,"lon":5.3538,"is_reserved":false,"is_disabled":false,"rental_uris":{"android":"levelo://app?vid=756088e4-bd38-4606-aa6f-cbbf1461af00","ios":"levelo://app?vid=756088e4-bd38-4606-aa6f-cbbf1461af00"},"vehicle_type_id":"4","last_reported":1728022397,"current_range_meters":14400,"station_id":"cpo3532slgdg3j2ikp40","pricing_plan_id":"cebpf4jnsgd1na2vs0mg"},{"bike_id":"a2e67e3c-7061-41ef-b621-c916bfea005c","system_id":"levelo_inurba_marseille","lat":43.26498,"lon":5.39559,"is_reserved":false,"is_disabled":false,"rental_uris":{"android":"levelo://app?vid=a2e67e3c-7061-41ef-b621-c916bfea005c","ios":"levelo://app?vid=a2e67e3c-7061-41ef-b621-c916bfea005c"},"vehicle_type_id":"4","last_reported":1728022397,"current_range_meters":28800,"station_id":"ce4bhi12rcd13ifvqfq0","pricing_plan_id":"cebpf4jnsgd1na2vs0mg"},{"bike_id":"1693ff41-8c99-41ae-8a32-22d707069ab7","system_id":"levelo_inurba_marseille","lat":43.3053,"lon":5.36531,"is_reserved":false,"is_disabled":false,"rental_uris":{"android":"levelo://app?vid=1693ff41-8c99-41ae-8a32-22d707069ab7","ios":"levelo://app?vid=1693ff41-8c99-41ae-8a32-22d707069ab7"},"vehicle_type_id":"4","last_reported":1728022397,"current_range_meters":28000,"station_id":"ce4bgs12rcd13ifvqcag","pricing_plan_id":"cebpf4jnsgd1na2vs0mg"},{"bike_id":"7607882e-42e0-4ca8-8562-b4ce4a3c45c0","system_id":"levelo_inurba_marseille","lat":43.28486,"lon":5.38422,"is_reserved":false,"is_disabled":false,"rental_uris":{"android":"levelo://app?vid=7607882e-42e0-4ca8-8562-b4ce4a3c45c0","ios":"levelo://app?vid=7607882e-42e0-4ca8-8562-b4ce4a3c45c0"},"vehicle_type_id":"4","last_reported":1728022397,"current_range_meters":34800,"station_id":"ce4bh512rcd13ifvqe3g","pricing_plan_id":"cebpf4jnsgd1na2vs0mg"},{"bike_id":"bc41810d-3fc6-4e9c-bcc1-3b1d7bce3ce2","system_id":"levelo_inurba_marseille","lat":43.23217,"lon":5.39962,"is_reserved":false,"is_disabled":false,"rental_uris":{"android":"levelo://app?vid=bc41810d-3fc6-4e9c-bcc1-3b1d7bce3ce2","ios":"levelo://app?vid=bc41810d-3fc6-4e9c-bcc1-3b1d7bce3ce2"},"vehicle_type_id":"4","last_reported":1728022397,"current_range_meters":19600,"station_id":"","pricing_plan_id":"cebpf4jnsgd1na2vs0mg"},{"bike_id":"5075731d-0e54-4737-b74d-aa02be442402","system_id":"levelo_inurba_marseille","lat":43.28348,"lon":5.38115,"is_reserved":false,"is_disabled":false,"rental_uris":{"android":"levelo://app?vid=5075731d-0e54-4737-b74d-aa02be442402","ios":"levelo://app?vid=5075731d-0e54-4737-b74d-aa02be442402"},"vehicle_type_id":"4","last_reported":1728022397,"current_range_meters":18800,"station_id":"ce4bh412rcd13ifvqdr0","pricing_plan_id":"cebpf4jnsgd1na2vs0mg"},{"bike_id":"db1ae258-fe61-49d5-bdc0-5a20dfbfade4","system_id":"levelo_inurba_marseille","lat":43.30466,"lon":5.37919,"is_reserved":false,"is_disabled":false,"rental_uris":{"android":"levelo://app?vid=db1ae258-fe61-49d5-bdc0-5a20dfbfade4","ios":"levelo://app?vid=db1ae258-fe61-49d5-bdc0-5a20dfbfade4"},"vehicle_type_id":"4","last_reported":1728022397,"current_range_meters":27600,"station_id":"ce4bgup2rcd13ifvqcn0","pricing_plan_id":"cebpf4jnsgd1na2vs0mg"},{"bike_id":"13587175-b312-4cf0-abda-2f049baac68e","system_id":"levelo_inurba_marseille","lat":43.27495,"lon":5.4245,"is_reserved":false,"is_disabled":false,"rental_uris":{"android":"levelo://app?vid=13587175-b312-4cf0-abda-2f049baac68e","ios":"levelo://app?vid=13587175-b312-4cf0-abda-2f049baac68e"},"vehicle_type_id":"4","last_reported":1728022397,"current_range_meters":35600,"station_id":"ce4bhn92rcd13ifvqgrg","pricing_plan_id":"cebpf4jnsgd1na2vs0mg"},{"bike_id":"1df98d1b-733d-49e5-901e-f02f9b77eb98","system_id":"levelo_inurba_marseille","lat":43.24077,"lon":5.37755,"is_reserved":false,"is_disabled":false,"rental_uris":{"android":"levelo://app?vid=1df98d1b-733d-49e5-901e-f02f9b77eb98","ios":"levelo://app?vid=1df98d1b-733d-49e5-901e-f02f9b77eb98"},"vehicle_type_id":"4","last_reported":1728022397,"current_range_meters":20000,"station_id":"ce4bhnp2rcd13ifvqgvg","pricing_plan_id":"cebpf4jnsgd1na2vs0mg"},{"bike_id":"48b7b995-6a83-4b3e-aae7-c1d3b600ba6f","system_id":"levelo_inurba_marseille","lat":43.29255,"lon":5.40134,"is_reserved":false,"is_disabled":false,"rental_uris":{"android":"levelo://app?vid=48b7b995-6a83-4b3e-aae7-c1d3b600ba6f","ios":"levelo://app?vid=48b7b995-6a83-4b3e-aae7-c1d3b600ba6f"},"vehicle_type_id":"4","last_reported":1728022397,"current_range_meters":38800,"station_id":"ce4bh312rcd13ifvqdk0","pricing_plan_id":"cebpf4jnsgd1na2vs0mg"},{"bike_id":"3b589aac-4fd1-4ea6-ad98-ea782ca4874b","system_id":"levelo_inurba_marseille","lat":43.27492,"lon":5.42456,"is_reserved":false,"is_disabled":false,"rental_uris":{"android":"levelo://app?vid=3b589aac-4fd1-4ea6-ad98-ea782ca4874b","ios":"levelo://app?vid=3b589aac-4fd1-4ea6-ad98-ea782ca4874b"},"vehicle_type_id":"4","last_reported":1728022397,"current_range_meters":35600,"station_id":"ce4bhn92rcd13ifvqgrg","pricing_plan_id":"cebpf4jnsgd1na2vs0mg"},{"bike_id":"541d5aee-85fc-4a22-a550-040a95848043","system_id":"levelo_inurba_marseille","lat":43.27569,"lon":5.38428,"is_reserved":false,"is_disabled":false,"rental_uris":{"android":"levelo://app?vid=541d5aee-85fc-4a22-a550-040a95848043","ios":"levelo://app?vid=541d5aee-85fc-4a22-a550-040a95848043"},"vehicle_type_id":"4","last_reported":1728022397,"current_range_meters":38400,"station_id":"ce4bhh92rcd13ifvqfi0","pricing_plan_id":"cebpf4jnsgd1na2vs0mg"},{"bike_id":"ea7648e6-a16f-4f91-89d0-6b1e7f51963f","system_id":"levelo_inurba_marseille","lat":43.32532,"lon":5.36676,"is_reserved":false,"is_disabled":false,"rental_uris":{"android":"levelo://app?vid=ea7648e6-a16f-4f91-89d0-6b1e7f51963f","ios":"levelo://app?vid=ea7648e6-a16f-4f91-89d0-6b1e7f51963f"},"vehicle_type_id":"4","last_reported":1728022397,"current_range_meters":14800,"station_id":"ce4bhs12rcd13ifvqhvg","pricing_plan_id":"cebpf4jnsgd1na2vs0mg"},{"bike_id":"760f817b-0dcf-43cb-b6ec-2651e65ad3d9","system_id":"levelo_inurba_marseille","lat":43.27495,"lon":5.42448,"is_reserved":false,"is_disabled":false,"rental_uris":{"android":"levelo://app?vid=760f817b-0dcf-43cb-b6ec-2651e65ad3d9","ios":"levelo://app?vid=760f817b-0dcf-43cb-b6ec-2651e65ad3d9"},"vehicle_type_id":"4","last_reported":1728022397,"current_range_meters":34000,"station_id":"ce4bhn92rcd13ifvqgrg","pricing_plan_id":"cebpf4jnsgd1na2vs0mg"},{"bike_id":"a99e0887-fb66-4880-8761-33fdb36b8615","system_id":"levelo_inurba_marseille","lat":43.23191,"lon":5.39993,"is_reserved":false,"is_disabled":false,"rental_uris":{"android":"levelo://app?vid=a99e0887-fb66-4880-8761-33fdb36b8615","ios":"levelo://app?vid=a99e0887-fb66-4880-8761-33fdb36b8615"},"vehicle_type_id":"4","last_reported":1728022397,"current_range_meters":11600,"station_id":"ce4bhn12rcd13ifvqgqg","pricing_plan_id":"cebpf4jnsgd1na2vs0mg"},{"bike_id":"f3631753-5139-4224-9384-5a824b796c0f","system_id":"levelo_inurba_marseille","lat":43.28359,"lon":5.38102,"is_reserved":false,"is_disabled":false,"rental_uris":{"android":"levelo://app?vid=f3631753-5139-4224-9384-5a824b796c0f","ios":"levelo://app?vid=f3631753-5139-4224-9384-5a824b796c0f"},"vehicle_type_id":"4","last_reported":1728022397,"current_range_meters":38800,"station_id":"ce4bh412rcd13ifvqdr0","pricing_plan_id":"cebpf4jnsgd1na2vs0mg"},{"bike_id":"fd4b6117-248c-4cc2-b6aa-a1584b68b73a","system_id":"levelo_inurba_marseille","lat":43.31268,"lon":5.40164,"is_reserved":false,"is_disabled":false,"rental_uris":{"android":"levelo://app?vid=fd4b6117-248c-4cc2-b6aa-a1584b68b73a","ios":"levelo://app?vid=fd4b6117-248c-4cc2-b6aa-a1584b68b73a"},"vehicle_type_id":"4","last_reported":1728022397,"current_range_meters":37600,"station_id":"ce4bh092rcd13ifvqd30","pricing_plan_id":"cebpf4jnsgd1na2vs0mg"},{"bike_id":"82cfab68-33d5-4fab-8f3d-dd3eca6bf1e4","system_id":"levelo_inurba_marseille","lat":43.24068,"lon":5.37763,"is_reserved":false,"is_disabled":false,"rental_uris":{"android":"levelo://app?vid=82cfab68-33d5-4fab-8f3d-dd3eca6bf1e4","ios":"levelo://app?vid=82cfab68-33d5-4fab-8f3d-dd3eca6bf1e4"},"vehicle_type_id":"4","last_reported":1728022397,"current_range_meters":31200,"station_id":"ce4bhnp2rcd13ifvqgvg","pricing_plan_id":"cebpf4jnsgd1na2vs0mg"},{"bike_id":"d472907b-d3bd-4c18-8fdc-632c734cee64","system_id":"levelo_inurba_marseille","lat":43.30603,"lon":5.39362,"is_reserved":false,"is_disabled":false,"rental_uris":{"android":"levelo://app?vid=d472907b-d3bd-4c18-8fdc-632c734cee64","ios":"levelo://app?vid=d472907b-d3bd-4c18-8fdc-632c734cee64"},"vehicle_type_id":"4","last_reported":1728022397,"current_range_meters":37600,"station_id":"ce4bh0p2rcd13ifvqd80","pricing_plan_id":"cebpf4jnsgd1na2vs0mg"},{"bike_id":"7b92b78e-a620-4f24-b012-e7af31c8a42e","system_id":"levelo_inurba_marseille","lat":43.24672,"lon":5.38172,"is_reserved":false,"is_disabled":false,"rental_uris":{"android":"levelo://app?vid=7b92b78e-a620-4f24-b012-e7af31c8a42e","ios":"levelo://app?vid=7b92b78e-a620-4f24-b012-e7af31c8a42e"},"vehicle_type_id":"4","last_reported":1728022397,"current_range_meters":19600,"station_id":"ce4bhih2rcd13ifvqfr0","pricing_plan_id":"cebpf4jnsgd1na2vs0mg"},{"bike_id":"9d53ecee-687f-433d-88a8-096ffba9b4c7","system_id":"levelo_inurba_marseille","lat":43.29898,"lon":5.43659,"is_reserved":false,"is_disabled":false,"rental_uris":{"android":"levelo://app?vid=9d53ecee-687f-433d-88a8-096ffba9b4c7","ios":"levelo://app?vid=9d53ecee-687f-433d-88a8-096ffba9b4c7"},"vehicle_type_id":"4","last_reported":1728022397,"current_range_meters":38400,"station_id":"ce4bhpp2rcd13ifvqhfg","pricing_plan_id":"cebpf4jnsgd1na2vs0mg"},{"bike_id":"b08d2b4e-4eb1-40f9-8910-7d55904f7b85","system_id":"levelo_inurba_marseille","lat":43.29193,"lon":5.35805,"is_reserved":false,"is_disabled":false,"rental_uris":{"android":"levelo://app?vid=b08d2b4e-4eb1-40f9-8910-7d55904f7b85","ios":"levelo://app?vid=b08d2b4e-4eb1-40f9-8910-7d55904f7b85"},"vehicle_type_id":"4","last_reported":1728022397,"current_range_meters":10800,"station_id":"ce4bhb12rcd13ifvqel0","pricing_plan_id":"cebpf4jnsgd1na2vs0mg"},{"bike_id":"dc790a0f-240b-4bc4-9e7d-a755fc0f2315","system_id":"levelo_inurba_marseille","lat":43.2719,"lon":5.40991,"is_reserved":false,"is_disabled":false,"rental_uris":{"android":"levelo://app?vid=dc790a0f-240b-4bc4-9e7d-a755fc0f2315","ios":"levelo://app?vid=dc790a0f-240b-4bc4-9e7d-a755fc0f2315"},"vehicle_type_id":"4","last_reported":1728022397,"current_range_meters":38800,"station_id":"ce4bhl12rcd13ifvqgf0","pricing_plan_id":"cebpf4jnsgd1na2vs0mg"},{"bike_id":"2d83759a-3a45-4dcd-bb46-4ef79999310d","system_id":"levelo_inurba_marseille","lat":43.30597,"lon":5.39363,"is_reserved":false,"is_disabled":false,"rental_uris":{"android":"levelo://app?vid=2d83759a-3a45-4dcd-bb46-4ef79999310d","ios":"levelo://app?vid=2d83759a-3a45-4dcd-bb46-4ef79999310d"},"vehicle_type_id":"4","last_reported":1728022397,"current_range_meters":37600,"station_id":"ce4bh0p2rcd13ifvqd80","pricing_plan_id":"cebpf4jnsgd1na2vs0mg"},{"bike_id":"10db0674-caf9-4a89-9a1c-67516fa498dd","system_id":"levelo_inurba_marseille","lat":43.29808,"lon":5.404,"is_reserved":false,"is_disabled":false,"rental_uris":{"android":"levelo://app?vid=10db0674-caf9-4a89-9a1c-67516fa498dd","ios":"levelo://app?vid=10db0674-caf9-4a89-9a1c-67516fa498dd"},"vehicle_type_id":"4","last_reported":1728022397,"current_range_meters":38800,"station_id":"ce4bh112rcd13ifvqd90","pricing_plan_id":"cebpf4jnsgd1na2vs0mg"},{"bike_id":"a8a5a5fa-0ba5-47dd-be0b-4c324dcaac5f","system_id":"levelo_inurba_marseille","lat":43.279698,"lon":5.3874,"is_reserved":false,"is_disabled":false,"rental_uris":{"android":"levelo://app?vid=a8a5a5fa-0ba5-47dd-be0b-4c324dcaac5f","ios":"levelo://app?vid=a8a5a5fa-0ba5-47dd-be0b-4c324dcaac5f"},"vehicle_type_id":"4","last_reported":1728022397,"current_range_meters":39200,"station_id":"ce4bhg12rcd13ifvqf80","pricing_plan_id":"cebpf4jnsgd1na2vs0mg"},{"bike_id":"067137d1-b01e-4db3-8afa-dbe448ff1ea0","system_id":"levelo_inurba_marseille","lat":43.28621,"lon":5.3511,"is_reserved":false,"is_disabled":false,"rental_uris":{"android":"levelo://app?vid=067137d1-b01e-4db3-8afa-dbe448ff1ea0","ios":"levelo://app?vid=067137d1-b01e-4db3-8afa-dbe448ff1ea0"},"vehicle_type_id":"4","last_reported":1728022397,"current_range_meters":28000,"station_id":"ce4bhch2rcd13ifvqeug","pricing_plan_id":"cebpf4jnsgd1na2vs0mg"},{"bike_id":"e6b2df58-b4a0-4aec-933d-a62e42f34d34","system_id":"levelo_inurba_marseille","lat":43.33729,"lon":5.39189,"is_reserved":false,"is_disabled":false,"rental_uris":{"android":"levelo://app?vid=e6b2df58-b4a0-4aec-933d-a62e42f34d34","ios":"levelo://app?vid=e6b2df58-b4a0-4aec-933d-a62e42f34d34"},"vehicle_type_id":"4","last_reported":1728022397,"current_range_meters":22400,"station_id":"ce4bhr92rcd13ifvqhsg","pricing_plan_id":"cebpf4jnsgd1na2vs0mg"},{"bike_id":"403b9a65-80d1-462a-86d2-ae897d65bc96","system_id":"levelo_inurba_marseille","lat":43.30156,"lon":5.38074,"is_reserved":false,"is_disabled":false,"rental_uris":{"android":"levelo://app?vid=403b9a65-80d1-462a-86d2-ae897d65bc96","ios":"levelo://app?vid=403b9a65-80d1-462a-86d2-ae897d65bc96"},"vehicle_type_id":"4","last_reported":1728022397,"current_range_meters":6400,"station_id":"ce4bgjp2rcd13ifvqbh0","pricing_plan_id":"cebpf4jnsgd1na2vs0mg"},{"bike_id":"b1caede3-9948-4c10-a88e-31db67871077","system_id":"levelo_inurba_marseille","lat":43.31363,"lon":5.38496,"is_reserved":false,"is_disabled":false,"rental_uris":{"android":"levelo://app?vid=b1caede3-9948-4c10-a88e-31db67871077","ios":"levelo://app?vid=b1caede3-9948-4c10-a88e-31db67871077"},"vehicle_type_id":"4","last_reported":1728022397,"current_range_meters":24400,"station_id":"ce4bgt92rcd13ifvqcf0","pricing_plan_id":"cebpf4jnsgd1na2vs0mg"},{"bike_id":"e0f45b50-8440-427e-88a9-7fd6fa321dfb","system_id":"levelo_inurba_marseille","lat":43.24514,"lon":5.37352,"is_reserved":false,"is_disabled":false,"rental_uris":{"android":"levelo://app?vid=e0f45b50-8440-427e-88a9-7fd6fa321dfb","ios":"levelo://app?vid=e0f45b50-8440-427e-88a9-7fd6fa321dfb"},"vehicle_type_id":"4","last_reported":1728022397,"current_range_meters":18000,"station_id":"","pricing_plan_id":"cebpf4jnsgd1na2vs0mg"},{"bike_id":"c00c9ef6-cf00-49a1-a796-fe4347be471c","system_id":"levelo_inurba_marseille","lat":43.3414,"lon":5.40901,"is_reserved":false,"is_disabled":false,"rental_uris":{"android":"levelo://app?vid=c00c9ef6-cf00-49a1-a796-fe4347be471c","ios":"levelo://app?vid=c00c9ef6-cf00-49a1-a796-fe4347be471c"},"vehicle_type_id":"4","last_reported":1728022397,"current_range_meters":30400,"station_id":"ce4bhqh2rcd13ifvqhlg","pricing_plan_id":"cebpf4jnsgd1na2vs0mg"},{"bike_id":"b4b894f1-7097-4be3-a6bf-b1f4d5b9b138","system_id":"levelo_inurba_marseille","lat":43.31495,"lon":5.37305,"is_reserved":false,"is_disabled":false,"rental_uris":{"android":"levelo://app?vid=b4b894f1-7097-4be3-a6bf-b1f4d5b9b138","ios":"levelo://app?vid=b4b894f1-7097-4be3-a6bf-b1f4d5b9b138"},"vehicle_type_id":"4","last_reported":1728022397,"current_range_meters":26000,"station_id":"ce4bgt12rcd13ifvqcd0","pricing_plan_id":"cebpf4jnsgd1na2vs0mg"},{"bike_id":"a2a4b699-3677-451a-9074-e0e839b6dd0f","system_id":"levelo_inurba_marseille","lat":43.30928,"lon":5.40153,"is_reserved":false,"is_disabled":false,"rental_uris":{"android":"levelo://app?vid=a2a4b699-3677-451a-9074-e0e839b6dd0f","ios":"levelo://app?vid=a2a4b699-3677-451a-9074-e0e839b6dd0f"},"vehicle_type_id":"4","last_reported":1728022397,"current_range_meters":38800,"station_id":"ce4bgvp2rcd13ifvqct0","pricing_plan_id":"cebpf4jnsgd1na2vs0mg"},{"bike_id":"240aabb2-d30a-4816-bf39-1f44da7634a0","system_id":"levelo_inurba_marseille","lat":43.30909,"lon":5.36846,"is_reserved":false,"is_disabled":false,"rental_uris":{"android":"levelo://app?vid=240aabb2-d30a-4816-bf39-1f44da7634a0","ios":"levelo://app?vid=240aabb2-d30a-4816-bf39-1f44da7634a0"},"vehicle_type_id":"4","last_reported":1728022397,"current_range_meters":38800,"station_id":"ce4bgn92rcd13ifvqbvg","pricing_plan_id":"cebpf4jnsgd1na2vs0mg"},{"bike_id":"566a9cf0-f209-4c9f-9e1e-a43a024de395","system_id":"levelo_inurba_marseille","lat":43.27383,"lon":5.36252,"is_reserved":false,"is_disabled":false,"rental_uris":{"android":"levelo://app?vid=566a9cf0-f209-4c9f-9e1e-a43a024de395","ios":"levelo://app?vid=566a9cf0-f209-4c9f-9e1e-a43a024de395"},"vehicle_type_id":"4","last_reported":1728022397,"current_range_meters":27200,"station_id":"ce4bhbh2rcd13ifvqeo0","pricing_plan_id":"cebpf4jnsgd1na2vs0mg"},{"bike_id":"b73551f1-4737-42f3-8efd-5f2fca843848","system_id":"levelo_inurba_marseille","lat":43.29891,"lon":5.4366,"is_reserved":false,"is_disabled":false,"rental_uris":{"android":"levelo://app?vid=b73551f1-4737-42f3-8efd-5f2fca843848","ios":"levelo://app?vid=b73551f1-4737-42f3-8efd-5f2fca843848"},"vehicle_type_id":"4","last_reported":1728022397,"current_range_meters":19200,"station_id":"ce4bhpp2rcd13ifvqhfg","pricing_plan_id":"cebpf4jnsgd1na2vs0mg"},{"bike_id":"1d21fea5-2427-4550-95ba-96e800380226","system_id":"levelo_inurba_marseille","lat":43.24076,"lon":5.37757,"is_reserved":false,"is_disabled":false,"rental_uris":{"android":"levelo://app?vid=1d21fea5-2427-4550-95ba-96e800380226","ios":"levelo://app?vid=1d21fea5-2427-4550-95ba-96e800380226"},"vehicle_type_id":"4","last_reported":1728022397,"current_range_meters":32400,"station_id":"ce4bhnp2rcd13ifvqgvg","pricing_plan_id":"cebpf4jnsgd1na2vs0mg"},{"bike_id":"8a6d08b0-6605-4468-8844-14aa0227f75b","system_id":"levelo_inurba_marseille","lat":43.28968,"lon":5.39713,"is_reserved":false,"is_disabled":false,"rental_uris":{"android":"levelo://app?vid=8a6d08b0-6605-4468-8844-14aa0227f75b","ios":"levelo://app?vid=8a6d08b0-6605-4468-8844-14aa0227f75b"},"vehicle_type_id":"4","last_reported":1728022397,"current_range_meters":33600,"station_id":"ce4bh512rcd13ifvqe3g","pricing_plan_id":"cebpf4jnsgd1na2vs0mg"},{"bike_id":"87b82762-d75d-4221-a799-30aa397393ab","system_id":"levelo_inurba_marseille","lat":43.27493,"lon":5.42451,"is_reserved":false,"is_disabled":false,"rental_uris":{"android":"levelo://app?vid=87b82762-d75d-4221-a799-30aa397393ab","ios":"levelo://app?vid=87b82762-d75d-4221-a799-30aa397393ab"},"vehicle_type_id":"4","last_reported":1728022397,"current_range_meters":28000,"station_id":"ce4bhn92rcd13ifvqgrg","pricing_plan_id":"cebpf4jnsgd1na2vs0mg"},{"bike_id":"1d2f50f0-a92b-4cc3-8df7-4e1465139892","system_id":"levelo_inurba_marseille","lat":43.25578,"lon":5.38224,"is_reserved":false,"is_disabled":false,"rental_uris":{"android":"levelo://app?vid=1d2f50f0-a92b-4cc3-8df7-4e1465139892","ios":"levelo://app?vid=1d2f50f0-a92b-4cc3-8df7-4e1465139892"},"vehicle_type_id":"4","last_reported":1728022397,"current_range_meters":38800,"station_id":"ce4bhih2rcd13ifvqfs0","pricing_plan_id":"cebpf4jnsgd1na2vs0mg"},{"bike_id":"437efef6-ee24-442c-93f2-446ad8da25bb","system_id":"levelo_inurba_marseille","lat":43.25574,"lon":5.38224,"is_reserved":false,"is_disabled":false,"rental_uris":{"android":"levelo://app?vid=437efef6-ee24-442c-93f2-446ad8da25bb","ios":"levelo://app?vid=437efef6-ee24-442c-93f2-446ad8da25bb"},"vehicle_type_id":"4","last_reported":1728022397,"current_range_meters":30400,"station_id":"ce4bhih2rcd13ifvqfs0","pricing_plan_id":"cebpf4jnsgd1na2vs0mg"},{"bike_id":"6323c3ea-75d7-47ca-8873-1f720d264584","system_id":"levelo_inurba_marseille","lat":43.25499,"lon":5.37653,"is_reserved":false,"is_disabled":false,"rental_uris":{"android":"levelo://app?vid=6323c3ea-75d7-47ca-8873-1f720d264584","ios":"levelo://app?vid=6323c3ea-75d7-47ca-8873-1f720d264584"},"vehicle_type_id":"4","last_reported":1728022397,"current_range_meters":38800,"station_id":"ce4bhh12rcd13ifvqff0","pricing_plan_id":"cebpf4jnsgd1na2vs0mg"},{"bike_id":"0f17d21c-3859-4c86-8ffc-66684e45f821","system_id":"levelo_inurba_marseille","lat":43.32474,"lon":5.36571,"is_reserved":false,"is_disabled":false,"rental_uris":{"android":"levelo://app?vid=0f17d21c-3859-4c86-8ffc-66684e45f821","ios":"levelo://app?vid=0f17d21c-3859-4c86-8ffc-66684e45f821"},"vehicle_type_id":"4","last_reported":1728022397,"current_range_meters":32000,"station_id":"ce4bhs12rcd13ifvqhvg","pricing_plan_id":"cebpf4jnsgd1na2vs0mg"},{"bike_id":"81f3a759-d8a0-44d0-869f-4f5235db3695","system_id":"levelo_inurba_marseille","lat":43.24081,"lon":5.37759,"is_reserved":false,"is_disabled":false,"rental_uris":{"android":"levelo://app?vid=81f3a759-d8a0-44d0-869f-4f5235db3695","ios":"levelo://app?vid=81f3a759-d8a0-44d0-869f-4f5235db3695"},"vehicle_type_id":"4","last_reported":1728022397,"current_range_meters":28400,"station_id":"ce4bhnp2rcd13ifvqgvg","pricing_plan_id":"cebpf4jnsgd1na2vs0mg"},{"bike_id":"f15749ef-8afe-4d39-89e7-4e320961fb28","system_id":"levelo_inurba_marseille","lat":43.24066,"lon":5.3776,"is_reserved":false,"is_disabled":false,"rental_uris":{"android":"levelo://app?vid=f15749ef-8afe-4d39-89e7-4e320961fb28","ios":"levelo://app?vid=f15749ef-8afe-4d39-89e7-4e320961fb28"},"vehicle_type_id":"4","last_reported":1728022397,"current_range_meters":11600,"station_id":"ce4bhnp2rcd13ifvqgvg","pricing_plan_id":"cebpf4jnsgd1na2vs0mg"},{"bike_id":"86a59fdf-5419-4bd8-a9ed-c91c60731103","system_id":"levelo_inurba_marseille","lat":43.30287,"lon":5.37917,"is_reserved":false,"is_disabled":false,"rental_uris":{"android":"levelo://app?vid=86a59fdf-5419-4bd8-a9ed-c91c60731103","ios":"levelo://app?vid=86a59fdf-5419-4bd8-a9ed-c91c60731103"},"vehicle_type_id":"4","last_reported":1728022397,"current_range_meters":19200,"station_id":"","pricing_plan_id":"cebpf4jnsgd1na2vs0mg"},{"bike_id":"afcafeaa-39b2-4599-b1ca-199f1988c081","system_id":"levelo_inurba_marseille","lat":43.29629,"lon":5.40602,"is_reserved":false,"is_disabled":false,"rental_uris":{"android":"levelo://app?vid=afcafeaa-39b2-4599-b1ca-199f1988c081","ios":"levelo://app?vid=afcafeaa-39b2-4599-b1ca-199f1988c081"},"vehicle_type_id":"4","last_reported":1728022397,"current_range_meters":38800,"station_id":"ce4bh0h2rcd13ifvqd60","pricing_plan_id":"cebpf4jnsgd1na2vs0mg"},{"bike_id":"1a1e5e11-9958-419e-a69a-a32565d8d10c","system_id":"levelo_inurba_marseille","lat":43.28943,"lon":5.38181,"is_reserved":false,"is_disabled":false,"rental_uris":{"android":"levelo://app?vid=1a1e5e11-9958-419e-a69a-a32565d8d10c","ios":"levelo://app?vid=1a1e5e11-9958-419e-a69a-a32565d8d10c"},"vehicle_type_id":"4","last_reported":1728022397,"current_range_meters":13600,"station_id":"","pricing_plan_id":"cebpf4jnsgd1na2vs0mg"},{"bike_id":"f6139423-9a75-4754-aa4b-50bb61259845","system_id":"levelo_inurba_marseille","lat":43.31707,"lon":5.40476,"is_reserved":false,"is_disabled":false,"rental_uris":{"android":"levelo://app?vid=f6139423-9a75-4754-aa4b-50bb61259845","ios":"levelo://app?vid=f6139423-9a75-4754-aa4b-50bb61259845"},"vehicle_type_id":"4","last_reported":1728022397,"current_range_meters":26000,"station_id":"ce4bh012rcd13ifvqd00","pricing_plan_id":"cebpf4jnsgd1na2vs0mg"},{"bike_id":"0f49be9b-dea8-4072-a936-e4af7b56b73f","system_id":"levelo_inurba_marseille","lat":43.26572,"lon":5.39013,"is_reserved":false,"is_disabled":false,"rental_uris":{"android":"levelo://app?vid=0f49be9b-dea8-4072-a936-e4af7b56b73f","ios":"levelo://app?vid=0f49be9b-dea8-4072-a936-e4af7b56b73f"},"vehicle_type_id":"4","last_reported":1728022397,"current_range_meters":27200,"station_id":"ce4bhe12rcd13ifvqf30","pricing_plan_id":"cebpf4jnsgd1na2vs0mg"},{"bike_id":"5ccb7b45-c769-42be-9efc-6ce9a31c4207","system_id":"levelo_inurba_marseille","lat":43.26806,"lon":5.40273,"is_reserved":false,"is_disabled":false,"rental_uris":{"android":"levelo://app?vid=5ccb7b45-c769-42be-9efc-6ce9a31c4207","ios":"levelo://app?vid=5ccb7b45-c769-42be-9efc-6ce9a31c4207"},"vehicle_type_id":"4","last_reported":1728022397,"current_range_meters":37600,"station_id":"ce501612rcd8frsf0b60","pricing_plan_id":"cebpf4jnsgd1na2vs0mg"},{"bike_id":"ad9d6e94-a639-469e-9892-0c7fed511f97","system_id":"levelo_inurba_marseille","lat":43.26562,"lon":5.372826,"is_reserved":false,"is_disabled":false,"rental_uris":{"android":"levelo://app?vid=ad9d6e94-a639-469e-9892-0c7fed511f97","ios":"levelo://app?vid=ad9d6e94-a639-469e-9892-0c7fed511f97"},"vehicle_type_id":"4","last_reported":1728022397,"current_range_meters":16400,"station_id":"ce4bhg12rcd13ifvqf70","pricing_plan_id":"cebpf4jnsgd1na2vs0mg"},{"bike_id":"d518a811-3996-4e31-85d6-665ef58dac47","system_id":"levelo_inurba_marseille","lat":43.299283,"lon":5.372636,"is_reserved":false,"is_disabled":false,"rental_uris":{"android":"levelo://app?vid=d518a811-3996-4e31-85d6-665ef58dac47","ios":"levelo://app?vid=d518a811-3996-4e31-85d6-665ef58dac47"},"vehicle_type_id":"4","last_reported":1728022397,"current_range_meters":30000,"station_id":"ce4bgr92rcd13ifvqc7g","pricing_plan_id":"cebpf4jnsgd1na2vs0mg"},{"bike_id":"e0565007-e099-4360-85ee-352bc1a52261","system_id":"levelo_inurba_marseille","lat":43.27494,"lon":5.42452,"is_reserved":false,"is_disabled":false,"rental_uris":{"android":"levelo://app?vid=e0565007-e099-4360-85ee-352bc1a52261","ios":"levelo://app?vid=e0565007-e099-4360-85ee-352bc1a52261"},"vehicle_type_id":"4","last_reported":1728022397,"current_range_meters":20400,"station_id":"ce4bhn92rcd13ifvqgrg","pricing_plan_id":"cebpf4jnsgd1na2vs0mg"},{"bike_id":"9e510002-bc2e-4eff-8d5d-287714d2b85d","system_id":"levelo_inurba_marseille","lat":43.28467,"lon":5.38413,"is_reserved":false,"is_disabled":false,"rental_uris":{"android":"levelo://app?vid=9e510002-bc2e-4eff-8d5d-287714d2b85d","ios":"levelo://app?vid=9e510002-bc2e-4eff-8d5d-287714d2b85d"},"vehicle_type_id":"4","last_reported":1728022397,"current_range_meters":38400,"station_id":"ce4bh512rcd13ifvqe3g","pricing_plan_id":"cebpf4jnsgd1na2vs0mg"},{"bike_id":"6c612d46-36b3-4c42-a988-8fe9c456f752","system_id":"levelo_inurba_marseille","lat":43.30468,"lon":5.37898,"is_reserved":false,"is_disabled":false,"rental_uris":{"android":"levelo://app?vid=6c612d46-36b3-4c42-a988-8fe9c456f752","ios":"levelo://app?vid=6c612d46-36b3-4c42-a988-8fe9c456f752"},"vehicle_type_id":"4","last_reported":1728022397,"current_range_meters":28000,"station_id":"ce4bgup2rcd13ifvqcn0","pricing_plan_id":"cebpf4jnsgd1na2vs0mg"},{"bike_id":"dcd727b3-f9c1-4311-b079-85f7e54ffe8d","system_id":"levelo_inurba_marseille","lat":43.24077,"lon":5.37756,"is_reserved":false,"is_disabled":false,"rental_uris":{"android":"levelo://app?vid=dcd727b3-f9c1-4311-b079-85f7e54ffe8d","ios":"levelo://app?vid=dcd727b3-f9c1-4311-b079-85f7e54ffe8d"},"vehicle_type_id":"4","last_reported":1728022397,"current_range_meters":30800,"station_id":"ce4bhnp2rcd13ifvqgvg","pricing_plan_id":"cebpf4jnsgd1na2vs0mg"},{"bike_id":"96d818ba-4530-4ec0-8448-d176064c802f","system_id":"levelo_inurba_marseille","lat":43.282737,"lon":5.350667,"is_reserved":false,"is_disabled":false,"rental_uris":{"android":"levelo://app?vid=96d818ba-4530-4ec0-8448-d176064c802f","ios":"levelo://app?vid=96d818ba-4530-4ec0-8448-d176064c802f"},"vehicle_type_id":"4","last_reported":1728022397,"current_range_meters":38000,"station_id":"ce4bhbp2rcd13ifvqerg","pricing_plan_id":"cebpf4jnsgd1na2vs0mg"},{"bike_id":"fa1c7c0c-dbb8-4d1e-9efd-c3f216f2713e","system_id":"levelo_inurba_marseille","lat":43.2962,"lon":5.38106,"is_reserved":false,"is_disabled":false,"rental_uris":{"android":"levelo://app?vid=fa1c7c0c-dbb8-4d1e-9efd-c3f216f2713e","ios":"levelo://app?vid=fa1c7c0c-dbb8-4d1e-9efd-c3f216f2713e"},"vehicle_type_id":"4","last_reported":1728022397,"current_range_meters":12800,"station_id":"ce4bgl12rcd13ifvqbo0","pricing_plan_id":"cebpf4jnsgd1na2vs0mg"},{"bike_id":"2abc33c5-5934-4cf6-a1e5-6f26fe87d8e9","system_id":"levelo_inurba_marseille","lat":43.2862,"lon":5.35102,"is_reserved":false,"is_disabled":false,"rental_uris":{"android":"levelo://app?vid=2abc33c5-5934-4cf6-a1e5-6f26fe87d8e9","ios":"levelo://app?vid=2abc33c5-5934-4cf6-a1e5-6f26fe87d8e9"},"vehicle_type_id":"4","last_reported":1728022397,"current_range_meters":8000,"station_id":"ce4bhch2rcd13ifvqeug","pricing_plan_id":"cebpf4jnsgd1na2vs0mg"},{"bike_id":"6492f35d-2ead-4863-985e-e92ad62cabbd","system_id":"levelo_inurba_marseille","lat":43.27183,"lon":5.40989,"is_reserved":false,"is_disabled":false,"rental_uris":{"android":"levelo://app?vid=6492f35d-2ead-4863-985e-e92ad62cabbd","ios":"levelo://app?vid=6492f35d-2ead-4863-985e-e92ad62cabbd"},"vehicle_type_id":"4","last_reported":1728022397,"current_range_meters":29600,"station_id":"ce4bhl12rcd13ifvqgf0","pricing_plan_id":"cebpf4jnsgd1na2vs0mg"},{"bike_id":"8e7ae72a-2bb9-49f2-9500-cfb31a4b07a4","system_id":"levelo_inurba_marseille","lat":43.28038,"lon":5.36943,"is_reserved":false,"is_disabled":false,"rental_uris":{"android":"levelo://app?vid=8e7ae72a-2bb9-49f2-9500-cfb31a4b07a4","ios":"levelo://app?vid=8e7ae72a-2bb9-49f2-9500-cfb31a4b07a4"},"vehicle_type_id":"4","last_reported":1728022397,"current_range_meters":5600,"station_id":"ce4bha12rcd13ifvqef0","pricing_plan_id":"cebpf4jnsgd1na2vs0mg"},{"bike_id":"0fc7ae8d-9102-4d20-8337-a47ebec4b5f1","system_id":"levelo_inurba_marseille","lat":43.32548,"lon":5.4144,"is_reserved":false,"is_disabled":false,"rental_uris":{"android":"levelo://app?vid=0fc7ae8d-9102-4d20-8337-a47ebec4b5f1","ios":"levelo://app?vid=0fc7ae8d-9102-4d20-8337-a47ebec4b5f1"},"vehicle_type_id":"4","last_reported":1728022397,"current_range_meters":39200,"station_id":"ce4bhq12rcd13ifvqhhg","pricing_plan_id":"cebpf4jnsgd1na2vs0mg"},{"bike_id":"b882e972-7dc9-43a0-a4a3-11df712bbf0b","system_id":"levelo_inurba_marseille","lat":43.30466,"lon":5.37909,"is_reserved":false,"is_disabled":false,"rental_uris":{"android":"levelo://app?vid=b882e972-7dc9-43a0-a4a3-11df712bbf0b","ios":"levelo://app?vid=b882e972-7dc9-43a0-a4a3-11df712bbf0b"},"vehicle_type_id":"4","last_reported":1728022397,"current_range_meters":37600,"station_id":"ce4bgup2rcd13ifvqcn0","pricing_plan_id":"cebpf4jnsgd1na2vs0mg"},{"bike_id":"a159e45a-7bbf-473c-b638-80b72bd5f9b8","system_id":"levelo_inurba_marseille","lat":43.28362,"lon":5.38629,"is_reserved":false,"is_disabled":false,"rental_uris":{"android":"levelo://app?vid=a159e45a-7bbf-473c-b638-80b72bd5f9b8","ios":"levelo://app?vid=a159e45a-7bbf-473c-b638-80b72bd5f9b8"},"vehicle_type_id":"4","last_reported":1728022397,"current_range_meters":16000,"station_id":"ce4bh492rcd13ifvqdvg","pricing_plan_id":"cebpf4jnsgd1na2vs0mg"},{"bike_id":"bb135a61-3e56-42ce-b1ef-3c6b790eb849","system_id":"levelo_inurba_marseille","lat":43.244233,"lon":5.371454,"is_reserved":false,"is_disabled":false,"rental_uris":{"android":"levelo://app?vid=bb135a61-3e56-42ce-b1ef-3c6b790eb849","ios":"levelo://app?vid=bb135a61-3e56-42ce-b1ef-3c6b790eb849"},"vehicle_type_id":"4","last_reported":1728022397,"current_range_meters":25200,"station_id":"ce4bhhh2rcd13ifvqfk0","pricing_plan_id":"cebpf4jnsgd1na2vs0mg"},{"bike_id":"055e73cb-cf8a-4a7e-b811-85a515d79c38","system_id":"levelo_inurba_marseille","lat":43.28471,"lon":5.38406,"is_reserved":false,"is_disabled":false,"rental_uris":{"android":"levelo://app?vid=055e73cb-cf8a-4a7e-b811-85a515d79c38","ios":"levelo://app?vid=055e73cb-cf8a-4a7e-b811-85a515d79c38"},"vehicle_type_id":"4","last_reported":1728022397,"current_range_meters":20800,"station_id":"ce4bh512rcd13ifvqe3g","pricing_plan_id":"cebpf4jnsgd1na2vs0mg"},{"bike_id":"55451df6-dc38-4862-8a04-e6a956919556","system_id":"levelo_inurba_marseille","lat":43.31276,"lon":5.40177,"is_reserved":false,"is_disabled":false,"rental_uris":{"android":"levelo://app?vid=55451df6-dc38-4862-8a04-e6a956919556","ios":"levelo://app?vid=55451df6-dc38-4862-8a04-e6a956919556"},"vehicle_type_id":"4","last_reported":1728022397,"current_range_meters":28000,"station_id":"ce4bh092rcd13ifvqd30","pricing_plan_id":"cebpf4jnsgd1na2vs0mg"},{"bike_id":"85a60867-0292-479f-99a9-23810b153b98","system_id":"levelo_inurba_marseille","lat":43.27064,"lon":5.42275,"is_reserved":false,"is_disabled":false,"rental_uris":{"android":"levelo://app?vid=85a60867-0292-479f-99a9-23810b153b98","ios":"levelo://app?vid=85a60867-0292-479f-99a9-23810b153b98"},"vehicle_type_id":"4","last_reported":1728022397,"current_range_meters":9600,"station_id":"ce4bhk92rcd13ifvqgb0","pricing_plan_id":"cebpf4jnsgd1na2vs0mg"},{"bike_id":"5c8970c0-3ceb-465a-9f61-48e90dd5c290","system_id":"levelo_inurba_marseille","lat":43.25003,"lon":5.38929,"is_reserved":false,"is_disabled":false,"rental_uris":{"android":"levelo://app?vid=5c8970c0-3ceb-465a-9f61-48e90dd5c290","ios":"levelo://app?vid=5c8970c0-3ceb-465a-9f61-48e90dd5c290"},"vehicle_type_id":"4","last_reported":1728022397,"current_range_meters":27600,"station_id":"ce4bhgp2rcd13ifvqfd0","pricing_plan_id":"cebpf4jnsgd1na2vs0mg"},{"bike_id":"b394f60d-5529-441a-b1f5-b3bdd7b5bed7","system_id":"levelo_inurba_marseille","lat":43.2928,"lon":5.36852,"is_reserved":false,"is_disabled":false,"rental_uris":{"android":"levelo://app?vid=b394f60d-5529-441a-b1f5-b3bdd7b5bed7","ios":"levelo://app?vid=b394f60d-5529-441a-b1f5-b3bdd7b5bed7"},"vehicle_type_id":"4","last_reported":1728022397,"current_range_meters":38800,"station_id":"ce4bhbp2rcd13ifvqesg","pricing_plan_id":"cebpf4jnsgd1na2vs0mg"},{"bike_id":"7f329304-c627-4196-8d0f-ef29b0434bf7","system_id":"levelo_inurba_marseille","lat":43.28616,"lon":5.35107,"is_reserved":false,"is_disabled":false,"rental_uris":{"android":"levelo://app?vid=7f329304-c627-4196-8d0f-ef29b0434bf7","ios":"levelo://app?vid=7f329304-c627-4196-8d0f-ef29b0434bf7"},"vehicle_type_id":"4","last_reported":1728022397,"current_range_meters":38800,"station_id":"ce4bhch2rcd13ifvqeug","pricing_plan_id":"cebpf4jnsgd1na2vs0mg"},{"bike_id":"b4d92a09-4853-4571-84e2-6fa828263f94","system_id":"levelo_inurba_marseille","lat":43.28373,"lon":5.38629,"is_reserved":false,"is_disabled":false,"rental_uris":{"android":"levelo://app?vid=b4d92a09-4853-4571-84e2-6fa828263f94","ios":"levelo://app?vid=b4d92a09-4853-4571-84e2-6fa828263f94"},"vehicle_type_id":"4","last_reported":1728022397,"current_range_meters":38800,"station_id":"ce4bh492rcd13ifvqdvg","pricing_plan_id":"cebpf4jnsgd1na2vs0mg"},{"bike_id":"49a3403f-5a93-443e-8052-24eba6f7e6a3","system_id":"levelo_inurba_marseille","lat":43.30537,"lon":5.36558,"is_reserved":false,"is_disabled":false,"rental_uris":{"android":"levelo://app?vid=49a3403f-5a93-443e-8052-24eba6f7e6a3","ios":"levelo://app?vid=49a3403f-5a93-443e-8052-24eba6f7e6a3"},"vehicle_type_id":"4","last_reported":1728022397,"current_range_meters":38800,"station_id":"ce4bgs12rcd13ifvqcag","pricing_plan_id":"cebpf4jnsgd1na2vs0mg"},{"bike_id":"a17187ea-a1cf-4421-bc90-8e8a71d9f1c3","system_id":"levelo_inurba_marseille","lat":43.28943,"lon":5.3639,"is_reserved":false,"is_disabled":false,"rental_uris":{"android":"levelo://app?vid=a17187ea-a1cf-4421-bc90-8e8a71d9f1c3","ios":"levelo://app?vid=a17187ea-a1cf-4421-bc90-8e8a71d9f1c3"},"vehicle_type_id":"4","last_reported":1728022397,"current_range_meters":16000,"station_id":"ce4bhc92rcd13ifvqetg","pricing_plan_id":"cebpf4jnsgd1na2vs0mg"},{"bike_id":"11b4dc66-91a6-41fa-9523-ff4d49db8f71","system_id":"levelo_inurba_marseille","lat":43.29607,"lon":5.38117,"is_reserved":false,"is_disabled":false,"rental_uris":{"android":"levelo://app?vid=11b4dc66-91a6-41fa-9523-ff4d49db8f71","ios":"levelo://app?vid=11b4dc66-91a6-41fa-9523-ff4d49db8f71"},"vehicle_type_id":"4","last_reported":1728022397,"current_range_meters":30000,"station_id":"ce4bgl12rcd13ifvqbo0","pricing_plan_id":"cebpf4jnsgd1na2vs0mg"},{"bike_id":"12014e5f-9061-4078-ba17-f5b4421eab0c","system_id":"levelo_inurba_marseille","lat":43.2457,"lon":5.40999,"is_reserved":false,"is_disabled":false,"rental_uris":{"android":"levelo://app?vid=12014e5f-9061-4078-ba17-f5b4421eab0c","ios":"levelo://app?vid=12014e5f-9061-4078-ba17-f5b4421eab0c"},"vehicle_type_id":"4","last_reported":1728022397,"current_range_meters":20800,"station_id":"ce4bhmp2rcd13ifvqgog","pricing_plan_id":"cebpf4jnsgd1na2vs0mg"},{"bike_id":"c585d065-1afc-492f-a27b-67ff74a0ca2a","system_id":"levelo_inurba_marseille","lat":43.29033,"lon":5.39972,"is_reserved":false,"is_disabled":false,"rental_uris":{"android":"levelo://app?vid=c585d065-1afc-492f-a27b-67ff74a0ca2a","ios":"levelo://app?vid=c585d065-1afc-492f-a27b-67ff74a0ca2a"},"vehicle_type_id":"4","last_reported":1728022397,"current_range_meters":28800,"station_id":"ce4bh392rcd13ifvqdm0","pricing_plan_id":"cebpf4jnsgd1na2vs0mg"},{"bike_id":"60133598-3403-4260-b670-4e2957166424","system_id":"levelo_inurba_marseille","lat":43.2408,"lon":5.37754,"is_reserved":false,"is_disabled":false,"rental_uris":{"android":"levelo://app?vid=60133598-3403-4260-b670-4e2957166424","ios":"levelo://app?vid=60133598-3403-4260-b670-4e2957166424"},"vehicle_type_id":"4","last_reported":1728022397,"current_range_meters":22800,"station_id":"ce4bhnp2rcd13ifvqgvg","pricing_plan_id":"cebpf4jnsgd1na2vs0mg"},{"bike_id":"781757d6-91df-4aa1-afd2-cfd41967db46","system_id":"levelo_inurba_marseille","lat":43.2501,"lon":5.38925,"is_reserved":false,"is_disabled":false,"rental_uris":{"android":"levelo://app?vid=781757d6-91df-4aa1-afd2-cfd41967db46","ios":"levelo://app?vid=781757d6-91df-4aa1-afd2-cfd41967db46"},"vehicle_type_id":"4","last_reported":1728022397,"current_range_meters":38800,"station_id":"ce4bhgp2rcd13ifvqfd0","pricing_plan_id":"cebpf4jnsgd1na2vs0mg"},{"bike_id":"eaec21c8-bede-428f-9f4f-22e056660fea","system_id":"levelo_inurba_marseille","lat":43.32657,"lon":5.40998,"is_reserved":false,"is_disabled":false,"rental_uris":{"android":"levelo://app?vid=eaec21c8-bede-428f-9f4f-22e056660fea","ios":"levelo://app?vid=eaec21c8-bede-428f-9f4f-22e056660fea"},"vehicle_type_id":"4","last_reported":1728022397,"current_range_meters":36800,"station_id":"ce4bhpp2rcd13ifvqhgg","pricing_plan_id":"cebpf4jnsgd1na2vs0mg"},{"bike_id":"0a0e3134-ea1a-4535-bd74-0ca38322a4f4","system_id":"levelo_inurba_marseille","lat":43.28726,"lon":5.39983,"is_reserved":false,"is_disabled":false,"rental_uris":{"android":"levelo://app?vid=0a0e3134-ea1a-4535-bd74-0ca38322a4f4","ios":"levelo://app?vid=0a0e3134-ea1a-4535-bd74-0ca38322a4f4"},"vehicle_type_id":"4","last_reported":1728022397,"current_range_meters":38800,"station_id":"ce4bho92rcd13ifvqh3g","pricing_plan_id":"cebpf4jnsgd1na2vs0mg"},{"bike_id":"6e3d8af3-726e-43e4-9ee9-230f2ce8d10b","system_id":"levelo_inurba_marseille","lat":43.26952,"lon":5.38624,"is_reserved":false,"is_disabled":false,"rental_uris":{"android":"levelo://app?vid=6e3d8af3-726e-43e4-9ee9-230f2ce8d10b","ios":"levelo://app?vid=6e3d8af3-726e-43e4-9ee9-230f2ce8d10b"},"vehicle_type_id":"4","last_reported":1728022397,"current_range_meters":36400,"station_id":"ce4bhh92rcd13ifvqfh0","pricing_plan_id":"cebpf4jnsgd1na2vs0mg"},{"bike_id":"d569267f-419a-4d36-a732-0ebbc564ff43","system_id":"levelo_inurba_marseille","lat":43.262087,"lon":5.379192,"is_reserved":false,"is_disabled":false,"rental_uris":{"android":"levelo://app?vid=d569267f-419a-4d36-a732-0ebbc564ff43","ios":"levelo://app?vid=d569267f-419a-4d36-a732-0ebbc564ff43"},"vehicle_type_id":"4","last_reported":1728022397,"current_range_meters":38000,"station_id":"ce4bhjp2rcd13ifvqg90","pricing_plan_id":"cebpf4jnsgd1na2vs0mg"},{"bike_id":"fd872ba7-9877-4e67-9269-d8995abba644","system_id":"levelo_inurba_marseille","lat":43.22936,"lon":5.353789,"is_reserved":false,"is_disabled":false,"rental_uris":{"android":"levelo://app?vid=fd872ba7-9877-4e67-9269-d8995abba644","ios":"levelo://app?vid=fd872ba7-9877-4e67-9269-d8995abba644"},"vehicle_type_id":"4","last_reported":1728022397,"current_range_meters":22400,"station_id":"cpo3532slgdg3j2ikp40","pricing_plan_id":"cebpf4jnsgd1na2vs0mg"},{"bike_id":"91913e38-2c79-4744-bc0b-e9ceeafdd2e6","system_id":"levelo_inurba_marseille","lat":43.29227,"lon":5.36046,"is_reserved":false,"is_disabled":false,"rental_uris":{"android":"levelo://app?vid=91913e38-2c79-4744-bc0b-e9ceeafdd2e6","ios":"levelo://app?vid=91913e38-2c79-4744-bc0b-e9ceeafdd2e6"},"vehicle_type_id":"4","last_reported":1728022397,"current_range_meters":38800,"station_id":"ce4bhbh2rcd13ifvqeqg","pricing_plan_id":"cebpf4jnsgd1na2vs0mg"},{"bike_id":"e2e710fa-18d1-4640-8843-7ba0cc5f8fd8","system_id":"levelo_inurba_marseille","lat":43.29573,"lon":5.39963,"is_reserved":false,"is_disabled":false,"rental_uris":{"android":"levelo://app?vid=e2e710fa-18d1-4640-8843-7ba0cc5f8fd8","ios":"levelo://app?vid=e2e710fa-18d1-4640-8843-7ba0cc5f8fd8"},"vehicle_type_id":"4","last_reported":1728022397,"current_range_meters":38800,"station_id":"ce4bh312rcd13ifvqdj0","pricing_plan_id":"cebpf4jnsgd1na2vs0mg"},{"bike_id":"c1b845b1-b148-48e3-b795-440066e77ead","system_id":"levelo_inurba_marseille","lat":43.30553,"lon":5.36696,"is_reserved":false,"is_disabled":false,"rental_uris":{"android":"levelo://app?vid=c1b845b1-b148-48e3-b795-440066e77ead","ios":"levelo://app?vid=c1b845b1-b148-48e3-b795-440066e77ead"},"vehicle_type_id":"4","last_reported":1728022397,"current_range_meters":38800,"station_id":"ce4bgrp2rcd13ifvqc9g","pricing_plan_id":"cebpf4jnsgd1na2vs0mg"},{"bike_id":"550e08ad-2e16-412d-b9fc-ef72bf5bc2e0","system_id":"levelo_inurba_marseille","lat":43.24662,"lon":5.38162,"is_reserved":false,"is_disabled":false,"rental_uris":{"android":"levelo://app?vid=550e08ad-2e16-412d-b9fc-ef72bf5bc2e0","ios":"levelo://app?vid=550e08ad-2e16-412d-b9fc-ef72bf5bc2e0"},"vehicle_type_id":"4","last_reported":1728022397,"current_range_meters":38800,"station_id":"ce4bhih2rcd13ifvqfr0","pricing_plan_id":"cebpf4jnsgd1na2vs0mg"},{"bike_id":"969dcdc4-00f4-4324-8836-2cafa04efa26","system_id":"levelo_inurba_marseille","lat":43.29963,"lon":5.4132,"is_reserved":false,"is_disabled":false,"rental_uris":{"android":"levelo://app?vid=969dcdc4-00f4-4324-8836-2cafa04efa26","ios":"levelo://app?vid=969dcdc4-00f4-4324-8836-2cafa04efa26"},"vehicle_type_id":"4","last_reported":1728022397,"current_range_meters":22800,"station_id":"ce4bhp12rcd13ifvqh9g","pricing_plan_id":"cebpf4jnsgd1na2vs0mg"},{"bike_id":"2f0e98b8-40e8-49e8-bfb4-ce45e2c6c864","system_id":"levelo_inurba_marseille","lat":43.30156,"lon":5.38082,"is_reserved":false,"is_disabled":false,"rental_uris":{"android":"levelo://app?vid=2f0e98b8-40e8-49e8-bfb4-ce45e2c6c864","ios":"levelo://app?vid=2f0e98b8-40e8-49e8-bfb4-ce45e2c6c864"},"vehicle_type_id":"4","last_reported":1728022397,"current_range_meters":36000,"station_id":"ce4bgjp2rcd13ifvqbh0","pricing_plan_id":"cebpf4jnsgd1na2vs0mg"},{"bike_id":"b1dfe2ea-3738-4edc-8582-6d3008fb75bb","system_id":"levelo_inurba_marseille","lat":43.27367,"lon":5.38546,"is_reserved":false,"is_disabled":false,"rental_uris":{"android":"levelo://app?vid=b1dfe2ea-3738-4edc-8582-6d3008fb75bb","ios":"levelo://app?vid=b1dfe2ea-3738-4edc-8582-6d3008fb75bb"},"vehicle_type_id":"4","last_reported":1728022397,"current_range_meters":36800,"station_id":"ce4bhh92rcd13ifvqfh0","pricing_plan_id":"cebpf4jnsgd1na2vs0mg"},{"bike_id":"e0d51ca0-9ce8-41fe-87c5-35741f790b72","system_id":"levelo_inurba_marseille","lat":43.31222,"lon":5.3686,"is_reserved":false,"is_disabled":false,"rental_uris":{"android":"levelo://app?vid=e0d51ca0-9ce8-41fe-87c5-35741f790b72","ios":"levelo://app?vid=e0d51ca0-9ce8-41fe-87c5-35741f790b72"},"vehicle_type_id":"4","last_reported":1728022397,"current_range_meters":6000,"station_id":"ce4bgl92rcd13ifvqbq0","pricing_plan_id":"cebpf4jnsgd1na2vs0mg"},{"bike_id":"5cab1874-9a8f-4f2c-be1f-3707c4895726","system_id":"levelo_inurba_marseille","lat":43.2847,"lon":5.35884,"is_reserved":false,"is_disabled":false,"rental_uris":{"android":"levelo://app?vid=5cab1874-9a8f-4f2c-be1f-3707c4895726","ios":"levelo://app?vid=5cab1874-9a8f-4f2c-be1f-3707c4895726"},"vehicle_type_id":"4","last_reported":1728022397,"current_range_meters":20000,"station_id":"ce4bhah2rcd13ifvqei0","pricing_plan_id":"cebpf4jnsgd1na2vs0mg"},{"bike_id":"475ed610-462d-43a0-aca3-4df3f8e08a69","system_id":"levelo_inurba_marseille","lat":43.27651,"lon":5.38937,"is_reserved":false,"is_disabled":false,"rental_uris":{"android":"levelo://app?vid=475ed610-462d-43a0-aca3-4df3f8e08a69","ios":"levelo://app?vid=475ed610-462d-43a0-aca3-4df3f8e08a69"},"vehicle_type_id":"4","last_reported":1728022397,"current_range_meters":30000,"station_id":"","pricing_plan_id":"cebpf4jnsgd1na2vs0mg"},{"bike_id":"ae822e4a-f6f6-485d-9d79-cd7839c64a0c","system_id":"levelo_inurba_marseille","lat":43.24661,"lon":5.38163,"is_reserved":false,"is_disabled":false,"rental_uris":{"android":"levelo://app?vid=ae822e4a-f6f6-485d-9d79-cd7839c64a0c","ios":"levelo://app?vid=ae822e4a-f6f6-485d-9d79-cd7839c64a0c"},"vehicle_type_id":"4","last_reported":1728022397,"current_range_meters":27600,"station_id":"ce4bhih2rcd13ifvqfr0","pricing_plan_id":"cebpf4jnsgd1na2vs0mg"},{"bike_id":"ac4e8631-b912-40d0-afbd-f7e7f710a14c","system_id":"levelo_inurba_marseille","lat":43.29227,"lon":5.36079,"is_reserved":false,"is_disabled":false,"rental_uris":{"android":"levelo://app?vid=ac4e8631-b912-40d0-afbd-f7e7f710a14c","ios":"levelo://app?vid=ac4e8631-b912-40d0-afbd-f7e7f710a14c"},"vehicle_type_id":"4","last_reported":1728022397,"current_range_meters":38400,"station_id":"ce4bhbh2rcd13ifvqeqg","pricing_plan_id":"cebpf4jnsgd1na2vs0mg"},{"bike_id":"38546c28-50c2-441c-883a-e43a446f8587","system_id":"levelo_inurba_marseille","lat":43.28419,"lon":5.37506,"is_reserved":false,"is_disabled":false,"rental_uris":{"android":"levelo://app?vid=38546c28-50c2-441c-883a-e43a446f8587","ios":"levelo://app?vid=38546c28-50c2-441c-883a-e43a446f8587"},"vehicle_type_id":"4","last_reported":1728022397,"current_range_meters":38400,"station_id":"ce4bh412rcd13ifvqds0","pricing_plan_id":"cebpf4jnsgd1na2vs0mg"},{"bike_id":"d2826c66-de88-44b9-a80e-8ce24e8503f8","system_id":"levelo_inurba_marseille","lat":43.31232,"lon":5.36849,"is_reserved":false,"is_disabled":false,"rental_uris":{"android":"levelo://app?vid=d2826c66-de88-44b9-a80e-8ce24e8503f8","ios":"levelo://app?vid=d2826c66-de88-44b9-a80e-8ce24e8503f8"},"vehicle_type_id":"4","last_reported":1728022397,"current_range_meters":38800,"station_id":"ce4bgl92rcd13ifvqbq0","pricing_plan_id":"cebpf4jnsgd1na2vs0mg"},{"bike_id":"fde0d2d1-af88-43e1-b171-23e843cd4e70","system_id":"levelo_inurba_marseille","lat":43.32338,"lon":5.40621,"is_reserved":false,"is_disabled":false,"rental_uris":{"android":"levelo://app?vid=fde0d2d1-af88-43e1-b171-23e843cd4e70","ios":"levelo://app?vid=fde0d2d1-af88-43e1-b171-23e843cd4e70"},"vehicle_type_id":"4","last_reported":1728022397,"current_range_meters":16000,"station_id":"ce4bhq92rcd13ifvqhjg","pricing_plan_id":"cebpf4jnsgd1na2vs0mg"},{"bike_id":"1a757c2e-e169-407e-a0ea-0da4d6016afe","system_id":"levelo_inurba_marseille","lat":43.26555,"lon":5.37288,"is_reserved":false,"is_disabled":false,"rental_uris":{"android":"levelo://app?vid=1a757c2e-e169-407e-a0ea-0da4d6016afe","ios":"levelo://app?vid=1a757c2e-e169-407e-a0ea-0da4d6016afe"},"vehicle_type_id":"4","last_reported":1728022397,"current_range_meters":28400,"station_id":"ce4bhg12rcd13ifvqf70","pricing_plan_id":"cebpf4jnsgd1na2vs0mg"},{"bike_id":"3ec9f3ce-2f05-4467-b04a-279cd57ac944","system_id":"levelo_inurba_marseille","lat":43.29309,"lon":5.37462,"is_reserved":false,"is_disabled":false,"rental_uris":{"android":"levelo://app?vid=3ec9f3ce-2f05-4467-b04a-279cd57ac944","ios":"levelo://app?vid=3ec9f3ce-2f05-4467-b04a-279cd57ac944"},"vehicle_type_id":"4","last_reported":1728022397,"current_range_meters":6000,"station_id":"ce4bgi12rcd13ifvqb70","pricing_plan_id":"cebpf4jnsgd1na2vs0mg"},{"bike_id":"d2837eff-1fe3-4dad-833e-63f38367d961","system_id":"levelo_inurba_marseille","lat":43.28853,"lon":5.3585,"is_reserved":false,"is_disabled":false,"rental_uris":{"android":"levelo://app?vid=d2837eff-1fe3-4dad-833e-63f38367d961","ios":"levelo://app?vid=d2837eff-1fe3-4dad-833e-63f38367d961"},"vehicle_type_id":"4","last_reported":1728022397,"current_range_meters":38000,"station_id":"ce4bhb12rcd13ifvqem0","pricing_plan_id":"cebpf4jnsgd1na2vs0mg"},{"bike_id":"47a3293c-1ddd-4454-a41a-80712a0e08c8","system_id":"levelo_inurba_marseille","lat":43.31344,"lon":5.36731,"is_reserved":false,"is_disabled":false,"rental_uris":{"android":"levelo://app?vid=47a3293c-1ddd-4454-a41a-80712a0e08c8","ios":"levelo://app?vid=47a3293c-1ddd-4454-a41a-80712a0e08c8"},"vehicle_type_id":"4","last_reported":1728022397,"current_range_meters":36400,"station_id":"ce4bgr92rcd13ifvqc6g","pricing_plan_id":"cebpf4jnsgd1na2vs0mg"},{"bike_id":"bae07fd9-2dd0-4fe9-93a1-6204fffff6c1","system_id":"levelo_inurba_marseille","lat":43.286758,"lon":5.38678,"is_reserved":false,"is_disabled":false,"rental_uris":{"android":"levelo://app?vid=bae07fd9-2dd0-4fe9-93a1-6204fffff6c1","ios":"levelo://app?vid=bae07fd9-2dd0-4fe9-93a1-6204fffff6c1"},"vehicle_type_id":"4","last_reported":1728022397,"current_range_meters":3200,"station_id":"","pricing_plan_id":"cebpf4jnsgd1na2vs0mg"},{"bike_id":"74e09656-989f-417c-8e64-04011ab80207","system_id":"levelo_inurba_marseille","lat":43.32334,"lon":5.40615,"is_reserved":false,"is_disabled":false,"rental_uris":{"android":"levelo://app?vid=74e09656-989f-417c-8e64-04011ab80207","ios":"levelo://app?vid=74e09656-989f-417c-8e64-04011ab80207"},"vehicle_type_id":"4","last_reported":1728022397,"current_range_meters":4400,"station_id":"ce4bhq92rcd13ifvqhjg","pricing_plan_id":"cebpf4jnsgd1na2vs0mg"},{"bike_id":"4061a425-0fa8-4b85-ba2e-dd23d5b416e9","system_id":"levelo_inurba_marseille","lat":43.288436,"lon":5.358431,"is_reserved":false,"is_disabled":false,"rental_uris":{"android":"levelo://app?vid=4061a425-0fa8-4b85-ba2e-dd23d5b416e9","ios":"levelo://app?vid=4061a425-0fa8-4b85-ba2e-dd23d5b416e9"},"vehicle_type_id":"4","last_reported":1728022397,"current_range_meters":34000,"station_id":"ce4bhb12rcd13ifvqem0","pricing_plan_id":"cebpf4jnsgd1na2vs0mg"},{"bike_id":"525e851f-b6fd-4226-b024-d76bd655edd1","system_id":"levelo_inurba_marseille","lat":43.23188,"lon":5.3999,"is_reserved":false,"is_disabled":false,"rental_uris":{"android":"levelo://app?vid=525e851f-b6fd-4226-b024-d76bd655edd1","ios":"levelo://app?vid=525e851f-b6fd-4226-b024-d76bd655edd1"},"vehicle_type_id":"4","last_reported":1728022397,"current_range_meters":30400,"station_id":"ce4bhn12rcd13ifvqgqg","pricing_plan_id":"cebpf4jnsgd1na2vs0mg"},{"bike_id":"43f2900c-6697-4097-baa3-ea663f36dd68","system_id":"levelo_inurba_marseille","lat":43.2984,"lon":5.36265,"is_reserved":false,"is_disabled":false,"rental_uris":{"android":"levelo://app?vid=43f2900c-6697-4097-baa3-ea663f36dd68","ios":"levelo://app?vid=43f2900c-6697-4097-baa3-ea663f36dd68"},"vehicle_type_id":"4","last_reported":1728022397,"current_range_meters":32400,"station_id":"ce4bgpp2rcd13ifvqc3g","pricing_plan_id":"cebpf4jnsgd1na2vs0mg"},{"bike_id":"82bf1695-2088-4d9c-859a-1ac40db53ee2","system_id":"levelo_inurba_marseille","lat":43.27493,"lon":5.42449,"is_reserved":false,"is_disabled":false,"rental_uris":{"android":"levelo://app?vid=82bf1695-2088-4d9c-859a-1ac40db53ee2","ios":"levelo://app?vid=82bf1695-2088-4d9c-859a-1ac40db53ee2"},"vehicle_type_id":"4","last_reported":1728022397,"current_range_meters":33600,"station_id":"ce4bhn92rcd13ifvqgrg","pricing_plan_id":"cebpf4jnsgd1na2vs0mg"},{"bike_id":"16a50fa2-597a-4294-a3d5-c35e56ef70a0","system_id":"levelo_inurba_marseille","lat":43.32545,"lon":5.41431,"is_reserved":false,"is_disabled":false,"rental_uris":{"android":"levelo://app?vid=16a50fa2-597a-4294-a3d5-c35e56ef70a0","ios":"levelo://app?vid=16a50fa2-597a-4294-a3d5-c35e56ef70a0"},"vehicle_type_id":"4","last_reported":1728022397,"current_range_meters":38800,"station_id":"ce4bhq12rcd13ifvqhhg","pricing_plan_id":"cebpf4jnsgd1na2vs0mg"},{"bike_id":"464707c1-fc3e-436a-b1dc-daa35ae81e76","system_id":"levelo_inurba_marseille","lat":43.28155,"lon":5.42642,"is_reserved":false,"is_disabled":false,"rental_uris":{"android":"levelo://app?vid=464707c1-fc3e-436a-b1dc-daa35ae81e76","ios":"levelo://app?vid=464707c1-fc3e-436a-b1dc-daa35ae81e76"},"vehicle_type_id":"4","last_reported":1728022397,"current_range_meters":37600,"station_id":"ce4bhnh2rcd13ifvqgug","pricing_plan_id":"cebpf4jnsgd1na2vs0mg"},{"bike_id":"53c6fe7a-c5f0-4c29-bdb6-08c6c7db5c71","system_id":"levelo_inurba_marseille","lat":43.32109,"lon":5.367792,"is_reserved":false,"is_disabled":false,"rental_uris":{"android":"levelo://app?vid=53c6fe7a-c5f0-4c29-bdb6-08c6c7db5c71","ios":"levelo://app?vid=53c6fe7a-c5f0-4c29-bdb6-08c6c7db5c71"},"vehicle_type_id":"4","last_reported":1728022397,"current_range_meters":6800,"station_id":"ce4bhrh2rcd13ifvqhug","pricing_plan_id":"cebpf4jnsgd1na2vs0mg"},{"bike_id":"3cc954e3-013b-47f6-b1e5-c5a81185f52b","system_id":"levelo_inurba_marseille","lat":43.30949,"lon":5.39638,"is_reserved":false,"is_disabled":false,"rental_uris":{"android":"levelo://app?vid=3cc954e3-013b-47f6-b1e5-c5a81185f52b","ios":"levelo://app?vid=3cc954e3-013b-47f6-b1e5-c5a81185f52b"},"vehicle_type_id":"4","last_reported":1728022397,"current_range_meters":19600,"station_id":"","pricing_plan_id":"cebpf4jnsgd1na2vs0mg"},{"bike_id":"6ce60676-3f86-4aaa-a5df-572436c32ad4","system_id":"levelo_inurba_marseille","lat":43.23194,"lon":5.35543,"is_reserved":false,"is_disabled":false,"rental_uris":{"android":"levelo://app?vid=6ce60676-3f86-4aaa-a5df-572436c32ad4","ios":"levelo://app?vid=6ce60676-3f86-4aaa-a5df-572436c32ad4"},"vehicle_type_id":"4","last_reported":1728022397,"current_range_meters":16400,"station_id":"ce4bhu92rcd13ifvqi70","pricing_plan_id":"cebpf4jnsgd1na2vs0mg"},{"bike_id":"bb1d45c3-f50a-4ba0-9942-1edc9ffd3ed6","system_id":"levelo_inurba_marseille","lat":43.25007,"lon":5.3893,"is_reserved":false,"is_disabled":false,"rental_uris":{"android":"levelo://app?vid=bb1d45c3-f50a-4ba0-9942-1edc9ffd3ed6","ios":"levelo://app?vid=bb1d45c3-f50a-4ba0-9942-1edc9ffd3ed6"},"vehicle_type_id":"4","last_reported":1728022397,"current_range_meters":36000,"station_id":"ce4bhgp2rcd13ifvqfd0","pricing_plan_id":"cebpf4jnsgd1na2vs0mg"},{"bike_id":"c59a62a2-ad87-4538-8860-42039acb6fe1","system_id":"levelo_inurba_marseille","lat":43.30471,"lon":5.37896,"is_reserved":false,"is_disabled":false,"rental_uris":{"android":"levelo://app?vid=c59a62a2-ad87-4538-8860-42039acb6fe1","ios":"levelo://app?vid=c59a62a2-ad87-4538-8860-42039acb6fe1"},"vehicle_type_id":"4","last_reported":1728022397,"current_range_meters":26000,"station_id":"ce4bgup2rcd13ifvqcn0","pricing_plan_id":"cebpf4jnsgd1na2vs0mg"},{"bike_id":"434cf76d-6854-4d9c-a888-257f8da353a1","system_id":"levelo_inurba_marseille","lat":43.28943,"lon":5.36639,"is_reserved":false,"is_disabled":false,"rental_uris":{"android":"levelo://app?vid=434cf76d-6854-4d9c-a888-257f8da353a1","ios":"levelo://app?vid=434cf76d-6854-4d9c-a888-257f8da353a1"},"vehicle_type_id":"4","last_reported":1728022397,"current_range_meters":28400,"station_id":"ce4bhap2rcd13ifvqek0","pricing_plan_id":"cebpf4jnsgd1na2vs0mg"},{"bike_id":"662f738e-b790-43ea-9d44-7b029b468d99","system_id":"levelo_inurba_marseille","lat":43.24177,"lon":5.39727,"is_reserved":false,"is_disabled":false,"rental_uris":{"android":"levelo://app?vid=662f738e-b790-43ea-9d44-7b029b468d99","ios":"levelo://app?vid=662f738e-b790-43ea-9d44-7b029b468d99"},"vehicle_type_id":"4","last_reported":1728022397,"current_range_meters":38000,"station_id":"ce4bhn12rcd13ifvqgpg","pricing_plan_id":"cebpf4jnsgd1na2vs0mg"},{"bike_id":"2d4ff973-2fe9-479d-9d40-0ef8326443e5","system_id":"levelo_inurba_marseille","lat":43.29212,"lon":5.3923,"is_reserved":false,"is_disabled":false,"rental_uris":{"android":"levelo://app?vid=2d4ff973-2fe9-479d-9d40-0ef8326443e5","ios":"levelo://app?vid=2d4ff973-2fe9-479d-9d40-0ef8326443e5"},"vehicle_type_id":"4","last_reported":1728022397,"current_range_meters":38800,"station_id":"ce4bh692rcd13ifvqea0","pricing_plan_id":"cebpf4jnsgd1na2vs0mg"},{"bike_id":"93106a67-b122-459c-a4ea-31e43ee0cb9a","system_id":"levelo_inurba_marseille","lat":43.28618,"lon":5.35104,"is_reserved":false,"is_disabled":false,"rental_uris":{"android":"levelo://app?vid=93106a67-b122-459c-a4ea-31e43ee0cb9a","ios":"levelo://app?vid=93106a67-b122-459c-a4ea-31e43ee0cb9a"},"vehicle_type_id":"4","last_reported":1728022397,"current_range_meters":38800,"station_id":"ce4bhch2rcd13ifvqeug","pricing_plan_id":"cebpf4jnsgd1na2vs0mg"},{"bike_id":"2c9c24eb-fabc-4c6b-9ab7-38d83aaad619","system_id":"levelo_inurba_marseille","lat":43.30591,"lon":5.3936,"is_reserved":false,"is_disabled":false,"rental_uris":{"android":"levelo://app?vid=2c9c24eb-fabc-4c6b-9ab7-38d83aaad619","ios":"levelo://app?vid=2c9c24eb-fabc-4c6b-9ab7-38d83aaad619"},"vehicle_type_id":"4","last_reported":1728022397,"current_range_meters":36400,"station_id":"ce4bh0p2rcd13ifvqd80","pricing_plan_id":"cebpf4jnsgd1na2vs0mg"},{"bike_id":"14457725-1dad-4705-8dc9-35dee84023ac","system_id":"levelo_inurba_marseille","lat":43.31725,"lon":5.424,"is_reserved":false,"is_disabled":false,"rental_uris":{"android":"levelo://app?vid=14457725-1dad-4705-8dc9-35dee84023ac","ios":"levelo://app?vid=14457725-1dad-4705-8dc9-35dee84023ac"},"vehicle_type_id":"4","last_reported":1728022397,"current_range_meters":23200,"station_id":"ce4bhp92rcd13ifvqhbg","pricing_plan_id":"cebpf4jnsgd1na2vs0mg"},{"bike_id":"ac491eed-1fef-4832-b4ca-d42b5b54f337","system_id":"levelo_inurba_marseille","lat":43.28424,"lon":5.34973,"is_reserved":false,"is_disabled":false,"rental_uris":{"android":"levelo://app?vid=ac491eed-1fef-4832-b4ca-d42b5b54f337","ios":"levelo://app?vid=ac491eed-1fef-4832-b4ca-d42b5b54f337"},"vehicle_type_id":"4","last_reported":1728022397,"current_range_meters":37600,"station_id":"ce4bhbh2rcd13ifvqepg","pricing_plan_id":"cebpf4jnsgd1na2vs0mg"},{"bike_id":"aa9edd45-2f4c-472f-b7ee-07c1a2d926b8","system_id":"levelo_inurba_marseille","lat":43.295413,"lon":5.377491,"is_reserved":false,"is_disabled":false,"rental_uris":{"android":"levelo://app?vid=aa9edd45-2f4c-472f-b7ee-07c1a2d926b8","ios":"levelo://app?vid=aa9edd45-2f4c-472f-b7ee-07c1a2d926b8"},"vehicle_type_id":"4","last_reported":1728022397,"current_range_meters":25600,"station_id":"ce4bh092rcd13ifvqd30","pricing_plan_id":"cebpf4jnsgd1na2vs0mg"},{"bike_id":"a51050be-59e0-48c0-ada3-89ab3e98783a","system_id":"levelo_inurba_marseille","lat":43.28692,"lon":5.39961,"is_reserved":false,"is_disabled":false,"rental_uris":{"android":"levelo://app?vid=a51050be-59e0-48c0-ada3-89ab3e98783a","ios":"levelo://app?vid=a51050be-59e0-48c0-ada3-89ab3e98783a"},"vehicle_type_id":"4","last_reported":1728022397,"current_range_meters":33200,"station_id":"ce4bho92rcd13ifvqh3g","pricing_plan_id":"cebpf4jnsgd1na2vs0mg"},{"bike_id":"c663bba3-cfff-4ba7-af1f-2faa128918d3","system_id":"levelo_inurba_marseille","lat":43.26567,"lon":5.39004,"is_reserved":false,"is_disabled":false,"rental_uris":{"android":"levelo://app?vid=c663bba3-cfff-4ba7-af1f-2faa128918d3","ios":"levelo://app?vid=c663bba3-cfff-4ba7-af1f-2faa128918d3"},"vehicle_type_id":"4","last_reported":1728022397,"current_range_meters":6800,"station_id":"ce4bhe12rcd13ifvqf30","pricing_plan_id":"cebpf4jnsgd1na2vs0mg"},{"bike_id":"7fed4edd-fced-4cac-8f5a-8f088e4cd963","system_id":"levelo_inurba_marseille","lat":43.26555,"lon":5.3729,"is_reserved":false,"is_disabled":false,"rental_uris":{"android":"levelo://app?vid=7fed4edd-fced-4cac-8f5a-8f088e4cd963","ios":"levelo://app?vid=7fed4edd-fced-4cac-8f5a-8f088e4cd963"},"vehicle_type_id":"4","last_reported":1728022397,"current_range_meters":3600,"station_id":"ce4bhg12rcd13ifvqf70","pricing_plan_id":"cebpf4jnsgd1na2vs0mg"},{"bike_id":"a6692f1f-5525-4523-bd49-a7c219bc26c1","system_id":"levelo_inurba_marseille","lat":43.26556,"lon":5.37287,"is_reserved":false,"is_disabled":false,"rental_uris":{"android":"levelo://app?vid=a6692f1f-5525-4523-bd49-a7c219bc26c1","ios":"levelo://app?vid=a6692f1f-5525-4523-bd49-a7c219bc26c1"},"vehicle_type_id":"4","last_reported":1728022397,"current_range_meters":34800,"station_id":"ce4bhg12rcd13ifvqf70","pricing_plan_id":"cebpf4jnsgd1na2vs0mg"},{"bike_id":"bc5b6b8b-2f37-4b19-8353-cfb94dcc03bd","system_id":"levelo_inurba_marseille","lat":43.24078,"lon":5.37756,"is_reserved":false,"is_disabled":false,"rental_uris":{"android":"levelo://app?vid=bc5b6b8b-2f37-4b19-8353-cfb94dcc03bd","ios":"levelo://app?vid=bc5b6b8b-2f37-4b19-8353-cfb94dcc03bd"},"vehicle_type_id":"4","last_reported":1728022397,"current_range_meters":32400,"station_id":"ce4bhnp2rcd13ifvqgvg","pricing_plan_id":"cebpf4jnsgd1na2vs0mg"},{"bike_id":"f28532ab-2844-4c68-acee-baaa073b03fa","system_id":"levelo_inurba_marseille","lat":43.32479,"lon":5.36564,"is_reserved":false,"is_disabled":false,"rental_uris":{"android":"levelo://app?vid=f28532ab-2844-4c68-acee-baaa073b03fa","ios":"levelo://app?vid=f28532ab-2844-4c68-acee-baaa073b03fa"},"vehicle_type_id":"4","last_reported":1728022397,"current_range_meters":38000,"station_id":"ce4bhs12rcd13ifvqhvg","pricing_plan_id":"cebpf4jnsgd1na2vs0mg"},{"bike_id":"e8bb6d98-67db-4e9d-ab0d-f93a16f80353","system_id":"levelo_inurba_marseille","lat":43.291,"lon":5.38132,"is_reserved":false,"is_disabled":false,"rental_uris":{"android":"levelo://app?vid=e8bb6d98-67db-4e9d-ab0d-f93a16f80353","ios":"levelo://app?vid=e8bb6d98-67db-4e9d-ab0d-f93a16f80353"},"vehicle_type_id":"4","last_reported":1728022397,"current_range_meters":26800,"station_id":"ce4bh512rcd13ifvqe2g","pricing_plan_id":"cebpf4jnsgd1na2vs0mg"},{"bike_id":"8458457e-e745-4af8-9f7c-89ed4057da4e","system_id":"levelo_inurba_marseille","lat":43.29261,"lon":5.409,"is_reserved":false,"is_disabled":false,"rental_uris":{"android":"levelo://app?vid=8458457e-e745-4af8-9f7c-89ed4057da4e","ios":"levelo://app?vid=8458457e-e745-4af8-9f7c-89ed4057da4e"},"vehicle_type_id":"4","last_reported":1728022397,"current_range_meters":39200,"station_id":"ce4bh192rcd13ifvqdc0","pricing_plan_id":"cebpf4jnsgd1na2vs0mg"},{"bike_id":"e6975fa4-8c2d-44a9-bd89-925e626d603d","system_id":"levelo_inurba_marseille","lat":43.30151,"lon":5.38078,"is_reserved":false,"is_disabled":false,"rental_uris":{"android":"levelo://app?vid=e6975fa4-8c2d-44a9-bd89-925e626d603d","ios":"levelo://app?vid=e6975fa4-8c2d-44a9-bd89-925e626d603d"},"vehicle_type_id":"4","last_reported":1728022397,"current_range_meters":26000,"station_id":"ce4bgjp2rcd13ifvqbh0","pricing_plan_id":"cebpf4jnsgd1na2vs0mg"},{"bike_id":"d19d14fd-0b77-4429-9964-87ef004103a8","system_id":"levelo_inurba_marseille","lat":43.27318,"lon":5.39084,"is_reserved":false,"is_disabled":false,"rental_uris":{"android":"levelo://app?vid=d19d14fd-0b77-4429-9964-87ef004103a8","ios":"levelo://app?vid=d19d14fd-0b77-4429-9964-87ef004103a8"},"vehicle_type_id":"4","last_reported":1728022397,"current_range_meters":28000,"station_id":"ce4bhgp2rcd13ifvqfe0","pricing_plan_id":"cebpf4jnsgd1na2vs0mg"},{"bike_id":"e5c27dcf-3d6e-41a5-8a35-01e9d92ac648","system_id":"levelo_inurba_marseille","lat":43.27499,"lon":5.42455,"is_reserved":false,"is_disabled":false,"rental_uris":{"android":"levelo://app?vid=e5c27dcf-3d6e-41a5-8a35-01e9d92ac648","ios":"levelo://app?vid=e5c27dcf-3d6e-41a5-8a35-01e9d92ac648"},"vehicle_type_id":"4","last_reported":1728022397,"current_range_meters":35600,"station_id":"ce4bhn92rcd13ifvqgrg","pricing_plan_id":"cebpf4jnsgd1na2vs0mg"},{"bike_id":"b1ab5d8b-a038-425e-aceb-c8ee3229c242","system_id":"levelo_inurba_marseille","lat":43.288521,"lon":5.358459,"is_reserved":false,"is_disabled":false,"rental_uris":{"android":"levelo://app?vid=b1ab5d8b-a038-425e-aceb-c8ee3229c242","ios":"levelo://app?vid=b1ab5d8b-a038-425e-aceb-c8ee3229c242"},"vehicle_type_id":"4","last_reported":1728022397,"current_range_meters":39200,"station_id":"ce4bhb12rcd13ifvqem0","pricing_plan_id":"cebpf4jnsgd1na2vs0mg"},{"bike_id":"9363a3ed-04aa-4db1-a469-d13548c8d111","system_id":"levelo_inurba_marseille","lat":43.255,"lon":5.37647,"is_reserved":false,"is_disabled":false,"rental_uris":{"android":"levelo://app?vid=9363a3ed-04aa-4db1-a469-d13548c8d111","ios":"levelo://app?vid=9363a3ed-04aa-4db1-a469-d13548c8d111"},"vehicle_type_id":"4","last_reported":1728022397,"current_range_meters":23200,"station_id":"ce4bhh12rcd13ifvqff0","pricing_plan_id":"cebpf4jnsgd1na2vs0mg"},{"bike_id":"7112ef8d-8142-4d4d-816c-51780c5cff4c","system_id":"levelo_inurba_marseille","lat":43.284139,"lon":5.37512,"is_reserved":false,"is_disabled":false,"rental_uris":{"android":"levelo://app?vid=7112ef8d-8142-4d4d-816c-51780c5cff4c","ios":"levelo://app?vid=7112ef8d-8142-4d4d-816c-51780c5cff4c"},"vehicle_type_id":"4","last_reported":1728022397,"current_range_meters":8400,"station_id":"ce4bh412rcd13ifvqds0","pricing_plan_id":"cebpf4jnsgd1na2vs0mg"},{"bike_id":"1920a3ac-caad-4a8f-8a37-eed6ec12c888","system_id":"levelo_inurba_marseille","lat":43.25491,"lon":5.37647,"is_reserved":false,"is_disabled":false,"rental_uris":{"android":"levelo://app?vid=1920a3ac-caad-4a8f-8a37-eed6ec12c888","ios":"levelo://app?vid=1920a3ac-caad-4a8f-8a37-eed6ec12c888"},"vehicle_type_id":"4","last_reported":1728022397,"current_range_meters":36000,"station_id":"ce4bhh12rcd13ifvqff0","pricing_plan_id":"cebpf4jnsgd1na2vs0mg"},{"bike_id":"d53cd428-318d-4361-b19a-96ac4f6be009","system_id":"levelo_inurba_marseille","lat":43.29206,"lon":5.37866,"is_reserved":false,"is_disabled":false,"rental_uris":{"android":"levelo://app?vid=d53cd428-318d-4361-b19a-96ac4f6be009","ios":"levelo://app?vid=d53cd428-318d-4361-b19a-96ac4f6be009"},"vehicle_type_id":"4","last_reported":1728022397,"current_range_meters":36400,"station_id":"ce4bgjh2rcd13ifvqbg0","pricing_plan_id":"cebpf4jnsgd1na2vs0mg"},{"bike_id":"7aa47d4a-b87d-416f-b821-38a073226754","system_id":"levelo_inurba_marseille","lat":43.30463,"lon":5.37904,"is_reserved":false,"is_disabled":false,"rental_uris":{"android":"levelo://app?vid=7aa47d4a-b87d-416f-b821-38a073226754","ios":"levelo://app?vid=7aa47d4a-b87d-416f-b821-38a073226754"},"vehicle_type_id":"4","last_reported":1728022397,"current_range_meters":32000,"station_id":"ce4bgup2rcd13ifvqcn0","pricing_plan_id":"cebpf4jnsgd1na2vs0mg"},{"bike_id":"a7c24e84-bf73-46d7-b0a4-dab86ea4355e","system_id":"levelo_inurba_marseille","lat":43.2894,"lon":5.36646,"is_reserved":false,"is_disabled":false,"rental_uris":{"android":"levelo://app?vid=a7c24e84-bf73-46d7-b0a4-dab86ea4355e","ios":"levelo://app?vid=a7c24e84-bf73-46d7-b0a4-dab86ea4355e"},"vehicle_type_id":"4","last_reported":1728022397,"current_range_meters":37600,"station_id":"ce4bhap2rcd13ifvqek0","pricing_plan_id":"cebpf4jnsgd1na2vs0mg"},{"bike_id":"c8e4ff73-620c-4248-92f7-758d5098242c","system_id":"levelo_inurba_marseille","lat":43.22931,"lon":5.35376,"is_reserved":false,"is_disabled":false,"rental_uris":{"android":"levelo://app?vid=c8e4ff73-620c-4248-92f7-758d5098242c","ios":"levelo://app?vid=c8e4ff73-620c-4248-92f7-758d5098242c"},"vehicle_type_id":"4","last_reported":1728022397,"current_range_meters":23200,"station_id":"cpo3532slgdg3j2ikp40","pricing_plan_id":"cebpf4jnsgd1na2vs0mg"},{"bike_id":"1f3b076e-6c70-4ef2-8933-b5976263e1b1","system_id":"levelo_inurba_marseille","lat":43.30934,"lon":5.40141,"is_reserved":false,"is_disabled":false,"rental_uris":{"android":"levelo://app?vid=1f3b076e-6c70-4ef2-8933-b5976263e1b1","ios":"levelo://app?vid=1f3b076e-6c70-4ef2-8933-b5976263e1b1"},"vehicle_type_id":"4","last_reported":1728022397,"current_range_meters":30400,"station_id":"ce4bgvp2rcd13ifvqct0","pricing_plan_id":"cebpf4jnsgd1na2vs0mg"},{"bike_id":"583eb2a3-c703-4842-8648-2706b2b88008","system_id":"levelo_inurba_marseille","lat":43.28153,"lon":5.4263,"is_reserved":false,"is_disabled":false,"rental_uris":{"android":"levelo://app?vid=583eb2a3-c703-4842-8648-2706b2b88008","ios":"levelo://app?vid=583eb2a3-c703-4842-8648-2706b2b88008"},"vehicle_type_id":"4","last_reported":1728022397,"current_range_meters":6800,"station_id":"ce4bhnh2rcd13ifvqgug","pricing_plan_id":"cebpf4jnsgd1na2vs0mg"},{"bike_id":"451d89ca-f9e1-492a-bb2c-30a26d6f28bf","system_id":"levelo_inurba_marseille","lat":43.25728,"lon":5.41101,"is_reserved":false,"is_disabled":false,"rental_uris":{"android":"levelo://app?vid=451d89ca-f9e1-492a-bb2c-30a26d6f28bf","ios":"levelo://app?vid=451d89ca-f9e1-492a-bb2c-30a26d6f28bf"},"vehicle_type_id":"4","last_reported":1728022397,"current_range_meters":29600,"station_id":"ce4bhkp2rcd13ifvqgd0","pricing_plan_id":"cebpf4jnsgd1na2vs0mg"},{"bike_id":"595be7d7-6dd6-443d-bbd0-34d9a1335cfc","system_id":"levelo_inurba_marseille","lat":43.31491,"lon":5.36847,"is_reserved":false,"is_disabled":false,"rental_uris":{"android":"levelo://app?vid=595be7d7-6dd6-443d-bbd0-34d9a1335cfc","ios":"levelo://app?vid=595be7d7-6dd6-443d-bbd0-34d9a1335cfc"},"vehicle_type_id":"4","last_reported":1728022397,"current_range_meters":14800,"station_id":"","pricing_plan_id":"cebpf4jnsgd1na2vs0mg"},{"bike_id":"0946268e-451b-4eae-9c53-f76e2b977f3f","system_id":"levelo_inurba_marseille","lat":43.32487,"lon":5.36558,"is_reserved":false,"is_disabled":false,"rental_uris":{"android":"levelo://app?vid=0946268e-451b-4eae-9c53-f76e2b977f3f","ios":"levelo://app?vid=0946268e-451b-4eae-9c53-f76e2b977f3f"},"vehicle_type_id":"4","last_reported":1728022397,"current_range_meters":24800,"station_id":"ce4bhs12rcd13ifvqhvg","pricing_plan_id":"cebpf4jnsgd1na2vs0mg"},{"bike_id":"5e778da9-2d39-4031-8ebb-5990fbc1004d","system_id":"levelo_inurba_marseille","lat":43.28337,"lon":5.38091,"is_reserved":false,"is_disabled":false,"rental_uris":{"android":"levelo://app?vid=5e778da9-2d39-4031-8ebb-5990fbc1004d","ios":"levelo://app?vid=5e778da9-2d39-4031-8ebb-5990fbc1004d"},"vehicle_type_id":"4","last_reported":1728022397,"current_range_meters":9600,"station_id":"ce4bh412rcd13ifvqdr0","pricing_plan_id":"cebpf4jnsgd1na2vs0mg"},{"bike_id":"b67f520a-86f7-4c50-b590-59cc8da3a691","system_id":"levelo_inurba_marseille","lat":43.24076,"lon":5.37755,"is_reserved":false,"is_disabled":false,"rental_uris":{"android":"levelo://app?vid=b67f520a-86f7-4c50-b590-59cc8da3a691","ios":"levelo://app?vid=b67f520a-86f7-4c50-b590-59cc8da3a691"},"vehicle_type_id":"4","last_reported":1728022397,"current_range_meters":24400,"station_id":"ce4bhnp2rcd13ifvqgvg","pricing_plan_id":"cebpf4jnsgd1na2vs0mg"},{"bike_id":"7328d24b-5534-4bb3-902d-8eb18854bdef","system_id":"levelo_inurba_marseille","lat":43.28466,"lon":5.35885,"is_reserved":false,"is_disabled":false,"rental_uris":{"android":"levelo://app?vid=7328d24b-5534-4bb3-902d-8eb18854bdef","ios":"levelo://app?vid=7328d24b-5534-4bb3-902d-8eb18854bdef"},"vehicle_type_id":"4","last_reported":1728022397,"current_range_meters":38800,"station_id":"ce4bhah2rcd13ifvqei0","pricing_plan_id":"cebpf4jnsgd1na2vs0mg"},{"bike_id":"5f7939a1-d753-4471-9930-daf557a6850f","system_id":"levelo_inurba_marseille","lat":43.30587,"lon":5.39362,"is_reserved":false,"is_disabled":false,"rental_uris":{"android":"levelo://app?vid=5f7939a1-d753-4471-9930-daf557a6850f","ios":"levelo://app?vid=5f7939a1-d753-4471-9930-daf557a6850f"},"vehicle_type_id":"4","last_reported":1728022397,"current_range_meters":38000,"station_id":"ce4bh0p2rcd13ifvqd80","pricing_plan_id":"cebpf4jnsgd1na2vs0mg"},{"bike_id":"8de02e59-7655-43e0-80d4-07057117dc94","system_id":"levelo_inurba_marseille","lat":43.30096,"lon":5.39851,"is_reserved":false,"is_disabled":false,"rental_uris":{"android":"levelo://app?vid=8de02e59-7655-43e0-80d4-07057117dc94","ios":"levelo://app?vid=8de02e59-7655-43e0-80d4-07057117dc94"},"vehicle_type_id":"4","last_reported":1728022397,"current_range_meters":23200,"station_id":"ce4bh0h2rcd13ifvqd40","pricing_plan_id":"cebpf4jnsgd1na2vs0mg"},{"bike_id":"276f3511-278c-4370-b1ec-09b20cd1cc64","system_id":"levelo_inurba_marseille","lat":43.30216,"lon":5.39463,"is_reserved":false,"is_disabled":false,"rental_uris":{"android":"levelo://app?vid=276f3511-278c-4370-b1ec-09b20cd1cc64","ios":"levelo://app?vid=276f3511-278c-4370-b1ec-09b20cd1cc64"},"vehicle_type_id":"4","last_reported":1728022397,"current_range_meters":38800,"station_id":"ce4bh0p2rcd13ifvqd70","pricing_plan_id":"cebpf4jnsgd1na2vs0mg"},{"bike_id":"9111912f-5f92-4e01-9623-79e0ea71aff6","system_id":"levelo_inurba_marseille","lat":43.3228,"lon":5.38243,"is_reserved":false,"is_disabled":false,"rental_uris":{"android":"levelo://app?vid=9111912f-5f92-4e01-9623-79e0ea71aff6","ios":"levelo://app?vid=9111912f-5f92-4e01-9623-79e0ea71aff6"},"vehicle_type_id":"4","last_reported":1728022397,"current_range_meters":33600,"station_id":"ce4bhr12rcd13ifvqhqg","pricing_plan_id":"cebpf4jnsgd1na2vs0mg"},{"bike_id":"09648bcd-aff3-4e5d-a358-b65c5d88ce54","system_id":"levelo_inurba_marseille","lat":43.250014,"lon":5.389327,"is_reserved":false,"is_disabled":false,"rental_uris":{"android":"levelo://app?vid=09648bcd-aff3-4e5d-a358-b65c5d88ce54","ios":"levelo://app?vid=09648bcd-aff3-4e5d-a358-b65c5d88ce54"},"vehicle_type_id":"4","last_reported":1728022397,"current_range_meters":36000,"station_id":"ce4bhgp2rcd13ifvqfd0","pricing_plan_id":"cebpf4jnsgd1na2vs0mg"},{"bike_id":"20bb280f-049e-4119-a946-f328cc7dd0af","system_id":"levelo_inurba_marseille","lat":43.28934,"lon":5.36636,"is_reserved":false,"is_disabled":false,"rental_uris":{"android":"levelo://app?vid=20bb280f-049e-4119-a946-f328cc7dd0af","ios":"levelo://app?vid=20bb280f-049e-4119-a946-f328cc7dd0af"},"vehicle_type_id":"4","last_reported":1728022397,"current_range_meters":9200,"station_id":"ce4bhap2rcd13ifvqek0","pricing_plan_id":"cebpf4jnsgd1na2vs0mg"},{"bike_id":"66dce9c2-a5df-4512-86fa-165037cabce8","system_id":"levelo_inurba_marseille","lat":43.3059,"lon":5.39366,"is_reserved":false,"is_disabled":false,"rental_uris":{"android":"levelo://app?vid=66dce9c2-a5df-4512-86fa-165037cabce8","ios":"levelo://app?vid=66dce9c2-a5df-4512-86fa-165037cabce8"},"vehicle_type_id":"4","last_reported":1728022397,"current_range_meters":22800,"station_id":"ce4bh0p2rcd13ifvqd80","pricing_plan_id":"cebpf4jnsgd1na2vs0mg"},{"bike_id":"95c2b7d7-719f-4884-b5e2-f4a7ae23a3bf","system_id":"levelo_inurba_marseille","lat":43.2937,"lon":5.3783,"is_reserved":false,"is_disabled":false,"rental_uris":{"android":"levelo://app?vid=95c2b7d7-719f-4884-b5e2-f4a7ae23a3bf","ios":"levelo://app?vid=95c2b7d7-719f-4884-b5e2-f4a7ae23a3bf"},"vehicle_type_id":"4","last_reported":1728022397,"current_range_meters":8800,"station_id":"ce4bgjh2rcd13ifvqbf0","pricing_plan_id":"cebpf4jnsgd1na2vs0mg"},{"bike_id":"71a85321-cdd0-4b0c-9a38-c490afade47c","system_id":"levelo_inurba_marseille","lat":43.29218,"lon":5.36043,"is_reserved":false,"is_disabled":false,"rental_uris":{"android":"levelo://app?vid=71a85321-cdd0-4b0c-9a38-c490afade47c","ios":"levelo://app?vid=71a85321-cdd0-4b0c-9a38-c490afade47c"},"vehicle_type_id":"4","last_reported":1728022397,"current_range_meters":38800,"station_id":"ce4bhbh2rcd13ifvqeqg","pricing_plan_id":"cebpf4jnsgd1na2vs0mg"},{"bike_id":"8f3fcedd-a76a-461f-b8f5-11384773d138","system_id":"levelo_inurba_marseille","lat":43.28347,"lon":5.38105,"is_reserved":false,"is_disabled":false,"rental_uris":{"android":"levelo://app?vid=8f3fcedd-a76a-461f-b8f5-11384773d138","ios":"levelo://app?vid=8f3fcedd-a76a-461f-b8f5-11384773d138"},"vehicle_type_id":"4","last_reported":1728022397,"current_range_meters":6400,"station_id":"ce4bh412rcd13ifvqdr0","pricing_plan_id":"cebpf4jnsgd1na2vs0mg"},{"bike_id":"55909299-71f6-4879-b28a-2d28fae91c6d","system_id":"levelo_inurba_marseille","lat":43.33605,"lon":5.41036,"is_reserved":false,"is_disabled":false,"rental_uris":{"android":"levelo://app?vid=55909299-71f6-4879-b28a-2d28fae91c6d","ios":"levelo://app?vid=55909299-71f6-4879-b28a-2d28fae91c6d"},"vehicle_type_id":"4","last_reported":1728022397,"current_range_meters":21600,"station_id":"ce4bhqh2rcd13ifvqhmg","pricing_plan_id":"cebpf4jnsgd1na2vs0mg"},{"bike_id":"690c1146-a8cd-495f-94f6-c94b70c09ae9","system_id":"levelo_inurba_marseille","lat":43.26685,"lon":5.38274,"is_reserved":false,"is_disabled":false,"rental_uris":{"android":"levelo://app?vid=690c1146-a8cd-495f-94f6-c94b70c09ae9","ios":"levelo://app?vid=690c1146-a8cd-495f-94f6-c94b70c09ae9"},"vehicle_type_id":"4","last_reported":1728022397,"current_range_meters":38400,"station_id":"ce4bhg92rcd13ifvqf90","pricing_plan_id":"cebpf4jnsgd1na2vs0mg"},{"bike_id":"030e3a63-64cb-4cc5-9518-4b9dee8accde","system_id":"levelo_inurba_marseille","lat":43.27499,"lon":5.42444,"is_reserved":false,"is_disabled":false,"rental_uris":{"android":"levelo://app?vid=030e3a63-64cb-4cc5-9518-4b9dee8accde","ios":"levelo://app?vid=030e3a63-64cb-4cc5-9518-4b9dee8accde"},"vehicle_type_id":"4","last_reported":1728022397,"current_range_meters":30000,"station_id":"ce4bhn92rcd13ifvqgrg","pricing_plan_id":"cebpf4jnsgd1na2vs0mg"},{"bike_id":"eda89c2c-5a37-4983-a687-2bb8a28d05fc","system_id":"levelo_inurba_marseille","lat":43.24082,"lon":5.37749,"is_reserved":false,"is_disabled":false,"rental_uris":{"android":"levelo://app?vid=eda89c2c-5a37-4983-a687-2bb8a28d05fc","ios":"levelo://app?vid=eda89c2c-5a37-4983-a687-2bb8a28d05fc"},"vehicle_type_id":"4","last_reported":1728022397,"current_range_meters":19600,"station_id":"ce4bhnp2rcd13ifvqgvg","pricing_plan_id":"cebpf4jnsgd1na2vs0mg"},{"bike_id":"ec15d814-ee9e-4140-9be4-5f754c0b8f6b","system_id":"levelo_inurba_marseille","lat":43.32542,"lon":5.41427,"is_reserved":false,"is_disabled":false,"rental_uris":{"android":"levelo://app?vid=ec15d814-ee9e-4140-9be4-5f754c0b8f6b","ios":"levelo://app?vid=ec15d814-ee9e-4140-9be4-5f754c0b8f6b"},"vehicle_type_id":"4","last_reported":1728022397,"current_range_meters":24000,"station_id":"ce4bhq12rcd13ifvqhhg","pricing_plan_id":"cebpf4jnsgd1na2vs0mg"},{"bike_id":"a6275d23-6a22-4417-8f0a-a78faad85b22","system_id":"levelo_inurba_marseille","lat":43.24548,"lon":5.39526,"is_reserved":false,"is_disabled":false,"rental_uris":{"android":"levelo://app?vid=a6275d23-6a22-4417-8f0a-a78faad85b22","ios":"levelo://app?vid=a6275d23-6a22-4417-8f0a-a78faad85b22"},"vehicle_type_id":"4","last_reported":1728022397,"current_range_meters":17200,"station_id":"ce4bhlp2rcd13ifvqgjg","pricing_plan_id":"cebpf4jnsgd1na2vs0mg"},{"bike_id":"f5bb8346-e8df-4a33-bb67-21b8c74019fc","system_id":"levelo_inurba_marseille","lat":43.27999,"lon":5.40007,"is_reserved":false,"is_disabled":false,"rental_uris":{"android":"levelo://app?vid=f5bb8346-e8df-4a33-bb67-21b8c74019fc","ios":"levelo://app?vid=f5bb8346-e8df-4a33-bb67-21b8c74019fc"},"vehicle_type_id":"4","last_reported":1728022397,"current_range_meters":31200,"station_id":"ce4bho92rcd13ifvqh4g","pricing_plan_id":"cebpf4jnsgd1na2vs0mg"},{"bike_id":"c4af35bc-b4dc-41c7-81cc-485bac23cea7","system_id":"levelo_inurba_marseille","lat":43.24087,"lon":5.37746,"is_reserved":false,"is_disabled":false,"rental_uris":{"android":"levelo://app?vid=c4af35bc-b4dc-41c7-81cc-485bac23cea7","ios":"levelo://app?vid=c4af35bc-b4dc-41c7-81cc-485bac23cea7"},"vehicle_type_id":"4","last_reported":1728022397,"current_range_meters":1600,"station_id":"ce4bhnp2rcd13ifvqgvg","pricing_plan_id":"cebpf4jnsgd1na2vs0mg"},{"bike_id":"7211bed2-8514-4169-9df5-9ea6b7b446bf","system_id":"levelo_inurba_marseille","lat":43.28615,"lon":5.35104,"is_reserved":false,"is_disabled":false,"rental_uris":{"android":"levelo://app?vid=7211bed2-8514-4169-9df5-9ea6b7b446bf","ios":"levelo://app?vid=7211bed2-8514-4169-9df5-9ea6b7b446bf"},"vehicle_type_id":"4","last_reported":1728022397,"current_range_meters":9600,"station_id":"ce4bhch2rcd13ifvqeug","pricing_plan_id":"cebpf4jnsgd1na2vs0mg"},{"bike_id":"2fbefeec-2b8f-4af4-a174-36682065cf86","system_id":"levelo_inurba_marseille","lat":43.28468,"lon":5.39313,"is_reserved":false,"is_disabled":false,"rental_uris":{"android":"levelo://app?vid=2fbefeec-2b8f-4af4-a174-36682065cf86","ios":"levelo://app?vid=2fbefeec-2b8f-4af4-a174-36682065cf86"},"vehicle_type_id":"4","last_reported":1728022397,"current_range_meters":38000,"station_id":"ce4bhnh2rcd13ifvqgtg","pricing_plan_id":"cebpf4jnsgd1na2vs0mg"},{"bike_id":"4e4322ae-ccc0-445e-b427-24bb2e02216e","system_id":"levelo_inurba_marseille","lat":43.24545,"lon":5.3952,"is_reserved":false,"is_disabled":false,"rental_uris":{"android":"levelo://app?vid=4e4322ae-ccc0-445e-b427-24bb2e02216e","ios":"levelo://app?vid=4e4322ae-ccc0-445e-b427-24bb2e02216e"},"vehicle_type_id":"4","last_reported":1728022397,"current_range_meters":3200,"station_id":"ce4bhlp2rcd13ifvqgjg","pricing_plan_id":"cebpf4jnsgd1na2vs0mg"},{"bike_id":"26697707-d652-42a5-b889-5e4a84e3eac2","system_id":"levelo_inurba_marseille","lat":43.28721,"lon":5.37939,"is_reserved":false,"is_disabled":false,"rental_uris":{"android":"levelo://app?vid=26697707-d652-42a5-b889-5e4a84e3eac2","ios":"levelo://app?vid=26697707-d652-42a5-b889-5e4a84e3eac2"},"vehicle_type_id":"4","last_reported":1728022397,"current_range_meters":27200,"station_id":"ce4bh9p2rcd13ifvqec0","pricing_plan_id":"cebpf4jnsgd1na2vs0mg"},{"bike_id":"0fe5dd14-3bf7-41c4-8bf0-6fc6624c2399","system_id":"levelo_inurba_marseille","lat":43.27492,"lon":5.4246,"is_reserved":false,"is_disabled":false,"rental_uris":{"android":"levelo://app?vid=0fe5dd14-3bf7-41c4-8bf0-6fc6624c2399","ios":"levelo://app?vid=0fe5dd14-3bf7-41c4-8bf0-6fc6624c2399"},"vehicle_type_id":"4","last_reported":1728022397,"current_range_meters":34800,"station_id":"ce4bhn92rcd13ifvqgrg","pricing_plan_id":"cebpf4jnsgd1na2vs0mg"},{"bike_id":"b1de2d2c-06c8-4cd3-a9c2-6a5c17f5b3bb","system_id":"levelo_inurba_marseille","lat":43.32207,"lon":5.38551,"is_reserved":false,"is_disabled":false,"rental_uris":{"android":"levelo://app?vid=b1de2d2c-06c8-4cd3-a9c2-6a5c17f5b3bb","ios":"levelo://app?vid=b1de2d2c-06c8-4cd3-a9c2-6a5c17f5b3bb"},"vehicle_type_id":"4","last_reported":1728022397,"current_range_meters":13600,"station_id":"","pricing_plan_id":"cebpf4jnsgd1na2vs0mg"},{"bike_id":"ed0db05c-7ead-4cb3-b68f-851526467de3","system_id":"levelo_inurba_marseille","lat":43.265599,"lon":5.372916,"is_reserved":false,"is_disabled":false,"rental_uris":{"android":"levelo://app?vid=ed0db05c-7ead-4cb3-b68f-851526467de3","ios":"levelo://app?vid=ed0db05c-7ead-4cb3-b68f-851526467de3"},"vehicle_type_id":"4","last_reported":1728022397,"current_range_meters":14800,"station_id":"ce4bhg12rcd13ifvqf70","pricing_plan_id":"cebpf4jnsgd1na2vs0mg"},{"bike_id":"db32e16b-47d6-490e-8168-654a5eebd6ce","system_id":"levelo_inurba_marseille","lat":43.22934,"lon":5.3538,"is_reserved":false,"is_disabled":false,"rental_uris":{"android":"levelo://app?vid=db32e16b-47d6-490e-8168-654a5eebd6ce","ios":"levelo://app?vid=db32e16b-47d6-490e-8168-654a5eebd6ce"},"vehicle_type_id":"4","last_reported":1728022397,"current_range_meters":36800,"station_id":"cpo3532slgdg3j2ikp40","pricing_plan_id":"cebpf4jnsgd1na2vs0mg"},{"bike_id":"ba268cfb-32df-4ac2-8d53-f107185f5557","system_id":"levelo_inurba_marseille","lat":43.27613,"lon":5.36109,"is_reserved":false,"is_disabled":false,"rental_uris":{"android":"levelo://app?vid=ba268cfb-32df-4ac2-8d53-f107185f5557","ios":"levelo://app?vid=ba268cfb-32df-4ac2-8d53-f107185f5557"},"vehicle_type_id":"4","last_reported":1728022397,"current_range_meters":34800,"station_id":"ce4bgj92rcd13ifvqbe0","pricing_plan_id":"cebpf4jnsgd1na2vs0mg"},{"bike_id":"bcfe97c2-ed46-4f1b-861f-691116da68d9","system_id":"levelo_inurba_marseille","lat":43.2319,"lon":5.39972,"is_reserved":false,"is_disabled":false,"rental_uris":{"android":"levelo://app?vid=bcfe97c2-ed46-4f1b-861f-691116da68d9","ios":"levelo://app?vid=bcfe97c2-ed46-4f1b-861f-691116da68d9"},"vehicle_type_id":"4","last_reported":1728022397,"current_range_meters":26000,"station_id":"ce4bhn12rcd13ifvqgqg","pricing_plan_id":"cebpf4jnsgd1na2vs0mg"},{"bike_id":"15843695-a724-48b3-b61a-e18e15dbbc00","system_id":"levelo_inurba_marseille","lat":43.2583,"lon":5.39435,"is_reserved":false,"is_disabled":false,"rental_uris":{"android":"levelo://app?vid=15843695-a724-48b3-b61a-e18e15dbbc00","ios":"levelo://app?vid=15843695-a724-48b3-b61a-e18e15dbbc00"},"vehicle_type_id":"4","last_reported":1728022397,"current_range_meters":8800,"station_id":"ce4bhip2rcd13ifvqft0","pricing_plan_id":"cebpf4jnsgd1na2vs0mg"},{"bike_id":"9ab1224b-3852-4c83-bbac-9591802e27f1","system_id":"levelo_inurba_marseille","lat":43.28474,"lon":5.38405,"is_reserved":false,"is_disabled":false,"rental_uris":{"android":"levelo://app?vid=9ab1224b-3852-4c83-bbac-9591802e27f1","ios":"levelo://app?vid=9ab1224b-3852-4c83-bbac-9591802e27f1"},"vehicle_type_id":"4","last_reported":1728022397,"current_range_meters":38800,"station_id":"ce4bh512rcd13ifvqe3g","pricing_plan_id":"cebpf4jnsgd1na2vs0mg"},{"bike_id":"6068d828-93e1-4f7d-b30e-9b117ee387eb","system_id":"levelo_inurba_marseille","lat":43.26492,"lon":5.39544,"is_reserved":false,"is_disabled":false,"rental_uris":{"android":"levelo://app?vid=6068d828-93e1-4f7d-b30e-9b117ee387eb","ios":"levelo://app?vid=6068d828-93e1-4f7d-b30e-9b117ee387eb"},"vehicle_type_id":"4","last_reported":1728022397,"current_range_meters":38800,"station_id":"ce4bhi12rcd13ifvqfq0","pricing_plan_id":"cebpf4jnsgd1na2vs0mg"},{"bike_id":"ced96f45-4ff5-4d85-830b-90d6bec119a6","system_id":"levelo_inurba_marseille","lat":43.3361,"lon":5.41027,"is_reserved":false,"is_disabled":false,"rental_uris":{"android":"levelo://app?vid=ced96f45-4ff5-4d85-830b-90d6bec119a6","ios":"levelo://app?vid=ced96f45-4ff5-4d85-830b-90d6bec119a6"},"vehicle_type_id":"4","last_reported":1728022397,"current_range_meters":6000,"station_id":"ce4bhqh2rcd13ifvqhmg","pricing_plan_id":"cebpf4jnsgd1na2vs0mg"},{"bike_id":"e1ea4c01-9ce1-49df-b44d-f7203a1cd386","system_id":"levelo_inurba_marseille","lat":43.24794,"lon":5.37468,"is_reserved":false,"is_disabled":false,"rental_uris":{"android":"levelo://app?vid=e1ea4c01-9ce1-49df-b44d-f7203a1cd386","ios":"levelo://app?vid=e1ea4c01-9ce1-49df-b44d-f7203a1cd386"},"vehicle_type_id":"4","last_reported":1728022397,"current_range_meters":28800,"station_id":"ce4bhgh2rcd13ifvqfb0","pricing_plan_id":"cebpf4jnsgd1na2vs0mg"},{"bike_id":"d7877609-6b5f-4f1b-b1e9-67841d44573b","system_id":"levelo_inurba_marseille","lat":43.29548,"lon":5.42284,"is_reserved":false,"is_disabled":false,"rental_uris":{"android":"levelo://app?vid=d7877609-6b5f-4f1b-b1e9-67841d44573b","ios":"levelo://app?vid=d7877609-6b5f-4f1b-b1e9-67841d44573b"},"vehicle_type_id":"4","last_reported":1728022397,"current_range_meters":23200,"station_id":"ce4bhph2rcd13ifvqhdg","pricing_plan_id":"cebpf4jnsgd1na2vs0mg"},{"bike_id":"411a622e-0c64-4ae7-ab3a-3b4f2603408c","system_id":"levelo_inurba_marseille","lat":43.29899,"lon":5.43657,"is_reserved":false,"is_disabled":false,"rental_uris":{"android":"levelo://app?vid=411a622e-0c64-4ae7-ab3a-3b4f2603408c","ios":"levelo://app?vid=411a622e-0c64-4ae7-ab3a-3b4f2603408c"},"vehicle_type_id":"4","last_reported":1728022397,"current_range_meters":24000,"station_id":"ce4bhpp2rcd13ifvqhfg","pricing_plan_id":"cebpf4jnsgd1na2vs0mg"},{"bike_id":"d9513a24-3235-43a7-b9a5-1c5cfe37603f","system_id":"levelo_inurba_marseille","lat":43.23056,"lon":5.35493,"is_reserved":false,"is_disabled":false,"rental_uris":{"android":"levelo://app?vid=d9513a24-3235-43a7-b9a5-1c5cfe37603f","ios":"levelo://app?vid=d9513a24-3235-43a7-b9a5-1c5cfe37603f"},"vehicle_type_id":"4","last_reported":1728022397,"current_range_meters":26800,"station_id":"cpo3342slgdg3j2ifvpg","pricing_plan_id":"cebpf4jnsgd1na2vs0mg"},{"bike_id":"f522ea29-84f9-453e-bf46-230ea0e12f70","system_id":"levelo_inurba_marseille","lat":43.30442,"lon":5.3888,"is_reserved":false,"is_disabled":false,"rental_uris":{"android":"levelo://app?vid=f522ea29-84f9-453e-bf46-230ea0e12f70","ios":"levelo://app?vid=f522ea29-84f9-453e-bf46-230ea0e12f70"},"vehicle_type_id":"4","last_reported":1728022397,"current_range_meters":9200,"station_id":"ce4bgk12rcd13ifvqbi0","pricing_plan_id":"cebpf4jnsgd1na2vs0mg"},{"bike_id":"a74649b1-5942-4c72-8414-9c00a1ae1ab2","system_id":"levelo_inurba_marseille","lat":43.28856,"lon":5.35825,"is_reserved":false,"is_disabled":false,"rental_uris":{"android":"levelo://app?vid=a74649b1-5942-4c72-8414-9c00a1ae1ab2","ios":"levelo://app?vid=a74649b1-5942-4c72-8414-9c00a1ae1ab2"},"vehicle_type_id":"4","last_reported":1728022397,"current_range_meters":9200,"station_id":"ce4bhb12rcd13ifvqem0","pricing_plan_id":"cebpf4jnsgd1na2vs0mg"},{"bike_id":"1c65c90a-f06e-45e4-8361-fbe96843b970","system_id":"levelo_inurba_marseille","lat":43.30906,"lon":5.36839,"is_reserved":false,"is_disabled":false,"rental_uris":{"android":"levelo://app?vid=1c65c90a-f06e-45e4-8361-fbe96843b970","ios":"levelo://app?vid=1c65c90a-f06e-45e4-8361-fbe96843b970"},"vehicle_type_id":"4","last_reported":1728022397,"current_range_meters":12800,"station_id":"ce4bgn92rcd13ifvqbvg","pricing_plan_id":"cebpf4jnsgd1na2vs0mg"},{"bike_id":"f6f46d85-2475-4b82-8f81-d01853d7289b","system_id":"levelo_inurba_marseille","lat":43.28834,"lon":5.38039,"is_reserved":false,"is_disabled":false,"rental_uris":{"android":"levelo://app?vid=f6f46d85-2475-4b82-8f81-d01853d7289b","ios":"levelo://app?vid=f6f46d85-2475-4b82-8f81-d01853d7289b"},"vehicle_type_id":"4","last_reported":1728022397,"current_range_meters":25200,"station_id":"ce4bha12rcd13ifvqef0","pricing_plan_id":"cebpf4jnsgd1na2vs0mg"},{"bike_id":"194e1bd6-c84e-4042-99a0-a96c46ca1cf9","system_id":"levelo_inurba_marseille","lat":43.29269,"lon":5.4013,"is_reserved":false,"is_disabled":false,"rental_uris":{"android":"levelo://app?vid=194e1bd6-c84e-4042-99a0-a96c46ca1cf9","ios":"levelo://app?vid=194e1bd6-c84e-4042-99a0-a96c46ca1cf9"},"vehicle_type_id":"4","last_reported":1728022397,"current_range_meters":38400,"station_id":"ce4bh312rcd13ifvqdk0","pricing_plan_id":"cebpf4jnsgd1na2vs0mg"},{"bike_id":"ca08d6f7-cf60-4ffe-b4af-9e0509afb120","system_id":"levelo_inurba_marseille","lat":43.28376,"lon":5.38644,"is_reserved":false,"is_disabled":false,"rental_uris":{"android":"levelo://app?vid=ca08d6f7-cf60-4ffe-b4af-9e0509afb120","ios":"levelo://app?vid=ca08d6f7-cf60-4ffe-b4af-9e0509afb120"},"vehicle_type_id":"4","last_reported":1728022397,"current_range_meters":37600,"station_id":"ce4bh492rcd13ifvqdvg","pricing_plan_id":"cebpf4jnsgd1na2vs0mg"},{"bike_id":"2ea0b90a-ee42-42eb-88b7-c289f9e72cb7","system_id":"levelo_inurba_marseille","lat":43.30797,"lon":5.43522,"is_reserved":false,"is_disabled":false,"rental_uris":{"android":"levelo://app?vid=2ea0b90a-ee42-42eb-88b7-c289f9e72cb7","ios":"levelo://app?vid=2ea0b90a-ee42-42eb-88b7-c289f9e72cb7"},"vehicle_type_id":"4","last_reported":1728022397,"current_range_meters":32400,"station_id":"ce4bhph2rcd13ifvqheg","pricing_plan_id":"cebpf4jnsgd1na2vs0mg"},{"bike_id":"9cc61bb1-3a77-4f61-bf38-b7dfbcf45f03","system_id":"levelo_inurba_marseille","lat":43.27904,"lon":5.38018,"is_reserved":false,"is_disabled":false,"rental_uris":{"android":"levelo://app?vid=9cc61bb1-3a77-4f61-bf38-b7dfbcf45f03","ios":"levelo://app?vid=9cc61bb1-3a77-4f61-bf38-b7dfbcf45f03"},"vehicle_type_id":"4","last_reported":1728022397,"current_range_meters":36400,"station_id":"ce4bhf92rcd13ifvqf50","pricing_plan_id":"cebpf4jnsgd1na2vs0mg"},{"bike_id":"a843b45c-94eb-4d14-b715-9fedc9eb6e49","system_id":"levelo_inurba_marseille","lat":43.28703,"lon":5.37371,"is_reserved":false,"is_disabled":false,"rental_uris":{"android":"levelo://app?vid=a843b45c-94eb-4d14-b715-9fedc9eb6e49","ios":"levelo://app?vid=a843b45c-94eb-4d14-b715-9fedc9eb6e49"},"vehicle_type_id":"4","last_reported":1728022397,"current_range_meters":38800,"station_id":"ce4bh3p2rcd13ifvqdq0","pricing_plan_id":"cebpf4jnsgd1na2vs0mg"},{"bike_id":"3b0ffde1-57f5-4519-aa7c-2abafe1d1c94","system_id":"levelo_inurba_marseille","lat":43.29198,"lon":5.35794,"is_reserved":false,"is_disabled":false,"rental_uris":{"android":"levelo://app?vid=3b0ffde1-57f5-4519-aa7c-2abafe1d1c94","ios":"levelo://app?vid=3b0ffde1-57f5-4519-aa7c-2abafe1d1c94"},"vehicle_type_id":"4","last_reported":1728022397,"current_range_meters":38800,"station_id":"ce4bhb12rcd13ifvqel0","pricing_plan_id":"cebpf4jnsgd1na2vs0mg"},{"bike_id":"c5fadd6b-8868-4528-80ea-fefd18c4a30e","system_id":"levelo_inurba_marseille","lat":43.27817,"lon":5.40708,"is_reserved":false,"is_disabled":false,"rental_uris":{"android":"levelo://app?vid=c5fadd6b-8868-4528-80ea-fefd18c4a30e","ios":"levelo://app?vid=c5fadd6b-8868-4528-80ea-fefd18c4a30e"},"vehicle_type_id":"4","last_reported":1728022397,"current_range_meters":28000,"station_id":"ce4bhnh2rcd13ifvqgtg","pricing_plan_id":"cebpf4jnsgd1na2vs0mg"},{"bike_id":"42a8545c-db17-44dc-b69f-a4cd294d8c9e","system_id":"levelo_inurba_marseille","lat":43.25938,"lon":5.40906,"is_reserved":false,"is_disabled":false,"rental_uris":{"android":"levelo://app?vid=42a8545c-db17-44dc-b69f-a4cd294d8c9e","ios":"levelo://app?vid=42a8545c-db17-44dc-b69f-a4cd294d8c9e"},"vehicle_type_id":"4","last_reported":1728022397,"current_range_meters":20000,"station_id":"ce4bhm92rcd13ifvqglg","pricing_plan_id":"cebpf4jnsgd1na2vs0mg"},{"bike_id":"1b4f232f-e12f-4f3c-a1d8-b5e7bac439a2","system_id":"levelo_inurba_marseille","lat":43.30573,"lon":5.39358,"is_reserved":false,"is_disabled":false,"rental_uris":{"android":"levelo://app?vid=1b4f232f-e12f-4f3c-a1d8-b5e7bac439a2","ios":"levelo://app?vid=1b4f232f-e12f-4f3c-a1d8-b5e7bac439a2"},"vehicle_type_id":"4","last_reported":1728022397,"current_range_meters":34800,"station_id":"ce4bh0p2rcd13ifvqd80","pricing_plan_id":"cebpf4jnsgd1na2vs0mg"},{"bike_id":"c382bd6a-3fbd-40b7-9ddd-4b09dc4b0fe5","system_id":"levelo_inurba_marseille","lat":43.30142,"lon":5.38079,"is_reserved":false,"is_disabled":false,"rental_uris":{"android":"levelo://app?vid=c382bd6a-3fbd-40b7-9ddd-4b09dc4b0fe5","ios":"levelo://app?vid=c382bd6a-3fbd-40b7-9ddd-4b09dc4b0fe5"},"vehicle_type_id":"4","last_reported":1728022397,"current_range_meters":8000,"station_id":"ce4bgjp2rcd13ifvqbh0","pricing_plan_id":"cebpf4jnsgd1na2vs0mg"},{"bike_id":"d7392446-a9b2-4b8b-8223-a646038eba07","system_id":"levelo_inurba_marseille","lat":43.28715,"lon":5.37947,"is_reserved":false,"is_disabled":false,"rental_uris":{"android":"levelo://app?vid=d7392446-a9b2-4b8b-8223-a646038eba07","ios":"levelo://app?vid=d7392446-a9b2-4b8b-8223-a646038eba07"},"vehicle_type_id":"4","last_reported":1728022397,"current_range_meters":31200,"station_id":"ce4bh9p2rcd13ifvqec0","pricing_plan_id":"cebpf4jnsgd1na2vs0mg"},{"bike_id":"cb84ee19-0dcb-46df-bb44-8ad8186fc5b9","system_id":"levelo_inurba_marseille","lat":43.28866,"lon":5.35841,"is_reserved":false,"is_disabled":false,"rental_uris":{"android":"levelo://app?vid=cb84ee19-0dcb-46df-bb44-8ad8186fc5b9","ios":"levelo://app?vid=cb84ee19-0dcb-46df-bb44-8ad8186fc5b9"},"vehicle_type_id":"4","last_reported":1728022397,"current_range_meters":39200,"station_id":"ce4bhb12rcd13ifvqem0","pricing_plan_id":"cebpf4jnsgd1na2vs0mg"},{"bike_id":"99be9efd-884b-4151-aa8d-fb0c61fccbca","system_id":"levelo_inurba_marseille","lat":43.30153,"lon":5.3808,"is_reserved":false,"is_disabled":false,"rental_uris":{"android":"levelo://app?vid=99be9efd-884b-4151-aa8d-fb0c61fccbca","ios":"levelo://app?vid=99be9efd-884b-4151-aa8d-fb0c61fccbca"},"vehicle_type_id":"4","last_reported":1728022397,"current_range_meters":30400,"station_id":"ce4bgjp2rcd13ifvqbh0","pricing_plan_id":"cebpf4jnsgd1na2vs0mg"},{"bike_id":"eb387d80-1a2b-4338-9dfc-d920fff731e3","system_id":"levelo_inurba_marseille","lat":43.23153,"lon":5.43718,"is_reserved":false,"is_disabled":false,"rental_uris":{"android":"levelo://app?vid=eb387d80-1a2b-4338-9dfc-d920fff731e3","ios":"levelo://app?vid=eb387d80-1a2b-4338-9dfc-d920fff731e3"},"vehicle_type_id":"4","last_reported":1728022397,"current_range_meters":29600,"station_id":"ce4bhmp2rcd13ifvqgog","pricing_plan_id":"cebpf4jnsgd1na2vs0mg"},{"bike_id":"21ed36b3-d5bf-48f5-9b3d-3ac59db7bafd","system_id":"levelo_inurba_marseille","lat":43.23193,"lon":5.39988,"is_reserved":false,"is_disabled":false,"rental_uris":{"android":"levelo://app?vid=21ed36b3-d5bf-48f5-9b3d-3ac59db7bafd","ios":"levelo://app?vid=21ed36b3-d5bf-48f5-9b3d-3ac59db7bafd"},"vehicle_type_id":"4","last_reported":1728022397,"current_range_meters":28000,"station_id":"ce4bhn12rcd13ifvqgqg","pricing_plan_id":"cebpf4jnsgd1na2vs0mg"},