{"last_updated":1758539322,"ttl":60,"version":"2.2","data":{"bikes":[{"bike_id":"e142cedc-8bcf-434b-b75c-eb4d4781d4cf","system_id":"levelo_inurba_marseille","lat":43.31249,"lon":5.3688,"is_reserved":false,"is_disabled":false,"rental_uris":{"android":"levelo://app?vid=e142cedc-8bcf-434b-b75c-eb4d4781d4cf","ios":"levelo://app?vid=e142cedc-8bcf-434b-b75c-eb4d4781d4cf"},"vehicle_type_id":"4","last_reported":1758539322,"current_range_meters":2800,"station_id":"ce4bgl92rcd13ifvqbq0","pricing_plan_id":"cebpf4jnsgd1na2vs0mg"},{"bike_id":"0ef72f59-ed06-4b11-b310-912c30667bd7","system_id":"levelo_inurba_marseille","lat":43.26556,"lon":5.37279,"is_reserved":false,"is_disabled":false,"rental_uris":{"android":"levelo://app?vid=0ef72f59-ed06-4b11-b310-912c30667bd7","ios":"levelo://app?vid=0ef72f59-ed06-4b11-b310-912c30667bd7"},"vehicle_type_id":"4","last_reported":1758539322,"current_range_meters":2800,"station_id":"ce4bhg12rcd13ifvqf70","pricing_plan_id":"cebpf4jnsgd1na2vs0mg"},{"bike_id":"e4830d74-5f85-43c7-a19c-e77ee36e1092","system_id":"levelo_inurba_marseille","lat":43.27375,"lon":5.36255,"is_reserved":false,"is_disabled":false,"rental_uris":{"android":"levelo://app?vid=e4830d74-5f85-43c7-a19c-e77ee36e1092","ios":"levelo://app?vid=e4830d74-5f85-43c7-a19c-e77ee36e1092"},"vehicle_type_id":"4","last_reported":1758539322,"current_range_meters":2800,"station_id":"ce4bhbh2rcd13ifvqeo0","pricing_plan_id":"cebpf4jnsgd1na2vs0mg"},{"bike_id":"fb995bc5-3894-4487-abcd-e5b9a8d3d3a0","system_id":"levelo_inurba_marseille","lat":43.24276,"lon":5.40252,"is_reserved":false,"is_disabled":false,"rental_uris":{"android":"levelo://app?vid=fb995bc5-3894-4487-abcd-e5b9a8d3d3a0","ios":"levelo://app?vid=fb995bc5-3894-4487-abcd-e5b9a8d3d3a0"},"vehicle_type_id":"4","last_reported":1758539322,"current_range_meters":2800,"station_id":"","pricing_plan_id":"cebpf4jnsgd1na2vs0mg"},{"bike_id":"a67db6f1-b1a6-401c-a0f7-dd5d71ff32a9","system_id":"levelo_inurba_marseille","lat":43.31122,"lon":5.37773,"is_reserved":false,"is_disabled":false,"rental_uris":{"android":"levelo://app?vid=a67db6f1-b1a6-401c-a0f7-dd5d71ff32a9","ios":"levelo://app?vid=a67db6f1-b1a6-401c-a0f7-dd5d71ff32a9"},"vehicle_type_id":"4","last_reported":1758539322,"current_range_meters":2800,"station_id":"ce4bgt92rcd13ifvqcg0","pricing_plan_id":"cebpf4jnsgd1na2vs0mg"},{"bike_id":"fcb3f6af-c7d4-4ccc-be82-7f951e8865a2","system_id":"levelo_inurba_marseille","lat":43.21194,"lon":5.35058,"is_reserved":false,"is_disabled":false,"rental_uris":{"android":"levelo://app?vid=fcb3f6af-c7d4-4ccc-be82-7f951e8865a2","ios":"levelo://app?vid=fcb3f6af-c7d4-4ccc-be82-7f951e8865a2"},"vehicle_type_id":"4","last_reported":1758539322,"current_range_meters":3200,"station_id":"st_cvj6sg6p6f1abm77japg","pricing_plan_id":"cebpf4jnsgd1na2vs0mg"},{"bike_id":"53272f4d-9074-4a34-b524-009a9cae2229","system_id":"levelo_inurba_marseille","lat":43.31266,"lon":5.40167,"is_reserved":false,"is_disabled":false,"rental_uris":{"android":"levelo://app?vid=53272f4d-9074-4a34-b524-009a9cae2229","ios":"levelo://app?vid=53272f4d-9074-4a34-b524-009a9cae2229"},"vehicle_type_id":"4","last_reported":1758539322,"current_range_meters":3600,"station_id":"ce4bh092rcd13ifvqd30","pricing_plan_id":"cebpf4jnsgd1na2vs0mg"},{"bike_id":"5b84af94-a4d6-4b46-a63f-085ff5681f73","system_id":"levelo_inurba_marseille","lat":43.21178,"lon":5.35073,"is_reserved":false,"is_disabled":false,"rental_uris":{"android":"levelo://app?vid=5b84af94-a4d6-4b46-a63f-085ff5681f73","ios":"levelo://app?vid=5b84af94-a4d6-4b46-a63f-085ff5681f73"},"vehicle_type_id":"4","last_reported":1758539322,"current_range_meters":3200,"station_id":"st_cvj6sg6p6f1abm77japg","pricing_plan_id":"cebpf4jnsgd1na2vs0mg"},{"bike_id":"610d56e4-2897-4cac-a126-8dd665e55106","system_id":"levelo_inurba_marseille","lat":43.30805,"lon":5.43519,"is_reserved":false,"is_disabled":false,"rental_uris":{"android":"levelo://app?vid=610d56e4-2897-4cac-a126-8dd665e55106","ios":"levelo://app?vid=610d56e4-2897-4cac-a126-8dd665e55106"},"vehicle_type_id":"4","last_reported":1758539322,"current_range_meters":3200,"station_id":"ce4bhph2rcd13ifvqheg","pricing_plan_id":"cebpf4jnsgd1na2vs0mg"},{"bike_id":"026073d1-594c-48fc-a908-2e8a79b59025","system_id":"levelo_inurba_marseille","lat":43.31225,"lon":5.36863,"is_reserved":false,"is_disabled":false,"rental_uris":{"android":"levelo://app?vid=026073d1-594c-48fc-a908-2e8a79b59025","ios":"levelo://app?vid=026073d1-594c-48fc-a908-2e8a79b59025"},"vehicle_type_id":"4","last_reported":1758539322,"current_range_meters":3200,"station_id":"ce4bgl92rcd13ifvqbq0","pricing_plan_id":"cebpf4jnsgd1na2vs0mg"},{"bike_id":"ef490553-f7b2-4957-a3f6-5fb7a8c31b9a","system_id":"levelo_inurba_marseille","lat":43.30467,"lon":5.37907,"is_reserved":false,"is_disabled":false,"rental_uris":{"android":"levelo://app?vid=ef490553-f7b2-4957-a3f6-5fb7a8c31b9a","ios":"levelo://app?vid=ef490553-f7b2-4957-a3f6-5fb7a8c31b9a"},"vehicle_type_id":"4","last_reported":1758539322,"current_range_meters":3200,"station_id":"ce4bgup2rcd13ifvqcn0","pricing_plan_id":"cebpf4jnsgd1na2vs0mg"},{"bike_id":"617dca4b-4508-4d52-9e62-d583d919ac44","system_id":"levelo_inurba_marseille","lat":43.29742,"lon":5.37117,"is_reserved":false,"is_disabled":false,"rental_uris":{"android":"levelo://app?vid=617dca4b-4508-4d52-9e62-d583d919ac44","ios":"levelo://app?vid=617dca4b-4508-4d52-9e62-d583d919ac44"},"vehicle_type_id":"4","last_reported":1758539322,"current_range_meters":3200,"station_id":"ce4bgop2rcd13ifvqc1g","pricing_plan_id":"cebpf4jnsgd1na2vs0mg"},{"bike_id":"39292a1b-3198-48ea-91b5-ea10f3132f34","system_id":"levelo_inurba_marseille","lat":43.29098,"lon":5.38158,"is_reserved":false,"is_disabled":false,"rental_uris":{"android":"levelo://app?vid=39292a1b-3198-48ea-91b5-ea10f3132f34","ios":"levelo://app?vid=39292a1b-3198-48ea-91b5-ea10f3132f34"},"vehicle_type_id":"4","last_reported":1758539322,"current_range_meters":3200,"station_id":"ce4bh512rcd13ifvqe2g","pricing_plan_id":"cebpf4jnsgd1na2vs0mg"},{"bike_id":"3116075e-fa9b-423b-beef-aeee538d6e30","system_id":"levelo_inurba_marseille","lat":43.217419,"lon":5.34602,"is_reserved":false,"is_disabled":false,"rental_uris":{"android":"levelo://app?vid=3116075e-fa9b-423b-beef-aeee538d6e30","ios":"levelo://app?vid=3116075e-fa9b-423b-beef-aeee538d6e30"},"vehicle_type_id":"4","last_reported":1758539322,"current_range_meters":3600,"station_id":"st_cvj6r9ubvosntc0bgbag","pricing_plan_id":"cebpf4jnsgd1na2vs0mg"},{"bike_id":"4deac4f1-383a-40cf-a52e-d332e99743c4","system_id":"levelo_inurba_marseille","lat":43.27997,"lon":5.4166,"is_reserved":false,"is_disabled":false,"rental_uris":{"android":"levelo://app?vid=4deac4f1-383a-40cf-a52e-d332e99743c4","ios":"levelo://app?vid=4deac4f1-383a-40cf-a52e-d332e99743c4"},"vehicle_type_id":"4","last_reported":1758539322,"current_range_meters":3600,"station_id":"ce4bho12rcd13ifvqh1g","pricing_plan_id":"cebpf4jnsgd1na2vs0mg"},{"bike_id":"ce967356-4568-4993-87da-5d9f2d64ce04","system_id":"levelo_inurba_marseille","lat":43.30525,"lon":5.36515,"is_reserved":false,"is_disabled":false,"rental_uris":{"android":"levelo://app?vid=ce967356-4568-4993-87da-5d9f2d64ce04","ios":"levelo://app?vid=ce967356-4568-4993-87da-5d9f2d64ce04"},"vehicle_type_id":"4","last_reported":1758539322,"current_range_meters":4000,"station_id":"","pricing_plan_id":"cebpf4jnsgd1na2vs0mg"},{"bike_id":"494025a8-7f3a-48b7-8b46-05828fe47957","system_id":"levelo_inurba_marseille","lat":43.31105,"lon":5.37779,"is_reserved":false,"is_disabled":false,"rental_uris":{"android":"levelo://app?vid=494025a8-7f3a-48b7-8b46-05828fe47957","ios":"levelo://app?vid=494025a8-7f3a-48b7-8b46-05828fe47957"},"vehicle_type_id":"4","last_reported":1758539322,"current_range_meters":4000,"station_id":"ce4bgt92rcd13ifvqcg0","pricing_plan_id":"cebpf4jnsgd1na2vs0mg"},{"bike_id":"d7c25918-4ee2-4f07-aafe-045313861472","system_id":"levelo_inurba_marseille","lat":43.27443,"lon":5.36113,"is_reserved":false,"is_disabled":false,"rental_uris":{"android":"levelo://app?vid=d7c25918-4ee2-4f07-aafe-045313861472","ios":"levelo://app?vid=d7c25918-4ee2-4f07-aafe-045313861472"},"vehicle_type_id":"4","last_reported":1758539322,"current_range_meters":4000,"station_id":"","pricing_plan_id":"cebpf4jnsgd1na2vs0mg"},{"bike_id":"e200bb31-daa3-497d-b2f5-56aaf7ceb990","system_id":"levelo_inurba_marseille","lat":43.28929,"lon":5.36632,"is_reserved":false,"is_disabled":false,"rental_uris":{"android":"levelo://app?vid=e200bb31-daa3-497d-b2f5-56aaf7ceb990","ios":"levelo://app?vid=e200bb31-daa3-497d-b2f5-56aaf7ceb990"},"vehicle_type_id":"4","last_reported":1758539322,"current_range_meters":4000,"station_id":"ce4bhap2rcd13ifvqek0","pricing_plan_id":"cebpf4jnsgd1na2vs0mg"},{"bike_id":"4484ae91-4154-446f-a781-13b8e6ac06c3","system_id":"levelo_inurba_marseille","lat":43.29267,"lon":5.38444,"is_reserved":false,"is_disabled":false,"rental_uris":{"android":"levelo://app?vid=4484ae91-4154-446f-a781-13b8e6ac06c3","ios":"levelo://app?vid=4484ae91-4154-446f-a781-13b8e6ac06c3"},"vehicle_type_id":"4","last_reported":1758539322,"current_range_meters":4400,"station_id":"ce4bh692rcd13ifvqea0","pricing_plan_id":"cebpf4jnsgd1na2vs0mg"},{"bike_id":"bf25502b-3216-4d52-8d7d-75fb36d0d0b7","system_id":"levelo_inurba_marseille","lat":43.30921,"lon":5.37201,"is_reserved":false,"is_disabled":false,"rental_uris":{"android":"levelo://app?vid=bf25502b-3216-4d52-8d7d-75fb36d0d0b7","ios":"levelo://app?vid=bf25502b-3216-4d52-8d7d-75fb36d0d0b7"},"vehicle_type_id":"4","last_reported":1758539322,"current_range_meters":4800,"station_id":"ce4bguh2rcd13ifvqckg","pricing_plan_id":"cebpf4jnsgd1na2vs0mg"},{"bike_id":"83c9ef57-ba9f-4565-b0ad-07147fa2a84b","system_id":"levelo_inurba_marseille","lat":43.30569,"lon":5.36548,"is_reserved":false,"is_disabled":false,"rental_uris":{"android":"levelo://app?vid=83c9ef57-ba9f-4565-b0ad-07147fa2a84b","ios":"levelo://app?vid=83c9ef57-ba9f-4565-b0ad-07147fa2a84b"},"vehicle_type_id":"4","last_reported":1758539322,"current_range_meters":4800,"station_id":"ce4bgs12rcd13ifvqcag","pricing_plan_id":"cebpf4jnsgd1na2vs0mg"},{"bike_id":"0f7caa9f-1d1a-40d7-9b4a-2f8720e63681","system_id":"levelo_inurba_marseille","lat":43.30845,"lon":5.37519,"is_reserved":false,"is_disabled":false,"rental_uris":{"android":"levelo://app?vid=0f7caa9f-1d1a-40d7-9b4a-2f8720e63681","ios":"levelo://app?vid=0f7caa9f-1d1a-40d7-9b4a-2f8720e63681"},"vehicle_type_id":"4","last_reported":1758539322,"current_range_meters":4800,"station_id":"","pricing_plan_id":"cebpf4jnsgd1na2vs0mg"},{"bike_id":"1db465b6-780a-4cf4-95f0-3b59f9f7b61b","system_id":"levelo_inurba_marseille","lat":43.27951,"lon":5.41041,"is_reserved":false,"is_disabled":false,"rental_uris":{"android":"levelo://app?vid=1db465b6-780a-4cf4-95f0-3b59f9f7b61b","ios":"levelo://app?vid=1db465b6-780a-4cf4-95f0-3b59f9f7b61b"},"vehicle_type_id":"4","last_reported":1758539322,"current_range_meters":4800,"station_id":"ce4bhnp2rcd13ifvqh0g","pricing_plan_id":"cebpf4jnsgd1na2vs0mg"},{"bike_id":"7e39f761-0fe4-4eb9-8592-5744db05ea96","system_id":"levelo_inurba_marseille","lat":43.308965,"lon":5.372034,"is_reserved":false,"is_disabled":false,"rental_uris":{"android":"levelo://app?vid=7e39f761-0fe4-4eb9-8592-5744db05ea96","ios":"levelo://app?vid=7e39f761-0fe4-4eb9-8592-5744db05ea96"},"vehicle_type_id":"4","last_reported":1758539322,"current_range_meters":4800,"station_id":"ce4bguh2rcd13ifvqckg","pricing_plan_id":"cebpf4jnsgd1na2vs0mg"},{"bike_id":"f8b60587-ec03-477e-b116-fabc50a39b82","system_id":"levelo_inurba_marseille","lat":43.27966,"lon":5.38738,"is_reserved":false,"is_disabled":false,"rental_uris":{"android":"levelo://app?vid=f8b60587-ec03-477e-b116-fabc50a39b82","ios":"levelo://app?vid=f8b60587-ec03-477e-b116-fabc50a39b82"},"vehicle_type_id":"4","last_reported":1758539322,"current_range_meters":6000,"station_id":"ce4bhg12rcd13ifvqf80","pricing_plan_id":"cebpf4jnsgd1na2vs0mg"},{"bike_id":"04ac4072-76af-404d-8a72-a8ffe8ae8fcc","system_id":"levelo_inurba_marseille","lat":43.310644,"lon":5.400996,"is_reserved":false,"is_disabled":true,"rental_uris":{"android":"levelo://app?vid=04ac4072-76af-404d-8a72-a8ffe8ae8fcc","ios":"levelo://app?vid=04ac4072-76af-404d-8a72-a8ffe8ae8fcc"},"vehicle_type_id":"4","last_reported":1758539322,"current_range_meters":6000,"station_id":"","pricing_plan_id":"cebpf4jnsgd1na2vs0mg"},{"bike_id":"c1843d42-9f15-4235-8c7f-0c60147cb155","system_id":"levelo_inurba_marseille","lat":43.21193,"lon":5.35068,"is_reserved":false,"is_disabled":false,"rental_uris":{"android":"levelo://app?vid=c1843d42-9f15-4235-8c7f-0c60147cb155","ios":"levelo://app?vid=c1843d42-9f15-4235-8c7f-0c60147cb155"},"vehicle_type_id":"4","last_reported":1758539322,"current_range_meters":6000,"station_id":"st_cvj6sg6p6f1abm77japg","pricing_plan_id":"cebpf4jnsgd1na2vs0mg"},{"bike_id":"a07a513e-e5a9-4481-8592-d991379bc662","system_id":"levelo_inurba_marseille","lat":43.337536,"lon":5.374536,"is_reserved":false,"is_disabled":false,"rental_uris":{"android":"levelo://app?vid=a07a513e-e5a9-4481-8592-d991379bc662","ios":"levelo://app?vid=a07a513e-e5a9-4481-8592-d991379bc662"},"vehicle_type_id":"4","last_reported":1758539322,"current_range_meters":6000,"station_id":"","pricing_plan_id":"cebpf4jnsgd1na2vs0mg"},{"bike_id":"021b5367-b2d0-4a05-a263-8e3dc3185d78","system_id":"levelo_inurba_marseille","lat":43.30788,"lon":5.37651,"is_reserved":false,"is_disabled":false,"rental_uris":{"android":"levelo://app?vid=021b5367-b2d0-4a05-a263-8e3dc3185d78","ios":"levelo://app?vid=021b5367-b2d0-4a05-a263-8e3dc3185d78"},"vehicle_type_id":"4","last_reported":1758539322,"current_range_meters":6400,"station_id":"ce4bgv92rcd13ifvqcq0","pricing_plan_id":"cebpf4jnsgd1na2vs0mg"},{"bike_id":"d6229552-d872-4249-ad84-bf7497e70d82","system_id":"levelo_inurba_marseille","lat":43.31712,"lon":5.43702,"is_reserved":false,"is_disabled":false,"rental_uris":{"android":"levelo://app?vid=d6229552-d872-4249-ad84-bf7497e70d82","ios":"levelo://app?vid=d6229552-d872-4249-ad84-bf7497e70d82"},"vehicle_type_id":"4","last_reported":1758539322,"current_range_meters":6400,"station_id":"ce4bhp92rcd13ifvqhcg","pricing_plan_id":"cebpf4jnsgd1na2vs0mg"},{"bike_id":"00553d56-8ef0-4cde-8e01-a15c6ce5d4c0","system_id":"levelo_inurba_marseille","lat":43.22933,"lon":5.35373,"is_reserved":false,"is_disabled":false,"rental_uris":{"android":"levelo://app?vid=00553d56-8ef0-4cde-8e01-a15c6ce5d4c0","ios":"levelo://app?vid=00553d56-8ef0-4cde-8e01-a15c6ce5d4c0"},"vehicle_type_id":"4","last_reported":1758539322,"current_range_meters":6400,"station_id":"cpo3532slgdg3j2ikp40","pricing_plan_id":"cebpf4jnsgd1na2vs0mg"},{"bike_id":"1b08a89b-df9b-4ebd-8b41-b95df885eea4","system_id":"levelo_inurba_marseille","lat":43.31225,"lon":5.36856,"is_reserved":false,"is_disabled":false,"rental_uris":{"android":"levelo://app?vid=1b08a89b-df9b-4ebd-8b41-b95df885eea4","ios":"levelo://app?vid=1b08a89b-df9b-4ebd-8b41-b95df885eea4"},"vehicle_type_id":"4","last_reported":1758539322,"current_range_meters":6400,"station_id":"ce4bgl92rcd13ifvqbq0","pricing_plan_id":"cebpf4jnsgd1na2vs0mg"},{"bike_id":"04c4912f-e4c3-4ef7-addd-bc547565147c","system_id":"levelo_inurba_marseille","lat":43.30465,"lon":5.37898,"is_reserved":false,"is_disabled":false,"rental_uris":{"android":"levelo://app?vid=04c4912f-e4c3-4ef7-addd-bc547565147c","ios":"levelo://app?vid=04c4912f-e4c3-4ef7-addd-bc547565147c"},"vehicle_type_id":"4","last_reported":1758539322,"current_range_meters":6400,"station_id":"ce4bgup2rcd13ifvqcn0","pricing_plan_id":"cebpf4jnsgd1na2vs0mg"},{"bike_id":"a329363e-972b-428b-836e-51e3b2893c70","system_id":"levelo_inurba_marseille","lat":43.21195,"lon":5.35064,"is_reserved":false,"is_disabled":false,"rental_uris":{"android":"levelo://app?vid=a329363e-972b-428b-836e-51e3b2893c70","ios":"levelo://app?vid=a329363e-972b-428b-836e-51e3b2893c70"},"vehicle_type_id":"4","last_reported":1758539322,"current_range_meters":6400,"station_id":"st_cvj6sg6p6f1abm77japg","pricing_plan_id":"cebpf4jnsgd1na2vs0mg"},{"bike_id":"aea7ff2c-12c4-4584-9293-40fcf3e070ec","system_id":"levelo_inurba_marseille","lat":43.28714,"lon":5.37932,"is_reserved":false,"is_disabled":false,"rental_uris":{"android":"levelo://app?vid=aea7ff2c-12c4-4584-9293-40fcf3e070ec","ios":"levelo://app?vid=aea7ff2c-12c4-4584-9293-40fcf3e070ec"},"vehicle_type_id":"4","last_reported":1758539322,"current_range_meters":6000,"station_id":"ce4bh9p2rcd13ifvqec0","pricing_plan_id":"cebpf4jnsgd1na2vs0mg"},{"bike_id":"213f818a-2fc2-423a-8734-2921a1895f7c","system_id":"levelo_inurba_marseille","lat":43.21198,"lon":5.35066,"is_reserved":false,"is_disabled":false,"rental_uris":{"android":"levelo://app?vid=213f818a-2fc2-423a-8734-2921a1895f7c","ios":"levelo://app?vid=213f818a-2fc2-423a-8734-2921a1895f7c"},"vehicle_type_id":"4","last_reported":1758539322,"current_range_meters":6800,"station_id":"st_cvj6sg6p6f1abm77japg","pricing_plan_id":"cebpf4jnsgd1na2vs0mg"},{"bike_id":"779b6303-6ee4-4ddf-8bdf-77e674f04002","system_id":"levelo_inurba_marseille","lat":43.27673,"lon":5.38898,"is_reserved":false,"is_disabled":false,"rental_uris":{"android":"levelo://app?vid=779b6303-6ee4-4ddf-8bdf-77e674f04002","ios":"levelo://app?vid=779b6303-6ee4-4ddf-8bdf-77e674f04002"},"vehicle_type_id":"4","last_reported":1758539322,"current_range_meters":6800,"station_id":"ce4bhi12rcd13ifvqfo0","pricing_plan_id":"cebpf4jnsgd1na2vs0mg"},{"bike_id":"8f90c6e9-c2a0-414b-a280-ed01b517d1e8","system_id":"levelo_inurba_marseille","lat":43.2119,"lon":5.35068,"is_reserved":false,"is_disabled":false,"rental_uris":{"android":"levelo://app?vid=8f90c6e9-c2a0-414b-a280-ed01b517d1e8","ios":"levelo://app?vid=8f90c6e9-c2a0-414b-a280-ed01b517d1e8"},"vehicle_type_id":"4","last_reported":1758539322,"current_range_meters":6800,"station_id":"st_cvj6sg6p6f1abm77japg","pricing_plan_id":"cebpf4jnsgd1na2vs0mg"},{"bike_id":"2289a0ff-9c3e-4f79-ad38-4b41158d6057","system_id":"levelo_inurba_marseille","lat":43.29866,"lon":5.37915,"is_reserved":false,"is_disabled":false,"rental_uris":{"android":"levelo://app?vid=2289a0ff-9c3e-4f79-ad38-4b41158d6057","ios":"levelo://app?vid=2289a0ff-9c3e-4f79-ad38-4b41158d6057"},"vehicle_type_id":"4","last_reported":1758539322,"current_range_meters":6800,"station_id":"","pricing_plan_id":"cebpf4jnsgd1na2vs0mg"},{"bike_id":"06b7a5b6-4c5f-436a-9f3d-60906f8cd3f5","system_id":"levelo_inurba_marseille","lat":43.30788,"lon":5.38158,"is_reserved":false,"is_disabled":false,"rental_uris":{"android":"levelo://app?vid=06b7a5b6-4c5f-436a-9f3d-60906f8cd3f5","ios":"levelo://app?vid=06b7a5b6-4c5f-436a-9f3d-60906f8cd3f5"},"vehicle_type_id":"4","last_reported":1758539322,"current_range_meters":6800,"station_id":"ce4bgt12rcd13ifvqce0","pricing_plan_id":"cebpf4jnsgd1na2vs0mg"},{"bike_id":"2ce7cb5f-dba5-48dd-9fe1-a4472a2bc56b","system_id":"levelo_inurba_marseille","lat":43.3054,"lon":5.36556,"is_reserved":false,"is_disabled":false,"rental_uris":{"android":"levelo://app?vid=2ce7cb5f-dba5-48dd-9fe1-a4472a2bc56b","ios":"levelo://app?vid=2ce7cb5f-dba5-48dd-9fe1-a4472a2bc56b"},"vehicle_type_id":"4","last_reported":1758539322,"current_range_meters":7200,"station_id":"ce4bgs12rcd13ifvqcag","pricing_plan_id":"cebpf4jnsgd1na2vs0mg"},{"bike_id":"55d1bc08-fd54-4a82-afc7-2adcaa7b1c4e","system_id":"levelo_inurba_marseille","lat":43.30035,"lon":5.37698,"is_reserved":false,"is_disabled":false,"rental_uris":{"android":"levelo://app?vid=55d1bc08-fd54-4a82-afc7-2adcaa7b1c4e","ios":"levelo://app?vid=55d1bc08-fd54-4a82-afc7-2adcaa7b1c4e"},"vehicle_type_id":"4","last_reported":1758539322,"current_range_meters":7200,"station_id":"","pricing_plan_id":"cebpf4jnsgd1na2vs0mg"},{"bike_id":"2015c1f2-c286-408a-b930-50d865ce0bb9","system_id":"levelo_inurba_marseille","lat":43.21195,"lon":5.35065,"is_reserved":false,"is_disabled":false,"rental_uris":{"android":"levelo://app?vid=2015c1f2-c286-408a-b930-50d865ce0bb9","ios":"levelo://app?vid=2015c1f2-c286-408a-b930-50d865ce0bb9"},"vehicle_type_id":"4","last_reported":1758539322,"current_range_meters":7200,"station_id":"st_cvj6sg6p6f1abm77japg","pricing_plan_id":"cebpf4jnsgd1na2vs0mg"},{"bike_id":"efbe2cdb-8090-482f-b447-994dc4e444fc","system_id":"levelo_inurba_marseille","lat":43.3055,"lon":5.36551,"is_reserved":false,"is_disabled":false,"rental_uris":{"android":"levelo://app?vid=efbe2cdb-8090-482f-b447-994dc4e444fc","ios":"levelo://app?vid=efbe2cdb-8090-482f-b447-994dc4e444fc"},"vehicle_type_id":"4","last_reported":1758539322,"current_range_meters":8000,"station_id":"ce4bgs12rcd13ifvqcag","pricing_plan_id":"cebpf4jnsgd1na2vs0mg"},{"bike_id":"4dc7f894-dc0b-4b3e-9409-475e94ba0bad","system_id":"levelo_inurba_marseille","lat":43.29266,"lon":5.3762,"is_reserved":false,"is_disabled":false,"rental_uris":{"android":"levelo://app?vid=4dc7f894-dc0b-4b3e-9409-475e94ba0bad","ios":"levelo://app?vid=4dc7f894-dc0b-4b3e-9409-475e94ba0bad"},"vehicle_type_id":"4","last_reported":1758539322,"current_range_meters":8000,"station_id":"ce4bgi12rcd13ifvqb80","pricing_plan_id":"cebpf4jnsgd1na2vs0mg"},{"bike_id":"68adab37-f5ad-4072-b58a-fe6c68285ca6","system_id":"levelo_inurba_marseille","lat":43.30639,"lon":5.37636,"is_reserved":false,"is_disabled":false,"rental_uris":{"android":"levelo://app?vid=68adab37-f5ad-4072-b58a-fe6c68285ca6","ios":"levelo://app?vid=68adab37-f5ad-4072-b58a-fe6c68285ca6"},"vehicle_type_id":"4","last_reported":1758539322,"current_range_meters":8000,"station_id":"","pricing_plan_id":"cebpf4jnsgd1na2vs0mg"},{"bike_id":"5319fae8-be79-4d87-b5d0-b333eba32d6a","system_id":"levelo_inurba_marseille","lat":43.211573,"lon":5.350868,"is_reserved":false,"is_disabled":false,"rental_uris":{"android":"levelo://app?vid=5319fae8-be79-4d87-b5d0-b333eba32d6a","ios":"levelo://app?vid=5319fae8-be79-4d87-b5d0-b333eba32d6a"},"vehicle_type_id":"4","last_reported":1758539322,"current_range_meters":8000,"station_id":"st_cvj6sg6p6f1abm77japg","pricing_plan_id":"cebpf4jnsgd1na2vs0mg"},{"bike_id":"2d82061a-a240-43d1-93a6-ab71cf777b3c","system_id":"levelo_inurba_marseille","lat":43.21185,"lon":5.35074,"is_reserved":false,"is_disabled":false,"rental_uris":{"android":"levelo://app?vid=2d82061a-a240-43d1-93a6-ab71cf777b3c","ios":"levelo://app?vid=2d82061a-a240-43d1-93a6-ab71cf777b3c"},"vehicle_type_id":"4","last_reported":1758539322,"current_range_meters":8000,"station_id":"st_cvj6sg6p6f1abm77japg","pricing_plan_id":"cebpf4jnsgd1na2vs0mg"},{"bike_id":"0319c100-5c9c-49b7-9f2a-421506d58186","system_id":"levelo_inurba_marseille","lat":43.31093,"lon":5.40081,"is_reserved":false,"is_disabled":true,"rental_uris":{"android":"levelo://app?vid=0319c100-5c9c-49b7-9f2a-421506d58186","ios":"levelo://app?vid=0319c100-5c9c-49b7-9f2a-421506d58186"},"vehicle_type_id":"4","last_reported":1758539322,"current_range_meters":8000,"station_id":"","pricing_plan_id":"cebpf4jnsgd1na2vs0mg"},{"bike_id":"f69f9714-93e7-4b9c-a46e-fabf7655f836","system_id":"levelo_inurba_marseille","lat":43.22557,"lon":5.41626,"is_reserved":false,"is_disabled":false,"rental_uris":{"android":"levelo://app?vid=f69f9714-93e7-4b9c-a46e-fabf7655f836","ios":"levelo://app?vid=f69f9714-93e7-4b9c-a46e-fabf7655f836"},"vehicle_type_id":"4","last_reported":1758539322,"current_range_meters":8000,"station_id":"st_d2o4gvlbi1j2169b742g","pricing_plan_id":"cebpf4jnsgd1na2vs0mg"},{"bike_id":"65a6264a-0065-47ae-8c18-67de745a95da","system_id":"levelo_inurba_marseille","lat":43.30553,"lon":5.3651,"is_reserved":false,"is_disabled":true,"rental_uris":{"android":"levelo://app?vid=65a6264a-0065-47ae-8c18-67de745a95da","ios":"levelo://app?vid=65a6264a-0065-47ae-8c18-67de745a95da"},"vehicle_type_id":"4","last_reported":1758539322,"current_range_meters":8400,"station_id":"ce4bgs12rcd13ifvqcag","pricing_plan_id":"cebpf4jnsgd1na2vs0mg"},{"bike_id":"5e8811f0-6888-4349-9821-6fd0ed510df2","system_id":"levelo_inurba_marseille","lat":43.29805,"lon":5.380857,"is_reserved":false,"is_disabled":false,"rental_uris":{"android":"levelo://app?vid=5e8811f0-6888-4349-9821-6fd0ed510df2","ios":"levelo://app?vid=5e8811f0-6888-4349-9821-6fd0ed510df2"},"vehicle_type_id":"4","last_reported":1758539322,"current_range_meters":8400,"station_id":"ce4bgip2rcd13ifvqbb0","pricing_plan_id":"cebpf4jnsgd1na2vs0mg"},{"bike_id":"316b8e78-c776-4880-8686-5ad860e60cb7","system_id":"levelo_inurba_marseille","lat":43.30391,"lon":5.40949,"is_reserved":false,"is_disabled":false,"rental_uris":{"android":"levelo://app?vid=316b8e78-c776-4880-8686-5ad860e60cb7","ios":"levelo://app?vid=316b8e78-c776-4880-8686-5ad860e60cb7"},"vehicle_type_id":"4","last_reported":1758539322,"current_range_meters":4800,"station_id":"ce4bhop2rcd13ifvqh8g","pricing_plan_id":"cebpf4jnsgd1na2vs0mg"},{"bike_id":"12e77a2f-3171-44d0-8d53-e7a881052ae9","system_id":"levelo_inurba_marseille","lat":43.217374,"lon":5.346054,"is_reserved":false,"is_disabled":false,"rental_uris":{"android":"levelo://app?vid=12e77a2f-3171-44d0-8d53-e7a881052ae9","ios":"levelo://app?vid=12e77a2f-3171-44d0-8d53-e7a881052ae9"},"vehicle_type_id":"4","last_reported":1758539322,"current_range_meters":8400,"station_id":"cpo3342slgdg3j2ifvpg","pricing_plan_id":"cebpf4jnsgd1na2vs0mg"},{"bike_id":"d9562a59-d0e1-4425-b5be-d4cbc51c04a1","system_id":"levelo_inurba_marseille","lat":43.302,"lon":5.395678,"is_reserved":false,"is_disabled":false,"rental_uris":{"android":"levelo://app?vid=d9562a59-d0e1-4425-b5be-d4cbc51c04a1","ios":"levelo://app?vid=d9562a59-d0e1-4425-b5be-d4cbc51c04a1"},"vehicle_type_id":"4","last_reported":1758539322,"current_range_meters":8000,"station_id":"ce4bh0h2rcd13ifvqd40","pricing_plan_id":"cebpf4jnsgd1na2vs0mg"},{"bike_id":"e27592e0-f207-42a1-bc8a-1ac17716ed4f","system_id":"levelo_inurba_marseille","lat":43.28108,"lon":5.37827,"is_reserved":false,"is_disabled":false,"rental_uris":{"android":"levelo://app?vid=e27592e0-f207-42a1-bc8a-1ac17716ed4f","ios":"levelo://app?vid=e27592e0-f207-42a1-bc8a-1ac17716ed4f"},"vehicle_type_id":"4","last_reported":1758539322,"current_range_meters":8400,"station_id":"ce4bha12rcd13ifvqee0","pricing_plan_id":"cebpf4jnsgd1na2vs0mg"},{"bike_id":"e5750059-195e-4964-9ccf-ea5ab3126109","system_id":"levelo_inurba_marseille","lat":43.30138,"lon":5.39864,"is_reserved":false,"is_disabled":false,"rental_uris":{"android":"levelo://app?vid=e5750059-195e-4964-9ccf-ea5ab3126109","ios":"levelo://app?vid=e5750059-195e-4964-9ccf-ea5ab3126109"},"vehicle_type_id":"4","last_reported":1758539322,"current_range_meters":8400,"station_id":"ce4bh0h2rcd13ifvqd40","pricing_plan_id":"cebpf4jnsgd1na2vs0mg"},{"bike_id":"b766d582-d4f0-4f9a-9867-0ae0b8177870","system_id":"levelo_inurba_marseille","lat":43.21192,"lon":5.35066,"is_reserved":false,"is_disabled":false,"rental_uris":{"android":"levelo://app?vid=b766d582-d4f0-4f9a-9867-0ae0b8177870","ios":"levelo://app?vid=b766d582-d4f0-4f9a-9867-0ae0b8177870"},"vehicle_type_id":"4","last_reported":1758539322,"current_range_meters":8800,"station_id":"st_cvj6sg6p6f1abm77japg","pricing_plan_id":"cebpf4jnsgd1na2vs0mg"},{"bike_id":"354e88b0-cd00-48f7-b169-28d814acb49d","system_id":"levelo_inurba_marseille","lat":43.33753,"lon":5.37452,"is_reserved":false,"is_disabled":false,"rental_uris":{"android":"levelo://app?vid=354e88b0-cd00-48f7-b169-28d814acb49d","ios":"levelo://app?vid=354e88b0-cd00-48f7-b169-28d814acb49d"},"vehicle_type_id":"4","last_reported":1758539322,"current_range_meters":8800,"station_id":"","pricing_plan_id":"cebpf4jnsgd1na2vs0mg"},{"bike_id":"7fe253bf-e5cf-4725-b805-80d30310caf6","system_id":"levelo_inurba_marseille","lat":43.30187,"lon":5.36609,"is_reserved":false,"is_disabled":false,"rental_uris":{"android":"levelo://app?vid=7fe253bf-e5cf-4725-b805-80d30310caf6","ios":"levelo://app?vid=7fe253bf-e5cf-4725-b805-80d30310caf6"},"vehicle_type_id":"4","last_reported":1758539322,"current_range_meters":8400,"station_id":"ce4bgrh2rcd13ifvqc8g","pricing_plan_id":"cebpf4jnsgd1na2vs0mg"},{"bike_id":"d2667e4e-8f97-413d-81b1-13a394c6285f","system_id":"levelo_inurba_marseille","lat":43.217407,"lon":5.346011,"is_reserved":false,"is_disabled":true,"rental_uris":{"android":"levelo://app?vid=d2667e4e-8f97-413d-81b1-13a394c6285f","ios":"levelo://app?vid=d2667e4e-8f97-413d-81b1-13a394c6285f"},"vehicle_type_id":"4","last_reported":1758539322,"current_range_meters":8800,"station_id":"st_cvj6r9ubvosntc0bgbag","pricing_plan_id":"cebpf4jnsgd1na2vs0mg"},{"bike_id":"f581ccb4-ae4a-44ef-9aee-8da2f62ff531","system_id":"levelo_inurba_marseille","lat":43.31244,"lon":5.36824,"is_reserved":false,"is_disabled":false,"rental_uris":{"android":"levelo://app?vid=f581ccb4-ae4a-44ef-9aee-8da2f62ff531","ios":"levelo://app?vid=f581ccb4-ae4a-44ef-9aee-8da2f62ff531"},"vehicle_type_id":"4","last_reported":1758539322,"current_range_meters":9200,"station_id":"ce4bgl92rcd13ifvqbq0","pricing_plan_id":"cebpf4jnsgd1na2vs0mg"},{"bike_id":"80c72034-c9df-4dff-b91f-a599784ec5a6","system_id":"levelo_inurba_marseille","lat":43.27615,"lon":5.36101,"is_reserved":false,"is_disabled":false,"rental_uris":{"android":"levelo://app?vid=80c72034-c9df-4dff-b91f-a599784ec5a6","ios":"levelo://app?vid=80c72034-c9df-4dff-b91f-a599784ec5a6"},"vehicle_type_id":"4","last_reported":1758539322,"current_range_meters":9200,"station_id":"ce4bgj92rcd13ifvqbe0","pricing_plan_id":"cebpf4jnsgd1na2vs0mg"},{"bike_id":"e86857f8-f405-4657-b145-ec58ed187087","system_id":"levelo_inurba_marseille","lat":43.31484,"lon":5.3881,"is_reserved":false,"is_disabled":false,"rental_uris":{"android":"levelo://app?vid=e86857f8-f405-4657-b145-ec58ed187087","ios":"levelo://app?vid=e86857f8-f405-4657-b145-ec58ed187087"},"vehicle_type_id":"4","last_reported":1758539322,"current_range_meters":9200,"station_id":"ce4bgt92rcd13ifvqcf0","pricing_plan_id":"cebpf4jnsgd1na2vs0mg"},{"bike_id":"baa62236-123a-4879-8178-af0367e44451","system_id":"levelo_inurba_marseille","lat":43.29537,"lon":5.37503,"is_reserved":false,"is_disabled":false,"rental_uris":{"android":"levelo://app?vid=baa62236-123a-4879-8178-af0367e44451","ios":"levelo://app?vid=baa62236-123a-4879-8178-af0367e44451"},"vehicle_type_id":"4","last_reported":1758539322,"current_range_meters":8400,"station_id":"ce4bgkp2rcd13ifvqbmg","pricing_plan_id":"cebpf4jnsgd1na2vs0mg"},{"bike_id":"c2fa73b3-6c10-42e1-9b5a-634142b3927e","system_id":"levelo_inurba_marseille","lat":43.285012,"lon":5.385663,"is_reserved":false,"is_disabled":false,"rental_uris":{"android":"levelo://app?vid=c2fa73b3-6c10-42e1-9b5a-634142b3927e","ios":"levelo://app?vid=c2fa73b3-6c10-42e1-9b5a-634142b3927e"},"vehicle_type_id":"4","last_reported":1758539322,"current_range_meters":9200,"station_id":"ce4bh8p2rcd13ifvqeb0","pricing_plan_id":"cebpf4jnsgd1na2vs0mg"},{"bike_id":"84798ff0-fc90-494b-bbef-1b90658b9ce9","system_id":"levelo_inurba_marseille","lat":43.27421,"lon":5.39407,"is_reserved":false,"is_disabled":false,"rental_uris":{"android":"levelo://app?vid=84798ff0-fc90-494b-bbef-1b90658b9ce9","ios":"levelo://app?vid=84798ff0-fc90-494b-bbef-1b90658b9ce9"},"vehicle_type_id":"4","last_reported":1758539322,"current_range_meters":9200,"station_id":"ce4bhdp2rcd13ifvqf20","pricing_plan_id":"cebpf4jnsgd1na2vs0mg"},{"bike_id":"f258f673-d6e2-426c-8111-987e545cdaa0","system_id":"levelo_inurba_marseille","lat":43.21745,"lon":5.34592,"is_reserved":false,"is_disabled":false,"rental_uris":{"android":"levelo://app?vid=f258f673-d6e2-426c-8111-987e545cdaa0","ios":"levelo://app?vid=f258f673-d6e2-426c-8111-987e545cdaa0"},"vehicle_type_id":"4","last_reported":1758539322,"current_range_meters":9200,"station_id":"st_cvj6r9ubvosntc0bgbag","pricing_plan_id":"cebpf4jnsgd1na2vs0mg"},{"bike_id":"1802e178-6e26-4c37-b7e5-4b384782f35f","system_id":"levelo_inurba_marseille","lat":43.29571,"lon":5.39983,"is_reserved":false,"is_disabled":false,"rental_uris":{"android":"levelo://app?vid=1802e178-6e26-4c37-b7e5-4b384782f35f","ios":"levelo://app?vid=1802e178-6e26-4c37-b7e5-4b384782f35f"},"vehicle_type_id":"4","last_reported":1758539322,"current_range_meters":9600,"station_id":"ce4bh312rcd13ifvqdj0","pricing_plan_id":"cebpf4jnsgd1na2vs0mg"},{"bike_id":"118b6d7e-3328-44e2-ae13-d04071b8c00f","system_id":"levelo_inurba_marseille","lat":43.21196,"lon":5.35069,"is_reserved":false,"is_disabled":false,"rental_uris":{"android":"levelo://app?vid=118b6d7e-3328-44e2-ae13-d04071b8c00f","ios":"levelo://app?vid=118b6d7e-3328-44e2-ae13-d04071b8c00f"},"vehicle_type_id":"4","last_reported":1758539322,"current_range_meters":9600,"station_id":"st_cvj6sg6p6f1abm77japg","pricing_plan_id":"cebpf4jnsgd1na2vs0mg"},{"bike_id":"0c8a92f3-f5d4-48dc-bbf5-8177c0a48b95","system_id":"levelo_inurba_marseille","lat":43.29629,"lon":5.38178,"is_reserved":false,"is_disabled":false,"rental_uris":{"android":"levelo://app?vid=0c8a92f3-f5d4-48dc-bbf5-8177c0a48b95","ios":"levelo://app?vid=0c8a92f3-f5d4-48dc-bbf5-8177c0a48b95"},"vehicle_type_id":"4","last_reported":1758539322,"current_range_meters":9600,"station_id":"","pricing_plan_id":"cebpf4jnsgd1na2vs0mg"},{"bike_id":"a95a546a-691f-414b-9f19-eb455305a59b","system_id":"levelo_inurba_marseille","lat":43.21754,"lon":5.346,"is_reserved":false,"is_disabled":false,"rental_uris":{"android":"levelo://app?vid=a95a546a-691f-414b-9f19-eb455305a59b","ios":"levelo://app?vid=a95a546a-691f-414b-9f19-eb455305a59b"},"vehicle_type_id":"4","last_reported":1758539322,"current_range_meters":9600,"station_id":"st_cvj6r9ubvosntc0bgbag","pricing_plan_id":"cebpf4jnsgd1na2vs0mg"},{"bike_id":"1a2dfe92-fdb4-479f-b556-71ac3877e861","system_id":"levelo_inurba_marseille","lat":43.28442,"lon":5.39192,"is_reserved":false,"is_disabled":false,"rental_uris":{"android":"levelo://app?vid=1a2dfe92-fdb4-479f-b556-71ac3877e861","ios":"levelo://app?vid=1a2dfe92-fdb4-479f-b556-71ac3877e861"},"vehicle_type_id":"4","last_reported":1758539322,"current_range_meters":9600,"station_id":"ce4bhoh2rcd13ifvqh5g","pricing_plan_id":"cebpf4jnsgd1na2vs0mg"},{"bike_id":"50d521a3-32f7-4193-9ddf-e9a35e70240b","system_id":"levelo_inurba_marseille","lat":43.28691,"lon":5.37394,"is_reserved":false,"is_disabled":false,"rental_uris":{"android":"levelo://app?vid=50d521a3-32f7-4193-9ddf-e9a35e70240b","ios":"levelo://app?vid=50d521a3-32f7-4193-9ddf-e9a35e70240b"},"vehicle_type_id":"4","last_reported":1758539322,"current_range_meters":9600,"station_id":"ce4bh3p2rcd13ifvqdq0","pricing_plan_id":"cebpf4jnsgd1na2vs0mg"},{"bike_id":"75cdae86-aa3c-46f9-92bf-f3662c1063cf","system_id":"levelo_inurba_marseille","lat":43.33735,"lon":5.39181,"is_reserved":false,"is_disabled":false,"rental_uris":{"android":"levelo://app?vid=75cdae86-aa3c-46f9-92bf-f3662c1063cf","ios":"levelo://app?vid=75cdae86-aa3c-46f9-92bf-f3662c1063cf"},"vehicle_type_id":"4","last_reported":1758539322,"current_range_meters":9600,"station_id":"ce4bhr92rcd13ifvqhsg","pricing_plan_id":"cebpf4jnsgd1na2vs0mg"},{"bike_id":"363d99e5-837c-43c8-abcc-c80ef2e2786a","system_id":"levelo_inurba_marseille","lat":43.21194,"lon":5.35083,"is_reserved":false,"is_disabled":false,"rental_uris":{"android":"levelo://app?vid=363d99e5-837c-43c8-abcc-c80ef2e2786a","ios":"levelo://app?vid=363d99e5-837c-43c8-abcc-c80ef2e2786a"},"vehicle_type_id":"4","last_reported":1758539322,"current_range_meters":9600,"station_id":"st_cvj6sg6p6f1abm77japg","pricing_plan_id":"cebpf4jnsgd1na2vs0mg"},{"bike_id":"76bbf107-7ec5-4826-b296-ab629ecd14ab","system_id":"levelo_inurba_marseille","lat":43.29814,"lon":5.42135,"is_reserved":false,"is_disabled":false,"rental_uris":{"android":"levelo://app?vid=76bbf107-7ec5-4826-b296-ab629ecd14ab","ios":"levelo://app?vid=76bbf107-7ec5-4826-b296-ab629ecd14ab"},"vehicle_type_id":"4","last_reported":1758539322,"current_range_meters":9600,"station_id":"","pricing_plan_id":"cebpf4jnsgd1na2vs0mg"},{"bike_id":"4b9653dc-e6eb-4cf2-b756-e5907937f31a","system_id":"levelo_inurba_marseille","lat":43.289843,"lon":5.366308,"is_reserved":false,"is_disabled":false,"rental_uris":{"android":"levelo://app?vid=4b9653dc-e6eb-4cf2-b756-e5907937f31a","ios":"levelo://app?vid=4b9653dc-e6eb-4cf2-b756-e5907937f31a"},"vehicle_type_id":"4","last_reported":1758539322,"current_range_meters":10000,"station_id":"ce4bhap2rcd13ifvqek0","pricing_plan_id":"cebpf4jnsgd1na2vs0mg"},{"bike_id":"0415083f-2bb5-408a-bacc-058520297ee9","system_id":"levelo_inurba_marseille","lat":43.28488,"lon":5.38411,"is_reserved":false,"is_disabled":false,"rental_uris":{"android":"levelo://app?vid=0415083f-2bb5-408a-bacc-058520297ee9","ios":"levelo://app?vid=0415083f-2bb5-408a-bacc-058520297ee9"},"vehicle_type_id":"4","last_reported":1758539322,"current_range_meters":10000,"station_id":"ce4bh512rcd13ifvqe3g","pricing_plan_id":"cebpf4jnsgd1na2vs0mg"},{"bike_id":"162483fb-058a-43f7-a272-15e63e78b5bc","system_id":"levelo_inurba_marseille","lat":43.217439,"lon":5.346029,"is_reserved":false,"is_disabled":false,"rental_uris":{"android":"levelo://app?vid=162483fb-058a-43f7-a272-15e63e78b5bc","ios":"levelo://app?vid=162483fb-058a-43f7-a272-15e63e78b5bc"},"vehicle_type_id":"4","last_reported":1758539322,"current_range_meters":10000,"station_id":"st_cvj6r9ubvosntc0bgbag","pricing_plan_id":"cebpf4jnsgd1na2vs0mg"},{"bike_id":"ca7cfd93-60d9-4fda-b2da-28a86ec02074","system_id":"levelo_inurba_marseille","lat":43.33474,"lon":5.36242,"is_reserved":false,"is_disabled":false,"rental_uris":{"android":"levelo://app?vid=ca7cfd93-60d9-4fda-b2da-28a86ec02074","ios":"levelo://app?vid=ca7cfd93-60d9-4fda-b2da-28a86ec02074"},"vehicle_type_id":"4","last_reported":1758539322,"current_range_meters":10000,"station_id":"","pricing_plan_id":"cebpf4jnsgd1na2vs0mg"},{"bike_id":"6e376b0a-0929-4d2e-8e99-41a536d83cff","system_id":"levelo_inurba_marseille","lat":43.29036,"lon":5.37561,"is_reserved":false,"is_disabled":false,"rental_uris":{"android":"levelo://app?vid=6e376b0a-0929-4d2e-8e99-41a536d83cff","ios":"levelo://app?vid=6e376b0a-0929-4d2e-8e99-41a536d83cff"},"vehicle_type_id":"4","last_reported":1758539322,"current_range_meters":10000,"station_id":"ce4bh692rcd13ifvqe90","pricing_plan_id":"cebpf4jnsgd1na2vs0mg"},{"bike_id":"9176512c-2cc1-4df2-a8e0-6be514fbcdbf","system_id":"levelo_inurba_marseille","lat":43.33748,"lon":5.37465,"is_reserved":false,"is_disabled":false,"rental_uris":{"android":"levelo://app?vid=9176512c-2cc1-4df2-a8e0-6be514fbcdbf","ios":"levelo://app?vid=9176512c-2cc1-4df2-a8e0-6be514fbcdbf"},"vehicle_type_id":"4","last_reported":1758539322,"current_range_meters":10000,"station_id":"","pricing_plan_id":"cebpf4jnsgd1na2vs0mg"},{"bike_id":"85620f29-6431-4951-952a-8db1ac0d54c6","system_id":"levelo_inurba_marseille","lat":43.29509,"lon":5.37507,"is_reserved":false,"is_disabled":false,"rental_uris":{"android":"levelo://app?vid=85620f29-6431-4951-952a-8db1ac0d54c6","ios":"levelo://app?vid=85620f29-6431-4951-952a-8db1ac0d54c6"},"vehicle_type_id":"4","last_reported":1758539322,"current_range_meters":12800,"station_id":"ce4bgkp2rcd13ifvqbmg","pricing_plan_id":"cebpf4jnsgd1na2vs0mg"},{"bike_id":"a7e2fcd0-47e9-4f8c-b4eb-0aba0847021f","system_id":"levelo_inurba_marseille","lat":43.29507,"lon":5.37511,"is_reserved":false,"is_disabled":false,"rental_uris":{"android":"levelo://app?vid=a7e2fcd0-47e9-4f8c-b4eb-0aba0847021f","ios":"levelo://app?vid=a7e2fcd0-47e9-4f8c-b4eb-0aba0847021f"},"vehicle_type_id":"4","last_reported":1758539322,"current_range_meters":12800,"station_id":"ce4bgkp2rcd13ifvqbmg","pricing_plan_id":"cebpf4jnsgd1na2vs0mg"},{"bike_id":"4b7965aa-d15e-4358-8e44-54ca10a7d84b","system_id":"levelo_inurba_marseille","lat":43.28785,"lon":5.38561,"is_reserved":false,"is_disabled":false,"rental_uris":{"android":"levelo://app?vid=4b7965aa-d15e-4358-8e44-54ca10a7d84b","ios":"levelo://app?vid=4b7965aa-d15e-4358-8e44-54ca10a7d84b"},"vehicle_type_id":"4","last_reported":1758539322,"current_range_meters":10800,"station_id":"","pricing_plan_id":"cebpf4jnsgd1na2vs0mg"},{"bike_id":"77edcbcc-e84c-41cf-8371-87d407ed0df7","system_id":"levelo_inurba_marseille","lat":43.3095,"lon":5.39036,"is_reserved":false,"is_disabled":false,"rental_uris":{"android":"levelo://app?vid=77edcbcc-e84c-41cf-8371-87d407ed0df7","ios":"levelo://app?vid=77edcbcc-e84c-41cf-8371-87d407ed0df7"},"vehicle_type_id":"4","last_reported":1758539322,"current_range_meters":10800,"station_id":"ce4bgup2rcd13ifvqco0","pricing_plan_id":"cebpf4jnsgd1na2vs0mg"},{"bike_id":"0402438e-d72b-4870-8e22-17facef5f22b","system_id":"levelo_inurba_marseille","lat":43.295949,"lon":5.391614,"is_reserved":false,"is_disabled":false,"rental_uris":{"android":"levelo://app?vid=0402438e-d72b-4870-8e22-17facef5f22b","ios":"levelo://app?vid=0402438e-d72b-4870-8e22-17facef5f22b"},"vehicle_type_id":"4","last_reported":1758539322,"current_range_meters":10800,"station_id":"","pricing_plan_id":"cebpf4jnsgd1na2vs0mg"},{"bike_id":"f7745353-e767-49e8-be5c-5e729fb35a09","system_id":"levelo_inurba_marseille","lat":43.28626,"lon":5.38229,"is_reserved":false,"is_disabled":false,"rental_uris":{"android":"levelo://app?vid=f7745353-e767-49e8-be5c-5e729fb35a09","ios":"levelo://app?vid=f7745353-e767-49e8-be5c-5e729fb35a09"},"vehicle_type_id":"4","last_reported":1758539322,"current_range_meters":10800,"station_id":"","pricing_plan_id":"cebpf4jnsgd1na2vs0mg"},{"bike_id":"5e3acdce-8ce7-4981-a774-86e9c2c31958","system_id":"levelo_inurba_marseille","lat":43.28354,"lon":5.38099,"is_reserved":false,"is_disabled":false,"rental_uris":{"android":"levelo://app?vid=5e3acdce-8ce7-4981-a774-86e9c2c31958","ios":"levelo://app?vid=5e3acdce-8ce7-4981-a774-86e9c2c31958"},"vehicle_type_id":"4","last_reported":1758539322,"current_range_meters":10800,"station_id":"ce4bh412rcd13ifvqdr0","pricing_plan_id":"cebpf4jnsgd1na2vs0mg"},{"bike_id":"d344a5a6-ecd3-4290-8ed0-770794776383","system_id":"levelo_inurba_marseille","lat":43.32286,"lon":5.38257,"is_reserved":false,"is_disabled":false,"rental_uris":{"android":"levelo://app?vid=d344a5a6-ecd3-4290-8ed0-770794776383","ios":"levelo://app?vid=d344a5a6-ecd3-4290-8ed0-770794776383"},"vehicle_type_id":"4","last_reported":1758539322,"current_range_meters":10800,"station_id":"ce4bhr12rcd13ifvqhqg","pricing_plan_id":"cebpf4jnsgd1na2vs0mg"},{"bike_id":"438ead59-de14-4fa0-a61d-03a70a4122ae","system_id":"levelo_inurba_marseille","lat":43.97285,"lon":4.89134,"is_reserved":false,"is_disabled":true,"rental_uris":{"android":"levelo://app?vid=438ead59-de14-4fa0-a61d-03a70a4122ae","ios":"levelo://app?vid=438ead59-de14-4fa0-a61d-03a70a4122ae"},"vehicle_type_id":"4","last_reported":1758539322,"current_range_meters":10800,"station_id":"","pricing_plan_id":"cebpf4jnsgd1na2vs0mg"},{"bike_id":"a3957254-c7b5-441b-a03f-ab5ad0d2f066","system_id":"levelo_inurba_marseille","lat":43.28414,"lon":5.34978,"is_reserved":false,"is_disabled":false,"rental_uris":{"android":"levelo://app?vid=a3957254-c7b5-441b-a03f-ab5ad0d2f066","ios":"levelo://app?vid=a3957254-c7b5-441b-a03f-ab5ad0d2f066"},"vehicle_type_id":"4","last_reported":1758539322,"current_range_meters":11200,"station_id":"ce4bhbh2rcd13ifvqepg","pricing_plan_id":"cebpf4jnsgd1na2vs0mg"},{"bike_id":"8454b078-9335-4bb8-b75b-67e6add3afc4","system_id":"levelo_inurba_marseille","lat":43.27975,"lon":5.38733,"is_reserved":false,"is_disabled":false,"rental_uris":{"android":"levelo://app?vid=8454b078-9335-4bb8-b75b-67e6add3afc4","ios":"levelo://app?vid=8454b078-9335-4bb8-b75b-67e6add3afc4"},"vehicle_type_id":"4","last_reported":1758539322,"current_range_meters":11200,"station_id":"ce4bhg12rcd13ifvqf80","pricing_plan_id":"cebpf4jnsgd1na2vs0mg"},{"bike_id":"6be3bd8b-eada-4f83-bfbf-82d34cec3c94","system_id":"levelo_inurba_marseille","lat":43.337748,"lon":5.374315,"is_reserved":false,"is_disabled":false,"rental_uris":{"android":"levelo://app?vid=6be3bd8b-eada-4f83-bfbf-82d34cec3c94","ios":"levelo://app?vid=6be3bd8b-eada-4f83-bfbf-82d34cec3c94"},"vehicle_type_id":"4","last_reported":1758539322,"current_range_meters":11200,"station_id":"","pricing_plan_id":"cebpf4jnsgd1na2vs0mg"},{"bike_id":"6bb4936d-45d5-4a3f-ad90-cabb6cf910cb","system_id":"levelo_inurba_marseille","lat":43.28416,"lon":5.34976,"is_reserved":false,"is_disabled":false,"rental_uris":{"android":"levelo://app?vid=6bb4936d-45d5-4a3f-ad90-cabb6cf910cb","ios":"levelo://app?vid=6bb4936d-45d5-4a3f-ad90-cabb6cf910cb"},"vehicle_type_id":"4","last_reported":1758539322,"current_range_meters":11200,"station_id":"ce4bhbh2rcd13ifvqepg","pricing_plan_id":"cebpf4jnsgd1na2vs0mg"},{"bike_id":"1e0fd49c-ac4b-47b7-af02-10561a312938","system_id":"levelo_inurba_marseille","lat":43.21742,"lon":5.34604,"is_reserved":false,"is_disabled":false,"rental_uris":{"android":"levelo://app?vid=1e0fd49c-ac4b-47b7-af02-10561a312938","ios":"levelo://app?vid=1e0fd49c-ac4b-47b7-af02-10561a312938"},"vehicle_type_id":"4","last_reported":1758539322,"current_range_meters":11600,"station_id":"st_cvj6r9ubvosntc0bgbag","pricing_plan_id":"cebpf4jnsgd1na2vs0mg"},{"bike_id":"14e0ecfc-848e-4179-ac98-8bf6c41189b5","system_id":"levelo_inurba_marseille","lat":43.30284,"lon":5.396613,"is_reserved":false,"is_disabled":false,"rental_uris":{"android":"levelo://app?vid=14e0ecfc-848e-4179-ac98-8bf6c41189b5","ios":"levelo://app?vid=14e0ecfc-848e-4179-ac98-8bf6c41189b5"},"vehicle_type_id":"4","last_reported":1758539322,"current_range_meters":11600,"station_id":"","pricing_plan_id":"cebpf4jnsgd1na2vs0mg"},{"bike_id":"f3805ac9-2ab6-41f8-b374-0887d951860e","system_id":"levelo_inurba_marseille","lat":43.21744,"lon":5.34602,"is_reserved":false,"is_disabled":false,"rental_uris":{"android":"levelo://app?vid=f3805ac9-2ab6-41f8-b374-0887d951860e","ios":"levelo://app?vid=f3805ac9-2ab6-41f8-b374-0887d951860e"},"vehicle_type_id":"4","last_reported":1758539322,"current_range_meters":11600,"station_id":"st_cvj6r9ubvosntc0bgbag","pricing_plan_id":"cebpf4jnsgd1na2vs0mg"},{"bike_id":"a071384d-9a3b-4198-892a-7c17d5ea442c","system_id":"levelo_inurba_marseille","lat":43.312195,"lon":5.368577,"is_reserved":false,"is_disabled":false,"rental_uris":{"android":"levelo://app?vid=a071384d-9a3b-4198-892a-7c17d5ea442c","ios":"levelo://app?vid=a071384d-9a3b-4198-892a-7c17d5ea442c"},"vehicle_type_id":"4","last_reported":1758539322,"current_range_meters":11600,"station_id":"","pricing_plan_id":"cebpf4jnsgd1na2vs0mg"},{"bike_id":"c3e9ec78-d16b-45ba-a192-2cfab652bb22","system_id":"levelo_inurba_marseille","lat":43.296093,"lon":5.369797,"is_reserved":false,"is_disabled":false,"rental_uris":{"android":"levelo://app?vid=c3e9ec78-d16b-45ba-a192-2cfab652bb22","ios":"levelo://app?vid=c3e9ec78-d16b-45ba-a192-2cfab652bb22"},"vehicle_type_id":"4","last_reported":1758539322,"current_range_meters":11600,"station_id":"","pricing_plan_id":"cebpf4jnsgd1na2vs0mg"},{"bike_id":"49779a7c-e40a-4688-89bb-eee9241c0957","system_id":"levelo_inurba_marseille","lat":43.28268,"lon":5.35052,"is_reserved":false,"is_disabled":false,"rental_uris":{"android":"levelo://app?vid=49779a7c-e40a-4688-89bb-eee9241c0957","ios":"levelo://app?vid=49779a7c-e40a-4688-89bb-eee9241c0957"},"vehicle_type_id":"4","last_reported":1758539322,"current_range_meters":12000,"station_id":"ce4bhbp2rcd13ifvqerg","pricing_plan_id":"cebpf4jnsgd1na2vs0mg"},{"bike_id":"0a19cd92-9144-4b58-895d-899385b260dc","system_id":"levelo_inurba_marseille","lat":43.25572,"lon":5.38235,"is_reserved":false,"is_disabled":false,"rental_uris":{"android":"levelo://app?vid=0a19cd92-9144-4b58-895d-899385b260dc","ios":"levelo://app?vid=0a19cd92-9144-4b58-895d-899385b260dc"},"vehicle_type_id":"4","last_reported":1758539322,"current_range_meters":12000,"station_id":"ce4bhih2rcd13ifvqfs0","pricing_plan_id":"cebpf4jnsgd1na2vs0mg"},{"bike_id":"9bce4524-09d5-4a68-a44a-376c0568210b","system_id":"levelo_inurba_marseille","lat":43.31179,"lon":5.38703,"is_reserved":false,"is_disabled":false,"rental_uris":{"android":"levelo://app?vid=9bce4524-09d5-4a68-a44a-376c0568210b","ios":"levelo://app?vid=9bce4524-09d5-4a68-a44a-376c0568210b"},"vehicle_type_id":"4","last_reported":1758539322,"current_range_meters":12000,"station_id":"ce4bgv12rcd13ifvqcp0","pricing_plan_id":"cebpf4jnsgd1na2vs0mg"},{"bike_id":"6e462536-3a01-4092-9490-0b0d7831c7b9","system_id":"levelo_inurba_marseille","lat":43.29523,"lon":5.38917,"is_reserved":false,"is_disabled":false,"rental_uris":{"android":"levelo://app?vid=6e462536-3a01-4092-9490-0b0d7831c7b9","ios":"levelo://app?vid=6e462536-3a01-4092-9490-0b0d7831c7b9"},"vehicle_type_id":"4","last_reported":1758539322,"current_range_meters":12400,"station_id":"","pricing_plan_id":"cebpf4jnsgd1na2vs0mg"},{"bike_id":"c46575d3-d222-4081-9970-3a38bb708282","system_id":"levelo_inurba_marseille","lat":43.229312,"lon":5.353761,"is_reserved":false,"is_disabled":false,"rental_uris":{"android":"levelo://app?vid=c46575d3-d222-4081-9970-3a38bb708282","ios":"levelo://app?vid=c46575d3-d222-4081-9970-3a38bb708282"},"vehicle_type_id":"4","last_reported":1758539322,"current_range_meters":12400,"station_id":"cpo3532slgdg3j2ikp40","pricing_plan_id":"cebpf4jnsgd1na2vs0mg"},{"bike_id":"43d57fd4-047e-4ac8-97e5-ec9b96239472","system_id":"levelo_inurba_marseille","lat":43.33123,"lon":5.39726,"is_reserved":false,"is_disabled":false,"rental_uris":{"android":"levelo://app?vid=43d57fd4-047e-4ac8-97e5-ec9b96239472","ios":"levelo://app?vid=43d57fd4-047e-4ac8-97e5-ec9b96239472"},"vehicle_type_id":"4","last_reported":1758539322,"current_range_meters":12400,"station_id":"","pricing_plan_id":"cebpf4jnsgd1na2vs0mg"},{"bike_id":"3e1c5011-21a6-4a5f-8f1d-78d4596198d8","system_id":"levelo_inurba_marseille","lat":43.24079,"lon":5.37749,"is_reserved":false,"is_disabled":false,"rental_uris":{"android":"levelo://app?vid=3e1c5011-21a6-4a5f-8f1d-78d4596198d8","ios":"levelo://app?vid=3e1c5011-21a6-4a5f-8f1d-78d4596198d8"},"vehicle_type_id":"4","last_reported":1758539322,"current_range_meters":12400,"station_id":"ce4bhnp2rcd13ifvqgvg","pricing_plan_id":"cebpf4jnsgd1na2vs0mg"},{"bike_id":"0e3fe692-0715-4b11-84d0-e197b805536d","system_id":"levelo_inurba_marseille","lat":43.33598,"lon":5.41026,"is_reserved":false,"is_disabled":false,"rental_uris":{"android":"levelo://app?vid=0e3fe692-0715-4b11-84d0-e197b805536d","ios":"levelo://app?vid=0e3fe692-0715-4b11-84d0-e197b805536d"},"vehicle_type_id":"4","last_reported":1758539322,"current_range_meters":12800,"station_id":"ce4bhqh2rcd13ifvqhmg","pricing_plan_id":"cebpf4jnsgd1na2vs0mg"},{"bike_id":"d64a3c34-4f58-4a33-9858-96d7eeac0575","system_id":"levelo_inurba_marseille","lat":43.22933,"lon":5.35364,"is_reserved":false,"is_disabled":false,"rental_uris":{"android":"levelo://app?vid=d64a3c34-4f58-4a33-9858-96d7eeac0575","ios":"levelo://app?vid=d64a3c34-4f58-4a33-9858-96d7eeac0575"},"vehicle_type_id":"4","last_reported":1758539322,"current_range_meters":12800,"station_id":"cpo3532slgdg3j2ikp40","pricing_plan_id":"cebpf4jnsgd1na2vs0mg"},{"bike_id":"f19dfb17-2376-43e9-8258-57b17b96e508","system_id":"levelo_inurba_marseille","lat":43.217453,"lon":5.346022,"is_reserved":false,"is_disabled":false,"rental_uris":{"android":"levelo://app?vid=f19dfb17-2376-43e9-8258-57b17b96e508","ios":"levelo://app?vid=f19dfb17-2376-43e9-8258-57b17b96e508"},"vehicle_type_id":"4","last_reported":1758539322,"current_range_meters":12800,"station_id":"st_cvj6r9ubvosntc0bgbag","pricing_plan_id":"cebpf4jnsgd1na2vs0mg"},{"bike_id":"a7e0fcb1-7f23-4053-a317-0cae7d88620c","system_id":"levelo_inurba_marseille","lat":43.3053,"lon":5.36549,"is_reserved":false,"is_disabled":false,"rental_uris":{"android":"levelo://app?vid=a7e0fcb1-7f23-4053-a317-0cae7d88620c","ios":"levelo://app?vid=a7e0fcb1-7f23-4053-a317-0cae7d88620c"},"vehicle_type_id":"4","last_reported":1758539322,"current_range_meters":12800,"station_id":"ce4bgs12rcd13ifvqcag","pricing_plan_id":"cebpf4jnsgd1na2vs0mg"},{"bike_id":"8ea42e7e-c36e-4e39-9c01-75a5e310f89d","system_id":"levelo_inurba_marseille","lat":43.28486,"lon":5.38408,"is_reserved":false,"is_disabled":false,"rental_uris":{"android":"levelo://app?vid=8ea42e7e-c36e-4e39-9c01-75a5e310f89d","ios":"levelo://app?vid=8ea42e7e-c36e-4e39-9c01-75a5e310f89d"},"vehicle_type_id":"4","last_reported":1758539322,"current_range_meters":12800,"station_id":"ce4bh512rcd13ifvqe3g","pricing_plan_id":"cebpf4jnsgd1na2vs0mg"},{"bike_id":"5803c584-2718-47aa-861b-c892ce6469e1","system_id":"levelo_inurba_marseille","lat":43.30791,"lon":5.38167,"is_reserved":false,"is_disabled":false,"rental_uris":{"android":"levelo://app?vid=5803c584-2718-47aa-861b-c892ce6469e1","ios":"levelo://app?vid=5803c584-2718-47aa-861b-c892ce6469e1"},"vehicle_type_id":"4","last_reported":1758539322,"current_range_meters":12800,"station_id":"ce4bgt12rcd13ifvqce0","pricing_plan_id":"cebpf4jnsgd1na2vs0mg"},{"bike_id":"aa615de6-88cf-4553-9e37-2b398204d202","system_id":"levelo_inurba_marseille","lat":43.21187,"lon":5.35075,"is_reserved":false,"is_disabled":false,"rental_uris":{"android":"levelo://app?vid=aa615de6-88cf-4553-9e37-2b398204d202","ios":"levelo://app?vid=aa615de6-88cf-4553-9e37-2b398204d202"},"vehicle_type_id":"4","last_reported":1758539322,"current_range_meters":13600,"station_id":"st_cvj6sg6p6f1abm77japg","pricing_plan_id":"cebpf4jnsgd1na2vs0mg"},{"bike_id":"2856ea7f-80d3-4041-9a34-8846fb61b455","system_id":"levelo_inurba_marseille","lat":43.285442,"lon":5.387867,"is_reserved":false,"is_disabled":true,"rental_uris":{"android":"levelo://app?vid=2856ea7f-80d3-4041-9a34-8846fb61b455","ios":"levelo://app?vid=2856ea7f-80d3-4041-9a34-8846fb61b455"},"vehicle_type_id":"4","last_reported":1758539322,"current_range_meters":13600,"station_id":"","pricing_plan_id":"cebpf4jnsgd1na2vs0mg"},{"bike_id":"423aeb91-69f4-4522-916b-76a472005736","system_id":"levelo_inurba_marseille","lat":43.31475,"lon":5.38036,"is_reserved":false,"is_disabled":false,"rental_uris":{"android":"levelo://app?vid=423aeb91-69f4-4522-916b-76a472005736","ios":"levelo://app?vid=423aeb91-69f4-4522-916b-76a472005736"},"vehicle_type_id":"4","last_reported":1758539322,"current_range_meters":13600,"station_id":"","pricing_plan_id":"cebpf4jnsgd1na2vs0mg"},{"bike_id":"508a8089-8c47-44b7-8613-0846ac4f89c6","system_id":"levelo_inurba_marseille","lat":43.27203,"lon":5.39169,"is_reserved":false,"is_disabled":false,"rental_uris":{"android":"levelo://app?vid=508a8089-8c47-44b7-8613-0846ac4f89c6","ios":"levelo://app?vid=508a8089-8c47-44b7-8613-0846ac4f89c6"},"vehicle_type_id":"4","last_reported":1758539322,"current_range_meters":13600,"station_id":"ce4bhhp2rcd13ifvqfm0","pricing_plan_id":"cebpf4jnsgd1na2vs0mg"},{"bike_id":"b0ece6dd-02df-4a38-b85c-23b3341d3a19","system_id":"levelo_inurba_marseille","lat":43.3025,"lon":5.4008,"is_reserved":false,"is_disabled":true,"rental_uris":{"android":"levelo://app?vid=b0ece6dd-02df-4a38-b85c-23b3341d3a19","ios":"levelo://app?vid=b0ece6dd-02df-4a38-b85c-23b3341d3a19"},"vehicle_type_id":"4","last_reported":1758539322,"current_range_meters":13600,"station_id":"ce4bgvh2rcd13ifvqcs0","pricing_plan_id":"cebpf4jnsgd1na2vs0mg"},{"bike_id":"a1f2106a-d7b4-470e-9f0e-1ce81c07f350","system_id":"levelo_inurba_marseille","lat":43.27834,"lon":5.39205,"is_reserved":false,"is_disabled":false,"rental_uris":{"android":"levelo://app?vid=a1f2106a-d7b4-470e-9f0e-1ce81c07f350","ios":"levelo://app?vid=a1f2106a-d7b4-470e-9f0e-1ce81c07f350"},"vehicle_type_id":"4","last_reported":1758539322,"current_range_meters":14000,"station_id":"ce4bhjp2rcd13ifvqga0","pricing_plan_id":"cebpf4jnsgd1na2vs0mg"},{"bike_id":"4c011120-58cb-47bd-988b-7f1cba38a456","system_id":"levelo_inurba_marseille","lat":43.24616,"lon":5.43155,"is_reserved":false,"is_disabled":false,"rental_uris":{"android":"levelo://app?vid=4c011120-58cb-47bd-988b-7f1cba38a456","ios":"levelo://app?vid=4c011120-58cb-47bd-988b-7f1cba38a456"},"vehicle_type_id":"4","last_reported":1758539322,"current_range_meters":14000,"station_id":"st_d2m6c4gdas8pm72e190g","pricing_plan_id":"cebpf4jnsgd1na2vs0mg"},{"bike_id":"efe89e27-9e84-475b-857f-f8e46a983c2e","system_id":"levelo_inurba_marseille","lat":43.307974,"lon":5.435266,"is_reserved":false,"is_disabled":false,"rental_uris":{"android":"levelo://app?vid=efe89e27-9e84-475b-857f-f8e46a983c2e","ios":"levelo://app?vid=efe89e27-9e84-475b-857f-f8e46a983c2e"},"vehicle_type_id":"4","last_reported":1758539322,"current_range_meters":14000,"station_id":"ce4bhph2rcd13ifvqheg","pricing_plan_id":"cebpf4jnsgd1na2vs0mg"},{"bike_id":"734f7642-3883-459d-a35c-8b9c5ee266ae","system_id":"levelo_inurba_marseille","lat":43.27057,"lon":5.42273,"is_reserved":false,"is_disabled":false,"rental_uris":{"android":"levelo://app?vid=734f7642-3883-459d-a35c-8b9c5ee266ae","ios":"levelo://app?vid=734f7642-3883-459d-a35c-8b9c5ee266ae"},"vehicle_type_id":"4","last_reported":1758539322,"current_range_meters":14400,"station_id":"ce4bhk92rcd13ifvqgb0","pricing_plan_id":"cebpf4jnsgd1na2vs0mg"},{"bike_id":"94dc763b-5c60-4e8c-a6fc-573bcaf8f7f0","system_id":"levelo_inurba_marseille","lat":43.32472,"lon":5.36569,"is_reserved":false,"is_disabled":false,"rental_uris":{"android":"levelo://app?vid=94dc763b-5c60-4e8c-a6fc-573bcaf8f7f0","ios":"levelo://app?vid=94dc763b-5c60-4e8c-a6fc-573bcaf8f7f0"},"vehicle_type_id":"4","last_reported":1758539322,"current_range_meters":14400,"station_id":"ce4bhs12rcd13ifvqhvg","pricing_plan_id":"cebpf4jnsgd1na2vs0mg"},{"bike_id":"51d92c87-aa59-4783-b818-f9c5a7eebd73","system_id":"levelo_inurba_marseille","lat":43.29515,"lon":5.37395,"is_reserved":false,"is_disabled":false,"rental_uris":{"android":"levelo://app?vid=51d92c87-aa59-4783-b818-f9c5a7eebd73","ios":"levelo://app?vid=51d92c87-aa59-4783-b818-f9c5a7eebd73"},"vehicle_type_id":"4","last_reported":1758539322,"current_range_meters":14400,"station_id":"","pricing_plan_id":"cebpf4jnsgd1na2vs0mg"},{"bike_id":"32fac071-f6e0-41de-94f0-cddd790a84ef","system_id":"levelo_inurba_marseille","lat":43.2845,"lon":5.39178,"is_reserved":false,"is_disabled":false,"rental_uris":{"android":"levelo://app?vid=32fac071-f6e0-41de-94f0-cddd790a84ef","ios":"levelo://app?vid=32fac071-f6e0-41de-94f0-cddd790a84ef"},"vehicle_type_id":"4","last_reported":1758539322,"current_range_meters":14400,"station_id":"ce4bhoh2rcd13ifvqh5g","pricing_plan_id":"cebpf4jnsgd1na2vs0mg"},{"bike_id":"ec14155c-f9ac-4f1a-ba06-934b61e8e6c8","system_id":"levelo_inurba_marseille","lat":43.32494,"lon":5.36607,"is_reserved":false,"is_disabled":false,"rental_uris":{"android":"levelo://app?vid=ec14155c-f9ac-4f1a-ba06-934b61e8e6c8","ios":"levelo://app?vid=ec14155c-f9ac-4f1a-ba06-934b61e8e6c8"},"vehicle_type_id":"4","last_reported":1758539322,"current_range_meters":14400,"station_id":"ce4bhs12rcd13ifvqhvg","pricing_plan_id":"cebpf4jnsgd1na2vs0mg"},{"bike_id":"db570ca9-86eb-41ab-ada3-df26c9dc67e3","system_id":"levelo_inurba_marseille","lat":43.29867,"lon":5.389,"is_reserved":false,"is_disabled":false,"rental_uris":{"android":"levelo://app?vid=db570ca9-86eb-41ab-ada3-df26c9dc67e3","ios":"levelo://app?vid=db570ca9-86eb-41ab-ada3-df26c9dc67e3"},"vehicle_type_id":"4","last_reported":1758539322,"current_range_meters":14400,"station_id":"ce4bh392rcd13ifvqdl0","pricing_plan_id":"cebpf4jnsgd1na2vs0mg"},{"bike_id":"210bb739-a5f8-403c-9a4e-b04242cdb7a9","system_id":"levelo_inurba_marseille","lat":43.28869,"lon":5.42517,"is_reserved":false,"is_disabled":false,"rental_uris":{"android":"levelo://app?vid=210bb739-a5f8-403c-9a4e-b04242cdb7a9","ios":"levelo://app?vid=210bb739-a5f8-403c-9a4e-b04242cdb7a9"},"vehicle_type_id":"4","last_reported":1758539322,"current_range_meters":14400,"station_id":"ce4bhn92rcd13ifvqgrg","pricing_plan_id":"cebpf4jnsgd1na2vs0mg"},{"bike_id":"f0fca713-2b9c-4144-bedb-3a48811b75eb","system_id":"levelo_inurba_marseille","lat":43.32289,"lon":5.38291,"is_reserved":false,"is_disabled":false,"rental_uris":{"android":"levelo://app?vid=f0fca713-2b9c-4144-bedb-3a48811b75eb","ios":"levelo://app?vid=f0fca713-2b9c-4144-bedb-3a48811b75eb"},"vehicle_type_id":"4","last_reported":1758539322,"current_range_meters":14400,"station_id":"ce4bhr12rcd13ifvqhqg","pricing_plan_id":"cebpf4jnsgd1na2vs0mg"},{"bike_id":"e864b37c-d86e-43e4-ba72-890ce6e38fc9","system_id":"levelo_inurba_marseille","lat":43.244,"lon":5.37071,"is_reserved":false,"is_disabled":false,"rental_uris":{"android":"levelo://app?vid=e864b37c-d86e-43e4-ba72-890ce6e38fc9","ios":"levelo://app?vid=e864b37c-d86e-43e4-ba72-890ce6e38fc9"},"vehicle_type_id":"4","last_reported":1758539322,"current_range_meters":14400,"station_id":"ce4bhhh2rcd13ifvqfk0","pricing_plan_id":"cebpf4jnsgd1na2vs0mg"},{"bike_id":"2f267a33-c8c7-41f8-a694-b9be19da13a1","system_id":"levelo_inurba_marseille","lat":43.30327,"lon":5.40433,"is_reserved":false,"is_disabled":false,"rental_uris":{"android":"levelo://app?vid=2f267a33-c8c7-41f8-a694-b9be19da13a1","ios":"levelo://app?vid=2f267a33-c8c7-41f8-a694-b9be19da13a1"},"vehicle_type_id":"4","last_reported":1758539322,"current_range_meters":14400,"station_id":"ce4bh012rcd13ifvqd10","pricing_plan_id":"cebpf4jnsgd1na2vs0mg"},{"bike_id":"c245c3d5-657b-45bf-8d19-6a15facc18c0","system_id":"levelo_inurba_marseille","lat":43.29004,"lon":5.35606,"is_reserved":false,"is_disabled":false,"rental_uris":{"android":"levelo://app?vid=c245c3d5-657b-45bf-8d19-6a15facc18c0","ios":"levelo://app?vid=c245c3d5-657b-45bf-8d19-6a15facc18c0"},"vehicle_type_id":"4","last_reported":1758539322,"current_range_meters":14800,"station_id":"ce4bhb92rcd13ifvqen0","pricing_plan_id":"cebpf4jnsgd1na2vs0mg"},{"bike_id":"bcc26225-3fc0-4f7b-b807-ef403cb82bf9","system_id":"levelo_inurba_marseille","lat":43.265515,"lon":5.372773,"is_reserved":false,"is_disabled":false,"rental_uris":{"android":"levelo://app?vid=bcc26225-3fc0-4f7b-b807-ef403cb82bf9","ios":"levelo://app?vid=bcc26225-3fc0-4f7b-b807-ef403cb82bf9"},"vehicle_type_id":"4","last_reported":1758539322,"current_range_meters":14800,"station_id":"ce4bhg12rcd13ifvqf70","pricing_plan_id":"cebpf4jnsgd1na2vs0mg"},{"bike_id":"fe7671b2-54cb-4506-b080-09dbb33364a9","system_id":"levelo_inurba_marseille","lat":43.27369,"lon":5.36255,"is_reserved":false,"is_disabled":false,"rental_uris":{"android":"levelo://app?vid=fe7671b2-54cb-4506-b080-09dbb33364a9","ios":"levelo://app?vid=fe7671b2-54cb-4506-b080-09dbb33364a9"},"vehicle_type_id":"4","last_reported":1758539322,"current_range_meters":14800,"station_id":"ce4bhbh2rcd13ifvqeo0","pricing_plan_id":"cebpf4jnsgd1na2vs0mg"},{"bike_id":"f99de4a9-9420-4d0b-8cc7-d53cf6e86206","system_id":"levelo_inurba_marseille","lat":43.24071,"lon":5.3776,"is_reserved":false,"is_disabled":false,"rental_uris":{"android":"levelo://app?vid=f99de4a9-9420-4d0b-8cc7-d53cf6e86206","ios":"levelo://app?vid=f99de4a9-9420-4d0b-8cc7-d53cf6e86206"},"vehicle_type_id":"4","last_reported":1758539322,"current_range_meters":14800,"station_id":"ce4bhnp2rcd13ifvqgvg","pricing_plan_id":"cebpf4jnsgd1na2vs0mg"},{"bike_id":"650162a6-8f2b-490a-9c15-bd9a57f23a4e","system_id":"levelo_inurba_marseille","lat":43.295319,"lon":5.375022,"is_reserved":false,"is_disabled":true,"rental_uris":{"android":"levelo://app?vid=650162a6-8f2b-490a-9c15-bd9a57f23a4e","ios":"levelo://app?vid=650162a6-8f2b-490a-9c15-bd9a57f23a4e"},"vehicle_type_id":"4","last_reported":1758539322,"current_range_meters":15200,"station_id":"ce4bgkp2rcd13ifvqbmg","pricing_plan_id":"cebpf4jnsgd1na2vs0mg"},{"bike_id":"cc9b340a-58e6-471b-8dd7-6de01648f094","system_id":"levelo_inurba_marseille","lat":43.26546,"lon":5.37288,"is_reserved":false,"is_disabled":true,"rental_uris":{"android":"levelo://app?vid=cc9b340a-58e6-471b-8dd7-6de01648f094","ios":"levelo://app?vid=cc9b340a-58e6-471b-8dd7-6de01648f094"},"vehicle_type_id":"4","last_reported":1758539322,"current_range_meters":15200,"station_id":"ce4bhg12rcd13ifvqf70","pricing_plan_id":"cebpf4jnsgd1na2vs0mg"},{"bike_id":"94d430e6-52b3-4d21-80c9-c6dd4519a8fb","system_id":"levelo_inurba_marseille","lat":43.31775,"lon":5.38281,"is_reserved":false,"is_disabled":false,"rental_uris":{"android":"levelo://app?vid=94d430e6-52b3-4d21-80c9-c6dd4519a8fb","ios":"levelo://app?vid=94d430e6-52b3-4d21-80c9-c6dd4519a8fb"},"vehicle_type_id":"4","last_reported":1758539322,"current_range_meters":15200,"station_id":"","pricing_plan_id":"cebpf4jnsgd1na2vs0mg"},{"bike_id":"e5eda4b8-0e9b-4c7b-9930-78ff375b2b8d","system_id":"levelo_inurba_marseille","lat":43.27204,"lon":5.39176,"is_reserved":false,"is_disabled":false,"rental_uris":{"android":"levelo://app?vid=e5eda4b8-0e9b-4c7b-9930-78ff375b2b8d","ios":"levelo://app?vid=e5eda4b8-0e9b-4c7b-9930-78ff375b2b8d"},"vehicle_type_id":"4","last_reported":1758539322,"current_range_meters":15200,"station_id":"ce4bhhp2rcd13ifvqfm0","pricing_plan_id":"cebpf4jnsgd1na2vs0mg"},{"bike_id":"b2be2404-53eb-4f74-9829-8104df3de106","system_id":"levelo_inurba_marseille","lat":43.336027,"lon":5.354435,"is_reserved":false,"is_disabled":false,"rental_uris":{"android":"levelo://app?vid=b2be2404-53eb-4f74-9829-8104df3de106","ios":"levelo://app?vid=b2be2404-53eb-4f74-9829-8104df3de106"},"vehicle_type_id":"4","last_reported":1758539322,"current_range_meters":15200,"station_id":"","pricing_plan_id":"cebpf4jnsgd1na2vs0mg"},{"bike_id":"42f35096-0a50-4172-93e3-86175b8631f6","system_id":"levelo_inurba_marseille","lat":43.28623,"lon":5.35093,"is_reserved":false,"is_disabled":false,"rental_uris":{"android":"levelo://app?vid=42f35096-0a50-4172-93e3-86175b8631f6","ios":"levelo://app?vid=42f35096-0a50-4172-93e3-86175b8631f6"},"vehicle_type_id":"4","last_reported":1758539322,"current_range_meters":15200,"station_id":"ce4bhch2rcd13ifvqeug","pricing_plan_id":"cebpf4jnsgd1na2vs0mg"},{"bike_id":"d80cb768-6893-4d2e-b91c-58c7f98e4468","system_id":"levelo_inurba_marseille","lat":43.27065,"lon":5.42272,"is_reserved":false,"is_disabled":false,"rental_uris":{"android":"levelo://app?vid=d80cb768-6893-4d2e-b91c-58c7f98e4468","ios":"levelo://app?vid=d80cb768-6893-4d2e-b91c-58c7f98e4468"},"vehicle_type_id":"4","last_reported":1758539322,"current_range_meters":16000,"station_id":"ce4bhk92rcd13ifvqgb0","pricing_plan_id":"cebpf4jnsgd1na2vs0mg"},{"bike_id":"5f842832-4ff8-49ff-8ba3-51ff241068df","system_id":"levelo_inurba_marseille","lat":43.27206,"lon":5.39192,"is_reserved":false,"is_disabled":false,"rental_uris":{"android":"levelo://app?vid=5f842832-4ff8-49ff-8ba3-51ff241068df","ios":"levelo://app?vid=5f842832-4ff8-49ff-8ba3-51ff241068df"},"vehicle_type_id":"4","last_reported":1758539322,"current_range_meters":16000,"station_id":"ce4bhhp2rcd13ifvqfm0","pricing_plan_id":"cebpf4jnsgd1na2vs0mg"},{"bike_id":"28dda9ae-0047-447f-827c-1e281edb2265","system_id":"levelo_inurba_marseille","lat":43.27203,"lon":5.39174,"is_reserved":false,"is_disabled":false,"rental_uris":{"android":"levelo://app?vid=28dda9ae-0047-447f-827c-1e281edb2265","ios":"levelo://app?vid=28dda9ae-0047-447f-827c-1e281edb2265"},"vehicle_type_id":"4","last_reported":1758539322,"current_range_meters":16000,"station_id":"ce4bhhp2rcd13ifvqfm0","pricing_plan_id":"cebpf4jnsgd1na2vs0mg"},{"bike_id":"75420f63-53cd-431a-8186-9ba8a6a97983","system_id":"levelo_inurba_marseille","lat":43.30246,"lon":5.40068,"is_reserved":false,"is_disabled":false,"rental_uris":{"android":"levelo://app?vid=75420f63-53cd-431a-8186-9ba8a6a97983","ios":"levelo://app?vid=75420f63-53cd-431a-8186-9ba8a6a97983"},"vehicle_type_id":"4","last_reported":1758539322,"current_range_meters":16000,"station_id":"ce4bgvh2rcd13ifvqcs0","pricing_plan_id":"cebpf4jnsgd1na2vs0mg"},{"bike_id":"ef75d15d-c28a-4fe7-853a-ed887e41d629","system_id":"levelo_inurba_marseille","lat":43.21749,"lon":5.34598,"is_reserved":false,"is_disabled":false,"rental_uris":{"android":"levelo://app?vid=ef75d15d-c28a-4fe7-853a-ed887e41d629","ios":"levelo://app?vid=ef75d15d-c28a-4fe7-853a-ed887e41d629"},"vehicle_type_id":"4","last_reported":1758539322,"current_range_meters":16000,"station_id":"st_cvj6r9ubvosntc0bgbag","pricing_plan_id":"cebpf4jnsgd1na2vs0mg"},{"bike_id":"9883b857-b7ee-4379-901e-a694e35b26d7","system_id":"levelo_inurba_marseille","lat":43.302465,"lon":5.400845,"is_reserved":false,"is_disabled":false,"rental_uris":{"android":"levelo://app?vid=9883b857-b7ee-4379-901e-a694e35b26d7","ios":"levelo://app?vid=9883b857-b7ee-4379-901e-a694e35b26d7"},"vehicle_type_id":"4","last_reported":1758539322,"current_range_meters":16000,"station_id":"ce4bgvh2rcd13ifvqcs0","pricing_plan_id":"cebpf4jnsgd1na2vs0mg"},{"bike_id":"79283b38-dc80-4f94-85b8-68b3f2bd084a","system_id":"levelo_inurba_marseille","lat":43.28693,"lon":5.37393,"is_reserved":false,"is_disabled":false,"rental_uris":{"android":"levelo://app?vid=79283b38-dc80-4f94-85b8-68b3f2bd084a","ios":"levelo://app?vid=79283b38-dc80-4f94-85b8-68b3f2bd084a"},"vehicle_type_id":"4","last_reported":1758539322,"current_range_meters":16000,"station_id":"ce4bh3p2rcd13ifvqdq0","pricing_plan_id":"cebpf4jnsgd1na2vs0mg"},{"bike_id":"fc7b9b71-96d0-4c3c-8041-ae36b22c862b","system_id":"levelo_inurba_marseille","lat":43.26173,"lon":5.37408,"is_reserved":false,"is_disabled":true,"rental_uris":{"android":"levelo://app?vid=fc7b9b71-96d0-4c3c-8041-ae36b22c862b","ios":"levelo://app?vid=fc7b9b71-96d0-4c3c-8041-ae36b22c862b"},"vehicle_type_id":"4","last_reported":1758539322,"current_range_meters":16000,"station_id":"ce4bhgp2rcd13ifvqfc0","pricing_plan_id":"cebpf4jnsgd1na2vs0mg"},{"bike_id":"0446bd45-ae2c-480c-960e-837738f17775","system_id":"levelo_inurba_marseille","lat":43.28267,"lon":5.35068,"is_reserved":false,"is_disabled":false,"rental_uris":{"android":"levelo://app?vid=0446bd45-ae2c-480c-960e-837738f17775","ios":"levelo://app?vid=0446bd45-ae2c-480c-960e-837738f17775"},"vehicle_type_id":"4","last_reported":1758539322,"current_range_meters":16400,"station_id":"ce4bhbp2rcd13ifvqerg","pricing_plan_id":"cebpf4jnsgd1na2vs0mg"},{"bike_id":"15609c4e-f589-422c-9a62-c8d2d4eb92fd","system_id":"levelo_inurba_marseille","lat":43.310754,"lon":5.401258,"is_reserved":false,"is_disabled":false,"rental_uris":{"android":"levelo://app?vid=15609c4e-f589-422c-9a62-c8d2d4eb92fd","ios":"levelo://app?vid=15609c4e-f589-422c-9a62-c8d2d4eb92fd"},"vehicle_type_id":"4","last_reported":1758539322,"current_range_meters":16400,"station_id":"","pricing_plan_id":"cebpf4jnsgd1na2vs0mg"},{"bike_id":"6c2ccec1-b13f-4ca6-9191-d1ab1fc484ed","system_id":"levelo_inurba_marseille","lat":43.21187,"lon":5.35073,"is_reserved":false,"is_disabled":false,"rental_uris":{"android":"levelo://app?vid=6c2ccec1-b13f-4ca6-9191-d1ab1fc484ed","ios":"levelo://app?vid=6c2ccec1-b13f-4ca6-9191-d1ab1fc484ed"},"vehicle_type_id":"4","last_reported":1758539322,"current_range_meters":16400,"station_id":"st_cvj6sg6p6f1abm77japg","pricing_plan_id":"cebpf4jnsgd1na2vs0mg"},{"bike_id":"41846c7a-11ba-4e5c-af30-4ae4073ed07c","system_id":"levelo_inurba_marseille","lat":43.30134,"lon":5.39851,"is_reserved":false,"is_disabled":false,"rental_uris":{"android":"levelo://app?vid=41846c7a-11ba-4e5c-af30-4ae4073ed07c","ios":"levelo://app?vid=41846c7a-11ba-4e5c-af30-4ae4073ed07c"},"vehicle_type_id":"4","last_reported":1758539322,"current_range_meters":16400,"station_id":"ce4bh0h2rcd13ifvqd40","pricing_plan_id":"cebpf4jnsgd1na2vs0mg"},{"bike_id":"34072093-f9b6-4017-998e-95b181d82c91","system_id":"levelo_inurba_marseille","lat":43.29465,"lon":5.38815,"is_reserved":false,"is_disabled":false,"rental_uris":{"android":"levelo://app?vid=34072093-f9b6-4017-998e-95b181d82c91","ios":"levelo://app?vid=34072093-f9b6-4017-998e-95b181d82c91"},"vehicle_type_id":"4","last_reported":1758539322,"current_range_meters":16400,"station_id":"","pricing_plan_id":"cebpf4jnsgd1na2vs0mg"},{"bike_id":"7e0e6d73-2282-41eb-a255-95c1cba4973c","system_id":"levelo_inurba_marseille","lat":43.28938,"lon":5.36636,"is_reserved":false,"is_disabled":false,"rental_uris":{"android":"levelo://app?vid=7e0e6d73-2282-41eb-a255-95c1cba4973c","ios":"levelo://app?vid=7e0e6d73-2282-41eb-a255-95c1cba4973c"},"vehicle_type_id":"4","last_reported":1758539322,"current_range_meters":17600,"station_id":"ce4bhap2rcd13ifvqek0","pricing_plan_id":"cebpf4jnsgd1na2vs0mg"},{"bike_id":"0163730e-f682-4707-a459-be35b6d5d3a4","system_id":"levelo_inurba_marseille","lat":43.33022,"lon":5.39036,"is_reserved":false,"is_disabled":false,"rental_uris":{"android":"levelo://app?vid=0163730e-f682-4707-a459-be35b6d5d3a4","ios":"levelo://app?vid=0163730e-f682-4707-a459-be35b6d5d3a4"},"vehicle_type_id":"4","last_reported":1758539322,"current_range_meters":16800,"station_id":"ce4bhr92rcd13ifvqhrg","pricing_plan_id":"cebpf4jnsgd1na2vs0mg"},{"bike_id":"e5fc73a5-82dc-40f4-adf8-1a9a179afe48","system_id":"levelo_inurba_marseille","lat":43.26028,"lon":5.37542,"is_reserved":false,"is_disabled":false,"rental_uris":{"android":"levelo://app?vid=e5fc73a5-82dc-40f4-adf8-1a9a179afe48","ios":"levelo://app?vid=e5fc73a5-82dc-40f4-adf8-1a9a179afe48"},"vehicle_type_id":"4","last_reported":1758539322,"current_range_meters":16800,"station_id":"ce4bhgh2rcd13ifvqfa0","pricing_plan_id":"cebpf4jnsgd1na2vs0mg"},{"bike_id":"bfc0bacd-b93a-45a9-8a6f-14bbfc2ef3c4","system_id":"levelo_inurba_marseille","lat":43.28449,"lon":5.35893,"is_reserved":false,"is_disabled":false,"rental_uris":{"android":"levelo://app?vid=bfc0bacd-b93a-45a9-8a6f-14bbfc2ef3c4","ios":"levelo://app?vid=bfc0bacd-b93a-45a9-8a6f-14bbfc2ef3c4"},"vehicle_type_id":"4","last_reported":1758539322,"current_range_meters":16400,"station_id":"ce4bhah2rcd13ifvqei0","pricing_plan_id":"cebpf4jnsgd1na2vs0mg"},{"bike_id":"6210641e-392b-400e-990b-b6f0b5af54f0","system_id":"levelo_inurba_marseille","lat":43.32352,"lon":5.3672,"is_reserved":false,"is_disabled":false,"rental_uris":{"android":"levelo://app?vid=6210641e-392b-400e-990b-b6f0b5af54f0","ios":"levelo://app?vid=6210641e-392b-400e-990b-b6f0b5af54f0"},"vehicle_type_id":"4","last_reported":1758539322,"current_range_meters":16800,"station_id":"ce4bhsh2rcd13ifvqi2g","pricing_plan_id":"cebpf4jnsgd1na2vs0mg"},{"bike_id":"4519ded0-f3b9-42bd-af35-e69456d100e8","system_id":"levelo_inurba_marseille","lat":43.29273,"lon":5.38347,"is_reserved":false,"is_disabled":false,"rental_uris":{"android":"levelo://app?vid=4519ded0-f3b9-42bd-af35-e69456d100e8","ios":"levelo://app?vid=4519ded0-f3b9-42bd-af35-e69456d100e8"},"vehicle_type_id":"4","last_reported":1758539322,"current_range_meters":16800,"station_id":"","pricing_plan_id":"cebpf4jnsgd1na2vs0mg"},{"bike_id":"df1dfc6f-ed41-43d8-aa4d-f1e91b76d7fe","system_id":"levelo_inurba_marseille","lat":43.25025,"lon":5.389115,"is_reserved":false,"is_disabled":false,"rental_uris":{"android":"levelo://app?vid=df1dfc6f-ed41-43d8-aa4d-f1e91b76d7fe","ios":"levelo://app?vid=df1dfc6f-ed41-43d8-aa4d-f1e91b76d7fe"},"vehicle_type_id":"4","last_reported":1758539322,"current_range_meters":17200,"station_id":"ce4bhgp2rcd13ifvqfd0","pricing_plan_id":"cebpf4jnsgd1na2vs0mg"},{"bike_id":"4db55b8c-211f-4a3e-9da9-d7249e4703aa","system_id":"levelo_inurba_marseille","lat":43.28486,"lon":5.3801,"is_reserved":false,"is_disabled":false,"rental_uris":{"android":"levelo://app?vid=4db55b8c-211f-4a3e-9da9-d7249e4703aa","ios":"levelo://app?vid=4db55b8c-211f-4a3e-9da9-d7249e4703aa"},"vehicle_type_id":"4","last_reported":1758539322,"current_range_meters":17200,"station_id":"","pricing_plan_id":"cebpf4jnsgd1na2vs0mg"},{"bike_id":"ec2660f7-68b1-4255-8dc4-559a4741aea0","system_id":"levelo_inurba_marseille","lat":43.30535,"lon":5.36523,"is_reserved":false,"is_disabled":false,"rental_uris":{"android":"levelo://app?vid=ec2660f7-68b1-4255-8dc4-559a4741aea0","ios":"levelo://app?vid=ec2660f7-68b1-4255-8dc4-559a4741aea0"},"vehicle_type_id":"4","last_reported":1758539322,"current_range_meters":17200,"station_id":"ce4bgs12rcd13ifvqcag","pricing_plan_id":"cebpf4jnsgd1na2vs0mg"},{"bike_id":"6b0e78fb-e15f-41b1-a191-b4b5ca219d2a","system_id":"levelo_inurba_marseille","lat":43.25692,"lon":5.41127,"is_reserved":false,"is_disabled":false,"rental_uris":{"android":"levelo://app?vid=6b0e78fb-e15f-41b1-a191-b4b5ca219d2a","ios":"levelo://app?vid=6b0e78fb-e15f-41b1-a191-b4b5ca219d2a"},"vehicle_type_id":"4","last_reported":1758539322,"current_range_meters":17200,"station_id":"ce4bhkp2rcd13ifvqgd0","pricing_plan_id":"cebpf4jnsgd1na2vs0mg"},{"bike_id":"00097665-a835-434a-87df-bc4092c235bd","system_id":"levelo_inurba_marseille","lat":43.30559,"lon":5.36547,"is_reserved":false,"is_disabled":false,"rental_uris":{"android":"levelo://app?vid=00097665-a835-434a-87df-bc4092c235bd","ios":"levelo://app?vid=00097665-a835-434a-87df-bc4092c235bd"},"vehicle_type_id":"4","last_reported":1758539322,"current_range_meters":17200,"station_id":"ce4bgs12rcd13ifvqcag","pricing_plan_id":"cebpf4jnsgd1na2vs0mg"},{"bike_id":"8aa1f4a5-ce10-4dc8-ad09-652566773495","system_id":"levelo_inurba_marseille","lat":43.3147,"lon":5.36942,"is_reserved":false,"is_disabled":true,"rental_uris":{"android":"levelo://app?vid=8aa1f4a5-ce10-4dc8-ad09-652566773495","ios":"levelo://app?vid=8aa1f4a5-ce10-4dc8-ad09-652566773495"},"vehicle_type_id":"4","last_reported":1758539322,"current_range_meters":17200,"station_id":"","pricing_plan_id":"cebpf4jnsgd1na2vs0mg"},{"bike_id":"0ebdb7ae-5b87-464d-af7b-324659b02b1b","system_id":"levelo_inurba_marseille","lat":43.2842,"lon":5.39194,"is_reserved":false,"is_disabled":false,"rental_uris":{"android":"levelo://app?vid=0ebdb7ae-5b87-464d-af7b-324659b02b1b","ios":"levelo://app?vid=0ebdb7ae-5b87-464d-af7b-324659b02b1b"},"vehicle_type_id":"4","last_reported":1758539322,"current_range_meters":17200,"station_id":"ce4bhoh2rcd13ifvqh5g","pricing_plan_id":"cebpf4jnsgd1na2vs0mg"},{"bike_id":"1fab727c-3b85-40d3-b6b3-e61a30d426b0","system_id":"levelo_inurba_marseille","lat":43.247328,"lon":5.374083,"is_reserved":false,"is_disabled":false,"rental_uris":{"android":"levelo://app?vid=1fab727c-3b85-40d3-b6b3-e61a30d426b0","ios":"levelo://app?vid=1fab727c-3b85-40d3-b6b3-e61a30d426b0"},"vehicle_type_id":"4","last_reported":1758539322,"current_range_meters":17600,"station_id":"ce4bhgh2rcd13ifvqfb0","pricing_plan_id":"cebpf4jnsgd1na2vs0mg"},{"bike_id":"8081ba73-d2a6-490e-a03b-d8260dd18c01","system_id":"levelo_inurba_marseille","lat":43.26562,"lon":5.39007,"is_reserved":false,"is_disabled":false,"rental_uris":{"android":"levelo://app?vid=8081ba73-d2a6-490e-a03b-d8260dd18c01","ios":"levelo://app?vid=8081ba73-d2a6-490e-a03b-d8260dd18c01"},"vehicle_type_id":"4","last_reported":1758539322,"current_range_meters":17600,"station_id":"ce4bhe12rcd13ifvqf30","pricing_plan_id":"cebpf4jnsgd1na2vs0mg"},{"bike_id":"c449362c-b22e-46a0-85e5-bcdd3d5b49ff","system_id":"levelo_inurba_marseille","lat":43.27988,"lon":5.41654,"is_reserved":false,"is_disabled":false,"rental_uris":{"android":"levelo://app?vid=c449362c-b22e-46a0-85e5-bcdd3d5b49ff","ios":"levelo://app?vid=c449362c-b22e-46a0-85e5-bcdd3d5b49ff"},"vehicle_type_id":"4","last_reported":1758539322,"current_range_meters":17600,"station_id":"ce4bho12rcd13ifvqh1g","pricing_plan_id":"cebpf4jnsgd1na2vs0mg"},{"bike_id":"0b53635f-f17e-45ad-81c1-5680b91c3102","system_id":"levelo_inurba_marseille","lat":43.32488,"lon":5.36561,"is_reserved":false,"is_disabled":false,"rental_uris":{"android":"levelo://app?vid=0b53635f-f17e-45ad-81c1-5680b91c3102","ios":"levelo://app?vid=0b53635f-f17e-45ad-81c1-5680b91c3102"},"vehicle_type_id":"4","last_reported":1758539322,"current_range_meters":17600,"station_id":"ce4bhs12rcd13ifvqhvg","pricing_plan_id":"cebpf4jnsgd1na2vs0mg"},{"bike_id":"2b8a7b75-2ac8-48a2-8531-7901e18dd054","system_id":"levelo_inurba_marseille","lat":43.21184,"lon":5.35068,"is_reserved":false,"is_disabled":false,"rental_uris":{"android":"levelo://app?vid=2b8a7b75-2ac8-48a2-8531-7901e18dd054","ios":"levelo://app?vid=2b8a7b75-2ac8-48a2-8531-7901e18dd054"},"vehicle_type_id":"4","last_reported":1758539322,"current_range_meters":18000,"station_id":"st_cvj6sg6p6f1abm77japg","pricing_plan_id":"cebpf4jnsgd1na2vs0mg"},{"bike_id":"bee46eba-68ef-4798-9e55-94438be76791","system_id":"levelo_inurba_marseille","lat":43.26783,"lon":5.39412,"is_reserved":false,"is_disabled":true,"rental_uris":{"android":"levelo://app?vid=bee46eba-68ef-4798-9e55-94438be76791","ios":"levelo://app?vid=bee46eba-68ef-4798-9e55-94438be76791"},"vehicle_type_id":"4","last_reported":1758539322,"current_range_meters":18000,"station_id":"ce4bhh12rcd13ifvqfg0","pricing_plan_id":"cebpf4jnsgd1na2vs0mg"},{"bike_id":"9fbfdf0c-c5c2-4286-8ac5-d351ceaffb8a","system_id":"levelo_inurba_marseille","lat":43.23175,"lon":5.39991,"is_reserved":false,"is_disabled":false,"rental_uris":{"android":"levelo://app?vid=9fbfdf0c-c5c2-4286-8ac5-d351ceaffb8a","ios":"levelo://app?vid=9fbfdf0c-c5c2-4286-8ac5-d351ceaffb8a"},"vehicle_type_id":"4","last_reported":1758539322,"current_range_meters":17600,"station_id":"ce4bhn12rcd13ifvqgqg","pricing_plan_id":"cebpf4jnsgd1na2vs0mg"},{"bike_id":"e7ad0b40-3178-415d-bd33-9483df074990","system_id":"levelo_inurba_marseille","lat":43.29524,"lon":5.394023,"is_reserved":false,"is_disabled":false,"rental_uris":{"android":"levelo://app?vid=e7ad0b40-3178-415d-bd33-9483df074990","ios":"levelo://app?vid=e7ad0b40-3178-415d-bd33-9483df074990"},"vehicle_type_id":"4","last_reported":1758539322,"current_range_meters":18000,"station_id":"ce4bh292rcd13ifvqdf0","pricing_plan_id":"cebpf4jnsgd1na2vs0mg"},{"bike_id":"c2ed4dbc-690a-4505-9fee-1fe3ee1282fe","system_id":"levelo_inurba_marseille","lat":43.28414,"lon":5.34972,"is_reserved":false,"is_disabled":false,"rental_uris":{"android":"levelo://app?vid=c2ed4dbc-690a-4505-9fee-1fe3ee1282fe","ios":"levelo://app?vid=c2ed4dbc-690a-4505-9fee-1fe3ee1282fe"},"vehicle_type_id":"4","last_reported":1758539322,"current_range_meters":18800,"station_id":"ce4bhbh2rcd13ifvqepg","pricing_plan_id":"cebpf4jnsgd1na2vs0mg"},{"bike_id":"28eb32c4-4f86-476b-8b2a-eb674175843e","system_id":"levelo_inurba_marseille","lat":43.26564,"lon":5.39015,"is_reserved":false,"is_disabled":false,"rental_uris":{"android":"levelo://app?vid=28eb32c4-4f86-476b-8b2a-eb674175843e","ios":"levelo://app?vid=28eb32c4-4f86-476b-8b2a-eb674175843e"},"vehicle_type_id":"4","last_reported":1758539322,"current_range_meters":18800,"station_id":"ce4bhe12rcd13ifvqf30","pricing_plan_id":"cebpf4jnsgd1na2vs0mg"},{"bike_id":"eaa524cb-d761-4ec8-afcf-9b025a0836ae","system_id":"levelo_inurba_marseille","lat":43.30931,"lon":5.40138,"is_reserved":false,"is_disabled":false,"rental_uris":{"android":"levelo://app?vid=eaa524cb-d761-4ec8-afcf-9b025a0836ae","ios":"levelo://app?vid=eaa524cb-d761-4ec8-afcf-9b025a0836ae"},"vehicle_type_id":"4","last_reported":1758539322,"current_range_meters":18800,"station_id":"ce4bgvp2rcd13ifvqct0","pricing_plan_id":"cebpf4jnsgd1na2vs0mg"},{"bike_id":"3e4d38b5-b42a-42e2-874f-3c710e1ace12","system_id":"levelo_inurba_marseille","lat":43.24684,"lon":5.38158,"is_reserved":false,"is_disabled":false,"rental_uris":{"android":"levelo://app?vid=3e4d38b5-b42a-42e2-874f-3c710e1ace12","ios":"levelo://app?vid=3e4d38b5-b42a-42e2-874f-3c710e1ace12"},"vehicle_type_id":"4","last_reported":1758539322,"current_range_meters":18800,"station_id":"ce4bhih2rcd13ifvqfr0","pricing_plan_id":"cebpf4jnsgd1na2vs0mg"},{"bike_id":"3a2f0200-19f6-4563-8356-bbb5c698396a","system_id":"levelo_inurba_marseille","lat":43.21767,"lon":5.34567,"is_reserved":false,"is_disabled":false,"rental_uris":{"android":"levelo://app?vid=3a2f0200-19f6-4563-8356-bbb5c698396a","ios":"levelo://app?vid=3a2f0200-19f6-4563-8356-bbb5c698396a"},"vehicle_type_id":"4","last_reported":1758539322,"current_range_meters":18800,"station_id":"","pricing_plan_id":"cebpf4jnsgd1na2vs0mg"},{"bike_id":"0d70b19e-932b-4fd2-a18f-05e86e9aaea0","system_id":"levelo_inurba_marseille","lat":43.29324,"lon":5.37913,"is_reserved":false,"is_disabled":false,"rental_uris":{"android":"levelo://app?vid=0d70b19e-932b-4fd2-a18f-05e86e9aaea0","ios":"levelo://app?vid=0d70b19e-932b-4fd2-a18f-05e86e9aaea0"},"vehicle_type_id":"4","last_reported":1758539322,"current_range_meters":18800,"station_id":"","pricing_plan_id":"cebpf4jnsgd1na2vs0mg"},{"bike_id":"95563e35-5787-445a-b66f-d345f805dd41","system_id":"levelo_inurba_marseille","lat":43.25938,"lon":5.40895,"is_reserved":false,"is_disabled":false,"rental_uris":{"android":"levelo://app?vid=95563e35-5787-445a-b66f-d345f805dd41","ios":"levelo://app?vid=95563e35-5787-445a-b66f-d345f805dd41"},"vehicle_type_id":"4","last_reported":1758539322,"current_range_meters":19200,"station_id":"ce4bhm92rcd13ifvqglg","pricing_plan_id":"cebpf4jnsgd1na2vs0mg"},{"bike_id":"905587da-e84e-4e45-bfaa-18ad5c405c70","system_id":"levelo_inurba_marseille","lat":43.27414,"lon":5.39423,"is_reserved":false,"is_disabled":false,"rental_uris":{"android":"levelo://app?vid=905587da-e84e-4e45-bfaa-18ad5c405c70","ios":"levelo://app?vid=905587da-e84e-4e45-bfaa-18ad5c405c70"},"vehicle_type_id":"4","last_reported":1758539322,"current_range_meters":19200,"station_id":"ce4bhdp2rcd13ifvqf20","pricing_plan_id":"cebpf4jnsgd1na2vs0mg"},{"bike_id":"e6da294e-2210-4b08-9359-0d407fe1f715","system_id":"levelo_inurba_marseille","lat":43.26564,"lon":5.39014,"is_reserved":false,"is_disabled":false,"rental_uris":{"android":"levelo://app?vid=e6da294e-2210-4b08-9359-0d407fe1f715","ios":"levelo://app?vid=e6da294e-2210-4b08-9359-0d407fe1f715"},"vehicle_type_id":"4","last_reported":1758539322,"current_range_meters":19200,"station_id":"ce4bhe12rcd13ifvqf30","pricing_plan_id":"cebpf4jnsgd1na2vs0mg"},{"bike_id":"d0bd8550-6edb-4a20-b60d-0db75ea73dbf","system_id":"levelo_inurba_marseille","lat":43.22567,"lon":5.41628,"is_reserved":false,"is_disabled":false,"rental_uris":{"android":"levelo://app?vid=d0bd8550-6edb-4a20-b60d-0db75ea73dbf","ios":"levelo://app?vid=d0bd8550-6edb-4a20-b60d-0db75ea73dbf"},"vehicle_type_id":"4","last_reported":1758539322,"current_range_meters":19200,"station_id":"st_d2o4gvlbi1j2169b742g","pricing_plan_id":"cebpf4jnsgd1na2vs0mg"},{"bike_id":"8c6ec981-673e-4087-a438-e08d5ca5d9c1","system_id":"levelo_inurba_marseille","lat":43.24166,"lon":5.36393,"is_reserved":false,"is_disabled":false,"rental_uris":{"android":"levelo://app?vid=8c6ec981-673e-4087-a438-e08d5ca5d9c1","ios":"levelo://app?vid=8c6ec981-673e-4087-a438-e08d5ca5d9c1"},"vehicle_type_id":"4","last_reported":1758539322,"current_range_meters":19200,"station_id":"cpo36qri1sfpv3e86is0","pricing_plan_id":"cebpf4jnsgd1na2vs0mg"},{"bike_id":"84be3e54-c732-4508-9904-6aceaca4b3cb","system_id":"levelo_inurba_marseille","lat":43.31214,"lon":5.36876,"is_reserved":false,"is_disabled":false,"rental_uris":{"android":"levelo://app?vid=84be3e54-c732-4508-9904-6aceaca4b3cb","ios":"levelo://app?vid=84be3e54-c732-4508-9904-6aceaca4b3cb"},"vehicle_type_id":"4","last_reported":1758539322,"current_range_meters":19200,"station_id":"ce4bgl92rcd13ifvqbq0","pricing_plan_id":"cebpf4jnsgd1na2vs0mg"},{"bike_id":"620438fb-11f0-49cb-b600-78739d113653","system_id":"levelo_inurba_marseille","lat":43.2854,"lon":5.38356,"is_reserved":false,"is_disabled":false,"rental_uris":{"android":"levelo://app?vid=620438fb-11f0-49cb-b600-78739d113653","ios":"levelo://app?vid=620438fb-11f0-49cb-b600-78739d113653"},"vehicle_type_id":"4","last_reported":1758539322,"current_range_meters":19200,"station_id":"","pricing_plan_id":"cebpf4jnsgd1na2vs0mg"},{"bike_id":"7c0482c3-9253-4d1b-b4f3-be55cdb7721d","system_id":"levelo_inurba_marseille","lat":43.33757,"lon":5.37466,"is_reserved":false,"is_disabled":false,"rental_uris":{"android":"levelo://app?vid=7c0482c3-9253-4d1b-b4f3-be55cdb7721d","ios":"levelo://app?vid=7c0482c3-9253-4d1b-b4f3-be55cdb7721d"},"vehicle_type_id":"4","last_reported":1758539322,"current_range_meters":19600,"station_id":"","pricing_plan_id":"cebpf4jnsgd1na2vs0mg"},{"bike_id":"4fd6d19f-1c32-41dc-9f26-ef8e5cbf1d2a","system_id":"levelo_inurba_marseille","lat":43.23176,"lon":5.39985,"is_reserved":false,"is_disabled":false,"rental_uris":{"android":"levelo://app?vid=4fd6d19f-1c32-41dc-9f26-ef8e5cbf1d2a","ios":"levelo://app?vid=4fd6d19f-1c32-41dc-9f26-ef8e5cbf1d2a"},"vehicle_type_id":"4","last_reported":1758539322,"current_range_meters":19200,"station_id":"ce4bhn12rcd13ifvqgqg","pricing_plan_id":"cebpf4jnsgd1na2vs0mg"},{"bike_id":"907814f9-be9e-4097-a739-6eb8489ac43b","system_id":"levelo_inurba_marseille","lat":43.27811,"lon":5.40712,"is_reserved":false,"is_disabled":false,"rental_uris":{"android":"levelo://app?vid=907814f9-be9e-4097-a739-6eb8489ac43b","ios":"levelo://app?vid=907814f9-be9e-4097-a739-6eb8489ac43b"},"vehicle_type_id":"4","last_reported":1758539322,"current_range_meters":19600,"station_id":"ce4bhnh2rcd13ifvqgtg","pricing_plan_id":"cebpf4jnsgd1na2vs0mg"},{"bike_id":"781f61f1-9221-4b14-842e-c3a99e74f6c3","system_id":"levelo_inurba_marseille","lat":43.270702,"lon":5.422798,"is_reserved":false,"is_disabled":false,"rental_uris":{"android":"levelo://app?vid=781f61f1-9221-4b14-842e-c3a99e74f6c3","ios":"levelo://app?vid=781f61f1-9221-4b14-842e-c3a99e74f6c3"},"vehicle_type_id":"4","last_reported":1758539322,"current_range_meters":19600,"station_id":"","pricing_plan_id":"cebpf4jnsgd1na2vs0mg"},{"bike_id":"0a4b3538-2374-49ee-9243-e1de3db16cc8","system_id":"levelo_inurba_marseille","lat":43.290186,"lon":5.381329,"is_reserved":false,"is_disabled":false,"rental_uris":{"android":"levelo://app?vid=0a4b3538-2374-49ee-9243-e1de3db16cc8","ios":"levelo://app?vid=0a4b3538-2374-49ee-9243-e1de3db16cc8"},"vehicle_type_id":"4","last_reported":1758539322,"current_range_meters":19600,"station_id":"ce4bh4p2rcd13ifvqe1g","pricing_plan_id":"cebpf4jnsgd1na2vs0mg"},{"bike_id":"cc150789-38bd-4b5d-8802-0d4ab0a93a7a","system_id":"levelo_inurba_marseille","lat":43.30802,"lon":5.38143,"is_reserved":false,"is_disabled":false,"rental_uris":{"android":"levelo://app?vid=cc150789-38bd-4b5d-8802-0d4ab0a93a7a","ios":"levelo://app?vid=cc150789-38bd-4b5d-8802-0d4ab0a93a7a"},"vehicle_type_id":"4","last_reported":1758539322,"current_range_meters":19200,"station_id":"ce4bgt12rcd13ifvqce0","pricing_plan_id":"cebpf4jnsgd1na2vs0mg"},{"bike_id":"2766ac55-17a6-4e49-9caf-4cbb5dff4963","system_id":"levelo_inurba_marseille","lat":43.30533,"lon":5.36542,"is_reserved":false,"is_disabled":false,"rental_uris":{"android":"levelo://app?vid=2766ac55-17a6-4e49-9caf-4cbb5dff4963","ios":"levelo://app?vid=2766ac55-17a6-4e49-9caf-4cbb5dff4963"},"vehicle_type_id":"4","last_reported":1758539322,"current_range_meters":20000,"station_id":"ce4bgs12rcd13ifvqcag","pricing_plan_id":"cebpf4jnsgd1na2vs0mg"},{"bike_id":"01d20ee2-fcff-4923-8719-ed4fc003d5b1","system_id":"levelo_inurba_marseille","lat":43.29533,"lon":5.39397,"is_reserved":false,"is_disabled":false,"rental_uris":{"android":"levelo://app?vid=01d20ee2-fcff-4923-8719-ed4fc003d5b1","ios":"levelo://app?vid=01d20ee2-fcff-4923-8719-ed4fc003d5b1"},"vehicle_type_id":"4","last_reported":1758539322,"current_range_meters":20400,"station_id":"ce4bh292rcd13ifvqdf0","pricing_plan_id":"cebpf4jnsgd1na2vs0mg"},{"bike_id":"fb79e031-8f99-4b2b-a3ad-7fb3a84762d5","system_id":"levelo_inurba_marseille","lat":43.27673,"lon":5.38868,"is_reserved":false,"is_disabled":false,"rental_uris":{"android":"levelo://app?vid=fb79e031-8f99-4b2b-a3ad-7fb3a84762d5","ios":"levelo://app?vid=fb79e031-8f99-4b2b-a3ad-7fb3a84762d5"},"vehicle_type_id":"4","last_reported":1758539322,"current_range_meters":19600,"station_id":"ce4bhi12rcd13ifvqfo0","pricing_plan_id":"cebpf4jnsgd1na2vs0mg"},{"bike_id":"d24dd466-02ce-4a40-865e-e4b5699b5ac4","system_id":"levelo_inurba_marseille","lat":43.292636,"lon":5.384441,"is_reserved":false,"is_disabled":false,"rental_uris":{"android":"levelo://app?vid=d24dd466-02ce-4a40-865e-e4b5699b5ac4","ios":"levelo://app?vid=d24dd466-02ce-4a40-865e-e4b5699b5ac4"},"vehicle_type_id":"4","last_reported":1758539322,"current_range_meters":20000,"station_id":"","pricing_plan_id":"cebpf4jnsgd1na2vs0mg"},{"bike_id":"9052b7b7-affd-4ce7-aaf9-a057a8aa242c","system_id":"levelo_inurba_marseille","lat":43.3031,"lon":5.3688,"is_reserved":false,"is_disabled":false,"rental_uris":{"android":"levelo://app?vid=9052b7b7-affd-4ce7-aaf9-a057a8aa242c","ios":"levelo://app?vid=9052b7b7-affd-4ce7-aaf9-a057a8aa242c"},"vehicle_type_id":"4","last_reported":1758539322,"current_range_meters":20000,"station_id":"ce4bgqh2rcd13ifvqc5g","pricing_plan_id":"cebpf4jnsgd1na2vs0mg"},{"bike_id":"4c8c4faf-3ef4-42aa-86c2-4b8da2bc443a","system_id":"levelo_inurba_marseille","lat":43.28261,"lon":5.35058,"is_reserved":false,"is_disabled":false,"rental_uris":{"android":"levelo://app?vid=4c8c4faf-3ef4-42aa-86c2-4b8da2bc443a","ios":"levelo://app?vid=4c8c4faf-3ef4-42aa-86c2-4b8da2bc443a"},"vehicle_type_id":"4","last_reported":1758539322,"current_range_meters":36800,"station_id":"ce4bhbp2rcd13ifvqerg","pricing_plan_id":"cebpf4jnsgd1na2vs0mg"},{"bike_id":"06a24bce-028d-4b4a-b4a3-d45296145db5","system_id":"levelo_inurba_marseille","lat":43.28425,"lon":5.34991,"is_reserved":false,"is_disabled":true,"rental_uris":{"android":"levelo://app?vid=06a24bce-028d-4b4a-b4a3-d45296145db5","ios":"levelo://app?vid=06a24bce-028d-4b4a-b4a3-d45296145db5"},"vehicle_type_id":"4","last_reported":1758539322,"current_range_meters":20000,"station_id":"ce4bhch2rcd13ifvqeug","pricing_plan_id":"cebpf4jnsgd1na2vs0mg"},{"bike_id":"315df36b-57a6-4c3f-9de4-ac73c15e0d22","system_id":"levelo_inurba_marseille","lat":43.3237,"lon":5.36732,"is_reserved":false,"is_disabled":false,"rental_uris":{"android":"levelo://app?vid=315df36b-57a6-4c3f-9de4-ac73c15e0d22","ios":"levelo://app?vid=315df36b-57a6-4c3f-9de4-ac73c15e0d22"},"vehicle_type_id":"4","last_reported":1758539322,"current_range_meters":20000,"station_id":"ce4bhsh2rcd13ifvqi2g","pricing_plan_id":"cebpf4jnsgd1na2vs0mg"},{"bike_id":"1cec250e-b4f1-4f07-a7c5-7bf695f213e8","system_id":"levelo_inurba_marseille","lat":43.24381,"lon":5.37042,"is_reserved":false,"is_disabled":false,"rental_uris":{"android":"levelo://app?vid=1cec250e-b4f1-4f07-a7c5-7bf695f213e8","ios":"levelo://app?vid=1cec250e-b4f1-4f07-a7c5-7bf695f213e8"},"vehicle_type_id":"4","last_reported":1758539322,"current_range_meters":20000,"station_id":"ce4bhhh2rcd13ifvqfk0","pricing_plan_id":"cebpf4jnsgd1na2vs0mg"},{"bike_id":"9e950e15-1559-457c-be01-f6a47af0b6a9","system_id":"levelo_inurba_marseille","lat":43.305009,"lon":5.365659,"is_reserved":false,"is_disabled":false,"rental_uris":{"android":"levelo://app?vid=9e950e15-1559-457c-be01-f6a47af0b6a9","ios":"levelo://app?vid=9e950e15-1559-457c-be01-f6a47af0b6a9"},"vehicle_type_id":"4","last_reported":1758539322,"current_range_meters":20000,"station_id":"ce4bgs12rcd13ifvqcag","pricing_plan_id":"cebpf4jnsgd1na2vs0mg"},{"bike_id":"c5e83cd0-1a38-4504-a893-8c97ae88f7fa","system_id":"levelo_inurba_marseille","lat":43.30471,"lon":5.37911,"is_reserved":false,"is_disabled":false,"rental_uris":{"android":"levelo://app?vid=c5e83cd0-1a38-4504-a893-8c97ae88f7fa","ios":"levelo://app?vid=c5e83cd0-1a38-4504-a893-8c97ae88f7fa"},"vehicle_type_id":"4","last_reported":1758539322,"current_range_meters":20400,"station_id":"ce4bgup2rcd13ifvqcn0","pricing_plan_id":"cebpf4jnsgd1na2vs0mg"},{"bike_id":"6a68175c-617d-48a4-85e1-3893f5de1b60","system_id":"levelo_inurba_marseille","lat":43.24392,"lon":5.37057,"is_reserved":false,"is_disabled":true,"rental_uris":{"android":"levelo://app?vid=6a68175c-617d-48a4-85e1-3893f5de1b60","ios":"levelo://app?vid=6a68175c-617d-48a4-85e1-3893f5de1b60"},"vehicle_type_id":"4","last_reported":1758539322,"current_range_meters":20400,"station_id":"ce4bhhh2rcd13ifvqfk0","pricing_plan_id":"cebpf4jnsgd1na2vs0mg"},{"bike_id":"aaecd3a7-54b5-4b57-b950-863c1d95f02c","system_id":"levelo_inurba_marseille","lat":43.259193,"lon":5.409059,"is_reserved":false,"is_disabled":false,"rental_uris":{"android":"levelo://app?vid=aaecd3a7-54b5-4b57-b950-863c1d95f02c","ios":"levelo://app?vid=aaecd3a7-54b5-4b57-b950-863c1d95f02c"},"vehicle_type_id":"4","last_reported":1758539322,"current_range_meters":20400,"station_id":"ce4bhm92rcd13ifvqglg","pricing_plan_id":"cebpf4jnsgd1na2vs0mg"},{"bike_id":"82c876b5-4a02-4887-9b9b-7e194e0e6062","system_id":"levelo_inurba_marseille","lat":43.29898,"lon":5.37455,"is_reserved":false,"is_disabled":false,"rental_uris":{"android":"levelo://app?vid=82c876b5-4a02-4887-9b9b-7e194e0e6062","ios":"levelo://app?vid=82c876b5-4a02-4887-9b9b-7e194e0e6062"},"vehicle_type_id":"4","last_reported":1758539322,"current_range_meters":20400,"station_id":"ce4bgjh2rcd13ifvqbg0","pricing_plan_id":"cebpf4jnsgd1na2vs0mg"},{"bike_id":"eb5190fa-bd30-41b7-a548-e0c86b66b114","system_id":"levelo_inurba_marseille","lat":43.30529,"lon":5.36537,"is_reserved":false,"is_disabled":false,"rental_uris":{"android":"levelo://app?vid=eb5190fa-bd30-41b7-a548-e0c86b66b114","ios":"levelo://app?vid=eb5190fa-bd30-41b7-a548-e0c86b66b114"},"vehicle_type_id":"4","last_reported":1758539322,"current_range_meters":20400,"station_id":"ce4bgs12rcd13ifvqcag","pricing_plan_id":"cebpf4jnsgd1na2vs0mg"},{"bike_id":"2fc2b03c-a61b-4505-a8a5-6c675bafa43f","system_id":"levelo_inurba_marseille","lat":43.27371,"lon":5.36267,"is_reserved":false,"is_disabled":false,"rental_uris":{"android":"levelo://app?vid=2fc2b03c-a61b-4505-a8a5-6c675bafa43f","ios":"levelo://app?vid=2fc2b03c-a61b-4505-a8a5-6c675bafa43f"},"vehicle_type_id":"4","last_reported":1758539322,"current_range_meters":20400,"station_id":"ce4bhbh2rcd13ifvqeo0","pricing_plan_id":"cebpf4jnsgd1na2vs0mg"},{"bike_id":"23b74600-2111-437d-83fd-f2e1548e292f","system_id":"levelo_inurba_marseille","lat":43.24176,"lon":5.39739,"is_reserved":false,"is_disabled":false,"rental_uris":{"android":"levelo://app?vid=23b74600-2111-437d-83fd-f2e1548e292f","ios":"levelo://app?vid=23b74600-2111-437d-83fd-f2e1548e292f"},"vehicle_type_id":"4","last_reported":1758539322,"current_range_meters":20400,"station_id":"ce4bhn12rcd13ifvqgpg","pricing_plan_id":"cebpf4jnsgd1na2vs0mg"},{"bike_id":"168e7a5c-6d87-4633-be3a-9a338ce07138","system_id":"levelo_inurba_marseille","lat":43.304263,"lon":5.388765,"is_reserved":false,"is_disabled":false,"rental_uris":{"android":"levelo://app?vid=168e7a5c-6d87-4633-be3a-9a338ce07138","ios":"levelo://app?vid=168e7a5c-6d87-4633-be3a-9a338ce07138"},"vehicle_type_id":"4","last_reported":1758539322,"current_range_meters":20800,"station_id":"ce4bgk12rcd13ifvqbi0","pricing_plan_id":"cebpf4jnsgd1na2vs0mg"},{"bike_id":"733b6c5c-1841-4b8f-9855-0bfbeb6e725c","system_id":"levelo_inurba_marseille","lat":43.29267,"lon":5.38438,"is_reserved":false,"is_disabled":false,"rental_uris":{"android":"levelo://app?vid=733b6c5c-1841-4b8f-9855-0bfbeb6e725c","ios":"levelo://app?vid=733b6c5c-1841-4b8f-9855-0bfbeb6e725c"},"vehicle_type_id":"4","last_reported":1758539322,"current_range_meters":20800,"station_id":"ce4bh692rcd13ifvqea0","pricing_plan_id":"cebpf4jnsgd1na2vs0mg"},{"bike_id":"c73da7e7-c082-4308-95c7-c766359b1e6d","system_id":"levelo_inurba_marseille","lat":43.24635,"lon":5.38903,"is_reserved":false,"is_disabled":true,"rental_uris":{"android":"levelo://app?vid=c73da7e7-c082-4308-95c7-c766359b1e6d","ios":"levelo://app?vid=c73da7e7-c082-4308-95c7-c766359b1e6d"},"vehicle_type_id":"4","last_reported":1758539322,"current_range_meters":20800,"station_id":"ce4bhg12rcd13ifvqf60","pricing_plan_id":"cebpf4jnsgd1na2vs0mg"},{"bike_id":"8ed05d4e-5726-455c-96a2-6fd4bbd26da4","system_id":"levelo_inurba_marseille","lat":43.297277,"lon":5.400952,"is_reserved":false,"is_disabled":false,"rental_uris":{"android":"levelo://app?vid=8ed05d4e-5726-455c-96a2-6fd4bbd26da4","ios":"levelo://app?vid=8ed05d4e-5726-455c-96a2-6fd4bbd26da4"},"vehicle_type_id":"4","last_reported":1758539322,"current_range_meters":20800,"station_id":"","pricing_plan_id":"cebpf4jnsgd1na2vs0mg"},{"bike_id":"8bdc26a8-dc8f-4331-aca0-2cb41632ca44","system_id":"levelo_inurba_marseille","lat":43.27417,"lon":5.39403,"is_reserved":false,"is_disabled":false,"rental_uris":{"android":"levelo://app?vid=8bdc26a8-dc8f-4331-aca0-2cb41632ca44","ios":"levelo://app?vid=8bdc26a8-dc8f-4331-aca0-2cb41632ca44"},"vehicle_type_id":"4","last_reported":1758539322,"current_range_meters":20800,"station_id":"ce4bhdp2rcd13ifvqf20","pricing_plan_id":"cebpf4jnsgd1na2vs0mg"},{"bike_id":"f698d29d-576a-4c58-a885-f2da7e2a27a4","system_id":"levelo_inurba_marseille","lat":43.26548,"lon":5.39029,"is_reserved":false,"is_disabled":true,"rental_uris":{"android":"levelo://app?vid=f698d29d-576a-4c58-a885-f2da7e2a27a4","ios":"levelo://app?vid=f698d29d-576a-4c58-a885-f2da7e2a27a4"},"vehicle_type_id":"4","last_reported":1758539322,"current_range_meters":20800,"station_id":"ce4bhe12rcd13ifvqf30","pricing_plan_id":"cebpf4jnsgd1na2vs0mg"},{"bike_id":"a6be2bdc-762f-406f-ba30-45f6f2a75f39","system_id":"levelo_inurba_marseille","lat":43.267354,"lon":5.402388,"is_reserved":false,"is_disabled":false,"rental_uris":{"android":"levelo://app?vid=a6be2bdc-762f-406f-ba30-45f6f2a75f39","ios":"levelo://app?vid=a6be2bdc-762f-406f-ba30-45f6f2a75f39"},"vehicle_type_id":"4","last_reported":1758539322,"current_range_meters":20800,"station_id":"cjm6bp8fraef2m0cb0m0","pricing_plan_id":"cebpf4jnsgd1na2vs0mg"},