{"last_updated":1761404946,"ttl":60,"version":"2.2","data":{"bikes":[{"bike_id":"f4a40832-b458-45b8-81f2-f5a115dd353e","system_id":"levelo_inurba_marseille","lat":43.301495,"lon":5.380956,"is_reserved":false,"is_disabled":false,"rental_uris":{"android":"levelo://app?vid=f4a40832-b458-45b8-81f2-f5a115dd353e","ios":"levelo://app?vid=f4a40832-b458-45b8-81f2-f5a115dd353e"},"vehicle_type_id":"4","last_reported":1761404947,"current_range_meters":2800,"station_id":"ce4bgjp2rcd13ifvqbh0","pricing_plan_id":"cebpf4jnsgd1na2vs0mg"},{"bike_id":"d0acce5a-9367-44da-a4fe-a170ae7b4f37","system_id":"levelo_inurba_marseille","lat":43.27097,"lon":5.38324,"is_reserved":false,"is_disabled":false,"rental_uris":{"android":"levelo://app?vid=d0acce5a-9367-44da-a4fe-a170ae7b4f37","ios":"levelo://app?vid=d0acce5a-9367-44da-a4fe-a170ae7b4f37"},"vehicle_type_id":"4","last_reported":1761404947,"current_range_meters":2800,"station_id":"st_d3n2fo6cfp8s73cte1j0","pricing_plan_id":"cebpf4jnsgd1na2vs0mg"},{"bike_id":"98595757-85f3-4606-909c-c864b8466677","system_id":"levelo_inurba_marseille","lat":43.28929,"lon":5.36636,"is_reserved":false,"is_disabled":false,"rental_uris":{"android":"levelo://app?vid=98595757-85f3-4606-909c-c864b8466677","ios":"levelo://app?vid=98595757-85f3-4606-909c-c864b8466677"},"vehicle_type_id":"4","last_reported":1761404947,"current_range_meters":3200,"station_id":"ce4bhap2rcd13ifvqek0","pricing_plan_id":"cebpf4jnsgd1na2vs0mg"},{"bike_id":"7e007138-b5b2-48f5-95f9-671f8719c376","system_id":"levelo_inurba_marseille","lat":43.32544,"lon":5.42781,"is_reserved":false,"is_disabled":false,"rental_uris":{"android":"levelo://app?vid=7e007138-b5b2-48f5-95f9-671f8719c376","ios":"levelo://app?vid=7e007138-b5b2-48f5-95f9-671f8719c376"},"vehicle_type_id":"4","last_reported":1761404947,"current_range_meters":3200,"station_id":"","pricing_plan_id":"cebpf4jnsgd1na2vs0mg"},{"bike_id":"6dd530cc-784a-49d4-a751-d88e5518f56f","system_id":"levelo_inurba_marseille","lat":43.27668,"lon":5.38885,"is_reserved":false,"is_disabled":false,"rental_uris":{"android":"levelo://app?vid=6dd530cc-784a-49d4-a751-d88e5518f56f","ios":"levelo://app?vid=6dd530cc-784a-49d4-a751-d88e5518f56f"},"vehicle_type_id":"4","last_reported":1761404947,"current_range_meters":3600,"station_id":"ce4bhi12rcd13ifvqfo0","pricing_plan_id":"cebpf4jnsgd1na2vs0mg"},{"bike_id":"f84856cc-3f63-470f-8c78-7bc7500d6746","system_id":"levelo_inurba_marseille","lat":43.28463,"lon":5.35894,"is_reserved":false,"is_disabled":false,"rental_uris":{"android":"levelo://app?vid=f84856cc-3f63-470f-8c78-7bc7500d6746","ios":"levelo://app?vid=f84856cc-3f63-470f-8c78-7bc7500d6746"},"vehicle_type_id":"4","last_reported":1761404947,"current_range_meters":3600,"station_id":"ce4bhah2rcd13ifvqei0","pricing_plan_id":"cebpf4jnsgd1na2vs0mg"},{"bike_id":"ae1c851e-2d8d-4d54-9e1c-234cf28041a8","system_id":"levelo_inurba_marseille","lat":43.29273,"lon":5.38437,"is_reserved":false,"is_disabled":false,"rental_uris":{"android":"levelo://app?vid=ae1c851e-2d8d-4d54-9e1c-234cf28041a8","ios":"levelo://app?vid=ae1c851e-2d8d-4d54-9e1c-234cf28041a8"},"vehicle_type_id":"4","last_reported":1761404947,"current_range_meters":3600,"station_id":"ce4bh692rcd13ifvqea0","pricing_plan_id":"cebpf4jnsgd1na2vs0mg"},{"bike_id":"2f2d5106-84a8-4779-8363-3207745f4303","system_id":"levelo_inurba_marseille","lat":43.30268,"lon":5.37282,"is_reserved":false,"is_disabled":false,"rental_uris":{"android":"levelo://app?vid=2f2d5106-84a8-4779-8363-3207745f4303","ios":"levelo://app?vid=2f2d5106-84a8-4779-8363-3207745f4303"},"vehicle_type_id":"4","last_reported":1761404947,"current_range_meters":4000,"station_id":"","pricing_plan_id":"cebpf4jnsgd1na2vs0mg"},{"bike_id":"67edc04a-667c-446f-983c-f0dfe3f0ac76","system_id":"levelo_inurba_marseille","lat":43.23963,"lon":5.36628,"is_reserved":false,"is_disabled":false,"rental_uris":{"android":"levelo://app?vid=67edc04a-667c-446f-983c-f0dfe3f0ac76","ios":"levelo://app?vid=67edc04a-667c-446f-983c-f0dfe3f0ac76"},"vehicle_type_id":"4","last_reported":1761404947,"current_range_meters":4000,"station_id":"ce4bhi12rcd13ifvqfp0","pricing_plan_id":"cebpf4jnsgd1na2vs0mg"},{"bike_id":"25f6e774-b75a-44a1-96d0-0c8c8d1491e2","system_id":"levelo_inurba_marseille","lat":43.241692,"lon":5.363977,"is_reserved":false,"is_disabled":false,"rental_uris":{"android":"levelo://app?vid=25f6e774-b75a-44a1-96d0-0c8c8d1491e2","ios":"levelo://app?vid=25f6e774-b75a-44a1-96d0-0c8c8d1491e2"},"vehicle_type_id":"4","last_reported":1761404947,"current_range_meters":4000,"station_id":"ce4bhhp2rcd13ifvqfm0","pricing_plan_id":"cebpf4jnsgd1na2vs0mg"},{"bike_id":"275f970b-82e8-47ac-8bad-27ec1450d1b8","system_id":"levelo_inurba_marseille","lat":43.28347,"lon":5.38104,"is_reserved":false,"is_disabled":false,"rental_uris":{"android":"levelo://app?vid=275f970b-82e8-47ac-8bad-27ec1450d1b8","ios":"levelo://app?vid=275f970b-82e8-47ac-8bad-27ec1450d1b8"},"vehicle_type_id":"4","last_reported":1761404947,"current_range_meters":4000,"station_id":"ce4bh412rcd13ifvqdr0","pricing_plan_id":"cebpf4jnsgd1na2vs0mg"},{"bike_id":"21c598e5-79cf-4e95-b5a4-c108327b8884","system_id":"levelo_inurba_marseille","lat":43.301453,"lon":5.380855,"is_reserved":false,"is_disabled":false,"rental_uris":{"android":"levelo://app?vid=21c598e5-79cf-4e95-b5a4-c108327b8884","ios":"levelo://app?vid=21c598e5-79cf-4e95-b5a4-c108327b8884"},"vehicle_type_id":"4","last_reported":1761404947,"current_range_meters":4000,"station_id":"ce4bgjp2rcd13ifvqbh0","pricing_plan_id":"cebpf4jnsgd1na2vs0mg"},{"bike_id":"3f6089cf-72f4-4f59-a459-c7541c71b4c4","system_id":"levelo_inurba_marseille","lat":43.30144,"lon":5.38767,"is_reserved":false,"is_disabled":false,"rental_uris":{"android":"levelo://app?vid=3f6089cf-72f4-4f59-a459-c7541c71b4c4","ios":"levelo://app?vid=3f6089cf-72f4-4f59-a459-c7541c71b4c4"},"vehicle_type_id":"4","last_reported":1761404947,"current_range_meters":4000,"station_id":"ce4bghh2rcd13ifvqb60","pricing_plan_id":"cebpf4jnsgd1na2vs0mg"},{"bike_id":"5007ee91-3823-4bd9-9f7e-b649bdaf7bd4","system_id":"levelo_inurba_marseille","lat":43.24185,"lon":5.39709,"is_reserved":false,"is_disabled":false,"rental_uris":{"android":"levelo://app?vid=5007ee91-3823-4bd9-9f7e-b649bdaf7bd4","ios":"levelo://app?vid=5007ee91-3823-4bd9-9f7e-b649bdaf7bd4"},"vehicle_type_id":"4","last_reported":1761404947,"current_range_meters":4400,"station_id":"ce4bhn12rcd13ifvqgpg","pricing_plan_id":"cebpf4jnsgd1na2vs0mg"},{"bike_id":"a2489260-51b0-4100-893a-bdec1c3da877","system_id":"levelo_inurba_marseille","lat":43.2842,"lon":5.37525,"is_reserved":false,"is_disabled":false,"rental_uris":{"android":"levelo://app?vid=a2489260-51b0-4100-893a-bdec1c3da877","ios":"levelo://app?vid=a2489260-51b0-4100-893a-bdec1c3da877"},"vehicle_type_id":"4","last_reported":1761404947,"current_range_meters":4400,"station_id":"ce4bh412rcd13ifvqds0","pricing_plan_id":"cebpf4jnsgd1na2vs0mg"},{"bike_id":"7546f470-e2c9-46ad-b638-733b3092a9dc","system_id":"levelo_inurba_marseille","lat":43.22537,"lon":5.34844,"is_reserved":false,"is_disabled":false,"rental_uris":{"android":"levelo://app?vid=7546f470-e2c9-46ad-b638-733b3092a9dc","ios":"levelo://app?vid=7546f470-e2c9-46ad-b638-733b3092a9dc"},"vehicle_type_id":"4","last_reported":1761404947,"current_range_meters":4400,"station_id":"","pricing_plan_id":"cebpf4jnsgd1na2vs0mg"},{"bike_id":"ec8ab30e-e7e4-4fe4-9d73-bc44ed4d85f6","system_id":"levelo_inurba_marseille","lat":43.249897,"lon":5.389389,"is_reserved":false,"is_disabled":false,"rental_uris":{"android":"levelo://app?vid=ec8ab30e-e7e4-4fe4-9d73-bc44ed4d85f6","ios":"levelo://app?vid=ec8ab30e-e7e4-4fe4-9d73-bc44ed4d85f6"},"vehicle_type_id":"4","last_reported":1761404947,"current_range_meters":4400,"station_id":"ce4bhgp2rcd13ifvqfd0","pricing_plan_id":"cebpf4jnsgd1na2vs0mg"},{"bike_id":"811562e4-69b0-4415-83fa-273655df1a5b","system_id":"levelo_inurba_marseille","lat":43.27622,"lon":5.3611,"is_reserved":false,"is_disabled":false,"rental_uris":{"android":"levelo://app?vid=811562e4-69b0-4415-83fa-273655df1a5b","ios":"levelo://app?vid=811562e4-69b0-4415-83fa-273655df1a5b"},"vehicle_type_id":"4","last_reported":1761404947,"current_range_meters":4400,"station_id":"ce4bgj92rcd13ifvqbe0","pricing_plan_id":"cebpf4jnsgd1na2vs0mg"},{"bike_id":"7b57977a-b9f7-497c-8570-c533cf5b8b22","system_id":"levelo_inurba_marseille","lat":43.30641,"lon":5.40093,"is_reserved":false,"is_disabled":false,"rental_uris":{"android":"levelo://app?vid=7b57977a-b9f7-497c-8570-c533cf5b8b22","ios":"levelo://app?vid=7b57977a-b9f7-497c-8570-c533cf5b8b22"},"vehicle_type_id":"4","last_reported":1761404947,"current_range_meters":4400,"station_id":"ce4bh112rcd13ifvqda0","pricing_plan_id":"cebpf4jnsgd1na2vs0mg"},{"bike_id":"5d66c8c2-8d10-44bd-9370-b866c11d6d77","system_id":"levelo_inurba_marseille","lat":43.229303,"lon":5.353728,"is_reserved":false,"is_disabled":false,"rental_uris":{"android":"levelo://app?vid=5d66c8c2-8d10-44bd-9370-b866c11d6d77","ios":"levelo://app?vid=5d66c8c2-8d10-44bd-9370-b866c11d6d77"},"vehicle_type_id":"4","last_reported":1761404947,"current_range_meters":4800,"station_id":"","pricing_plan_id":"cebpf4jnsgd1na2vs0mg"},{"bike_id":"cc5b3d62-ce10-4119-b9d0-824a6c62c0a5","system_id":"levelo_inurba_marseille","lat":43.3093,"lon":5.40144,"is_reserved":false,"is_disabled":false,"rental_uris":{"android":"levelo://app?vid=cc5b3d62-ce10-4119-b9d0-824a6c62c0a5","ios":"levelo://app?vid=cc5b3d62-ce10-4119-b9d0-824a6c62c0a5"},"vehicle_type_id":"4","last_reported":1761404947,"current_range_meters":4800,"station_id":"ce4bgvp2rcd13ifvqct0","pricing_plan_id":"cebpf4jnsgd1na2vs0mg"},{"bike_id":"323bf2de-3bb4-4b4c-b330-b19ea807dbf5","system_id":"levelo_inurba_marseille","lat":43.33004,"lon":5.42964,"is_reserved":false,"is_disabled":false,"rental_uris":{"android":"levelo://app?vid=323bf2de-3bb4-4b4c-b330-b19ea807dbf5","ios":"levelo://app?vid=323bf2de-3bb4-4b4c-b330-b19ea807dbf5"},"vehicle_type_id":"4","last_reported":1761404947,"current_range_meters":4800,"station_id":"","pricing_plan_id":"cebpf4jnsgd1na2vs0mg"},{"bike_id":"17bd9fff-f8a7-45af-8120-cab272292f42","system_id":"levelo_inurba_marseille","lat":43.284784,"lon":5.484012,"is_reserved":false,"is_disabled":false,"rental_uris":{"android":"levelo://app?vid=17bd9fff-f8a7-45af-8120-cab272292f42","ios":"levelo://app?vid=17bd9fff-f8a7-45af-8120-cab272292f42"},"vehicle_type_id":"4","last_reported":1761404947,"current_range_meters":4800,"station_id":"st_d3svhcjqgbts73a3dn0g","pricing_plan_id":"cebpf4jnsgd1na2vs0mg"},{"bike_id":"25e6d24f-b9ab-4a46-aced-0aabdc061d2a","system_id":"levelo_inurba_marseille","lat":43.31717,"lon":5.43707,"is_reserved":false,"is_disabled":false,"rental_uris":{"android":"levelo://app?vid=25e6d24f-b9ab-4a46-aced-0aabdc061d2a","ios":"levelo://app?vid=25e6d24f-b9ab-4a46-aced-0aabdc061d2a"},"vehicle_type_id":"4","last_reported":1761404947,"current_range_meters":5600,"station_id":"ce4bhp92rcd13ifvqhcg","pricing_plan_id":"cebpf4jnsgd1na2vs0mg"},{"bike_id":"a5f0cf9d-e21c-47a1-ad1e-bf0e80b8bf52","system_id":"levelo_inurba_marseille","lat":43.21735,"lon":5.34605,"is_reserved":false,"is_disabled":false,"rental_uris":{"android":"levelo://app?vid=a5f0cf9d-e21c-47a1-ad1e-bf0e80b8bf52","ios":"levelo://app?vid=a5f0cf9d-e21c-47a1-ad1e-bf0e80b8bf52"},"vehicle_type_id":"4","last_reported":1761404947,"current_range_meters":5600,"station_id":"st_cvj6r9ubvosntc0bgbag","pricing_plan_id":"cebpf4jnsgd1na2vs0mg"},{"bike_id":"2c327908-a370-4cac-947d-f9f2f39268da","system_id":"levelo_inurba_marseille","lat":43.23186,"lon":5.3999,"is_reserved":false,"is_disabled":false,"rental_uris":{"android":"levelo://app?vid=2c327908-a370-4cac-947d-f9f2f39268da","ios":"levelo://app?vid=2c327908-a370-4cac-947d-f9f2f39268da"},"vehicle_type_id":"4","last_reported":1761404947,"current_range_meters":6000,"station_id":"ce4bhn12rcd13ifvqgqg","pricing_plan_id":"cebpf4jnsgd1na2vs0mg"},{"bike_id":"9c3c9a5a-3df1-4d77-8508-8747c8fab984","system_id":"levelo_inurba_marseille","lat":43.284851,"lon":5.385405,"is_reserved":false,"is_disabled":false,"rental_uris":{"android":"levelo://app?vid=9c3c9a5a-3df1-4d77-8508-8747c8fab984","ios":"levelo://app?vid=9c3c9a5a-3df1-4d77-8508-8747c8fab984"},"vehicle_type_id":"4","last_reported":1761404947,"current_range_meters":6000,"station_id":"ce4bh8p2rcd13ifvqeb0","pricing_plan_id":"cebpf4jnsgd1na2vs0mg"},{"bike_id":"00fd3c6a-780c-49dc-9993-d4de69c9b57a","system_id":"levelo_inurba_marseille","lat":43.310738,"lon":5.37455,"is_reserved":false,"is_disabled":false,"rental_uris":{"android":"levelo://app?vid=00fd3c6a-780c-49dc-9993-d4de69c9b57a","ios":"levelo://app?vid=00fd3c6a-780c-49dc-9993-d4de69c9b57a"},"vehicle_type_id":"4","last_reported":1761404947,"current_range_meters":6000,"station_id":"","pricing_plan_id":"cebpf4jnsgd1na2vs0mg"},{"bike_id":"de86d24d-bcac-4bab-ac6e-c795399182f1","system_id":"levelo_inurba_marseille","lat":43.31193,"lon":5.36874,"is_reserved":false,"is_disabled":false,"rental_uris":{"android":"levelo://app?vid=de86d24d-bcac-4bab-ac6e-c795399182f1","ios":"levelo://app?vid=de86d24d-bcac-4bab-ac6e-c795399182f1"},"vehicle_type_id":"4","last_reported":1761404947,"current_range_meters":6000,"station_id":"ce4bgl92rcd13ifvqbq0","pricing_plan_id":"cebpf4jnsgd1na2vs0mg"},{"bike_id":"8bcacd78-80de-4026-af75-b37ebe3030fe","system_id":"levelo_inurba_marseille","lat":43.334756,"lon":5.404255,"is_reserved":false,"is_disabled":false,"rental_uris":{"android":"levelo://app?vid=8bcacd78-80de-4026-af75-b37ebe3030fe","ios":"levelo://app?vid=8bcacd78-80de-4026-af75-b37ebe3030fe"},"vehicle_type_id":"4","last_reported":1761404947,"current_range_meters":6000,"station_id":"","pricing_plan_id":"cebpf4jnsgd1na2vs0mg"},{"bike_id":"a7eac262-eb51-4389-b1be-da01ea30947d","system_id":"levelo_inurba_marseille","lat":43.24945,"lon":5.40517,"is_reserved":false,"is_disabled":false,"rental_uris":{"android":"levelo://app?vid=a7eac262-eb51-4389-b1be-da01ea30947d","ios":"levelo://app?vid=a7eac262-eb51-4389-b1be-da01ea30947d"},"vehicle_type_id":"4","last_reported":1761404947,"current_range_meters":6000,"station_id":"st_d2ngiaodas8pm72gd1h0","pricing_plan_id":"cebpf4jnsgd1na2vs0mg"},{"bike_id":"b9764ed2-f91a-421e-b54e-d7527bd8af22","system_id":"levelo_inurba_marseille","lat":43.29811,"lon":5.36588,"is_reserved":false,"is_disabled":false,"rental_uris":{"android":"levelo://app?vid=b9764ed2-f91a-421e-b54e-d7527bd8af22","ios":"levelo://app?vid=b9764ed2-f91a-421e-b54e-d7527bd8af22"},"vehicle_type_id":"4","last_reported":1761404947,"current_range_meters":6400,"station_id":"","pricing_plan_id":"cebpf4jnsgd1na2vs0mg"},{"bike_id":"a1620582-473d-45e9-bdc5-25ed58d81518","system_id":"levelo_inurba_marseille","lat":43.27171,"lon":5.40998,"is_reserved":false,"is_disabled":false,"rental_uris":{"android":"levelo://app?vid=a1620582-473d-45e9-bdc5-25ed58d81518","ios":"levelo://app?vid=a1620582-473d-45e9-bdc5-25ed58d81518"},"vehicle_type_id":"4","last_reported":1761404947,"current_range_meters":6400,"station_id":"ce4bhl12rcd13ifvqgf0","pricing_plan_id":"cebpf4jnsgd1na2vs0mg"},{"bike_id":"d0f18cd6-9283-481b-ae2b-56a2f6aae4a5","system_id":"levelo_inurba_marseille","lat":43.26192,"lon":5.37451,"is_reserved":false,"is_disabled":false,"rental_uris":{"android":"levelo://app?vid=d0f18cd6-9283-481b-ae2b-56a2f6aae4a5","ios":"levelo://app?vid=d0f18cd6-9283-481b-ae2b-56a2f6aae4a5"},"vehicle_type_id":"4","last_reported":1761404947,"current_range_meters":6400,"station_id":"ce4bhgp2rcd13ifvqfc0","pricing_plan_id":"cebpf4jnsgd1na2vs0mg"},{"bike_id":"11e94eac-1100-4050-bc30-7f15441012ec","system_id":"levelo_inurba_marseille","lat":43.3095,"lon":5.39034,"is_reserved":false,"is_disabled":false,"rental_uris":{"android":"levelo://app?vid=11e94eac-1100-4050-bc30-7f15441012ec","ios":"levelo://app?vid=11e94eac-1100-4050-bc30-7f15441012ec"},"vehicle_type_id":"4","last_reported":1761404947,"current_range_meters":6400,"station_id":"ce4bgup2rcd13ifvqco0","pricing_plan_id":"cebpf4jnsgd1na2vs0mg"},{"bike_id":"bf3c6e76-1af0-437d-b7a1-9c7aea70131c","system_id":"levelo_inurba_marseille","lat":43.2923,"lon":5.36067,"is_reserved":false,"is_disabled":false,"rental_uris":{"android":"levelo://app?vid=bf3c6e76-1af0-437d-b7a1-9c7aea70131c","ios":"levelo://app?vid=bf3c6e76-1af0-437d-b7a1-9c7aea70131c"},"vehicle_type_id":"4","last_reported":1761404947,"current_range_meters":6400,"station_id":"ce4bhbh2rcd13ifvqeqg","pricing_plan_id":"cebpf4jnsgd1na2vs0mg"},{"bike_id":"575efb12-7b12-4f03-93a1-37f6c5ef750e","system_id":"levelo_inurba_marseille","lat":43.29761,"lon":5.42787,"is_reserved":false,"is_disabled":false,"rental_uris":{"android":"levelo://app?vid=575efb12-7b12-4f03-93a1-37f6c5ef750e","ios":"levelo://app?vid=575efb12-7b12-4f03-93a1-37f6c5ef750e"},"vehicle_type_id":"4","last_reported":1761404947,"current_range_meters":6400,"station_id":"st_d3md5207bmas73dh9klg","pricing_plan_id":"cebpf4jnsgd1na2vs0mg"},{"bike_id":"c1c19548-aeae-41f4-9628-9ba0242591dd","system_id":"levelo_inurba_marseille","lat":43.28427,"lon":5.35004,"is_reserved":false,"is_disabled":true,"rental_uris":{"android":"levelo://app?vid=c1c19548-aeae-41f4-9628-9ba0242591dd","ios":"levelo://app?vid=c1c19548-aeae-41f4-9628-9ba0242591dd"},"vehicle_type_id":"4","last_reported":1761404947,"current_range_meters":6800,"station_id":"ce4bhbh2rcd13ifvqepg","pricing_plan_id":"cebpf4jnsgd1na2vs0mg"},{"bike_id":"cb14a91a-e5a7-4fa2-9c1d-b1acec3d3362","system_id":"levelo_inurba_marseille","lat":43.2417,"lon":5.36377,"is_reserved":false,"is_disabled":false,"rental_uris":{"android":"levelo://app?vid=cb14a91a-e5a7-4fa2-9c1d-b1acec3d3362","ios":"levelo://app?vid=cb14a91a-e5a7-4fa2-9c1d-b1acec3d3362"},"vehicle_type_id":"4","last_reported":1761404947,"current_range_meters":6800,"station_id":"cpo36qri1sfpv3e86is0","pricing_plan_id":"cebpf4jnsgd1na2vs0mg"},{"bike_id":"9881c788-42a8-46f5-8ccc-580a73583155","system_id":"levelo_inurba_marseille","lat":43.32099,"lon":5.4092,"is_reserved":false,"is_disabled":false,"rental_uris":{"android":"levelo://app?vid=9881c788-42a8-46f5-8ccc-580a73583155","ios":"levelo://app?vid=9881c788-42a8-46f5-8ccc-580a73583155"},"vehicle_type_id":"4","last_reported":1761404947,"current_range_meters":6800,"station_id":"","pricing_plan_id":"cebpf4jnsgd1na2vs0mg"},{"bike_id":"76eded06-2a99-481e-9009-e45a39490b2a","system_id":"levelo_inurba_marseille","lat":43.299192,"lon":5.374729,"is_reserved":false,"is_disabled":false,"rental_uris":{"android":"levelo://app?vid=76eded06-2a99-481e-9009-e45a39490b2a","ios":"levelo://app?vid=76eded06-2a99-481e-9009-e45a39490b2a"},"vehicle_type_id":"4","last_reported":1761404947,"current_range_meters":6800,"station_id":"ce4bgjh2rcd13ifvqbg0","pricing_plan_id":"cebpf4jnsgd1na2vs0mg"},{"bike_id":"1cc8da98-bd4c-486b-b224-c1676d8cbbe5","system_id":"levelo_inurba_marseille","lat":43.2626,"lon":5.37426,"is_reserved":false,"is_disabled":false,"rental_uris":{"android":"levelo://app?vid=1cc8da98-bd4c-486b-b224-c1676d8cbbe5","ios":"levelo://app?vid=1cc8da98-bd4c-486b-b224-c1676d8cbbe5"},"vehicle_type_id":"4","last_reported":1761404947,"current_range_meters":7200,"station_id":"","pricing_plan_id":"cebpf4jnsgd1na2vs0mg"},{"bike_id":"ef9f94b6-49db-4195-b862-563223e2ba3d","system_id":"levelo_inurba_marseille","lat":43.217407,"lon":5.346034,"is_reserved":false,"is_disabled":false,"rental_uris":{"android":"levelo://app?vid=ef9f94b6-49db-4195-b862-563223e2ba3d","ios":"levelo://app?vid=ef9f94b6-49db-4195-b862-563223e2ba3d"},"vehicle_type_id":"4","last_reported":1761404947,"current_range_meters":7200,"station_id":"","pricing_plan_id":"cebpf4jnsgd1na2vs0mg"},{"bike_id":"d356cca8-4cd2-45af-8b2d-f442dd8f162a","system_id":"levelo_inurba_marseille","lat":43.2979,"lon":5.39338,"is_reserved":false,"is_disabled":false,"rental_uris":{"android":"levelo://app?vid=d356cca8-4cd2-45af-8b2d-f442dd8f162a","ios":"levelo://app?vid=d356cca8-4cd2-45af-8b2d-f442dd8f162a"},"vehicle_type_id":"4","last_reported":1761404947,"current_range_meters":7200,"station_id":"chh1huq6cuj3fo74tm60","pricing_plan_id":"cebpf4jnsgd1na2vs0mg"},{"bike_id":"70b439f3-62e1-497f-8a9f-eeac2a1c2c72","system_id":"levelo_inurba_marseille","lat":43.25089,"lon":5.39525,"is_reserved":false,"is_disabled":false,"rental_uris":{"android":"levelo://app?vid=70b439f3-62e1-497f-8a9f-eeac2a1c2c72","ios":"levelo://app?vid=70b439f3-62e1-497f-8a9f-eeac2a1c2c72"},"vehicle_type_id":"4","last_reported":1761404947,"current_range_meters":7200,"station_id":"ce4bhm12rcd13ifvqgkg","pricing_plan_id":"cebpf4jnsgd1na2vs0mg"},{"bike_id":"2842f5fd-7b05-4b47-909c-5ee54d7d3bc5","system_id":"levelo_inurba_marseille","lat":43.32449,"lon":5.42766,"is_reserved":false,"is_disabled":false,"rental_uris":{"android":"levelo://app?vid=2842f5fd-7b05-4b47-909c-5ee54d7d3bc5","ios":"levelo://app?vid=2842f5fd-7b05-4b47-909c-5ee54d7d3bc5"},"vehicle_type_id":"4","last_reported":1761404947,"current_range_meters":7200,"station_id":"","pricing_plan_id":"cebpf4jnsgd1na2vs0mg"},{"bike_id":"f0ffd779-e48d-41c5-ad10-867c8c47dc02","system_id":"levelo_inurba_marseille","lat":43.24173,"lon":5.36397,"is_reserved":false,"is_disabled":false,"rental_uris":{"android":"levelo://app?vid=f0ffd779-e48d-41c5-ad10-867c8c47dc02","ios":"levelo://app?vid=f0ffd779-e48d-41c5-ad10-867c8c47dc02"},"vehicle_type_id":"4","last_reported":1761404947,"current_range_meters":7200,"station_id":"cpo36qri1sfpv3e86is0","pricing_plan_id":"cebpf4jnsgd1na2vs0mg"},{"bike_id":"52b8d3b2-a470-422d-bd2b-e1c4cf518509","system_id":"levelo_inurba_marseille","lat":43.26194,"lon":5.37457,"is_reserved":false,"is_disabled":true,"rental_uris":{"android":"levelo://app?vid=52b8d3b2-a470-422d-bd2b-e1c4cf518509","ios":"levelo://app?vid=52b8d3b2-a470-422d-bd2b-e1c4cf518509"},"vehicle_type_id":"4","last_reported":1761404947,"current_range_meters":8000,"station_id":"","pricing_plan_id":"cebpf4jnsgd1na2vs0mg"},{"bike_id":"53881f93-48f1-4312-8257-bcb02eb6b29c","system_id":"levelo_inurba_marseille","lat":43.26793,"lon":5.39408,"is_reserved":false,"is_disabled":false,"rental_uris":{"android":"levelo://app?vid=53881f93-48f1-4312-8257-bcb02eb6b29c","ios":"levelo://app?vid=53881f93-48f1-4312-8257-bcb02eb6b29c"},"vehicle_type_id":"4","last_reported":1761404947,"current_range_meters":8000,"station_id":"ce4bhh12rcd13ifvqfg0","pricing_plan_id":"cebpf4jnsgd1na2vs0mg"},{"bike_id":"da5ec092-2438-4dd2-a625-8fc0f3baf6af","system_id":"levelo_inurba_marseille","lat":43.33722,"lon":5.36287,"is_reserved":false,"is_disabled":false,"rental_uris":{"android":"levelo://app?vid=da5ec092-2438-4dd2-a625-8fc0f3baf6af","ios":"levelo://app?vid=da5ec092-2438-4dd2-a625-8fc0f3baf6af"},"vehicle_type_id":"4","last_reported":1761404947,"current_range_meters":8000,"station_id":"","pricing_plan_id":"cebpf4jnsgd1na2vs0mg"},{"bike_id":"8480dd70-a294-4a06-9a10-0a21fe45c65b","system_id":"levelo_inurba_marseille","lat":43.267333,"lon":5.383603,"is_reserved":false,"is_disabled":false,"rental_uris":{"android":"levelo://app?vid=8480dd70-a294-4a06-9a10-0a21fe45c65b","ios":"levelo://app?vid=8480dd70-a294-4a06-9a10-0a21fe45c65b"},"vehicle_type_id":"4","last_reported":1761404947,"current_range_meters":8000,"station_id":"ce4bhh92rcd13ifvqfh0","pricing_plan_id":"cebpf4jnsgd1na2vs0mg"},{"bike_id":"f186d00c-85aa-4b59-b84f-bece92955c4e","system_id":"levelo_inurba_marseille","lat":43.2495,"lon":5.40485,"is_reserved":false,"is_disabled":false,"rental_uris":{"android":"levelo://app?vid=f186d00c-85aa-4b59-b84f-bece92955c4e","ios":"levelo://app?vid=f186d00c-85aa-4b59-b84f-bece92955c4e"},"vehicle_type_id":"4","last_reported":1761404947,"current_range_meters":8400,"station_id":"st_d2ngiaodas8pm72gd1h0","pricing_plan_id":"cebpf4jnsgd1na2vs0mg"},{"bike_id":"4c7c6ceb-1568-4409-bc0c-13cebba20889","system_id":"levelo_inurba_marseille","lat":43.28431,"lon":5.3751,"is_reserved":false,"is_disabled":false,"rental_uris":{"android":"levelo://app?vid=4c7c6ceb-1568-4409-bc0c-13cebba20889","ios":"levelo://app?vid=4c7c6ceb-1568-4409-bc0c-13cebba20889"},"vehicle_type_id":"4","last_reported":1761404947,"current_range_meters":8400,"station_id":"ce4bh412rcd13ifvqds0","pricing_plan_id":"cebpf4jnsgd1na2vs0mg"},{"bike_id":"5a9ad3d6-9cae-4728-9f40-ff8723a3349d","system_id":"levelo_inurba_marseille","lat":43.24657,"lon":5.3891,"is_reserved":false,"is_disabled":false,"rental_uris":{"android":"levelo://app?vid=5a9ad3d6-9cae-4728-9f40-ff8723a3349d","ios":"levelo://app?vid=5a9ad3d6-9cae-4728-9f40-ff8723a3349d"},"vehicle_type_id":"4","last_reported":1761404947,"current_range_meters":8400,"station_id":"ce4bhg12rcd13ifvqf60","pricing_plan_id":"cebpf4jnsgd1na2vs0mg"},{"bike_id":"d3ae7a89-5329-4891-b9ef-aff90a8306f9","system_id":"levelo_inurba_marseille","lat":43.24181,"lon":5.39727,"is_reserved":false,"is_disabled":false,"rental_uris":{"android":"levelo://app?vid=d3ae7a89-5329-4891-b9ef-aff90a8306f9","ios":"levelo://app?vid=d3ae7a89-5329-4891-b9ef-aff90a8306f9"},"vehicle_type_id":"4","last_reported":1761404947,"current_range_meters":8400,"station_id":"ce4bhn12rcd13ifvqgpg","pricing_plan_id":"cebpf4jnsgd1na2vs0mg"},{"bike_id":"e35e1247-2ec0-4206-a360-6aaa534a130f","system_id":"levelo_inurba_marseille","lat":43.28476,"lon":5.48409,"is_reserved":false,"is_disabled":false,"rental_uris":{"android":"levelo://app?vid=e35e1247-2ec0-4206-a360-6aaa534a130f","ios":"levelo://app?vid=e35e1247-2ec0-4206-a360-6aaa534a130f"},"vehicle_type_id":"4","last_reported":1761404947,"current_range_meters":8400,"station_id":"st_d3svhcjqgbts73a3dn0g","pricing_plan_id":"cebpf4jnsgd1na2vs0mg"},{"bike_id":"61077500-fdc2-4b6c-8e26-edc48e82236e","system_id":"levelo_inurba_marseille","lat":43.30553,"lon":5.36566,"is_reserved":false,"is_disabled":false,"rental_uris":{"android":"levelo://app?vid=61077500-fdc2-4b6c-8e26-edc48e82236e","ios":"levelo://app?vid=61077500-fdc2-4b6c-8e26-edc48e82236e"},"vehicle_type_id":"4","last_reported":1761404947,"current_range_meters":8400,"station_id":"ce4bgs12rcd13ifvqcag","pricing_plan_id":"cebpf4jnsgd1na2vs0mg"},{"bike_id":"48a273fc-bbd6-4e01-9588-b5d8ed0bcc94","system_id":"levelo_inurba_marseille","lat":43.29626,"lon":5.37723,"is_reserved":false,"is_disabled":false,"rental_uris":{"android":"levelo://app?vid=48a273fc-bbd6-4e01-9588-b5d8ed0bcc94","ios":"levelo://app?vid=48a273fc-bbd6-4e01-9588-b5d8ed0bcc94"},"vehicle_type_id":"4","last_reported":1761404947,"current_range_meters":8400,"station_id":"ce4bgi92rcd13ifvqb90","pricing_plan_id":"cebpf4jnsgd1na2vs0mg"},{"bike_id":"5f9debc0-c360-4a2e-b517-592e9a0c2818","system_id":"levelo_inurba_marseille","lat":43.32937,"lon":5.42794,"is_reserved":false,"is_disabled":false,"rental_uris":{"android":"levelo://app?vid=5f9debc0-c360-4a2e-b517-592e9a0c2818","ios":"levelo://app?vid=5f9debc0-c360-4a2e-b517-592e9a0c2818"},"vehicle_type_id":"4","last_reported":1761404947,"current_range_meters":8800,"station_id":"","pricing_plan_id":"cebpf4jnsgd1na2vs0mg"},{"bike_id":"c0f624dd-3807-4a88-89e9-615c2846206c","system_id":"levelo_inurba_marseille","lat":43.280335,"lon":5.369462,"is_reserved":false,"is_disabled":false,"rental_uris":{"android":"levelo://app?vid=c0f624dd-3807-4a88-89e9-615c2846206c","ios":"levelo://app?vid=c0f624dd-3807-4a88-89e9-615c2846206c"},"vehicle_type_id":"4","last_reported":1761404947,"current_range_meters":9200,"station_id":"ce4bha12rcd13ifvqef0","pricing_plan_id":"cebpf4jnsgd1na2vs0mg"},{"bike_id":"00a4d947-3925-4f5f-938d-b2872c6b5678","system_id":"levelo_inurba_marseille","lat":43.229269,"lon":5.353748,"is_reserved":false,"is_disabled":false,"rental_uris":{"android":"levelo://app?vid=00a4d947-3925-4f5f-938d-b2872c6b5678","ios":"levelo://app?vid=00a4d947-3925-4f5f-938d-b2872c6b5678"},"vehicle_type_id":"4","last_reported":1761404947,"current_range_meters":9200,"station_id":"ce4bhu92rcd13ifvqi70","pricing_plan_id":"cebpf4jnsgd1na2vs0mg"},{"bike_id":"6dc7ce97-5a29-45d8-821d-808e762fcbb6","system_id":"levelo_inurba_marseille","lat":43.30144,"lon":5.3742,"is_reserved":false,"is_disabled":false,"rental_uris":{"android":"levelo://app?vid=6dc7ce97-5a29-45d8-821d-808e762fcbb6","ios":"levelo://app?vid=6dc7ce97-5a29-45d8-821d-808e762fcbb6"},"vehicle_type_id":"4","last_reported":1761404947,"current_range_meters":9200,"station_id":"ce4bgs92rcd13ifvqcc0","pricing_plan_id":"cebpf4jnsgd1na2vs0mg"},{"bike_id":"66609326-d1f6-41ab-a12a-4507fce96ad6","system_id":"levelo_inurba_marseille","lat":43.23781,"lon":5.36631,"is_reserved":false,"is_disabled":false,"rental_uris":{"android":"levelo://app?vid=66609326-d1f6-41ab-a12a-4507fce96ad6","ios":"levelo://app?vid=66609326-d1f6-41ab-a12a-4507fce96ad6"},"vehicle_type_id":"4","last_reported":1761404947,"current_range_meters":9200,"station_id":"st_d3nk18o9ro0c73en2l3g","pricing_plan_id":"cebpf4jnsgd1na2vs0mg"},{"bike_id":"7a051f92-0e01-474b-bf0d-2e8f5e8c4108","system_id":"levelo_inurba_marseille","lat":43.313859,"lon":5.397073,"is_reserved":false,"is_disabled":false,"rental_uris":{"android":"levelo://app?vid=7a051f92-0e01-474b-bf0d-2e8f5e8c4108","ios":"levelo://app?vid=7a051f92-0e01-474b-bf0d-2e8f5e8c4108"},"vehicle_type_id":"4","last_reported":1761404947,"current_range_meters":9600,"station_id":"ce4bgvp2rcd13ifvqcu0","pricing_plan_id":"cebpf4jnsgd1na2vs0mg"},{"bike_id":"6398fd05-47e5-41f8-95bf-116d17d1d757","system_id":"levelo_inurba_marseille","lat":43.292603,"lon":5.384447,"is_reserved":false,"is_disabled":false,"rental_uris":{"android":"levelo://app?vid=6398fd05-47e5-41f8-95bf-116d17d1d757","ios":"levelo://app?vid=6398fd05-47e5-41f8-95bf-116d17d1d757"},"vehicle_type_id":"4","last_reported":1761404947,"current_range_meters":9600,"station_id":"","pricing_plan_id":"cebpf4jnsgd1na2vs0mg"},{"bike_id":"3e23bcf8-7ad4-4c3a-9a9f-837f0e20a990","system_id":"levelo_inurba_marseille","lat":43.308904,"lon":5.371977,"is_reserved":false,"is_disabled":false,"rental_uris":{"android":"levelo://app?vid=3e23bcf8-7ad4-4c3a-9a9f-837f0e20a990","ios":"levelo://app?vid=3e23bcf8-7ad4-4c3a-9a9f-837f0e20a990"},"vehicle_type_id":"4","last_reported":1761404947,"current_range_meters":9600,"station_id":"ce4bguh2rcd13ifvqckg","pricing_plan_id":"cebpf4jnsgd1na2vs0mg"},{"bike_id":"4f5c5045-2f2c-4ab7-ad8b-eeba1d52fe66","system_id":"levelo_inurba_marseille","lat":43.29602,"lon":5.36594,"is_reserved":false,"is_disabled":false,"rental_uris":{"android":"levelo://app?vid=4f5c5045-2f2c-4ab7-ad8b-eeba1d52fe66","ios":"levelo://app?vid=4f5c5045-2f2c-4ab7-ad8b-eeba1d52fe66"},"vehicle_type_id":"4","last_reported":1761404947,"current_range_meters":9600,"station_id":"","pricing_plan_id":"cebpf4jnsgd1na2vs0mg"},{"bike_id":"e94f57f2-601c-4cad-a187-6e953770aa25","system_id":"levelo_inurba_marseille","lat":43.31183,"lon":5.37873,"is_reserved":false,"is_disabled":false,"rental_uris":{"android":"levelo://app?vid=e94f57f2-601c-4cad-a187-6e953770aa25","ios":"levelo://app?vid=e94f57f2-601c-4cad-a187-6e953770aa25"},"vehicle_type_id":"4","last_reported":1761404947,"current_range_meters":9600,"station_id":"","pricing_plan_id":"cebpf4jnsgd1na2vs0mg"},{"bike_id":"ec6cdb2c-b9d1-4dc7-8faa-2545f9b4bdbb","system_id":"levelo_inurba_marseille","lat":43.29939,"lon":5.36548,"is_reserved":false,"is_disabled":false,"rental_uris":{"android":"levelo://app?vid=ec6cdb2c-b9d1-4dc7-8faa-2545f9b4bdbb","ios":"levelo://app?vid=ec6cdb2c-b9d1-4dc7-8faa-2545f9b4bdbb"},"vehicle_type_id":"4","last_reported":1761404947,"current_range_meters":9600,"station_id":"ce4bgm92rcd13ifvqbr0","pricing_plan_id":"cebpf4jnsgd1na2vs0mg"},{"bike_id":"e5b8e6dc-aafb-4341-b199-bcfa2c2195d0","system_id":"levelo_inurba_marseille","lat":43.27216,"lon":5.39183,"is_reserved":false,"is_disabled":false,"rental_uris":{"android":"levelo://app?vid=e5b8e6dc-aafb-4341-b199-bcfa2c2195d0","ios":"levelo://app?vid=e5b8e6dc-aafb-4341-b199-bcfa2c2195d0"},"vehicle_type_id":"4","last_reported":1761404947,"current_range_meters":9600,"station_id":"ce4bhhp2rcd13ifvqfm0","pricing_plan_id":"cebpf4jnsgd1na2vs0mg"},{"bike_id":"69599b97-b573-4868-ae16-9bda40c9248f","system_id":"levelo_inurba_marseille","lat":43.21186,"lon":5.3509,"is_reserved":false,"is_disabled":false,"rental_uris":{"android":"levelo://app?vid=69599b97-b573-4868-ae16-9bda40c9248f","ios":"levelo://app?vid=69599b97-b573-4868-ae16-9bda40c9248f"},"vehicle_type_id":"4","last_reported":1761404947,"current_range_meters":10000,"station_id":"st_cvj6sg6p6f1abm77japg","pricing_plan_id":"cebpf4jnsgd1na2vs0mg"},{"bike_id":"720594b2-a4f1-4735-a6b2-513df964fe45","system_id":"levelo_inurba_marseille","lat":43.29025,"lon":5.38661,"is_reserved":false,"is_disabled":false,"rental_uris":{"android":"levelo://app?vid=720594b2-a4f1-4735-a6b2-513df964fe45","ios":"levelo://app?vid=720594b2-a4f1-4735-a6b2-513df964fe45"},"vehicle_type_id":"4","last_reported":1761404947,"current_range_meters":10000,"station_id":"ce4bh4p2rcd13ifvqe0g","pricing_plan_id":"cebpf4jnsgd1na2vs0mg"},{"bike_id":"b109e4ce-ec42-4c2f-a0bc-f2f88e853860","system_id":"levelo_inurba_marseille","lat":43.2782,"lon":5.40711,"is_reserved":false,"is_disabled":false,"rental_uris":{"android":"levelo://app?vid=b109e4ce-ec42-4c2f-a0bc-f2f88e853860","ios":"levelo://app?vid=b109e4ce-ec42-4c2f-a0bc-f2f88e853860"},"vehicle_type_id":"4","last_reported":1761404947,"current_range_meters":10000,"station_id":"ce4bhnh2rcd13ifvqgtg","pricing_plan_id":"cebpf4jnsgd1na2vs0mg"},{"bike_id":"f6868213-b68b-4bc1-a4aa-9062b5ce2e5c","system_id":"levelo_inurba_marseille","lat":43.28266,"lon":5.35067,"is_reserved":false,"is_disabled":false,"rental_uris":{"android":"levelo://app?vid=f6868213-b68b-4bc1-a4aa-9062b5ce2e5c","ios":"levelo://app?vid=f6868213-b68b-4bc1-a4aa-9062b5ce2e5c"},"vehicle_type_id":"4","last_reported":1761404947,"current_range_meters":10000,"station_id":"","pricing_plan_id":"cebpf4jnsgd1na2vs0mg"},{"bike_id":"6442f358-1ada-4234-93f1-bfcef0cc8f67","system_id":"levelo_inurba_marseille","lat":43.24646,"lon":5.3889,"is_reserved":false,"is_disabled":false,"rental_uris":{"android":"levelo://app?vid=6442f358-1ada-4234-93f1-bfcef0cc8f67","ios":"levelo://app?vid=6442f358-1ada-4234-93f1-bfcef0cc8f67"},"vehicle_type_id":"4","last_reported":1761404947,"current_range_meters":10000,"station_id":"ce4bhg12rcd13ifvqf60","pricing_plan_id":"cebpf4jnsgd1na2vs0mg"},{"bike_id":"a35a4922-b803-4cd9-8623-7e895c294787","system_id":"levelo_inurba_marseille","lat":43.29831,"lon":5.38231,"is_reserved":false,"is_disabled":true,"rental_uris":{"android":"levelo://app?vid=a35a4922-b803-4cd9-8623-7e895c294787","ios":"levelo://app?vid=a35a4922-b803-4cd9-8623-7e895c294787"},"vehicle_type_id":"4","last_reported":1761404947,"current_range_meters":10000,"station_id":"","pricing_plan_id":"cebpf4jnsgd1na2vs0mg"},{"bike_id":"0671491b-7b02-4d71-9bf5-7f6444ff1231","system_id":"levelo_inurba_marseille","lat":43.28617,"lon":5.35106,"is_reserved":false,"is_disabled":false,"rental_uris":{"android":"levelo://app?vid=0671491b-7b02-4d71-9bf5-7f6444ff1231","ios":"levelo://app?vid=0671491b-7b02-4d71-9bf5-7f6444ff1231"},"vehicle_type_id":"4","last_reported":1761404947,"current_range_meters":10800,"station_id":"ce4bhch2rcd13ifvqeug","pricing_plan_id":"cebpf4jnsgd1na2vs0mg"},{"bike_id":"29fa1c3a-84c0-4097-a14b-afc70c66554e","system_id":"levelo_inurba_marseille","lat":43.24995,"lon":5.38932,"is_reserved":false,"is_disabled":false,"rental_uris":{"android":"levelo://app?vid=29fa1c3a-84c0-4097-a14b-afc70c66554e","ios":"levelo://app?vid=29fa1c3a-84c0-4097-a14b-afc70c66554e"},"vehicle_type_id":"4","last_reported":1761404947,"current_range_meters":10800,"station_id":"ce4bhgp2rcd13ifvqfd0","pricing_plan_id":"cebpf4jnsgd1na2vs0mg"},{"bike_id":"dba4b148-1929-47f7-b0e8-48a753598305","system_id":"levelo_inurba_marseille","lat":43.30318,"lon":5.40431,"is_reserved":false,"is_disabled":false,"rental_uris":{"android":"levelo://app?vid=dba4b148-1929-47f7-b0e8-48a753598305","ios":"levelo://app?vid=dba4b148-1929-47f7-b0e8-48a753598305"},"vehicle_type_id":"4","last_reported":1761404947,"current_range_meters":10800,"station_id":"ce4bh012rcd13ifvqd10","pricing_plan_id":"cebpf4jnsgd1na2vs0mg"},{"bike_id":"b24cef30-5835-47c7-8182-564b1cc0ec57","system_id":"levelo_inurba_marseille","lat":43.2872,"lon":5.37944,"is_reserved":false,"is_disabled":false,"rental_uris":{"android":"levelo://app?vid=b24cef30-5835-47c7-8182-564b1cc0ec57","ios":"levelo://app?vid=b24cef30-5835-47c7-8182-564b1cc0ec57"},"vehicle_type_id":"4","last_reported":1761404947,"current_range_meters":10800,"station_id":"ce4bh9p2rcd13ifvqec0","pricing_plan_id":"cebpf4jnsgd1na2vs0mg"},{"bike_id":"5d62386b-280d-49a0-8f88-c2e93c4316fe","system_id":"levelo_inurba_marseille","lat":43.2827,"lon":5.35063,"is_reserved":false,"is_disabled":false,"rental_uris":{"android":"levelo://app?vid=5d62386b-280d-49a0-8f88-c2e93c4316fe","ios":"levelo://app?vid=5d62386b-280d-49a0-8f88-c2e93c4316fe"},"vehicle_type_id":"4","last_reported":1761404947,"current_range_meters":10800,"station_id":"ce4bhbp2rcd13ifvqerg","pricing_plan_id":"cebpf4jnsgd1na2vs0mg"},{"bike_id":"72595d14-8f84-4de5-a9ab-f8151c131960","system_id":"levelo_inurba_marseille","lat":43.22908,"lon":5.35407,"is_reserved":false,"is_disabled":false,"rental_uris":{"android":"levelo://app?vid=72595d14-8f84-4de5-a9ab-f8151c131960","ios":"levelo://app?vid=72595d14-8f84-4de5-a9ab-f8151c131960"},"vehicle_type_id":"4","last_reported":1761404947,"current_range_meters":11200,"station_id":"cpo3532slgdg3j2ikp40","pricing_plan_id":"cebpf4jnsgd1na2vs0mg"},{"bike_id":"c70a5567-5460-4c31-a070-7544e706941c","system_id":"levelo_inurba_marseille","lat":43.225594,"lon":5.416468,"is_reserved":false,"is_disabled":false,"rental_uris":{"android":"levelo://app?vid=c70a5567-5460-4c31-a070-7544e706941c","ios":"levelo://app?vid=c70a5567-5460-4c31-a070-7544e706941c"},"vehicle_type_id":"4","last_reported":1761404947,"current_range_meters":11200,"station_id":"st_d2o4gvlbi1j2169b742g","pricing_plan_id":"cebpf4jnsgd1na2vs0mg"},{"bike_id":"420b6971-47e2-4c67-8bd0-faa4f00e5ca7","system_id":"levelo_inurba_marseille","lat":43.299649,"lon":5.41319,"is_reserved":false,"is_disabled":false,"rental_uris":{"android":"levelo://app?vid=420b6971-47e2-4c67-8bd0-faa4f00e5ca7","ios":"levelo://app?vid=420b6971-47e2-4c67-8bd0-faa4f00e5ca7"},"vehicle_type_id":"4","last_reported":1761404947,"current_range_meters":11600,"station_id":"","pricing_plan_id":"cebpf4jnsgd1na2vs0mg"},{"bike_id":"60fd8878-0379-4451-9fbf-965925abb55e","system_id":"levelo_inurba_marseille","lat":43.27429,"lon":5.39415,"is_reserved":false,"is_disabled":false,"rental_uris":{"android":"levelo://app?vid=60fd8878-0379-4451-9fbf-965925abb55e","ios":"levelo://app?vid=60fd8878-0379-4451-9fbf-965925abb55e"},"vehicle_type_id":"4","last_reported":1761404947,"current_range_meters":11600,"station_id":"ce4bhdp2rcd13ifvqf20","pricing_plan_id":"cebpf4jnsgd1na2vs0mg"},{"bike_id":"9d964ec4-c537-4f1d-b21c-451d3f46b1bf","system_id":"levelo_inurba_marseille","lat":43.29902,"lon":5.37846,"is_reserved":false,"is_disabled":false,"rental_uris":{"android":"levelo://app?vid=9d964ec4-c537-4f1d-b21c-451d3f46b1bf","ios":"levelo://app?vid=9d964ec4-c537-4f1d-b21c-451d3f46b1bf"},"vehicle_type_id":"4","last_reported":1761404947,"current_range_meters":11600,"station_id":"","pricing_plan_id":"cebpf4jnsgd1na2vs0mg"},{"bike_id":"36f6cdca-552f-439a-8720-2ce7fbad2722","system_id":"levelo_inurba_marseille","lat":43.21192,"lon":5.3508,"is_reserved":false,"is_disabled":false,"rental_uris":{"android":"levelo://app?vid=36f6cdca-552f-439a-8720-2ce7fbad2722","ios":"levelo://app?vid=36f6cdca-552f-439a-8720-2ce7fbad2722"},"vehicle_type_id":"4","last_reported":1761404947,"current_range_meters":12000,"station_id":"st_cvj6sg6p6f1abm77japg","pricing_plan_id":"cebpf4jnsgd1na2vs0mg"},{"bike_id":"8be6a47c-9542-4fed-8109-f6d91a0f2b3f","system_id":"levelo_inurba_marseille","lat":43.29174,"lon":5.37161,"is_reserved":false,"is_disabled":false,"rental_uris":{"android":"levelo://app?vid=8be6a47c-9542-4fed-8109-f6d91a0f2b3f","ios":"levelo://app?vid=8be6a47c-9542-4fed-8109-f6d91a0f2b3f"},"vehicle_type_id":"4","last_reported":1761404947,"current_range_meters":12000,"station_id":"ce4bha92rcd13ifvqeh0","pricing_plan_id":"cebpf4jnsgd1na2vs0mg"},{"bike_id":"fa063608-29c2-42ab-95b5-2fc82231eea9","system_id":"levelo_inurba_marseille","lat":43.211831,"lon":5.350732,"is_reserved":false,"is_disabled":true,"rental_uris":{"android":"levelo://app?vid=fa063608-29c2-42ab-95b5-2fc82231eea9","ios":"levelo://app?vid=fa063608-29c2-42ab-95b5-2fc82231eea9"},"vehicle_type_id":"4","last_reported":1761404947,"current_range_meters":12000,"station_id":"st_cvj6sg6p6f1abm77japg","pricing_plan_id":"cebpf4jnsgd1na2vs0mg"},{"bike_id":"be19196c-43ec-4fbd-9fb6-64ed8310544e","system_id":"levelo_inurba_marseille","lat":43.286946,"lon":5.374104,"is_reserved":false,"is_disabled":false,"rental_uris":{"android":"levelo://app?vid=be19196c-43ec-4fbd-9fb6-64ed8310544e","ios":"levelo://app?vid=be19196c-43ec-4fbd-9fb6-64ed8310544e"},"vehicle_type_id":"4","last_reported":1761404947,"current_range_meters":12000,"station_id":"ce4bh3p2rcd13ifvqdq0","pricing_plan_id":"cebpf4jnsgd1na2vs0mg"},{"bike_id":"240176b4-b48e-48c2-a73c-b9b66d9a5804","system_id":"levelo_inurba_marseille","lat":43.25512,"lon":5.37655,"is_reserved":false,"is_disabled":false,"rental_uris":{"android":"levelo://app?vid=240176b4-b48e-48c2-a73c-b9b66d9a5804","ios":"levelo://app?vid=240176b4-b48e-48c2-a73c-b9b66d9a5804"},"vehicle_type_id":"4","last_reported":1761404947,"current_range_meters":12400,"station_id":"ce4bhh12rcd13ifvqff0","pricing_plan_id":"cebpf4jnsgd1na2vs0mg"},{"bike_id":"138f7dc1-3f81-4929-bccd-502f812bd50e","system_id":"levelo_inurba_marseille","lat":43.28041,"lon":5.36934,"is_reserved":false,"is_disabled":false,"rental_uris":{"android":"levelo://app?vid=138f7dc1-3f81-4929-bccd-502f812bd50e","ios":"levelo://app?vid=138f7dc1-3f81-4929-bccd-502f812bd50e"},"vehicle_type_id":"4","last_reported":1761404947,"current_range_meters":12400,"station_id":"ce4bha12rcd13ifvqef0","pricing_plan_id":"cebpf4jnsgd1na2vs0mg"},{"bike_id":"c1ec6389-49d8-45a2-bcc8-528b10f21d8f","system_id":"levelo_inurba_marseille","lat":43.28408,"lon":5.34997,"is_reserved":false,"is_disabled":false,"rental_uris":{"android":"levelo://app?vid=c1ec6389-49d8-45a2-bcc8-528b10f21d8f","ios":"levelo://app?vid=c1ec6389-49d8-45a2-bcc8-528b10f21d8f"},"vehicle_type_id":"4","last_reported":1761404947,"current_range_meters":12400,"station_id":"ce4bhbh2rcd13ifvqepg","pricing_plan_id":"cebpf4jnsgd1na2vs0mg"},{"bike_id":"8e404714-ec21-4452-a16f-e8adddfd7dc2","system_id":"levelo_inurba_marseille","lat":43.29098,"lon":5.38126,"is_reserved":false,"is_disabled":false,"rental_uris":{"android":"levelo://app?vid=8e404714-ec21-4452-a16f-e8adddfd7dc2","ios":"levelo://app?vid=8e404714-ec21-4452-a16f-e8adddfd7dc2"},"vehicle_type_id":"4","last_reported":1761404947,"current_range_meters":12400,"station_id":"ce4bh512rcd13ifvqe2g","pricing_plan_id":"cebpf4jnsgd1na2vs0mg"},{"bike_id":"6fe96865-7550-461c-b9f1-308cd6c3b56c","system_id":"levelo_inurba_marseille","lat":43.28703,"lon":5.37404,"is_reserved":false,"is_disabled":false,"rental_uris":{"android":"levelo://app?vid=6fe96865-7550-461c-b9f1-308cd6c3b56c","ios":"levelo://app?vid=6fe96865-7550-461c-b9f1-308cd6c3b56c"},"vehicle_type_id":"4","last_reported":1761404947,"current_range_meters":12800,"station_id":"ce4bh3p2rcd13ifvqdq0","pricing_plan_id":"cebpf4jnsgd1na2vs0mg"},{"bike_id":"43117888-69d1-4bc6-a73a-697554e4a08e","system_id":"levelo_inurba_marseille","lat":43.2525,"lon":5.37815,"is_reserved":false,"is_disabled":false,"rental_uris":{"android":"levelo://app?vid=43117888-69d1-4bc6-a73a-697554e4a08e","ios":"levelo://app?vid=43117888-69d1-4bc6-a73a-697554e4a08e"},"vehicle_type_id":"4","last_reported":1761404947,"current_range_meters":12800,"station_id":"","pricing_plan_id":"cebpf4jnsgd1na2vs0mg"},{"bike_id":"ca103bdc-3e92-4a13-8ef4-b8ca54671a99","system_id":"levelo_inurba_marseille","lat":43.29605,"lon":5.38104,"is_reserved":false,"is_disabled":false,"rental_uris":{"android":"levelo://app?vid=ca103bdc-3e92-4a13-8ef4-b8ca54671a99","ios":"levelo://app?vid=ca103bdc-3e92-4a13-8ef4-b8ca54671a99"},"vehicle_type_id":"4","last_reported":1761404947,"current_range_meters":12800,"station_id":"ce4bgl12rcd13ifvqbo0","pricing_plan_id":"cebpf4jnsgd1na2vs0mg"},{"bike_id":"65ac5400-893e-4c01-98ad-f5de274a3ac4","system_id":"levelo_inurba_marseille","lat":43.25819,"lon":5.39441,"is_reserved":false,"is_disabled":false,"rental_uris":{"android":"levelo://app?vid=65ac5400-893e-4c01-98ad-f5de274a3ac4","ios":"levelo://app?vid=65ac5400-893e-4c01-98ad-f5de274a3ac4"},"vehicle_type_id":"4","last_reported":1761404947,"current_range_meters":12800,"station_id":"ce4bhip2rcd13ifvqft0","pricing_plan_id":"cebpf4jnsgd1na2vs0mg"},{"bike_id":"312aaf13-7b12-4dfe-a241-ca5dadc1071d","system_id":"levelo_inurba_marseille","lat":43.26206,"lon":5.37457,"is_reserved":false,"is_disabled":false,"rental_uris":{"android":"levelo://app?vid=312aaf13-7b12-4dfe-a241-ca5dadc1071d","ios":"levelo://app?vid=312aaf13-7b12-4dfe-a241-ca5dadc1071d"},"vehicle_type_id":"4","last_reported":1761404947,"current_range_meters":12800,"station_id":"ce4bhgp2rcd13ifvqfc0","pricing_plan_id":"cebpf4jnsgd1na2vs0mg"},{"bike_id":"3103bc08-d9e9-4246-a38c-78dc4f2c4a4e","system_id":"levelo_inurba_marseille","lat":43.28441,"lon":5.39212,"is_reserved":false,"is_disabled":false,"rental_uris":{"android":"levelo://app?vid=3103bc08-d9e9-4246-a38c-78dc4f2c4a4e","ios":"levelo://app?vid=3103bc08-d9e9-4246-a38c-78dc4f2c4a4e"},"vehicle_type_id":"4","last_reported":1761404947,"current_range_meters":12800,"station_id":"ce4bhoh2rcd13ifvqh5g","pricing_plan_id":"cebpf4jnsgd1na2vs0mg"},{"bike_id":"3310615f-aea1-494c-b320-aea612b2bbb0","system_id":"levelo_inurba_marseille","lat":43.241621,"lon":5.363967,"is_reserved":false,"is_disabled":false,"rental_uris":{"android":"levelo://app?vid=3310615f-aea1-494c-b320-aea612b2bbb0","ios":"levelo://app?vid=3310615f-aea1-494c-b320-aea612b2bbb0"},"vehicle_type_id":"4","last_reported":1761404947,"current_range_meters":12800,"station_id":"cpo36qri1sfpv3e86is0","pricing_plan_id":"cebpf4jnsgd1na2vs0mg"},{"bike_id":"84a0b91a-ae2d-4228-99a9-980ebbb0ac1c","system_id":"levelo_inurba_marseille","lat":43.29787,"lon":5.39343,"is_reserved":false,"is_disabled":false,"rental_uris":{"android":"levelo://app?vid=84a0b91a-ae2d-4228-99a9-980ebbb0ac1c","ios":"levelo://app?vid=84a0b91a-ae2d-4228-99a9-980ebbb0ac1c"},"vehicle_type_id":"4","last_reported":1761404947,"current_range_meters":12800,"station_id":"chh1huq6cuj3fo74tm60","pricing_plan_id":"cebpf4jnsgd1na2vs0mg"},{"bike_id":"8e92164c-deff-4fbd-9f4e-43ff81933572","system_id":"levelo_inurba_marseille","lat":43.2982,"lon":5.42025,"is_reserved":false,"is_disabled":false,"rental_uris":{"android":"levelo://app?vid=8e92164c-deff-4fbd-9f4e-43ff81933572","ios":"levelo://app?vid=8e92164c-deff-4fbd-9f4e-43ff81933572"},"vehicle_type_id":"4","last_reported":1761404947,"current_range_meters":12800,"station_id":"","pricing_plan_id":"cebpf4jnsgd1na2vs0mg"},{"bike_id":"cd26ab16-3e3e-43ea-a563-05ea7a953084","system_id":"levelo_inurba_marseille","lat":43.31102,"lon":5.36762,"is_reserved":false,"is_disabled":false,"rental_uris":{"android":"levelo://app?vid=cd26ab16-3e3e-43ea-a563-05ea7a953084","ios":"levelo://app?vid=cd26ab16-3e3e-43ea-a563-05ea7a953084"},"vehicle_type_id":"4","last_reported":1761404947,"current_range_meters":12800,"station_id":"","pricing_plan_id":"cebpf4jnsgd1na2vs0mg"},{"bike_id":"8e84e97f-7432-41e2-a3a8-fa27e3f4a48f","system_id":"levelo_inurba_marseille","lat":43.299209,"lon":5.365543,"is_reserved":false,"is_disabled":false,"rental_uris":{"android":"levelo://app?vid=8e84e97f-7432-41e2-a3a8-fa27e3f4a48f","ios":"levelo://app?vid=8e84e97f-7432-41e2-a3a8-fa27e3f4a48f"},"vehicle_type_id":"4","last_reported":1761404947,"current_range_meters":13600,"station_id":"ce4bgm92rcd13ifvqbr0","pricing_plan_id":"cebpf4jnsgd1na2vs0mg"},{"bike_id":"ffb7913c-ee17-471f-bceb-6de8613fb36c","system_id":"levelo_inurba_marseille","lat":43.29866,"lon":5.39738,"is_reserved":false,"is_disabled":false,"rental_uris":{"android":"levelo://app?vid=ffb7913c-ee17-471f-bceb-6de8613fb36c","ios":"levelo://app?vid=ffb7913c-ee17-471f-bceb-6de8613fb36c"},"vehicle_type_id":"4","last_reported":1761404947,"current_range_meters":13600,"station_id":"ce4bh0h2rcd13ifvqd50","pricing_plan_id":"cebpf4jnsgd1na2vs0mg"},{"bike_id":"3dd5840e-452f-4cdc-8e22-6d6a992991bd","system_id":"levelo_inurba_marseille","lat":43.303169,"lon":5.403045,"is_reserved":false,"is_disabled":false,"rental_uris":{"android":"levelo://app?vid=3dd5840e-452f-4cdc-8e22-6d6a992991bd","ios":"levelo://app?vid=3dd5840e-452f-4cdc-8e22-6d6a992991bd"},"vehicle_type_id":"4","last_reported":1761404947,"current_range_meters":13600,"station_id":"ce4bh012rcd13ifvqd10","pricing_plan_id":"cebpf4jnsgd1na2vs0mg"},{"bike_id":"dab36927-4328-48fa-bffb-145a737de07e","system_id":"levelo_inurba_marseille","lat":43.307971,"lon":5.435257,"is_reserved":false,"is_disabled":true,"rental_uris":{"android":"levelo://app?vid=dab36927-4328-48fa-bffb-145a737de07e","ios":"levelo://app?vid=dab36927-4328-48fa-bffb-145a737de07e"},"vehicle_type_id":"4","last_reported":1761404947,"current_range_meters":14000,"station_id":"ce4bhph2rcd13ifvqheg","pricing_plan_id":"cebpf4jnsgd1na2vs0mg"},{"bike_id":"3c935e4e-877a-4a00-ad8e-5c824cd4c7e7","system_id":"levelo_inurba_marseille","lat":43.292623,"lon":5.409142,"is_reserved":false,"is_disabled":false,"rental_uris":{"android":"levelo://app?vid=3c935e4e-877a-4a00-ad8e-5c824cd4c7e7","ios":"levelo://app?vid=3c935e4e-877a-4a00-ad8e-5c824cd4c7e7"},"vehicle_type_id":"4","last_reported":1761404947,"current_range_meters":14000,"station_id":"ce4bh192rcd13ifvqdc0","pricing_plan_id":"cebpf4jnsgd1na2vs0mg"},{"bike_id":"3cccafcd-10a4-4f06-bcf4-e13fbfd6f217","system_id":"levelo_inurba_marseille","lat":43.2302,"lon":5.35485,"is_reserved":false,"is_disabled":false,"rental_uris":{"android":"levelo://app?vid=3cccafcd-10a4-4f06-bcf4-e13fbfd6f217","ios":"levelo://app?vid=3cccafcd-10a4-4f06-bcf4-e13fbfd6f217"},"vehicle_type_id":"4","last_reported":1761404947,"current_range_meters":14000,"station_id":"cpo3342slgdg3j2ifvpg","pricing_plan_id":"cebpf4jnsgd1na2vs0mg"},{"bike_id":"8c35a7e4-8378-4fdf-b42f-02e88b6199ca","system_id":"levelo_inurba_marseille","lat":43.32102,"lon":5.36772,"is_reserved":false,"is_disabled":false,"rental_uris":{"android":"levelo://app?vid=8c35a7e4-8378-4fdf-b42f-02e88b6199ca","ios":"levelo://app?vid=8c35a7e4-8378-4fdf-b42f-02e88b6199ca"},"vehicle_type_id":"4","last_reported":1761404947,"current_range_meters":14000,"station_id":"ce4bhrh2rcd13ifvqhug","pricing_plan_id":"cebpf4jnsgd1na2vs0mg"},{"bike_id":"2b07dbd5-8741-4147-a30f-d7c2c85a4db8","system_id":"levelo_inurba_marseille","lat":43.23788,"lon":5.36635,"is_reserved":false,"is_disabled":false,"rental_uris":{"android":"levelo://app?vid=2b07dbd5-8741-4147-a30f-d7c2c85a4db8","ios":"levelo://app?vid=2b07dbd5-8741-4147-a30f-d7c2c85a4db8"},"vehicle_type_id":"4","last_reported":1761404947,"current_range_meters":14400,"station_id":"st_d3nk18o9ro0c73en2l3g","pricing_plan_id":"cebpf4jnsgd1na2vs0mg"},{"bike_id":"41f3b2c6-c607-46f7-97fb-5ac71a087a64","system_id":"levelo_inurba_marseille","lat":43.24022,"lon":5.37852,"is_reserved":false,"is_disabled":false,"rental_uris":{"android":"levelo://app?vid=41f3b2c6-c607-46f7-97fb-5ac71a087a64","ios":"levelo://app?vid=41f3b2c6-c607-46f7-97fb-5ac71a087a64"},"vehicle_type_id":"4","last_reported":1761404947,"current_range_meters":14400,"station_id":"","pricing_plan_id":"cebpf4jnsgd1na2vs0mg"},{"bike_id":"5dd7b59e-49e3-4339-a9d2-399fd79e8208","system_id":"levelo_inurba_marseille","lat":43.21749,"lon":5.34611,"is_reserved":false,"is_disabled":false,"rental_uris":{"android":"levelo://app?vid=5dd7b59e-49e3-4339-a9d2-399fd79e8208","ios":"levelo://app?vid=5dd7b59e-49e3-4339-a9d2-399fd79e8208"},"vehicle_type_id":"4","last_reported":1761404947,"current_range_meters":14400,"station_id":"st_cvj6r9ubvosntc0bgbag","pricing_plan_id":"cebpf4jnsgd1na2vs0mg"},{"bike_id":"9fa34d90-15fe-41c0-89ab-ffda3dbbb4f3","system_id":"levelo_inurba_marseille","lat":43.211909,"lon":5.350693,"is_reserved":false,"is_disabled":false,"rental_uris":{"android":"levelo://app?vid=9fa34d90-15fe-41c0-89ab-ffda3dbbb4f3","ios":"levelo://app?vid=9fa34d90-15fe-41c0-89ab-ffda3dbbb4f3"},"vehicle_type_id":"4","last_reported":1761404947,"current_range_meters":14400,"station_id":"ce4bhbh2rcd13ifvqepg","pricing_plan_id":"cebpf4jnsgd1na2vs0mg"},{"bike_id":"9ec97abe-15c9-442c-9f5b-5d76d3d9ae5b","system_id":"levelo_inurba_marseille","lat":43.297277,"lon":5.365698,"is_reserved":false,"is_disabled":false,"rental_uris":{"android":"levelo://app?vid=9ec97abe-15c9-442c-9f5b-5d76d3d9ae5b","ios":"levelo://app?vid=9ec97abe-15c9-442c-9f5b-5d76d3d9ae5b"},"vehicle_type_id":"4","last_reported":1761404947,"current_range_meters":14400,"station_id":"ce4bgn12rcd13ifvqbt0","pricing_plan_id":"cebpf4jnsgd1na2vs0mg"},{"bike_id":"17c89dd4-7030-47a1-9d7b-404179b70c48","system_id":"levelo_inurba_marseille","lat":43.28615,"lon":5.35102,"is_reserved":false,"is_disabled":false,"rental_uris":{"android":"levelo://app?vid=17c89dd4-7030-47a1-9d7b-404179b70c48","ios":"levelo://app?vid=17c89dd4-7030-47a1-9d7b-404179b70c48"},"vehicle_type_id":"4","last_reported":1761404947,"current_range_meters":14800,"station_id":"ce4bhch2rcd13ifvqeug","pricing_plan_id":"cebpf4jnsgd1na2vs0mg"},{"bike_id":"8e1001bf-14bf-4add-9e80-532070c873ea","system_id":"levelo_inurba_marseille","lat":43.25563,"lon":5.38258,"is_reserved":false,"is_disabled":false,"rental_uris":{"android":"levelo://app?vid=8e1001bf-14bf-4add-9e80-532070c873ea","ios":"levelo://app?vid=8e1001bf-14bf-4add-9e80-532070c873ea"},"vehicle_type_id":"4","last_reported":1761404947,"current_range_meters":14800,"station_id":"ce4bhih2rcd13ifvqfs0","pricing_plan_id":"cebpf4jnsgd1na2vs0mg"},{"bike_id":"90f412b9-c13f-4681-898d-1ce7ef72d68d","system_id":"levelo_inurba_marseille","lat":43.26206,"lon":5.37444,"is_reserved":false,"is_disabled":false,"rental_uris":{"android":"levelo://app?vid=90f412b9-c13f-4681-898d-1ce7ef72d68d","ios":"levelo://app?vid=90f412b9-c13f-4681-898d-1ce7ef72d68d"},"vehicle_type_id":"4","last_reported":1761404947,"current_range_meters":14800,"station_id":"ce4bhgp2rcd13ifvqfc0","pricing_plan_id":"cebpf4jnsgd1na2vs0mg"},{"bike_id":"1aeab8b9-8573-4689-9491-b193e149f5ab","system_id":"levelo_inurba_marseille","lat":43.26932,"lon":5.38919,"is_reserved":false,"is_disabled":false,"rental_uris":{"android":"levelo://app?vid=1aeab8b9-8573-4689-9491-b193e149f5ab","ios":"levelo://app?vid=1aeab8b9-8573-4689-9491-b193e149f5ab"},"vehicle_type_id":"4","last_reported":1761404947,"current_range_meters":14800,"station_id":"ce4bhhh2rcd13ifvqfl0","pricing_plan_id":"cebpf4jnsgd1na2vs0mg"},{"bike_id":"f49fa99d-e121-4ad2-8d2c-244ac61fa7e0","system_id":"levelo_inurba_marseille","lat":43.29632,"lon":5.40592,"is_reserved":false,"is_disabled":false,"rental_uris":{"android":"levelo://app?vid=f49fa99d-e121-4ad2-8d2c-244ac61fa7e0","ios":"levelo://app?vid=f49fa99d-e121-4ad2-8d2c-244ac61fa7e0"},"vehicle_type_id":"4","last_reported":1761404947,"current_range_meters":15200,"station_id":"ce4bh0h2rcd13ifvqd60","pricing_plan_id":"cebpf4jnsgd1na2vs0mg"},{"bike_id":"609056b7-31e0-4e22-8f5a-2042e113cd4e","system_id":"levelo_inurba_marseille","lat":43.26266,"lon":5.37424,"is_reserved":false,"is_disabled":true,"rental_uris":{"android":"levelo://app?vid=609056b7-31e0-4e22-8f5a-2042e113cd4e","ios":"levelo://app?vid=609056b7-31e0-4e22-8f5a-2042e113cd4e"},"vehicle_type_id":"4","last_reported":1761404947,"current_range_meters":15200,"station_id":"","pricing_plan_id":"cebpf4jnsgd1na2vs0mg"},{"bike_id":"4f13f7e1-3814-4114-aab9-e84145790c52","system_id":"levelo_inurba_marseille","lat":43.29282,"lon":5.40114,"is_reserved":false,"is_disabled":false,"rental_uris":{"android":"levelo://app?vid=4f13f7e1-3814-4114-aab9-e84145790c52","ios":"levelo://app?vid=4f13f7e1-3814-4114-aab9-e84145790c52"},"vehicle_type_id":"4","last_reported":1761404947,"current_range_meters":15200,"station_id":"ce4bh312rcd13ifvqdk0","pricing_plan_id":"cebpf4jnsgd1na2vs0mg"},{"bike_id":"555a85ad-5785-42a2-a3cc-db0438f68d2f","system_id":"levelo_inurba_marseille","lat":43.31709,"lon":5.43708,"is_reserved":false,"is_disabled":false,"rental_uris":{"android":"levelo://app?vid=555a85ad-5785-42a2-a3cc-db0438f68d2f","ios":"levelo://app?vid=555a85ad-5785-42a2-a3cc-db0438f68d2f"},"vehicle_type_id":"4","last_reported":1761404947,"current_range_meters":15200,"station_id":"ce4bhp92rcd13ifvqhcg","pricing_plan_id":"cebpf4jnsgd1na2vs0mg"},{"bike_id":"61b4c31e-d875-40a7-a88b-00d475d35c7b","system_id":"levelo_inurba_marseille","lat":43.23187,"lon":5.39993,"is_reserved":false,"is_disabled":false,"rental_uris":{"android":"levelo://app?vid=61b4c31e-d875-40a7-a88b-00d475d35c7b","ios":"levelo://app?vid=61b4c31e-d875-40a7-a88b-00d475d35c7b"},"vehicle_type_id":"4","last_reported":1761404947,"current_range_meters":15200,"station_id":"ce4bhn12rcd13ifvqgqg","pricing_plan_id":"cebpf4jnsgd1na2vs0mg"},{"bike_id":"bad9eddd-1580-433f-bfe3-52fe07a72bcd","system_id":"levelo_inurba_marseille","lat":43.299591,"lon":5.41321,"is_reserved":false,"is_disabled":false,"rental_uris":{"android":"levelo://app?vid=bad9eddd-1580-433f-bfe3-52fe07a72bcd","ios":"levelo://app?vid=bad9eddd-1580-433f-bfe3-52fe07a72bcd"},"vehicle_type_id":"4","last_reported":1761404947,"current_range_meters":15200,"station_id":"ce4bhp12rcd13ifvqh9g","pricing_plan_id":"cebpf4jnsgd1na2vs0mg"},{"bike_id":"d0d97312-c0ce-4e35-b465-0113c6bd0b31","system_id":"levelo_inurba_marseille","lat":43.23959,"lon":5.36664,"is_reserved":false,"is_disabled":false,"rental_uris":{"android":"levelo://app?vid=d0d97312-c0ce-4e35-b465-0113c6bd0b31","ios":"levelo://app?vid=d0d97312-c0ce-4e35-b465-0113c6bd0b31"},"vehicle_type_id":"4","last_reported":1761404947,"current_range_meters":16000,"station_id":"ce4bhi12rcd13ifvqfp0","pricing_plan_id":"cebpf4jnsgd1na2vs0mg"},{"bike_id":"a3259590-f3eb-4688-8b42-4bbfef069116","system_id":"levelo_inurba_marseille","lat":43.217428,"lon":5.346106,"is_reserved":false,"is_disabled":false,"rental_uris":{"android":"levelo://app?vid=a3259590-f3eb-4688-8b42-4bbfef069116","ios":"levelo://app?vid=a3259590-f3eb-4688-8b42-4bbfef069116"},"vehicle_type_id":"4","last_reported":1761404947,"current_range_meters":16000,"station_id":"","pricing_plan_id":"cebpf4jnsgd1na2vs0mg"},{"bike_id":"a380ea02-c465-4e0e-9cfa-561dd05dfeef","system_id":"levelo_inurba_marseille","lat":43.27385,"lon":5.36267,"is_reserved":false,"is_disabled":false,"rental_uris":{"android":"levelo://app?vid=a380ea02-c465-4e0e-9cfa-561dd05dfeef","ios":"levelo://app?vid=a380ea02-c465-4e0e-9cfa-561dd05dfeef"},"vehicle_type_id":"4","last_reported":1761404947,"current_range_meters":16000,"station_id":"ce4bhbh2rcd13ifvqeo0","pricing_plan_id":"cebpf4jnsgd1na2vs0mg"},{"bike_id":"d3145067-3ca0-4e72-b01a-ef78c0959aad","system_id":"levelo_inurba_marseille","lat":43.3024,"lon":5.40075,"is_reserved":false,"is_disabled":true,"rental_uris":{"android":"levelo://app?vid=d3145067-3ca0-4e72-b01a-ef78c0959aad","ios":"levelo://app?vid=d3145067-3ca0-4e72-b01a-ef78c0959aad"},"vehicle_type_id":"4","last_reported":1761404947,"current_range_meters":16000,"station_id":"ce4bgvh2rcd13ifvqcs0","pricing_plan_id":"cebpf4jnsgd1na2vs0mg"},{"bike_id":"4e7a3a2a-d050-47c7-bc4a-b406389877c5","system_id":"levelo_inurba_marseille","lat":43.24623,"lon":5.43158,"is_reserved":false,"is_disabled":false,"rental_uris":{"android":"levelo://app?vid=4e7a3a2a-d050-47c7-bc4a-b406389877c5","ios":"levelo://app?vid=4e7a3a2a-d050-47c7-bc4a-b406389877c5"},"vehicle_type_id":"4","last_reported":1761404947,"current_range_meters":16400,"station_id":"st_d2m6c4gdas8pm72e190g","pricing_plan_id":"cebpf4jnsgd1na2vs0mg"},{"bike_id":"40fed290-3dea-4c73-bf2e-af05de8161fd","system_id":"levelo_inurba_marseille","lat":43.32111,"lon":5.36746,"is_reserved":false,"is_disabled":false,"rental_uris":{"android":"levelo://app?vid=40fed290-3dea-4c73-bf2e-af05de8161fd","ios":"levelo://app?vid=40fed290-3dea-4c73-bf2e-af05de8161fd"},"vehicle_type_id":"4","last_reported":1761404947,"current_range_meters":16400,"station_id":"ce4bhrh2rcd13ifvqhug","pricing_plan_id":"cebpf4jnsgd1na2vs0mg"},{"bike_id":"79acc5ae-1f2e-4766-8068-80d5e38bc62b","system_id":"levelo_inurba_marseille","lat":43.230565,"lon":5.354877,"is_reserved":false,"is_disabled":false,"rental_uris":{"android":"levelo://app?vid=79acc5ae-1f2e-4766-8068-80d5e38bc62b","ios":"levelo://app?vid=79acc5ae-1f2e-4766-8068-80d5e38bc62b"},"vehicle_type_id":"4","last_reported":1761404947,"current_range_meters":16400,"station_id":"cpo3342slgdg3j2ifvpg","pricing_plan_id":"cebpf4jnsgd1na2vs0mg"},{"bike_id":"5743ab27-5dc0-4cc4-b60b-f531610ac672","system_id":"levelo_inurba_marseille","lat":43.27318,"lon":5.39123,"is_reserved":false,"is_disabled":false,"rental_uris":{"android":"levelo://app?vid=5743ab27-5dc0-4cc4-b60b-f531610ac672","ios":"levelo://app?vid=5743ab27-5dc0-4cc4-b60b-f531610ac672"},"vehicle_type_id":"4","last_reported":1761404947,"current_range_meters":16400,"station_id":"ce4bhgp2rcd13ifvqfe0","pricing_plan_id":"cebpf4jnsgd1na2vs0mg"},{"bike_id":"51f6b392-8d0d-41b5-9bf6-76a949608beb","system_id":"levelo_inurba_marseille","lat":43.25334,"lon":5.42152,"is_reserved":false,"is_disabled":false,"rental_uris":{"android":"levelo://app?vid=51f6b392-8d0d-41b5-9bf6-76a949608beb","ios":"levelo://app?vid=51f6b392-8d0d-41b5-9bf6-76a949608beb"},"vehicle_type_id":"4","last_reported":1761404947,"current_range_meters":16400,"station_id":"st_d2m65c5bi1j21697t3ng","pricing_plan_id":"cebpf4jnsgd1na2vs0mg"},{"bike_id":"4f4628d9-ba36-4777-bcb0-234aa25e99ee","system_id":"levelo_inurba_marseille","lat":43.29228,"lon":5.36056,"is_reserved":false,"is_disabled":false,"rental_uris":{"android":"levelo://app?vid=4f4628d9-ba36-4777-bcb0-234aa25e99ee","ios":"levelo://app?vid=4f4628d9-ba36-4777-bcb0-234aa25e99ee"},"vehicle_type_id":"4","last_reported":1761404947,"current_range_meters":16400,"station_id":"ce4bhbh2rcd13ifvqeqg","pricing_plan_id":"cebpf4jnsgd1na2vs0mg"},{"bike_id":"8c1c10d3-03b0-46f8-8b8d-a210f42a3e8d","system_id":"levelo_inurba_marseille","lat":43.28003,"lon":5.4001,"is_reserved":false,"is_disabled":false,"rental_uris":{"android":"levelo://app?vid=8c1c10d3-03b0-46f8-8b8d-a210f42a3e8d","ios":"levelo://app?vid=8c1c10d3-03b0-46f8-8b8d-a210f42a3e8d"},"vehicle_type_id":"4","last_reported":1761404947,"current_range_meters":16800,"station_id":"ce4bho92rcd13ifvqh4g","pricing_plan_id":"cebpf4jnsgd1na2vs0mg"},{"bike_id":"c6055bae-2ee4-48db-b04f-78f1e3e30241","system_id":"levelo_inurba_marseille","lat":43.26929,"lon":5.40285,"is_reserved":false,"is_disabled":false,"rental_uris":{"android":"levelo://app?vid=c6055bae-2ee4-48db-b04f-78f1e3e30241","ios":"levelo://app?vid=c6055bae-2ee4-48db-b04f-78f1e3e30241"},"vehicle_type_id":"4","last_reported":1761404947,"current_range_meters":16800,"station_id":"cjm6bp8fraef2m0cb0m0","pricing_plan_id":"cebpf4jnsgd1na2vs0mg"},{"bike_id":"63cf5fae-66f9-4f63-b70b-3dad0ff587c0","system_id":"levelo_inurba_marseille","lat":43.29579,"lon":5.36743,"is_reserved":false,"is_disabled":false,"rental_uris":{"android":"levelo://app?vid=63cf5fae-66f9-4f63-b70b-3dad0ff587c0","ios":"levelo://app?vid=63cf5fae-66f9-4f63-b70b-3dad0ff587c0"},"vehicle_type_id":"4","last_reported":1761404947,"current_range_meters":16800,"station_id":"ce4bgph2rcd13ifvqc2g","pricing_plan_id":"cebpf4jnsgd1na2vs0mg"},{"bike_id":"a6f0ed19-8042-4fbc-83cb-73ce2f11e459","system_id":"levelo_inurba_marseille","lat":43.32092,"lon":5.36793,"is_reserved":false,"is_disabled":false,"rental_uris":{"android":"levelo://app?vid=a6f0ed19-8042-4fbc-83cb-73ce2f11e459","ios":"levelo://app?vid=a6f0ed19-8042-4fbc-83cb-73ce2f11e459"},"vehicle_type_id":"4","last_reported":1761404947,"current_range_meters":16800,"station_id":"ce4bhrh2rcd13ifvqhug","pricing_plan_id":"cebpf4jnsgd1na2vs0mg"},{"bike_id":"59e0e55d-ae93-4c8a-989c-120e6e17d539","system_id":"levelo_inurba_marseille","lat":43.23063,"lon":5.35498,"is_reserved":false,"is_disabled":false,"rental_uris":{"android":"levelo://app?vid=59e0e55d-ae93-4c8a-989c-120e6e17d539","ios":"levelo://app?vid=59e0e55d-ae93-4c8a-989c-120e6e17d539"},"vehicle_type_id":"4","last_reported":1761404947,"current_range_meters":16800,"station_id":"cpo3342slgdg3j2ifvpg","pricing_plan_id":"cebpf4jnsgd1na2vs0mg"},{"bike_id":"6cd738d9-6c18-4ec8-8956-f76f5ef02e36","system_id":"levelo_inurba_marseille","lat":43.25497,"lon":5.37649,"is_reserved":false,"is_disabled":false,"rental_uris":{"android":"levelo://app?vid=6cd738d9-6c18-4ec8-8956-f76f5ef02e36","ios":"levelo://app?vid=6cd738d9-6c18-4ec8-8956-f76f5ef02e36"},"vehicle_type_id":"4","last_reported":1761404947,"current_range_meters":16800,"station_id":"ce4bhh12rcd13ifvqff0","pricing_plan_id":"cebpf4jnsgd1na2vs0mg"},{"bike_id":"c396933e-a596-4461-b6f3-ed4e79ea0aa5","system_id":"levelo_inurba_marseille","lat":43.26054,"lon":5.39405,"is_reserved":false,"is_disabled":false,"rental_uris":{"android":"levelo://app?vid=c396933e-a596-4461-b6f3-ed4e79ea0aa5","ios":"levelo://app?vid=c396933e-a596-4461-b6f3-ed4e79ea0aa5"},"vehicle_type_id":"4","last_reported":1761404947,"current_range_meters":16800,"station_id":"ce4bhh92rcd13ifvqfj0","pricing_plan_id":"cebpf4jnsgd1na2vs0mg"},{"bike_id":"dc9aba48-1a11-4a00-b255-de1c8264b441","system_id":"levelo_inurba_marseille","lat":43.28615,"lon":5.35103,"is_reserved":false,"is_disabled":false,"rental_uris":{"android":"levelo://app?vid=dc9aba48-1a11-4a00-b255-de1c8264b441","ios":"levelo://app?vid=dc9aba48-1a11-4a00-b255-de1c8264b441"},"vehicle_type_id":"4","last_reported":1761404947,"current_range_meters":17200,"station_id":"ce4bhch2rcd13ifvqeug","pricing_plan_id":"cebpf4jnsgd1na2vs0mg"},{"bike_id":"29b38a45-3e07-40c1-b8b1-5f85b487711f","system_id":"levelo_inurba_marseille","lat":43.31242,"lon":5.40441,"is_reserved":false,"is_disabled":false,"rental_uris":{"android":"levelo://app?vid=29b38a45-3e07-40c1-b8b1-5f85b487711f","ios":"levelo://app?vid=29b38a45-3e07-40c1-b8b1-5f85b487711f"},"vehicle_type_id":"4","last_reported":1761404947,"current_range_meters":17200,"station_id":"","pricing_plan_id":"cebpf4jnsgd1na2vs0mg"},{"bike_id":"2049551c-ad53-41b1-92b0-d88b6f6a9e18","system_id":"levelo_inurba_marseille","lat":43.3055,"lon":5.38427,"is_reserved":false,"is_disabled":false,"rental_uris":{"android":"levelo://app?vid=2049551c-ad53-41b1-92b0-d88b6f6a9e18","ios":"levelo://app?vid=2049551c-ad53-41b1-92b0-d88b6f6a9e18"},"vehicle_type_id":"4","last_reported":1761404947,"current_range_meters":17200,"station_id":"ce4bgg92rcd13ifvqb30","pricing_plan_id":"cebpf4jnsgd1na2vs0mg"},{"bike_id":"e4f342a5-be10-4a89-b4d9-451a0d85c8cd","system_id":"levelo_inurba_marseille","lat":43.29913,"lon":5.37471,"is_reserved":false,"is_disabled":false,"rental_uris":{"android":"levelo://app?vid=e4f342a5-be10-4a89-b4d9-451a0d85c8cd","ios":"levelo://app?vid=e4f342a5-be10-4a89-b4d9-451a0d85c8cd"},"vehicle_type_id":"4","last_reported":1761404947,"current_range_meters":17200,"station_id":"ce4bgjh2rcd13ifvqbg0","pricing_plan_id":"cebpf4jnsgd1na2vs0mg"},{"bike_id":"74546168-aafc-4fc6-824e-fd7787db6ac1","system_id":"levelo_inurba_marseille","lat":43.22915,"lon":5.35397,"is_reserved":false,"is_disabled":false,"rental_uris":{"android":"levelo://app?vid=74546168-aafc-4fc6-824e-fd7787db6ac1","ios":"levelo://app?vid=74546168-aafc-4fc6-824e-fd7787db6ac1"},"vehicle_type_id":"4","last_reported":1761404947,"current_range_meters":17200,"station_id":"cpo3532slgdg3j2ikp40","pricing_plan_id":"cebpf4jnsgd1na2vs0mg"},{"bike_id":"8ceaca39-a0b3-4e30-8364-19bcf75f95d6","system_id":"levelo_inurba_marseille","lat":43.255,"lon":5.37668,"is_reserved":false,"is_disabled":false,"rental_uris":{"android":"levelo://app?vid=8ceaca39-a0b3-4e30-8364-19bcf75f95d6","ios":"levelo://app?vid=8ceaca39-a0b3-4e30-8364-19bcf75f95d6"},"vehicle_type_id":"4","last_reported":1761404947,"current_range_meters":17200,"station_id":"ce4bhh12rcd13ifvqff0","pricing_plan_id":"cebpf4jnsgd1na2vs0mg"},{"bike_id":"e4746a2d-9cd3-46c8-bf0e-3a10fdb16ced","system_id":"levelo_inurba_marseille","lat":43.32347,"lon":5.36738,"is_reserved":false,"is_disabled":false,"rental_uris":{"android":"levelo://app?vid=e4746a2d-9cd3-46c8-bf0e-3a10fdb16ced","ios":"levelo://app?vid=e4746a2d-9cd3-46c8-bf0e-3a10fdb16ced"},"vehicle_type_id":"4","last_reported":1761404947,"current_range_meters":17200,"station_id":"ce4bhsh2rcd13ifvqi2g","pricing_plan_id":"cebpf4jnsgd1na2vs0mg"},{"bike_id":"e0be5de7-28ef-42a3-aada-aa9c424d697a","system_id":"levelo_inurba_marseille","lat":43.27375,"lon":5.36261,"is_reserved":false,"is_disabled":false,"rental_uris":{"android":"levelo://app?vid=e0be5de7-28ef-42a3-aada-aa9c424d697a","ios":"levelo://app?vid=e0be5de7-28ef-42a3-aada-aa9c424d697a"},"vehicle_type_id":"4","last_reported":1761404947,"current_range_meters":17200,"station_id":"ce4bhbh2rcd13ifvqeo0","pricing_plan_id":"cebpf4jnsgd1na2vs0mg"},{"bike_id":"c0b81f28-bbba-4247-a74b-c55a34b31846","system_id":"levelo_inurba_marseille","lat":43.33258,"lon":5.41086,"is_reserved":false,"is_disabled":false,"rental_uris":{"android":"levelo://app?vid=c0b81f28-bbba-4247-a74b-c55a34b31846","ios":"levelo://app?vid=c0b81f28-bbba-4247-a74b-c55a34b31846"},"vehicle_type_id":"4","last_reported":1761404947,"current_range_meters":17600,"station_id":"","pricing_plan_id":"cebpf4jnsgd1na2vs0mg"},{"bike_id":"fc74c03f-6810-4b94-8149-477bae3888a5","system_id":"levelo_inurba_marseille","lat":43.29812,"lon":5.44069,"is_reserved":false,"is_disabled":false,"rental_uris":{"android":"levelo://app?vid=fc74c03f-6810-4b94-8149-477bae3888a5","ios":"levelo://app?vid=fc74c03f-6810-4b94-8149-477bae3888a5"},"vehicle_type_id":"4","last_reported":1761404947,"current_range_meters":17600,"station_id":"st_d3jp68qikq2c7381ktn0","pricing_plan_id":"cebpf4jnsgd1na2vs0mg"},{"bike_id":"3efa3cf8-e152-4009-b9f7-0f13f878d733","system_id":"levelo_inurba_marseille","lat":43.28612,"lon":5.35105,"is_reserved":false,"is_disabled":false,"rental_uris":{"android":"levelo://app?vid=3efa3cf8-e152-4009-b9f7-0f13f878d733","ios":"levelo://app?vid=3efa3cf8-e152-4009-b9f7-0f13f878d733"},"vehicle_type_id":"4","last_reported":1761404947,"current_range_meters":17600,"station_id":"ce4bhch2rcd13ifvqeug","pricing_plan_id":"cebpf4jnsgd1na2vs0mg"},{"bike_id":"7b1ab905-4a24-42c4-9476-a057f905429a","system_id":"levelo_inurba_marseille","lat":43.31884,"lon":5.40732,"is_reserved":false,"is_disabled":false,"rental_uris":{"android":"levelo://app?vid=7b1ab905-4a24-42c4-9476-a057f905429a","ios":"levelo://app?vid=7b1ab905-4a24-42c4-9476-a057f905429a"},"vehicle_type_id":"4","last_reported":1761404947,"current_range_meters":17600,"station_id":"ce4bhq12rcd13ifvqhig","pricing_plan_id":"cebpf4jnsgd1na2vs0mg"},{"bike_id":"14f2119b-07cd-4fc8-be12-d51071618c9e","system_id":"levelo_inurba_marseille","lat":43.239514,"lon":5.366333,"is_reserved":false,"is_disabled":false,"rental_uris":{"android":"levelo://app?vid=14f2119b-07cd-4fc8-be12-d51071618c9e","ios":"levelo://app?vid=14f2119b-07cd-4fc8-be12-d51071618c9e"},"vehicle_type_id":"4","last_reported":1761404947,"current_range_meters":17600,"station_id":"ce4bhi12rcd13ifvqfp0","pricing_plan_id":"cebpf4jnsgd1na2vs0mg"},{"bike_id":"f72a00f1-1fed-4f6c-b4b5-8473dfdb4606","system_id":"levelo_inurba_marseille","lat":43.29718,"lon":5.40388,"is_reserved":false,"is_disabled":false,"rental_uris":{"android":"levelo://app?vid=f72a00f1-1fed-4f6c-b4b5-8473dfdb4606","ios":"levelo://app?vid=f72a00f1-1fed-4f6c-b4b5-8473dfdb4606"},"vehicle_type_id":"4","last_reported":1761404947,"current_range_meters":17600,"station_id":"","pricing_plan_id":"cebpf4jnsgd1na2vs0mg"},{"bike_id":"e5bd73c9-d2fd-429b-a719-e50033314cf7","system_id":"levelo_inurba_marseille","lat":43.22557,"lon":5.41633,"is_reserved":false,"is_disabled":false,"rental_uris":{"android":"levelo://app?vid=e5bd73c9-d2fd-429b-a719-e50033314cf7","ios":"levelo://app?vid=e5bd73c9-d2fd-429b-a719-e50033314cf7"},"vehicle_type_id":"4","last_reported":1761404947,"current_range_meters":17600,"station_id":"st_d2o4gvlbi1j2169b742g","pricing_plan_id":"cebpf4jnsgd1na2vs0mg"},{"bike_id":"e0b3b616-0b08-4c5d-affb-69399ef83250","system_id":"levelo_inurba_marseille","lat":43.25501,"lon":5.37651,"is_reserved":false,"is_disabled":false,"rental_uris":{"android":"levelo://app?vid=e0b3b616-0b08-4c5d-affb-69399ef83250","ios":"levelo://app?vid=e0b3b616-0b08-4c5d-affb-69399ef83250"},"vehicle_type_id":"4","last_reported":1761404947,"current_range_meters":17600,"station_id":"ce4bhh12rcd13ifvqff0","pricing_plan_id":"cebpf4jnsgd1na2vs0mg"},{"bike_id":"11d92be1-a508-4209-ae88-4d776c40d795","system_id":"levelo_inurba_marseille","lat":43.28963,"lon":5.36398,"is_reserved":false,"is_disabled":false,"rental_uris":{"android":"levelo://app?vid=11d92be1-a508-4209-ae88-4d776c40d795","ios":"levelo://app?vid=11d92be1-a508-4209-ae88-4d776c40d795"},"vehicle_type_id":"4","last_reported":1761404947,"current_range_meters":18000,"station_id":"ce4bhc92rcd13ifvqetg","pricing_plan_id":"cebpf4jnsgd1na2vs0mg"},{"bike_id":"53957e4a-dcfb-4593-8b5a-624a00ed0894","system_id":"levelo_inurba_marseille","lat":43.27217,"lon":5.39186,"is_reserved":false,"is_disabled":false,"rental_uris":{"android":"levelo://app?vid=53957e4a-dcfb-4593-8b5a-624a00ed0894","ios":"levelo://app?vid=53957e4a-dcfb-4593-8b5a-624a00ed0894"},"vehicle_type_id":"4","last_reported":1761404947,"current_range_meters":18000,"station_id":"ce4bhhp2rcd13ifvqfm0","pricing_plan_id":"cebpf4jnsgd1na2vs0mg"},{"bike_id":"c8195882-066a-4a20-bd69-2b22216eae32","system_id":"levelo_inurba_marseille","lat":43.28412,"lon":5.34996,"is_reserved":false,"is_disabled":false,"rental_uris":{"android":"levelo://app?vid=c8195882-066a-4a20-bd69-2b22216eae32","ios":"levelo://app?vid=c8195882-066a-4a20-bd69-2b22216eae32"},"vehicle_type_id":"4","last_reported":1761404947,"current_range_meters":18000,"station_id":"ce4bhbh2rcd13ifvqepg","pricing_plan_id":"cebpf4jnsgd1na2vs0mg"},{"bike_id":"02278500-ee18-46a1-be07-3c87ab189723","system_id":"levelo_inurba_marseille","lat":43.290128,"lon":5.356096,"is_reserved":false,"is_disabled":false,"rental_uris":{"android":"levelo://app?vid=02278500-ee18-46a1-be07-3c87ab189723","ios":"levelo://app?vid=02278500-ee18-46a1-be07-3c87ab189723"},"vehicle_type_id":"4","last_reported":1761404947,"current_range_meters":18000,"station_id":"ce4bhb92rcd13ifvqen0","pricing_plan_id":"cebpf4jnsgd1na2vs0mg"},{"bike_id":"2a093a11-11e2-4e1b-840e-3ce11d485eba","system_id":"levelo_inurba_marseille","lat":43.26958,"lon":5.38616,"is_reserved":false,"is_disabled":false,"rental_uris":{"android":"levelo://app?vid=2a093a11-11e2-4e1b-840e-3ce11d485eba","ios":"levelo://app?vid=2a093a11-11e2-4e1b-840e-3ce11d485eba"},"vehicle_type_id":"4","last_reported":1761404947,"current_range_meters":18000,"station_id":"ce4bhh92rcd13ifvqfh0","pricing_plan_id":"cebpf4jnsgd1na2vs0mg"},{"bike_id":"469f5e37-7bde-4724-b742-95c20b39e8f3","system_id":"levelo_inurba_marseille","lat":43.26201,"lon":5.37447,"is_reserved":false,"is_disabled":false,"rental_uris":{"android":"levelo://app?vid=469f5e37-7bde-4724-b742-95c20b39e8f3","ios":"levelo://app?vid=469f5e37-7bde-4724-b742-95c20b39e8f3"},"vehicle_type_id":"4","last_reported":1761404947,"current_range_meters":18000,"station_id":"ce4bhgp2rcd13ifvqfc0","pricing_plan_id":"cebpf4jnsgd1na2vs0mg"},{"bike_id":"3da36b46-32f0-4723-8f3b-8cba39a84287","system_id":"levelo_inurba_marseille","lat":43.24383,"lon":5.37061,"is_reserved":false,"is_disabled":false,"rental_uris":{"android":"levelo://app?vid=3da36b46-32f0-4723-8f3b-8cba39a84287","ios":"levelo://app?vid=3da36b46-32f0-4723-8f3b-8cba39a84287"},"vehicle_type_id":"4","last_reported":1761404947,"current_range_meters":18000,"station_id":"ce4bhhh2rcd13ifvqfk0","pricing_plan_id":"cebpf4jnsgd1na2vs0mg"},{"bike_id":"e4ccce50-4824-4895-aa8c-033835526f23","system_id":"levelo_inurba_marseille","lat":43.318786,"lon":5.399893,"is_reserved":false,"is_disabled":false,"rental_uris":{"android":"levelo://app?vid=e4ccce50-4824-4895-aa8c-033835526f23","ios":"levelo://app?vid=e4ccce50-4824-4895-aa8c-033835526f23"},"vehicle_type_id":"4","last_reported":1761404947,"current_range_meters":18000,"station_id":"","pricing_plan_id":"cebpf4jnsgd1na2vs0mg"},{"bike_id":"933e9118-252f-425b-94a4-2d2542195565","system_id":"levelo_inurba_marseille","lat":43.31683,"lon":5.40475,"is_reserved":false,"is_disabled":false,"rental_uris":{"android":"levelo://app?vid=933e9118-252f-425b-94a4-2d2542195565","ios":"levelo://app?vid=933e9118-252f-425b-94a4-2d2542195565"},"vehicle_type_id":"4","last_reported":1761404947,"current_range_meters":18800,"station_id":"ce4bh012rcd13ifvqd00","pricing_plan_id":"cebpf4jnsgd1na2vs0mg"},{"bike_id":"51aa8393-3c7e-4af3-a555-04f36e045f5a","system_id":"levelo_inurba_marseille","lat":43.217408,"lon":5.346015,"is_reserved":false,"is_disabled":false,"rental_uris":{"android":"levelo://app?vid=51aa8393-3c7e-4af3-a555-04f36e045f5a","ios":"levelo://app?vid=51aa8393-3c7e-4af3-a555-04f36e045f5a"},"vehicle_type_id":"4","last_reported":1761404947,"current_range_meters":18800,"station_id":"st_cvj6r9ubvosntc0bgbag","pricing_plan_id":"cebpf4jnsgd1na2vs0mg"},{"bike_id":"de5cece4-6186-4ccb-b70e-a25e8bd3fc86","system_id":"levelo_inurba_marseille","lat":43.337444,"lon":5.374475,"is_reserved":false,"is_disabled":false,"rental_uris":{"android":"levelo://app?vid=de5cece4-6186-4ccb-b70e-a25e8bd3fc86","ios":"levelo://app?vid=de5cece4-6186-4ccb-b70e-a25e8bd3fc86"},"vehicle_type_id":"4","last_reported":1761404947,"current_range_meters":18800,"station_id":"","pricing_plan_id":"cebpf4jnsgd1na2vs0mg"},{"bike_id":"8847af5d-c1ad-4d8d-a5c1-273c3b41c105","system_id":"levelo_inurba_marseille","lat":43.322457,"lon":5.419634,"is_reserved":false,"is_disabled":false,"rental_uris":{"android":"levelo://app?vid=8847af5d-c1ad-4d8d-a5c1-273c3b41c105","ios":"levelo://app?vid=8847af5d-c1ad-4d8d-a5c1-273c3b41c105"},"vehicle_type_id":"4","last_reported":1761404947,"current_range_meters":19200,"station_id":"","pricing_plan_id":"cebpf4jnsgd1na2vs0mg"},{"bike_id":"f2abb663-aa38-4d02-bd71-376bae0a55ff","system_id":"levelo_inurba_marseille","lat":43.291994,"lon":5.357972,"is_reserved":false,"is_disabled":false,"rental_uris":{"android":"levelo://app?vid=f2abb663-aa38-4d02-bd71-376bae0a55ff","ios":"levelo://app?vid=f2abb663-aa38-4d02-bd71-376bae0a55ff"},"vehicle_type_id":"4","last_reported":1761404947,"current_range_meters":19200,"station_id":"ce4bhb12rcd13ifvqel0","pricing_plan_id":"cebpf4jnsgd1na2vs0mg"},{"bike_id":"07dd7e62-80ff-48a9-90e7-ea1151038459","system_id":"levelo_inurba_marseille","lat":43.2737,"lon":5.36262,"is_reserved":false,"is_disabled":false,"rental_uris":{"android":"levelo://app?vid=07dd7e62-80ff-48a9-90e7-ea1151038459","ios":"levelo://app?vid=07dd7e62-80ff-48a9-90e7-ea1151038459"},"vehicle_type_id":"4","last_reported":1761404947,"current_range_meters":19200,"station_id":"ce4bhbh2rcd13ifvqeo0","pricing_plan_id":"cebpf4jnsgd1na2vs0mg"},{"bike_id":"67f8857f-0853-46d2-b9ef-96c5ce2639bc","system_id":"levelo_inurba_marseille","lat":43.230507,"lon":5.355053,"is_reserved":false,"is_disabled":false,"rental_uris":{"android":"levelo://app?vid=67f8857f-0853-46d2-b9ef-96c5ce2639bc","ios":"levelo://app?vid=67f8857f-0853-46d2-b9ef-96c5ce2639bc"},"vehicle_type_id":"4","last_reported":1761404947,"current_range_meters":19200,"station_id":"cpo3342slgdg3j2ifvpg","pricing_plan_id":"cebpf4jnsgd1na2vs0mg"},{"bike_id":"40fc96a0-f1e3-41fd-90dd-9e0246f45827","system_id":"levelo_inurba_marseille","lat":43.2306,"lon":5.355,"is_reserved":false,"is_disabled":false,"rental_uris":{"android":"levelo://app?vid=40fc96a0-f1e3-41fd-90dd-9e0246f45827","ios":"levelo://app?vid=40fc96a0-f1e3-41fd-90dd-9e0246f45827"},"vehicle_type_id":"4","last_reported":1761404947,"current_range_meters":19200,"station_id":"cpo3342slgdg3j2ifvpg","pricing_plan_id":"cebpf4jnsgd1na2vs0mg"},{"bike_id":"885795ae-3f14-449c-97cb-7cf962c83357","system_id":"levelo_inurba_marseille","lat":43.290208,"lon":5.381368,"is_reserved":false,"is_disabled":false,"rental_uris":{"android":"levelo://app?vid=885795ae-3f14-449c-97cb-7cf962c83357","ios":"levelo://app?vid=885795ae-3f14-449c-97cb-7cf962c83357"},"vehicle_type_id":"4","last_reported":1761404947,"current_range_meters":19200,"station_id":"ce4bh4p2rcd13ifvqe1g","pricing_plan_id":"cebpf4jnsgd1na2vs0mg"},{"bike_id":"4c351ca9-fcfe-4413-a020-4b99e5e841d5","system_id":"levelo_inurba_marseille","lat":43.2957,"lon":5.39992,"is_reserved":false,"is_disabled":false,"rental_uris":{"android":"levelo://app?vid=4c351ca9-fcfe-4413-a020-4b99e5e841d5","ios":"levelo://app?vid=4c351ca9-fcfe-4413-a020-4b99e5e841d5"},"vehicle_type_id":"4","last_reported":1761404947,"current_range_meters":19600,"station_id":"ce4bh312rcd13ifvqdj0","pricing_plan_id":"cebpf4jnsgd1na2vs0mg"},{"bike_id":"317107fa-306d-4b8d-9380-a16cd06486ce","system_id":"levelo_inurba_marseille","lat":43.28471,"lon":5.35884,"is_reserved":false,"is_disabled":true,"rental_uris":{"android":"levelo://app?vid=317107fa-306d-4b8d-9380-a16cd06486ce","ios":"levelo://app?vid=317107fa-306d-4b8d-9380-a16cd06486ce"},"vehicle_type_id":"4","last_reported":1761404947,"current_range_meters":19600,"station_id":"ce4bhah2rcd13ifvqei0","pricing_plan_id":"cebpf4jnsgd1na2vs0mg"},{"bike_id":"7a1877e8-1310-4142-900d-3cea9a2ef65f","system_id":"levelo_inurba_marseille","lat":43.29483,"lon":5.43298,"is_reserved":false,"is_disabled":false,"rental_uris":{"android":"levelo://app?vid=7a1877e8-1310-4142-900d-3cea9a2ef65f","ios":"levelo://app?vid=7a1877e8-1310-4142-900d-3cea9a2ef65f"},"vehicle_type_id":"4","last_reported":1761404947,"current_range_meters":19600,"station_id":"st_d3j5ugp08ojc73fj9d10","pricing_plan_id":"cebpf4jnsgd1na2vs0mg"},{"bike_id":"852f7905-1ceb-452d-ac62-c0aef4408049","system_id":"levelo_inurba_marseille","lat":43.241691,"lon":5.397251,"is_reserved":false,"is_disabled":false,"rental_uris":{"android":"levelo://app?vid=852f7905-1ceb-452d-ac62-c0aef4408049","ios":"levelo://app?vid=852f7905-1ceb-452d-ac62-c0aef4408049"},"vehicle_type_id":"4","last_reported":1761404947,"current_range_meters":19600,"station_id":"ce4bhn12rcd13ifvqgpg","pricing_plan_id":"cebpf4jnsgd1na2vs0mg"},{"bike_id":"c9c21d7f-491d-4605-a042-46f5bbb9ac2d","system_id":"levelo_inurba_marseille","lat":43.255796,"lon":5.382462,"is_reserved":false,"is_disabled":false,"rental_uris":{"android":"levelo://app?vid=c9c21d7f-491d-4605-a042-46f5bbb9ac2d","ios":"levelo://app?vid=c9c21d7f-491d-4605-a042-46f5bbb9ac2d"},"vehicle_type_id":"4","last_reported":1761404947,"current_range_meters":19600,"station_id":"ce4bhih2rcd13ifvqfs0","pricing_plan_id":"cebpf4jnsgd1na2vs0mg"},{"bike_id":"c2ab8430-e9a5-4911-962f-ba615ad16f0d","system_id":"levelo_inurba_marseille","lat":43.29973,"lon":5.38487,"is_reserved":false,"is_disabled":false,"rental_uris":{"android":"levelo://app?vid=c2ab8430-e9a5-4911-962f-ba615ad16f0d","ios":"levelo://app?vid=c2ab8430-e9a5-4911-962f-ba615ad16f0d"},"vehicle_type_id":"4","last_reported":1761404947,"current_range_meters":19600,"station_id":"ce4bgj92rcd13ifvqbd0","pricing_plan_id":"cebpf4jnsgd1na2vs0mg"},{"bike_id":"64b75b4a-3497-4861-8cc2-90dd62cd9f5e","system_id":"levelo_inurba_marseille","lat":43.29484,"lon":5.43327,"is_reserved":false,"is_disabled":false,"rental_uris":{"android":"levelo://app?vid=64b75b4a-3497-4861-8cc2-90dd62cd9f5e","ios":"levelo://app?vid=64b75b4a-3497-4861-8cc2-90dd62cd9f5e"},"vehicle_type_id":"4","last_reported":1761404947,"current_range_meters":19600,"station_id":"st_d3j5ugp08ojc73fj9d10","pricing_plan_id":"cebpf4jnsgd1na2vs0mg"},{"bike_id":"b9efc170-ddea-4b5d-8597-120c72bc41d4","system_id":"levelo_inurba_marseille","lat":43.25508,"lon":5.38326,"is_reserved":false,"is_disabled":false,"rental_uris":{"android":"levelo://app?vid=b9efc170-ddea-4b5d-8597-120c72bc41d4","ios":"levelo://app?vid=b9efc170-ddea-4b5d-8597-120c72bc41d4"},"vehicle_type_id":"4","last_reported":1761404947,"current_range_meters":19600,"station_id":"ce4bhih2rcd13ifvqfs0","pricing_plan_id":"cebpf4jnsgd1na2vs0mg"},{"bike_id":"1829dd36-64ae-43c8-b28c-58fb4823781c","system_id":"levelo_inurba_marseille","lat":43.23188,"lon":5.35552,"is_reserved":false,"is_disabled":false,"rental_uris":{"android":"levelo://app?vid=1829dd36-64ae-43c8-b28c-58fb4823781c","ios":"levelo://app?vid=1829dd36-64ae-43c8-b28c-58fb4823781c"},"vehicle_type_id":"4","last_reported":1761404947,"current_range_meters":19600,"station_id":"ce4bhu92rcd13ifvqi70","pricing_plan_id":"cebpf4jnsgd1na2vs0mg"},{"bike_id":"c124d4a0-9e47-48ec-ad7a-ea36eb6e5d35","system_id":"levelo_inurba_marseille","lat":43.24391,"lon":5.37066,"is_reserved":false,"is_disabled":false,"rental_uris":{"android":"levelo://app?vid=c124d4a0-9e47-48ec-ad7a-ea36eb6e5d35","ios":"levelo://app?vid=c124d4a0-9e47-48ec-ad7a-ea36eb6e5d35"},"vehicle_type_id":"4","last_reported":1761404947,"current_range_meters":19600,"station_id":"ce4bhhh2rcd13ifvqfk0","pricing_plan_id":"cebpf4jnsgd1na2vs0mg"},{"bike_id":"c022f697-ebf2-4905-b16c-6d42dd970ba0","system_id":"levelo_inurba_marseille","lat":43.299167,"lon":5.37473,"is_reserved":false,"is_disabled":false,"rental_uris":{"android":"levelo://app?vid=c022f697-ebf2-4905-b16c-6d42dd970ba0","ios":"levelo://app?vid=c022f697-ebf2-4905-b16c-6d42dd970ba0"},"vehicle_type_id":"4","last_reported":1761404947,"current_range_meters":20000,"station_id":"ce4bgjh2rcd13ifvqbg0","pricing_plan_id":"cebpf4jnsgd1na2vs0mg"},{"bike_id":"4a19ac6a-c9b3-41d1-b413-dedfb77731e1","system_id":"levelo_inurba_marseille","lat":43.292864,"lon":5.374806,"is_reserved":false,"is_disabled":false,"rental_uris":{"android":"levelo://app?vid=4a19ac6a-c9b3-41d1-b413-dedfb77731e1","ios":"levelo://app?vid=4a19ac6a-c9b3-41d1-b413-dedfb77731e1"},"vehicle_type_id":"4","last_reported":1761404947,"current_range_meters":20000,"station_id":"","pricing_plan_id":"cebpf4jnsgd1na2vs0mg"},{"bike_id":"a70a5c56-54da-4a9c-92ae-4bd04c5f57d9","system_id":"levelo_inurba_marseille","lat":43.299017,"lon":5.436603,"is_reserved":false,"is_disabled":false,"rental_uris":{"android":"levelo://app?vid=a70a5c56-54da-4a9c-92ae-4bd04c5f57d9","ios":"levelo://app?vid=a70a5c56-54da-4a9c-92ae-4bd04c5f57d9"},"vehicle_type_id":"4","last_reported":1761404947,"current_range_meters":20000,"station_id":"ce4bhpp2rcd13ifvqhfg","pricing_plan_id":"cebpf4jnsgd1na2vs0mg"},{"bike_id":"174cf4dd-455f-4e90-b091-a3f056044f0a","system_id":"levelo_inurba_marseille","lat":43.273731,"lon":5.362568,"is_reserved":false,"is_disabled":false,"rental_uris":{"android":"levelo://app?vid=174cf4dd-455f-4e90-b091-a3f056044f0a","ios":"levelo://app?vid=174cf4dd-455f-4e90-b091-a3f056044f0a"},"vehicle_type_id":"4","last_reported":1761404947,"current_range_meters":20000,"station_id":"ce4bhbh2rcd13ifvqeo0","pricing_plan_id":"cebpf4jnsgd1na2vs0mg"},{"bike_id":"1eac0aa7-2b82-4118-bb70-4582cf563475","system_id":"levelo_inurba_marseille","lat":43.284842,"lon":5.483875,"is_reserved":false,"is_disabled":false,"rental_uris":{"android":"levelo://app?vid=1eac0aa7-2b82-4118-bb70-4582cf563475","ios":"levelo://app?vid=1eac0aa7-2b82-4118-bb70-4582cf563475"},"vehicle_type_id":"4","last_reported":1761404947,"current_range_meters":20000,"station_id":"st_d3svhcjqgbts73a3dn0g","pricing_plan_id":"cebpf4jnsgd1na2vs0mg"},{"bike_id":"eb0d9e20-fe6c-486a-9aa2-e7330d4e9d8e","system_id":"levelo_inurba_marseille","lat":43.239656,"lon":5.366313,"is_reserved":false,"is_disabled":false,"rental_uris":{"android":"levelo://app?vid=eb0d9e20-fe6c-486a-9aa2-e7330d4e9d8e","ios":"levelo://app?vid=eb0d9e20-fe6c-486a-9aa2-e7330d4e9d8e"},"vehicle_type_id":"4","last_reported":1761404947,"current_range_meters":20400,"station_id":"ce4bhi12rcd13ifvqfp0","pricing_plan_id":"cebpf4jnsgd1na2vs0mg"},{"bike_id":"af9e12e7-38b8-459b-8665-a09998ee41f3","system_id":"levelo_inurba_marseille","lat":43.24644,"lon":5.38905,"is_reserved":false,"is_disabled":false,"rental_uris":{"android":"levelo://app?vid=af9e12e7-38b8-459b-8665-a09998ee41f3","ios":"levelo://app?vid=af9e12e7-38b8-459b-8665-a09998ee41f3"},"vehicle_type_id":"4","last_reported":1761404947,"current_range_meters":20400,"station_id":"ce4bhg12rcd13ifvqf60","pricing_plan_id":"cebpf4jnsgd1na2vs0mg"},{"bike_id":"59e90fd9-8866-4ae9-a6f2-a970932bfd6c","system_id":"levelo_inurba_marseille","lat":43.23956,"lon":5.36638,"is_reserved":false,"is_disabled":false,"rental_uris":{"android":"levelo://app?vid=59e90fd9-8866-4ae9-a6f2-a970932bfd6c","ios":"levelo://app?vid=59e90fd9-8866-4ae9-a6f2-a970932bfd6c"},"vehicle_type_id":"4","last_reported":1761404947,"current_range_meters":20400,"station_id":"ce4bhi12rcd13ifvqfp0","pricing_plan_id":"cebpf4jnsgd1na2vs0mg"},{"bike_id":"d24a1a03-efd6-4cfc-addd-8e72322d01dc","system_id":"levelo_inurba_marseille","lat":43.27375,"lon":5.36253,"is_reserved":false,"is_disabled":false,"rental_uris":{"android":"levelo://app?vid=d24a1a03-efd6-4cfc-addd-8e72322d01dc","ios":"levelo://app?vid=d24a1a03-efd6-4cfc-addd-8e72322d01dc"},"vehicle_type_id":"4","last_reported":1761404947,"current_range_meters":20400,"station_id":"ce4bhbh2rcd13ifvqeo0","pricing_plan_id":"cebpf4jnsgd1na2vs0mg"},{"bike_id":"d9ffd4fd-02ad-404f-b60b-50240b1bd02f","system_id":"levelo_inurba_marseille","lat":43.3013,"lon":5.43135,"is_reserved":false,"is_disabled":false,"rental_uris":{"android":"levelo://app?vid=d9ffd4fd-02ad-404f-b60b-50240b1bd02f","ios":"levelo://app?vid=d9ffd4fd-02ad-404f-b60b-50240b1bd02f"},"vehicle_type_id":"4","last_reported":1761404947,"current_range_meters":20400,"station_id":"st_d3js3co5814s73ftftug","pricing_plan_id":"cebpf4jnsgd1na2vs0mg"},{"bike_id":"d2ea6a19-6d1b-4240-a361-6eb8ca82346e","system_id":"levelo_inurba_marseille","lat":43.26915,"lon":5.38951,"is_reserved":false,"is_disabled":false,"rental_uris":{"android":"levelo://app?vid=d2ea6a19-6d1b-4240-a361-6eb8ca82346e","ios":"levelo://app?vid=d2ea6a19-6d1b-4240-a361-6eb8ca82346e"},"vehicle_type_id":"4","last_reported":1761404947,"current_range_meters":20800,"station_id":"ce4bhhh2rcd13ifvqfl0","pricing_plan_id":"cebpf4jnsgd1na2vs0mg"},{"bike_id":"c0f409a1-8a53-4a4a-8121-76feefdede41","system_id":"levelo_inurba_marseille","lat":43.296203,"lon":5.371685,"is_reserved":false,"is_disabled":false,"rental_uris":{"android":"levelo://app?vid=c0f409a1-8a53-4a4a-8121-76feefdede41","ios":"levelo://app?vid=c0f409a1-8a53-4a4a-8121-76feefdede41"},"vehicle_type_id":"4","last_reported":1761404947,"current_range_meters":20800,"station_id":"ce4bgnh2rcd13ifvqc0g","pricing_plan_id":"cebpf4jnsgd1na2vs0mg"},{"bike_id":"661e7ff9-97f1-41da-a786-1e0d223a6b71","system_id":"levelo_inurba_marseille","lat":43.28261,"lon":5.35071,"is_reserved":false,"is_disabled":false,"rental_uris":{"android":"levelo://app?vid=661e7ff9-97f1-41da-a786-1e0d223a6b71","ios":"levelo://app?vid=661e7ff9-97f1-41da-a786-1e0d223a6b71"},"vehicle_type_id":"4","last_reported":1761404947,"current_range_meters":20800,"station_id":"ce4bhbp2rcd13ifvqerg","pricing_plan_id":"cebpf4jnsgd1na2vs0mg"},{"bike_id":"a683889d-2243-443d-a907-4c653a5be5e2","system_id":"levelo_inurba_marseille","lat":43.28852,"lon":5.42523,"is_reserved":false,"is_disabled":false,"rental_uris":{"android":"levelo://app?vid=a683889d-2243-443d-a907-4c653a5be5e2","ios":"levelo://app?vid=a683889d-2243-443d-a907-4c653a5be5e2"},"vehicle_type_id":"4","last_reported":1761404947,"current_range_meters":20800,"station_id":"st_d3b462108ojc7389ooeg","pricing_plan_id":"cebpf4jnsgd1na2vs0mg"},{"bike_id":"4ea48aaf-b36d-4a16-a22f-3c660f293d6a","system_id":"levelo_inurba_marseille","lat":43.29022,"lon":5.38644,"is_reserved":false,"is_disabled":false,"rental_uris":{"android":"levelo://app?vid=4ea48aaf-b36d-4a16-a22f-3c660f293d6a","ios":"levelo://app?vid=4ea48aaf-b36d-4a16-a22f-3c660f293d6a"},"vehicle_type_id":"4","last_reported":1761404947,"current_range_meters":20800,"station_id":"ce4bh4p2rcd13ifvqe0g","pricing_plan_id":"cebpf4jnsgd1na2vs0mg"},{"bike_id":"78ab8191-0f02-4f1e-ac6e-0b468f570d6b","system_id":"levelo_inurba_marseille","lat":43.270699,"lon":5.422762,"is_reserved":false,"is_disabled":false,"rental_uris":{"android":"levelo://app?vid=78ab8191-0f02-4f1e-ac6e-0b468f570d6b","ios":"levelo://app?vid=78ab8191-0f02-4f1e-ac6e-0b468f570d6b"},"vehicle_type_id":"4","last_reported":1761404947,"current_range_meters":20800,"station_id":"ce4bhk92rcd13ifvqgb0","pricing_plan_id":"cebpf4jnsgd1na2vs0mg"},{"bike_id":"8262119c-d077-40c1-af60-13b22c36ebf2","system_id":"levelo_inurba_marseille","lat":43.28175,"lon":5.426701,"is_reserved":false,"is_disabled":false,"rental_uris":{"android":"levelo://app?vid=8262119c-d077-40c1-af60-13b22c36ebf2","ios":"levelo://app?vid=8262119c-d077-40c1-af60-13b22c36ebf2"},"vehicle_type_id":"4","last_reported":1761404947,"current_range_meters":20800,"station_id":"ce4bhnh2rcd13ifvqgug","pricing_plan_id":"cebpf4jnsgd1na2vs0mg"},{"bike_id":"ad166e8d-320f-47c2-bfd9-9e014a946d21","system_id":"levelo_inurba_marseille","lat":43.27811,"lon":5.40725,"is_reserved":false,"is_disabled":true,"rental_uris":{"android":"levelo://app?vid=ad166e8d-320f-47c2-bfd9-9e014a946d21","ios":"levelo://app?vid=ad166e8d-320f-47c2-bfd9-9e014a946d21"},"vehicle_type_id":"4","last_reported":1761404947,"current_range_meters":20800,"station_id":"ce4bhnh2rcd13ifvqgtg","pricing_plan_id":"cebpf4jnsgd1na2vs0mg"},{"bike_id":"7ebf59e8-cc20-4eb2-88ec-0d886cc44b13","system_id":"levelo_inurba_marseille","lat":43.30882,"lon":5.3685,"is_reserved":false,"is_disabled":false,"rental_uris":{"android":"levelo://app?vid=7ebf59e8-cc20-4eb2-88ec-0d886cc44b13","ios":"levelo://app?vid=7ebf59e8-cc20-4eb2-88ec-0d886cc44b13"},"vehicle_type_id":"4","last_reported":1761404947,"current_range_meters":21600,"station_id":"ce4bgn92rcd13ifvqbvg","pricing_plan_id":"cebpf4jnsgd1na2vs0mg"},{"bike_id":"10439fb5-3d74-4cab-98fc-c68dc39b74a7","system_id":"levelo_inurba_marseille","lat":43.25592,"lon":5.38251,"is_reserved":false,"is_disabled":false,"rental_uris":{"android":"levelo://app?vid=10439fb5-3d74-4cab-98fc-c68dc39b74a7","ios":"levelo://app?vid=10439fb5-3d74-4cab-98fc-c68dc39b74a7"},"vehicle_type_id":"4","last_reported":1761404947,"current_range_meters":21600,"station_id":"ce4bhih2rcd13ifvqfs0","pricing_plan_id":"cebpf4jnsgd1na2vs0mg"},{"bike_id":"77ac8331-216b-467f-a5b1-34a019d119d6","system_id":"levelo_inurba_marseille","lat":43.25091,"lon":5.39514,"is_reserved":false,"is_disabled":false,"rental_uris":{"android":"levelo://app?vid=77ac8331-216b-467f-a5b1-34a019d119d6","ios":"levelo://app?vid=77ac8331-216b-467f-a5b1-34a019d119d6"},"vehicle_type_id":"4","last_reported":1761404947,"current_range_meters":21600,"station_id":"ce4bhm12rcd13ifvqgkg","pricing_plan_id":"cebpf4jnsgd1na2vs0mg"},{"bike_id":"417496d0-59a8-4c21-aece-ab8a439a431c","system_id":"levelo_inurba_marseille","lat":43.2958,"lon":5.367367,"is_reserved":false,"is_disabled":false,"rental_uris":{"android":"levelo://app?vid=417496d0-59a8-4c21-aece-ab8a439a431c","ios":"levelo://app?vid=417496d0-59a8-4c21-aece-ab8a439a431c"},"vehicle_type_id":"4","last_reported":1761404947,"current_range_meters":21600,"station_id":"ce4bgph2rcd13ifvqc2g","pricing_plan_id":"cebpf4jnsgd1na2vs0mg"},{"bike_id":"802c02ed-15e9-4311-a741-3fc391180863","system_id":"levelo_inurba_marseille","lat":43.32657,"lon":5.40995,"is_reserved":false,"is_disabled":false,"rental_uris":{"android":"levelo://app?vid=802c02ed-15e9-4311-a741-3fc391180863","ios":"levelo://app?vid=802c02ed-15e9-4311-a741-3fc391180863"},"vehicle_type_id":"4","last_reported":1761404947,"current_range_meters":21600,"station_id":"ce4bhpp2rcd13ifvqhgg","pricing_plan_id":"cebpf4jnsgd1na2vs0mg"},{"bike_id":"94af11c3-cf2a-4a34-9e7a-5e549c825e43","system_id":"levelo_inurba_marseille","lat":43.2408,"lon":5.37759,"is_reserved":false,"is_disabled":false,"rental_uris":{"android":"levelo://app?vid=94af11c3-cf2a-4a34-9e7a-5e549c825e43","ios":"levelo://app?vid=94af11c3-cf2a-4a34-9e7a-5e549c825e43"},"vehicle_type_id":"4","last_reported":1761404947,"current_range_meters":21600,"station_id":"ce4bhnp2rcd13ifvqgvg","pricing_plan_id":"cebpf4jnsgd1na2vs0mg"},{"bike_id":"d8f5d38a-618f-4af7-abb8-171c1a85857d","system_id":"levelo_inurba_marseille","lat":43.29592,"lon":5.38119,"is_reserved":false,"is_disabled":false,"rental_uris":{"android":"levelo://app?vid=d8f5d38a-618f-4af7-abb8-171c1a85857d","ios":"levelo://app?vid=d8f5d38a-618f-4af7-abb8-171c1a85857d"},"vehicle_type_id":"4","last_reported":1761404947,"current_range_meters":22000,"station_id":"ce4bgl12rcd13ifvqbo0","pricing_plan_id":"cebpf4jnsgd1na2vs0mg"},{"bike_id":"dd49c643-708e-4930-9902-c0a947f622bd","system_id":"levelo_inurba_marseille","lat":43.23052,"lon":5.35513,"is_reserved":false,"is_disabled":false,"rental_uris":{"android":"levelo://app?vid=dd49c643-708e-4930-9902-c0a947f622bd","ios":"levelo://app?vid=dd49c643-708e-4930-9902-c0a947f622bd"},"vehicle_type_id":"4","last_reported":1761404947,"current_range_meters":22000,"station_id":"cpo3342slgdg3j2ifvpg","pricing_plan_id":"cebpf4jnsgd1na2vs0mg"},{"bike_id":"c0933fe0-6db6-476b-885c-74cbe466e506","system_id":"levelo_inurba_marseille","lat":43.27357,"lon":5.36256,"is_reserved":false,"is_disabled":false,"rental_uris":{"android":"levelo://app?vid=c0933fe0-6db6-476b-885c-74cbe466e506","ios":"levelo://app?vid=c0933fe0-6db6-476b-885c-74cbe466e506"},"vehicle_type_id":"4","last_reported":1761404947,"current_range_meters":22000,"station_id":"ce4bhbh2rcd13ifvqeo0","pricing_plan_id":"cebpf4jnsgd1na2vs0mg"},{"bike_id":"7a04b04c-8d83-491f-aeb9-d2a31fc23afd","system_id":"levelo_inurba_marseille","lat":43.21744,"lon":5.34606,"is_reserved":false,"is_disabled":false,"rental_uris":{"android":"levelo://app?vid=7a04b04c-8d83-491f-aeb9-d2a31fc23afd","ios":"levelo://app?vid=7a04b04c-8d83-491f-aeb9-d2a31fc23afd"},"vehicle_type_id":"4","last_reported":1761404947,"current_range_meters":22000,"station_id":"st_cvj6r9ubvosntc0bgbag","pricing_plan_id":"cebpf4jnsgd1na2vs0mg"},{"bike_id":"0b754a9e-2bcf-442c-88b2-405433f80c8b","system_id":"levelo_inurba_marseille","lat":43.29584,"lon":5.36735,"is_reserved":false,"is_disabled":false,"rental_uris":{"android":"levelo://app?vid=0b754a9e-2bcf-442c-88b2-405433f80c8b","ios":"levelo://app?vid=0b754a9e-2bcf-442c-88b2-405433f80c8b"},"vehicle_type_id":"4","last_reported":1761404947,"current_range_meters":22000,"station_id":"ce4bgph2rcd13ifvqc2g","pricing_plan_id":"cebpf4jnsgd1na2vs0mg"},{"bike_id":"f477e93f-b97a-4451-acf4-cf54172e5058","system_id":"levelo_inurba_marseille","lat":43.29707,"lon":5.3769,"is_reserved":false,"is_disabled":false,"rental_uris":{"android":"levelo://app?vid=f477e93f-b97a-4451-acf4-cf54172e5058","ios":"levelo://app?vid=f477e93f-b97a-4451-acf4-cf54172e5058"},"vehicle_type_id":"4","last_reported":1761404947,"current_range_meters":22000,"station_id":"ce4bgkh2rcd13ifvqbl0","pricing_plan_id":"cebpf4jnsgd1na2vs0mg"},{"bike_id":"ce15d64c-7bd4-4017-a01a-0dc353c2995b","system_id":"levelo_inurba_marseille","lat":43.28131,"lon":5.35035,"is_reserved":false,"is_disabled":false,"rental_uris":{"android":"levelo://app?vid=ce15d64c-7bd4-4017-a01a-0dc353c2995b","ios":"levelo://app?vid=ce15d64c-7bd4-4017-a01a-0dc353c2995b"},"vehicle_type_id":"4","last_reported":1761404947,"current_range_meters":22000,"station_id":"","pricing_plan_id":"cebpf4jnsgd1na2vs0mg"},{"bike_id":"de77affe-db12-434b-b912-74ff2c985be6","system_id":"levelo_inurba_marseille","lat":43.29262,"lon":5.38424,"is_reserved":false,"is_disabled":false,"rental_uris":{"android":"levelo://app?vid=de77affe-db12-434b-b912-74ff2c985be6","ios":"levelo://app?vid=de77affe-db12-434b-b912-74ff2c985be6"},"vehicle_type_id":"4","last_reported":1761404947,"current_range_meters":22400,"station_id":"ce4bh692rcd13ifvqea0","pricing_plan_id":"cebpf4jnsgd1na2vs0mg"},{"bike_id":"f12a513e-a60e-4279-9355-9e592cd1d5d2","system_id":"levelo_inurba_marseille","lat":43.29538,"lon":5.39389,"is_reserved":false,"is_disabled":false,"rental_uris":{"android":"levelo://app?vid=f12a513e-a60e-4279-9355-9e592cd1d5d2","ios":"levelo://app?vid=f12a513e-a60e-4279-9355-9e592cd1d5d2"},"vehicle_type_id":"4","last_reported":1761404947,"current_range_meters":22400,"station_id":"ce4bh292rcd13ifvqdf0","pricing_plan_id":"cebpf4jnsgd1na2vs0mg"},{"bike_id":"609e8845-7ae3-4c4f-97f5-856dd3a8b490","system_id":"levelo_inurba_marseille","lat":43.28874,"lon":5.42533,"is_reserved":false,"is_disabled":false,"rental_uris":{"android":"levelo://app?vid=609e8845-7ae3-4c4f-97f5-856dd3a8b490","ios":"levelo://app?vid=609e8845-7ae3-4c4f-97f5-856dd3a8b490"},"vehicle_type_id":"4","last_reported":1761404947,"current_range_meters":22400,"station_id":"st_d3b462108ojc7389ooeg","pricing_plan_id":"cebpf4jnsgd1na2vs0mg"},