{"last_updated":1697782165,"ttl":30,"version":"2.2","data":{"bikes":[{"bike_id":"28f51b75-c948-4099-b2bc-3b6b4662d962","system_id":"levelo_inurba_marseille","lat":43.31341,"lon":5.367098,"is_reserved":false,"is_disabled":false,"rental_uris":{"android":"levelo://app?vid=28f51b75-c948-4099-b2bc-3b6b4662d962","ios":"levelo://app?vid=28f51b75-c948-4099-b2bc-3b6b4662d962"},"vehicle_type_id":"4","last_reported":1697782165,"current_range_meters":9200,"station_id":"ce4bgr92rcd13ifvqc6g","pricing_plan_id":"free"},{"bike_id":"f45e5bd8-3b4a-4e88-9fc4-6ab498ea8cdb","system_id":"levelo_inurba_marseille","lat":43.313391,"lon":5.36706,"is_reserved":false,"is_disabled":false,"rental_uris":{"android":"levelo://app?vid=f45e5bd8-3b4a-4e88-9fc4-6ab498ea8cdb","ios":"levelo://app?vid=f45e5bd8-3b4a-4e88-9fc4-6ab498ea8cdb"},"vehicle_type_id":"4","last_reported":1697782165,"current_range_meters":16800,"station_id":"ce4bgr92rcd13ifvqc6g","pricing_plan_id":"free"},{"bike_id":"7b0676a3-31d1-4967-9e6a-e78a300e6fb9","system_id":"levelo_inurba_marseille","lat":43.31349,"lon":5.36723,"is_reserved":false,"is_disabled":false,"rental_uris":{"android":"levelo://app?vid=7b0676a3-31d1-4967-9e6a-e78a300e6fb9","ios":"levelo://app?vid=7b0676a3-31d1-4967-9e6a-e78a300e6fb9"},"vehicle_type_id":"4","last_reported":1697782165,"current_range_meters":0,"station_id":"ce4bgr92rcd13ifvqc6g","pricing_plan_id":"free"},{"bike_id":"87811181-1232-4971-bc75-71b58bf13fb7","system_id":"levelo_inurba_marseille","lat":43.31341,"lon":5.367098,"is_reserved":false,"is_disabled":false,"rental_uris":{"android":"levelo://app?vid=87811181-1232-4971-bc75-71b58bf13fb7","ios":"levelo://app?vid=87811181-1232-4971-bc75-71b58bf13fb7"},"vehicle_type_id":"4","last_reported":1697782165,"current_range_meters":26000,"station_id":"ce4bgr92rcd13ifvqc6g","pricing_plan_id":"free"},{"bike_id":"611bbe16-05dd-42f3-8474-8a5b7c2fe13e","system_id":"levelo_inurba_marseille","lat":43.313673,"lon":5.367795,"is_reserved":false,"is_disabled":false,"rental_uris":{"android":"levelo://app?vid=611bbe16-05dd-42f3-8474-8a5b7c2fe13e","ios":"levelo://app?vid=611bbe16-05dd-42f3-8474-8a5b7c2fe13e"},"vehicle_type_id":"4","last_reported":1697782165,"current_range_meters":2000,"station_id":"ce4bgt12rcd13ifvqcd0","pricing_plan_id":"free"},{"bike_id":"78ea2a85-f977-4850-9d2f-7e65a40fb22e","system_id":"levelo_inurba_marseille","lat":43.312239,"lon":5.368562,"is_reserved":false,"is_disabled":false,"rental_uris":{"android":"levelo://app?vid=78ea2a85-f977-4850-9d2f-7e65a40fb22e","ios":"levelo://app?vid=78ea2a85-f977-4850-9d2f-7e65a40fb22e"},"vehicle_type_id":"4","last_reported":1697782165,"current_range_meters":5600,"station_id":"ce4bgl92rcd13ifvqbq0","pricing_plan_id":"free"},{"bike_id":"77ce85d0-db72-45c4-b282-e2075e254b05","system_id":"levelo_inurba_marseille","lat":43.309076,"lon":5.368465,"is_reserved":false,"is_disabled":false,"rental_uris":{"android":"levelo://app?vid=77ce85d0-db72-45c4-b282-e2075e254b05","ios":"levelo://app?vid=77ce85d0-db72-45c4-b282-e2075e254b05"},"vehicle_type_id":"4","last_reported":1697782165,"current_range_meters":13600,"station_id":"ce4bgn92rcd13ifvqbvg","pricing_plan_id":"free"},{"bike_id":"abc2613d-7d22-470d-8bf1-950eb1df0488","system_id":"levelo_inurba_marseille","lat":43.314811,"lon":5.373103,"is_reserved":false,"is_disabled":false,"rental_uris":{"android":"levelo://app?vid=abc2613d-7d22-470d-8bf1-950eb1df0488","ios":"levelo://app?vid=abc2613d-7d22-470d-8bf1-950eb1df0488"},"vehicle_type_id":"4","last_reported":1697782165,"current_range_meters":10800,"station_id":"ce4bgt12rcd13ifvqcd0","pricing_plan_id":"free"},{"bike_id":"73c6a4bc-f563-4be0-b46c-ef9a6576a26b","system_id":"levelo_inurba_marseille","lat":43.314811,"lon":5.373103,"is_reserved":false,"is_disabled":false,"rental_uris":{"android":"levelo://app?vid=73c6a4bc-f563-4be0-b46c-ef9a6576a26b","ios":"levelo://app?vid=73c6a4bc-f563-4be0-b46c-ef9a6576a26b"},"vehicle_type_id":"4","last_reported":1697782165,"current_range_meters":13200,"station_id":"ce4bgt12rcd13ifvqcd0","pricing_plan_id":"free"},{"bike_id":"f8c0a523-eb50-45b0-93bc-e5dedea33f38","system_id":"levelo_inurba_marseille","lat":43.314965,"lon":5.373039,"is_reserved":false,"is_disabled":false,"rental_uris":{"android":"levelo://app?vid=f8c0a523-eb50-45b0-93bc-e5dedea33f38","ios":"levelo://app?vid=f8c0a523-eb50-45b0-93bc-e5dedea33f38"},"vehicle_type_id":"4","last_reported":1697782165,"current_range_meters":0,"station_id":"","pricing_plan_id":"free"},{"bike_id":"23e75087-98c2-462e-92a6-1ac81d39ea7c","system_id":"levelo_inurba_marseille","lat":43.309039,"lon":5.371797,"is_reserved":false,"is_disabled":false,"rental_uris":{"android":"levelo://app?vid=23e75087-98c2-462e-92a6-1ac81d39ea7c","ios":"levelo://app?vid=23e75087-98c2-462e-92a6-1ac81d39ea7c"},"vehicle_type_id":"4","last_reported":1697782165,"current_range_meters":20400,"station_id":"ce4bguh2rcd13ifvqckg","pricing_plan_id":"free"},{"bike_id":"33b44bbd-ef20-48a0-bcf6-7829ccdd666e","system_id":"levelo_inurba_marseille","lat":43.30887,"lon":5.371967,"is_reserved":false,"is_disabled":false,"rental_uris":{"android":"levelo://app?vid=33b44bbd-ef20-48a0-bcf6-7829ccdd666e","ios":"levelo://app?vid=33b44bbd-ef20-48a0-bcf6-7829ccdd666e"},"vehicle_type_id":"4","last_reported":1697782165,"current_range_meters":21600,"station_id":"ce4bguh2rcd13ifvqckg","pricing_plan_id":"free"},{"bike_id":"ed340838-4dc3-4a5d-a8ec-4a213e651808","system_id":"levelo_inurba_marseille","lat":43.316054,"lon":5.372761,"is_reserved":false,"is_disabled":false,"rental_uris":{"android":"levelo://app?vid=ed340838-4dc3-4a5d-a8ec-4a213e651808","ios":"levelo://app?vid=ed340838-4dc3-4a5d-a8ec-4a213e651808"},"vehicle_type_id":"4","last_reported":1697782165,"current_range_meters":20000,"station_id":"","pricing_plan_id":"free"},{"bike_id":"807ea4e4-0397-455c-8fbf-746689d316cc","system_id":"levelo_inurba_marseille","lat":43.309039,"lon":5.371797,"is_reserved":false,"is_disabled":false,"rental_uris":{"android":"levelo://app?vid=807ea4e4-0397-455c-8fbf-746689d316cc","ios":"levelo://app?vid=807ea4e4-0397-455c-8fbf-746689d316cc"},"vehicle_type_id":"4","last_reported":1697782165,"current_range_meters":18000,"station_id":"ce4bguh2rcd13ifvqckg","pricing_plan_id":"free"},{"bike_id":"dfcebf2e-f0db-480d-a3cb-880433063755","system_id":"levelo_inurba_marseille","lat":43.30538,"lon":5.36713,"is_reserved":false,"is_disabled":false,"rental_uris":{"android":"levelo://app?vid=dfcebf2e-f0db-480d-a3cb-880433063755","ios":"levelo://app?vid=dfcebf2e-f0db-480d-a3cb-880433063755"},"vehicle_type_id":"4","last_reported":1697782165,"current_range_meters":29600,"station_id":"ce4bgrp2rcd13ifvqc9g","pricing_plan_id":"free"},{"bike_id":"2d87c6ae-9110-4f38-9a0a-f6b4589c0aee","system_id":"levelo_inurba_marseille","lat":43.30541,"lon":5.36541,"is_reserved":false,"is_disabled":false,"rental_uris":{"android":"levelo://app?vid=2d87c6ae-9110-4f38-9a0a-f6b4589c0aee","ios":"levelo://app?vid=2d87c6ae-9110-4f38-9a0a-f6b4589c0aee"},"vehicle_type_id":"4","last_reported":1697782165,"current_range_meters":12400,"station_id":"ce4bgs12rcd13ifvqcag","pricing_plan_id":"free"},{"bike_id":"319db83b-26bc-48fe-9e27-b13dc875b356","system_id":"levelo_inurba_marseille","lat":43.305714,"lon":5.365633,"is_reserved":false,"is_disabled":false,"rental_uris":{"android":"levelo://app?vid=319db83b-26bc-48fe-9e27-b13dc875b356","ios":"levelo://app?vid=319db83b-26bc-48fe-9e27-b13dc875b356"},"vehicle_type_id":"4","last_reported":1697782165,"current_range_meters":0,"station_id":"ce4bgs12rcd13ifvqcag","pricing_plan_id":"free"},{"bike_id":"22bd89cc-33ae-44b9-a7d1-45e3340fd536","system_id":"levelo_inurba_marseille","lat":43.30529,"lon":5.36719,"is_reserved":false,"is_disabled":false,"rental_uris":{"android":"levelo://app?vid=22bd89cc-33ae-44b9-a7d1-45e3340fd536","ios":"levelo://app?vid=22bd89cc-33ae-44b9-a7d1-45e3340fd536"},"vehicle_type_id":"4","last_reported":1697782165,"current_range_meters":9600,"station_id":"ce4bgrp2rcd13ifvqc9g","pricing_plan_id":"free"},{"bike_id":"2c892246-5fec-4bb8-8c1d-64b511e8e150","system_id":"levelo_inurba_marseille","lat":43.30519,"lon":5.36726,"is_reserved":false,"is_disabled":false,"rental_uris":{"android":"levelo://app?vid=2c892246-5fec-4bb8-8c1d-64b511e8e150","ios":"levelo://app?vid=2c892246-5fec-4bb8-8c1d-64b511e8e150"},"vehicle_type_id":"4","last_reported":1697782165,"current_range_meters":18800,"station_id":"ce4bgrp2rcd13ifvqc9g","pricing_plan_id":"free"},{"bike_id":"30436d07-2cf1-47a0-bb18-a608fbdaaf99","system_id":"levelo_inurba_marseille","lat":43.313807,"lon":5.377477,"is_reserved":false,"is_disabled":false,"rental_uris":{"android":"levelo://app?vid=30436d07-2cf1-47a0-bb18-a608fbdaaf99","ios":"levelo://app?vid=30436d07-2cf1-47a0-bb18-a608fbdaaf99"},"vehicle_type_id":"4","last_reported":1697782165,"current_range_meters":21200,"station_id":"ce4bh0p2rcd13ifvqd80","pricing_plan_id":"free"},{"bike_id":"d68f4d10-0448-4fce-818a-c1100e5b7fe4","system_id":"levelo_inurba_marseille","lat":43.305989,"lon":5.37225,"is_reserved":false,"is_disabled":false,"rental_uris":{"android":"levelo://app?vid=d68f4d10-0448-4fce-818a-c1100e5b7fe4","ios":"levelo://app?vid=d68f4d10-0448-4fce-818a-c1100e5b7fe4"},"vehicle_type_id":"4","last_reported":1697782165,"current_range_meters":22000,"station_id":"ce4bgqh2rcd13ifvqc4g","pricing_plan_id":"free"},{"bike_id":"1959267d-4bf9-4ad0-b6bf-5b5ea09a155d","system_id":"levelo_inurba_marseille","lat":43.307945,"lon":5.376487,"is_reserved":false,"is_disabled":false,"rental_uris":{"android":"levelo://app?vid=1959267d-4bf9-4ad0-b6bf-5b5ea09a155d","ios":"levelo://app?vid=1959267d-4bf9-4ad0-b6bf-5b5ea09a155d"},"vehicle_type_id":"4","last_reported":1697782165,"current_range_meters":30400,"station_id":"ce4bgv92rcd13ifvqcq0","pricing_plan_id":"free"},{"bike_id":"32fadbbb-28e9-487c-aa87-e6cce7748508","system_id":"levelo_inurba_marseille","lat":43.317075,"lon":5.377367,"is_reserved":false,"is_disabled":false,"rental_uris":{"android":"levelo://app?vid=32fadbbb-28e9-487c-aa87-e6cce7748508","ios":"levelo://app?vid=32fadbbb-28e9-487c-aa87-e6cce7748508"},"vehicle_type_id":"4","last_reported":1697782165,"current_range_meters":14400,"station_id":"ce4bgth2rcd13ifvqch0","pricing_plan_id":"free"},{"bike_id":"51292fc5-052c-4e68-9624-4155ce1c99e1","system_id":"levelo_inurba_marseille","lat":43.32199,"lon":5.369275,"is_reserved":false,"is_disabled":false,"rental_uris":{"android":"levelo://app?vid=51292fc5-052c-4e68-9624-4155ce1c99e1","ios":"levelo://app?vid=51292fc5-052c-4e68-9624-4155ce1c99e1"},"vehicle_type_id":"4","last_reported":1697782165,"current_range_meters":8800,"station_id":"","pricing_plan_id":"free"},{"bike_id":"0d1a1ed5-f2f4-4c98-b586-23cf727d8d15","system_id":"levelo_inurba_marseille","lat":43.30805,"lon":5.38157,"is_reserved":false,"is_disabled":false,"rental_uris":{"android":"levelo://app?vid=0d1a1ed5-f2f4-4c98-b586-23cf727d8d15","ios":"levelo://app?vid=0d1a1ed5-f2f4-4c98-b586-23cf727d8d15"},"vehicle_type_id":"4","last_reported":1697782165,"current_range_meters":26000,"station_id":"ce4bgt12rcd13ifvqce0","pricing_plan_id":"free"},{"bike_id":"7f6df941-459e-4320-bb0b-6b0908aebfbd","system_id":"levelo_inurba_marseille","lat":43.304606,"lon":5.379026,"is_reserved":false,"is_disabled":false,"rental_uris":{"android":"levelo://app?vid=7f6df941-459e-4320-bb0b-6b0908aebfbd","ios":"levelo://app?vid=7f6df941-459e-4320-bb0b-6b0908aebfbd"},"vehicle_type_id":"4","last_reported":1697782165,"current_range_meters":22400,"station_id":"ce4bgup2rcd13ifvqcn0","pricing_plan_id":"free"},{"bike_id":"79cc8c0e-a3a9-4a4c-b399-296009cc5d43","system_id":"levelo_inurba_marseille","lat":43.304606,"lon":5.379026,"is_reserved":false,"is_disabled":false,"rental_uris":{"android":"levelo://app?vid=79cc8c0e-a3a9-4a4c-b399-296009cc5d43","ios":"levelo://app?vid=79cc8c0e-a3a9-4a4c-b399-296009cc5d43"},"vehicle_type_id":"4","last_reported":1697782165,"current_range_meters":28800,"station_id":"ce4bgup2rcd13ifvqcn0","pricing_plan_id":"free"},{"bike_id":"21c97b4a-d989-48ba-8ce9-cd45ae1880d9","system_id":"levelo_inurba_marseille","lat":43.304606,"lon":5.379026,"is_reserved":false,"is_disabled":false,"rental_uris":{"android":"levelo://app?vid=21c97b4a-d989-48ba-8ce9-cd45ae1880d9","ios":"levelo://app?vid=21c97b4a-d989-48ba-8ce9-cd45ae1880d9"},"vehicle_type_id":"4","last_reported":1697782165,"current_range_meters":29200,"station_id":"ce4bgup2rcd13ifvqcn0","pricing_plan_id":"free"},{"bike_id":"2dc01327-e3a0-4765-a25c-788a0cc8d723","system_id":"levelo_inurba_marseille","lat":43.304606,"lon":5.379026,"is_reserved":false,"is_disabled":false,"rental_uris":{"android":"levelo://app?vid=2dc01327-e3a0-4765-a25c-788a0cc8d723","ios":"levelo://app?vid=2dc01327-e3a0-4765-a25c-788a0cc8d723"},"vehicle_type_id":"4","last_reported":1697782165,"current_range_meters":22000,"station_id":"ce4bgup2rcd13ifvqcn0","pricing_plan_id":"free"},{"bike_id":"45f4048e-27ba-4fcf-98fc-869fb738a89f","system_id":"levelo_inurba_marseille","lat":43.304617,"lon":5.378967,"is_reserved":false,"is_disabled":false,"rental_uris":{"android":"levelo://app?vid=45f4048e-27ba-4fcf-98fc-869fb738a89f","ios":"levelo://app?vid=45f4048e-27ba-4fcf-98fc-869fb738a89f"},"vehicle_type_id":"4","last_reported":1697782165,"current_range_meters":26800,"station_id":"ce4bgup2rcd13ifvqcn0","pricing_plan_id":"free"},{"bike_id":"bced4e32-8371-4221-be3e-fa3ae5d68b50","system_id":"levelo_inurba_marseille","lat":43.304606,"lon":5.379026,"is_reserved":false,"is_disabled":false,"rental_uris":{"android":"levelo://app?vid=bced4e32-8371-4221-be3e-fa3ae5d68b50","ios":"levelo://app?vid=bced4e32-8371-4221-be3e-fa3ae5d68b50"},"vehicle_type_id":"4","last_reported":1697782165,"current_range_meters":6000,"station_id":"ce4bgup2rcd13ifvqcn0","pricing_plan_id":"free"},{"bike_id":"3f79af67-f86f-4cf9-a62d-ba91003cff24","system_id":"levelo_inurba_marseille","lat":43.304606,"lon":5.379026,"is_reserved":false,"is_disabled":false,"rental_uris":{"android":"levelo://app?vid=3f79af67-f86f-4cf9-a62d-ba91003cff24","ios":"levelo://app?vid=3f79af67-f86f-4cf9-a62d-ba91003cff24"},"vehicle_type_id":"4","last_reported":1697782165,"current_range_meters":7600,"station_id":"ce4bgup2rcd13ifvqcn0","pricing_plan_id":"free"},{"bike_id":"c82985e1-5aee-432e-a3b3-53c49720e5ae","system_id":"levelo_inurba_marseille","lat":43.304606,"lon":5.379026,"is_reserved":false,"is_disabled":false,"rental_uris":{"android":"levelo://app?vid=c82985e1-5aee-432e-a3b3-53c49720e5ae","ios":"levelo://app?vid=c82985e1-5aee-432e-a3b3-53c49720e5ae"},"vehicle_type_id":"4","last_reported":1697782165,"current_range_meters":21600,"station_id":"ce4bgup2rcd13ifvqcn0","pricing_plan_id":"free"},{"bike_id":"d62f2a84-c52c-4a38-bf53-a0afb1fc7362","system_id":"levelo_inurba_marseille","lat":43.304606,"lon":5.379026,"is_reserved":false,"is_disabled":false,"rental_uris":{"android":"levelo://app?vid=d62f2a84-c52c-4a38-bf53-a0afb1fc7362","ios":"levelo://app?vid=d62f2a84-c52c-4a38-bf53-a0afb1fc7362"},"vehicle_type_id":"4","last_reported":1697782165,"current_range_meters":30400,"station_id":"ce4bgup2rcd13ifvqcn0","pricing_plan_id":"free"},{"bike_id":"0da8500e-22d7-4117-a69a-c1535388b622","system_id":"levelo_inurba_marseille","lat":43.304606,"lon":5.379026,"is_reserved":false,"is_disabled":false,"rental_uris":{"android":"levelo://app?vid=0da8500e-22d7-4117-a69a-c1535388b622","ios":"levelo://app?vid=0da8500e-22d7-4117-a69a-c1535388b622"},"vehicle_type_id":"4","last_reported":1697782165,"current_range_meters":27600,"station_id":"ce4bgup2rcd13ifvqcn0","pricing_plan_id":"free"},{"bike_id":"0c401a79-25ec-42e8-af2b-a0c24b8959eb","system_id":"levelo_inurba_marseille","lat":43.304606,"lon":5.379026,"is_reserved":false,"is_disabled":false,"rental_uris":{"android":"levelo://app?vid=0c401a79-25ec-42e8-af2b-a0c24b8959eb","ios":"levelo://app?vid=0c401a79-25ec-42e8-af2b-a0c24b8959eb"},"vehicle_type_id":"4","last_reported":1697782165,"current_range_meters":22800,"station_id":"ce4bgup2rcd13ifvqcn0","pricing_plan_id":"free"},{"bike_id":"54823380-9cf6-4809-b3f8-bcea5aeb0ab9","system_id":"levelo_inurba_marseille","lat":43.304606,"lon":5.379026,"is_reserved":false,"is_disabled":false,"rental_uris":{"android":"levelo://app?vid=54823380-9cf6-4809-b3f8-bcea5aeb0ab9","ios":"levelo://app?vid=54823380-9cf6-4809-b3f8-bcea5aeb0ab9"},"vehicle_type_id":"4","last_reported":1697782165,"current_range_meters":4400,"station_id":"ce4bgup2rcd13ifvqcn0","pricing_plan_id":"free"},{"bike_id":"30e7181c-b7f3-444a-a6d2-809b91e0c022","system_id":"levelo_inurba_marseille","lat":43.304606,"lon":5.379026,"is_reserved":false,"is_disabled":false,"rental_uris":{"android":"levelo://app?vid=30e7181c-b7f3-444a-a6d2-809b91e0c022","ios":"levelo://app?vid=30e7181c-b7f3-444a-a6d2-809b91e0c022"},"vehicle_type_id":"4","last_reported":1697782165,"current_range_meters":25600,"station_id":"ce4bgup2rcd13ifvqcn0","pricing_plan_id":"free"},{"bike_id":"896b6c79-62ef-40c4-ac21-199b5622b308","system_id":"levelo_inurba_marseille","lat":43.304606,"lon":5.379026,"is_reserved":false,"is_disabled":false,"rental_uris":{"android":"levelo://app?vid=896b6c79-62ef-40c4-ac21-199b5622b308","ios":"levelo://app?vid=896b6c79-62ef-40c4-ac21-199b5622b308"},"vehicle_type_id":"4","last_reported":1697782165,"current_range_meters":31200,"station_id":"ce4bgup2rcd13ifvqcn0","pricing_plan_id":"free"},{"bike_id":"2c4648db-bef7-423b-ba7b-8ac695cc08d7","system_id":"levelo_inurba_marseille","lat":43.304606,"lon":5.379026,"is_reserved":false,"is_disabled":false,"rental_uris":{"android":"levelo://app?vid=2c4648db-bef7-423b-ba7b-8ac695cc08d7","ios":"levelo://app?vid=2c4648db-bef7-423b-ba7b-8ac695cc08d7"},"vehicle_type_id":"4","last_reported":1697782165,"current_range_meters":22800,"station_id":"ce4bgup2rcd13ifvqcn0","pricing_plan_id":"free"},{"bike_id":"aed9dcdd-ce90-4f58-8fb8-189f0763f526","system_id":"levelo_inurba_marseille","lat":43.304606,"lon":5.379026,"is_reserved":false,"is_disabled":false,"rental_uris":{"android":"levelo://app?vid=aed9dcdd-ce90-4f58-8fb8-189f0763f526","ios":"levelo://app?vid=aed9dcdd-ce90-4f58-8fb8-189f0763f526"},"vehicle_type_id":"4","last_reported":1697782165,"current_range_meters":16400,"station_id":"ce4bgup2rcd13ifvqcn0","pricing_plan_id":"free"},{"bike_id":"2728b11d-6600-41fc-8e4c-f445a239a116","system_id":"levelo_inurba_marseille","lat":43.304606,"lon":5.379026,"is_reserved":false,"is_disabled":false,"rental_uris":{"android":"levelo://app?vid=2728b11d-6600-41fc-8e4c-f445a239a116","ios":"levelo://app?vid=2728b11d-6600-41fc-8e4c-f445a239a116"},"vehicle_type_id":"4","last_reported":1697782165,"current_range_meters":14000,"station_id":"ce4bgup2rcd13ifvqcn0","pricing_plan_id":"free"},{"bike_id":"d4e8c801-efec-403a-91d1-74b3a652c4fc","system_id":"levelo_inurba_marseille","lat":43.30462,"lon":5.37903,"is_reserved":false,"is_disabled":false,"rental_uris":{"android":"levelo://app?vid=d4e8c801-efec-403a-91d1-74b3a652c4fc","ios":"levelo://app?vid=d4e8c801-efec-403a-91d1-74b3a652c4fc"},"vehicle_type_id":"4","last_reported":1697782165,"current_range_meters":30000,"station_id":"ce4bgup2rcd13ifvqcn0","pricing_plan_id":"free"},{"bike_id":"23412360-b26a-472f-a1d8-1d5ae50850e3","system_id":"levelo_inurba_marseille","lat":43.304606,"lon":5.379026,"is_reserved":false,"is_disabled":false,"rental_uris":{"android":"levelo://app?vid=23412360-b26a-472f-a1d8-1d5ae50850e3","ios":"levelo://app?vid=23412360-b26a-472f-a1d8-1d5ae50850e3"},"vehicle_type_id":"4","last_reported":1697782165,"current_range_meters":23600,"station_id":"ce4bgup2rcd13ifvqcn0","pricing_plan_id":"free"},{"bike_id":"389cdcac-9da8-48b5-8e61-3e91d96454a3","system_id":"levelo_inurba_marseille","lat":43.304606,"lon":5.379026,"is_reserved":false,"is_disabled":false,"rental_uris":{"android":"levelo://app?vid=389cdcac-9da8-48b5-8e61-3e91d96454a3","ios":"levelo://app?vid=389cdcac-9da8-48b5-8e61-3e91d96454a3"},"vehicle_type_id":"4","last_reported":1697782165,"current_range_meters":26000,"station_id":"ce4bgup2rcd13ifvqcn0","pricing_plan_id":"free"},{"bike_id":"cfe05054-1520-4c46-afc5-f28030e7f4f6","system_id":"levelo_inurba_marseille","lat":43.304606,"lon":5.379026,"is_reserved":false,"is_disabled":false,"rental_uris":{"android":"levelo://app?vid=cfe05054-1520-4c46-afc5-f28030e7f4f6","ios":"levelo://app?vid=cfe05054-1520-4c46-afc5-f28030e7f4f6"},"vehicle_type_id":"4","last_reported":1697782165,"current_range_meters":22000,"station_id":"ce4bgup2rcd13ifvqcn0","pricing_plan_id":"free"},{"bike_id":"a74457d8-a21c-45ff-bce1-d11231967ef6","system_id":"levelo_inurba_marseille","lat":43.304606,"lon":5.379026,"is_reserved":false,"is_disabled":false,"rental_uris":{"android":"levelo://app?vid=a74457d8-a21c-45ff-bce1-d11231967ef6","ios":"levelo://app?vid=a74457d8-a21c-45ff-bce1-d11231967ef6"},"vehicle_type_id":"4","last_reported":1697782165,"current_range_meters":16400,"station_id":"ce4bgup2rcd13ifvqcn0","pricing_plan_id":"free"},{"bike_id":"c6444ec0-e35a-4041-8995-3e85ac940291","system_id":"levelo_inurba_marseille","lat":43.304606,"lon":5.379026,"is_reserved":false,"is_disabled":false,"rental_uris":{"android":"levelo://app?vid=c6444ec0-e35a-4041-8995-3e85ac940291","ios":"levelo://app?vid=c6444ec0-e35a-4041-8995-3e85ac940291"},"vehicle_type_id":"4","last_reported":1697782165,"current_range_meters":24000,"station_id":"ce4bgup2rcd13ifvqcn0","pricing_plan_id":"free"},{"bike_id":"de6a6ef0-c20a-4d1e-8dfc-d0d8dccba28a","system_id":"levelo_inurba_marseille","lat":43.304606,"lon":5.379026,"is_reserved":false,"is_disabled":false,"rental_uris":{"android":"levelo://app?vid=de6a6ef0-c20a-4d1e-8dfc-d0d8dccba28a","ios":"levelo://app?vid=de6a6ef0-c20a-4d1e-8dfc-d0d8dccba28a"},"vehicle_type_id":"4","last_reported":1697782165,"current_range_meters":25600,"station_id":"ce4bgup2rcd13ifvqcn0","pricing_plan_id":"free"},{"bike_id":"105049d9-ac2f-4131-86ba-c16463ed0f90","system_id":"levelo_inurba_marseille","lat":43.30458,"lon":5.379,"is_reserved":false,"is_disabled":false,"rental_uris":{"android":"levelo://app?vid=105049d9-ac2f-4131-86ba-c16463ed0f90","ios":"levelo://app?vid=105049d9-ac2f-4131-86ba-c16463ed0f90"},"vehicle_type_id":"4","last_reported":1697782165,"current_range_meters":20800,"station_id":"ce4bgup2rcd13ifvqcn0","pricing_plan_id":"free"},{"bike_id":"8de1acdb-a3c1-49b1-bd93-6763fffc1985","system_id":"levelo_inurba_marseille","lat":43.304606,"lon":5.379026,"is_reserved":false,"is_disabled":false,"rental_uris":{"android":"levelo://app?vid=8de1acdb-a3c1-49b1-bd93-6763fffc1985","ios":"levelo://app?vid=8de1acdb-a3c1-49b1-bd93-6763fffc1985"},"vehicle_type_id":"4","last_reported":1697782165,"current_range_meters":22400,"station_id":"ce4bgup2rcd13ifvqcn0","pricing_plan_id":"free"},{"bike_id":"bf7b77ee-b8c8-40c3-95d8-82f637bb4847","system_id":"levelo_inurba_marseille","lat":43.304606,"lon":5.379026,"is_reserved":false,"is_disabled":false,"rental_uris":{"android":"levelo://app?vid=bf7b77ee-b8c8-40c3-95d8-82f637bb4847","ios":"levelo://app?vid=bf7b77ee-b8c8-40c3-95d8-82f637bb4847"},"vehicle_type_id":"4","last_reported":1697782165,"current_range_meters":22400,"station_id":"ce4bgup2rcd13ifvqcn0","pricing_plan_id":"free"},{"bike_id":"258bf2c2-59d0-4524-b4a4-cc105bde0e07","system_id":"levelo_inurba_marseille","lat":43.304606,"lon":5.379026,"is_reserved":false,"is_disabled":false,"rental_uris":{"android":"levelo://app?vid=258bf2c2-59d0-4524-b4a4-cc105bde0e07","ios":"levelo://app?vid=258bf2c2-59d0-4524-b4a4-cc105bde0e07"},"vehicle_type_id":"4","last_reported":1697782165,"current_range_meters":24800,"station_id":"ce4bgup2rcd13ifvqcn0","pricing_plan_id":"free"},{"bike_id":"60b9698d-2e90-47d0-8a76-5f7a449ec942","system_id":"levelo_inurba_marseille","lat":43.304606,"lon":5.379026,"is_reserved":false,"is_disabled":false,"rental_uris":{"android":"levelo://app?vid=60b9698d-2e90-47d0-8a76-5f7a449ec942","ios":"levelo://app?vid=60b9698d-2e90-47d0-8a76-5f7a449ec942"},"vehicle_type_id":"4","last_reported":1697782165,"current_range_meters":28800,"station_id":"ce4bgup2rcd13ifvqcn0","pricing_plan_id":"free"},{"bike_id":"4bf6ac24-5c28-40c7-9a37-8260a1914c5c","system_id":"levelo_inurba_marseille","lat":43.304606,"lon":5.379026,"is_reserved":false,"is_disabled":false,"rental_uris":{"android":"levelo://app?vid=4bf6ac24-5c28-40c7-9a37-8260a1914c5c","ios":"levelo://app?vid=4bf6ac24-5c28-40c7-9a37-8260a1914c5c"},"vehicle_type_id":"4","last_reported":1697782165,"current_range_meters":25600,"station_id":"ce4bgup2rcd13ifvqcn0","pricing_plan_id":"free"},{"bike_id":"bca45744-c9e9-412f-8005-f39e50d4baca","system_id":"levelo_inurba_marseille","lat":43.304606,"lon":5.379026,"is_reserved":false,"is_disabled":false,"rental_uris":{"android":"levelo://app?vid=bca45744-c9e9-412f-8005-f39e50d4baca","ios":"levelo://app?vid=bca45744-c9e9-412f-8005-f39e50d4baca"},"vehicle_type_id":"4","last_reported":1697782165,"current_range_meters":16000,"station_id":"ce4bgup2rcd13ifvqcn0","pricing_plan_id":"free"},{"bike_id":"b6fb90e7-5452-4a59-a67d-5f46d36833c7","system_id":"levelo_inurba_marseille","lat":43.304606,"lon":5.379026,"is_reserved":false,"is_disabled":false,"rental_uris":{"android":"levelo://app?vid=b6fb90e7-5452-4a59-a67d-5f46d36833c7","ios":"levelo://app?vid=b6fb90e7-5452-4a59-a67d-5f46d36833c7"},"vehicle_type_id":"4","last_reported":1697782165,"current_range_meters":24400,"station_id":"ce4bgup2rcd13ifvqcn0","pricing_plan_id":"free"},{"bike_id":"f351772c-026a-4bc8-a137-e3bd0f21d486","system_id":"levelo_inurba_marseille","lat":43.304606,"lon":5.379026,"is_reserved":false,"is_disabled":false,"rental_uris":{"android":"levelo://app?vid=f351772c-026a-4bc8-a137-e3bd0f21d486","ios":"levelo://app?vid=f351772c-026a-4bc8-a137-e3bd0f21d486"},"vehicle_type_id":"4","last_reported":1697782165,"current_range_meters":23600,"station_id":"ce4bgup2rcd13ifvqcn0","pricing_plan_id":"free"},{"bike_id":"ba1b320e-a6b1-43a6-92a9-8e092c36d531","system_id":"levelo_inurba_marseille","lat":43.304606,"lon":5.379026,"is_reserved":false,"is_disabled":false,"rental_uris":{"android":"levelo://app?vid=ba1b320e-a6b1-43a6-92a9-8e092c36d531","ios":"levelo://app?vid=ba1b320e-a6b1-43a6-92a9-8e092c36d531"},"vehicle_type_id":"4","last_reported":1697782165,"current_range_meters":26400,"station_id":"ce4bgup2rcd13ifvqcn0","pricing_plan_id":"free"},{"bike_id":"5b373004-b0e8-459e-a009-ac42a2a6b347","system_id":"levelo_inurba_marseille","lat":43.304606,"lon":5.379026,"is_reserved":false,"is_disabled":false,"rental_uris":{"android":"levelo://app?vid=5b373004-b0e8-459e-a009-ac42a2a6b347","ios":"levelo://app?vid=5b373004-b0e8-459e-a009-ac42a2a6b347"},"vehicle_type_id":"4","last_reported":1697782165,"current_range_meters":22400,"station_id":"ce4bgup2rcd13ifvqcn0","pricing_plan_id":"free"},{"bike_id":"666d07d5-6f0d-44fb-b762-71942b34255d","system_id":"levelo_inurba_marseille","lat":43.31926,"lon":5.38137,"is_reserved":false,"is_disabled":false,"rental_uris":{"android":"levelo://app?vid=666d07d5-6f0d-44fb-b762-71942b34255d","ios":"levelo://app?vid=666d07d5-6f0d-44fb-b762-71942b34255d"},"vehicle_type_id":"4","last_reported":1697782165,"current_range_meters":8000,"station_id":"ce4bhr12rcd13ifvqhpg","pricing_plan_id":"free"},{"bike_id":"e469ed45-93f3-4a2a-b6a4-5e92ebb59cf2","system_id":"levelo_inurba_marseille","lat":43.30143,"lon":5.37413,"is_reserved":false,"is_disabled":false,"rental_uris":{"android":"levelo://app?vid=e469ed45-93f3-4a2a-b6a4-5e92ebb59cf2","ios":"levelo://app?vid=e469ed45-93f3-4a2a-b6a4-5e92ebb59cf2"},"vehicle_type_id":"4","last_reported":1697782165,"current_range_meters":27600,"station_id":"ce4bgs92rcd13ifvqcc0","pricing_plan_id":"free"},{"bike_id":"530e47cc-27d1-4225-9141-d945642a833f","system_id":"levelo_inurba_marseille","lat":43.30269,"lon":5.37736,"is_reserved":false,"is_disabled":false,"rental_uris":{"android":"levelo://app?vid=530e47cc-27d1-4225-9141-d945642a833f","ios":"levelo://app?vid=530e47cc-27d1-4225-9141-d945642a833f"},"vehicle_type_id":"4","last_reported":1697782165,"current_range_meters":8400,"station_id":"ce4bguh2rcd13ifvqcj0","pricing_plan_id":"free"},{"bike_id":"8c878c7b-ab3d-44b6-bfc6-7bec682cc702","system_id":"levelo_inurba_marseille","lat":43.302784,"lon":5.377158,"is_reserved":false,"is_disabled":false,"rental_uris":{"android":"levelo://app?vid=8c878c7b-ab3d-44b6-bfc6-7bec682cc702","ios":"levelo://app?vid=8c878c7b-ab3d-44b6-bfc6-7bec682cc702"},"vehicle_type_id":"4","last_reported":1697782165,"current_range_meters":27600,"station_id":"ce4bguh2rcd13ifvqcj0","pricing_plan_id":"free"},{"bike_id":"6c81160e-47d9-4b23-bd0d-4ceefd9f2bab","system_id":"levelo_inurba_marseille","lat":43.30264,"lon":5.377395,"is_reserved":false,"is_disabled":false,"rental_uris":{"android":"levelo://app?vid=6c81160e-47d9-4b23-bd0d-4ceefd9f2bab","ios":"levelo://app?vid=6c81160e-47d9-4b23-bd0d-4ceefd9f2bab"},"vehicle_type_id":"4","last_reported":1697782165,"current_range_meters":30000,"station_id":"ce4bguh2rcd13ifvqcj0","pricing_plan_id":"free"},{"bike_id":"70b811bf-7ca5-4f36-929f-b16948e5a644","system_id":"levelo_inurba_marseille","lat":43.302784,"lon":5.377158,"is_reserved":false,"is_disabled":false,"rental_uris":{"android":"levelo://app?vid=70b811bf-7ca5-4f36-929f-b16948e5a644","ios":"levelo://app?vid=70b811bf-7ca5-4f36-929f-b16948e5a644"},"vehicle_type_id":"4","last_reported":1697782165,"current_range_meters":30000,"station_id":"ce4bguh2rcd13ifvqcj0","pricing_plan_id":"free"},{"bike_id":"ed3636bc-83bf-4e6a-8bbc-c7507f0ededd","system_id":"levelo_inurba_marseille","lat":43.302784,"lon":5.377158,"is_reserved":false,"is_disabled":false,"rental_uris":{"android":"levelo://app?vid=ed3636bc-83bf-4e6a-8bbc-c7507f0ededd","ios":"levelo://app?vid=ed3636bc-83bf-4e6a-8bbc-c7507f0ededd"},"vehicle_type_id":"4","last_reported":1697782165,"current_range_meters":28400,"station_id":"ce4bguh2rcd13ifvqcj0","pricing_plan_id":"free"},{"bike_id":"d869875d-6897-4dcd-b8e6-904f61ca57ca","system_id":"levelo_inurba_marseille","lat":43.31982,"lon":5.381585,"is_reserved":false,"is_disabled":false,"rental_uris":{"android":"levelo://app?vid=d869875d-6897-4dcd-b8e6-904f61ca57ca","ios":"levelo://app?vid=d869875d-6897-4dcd-b8e6-904f61ca57ca"},"vehicle_type_id":"4","last_reported":1697782165,"current_range_meters":0,"station_id":"","pricing_plan_id":"free"},{"bike_id":"2fe8984f-4595-454f-9562-66e94dba88ee","system_id":"levelo_inurba_marseille","lat":43.32124,"lon":5.3803,"is_reserved":false,"is_disabled":false,"rental_uris":{"android":"levelo://app?vid=2fe8984f-4595-454f-9562-66e94dba88ee","ios":"levelo://app?vid=2fe8984f-4595-454f-9562-66e94dba88ee"},"vehicle_type_id":"4","last_reported":1697782165,"current_range_meters":4400,"station_id":"","pricing_plan_id":"free"},{"bike_id":"ea6069f8-6407-42fa-bebc-bb072b43f5ff","system_id":"levelo_inurba_marseille","lat":43.317947,"lon":5.383823,"is_reserved":false,"is_disabled":false,"rental_uris":{"android":"levelo://app?vid=ea6069f8-6407-42fa-bebc-bb072b43f5ff","ios":"levelo://app?vid=ea6069f8-6407-42fa-bebc-bb072b43f5ff"},"vehicle_type_id":"4","last_reported":1697782165,"current_range_meters":4400,"station_id":"","pricing_plan_id":"free"},{"bike_id":"f4058422-5288-4671-a541-60b58c6dd27a","system_id":"levelo_inurba_marseille","lat":43.299724,"lon":5.371829,"is_reserved":false,"is_disabled":false,"rental_uris":{"android":"levelo://app?vid=f4058422-5288-4671-a541-60b58c6dd27a","ios":"levelo://app?vid=f4058422-5288-4671-a541-60b58c6dd27a"},"vehicle_type_id":"4","last_reported":1697782165,"current_range_meters":26400,"station_id":"ce4bgr92rcd13ifvqc7g","pricing_plan_id":"free"},{"bike_id":"0eed1805-7c2a-4155-9f3b-f0d54f7087a7","system_id":"levelo_inurba_marseille","lat":43.299259,"lon":5.365483,"is_reserved":false,"is_disabled":false,"rental_uris":{"android":"levelo://app?vid=0eed1805-7c2a-4155-9f3b-f0d54f7087a7","ios":"levelo://app?vid=0eed1805-7c2a-4155-9f3b-f0d54f7087a7"},"vehicle_type_id":"4","last_reported":1697782165,"current_range_meters":9600,"station_id":"","pricing_plan_id":"free"},{"bike_id":"ceafb5ca-6ad9-4b4a-9a88-6c2d12bce4e0","system_id":"levelo_inurba_marseille","lat":43.299222,"lon":5.365554,"is_reserved":false,"is_disabled":false,"rental_uris":{"android":"levelo://app?vid=ceafb5ca-6ad9-4b4a-9a88-6c2d12bce4e0","ios":"levelo://app?vid=ceafb5ca-6ad9-4b4a-9a88-6c2d12bce4e0"},"vehicle_type_id":"4","last_reported":1697782165,"current_range_meters":21200,"station_id":"ce4bgm92rcd13ifvqbr0","pricing_plan_id":"free"},{"bike_id":"0aa97447-dd89-4d15-9b8b-09a68b6ea113","system_id":"levelo_inurba_marseille","lat":43.320945,"lon":5.38306,"is_reserved":false,"is_disabled":false,"rental_uris":{"android":"levelo://app?vid=0aa97447-dd89-4d15-9b8b-09a68b6ea113","ios":"levelo://app?vid=0aa97447-dd89-4d15-9b8b-09a68b6ea113"},"vehicle_type_id":"4","last_reported":1697782165,"current_range_meters":24000,"station_id":"","pricing_plan_id":"free"},{"bike_id":"2ca52ffb-f863-4461-bec4-25bb92e9a78d","system_id":"levelo_inurba_marseille","lat":43.298433,"lon":5.362774,"is_reserved":false,"is_disabled":false,"rental_uris":{"android":"levelo://app?vid=2ca52ffb-f863-4461-bec4-25bb92e9a78d","ios":"levelo://app?vid=2ca52ffb-f863-4461-bec4-25bb92e9a78d"},"vehicle_type_id":"4","last_reported":1697782165,"current_range_meters":29200,"station_id":"ce4bgpp2rcd13ifvqc3g","pricing_plan_id":"free"},{"bike_id":"ef4b9171-2199-498b-9113-b5254887c93b","system_id":"levelo_inurba_marseille","lat":43.298433,"lon":5.362774,"is_reserved":false,"is_disabled":false,"rental_uris":{"android":"levelo://app?vid=ef4b9171-2199-498b-9113-b5254887c93b","ios":"levelo://app?vid=ef4b9171-2199-498b-9113-b5254887c93b"},"vehicle_type_id":"4","last_reported":1697782165,"current_range_meters":21200,"station_id":"ce4bgpp2rcd13ifvqc3g","pricing_plan_id":"free"},{"bike_id":"f72b242f-2039-4301-b74b-5bf5823462ae","system_id":"levelo_inurba_marseille","lat":43.298433,"lon":5.362774,"is_reserved":false,"is_disabled":false,"rental_uris":{"android":"levelo://app?vid=f72b242f-2039-4301-b74b-5bf5823462ae","ios":"levelo://app?vid=f72b242f-2039-4301-b74b-5bf5823462ae"},"vehicle_type_id":"4","last_reported":1697782165,"current_range_meters":17200,"station_id":"ce4bgpp2rcd13ifvqc3g","pricing_plan_id":"free"},{"bike_id":"7a32f5f4-d3e0-4b92-b7df-42eb60777d86","system_id":"levelo_inurba_marseille","lat":43.298433,"lon":5.362774,"is_reserved":false,"is_disabled":false,"rental_uris":{"android":"levelo://app?vid=7a32f5f4-d3e0-4b92-b7df-42eb60777d86","ios":"levelo://app?vid=7a32f5f4-d3e0-4b92-b7df-42eb60777d86"},"vehicle_type_id":"4","last_reported":1697782165,"current_range_meters":28000,"station_id":"ce4bgpp2rcd13ifvqc3g","pricing_plan_id":"free"},{"bike_id":"9cdd9ab1-41f1-4902-9cea-7e89304b99dd","system_id":"levelo_inurba_marseille","lat":43.326855,"lon":5.361885,"is_reserved":false,"is_disabled":false,"rental_uris":{"android":"levelo://app?vid=9cdd9ab1-41f1-4902-9cea-7e89304b99dd","ios":"levelo://app?vid=9cdd9ab1-41f1-4902-9cea-7e89304b99dd"},"vehicle_type_id":"4","last_reported":1697782165,"current_range_meters":16000,"station_id":"","pricing_plan_id":"free"},{"bike_id":"a251d9a3-fd48-4e27-83a6-42aa1e5ae42d","system_id":"levelo_inurba_marseille","lat":43.311722,"lon":5.387247,"is_reserved":false,"is_disabled":false,"rental_uris":{"android":"levelo://app?vid=a251d9a3-fd48-4e27-83a6-42aa1e5ae42d","ios":"levelo://app?vid=a251d9a3-fd48-4e27-83a6-42aa1e5ae42d"},"vehicle_type_id":"4","last_reported":1697782165,"current_range_meters":26000,"station_id":"ce4bgv12rcd13ifvqcp0","pricing_plan_id":"free"},{"bike_id":"dd184af7-502e-46c5-9c43-94706af4b648","system_id":"levelo_inurba_marseille","lat":43.299243,"lon":5.37481,"is_reserved":false,"is_disabled":false,"rental_uris":{"android":"levelo://app?vid=dd184af7-502e-46c5-9c43-94706af4b648","ios":"levelo://app?vid=dd184af7-502e-46c5-9c43-94706af4b648"},"vehicle_type_id":"4","last_reported":1697782165,"current_range_meters":28800,"station_id":"ce4bgjh2rcd13ifvqbg0","pricing_plan_id":"free"},{"bike_id":"3d083438-501e-4444-8c5a-25128ad65b65","system_id":"levelo_inurba_marseille","lat":43.297774,"lon":5.370875,"is_reserved":false,"is_disabled":false,"rental_uris":{"android":"levelo://app?vid=3d083438-501e-4444-8c5a-25128ad65b65","ios":"levelo://app?vid=3d083438-501e-4444-8c5a-25128ad65b65"},"vehicle_type_id":"4","last_reported":1697782165,"current_range_meters":5600,"station_id":"ce4bgop2rcd13ifvqc1g","pricing_plan_id":"free"},{"bike_id":"7fc4f594-5780-4f71-94fd-b9130f5aa9b3","system_id":"levelo_inurba_marseille","lat":43.32824,"lon":5.36681,"is_reserved":false,"is_disabled":false,"rental_uris":{"android":"levelo://app?vid=7fc4f594-5780-4f71-94fd-b9130f5aa9b3","ios":"levelo://app?vid=7fc4f594-5780-4f71-94fd-b9130f5aa9b3"},"vehicle_type_id":"4","last_reported":1697782165,"current_range_meters":12400,"station_id":"","pricing_plan_id":"free"},{"bike_id":"423e497e-bd5a-4790-8ab6-0a6a76d36616","system_id":"levelo_inurba_marseille","lat":43.32828,"lon":5.36682,"is_reserved":false,"is_disabled":false,"rental_uris":{"android":"levelo://app?vid=423e497e-bd5a-4790-8ab6-0a6a76d36616","ios":"levelo://app?vid=423e497e-bd5a-4790-8ab6-0a6a76d36616"},"vehicle_type_id":"4","last_reported":1697782165,"current_range_meters":0,"station_id":"ce4bhs92rcd13ifvqi0g","pricing_plan_id":"free"},{"bike_id":"6df0396d-132d-4cb0-947f-55b4ba9da63e","system_id":"levelo_inurba_marseille","lat":43.328283,"lon":5.366873,"is_reserved":false,"is_disabled":false,"rental_uris":{"android":"levelo://app?vid=6df0396d-132d-4cb0-947f-55b4ba9da63e","ios":"levelo://app?vid=6df0396d-132d-4cb0-947f-55b4ba9da63e"},"vehicle_type_id":"4","last_reported":1697782165,"current_range_meters":0,"station_id":"","pricing_plan_id":"free"},{"bike_id":"1699bef2-a9c1-4a03-983b-866d35c6e31f","system_id":"levelo_inurba_marseille","lat":43.3283,"lon":5.36637,"is_reserved":false,"is_disabled":false,"rental_uris":{"android":"levelo://app?vid=1699bef2-a9c1-4a03-983b-866d35c6e31f","ios":"levelo://app?vid=1699bef2-a9c1-4a03-983b-866d35c6e31f"},"vehicle_type_id":"4","last_reported":1697782165,"current_range_meters":14400,"station_id":"ce4bhs92rcd13ifvqi0g","pricing_plan_id":"free"},{"bike_id":"3cf38968-4707-4933-a8fe-e8aa2fb677e6","system_id":"levelo_inurba_marseille","lat":43.32833,"lon":5.36685,"is_reserved":false,"is_disabled":false,"rental_uris":{"android":"levelo://app?vid=3cf38968-4707-4933-a8fe-e8aa2fb677e6","ios":"levelo://app?vid=3cf38968-4707-4933-a8fe-e8aa2fb677e6"},"vehicle_type_id":"4","last_reported":1697782165,"current_range_meters":2000,"station_id":"ce4bhs92rcd13ifvqi0g","pricing_plan_id":"free"},{"bike_id":"ca25d37d-b0a2-4512-b213-bad457412de8","system_id":"levelo_inurba_marseille","lat":43.32833,"lon":5.366761,"is_reserved":false,"is_disabled":false,"rental_uris":{"android":"levelo://app?vid=ca25d37d-b0a2-4512-b213-bad457412de8","ios":"levelo://app?vid=ca25d37d-b0a2-4512-b213-bad457412de8"},"vehicle_type_id":"4","last_reported":1697782165,"current_range_meters":27600,"station_id":"ce4bhs92rcd13ifvqi0g","pricing_plan_id":"free"},{"bike_id":"cb39fc8c-ffbb-4154-81a1-fcf083464896","system_id":"levelo_inurba_marseille","lat":43.328335,"lon":5.366764,"is_reserved":false,"is_disabled":false,"rental_uris":{"android":"levelo://app?vid=cb39fc8c-ffbb-4154-81a1-fcf083464896","ios":"levelo://app?vid=cb39fc8c-ffbb-4154-81a1-fcf083464896"},"vehicle_type_id":"4","last_reported":1697782165,"current_range_meters":4000,"station_id":"ce4bhs92rcd13ifvqi0g","pricing_plan_id":"free"},{"bike_id":"1293be6d-465b-4c7b-8a6b-828f589c90a0","system_id":"levelo_inurba_marseille","lat":43.297163,"lon":5.365866,"is_reserved":false,"is_disabled":false,"rental_uris":{"android":"levelo://app?vid=1293be6d-465b-4c7b-8a6b-828f589c90a0","ios":"levelo://app?vid=1293be6d-465b-4c7b-8a6b-828f589c90a0"},"vehicle_type_id":"4","last_reported":1697782165,"current_range_meters":26400,"station_id":"ce4bgn12rcd13ifvqbt0","pricing_plan_id":"free"},{"bike_id":"25de8a52-7ca6-461a-80cb-23ba8eef7e00","system_id":"levelo_inurba_marseille","lat":43.315616,"lon":5.388548,"is_reserved":false,"is_disabled":false,"rental_uris":{"android":"levelo://app?vid=25de8a52-7ca6-461a-80cb-23ba8eef7e00","ios":"levelo://app?vid=25de8a52-7ca6-461a-80cb-23ba8eef7e00"},"vehicle_type_id":"4","last_reported":1697782165,"current_range_meters":0,"station_id":"","pricing_plan_id":"free"},{"bike_id":"3c9a82f9-264b-48b5-9a4e-8b057d4601b3","system_id":"levelo_inurba_marseille","lat":43.32884,"lon":5.36392,"is_reserved":false,"is_disabled":false,"rental_uris":{"android":"levelo://app?vid=3c9a82f9-264b-48b5-9a4e-8b057d4601b3","ios":"levelo://app?vid=3c9a82f9-264b-48b5-9a4e-8b057d4601b3"},"vehicle_type_id":"4","last_reported":1697782165,"current_range_meters":13200,"station_id":"","pricing_plan_id":"free"},{"bike_id":"a4b2a7aa-5a0b-442d-8941-0242d4912403","system_id":"levelo_inurba_marseille","lat":43.321297,"lon":5.386527,"is_reserved":false,"is_disabled":false,"rental_uris":{"android":"levelo://app?vid=a4b2a7aa-5a0b-442d-8941-0242d4912403","ios":"levelo://app?vid=a4b2a7aa-5a0b-442d-8941-0242d4912403"},"vehicle_type_id":"4","last_reported":1697782165,"current_range_meters":12000,"station_id":"","pricing_plan_id":"free"},{"bike_id":"eaeac246-39fd-4ed3-80c9-9355812335d7","system_id":"levelo_inurba_marseille","lat":43.296155,"lon":5.364865,"is_reserved":false,"is_disabled":false,"rental_uris":{"android":"levelo://app?vid=eaeac246-39fd-4ed3-80c9-9355812335d7","ios":"levelo://app?vid=eaeac246-39fd-4ed3-80c9-9355812335d7"},"vehicle_type_id":"4","last_reported":1697782165,"current_range_meters":0,"station_id":"","pricing_plan_id":"free"},{"bike_id":"7b4f06b6-3588-48aa-a0c9-e928374d7207","system_id":"levelo_inurba_marseille","lat":43.32453,"lon":5.383475,"is_reserved":false,"is_disabled":false,"rental_uris":{"android":"levelo://app?vid=7b4f06b6-3588-48aa-a0c9-e928374d7207","ios":"levelo://app?vid=7b4f06b6-3588-48aa-a0c9-e928374d7207"},"vehicle_type_id":"4","last_reported":1697782165,"current_range_meters":23600,"station_id":"","pricing_plan_id":"free"},{"bike_id":"8087a25d-89f4-4d23-8499-18d38b20e665","system_id":"levelo_inurba_marseille","lat":43.296131,"lon":5.370791,"is_reserved":false,"is_disabled":false,"rental_uris":{"android":"levelo://app?vid=8087a25d-89f4-4d23-8499-18d38b20e665","ios":"levelo://app?vid=8087a25d-89f4-4d23-8499-18d38b20e665"},"vehicle_type_id":"4","last_reported":1697782165,"current_range_meters":22400,"station_id":"ce4bgnh2rcd13ifvqc0g","pricing_plan_id":"free"},{"bike_id":"886b0c13-dc32-4a73-b70e-de91ef1a47ea","system_id":"levelo_inurba_marseille","lat":43.3246,"lon":5.3836,"is_reserved":false,"is_disabled":false,"rental_uris":{"android":"levelo://app?vid=886b0c13-dc32-4a73-b70e-de91ef1a47ea","ios":"levelo://app?vid=886b0c13-dc32-4a73-b70e-de91ef1a47ea"},"vehicle_type_id":"4","last_reported":1697782165,"current_range_meters":4800,"station_id":"ce4bhr12rcd13ifvqhqg","pricing_plan_id":"free"},{"bike_id":"ea6c8878-3eb5-40ea-ba6a-8ea721ab204d","system_id":"levelo_inurba_marseille","lat":43.309589,"lon":5.390258,"is_reserved":false,"is_disabled":false,"rental_uris":{"android":"levelo://app?vid=ea6c8878-3eb5-40ea-ba6a-8ea721ab204d","ios":"levelo://app?vid=ea6c8878-3eb5-40ea-ba6a-8ea721ab204d"},"vehicle_type_id":"4","last_reported":1697782165,"current_range_meters":25200,"station_id":"ce4bgup2rcd13ifvqco0","pricing_plan_id":"free"},{"bike_id":"e18a51c9-b439-4bd7-92c9-c2874d7f4879","system_id":"levelo_inurba_marseille","lat":43.33006,"lon":5.36447,"is_reserved":false,"is_disabled":false,"rental_uris":{"android":"levelo://app?vid=e18a51c9-b439-4bd7-92c9-c2874d7f4879","ios":"levelo://app?vid=e18a51c9-b439-4bd7-92c9-c2874d7f4879"},"vehicle_type_id":"4","last_reported":1697782165,"current_range_meters":6000,"station_id":"","pricing_plan_id":"free"},{"bike_id":"ccc2e2c8-7ff6-44fb-9700-f5c1c25d40cb","system_id":"levelo_inurba_marseille","lat":43.330084,"lon":5.364421,"is_reserved":false,"is_disabled":false,"rental_uris":{"android":"levelo://app?vid=ccc2e2c8-7ff6-44fb-9700-f5c1c25d40cb","ios":"levelo://app?vid=ccc2e2c8-7ff6-44fb-9700-f5c1c25d40cb"},"vehicle_type_id":"4","last_reported":1697782165,"current_range_meters":30800,"station_id":"","pricing_plan_id":"free"},{"bike_id":"65e2fbaf-c957-4038-9878-e842218be502","system_id":"levelo_inurba_marseille","lat":43.324257,"lon":5.385055,"is_reserved":false,"is_disabled":false,"rental_uris":{"android":"levelo://app?vid=65e2fbaf-c957-4038-9878-e842218be502","ios":"levelo://app?vid=65e2fbaf-c957-4038-9878-e842218be502"},"vehicle_type_id":"4","last_reported":1697782165,"current_range_meters":4400,"station_id":"","pricing_plan_id":"free"},{"bike_id":"f0102566-77d4-4037-9c67-1f1697e2c97f","system_id":"levelo_inurba_marseille","lat":43.317542,"lon":5.390192,"is_reserved":false,"is_disabled":false,"rental_uris":{"android":"levelo://app?vid=f0102566-77d4-4037-9c67-1f1697e2c97f","ios":"levelo://app?vid=f0102566-77d4-4037-9c67-1f1697e2c97f"},"vehicle_type_id":"4","last_reported":1697782165,"current_range_meters":28400,"station_id":"ce4bhqp2rcd13ifvqhng","pricing_plan_id":"free"},{"bike_id":"4313cd62-8d83-40c9-8a11-75190a8463ac","system_id":"levelo_inurba_marseille","lat":43.317578,"lon":5.39021,"is_reserved":false,"is_disabled":false,"rental_uris":{"android":"levelo://app?vid=4313cd62-8d83-40c9-8a11-75190a8463ac","ios":"levelo://app?vid=4313cd62-8d83-40c9-8a11-75190a8463ac"},"vehicle_type_id":"4","last_reported":1697782165,"current_range_meters":6400,"station_id":"ce4bhqp2rcd13ifvqhng","pricing_plan_id":"free"},{"bike_id":"ec0e5616-ec7f-4d55-a813-d3aabf54712a","system_id":"levelo_inurba_marseille","lat":43.298037,"lon":5.381066,"is_reserved":false,"is_disabled":false,"rental_uris":{"android":"levelo://app?vid=ec0e5616-ec7f-4d55-a813-d3aabf54712a","ios":"levelo://app?vid=ec0e5616-ec7f-4d55-a813-d3aabf54712a"},"vehicle_type_id":"4","last_reported":1697782165,"current_range_meters":19200,"station_id":"ce4bgip2rcd13ifvqbb0","pricing_plan_id":"free"},{"bike_id":"0fc4050f-90f5-4685-aeba-07dc2ec582af","system_id":"levelo_inurba_marseille","lat":43.298077,"lon":5.381004,"is_reserved":false,"is_disabled":false,"rental_uris":{"android":"levelo://app?vid=0fc4050f-90f5-4685-aeba-07dc2ec582af","ios":"levelo://app?vid=0fc4050f-90f5-4685-aeba-07dc2ec582af"},"vehicle_type_id":"4","last_reported":1697782165,"current_range_meters":24400,"station_id":"","pricing_plan_id":"free"},{"bike_id":"520b2739-d96a-4d90-bd62-ef1e0505d427","system_id":"levelo_inurba_marseille","lat":43.298037,"lon":5.381066,"is_reserved":false,"is_disabled":false,"rental_uris":{"android":"levelo://app?vid=520b2739-d96a-4d90-bd62-ef1e0505d427","ios":"levelo://app?vid=520b2739-d96a-4d90-bd62-ef1e0505d427"},"vehicle_type_id":"4","last_reported":1697782165,"current_range_meters":27600,"station_id":"ce4bgip2rcd13ifvqbb0","pricing_plan_id":"free"},{"bike_id":"e4e37541-9c8f-4ca5-81cc-cb9922f5a06f","system_id":"levelo_inurba_marseille","lat":43.298037,"lon":5.381066,"is_reserved":false,"is_disabled":false,"rental_uris":{"android":"levelo://app?vid=e4e37541-9c8f-4ca5-81cc-cb9922f5a06f","ios":"levelo://app?vid=e4e37541-9c8f-4ca5-81cc-cb9922f5a06f"},"vehicle_type_id":"4","last_reported":1697782165,"current_range_meters":27200,"station_id":"ce4bgip2rcd13ifvqbb0","pricing_plan_id":"free"},{"bike_id":"a35aaf5d-5ffe-483a-a512-ee751011759f","system_id":"levelo_inurba_marseille","lat":43.304274,"lon":5.388873,"is_reserved":false,"is_disabled":false,"rental_uris":{"android":"levelo://app?vid=a35aaf5d-5ffe-483a-a512-ee751011759f","ios":"levelo://app?vid=a35aaf5d-5ffe-483a-a512-ee751011759f"},"vehicle_type_id":"4","last_reported":1697782165,"current_range_meters":21600,"station_id":"ce4bgk12rcd13ifvqbi0","pricing_plan_id":"free"},{"bike_id":"a34bb3c5-4be7-4205-82e3-3e382ba127c7","system_id":"levelo_inurba_marseille","lat":43.30431,"lon":5.38886,"is_reserved":false,"is_disabled":false,"rental_uris":{"android":"levelo://app?vid=a34bb3c5-4be7-4205-82e3-3e382ba127c7","ios":"levelo://app?vid=a34bb3c5-4be7-4205-82e3-3e382ba127c7"},"vehicle_type_id":"4","last_reported":1697782165,"current_range_meters":23200,"station_id":"ce4bgk12rcd13ifvqbi0","pricing_plan_id":"free"},{"bike_id":"88aae920-c972-446b-a7fc-7e2aa869fdf2","system_id":"levelo_inurba_marseille","lat":43.304383,"lon":5.38892,"is_reserved":false,"is_disabled":false,"rental_uris":{"android":"levelo://app?vid=88aae920-c972-446b-a7fc-7e2aa869fdf2","ios":"levelo://app?vid=88aae920-c972-446b-a7fc-7e2aa869fdf2"},"vehicle_type_id":"4","last_reported":1697782165,"current_range_meters":31200,"station_id":"ce4bgk12rcd13ifvqbi0","pricing_plan_id":"free"},{"bike_id":"fd6a9bdb-06be-41e9-a0ab-9ee9d9d1637b","system_id":"levelo_inurba_marseille","lat":43.30431,"lon":5.38889,"is_reserved":false,"is_disabled":false,"rental_uris":{"android":"levelo://app?vid=fd6a9bdb-06be-41e9-a0ab-9ee9d9d1637b","ios":"levelo://app?vid=fd6a9bdb-06be-41e9-a0ab-9ee9d9d1637b"},"vehicle_type_id":"4","last_reported":1697782165,"current_range_meters":16800,"station_id":"ce4bgk12rcd13ifvqbi0","pricing_plan_id":"free"},{"bike_id":"08eeebca-016c-4268-9c8f-aa37de82dc89","system_id":"levelo_inurba_marseille","lat":43.29778,"lon":5.38116,"is_reserved":false,"is_disabled":false,"rental_uris":{"android":"levelo://app?vid=08eeebca-016c-4268-9c8f-aa37de82dc89","ios":"levelo://app?vid=08eeebca-016c-4268-9c8f-aa37de82dc89"},"vehicle_type_id":"4","last_reported":1697782165,"current_range_meters":28400,"station_id":"ce4bgip2rcd13ifvqbb0","pricing_plan_id":"free"},{"bike_id":"c7d0ee34-2d7f-4463-825a-2f340e02344c","system_id":"levelo_inurba_marseille","lat":43.299717,"lon":5.384845,"is_reserved":false,"is_disabled":false,"rental_uris":{"android":"levelo://app?vid=c7d0ee34-2d7f-4463-825a-2f340e02344c","ios":"levelo://app?vid=c7d0ee34-2d7f-4463-825a-2f340e02344c"},"vehicle_type_id":"4","last_reported":1697782165,"current_range_meters":20000,"station_id":"ce4bgj92rcd13ifvqbd0","pricing_plan_id":"free"},{"bike_id":"9cc18efd-72ff-4bd9-a6ed-329167a8b86a","system_id":"levelo_inurba_marseille","lat":43.29707,"lon":5.38134,"is_reserved":false,"is_disabled":false,"rental_uris":{"android":"levelo://app?vid=9cc18efd-72ff-4bd9-a6ed-329167a8b86a","ios":"levelo://app?vid=9cc18efd-72ff-4bd9-a6ed-329167a8b86a"},"vehicle_type_id":"4","last_reported":1697782165,"current_range_meters":400,"station_id":"","pricing_plan_id":"free"},{"bike_id":"69e22f2c-0574-40e7-8000-d90ef746287e","system_id":"levelo_inurba_marseille","lat":43.29698,"lon":5.3812,"is_reserved":false,"is_disabled":false,"rental_uris":{"android":"levelo://app?vid=69e22f2c-0574-40e7-8000-d90ef746287e","ios":"levelo://app?vid=69e22f2c-0574-40e7-8000-d90ef746287e"},"vehicle_type_id":"4","last_reported":1697782165,"current_range_meters":26400,"station_id":"","pricing_plan_id":"free"},{"bike_id":"97d28821-aaae-41ff-80f0-17d23fdb723f","system_id":"levelo_inurba_marseille","lat":43.323688,"lon":5.388973,"is_reserved":false,"is_disabled":false,"rental_uris":{"android":"levelo://app?vid=97d28821-aaae-41ff-80f0-17d23fdb723f","ios":"levelo://app?vid=97d28821-aaae-41ff-80f0-17d23fdb723f"},"vehicle_type_id":"4","last_reported":1697782165,"current_range_meters":12000,"station_id":"ce4bhqp2rcd13ifvqhog","pricing_plan_id":"free"},{"bike_id":"ee89eaf9-13a8-4cdd-8396-4eee92b9b2db","system_id":"levelo_inurba_marseille","lat":43.29601,"lon":5.381084,"is_reserved":false,"is_disabled":false,"rental_uris":{"android":"levelo://app?vid=ee89eaf9-13a8-4cdd-8396-4eee92b9b2db","ios":"levelo://app?vid=ee89eaf9-13a8-4cdd-8396-4eee92b9b2db"},"vehicle_type_id":"4","last_reported":1697782165,"current_range_meters":30400,"station_id":"ce4bgl12rcd13ifvqbo0","pricing_plan_id":"free"},{"bike_id":"1ddbfc4a-2530-44e6-bd97-c663c0a13a4c","system_id":"levelo_inurba_marseille","lat":43.324455,"lon":5.388365,"is_reserved":false,"is_disabled":false,"rental_uris":{"android":"levelo://app?vid=1ddbfc4a-2530-44e6-bd97-c663c0a13a4c","ios":"levelo://app?vid=1ddbfc4a-2530-44e6-bd97-c663c0a13a4c"},"vehicle_type_id":"4","last_reported":1697782165,"current_range_meters":0,"station_id":"","pricing_plan_id":"free"},{"bike_id":"6d9b9fc5-74cc-47c1-b212-5f673bc20e5f","system_id":"levelo_inurba_marseille","lat":43.29601,"lon":5.381084,"is_reserved":false,"is_disabled":false,"rental_uris":{"android":"levelo://app?vid=6d9b9fc5-74cc-47c1-b212-5f673bc20e5f","ios":"levelo://app?vid=6d9b9fc5-74cc-47c1-b212-5f673bc20e5f"},"vehicle_type_id":"4","last_reported":1697782165,"current_range_meters":28000,"station_id":"ce4bgl12rcd13ifvqbo0","pricing_plan_id":"free"},{"bike_id":"146ec338-5bdd-43f6-b790-68898b2dbe67","system_id":"levelo_inurba_marseille","lat":43.324065,"lon":5.388853,"is_reserved":false,"is_disabled":false,"rental_uris":{"android":"levelo://app?vid=146ec338-5bdd-43f6-b790-68898b2dbe67","ios":"levelo://app?vid=146ec338-5bdd-43f6-b790-68898b2dbe67"},"vehicle_type_id":"4","last_reported":1697782165,"current_range_meters":16800,"station_id":"ce4bhqp2rcd13ifvqhog","pricing_plan_id":"free"},{"bike_id":"75998ae9-242b-4564-a8af-8f3c0e240f70","system_id":"levelo_inurba_marseille","lat":43.29605,"lon":5.381,"is_reserved":false,"is_disabled":false,"rental_uris":{"android":"levelo://app?vid=75998ae9-242b-4564-a8af-8f3c0e240f70","ios":"levelo://app?vid=75998ae9-242b-4564-a8af-8f3c0e240f70"},"vehicle_type_id":"4","last_reported":1697782165,"current_range_meters":1600,"station_id":"ce4bgl12rcd13ifvqbo0","pricing_plan_id":"free"},{"bike_id":"06cf4cc4-4c6d-473a-bacb-a4f8182ce6d6","system_id":"levelo_inurba_marseille","lat":43.29602,"lon":5.381084,"is_reserved":false,"is_disabled":false,"rental_uris":{"android":"levelo://app?vid=06cf4cc4-4c6d-473a-bacb-a4f8182ce6d6","ios":"levelo://app?vid=06cf4cc4-4c6d-473a-bacb-a4f8182ce6d6"},"vehicle_type_id":"4","last_reported":1697782165,"current_range_meters":28800,"station_id":"ce4bgl12rcd13ifvqbo0","pricing_plan_id":"free"},{"bike_id":"c0608c4e-d3af-4510-b072-9221182aeb60","system_id":"levelo_inurba_marseille","lat":43.29598,"lon":5.38104,"is_reserved":false,"is_disabled":false,"rental_uris":{"android":"levelo://app?vid=c0608c4e-d3af-4510-b072-9221182aeb60","ios":"levelo://app?vid=c0608c4e-d3af-4510-b072-9221182aeb60"},"vehicle_type_id":"4","last_reported":1697782165,"current_range_meters":18800,"station_id":"","pricing_plan_id":"free"},{"bike_id":"f22c7a4f-a7df-491a-a3a2-436e1ab3ee37","system_id":"levelo_inurba_marseille","lat":43.309589,"lon":5.390258,"is_reserved":false,"is_disabled":false,"rental_uris":{"android":"levelo://app?vid=f22c7a4f-a7df-491a-a3a2-436e1ab3ee37","ios":"levelo://app?vid=f22c7a4f-a7df-491a-a3a2-436e1ab3ee37"},"vehicle_type_id":"4","last_reported":1697782165,"current_range_meters":20000,"station_id":"ce4bgup2rcd13ifvqco0","pricing_plan_id":"free"},{"bike_id":"1ff975b4-37be-410d-a1cf-3260b5968839","system_id":"levelo_inurba_marseille","lat":43.323744,"lon":5.389816,"is_reserved":false,"is_disabled":false,"rental_uris":{"android":"levelo://app?vid=1ff975b4-37be-410d-a1cf-3260b5968839","ios":"levelo://app?vid=1ff975b4-37be-410d-a1cf-3260b5968839"},"vehicle_type_id":"4","last_reported":1697782165,"current_range_meters":24400,"station_id":"ce4bhqp2rcd13ifvqhog","pricing_plan_id":"free"},{"bike_id":"483fea0b-70fe-40c5-8b90-d13d93fb24f9","system_id":"levelo_inurba_marseille","lat":43.29278,"lon":5.36847,"is_reserved":false,"is_disabled":false,"rental_uris":{"android":"levelo://app?vid=483fea0b-70fe-40c5-8b90-d13d93fb24f9","ios":"levelo://app?vid=483fea0b-70fe-40c5-8b90-d13d93fb24f9"},"vehicle_type_id":"4","last_reported":1697782165,"current_range_meters":26000,"station_id":"ce4bhbp2rcd13ifvqesg","pricing_plan_id":"free"},{"bike_id":"8f724b06-7b59-4616-9fe2-78e898abfd9b","system_id":"levelo_inurba_marseille","lat":43.305994,"lon":5.393687,"is_reserved":false,"is_disabled":false,"rental_uris":{"android":"levelo://app?vid=8f724b06-7b59-4616-9fe2-78e898abfd9b","ios":"levelo://app?vid=8f724b06-7b59-4616-9fe2-78e898abfd9b"},"vehicle_type_id":"4","last_reported":1697782165,"current_range_meters":26800,"station_id":"ce4bh0p2rcd13ifvqd80","pricing_plan_id":"free"},{"bike_id":"917189b6-980d-45b1-89f4-a319935152ac","system_id":"levelo_inurba_marseille","lat":43.293009,"lon":5.374584,"is_reserved":false,"is_disabled":false,"rental_uris":{"android":"levelo://app?vid=917189b6-980d-45b1-89f4-a319935152ac","ios":"levelo://app?vid=917189b6-980d-45b1-89f4-a319935152ac"},"vehicle_type_id":"4","last_reported":1697782165,"current_range_meters":27200,"station_id":"ce4bgi12rcd13ifvqb70","pricing_plan_id":"free"},{"bike_id":"2b66da83-2f0c-497d-9229-56d7bfdb2150","system_id":"levelo_inurba_marseille","lat":43.305994,"lon":5.393687,"is_reserved":false,"is_disabled":false,"rental_uris":{"android":"levelo://app?vid=2b66da83-2f0c-497d-9229-56d7bfdb2150","ios":"levelo://app?vid=2b66da83-2f0c-497d-9229-56d7bfdb2150"},"vehicle_type_id":"4","last_reported":1697782165,"current_range_meters":26800,"station_id":"ce4bh0p2rcd13ifvqd80","pricing_plan_id":"free"},{"bike_id":"02553bad-cef6-41e5-8e22-b7195ed08db6","system_id":"levelo_inurba_marseille","lat":43.3061,"lon":5.39355,"is_reserved":false,"is_disabled":false,"rental_uris":{"android":"levelo://app?vid=02553bad-cef6-41e5-8e22-b7195ed08db6","ios":"levelo://app?vid=02553bad-cef6-41e5-8e22-b7195ed08db6"},"vehicle_type_id":"4","last_reported":1697782165,"current_range_meters":28800,"station_id":"ce4bh0p2rcd13ifvqd80","pricing_plan_id":"free"},{"bike_id":"71521c81-bf7e-47ce-8965-937444546388","system_id":"levelo_inurba_marseille","lat":43.305994,"lon":5.393687,"is_reserved":false,"is_disabled":false,"rental_uris":{"android":"levelo://app?vid=71521c81-bf7e-47ce-8965-937444546388","ios":"levelo://app?vid=71521c81-bf7e-47ce-8965-937444546388"},"vehicle_type_id":"4","last_reported":1697782165,"current_range_meters":21600,"station_id":"ce4bh0p2rcd13ifvqd80","pricing_plan_id":"free"},{"bike_id":"ecaeff42-e2a6-4ff4-9ad2-4a969d2285e9","system_id":"levelo_inurba_marseille","lat":43.305994,"lon":5.393687,"is_reserved":false,"is_disabled":false,"rental_uris":{"android":"levelo://app?vid=ecaeff42-e2a6-4ff4-9ad2-4a969d2285e9","ios":"levelo://app?vid=ecaeff42-e2a6-4ff4-9ad2-4a969d2285e9"},"vehicle_type_id":"4","last_reported":1697782165,"current_range_meters":29200,"station_id":"ce4bh0p2rcd13ifvqd80","pricing_plan_id":"free"},{"bike_id":"ee4615b9-960b-46d8-a6b2-52b57abed624","system_id":"levelo_inurba_marseille","lat":43.3058,"lon":5.39347,"is_reserved":false,"is_disabled":false,"rental_uris":{"android":"levelo://app?vid=ee4615b9-960b-46d8-a6b2-52b57abed624","ios":"levelo://app?vid=ee4615b9-960b-46d8-a6b2-52b57abed624"},"vehicle_type_id":"4","last_reported":1697782165,"current_range_meters":14000,"station_id":"ce4bh0p2rcd13ifvqd80","pricing_plan_id":"free"},{"bike_id":"dcfe83ac-7010-44e6-9479-53383cd04d36","system_id":"levelo_inurba_marseille","lat":43.305994,"lon":5.393687,"is_reserved":false,"is_disabled":false,"rental_uris":{"android":"levelo://app?vid=dcfe83ac-7010-44e6-9479-53383cd04d36","ios":"levelo://app?vid=dcfe83ac-7010-44e6-9479-53383cd04d36"},"vehicle_type_id":"4","last_reported":1697782165,"current_range_meters":31200,"station_id":"ce4bh0p2rcd13ifvqd80","pricing_plan_id":"free"},{"bike_id":"3cc762c9-d5dd-4c3e-9bb2-88e9c204b725","system_id":"levelo_inurba_marseille","lat":43.305994,"lon":5.393687,"is_reserved":false,"is_disabled":false,"rental_uris":{"android":"levelo://app?vid=3cc762c9-d5dd-4c3e-9bb2-88e9c204b725","ios":"levelo://app?vid=3cc762c9-d5dd-4c3e-9bb2-88e9c204b725"},"vehicle_type_id":"4","last_reported":1697782165,"current_range_meters":26800,"station_id":"ce4bh0p2rcd13ifvqd80","pricing_plan_id":"free"},{"bike_id":"7b8fde3d-460f-4c58-902b-2262e51d0114","system_id":"levelo_inurba_marseille","lat":43.305994,"lon":5.393687,"is_reserved":false,"is_disabled":false,"rental_uris":{"android":"levelo://app?vid=7b8fde3d-460f-4c58-902b-2262e51d0114","ios":"levelo://app?vid=7b8fde3d-460f-4c58-902b-2262e51d0114"},"vehicle_type_id":"4","last_reported":1697782165,"current_range_meters":31600,"station_id":"ce4bh0p2rcd13ifvqd80","pricing_plan_id":"free"},{"bike_id":"ff0c88bd-1730-40b3-9298-7cd93109f1d5","system_id":"levelo_inurba_marseille","lat":43.30592,"lon":5.39357,"is_reserved":false,"is_disabled":false,"rental_uris":{"android":"levelo://app?vid=ff0c88bd-1730-40b3-9298-7cd93109f1d5","ios":"levelo://app?vid=ff0c88bd-1730-40b3-9298-7cd93109f1d5"},"vehicle_type_id":"4","last_reported":1697782165,"current_range_meters":29200,"station_id":"ce4bh0p2rcd13ifvqd80","pricing_plan_id":"free"},{"bike_id":"56f66859-0081-45a7-b4d7-e2fb82a52332","system_id":"levelo_inurba_marseille","lat":43.30593,"lon":5.39359,"is_reserved":false,"is_disabled":false,"rental_uris":{"android":"levelo://app?vid=56f66859-0081-45a7-b4d7-e2fb82a52332","ios":"levelo://app?vid=56f66859-0081-45a7-b4d7-e2fb82a52332"},"vehicle_type_id":"4","last_reported":1697782165,"current_range_meters":21200,"station_id":"","pricing_plan_id":"free"},{"bike_id":"46d5950d-e11b-4b86-ac69-f534bda47dbf","system_id":"levelo_inurba_marseille","lat":43.30592,"lon":5.3936,"is_reserved":false,"is_disabled":false,"rental_uris":{"android":"levelo://app?vid=46d5950d-e11b-4b86-ac69-f534bda47dbf","ios":"levelo://app?vid=46d5950d-e11b-4b86-ac69-f534bda47dbf"},"vehicle_type_id":"4","last_reported":1697782165,"current_range_meters":18000,"station_id":"ce4bh0p2rcd13ifvqd80","pricing_plan_id":"free"},{"bike_id":"e1a72539-157b-4aa0-bebe-97c48f91f163","system_id":"levelo_inurba_marseille","lat":43.305994,"lon":5.393687,"is_reserved":false,"is_disabled":false,"rental_uris":{"android":"levelo://app?vid=e1a72539-157b-4aa0-bebe-97c48f91f163","ios":"levelo://app?vid=e1a72539-157b-4aa0-bebe-97c48f91f163"},"vehicle_type_id":"4","last_reported":1697782165,"current_range_meters":28400,"station_id":"ce4bh0p2rcd13ifvqd80","pricing_plan_id":"free"},{"bike_id":"c0643fd4-f951-4912-817f-d281c7e2aea7","system_id":"levelo_inurba_marseille","lat":43.30606,"lon":5.39367,"is_reserved":false,"is_disabled":false,"rental_uris":{"android":"levelo://app?vid=c0643fd4-f951-4912-817f-d281c7e2aea7","ios":"levelo://app?vid=c0643fd4-f951-4912-817f-d281c7e2aea7"},"vehicle_type_id":"4","last_reported":1697782165,"current_range_meters":22000,"station_id":"ce4bh0p2rcd13ifvqd80","pricing_plan_id":"free"},{"bike_id":"e8f8780a-e3cb-4b15-910b-bdbc51a5cfa2","system_id":"levelo_inurba_marseille","lat":43.30601,"lon":5.39365,"is_reserved":false,"is_disabled":false,"rental_uris":{"android":"levelo://app?vid=e8f8780a-e3cb-4b15-910b-bdbc51a5cfa2","ios":"levelo://app?vid=e8f8780a-e3cb-4b15-910b-bdbc51a5cfa2"},"vehicle_type_id":"4","last_reported":1697782165,"current_range_meters":29600,"station_id":"ce4bh0p2rcd13ifvqd80","pricing_plan_id":"free"},{"bike_id":"366e6fd8-ae52-4d05-ae54-6efcd0c03b86","system_id":"levelo_inurba_marseille","lat":43.305994,"lon":5.393687,"is_reserved":false,"is_disabled":false,"rental_uris":{"android":"levelo://app?vid=366e6fd8-ae52-4d05-ae54-6efcd0c03b86","ios":"levelo://app?vid=366e6fd8-ae52-4d05-ae54-6efcd0c03b86"},"vehicle_type_id":"4","last_reported":1697782165,"current_range_meters":26400,"station_id":"ce4bh0p2rcd13ifvqd80","pricing_plan_id":"free"},{"bike_id":"cdc428fa-d73a-40e2-82a5-7cd6ff0f82bd","system_id":"levelo_inurba_marseille","lat":43.30599,"lon":5.39369,"is_reserved":false,"is_disabled":false,"rental_uris":{"android":"levelo://app?vid=cdc428fa-d73a-40e2-82a5-7cd6ff0f82bd","ios":"levelo://app?vid=cdc428fa-d73a-40e2-82a5-7cd6ff0f82bd"},"vehicle_type_id":"4","last_reported":1697782165,"current_range_meters":31200,"station_id":"","pricing_plan_id":"free"},{"bike_id":"8ec3ac04-9eb7-4e3c-a49e-65ceee2f9da3","system_id":"levelo_inurba_marseille","lat":43.305994,"lon":5.393687,"is_reserved":false,"is_disabled":false,"rental_uris":{"android":"levelo://app?vid=8ec3ac04-9eb7-4e3c-a49e-65ceee2f9da3","ios":"levelo://app?vid=8ec3ac04-9eb7-4e3c-a49e-65ceee2f9da3"},"vehicle_type_id":"4","last_reported":1697782165,"current_range_meters":16800,"station_id":"ce4bh0p2rcd13ifvqd80","pricing_plan_id":"free"},{"bike_id":"0ab0fbee-77e4-4d5a-b521-97847fa0c524","system_id":"levelo_inurba_marseille","lat":43.292311,"lon":5.360731,"is_reserved":false,"is_disabled":false,"rental_uris":{"android":"levelo://app?vid=0ab0fbee-77e4-4d5a-b521-97847fa0c524","ios":"levelo://app?vid=0ab0fbee-77e4-4d5a-b521-97847fa0c524"},"vehicle_type_id":"4","last_reported":1697782165,"current_range_meters":3600,"station_id":"ce4bhbh2rcd13ifvqeqg","pricing_plan_id":"free"},{"bike_id":"f85111a3-615c-4020-bde9-150ae1c0f244","system_id":"levelo_inurba_marseille","lat":43.2936,"lon":5.37835,"is_reserved":false,"is_disabled":false,"rental_uris":{"android":"levelo://app?vid=f85111a3-615c-4020-bde9-150ae1c0f244","ios":"levelo://app?vid=f85111a3-615c-4020-bde9-150ae1c0f244"},"vehicle_type_id":"4","last_reported":1697782165,"current_range_meters":28800,"station_id":"ce4bgjh2rcd13ifvqbf0","pricing_plan_id":"free"},{"bike_id":"95f022d4-83a7-4736-a458-8127fbd691e7","system_id":"levelo_inurba_marseille","lat":43.292311,"lon":5.360731,"is_reserved":false,"is_disabled":false,"rental_uris":{"android":"levelo://app?vid=95f022d4-83a7-4736-a458-8127fbd691e7","ios":"levelo://app?vid=95f022d4-83a7-4736-a458-8127fbd691e7"},"vehicle_type_id":"4","last_reported":1697782165,"current_range_meters":28800,"station_id":"ce4bhbh2rcd13ifvqeqg","pricing_plan_id":"free"},{"bike_id":"c102d554-2ae6-4c00-8430-d801070fd900","system_id":"levelo_inurba_marseille","lat":43.292311,"lon":5.360731,"is_reserved":false,"is_disabled":false,"rental_uris":{"android":"levelo://app?vid=c102d554-2ae6-4c00-8430-d801070fd900","ios":"levelo://app?vid=c102d554-2ae6-4c00-8430-d801070fd900"},"vehicle_type_id":"4","last_reported":1697782165,"current_range_meters":22400,"station_id":"ce4bhbh2rcd13ifvqeqg","pricing_plan_id":"free"},{"bike_id":"8f7c23e9-c266-4d15-b99f-20866bd8c509","system_id":"levelo_inurba_marseille","lat":43.30657,"lon":5.39447,"is_reserved":false,"is_disabled":false,"rental_uris":{"android":"levelo://app?vid=8f7c23e9-c266-4d15-b99f-20866bd8c509","ios":"levelo://app?vid=8f7c23e9-c266-4d15-b99f-20866bd8c509"},"vehicle_type_id":"4","last_reported":1697782165,"current_range_meters":26400,"station_id":"ce4bh0p2rcd13ifvqd80","pricing_plan_id":"free"},{"bike_id":"82aa3f41-fda1-4fec-93cc-a9931b824b9a","system_id":"levelo_inurba_marseille","lat":43.29218,"lon":5.360483,"is_reserved":false,"is_disabled":false,"rental_uris":{"android":"levelo://app?vid=82aa3f41-fda1-4fec-93cc-a9931b824b9a","ios":"levelo://app?vid=82aa3f41-fda1-4fec-93cc-a9931b824b9a"},"vehicle_type_id":"4","last_reported":1697782165,"current_range_meters":28400,"station_id":"ce4bhbh2rcd13ifvqeqg","pricing_plan_id":"free"},{"bike_id":"2b4736e2-4379-44a9-a096-abbd01a56b71","system_id":"levelo_inurba_marseille","lat":43.298764,"lon":5.388973,"is_reserved":false,"is_disabled":false,"rental_uris":{"android":"levelo://app?vid=2b4736e2-4379-44a9-a096-abbd01a56b71","ios":"levelo://app?vid=2b4736e2-4379-44a9-a096-abbd01a56b71"},"vehicle_type_id":"4","last_reported":1697782165,"current_range_meters":25200,"station_id":"ce4bh392rcd13ifvqdl0","pricing_plan_id":"free"},{"bike_id":"5ea9c8a6-78e4-42e0-9049-69cac93c4b4e","system_id":"levelo_inurba_marseille","lat":43.298764,"lon":5.388973,"is_reserved":false,"is_disabled":false,"rental_uris":{"android":"levelo://app?vid=5ea9c8a6-78e4-42e0-9049-69cac93c4b4e","ios":"levelo://app?vid=5ea9c8a6-78e4-42e0-9049-69cac93c4b4e"},"vehicle_type_id":"4","last_reported":1697782165,"current_range_meters":30000,"station_id":"ce4bh392rcd13ifvqdl0","pricing_plan_id":"free"},{"bike_id":"b16d103f-feb7-41d1-a188-5ccd7567870f","system_id":"levelo_inurba_marseille","lat":43.309038,"lon":5.396546,"is_reserved":false,"is_disabled":false,"rental_uris":{"android":"levelo://app?vid=b16d103f-feb7-41d1-a188-5ccd7567870f","ios":"levelo://app?vid=b16d103f-feb7-41d1-a188-5ccd7567870f"},"vehicle_type_id":"4","last_reported":1697782165,"current_range_meters":31200,"station_id":"ce4bh012rcd13ifvqcv0","pricing_plan_id":"free"},{"bike_id":"46707535-ab46-4918-88b1-ac79cf0cf628","system_id":"levelo_inurba_marseille","lat":43.31333,"lon":5.39689,"is_reserved":false,"is_disabled":false,"rental_uris":{"android":"levelo://app?vid=46707535-ab46-4918-88b1-ac79cf0cf628","ios":"levelo://app?vid=46707535-ab46-4918-88b1-ac79cf0cf628"},"vehicle_type_id":"4","last_reported":1697782165,"current_range_meters":0,"station_id":"ce4bgvp2rcd13ifvqcu0","pricing_plan_id":"free"},{"bike_id":"cd304e85-9067-4db6-ad47-7edbe48a79dc","system_id":"levelo_inurba_marseille","lat":43.313291,"lon":5.396838,"is_reserved":false,"is_disabled":false,"rental_uris":{"android":"levelo://app?vid=cd304e85-9067-4db6-ad47-7edbe48a79dc","ios":"levelo://app?vid=cd304e85-9067-4db6-ad47-7edbe48a79dc"},"vehicle_type_id":"4","last_reported":1697782165,"current_range_meters":29200,"station_id":"ce4bgvp2rcd13ifvqcu0","pricing_plan_id":"free"},{"bike_id":"f558aaf7-b89b-435b-8114-6806a245859d","system_id":"levelo_inurba_marseille","lat":43.32551,"lon":5.39141,"is_reserved":false,"is_disabled":false,"rental_uris":{"android":"levelo://app?vid=f558aaf7-b89b-435b-8114-6806a245859d","ios":"levelo://app?vid=f558aaf7-b89b-435b-8114-6806a245859d"},"vehicle_type_id":"4","last_reported":1697782165,"current_range_meters":2000,"station_id":"","pricing_plan_id":"free"},{"bike_id":"9f24339d-d083-4c0b-a9dc-1211ce6461d6","system_id":"levelo_inurba_marseille","lat":43.33264,"lon":5.37981,"is_reserved":false,"is_disabled":false,"rental_uris":{"android":"levelo://app?vid=9f24339d-d083-4c0b-a9dc-1211ce6461d6","ios":"levelo://app?vid=9f24339d-d083-4c0b-a9dc-1211ce6461d6"},"vehicle_type_id":"4","last_reported":1697782165,"current_range_meters":12000,"station_id":"","pricing_plan_id":"free"},{"bike_id":"1fc4f0db-d8b1-4352-aeac-7b2836e2782f","system_id":"levelo_inurba_marseille","lat":43.30212,"lon":5.39465,"is_reserved":false,"is_disabled":false,"rental_uris":{"android":"levelo://app?vid=1fc4f0db-d8b1-4352-aeac-7b2836e2782f","ios":"levelo://app?vid=1fc4f0db-d8b1-4352-aeac-7b2836e2782f"},"vehicle_type_id":"4","last_reported":1697782165,"current_range_meters":6800,"station_id":"ce4bh0p2rcd13ifvqd70","pricing_plan_id":"free"},{"bike_id":"bcfa0b8c-8dcf-4f2f-8011-c856da383717","system_id":"levelo_inurba_marseille","lat":43.290624,"lon":5.359245,"is_reserved":false,"is_disabled":false,"rental_uris":{"android":"levelo://app?vid=bcfa0b8c-8dcf-4f2f-8011-c856da383717","ios":"levelo://app?vid=bcfa0b8c-8dcf-4f2f-8011-c856da383717"},"vehicle_type_id":"4","last_reported":1697782165,"current_range_meters":31200,"station_id":"ce4bha92rcd13ifvqeg0","pricing_plan_id":"free"},{"bike_id":"6e0edb10-ded6-4eb6-8c43-2a426dbc7c28","system_id":"levelo_inurba_marseille","lat":43.333845,"lon":5.379145,"is_reserved":false,"is_disabled":false,"rental_uris":{"android":"levelo://app?vid=6e0edb10-ded6-4eb6-8c43-2a426dbc7c28","ios":"levelo://app?vid=6e0edb10-ded6-4eb6-8c43-2a426dbc7c28"},"vehicle_type_id":"4","last_reported":1697782165,"current_range_meters":5600,"station_id":"ce4bhr12rcd13ifvqhqg","pricing_plan_id":"free"},{"bike_id":"fbe9e9cd-caff-47d1-8df0-f8597aa580e3","system_id":"levelo_inurba_marseille","lat":43.32937,"lon":5.38918,"is_reserved":false,"is_disabled":false,"rental_uris":{"android":"levelo://app?vid=fbe9e9cd-caff-47d1-8df0-f8597aa580e3","ios":"levelo://app?vid=fbe9e9cd-caff-47d1-8df0-f8597aa580e3"},"vehicle_type_id":"4","last_reported":1697782165,"current_range_meters":3200,"station_id":"","pricing_plan_id":"free"},{"bike_id":"b16295d2-059d-4d0d-897f-a03a2c3c5564","system_id":"levelo_inurba_marseille","lat":43.290327,"lon":5.375711,"is_reserved":false,"is_disabled":false,"rental_uris":{"android":"levelo://app?vid=b16295d2-059d-4d0d-897f-a03a2c3c5564","ios":"levelo://app?vid=b16295d2-059d-4d0d-897f-a03a2c3c5564"},"vehicle_type_id":"4","last_reported":1697782165,"current_range_meters":24400,"station_id":"ce4bh692rcd13ifvqe90","pricing_plan_id":"free"},{"bike_id":"f3423140-3def-4bba-b744-ce7edc8f669c","system_id":"levelo_inurba_marseille","lat":43.289184,"lon":5.366408,"is_reserved":false,"is_disabled":false,"rental_uris":{"android":"levelo://app?vid=f3423140-3def-4bba-b744-ce7edc8f669c","ios":"levelo://app?vid=f3423140-3def-4bba-b744-ce7edc8f669c"},"vehicle_type_id":"4","last_reported":1697782165,"current_range_meters":28800,"station_id":"ce4bhap2rcd13ifvqek0","pricing_plan_id":"free"},{"bike_id":"3a0de1a6-5350-4e5d-b112-e33b7f3c2bc6","system_id":"levelo_inurba_marseille","lat":43.289184,"lon":5.366408,"is_reserved":false,"is_disabled":false,"rental_uris":{"android":"levelo://app?vid=3a0de1a6-5350-4e5d-b112-e33b7f3c2bc6","ios":"levelo://app?vid=3a0de1a6-5350-4e5d-b112-e33b7f3c2bc6"},"vehicle_type_id":"4","last_reported":1697782165,"current_range_meters":21600,"station_id":"ce4bhap2rcd13ifvqek0","pricing_plan_id":"free"},{"bike_id":"8a5f8a97-0099-4ebb-ab59-c786598921e9","system_id":"levelo_inurba_marseille","lat":43.289468,"lon":5.363719,"is_reserved":false,"is_disabled":false,"rental_uris":{"android":"levelo://app?vid=8a5f8a97-0099-4ebb-ab59-c786598921e9","ios":"levelo://app?vid=8a5f8a97-0099-4ebb-ab59-c786598921e9"},"vehicle_type_id":"4","last_reported":1697782165,"current_range_meters":30000,"station_id":"ce4bhc92rcd13ifvqetg","pricing_plan_id":"free"},{"bike_id":"160c20ac-21fb-4a8f-891e-26292c8e2b1d","system_id":"levelo_inurba_marseille","lat":43.289184,"lon":5.366408,"is_reserved":false,"is_disabled":false,"rental_uris":{"android":"levelo://app?vid=160c20ac-21fb-4a8f-891e-26292c8e2b1d","ios":"levelo://app?vid=160c20ac-21fb-4a8f-891e-26292c8e2b1d"},"vehicle_type_id":"4","last_reported":1697782165,"current_range_meters":26800,"station_id":"ce4bhap2rcd13ifvqek0","pricing_plan_id":"free"},{"bike_id":"d9f4a1c2-1dca-4685-8624-29f64976899f","system_id":"levelo_inurba_marseille","lat":43.289468,"lon":5.363719,"is_reserved":false,"is_disabled":false,"rental_uris":{"android":"levelo://app?vid=d9f4a1c2-1dca-4685-8624-29f64976899f","ios":"levelo://app?vid=d9f4a1c2-1dca-4685-8624-29f64976899f"},"vehicle_type_id":"4","last_reported":1697782165,"current_range_meters":26800,"station_id":"ce4bhc92rcd13ifvqetg","pricing_plan_id":"free"},{"bike_id":"d8b4a54b-74b7-4ae9-b7ee-e174fe873b9d","system_id":"levelo_inurba_marseille","lat":43.32933,"lon":5.39019,"is_reserved":false,"is_disabled":false,"rental_uris":{"android":"levelo://app?vid=d8b4a54b-74b7-4ae9-b7ee-e174fe873b9d","ios":"levelo://app?vid=d8b4a54b-74b7-4ae9-b7ee-e174fe873b9d"},"vehicle_type_id":"4","last_reported":1697782165,"current_range_meters":10000,"station_id":"","pricing_plan_id":"free"},{"bike_id":"6351b86d-6a19-47b3-b39d-4de5b57790d1","system_id":"levelo_inurba_marseille","lat":43.29263,"lon":5.38428,"is_reserved":false,"is_disabled":false,"rental_uris":{"android":"levelo://app?vid=6351b86d-6a19-47b3-b39d-4de5b57790d1","ios":"levelo://app?vid=6351b86d-6a19-47b3-b39d-4de5b57790d1"},"vehicle_type_id":"4","last_reported":1697782165,"current_range_meters":24400,"station_id":"ce4bh692rcd13ifvqea0","pricing_plan_id":"free"},{"bike_id":"ce7d8f3c-1545-4498-bb7f-c55c811fbfd6","system_id":"levelo_inurba_marseille","lat":43.292642,"lon":5.384254,"is_reserved":false,"is_disabled":false,"rental_uris":{"android":"levelo://app?vid=ce7d8f3c-1545-4498-bb7f-c55c811fbfd6","ios":"levelo://app?vid=ce7d8f3c-1545-4498-bb7f-c55c811fbfd6"},"vehicle_type_id":"4","last_reported":1697782165,"current_range_meters":28000,"station_id":"ce4bh692rcd13ifvqea0","pricing_plan_id":"free"},{"bike_id":"3b566981-e1c0-422b-9341-345432498697","system_id":"levelo_inurba_marseille","lat":43.330396,"lon":5.389188,"is_reserved":false,"is_disabled":false,"rental_uris":{"android":"levelo://app?vid=3b566981-e1c0-422b-9341-345432498697","ios":"levelo://app?vid=3b566981-e1c0-422b-9341-345432498697"},"vehicle_type_id":"4","last_reported":1697782165,"current_range_meters":30000,"station_id":"ce4bhr92rcd13ifvqhrg","pricing_plan_id":"free"},{"bike_id":"f2d0cc44-93f8-4a92-b439-e577dcb54341","system_id":"levelo_inurba_marseille","lat":43.330442,"lon":5.389148,"is_reserved":false,"is_disabled":false,"rental_uris":{"android":"levelo://app?vid=f2d0cc44-93f8-4a92-b439-e577dcb54341","ios":"levelo://app?vid=f2d0cc44-93f8-4a92-b439-e577dcb54341"},"vehicle_type_id":"4","last_reported":1697782165,"current_range_meters":13600,"station_id":"ce4bhr92rcd13ifvqhrg","pricing_plan_id":"free"},{"bike_id":"7ec11420-0266-4c7e-b55a-fa450329f804","system_id":"levelo_inurba_marseille","lat":43.330405,"lon":5.389209,"is_reserved":false,"is_disabled":false,"rental_uris":{"android":"levelo://app?vid=7ec11420-0266-4c7e-b55a-fa450329f804","ios":"levelo://app?vid=7ec11420-0266-4c7e-b55a-fa450329f804"},"vehicle_type_id":"4","last_reported":1697782165,"current_range_meters":30800,"station_id":"ce4bhr92rcd13ifvqhrg","pricing_plan_id":"free"},{"bike_id":"80b11501-f1c8-440a-80fc-ac162a4dcdb5","system_id":"levelo_inurba_marseille","lat":43.33042,"lon":5.389218,"is_reserved":false,"is_disabled":false,"rental_uris":{"android":"levelo://app?vid=80b11501-f1c8-440a-80fc-ac162a4dcdb5","ios":"levelo://app?vid=80b11501-f1c8-440a-80fc-ac162a4dcdb5"},"vehicle_type_id":"4","last_reported":1697782165,"current_range_meters":29600,"station_id":"ce4bhr92rcd13ifvqhrg","pricing_plan_id":"free"},{"bike_id":"a0b5dab1-be4f-4317-97b5-8d5745d38ede","system_id":"levelo_inurba_marseille","lat":43.330448,"lon":5.389192,"is_reserved":false,"is_disabled":false,"rental_uris":{"android":"levelo://app?vid=a0b5dab1-be4f-4317-97b5-8d5745d38ede","ios":"levelo://app?vid=a0b5dab1-be4f-4317-97b5-8d5745d38ede"},"vehicle_type_id":"4","last_reported":1697782165,"current_range_meters":16400,"station_id":"ce4bhr92rcd13ifvqhrg","pricing_plan_id":"free"},{"bike_id":"e6a05a78-8186-4541-ae27-efa17a7e938e","system_id":"levelo_inurba_marseille","lat":43.33046,"lon":5.38918,"is_reserved":false,"is_disabled":false,"rental_uris":{"android":"levelo://app?vid=e6a05a78-8186-4541-ae27-efa17a7e938e","ios":"levelo://app?vid=e6a05a78-8186-4541-ae27-efa17a7e938e"},"vehicle_type_id":"4","last_reported":1697782165,"current_range_meters":18400,"station_id":"ce4bhr92rcd13ifvqhrg","pricing_plan_id":"free"},{"bike_id":"2e0130e1-089f-4f56-905e-15d7d498235f","system_id":"levelo_inurba_marseille","lat":43.290104,"lon":5.356111,"is_reserved":false,"is_disabled":false,"rental_uris":{"android":"levelo://app?vid=2e0130e1-089f-4f56-905e-15d7d498235f","ios":"levelo://app?vid=2e0130e1-089f-4f56-905e-15d7d498235f"},"vehicle_type_id":"4","last_reported":1697782165,"current_range_meters":22400,"station_id":"ce4bhb92rcd13ifvqen0","pricing_plan_id":"free"},{"bike_id":"2bce87ea-68c9-44f6-8501-9c965a5d7250","system_id":"levelo_inurba_marseille","lat":43.29102,"lon":5.38148,"is_reserved":false,"is_disabled":false,"rental_uris":{"android":"levelo://app?vid=2bce87ea-68c9-44f6-8501-9c965a5d7250","ios":"levelo://app?vid=2bce87ea-68c9-44f6-8501-9c965a5d7250"},"vehicle_type_id":"4","last_reported":1697782165,"current_range_meters":29600,"station_id":"ce4bh512rcd13ifvqe2g","pricing_plan_id":"free"},{"bike_id":"cf8f1c27-14eb-4537-8446-575242696011","system_id":"levelo_inurba_marseille","lat":43.331293,"lon":5.388527,"is_reserved":false,"is_disabled":false,"rental_uris":{"android":"levelo://app?vid=cf8f1c27-14eb-4537-8446-575242696011","ios":"levelo://app?vid=cf8f1c27-14eb-4537-8446-575242696011"},"vehicle_type_id":"4","last_reported":1697782165,"current_range_meters":12400,"station_id":"","pricing_plan_id":"free"},{"bike_id":"1d1d8800-b672-47f7-8983-4770f7820839","system_id":"levelo_inurba_marseille","lat":43.28976,"lon":5.37829,"is_reserved":false,"is_disabled":false,"rental_uris":{"android":"levelo://app?vid=1d1d8800-b672-47f7-8983-4770f7820839","ios":"levelo://app?vid=1d1d8800-b672-47f7-8983-4770f7820839"},"vehicle_type_id":"4","last_reported":1697782165,"current_range_meters":22400,"station_id":"ce4bh9p2rcd13ifvqed0","pricing_plan_id":"free"},{"bike_id":"47ebf374-047f-4346-b41b-052d7fc01928","system_id":"levelo_inurba_marseille","lat":43.28856,"lon":5.358371,"is_reserved":false,"is_disabled":false,"rental_uris":{"android":"levelo://app?vid=47ebf374-047f-4346-b41b-052d7fc01928","ios":"levelo://app?vid=47ebf374-047f-4346-b41b-052d7fc01928"},"vehicle_type_id":"4","last_reported":1697782165,"current_range_meters":19200,"station_id":"ce4bhb12rcd13ifvqem0","pricing_plan_id":"free"},{"bike_id":"4adb2b30-804e-4f91-9dea-0288ce787ad1","system_id":"levelo_inurba_marseille","lat":43.28856,"lon":5.358371,"is_reserved":false,"is_disabled":false,"rental_uris":{"android":"levelo://app?vid=4adb2b30-804e-4f91-9dea-0288ce787ad1","ios":"levelo://app?vid=4adb2b30-804e-4f91-9dea-0288ce787ad1"},"vehicle_type_id":"4","last_reported":1697782165,"current_range_meters":31200,"station_id":"ce4bhb12rcd13ifvqem0","pricing_plan_id":"free"},{"bike_id":"c6eebc72-5935-4e33-a76d-5bd3613df957","system_id":"levelo_inurba_marseille","lat":43.28856,"lon":5.358371,"is_reserved":false,"is_disabled":false,"rental_uris":{"android":"levelo://app?vid=c6eebc72-5935-4e33-a76d-5bd3613df957","ios":"levelo://app?vid=c6eebc72-5935-4e33-a76d-5bd3613df957"},"vehicle_type_id":"4","last_reported":1697782165,"current_range_meters":26800,"station_id":"ce4bhb12rcd13ifvqem0","pricing_plan_id":"free"},{"bike_id":"46918c53-2565-462e-b391-659bec899933","system_id":"levelo_inurba_marseille","lat":43.312773,"lon":5.40162,"is_reserved":false,"is_disabled":false,"rental_uris":{"android":"levelo://app?vid=46918c53-2565-462e-b391-659bec899933","ios":"levelo://app?vid=46918c53-2565-462e-b391-659bec899933"},"vehicle_type_id":"4","last_reported":1697782165,"current_range_meters":30000,"station_id":"ce4bh092rcd13ifvqd30","pricing_plan_id":"free"},{"bike_id":"419f4ed3-d48b-4746-bcb2-1b26c5834206","system_id":"levelo_inurba_marseille","lat":43.312794,"lon":5.401628,"is_reserved":false,"is_disabled":false,"rental_uris":{"android":"levelo://app?vid=419f4ed3-d48b-4746-bcb2-1b26c5834206","ios":"levelo://app?vid=419f4ed3-d48b-4746-bcb2-1b26c5834206"},"vehicle_type_id":"4","last_reported":1697782165,"current_range_meters":30400,"station_id":"ce4bh092rcd13ifvqd30","pricing_plan_id":"free"},{"bike_id":"a8d5f747-324b-4d08-8902-820cf43cdbd0","system_id":"levelo_inurba_marseille","lat":43.312781,"lon":5.401644,"is_reserved":false,"is_disabled":false,"rental_uris":{"android":"levelo://app?vid=a8d5f747-324b-4d08-8902-820cf43cdbd0","ios":"levelo://app?vid=a8d5f747-324b-4d08-8902-820cf43cdbd0"},"vehicle_type_id":"4","last_reported":1697782165,"current_range_meters":29600,"station_id":"ce4bh092rcd13ifvqd30","pricing_plan_id":"free"},{"bike_id":"6bee36dc-d5c3-44de-9c9e-0927c28cd5ea","system_id":"levelo_inurba_marseille","lat":43.31271,"lon":5.40172,"is_reserved":false,"is_disabled":false,"rental_uris":{"android":"levelo://app?vid=6bee36dc-d5c3-44de-9c9e-0927c28cd5ea","ios":"levelo://app?vid=6bee36dc-d5c3-44de-9c9e-0927c28cd5ea"},"vehicle_type_id":"4","last_reported":1697782165,"current_range_meters":28800,"station_id":"ce4bh092rcd13ifvqd30","pricing_plan_id":"free"},{"bike_id":"d2fd2e96-4aa5-4208-841a-7959d237b1b7","system_id":"levelo_inurba_marseille","lat":43.312609,"lon":5.401662,"is_reserved":false,"is_disabled":false,"rental_uris":{"android":"levelo://app?vid=d2fd2e96-4aa5-4208-841a-7959d237b1b7","ios":"levelo://app?vid=d2fd2e96-4aa5-4208-841a-7959d237b1b7"},"vehicle_type_id":"4","last_reported":1697782165,"current_range_meters":16400,"station_id":"ce4bh092rcd13ifvqd30","pricing_plan_id":"free"},{"bike_id":"d5473fd3-ec0d-4977-982d-8a333fb857c2","system_id":"levelo_inurba_marseille","lat":43.306675,"lon":5.400855,"is_reserved":false,"is_disabled":false,"rental_uris":{"android":"levelo://app?vid=d5473fd3-ec0d-4977-982d-8a333fb857c2","ios":"levelo://app?vid=d5473fd3-ec0d-4977-982d-8a333fb857c2"},"vehicle_type_id":"4","last_reported":1697782165,"current_range_meters":1200,"station_id":"ce4bh112rcd13ifvqda0","pricing_plan_id":"free"},{"bike_id":"b961ee8b-1dca-4121-9378-984205252f16","system_id":"levelo_inurba_marseille","lat":43.30137,"lon":5.39879,"is_reserved":false,"is_disabled":false,"rental_uris":{"android":"levelo://app?vid=b961ee8b-1dca-4121-9378-984205252f16","ios":"levelo://app?vid=b961ee8b-1dca-4121-9378-984205252f16"},"vehicle_type_id":"4","last_reported":1697782165,"current_range_meters":30800,"station_id":"ce4bh0h2rcd13ifvqd40","pricing_plan_id":"free"},{"bike_id":"f9848aa9-1797-41c9-8383-c287a278c4d2","system_id":"levelo_inurba_marseille","lat":43.301344,"lon":5.398783,"is_reserved":false,"is_disabled":false,"rental_uris":{"android":"levelo://app?vid=f9848aa9-1797-41c9-8383-c287a278c4d2","ios":"levelo://app?vid=f9848aa9-1797-41c9-8383-c287a278c4d2"},"vehicle_type_id":"4","last_reported":1697782165,"current_range_meters":0,"station_id":"ce4bh0h2rcd13ifvqd40","pricing_plan_id":"free"},{"bike_id":"915c3ffe-4a58-4294-9c07-4ddedbb0b73c","system_id":"levelo_inurba_marseille","lat":43.28728,"lon":5.36087,"is_reserved":false,"is_disabled":false,"rental_uris":{"android":"levelo://app?vid=915c3ffe-4a58-4294-9c07-4ddedbb0b73c","ios":"levelo://app?vid=915c3ffe-4a58-4294-9c07-4ddedbb0b73c"},"vehicle_type_id":"4","last_reported":1697782165,"current_range_meters":30800,"station_id":"cki0cbj6b192h4jlfktg","pricing_plan_id":"free"},{"bike_id":"965f6128-7431-4bd8-bb84-9578b4d5e1a2","system_id":"levelo_inurba_marseille","lat":43.28727,"lon":5.36078,"is_reserved":false,"is_disabled":false,"rental_uris":{"android":"levelo://app?vid=965f6128-7431-4bd8-bb84-9578b4d5e1a2","ios":"levelo://app?vid=965f6128-7431-4bd8-bb84-9578b4d5e1a2"},"vehicle_type_id":"4","last_reported":1697782165,"current_range_meters":30400,"station_id":"cki0cbj6b192h4jlfktg","pricing_plan_id":"free"},{"bike_id":"8f9811f9-38a7-49a0-8b16-8ccb816392dd","system_id":"levelo_inurba_marseille","lat":43.28727,"lon":5.360841,"is_reserved":false,"is_disabled":false,"rental_uris":{"android":"levelo://app?vid=8f9811f9-38a7-49a0-8b16-8ccb816392dd","ios":"levelo://app?vid=8f9811f9-38a7-49a0-8b16-8ccb816392dd"},"vehicle_type_id":"4","last_reported":1697782165,"current_range_meters":8000,"station_id":"cki0cbj6b192h4jlfktg","pricing_plan_id":"free"},{"bike_id":"387d8d35-6b17-4ae0-bb49-ee3f13116e21","system_id":"levelo_inurba_marseille","lat":43.28701,"lon":5.37399,"is_reserved":false,"is_disabled":false,"rental_uris":{"android":"levelo://app?vid=387d8d35-6b17-4ae0-bb49-ee3f13116e21","ios":"levelo://app?vid=387d8d35-6b17-4ae0-bb49-ee3f13116e21"},"vehicle_type_id":"4","last_reported":1697782165,"current_range_meters":28800,"station_id":"ce4bh3p2rcd13ifvqdq0","pricing_plan_id":"free"},{"bike_id":"39f930d1-2212-431d-a8fe-1c576a6b04f0","system_id":"levelo_inurba_marseille","lat":43.302759,"lon":5.400793,"is_reserved":false,"is_disabled":false,"rental_uris":{"android":"levelo://app?vid=39f930d1-2212-431d-a8fe-1c576a6b04f0","ios":"levelo://app?vid=39f930d1-2212-431d-a8fe-1c576a6b04f0"},"vehicle_type_id":"4","last_reported":1697782165,"current_range_meters":30400,"station_id":"ce4bgvh2rcd13ifvqcs0","pricing_plan_id":"free"},{"bike_id":"2077313f-d74b-4a49-bf2b-5bc298803aed","system_id":"levelo_inurba_marseille","lat":43.29032,"lon":5.38635,"is_reserved":false,"is_disabled":false,"rental_uris":{"android":"levelo://app?vid=2077313f-d74b-4a49-bf2b-5bc298803aed","ios":"levelo://app?vid=2077313f-d74b-4a49-bf2b-5bc298803aed"},"vehicle_type_id":"4","last_reported":1697782165,"current_range_meters":5200,"station_id":"ce4bh4p2rcd13ifvqe0g","pricing_plan_id":"free"},{"bike_id":"9ccb46c5-4796-4c31-a3ca-1050e299c835","system_id":"levelo_inurba_marseille","lat":43.302759,"lon":5.400793,"is_reserved":false,"is_disabled":false,"rental_uris":{"android":"levelo://app?vid=9ccb46c5-4796-4c31-a3ca-1050e299c835","ios":"levelo://app?vid=9ccb46c5-4796-4c31-a3ca-1050e299c835"},"vehicle_type_id":"4","last_reported":1697782165,"current_range_meters":28400,"station_id":"ce4bgvh2rcd13ifvqcs0","pricing_plan_id":"free"},{"bike_id":"d5e1539c-ea7f-4ef7-b257-7326626aeaa5","system_id":"levelo_inurba_marseille","lat":43.29024,"lon":5.38638,"is_reserved":false,"is_disabled":false,"rental_uris":{"android":"levelo://app?vid=d5e1539c-ea7f-4ef7-b257-7326626aeaa5","ios":"levelo://app?vid=d5e1539c-ea7f-4ef7-b257-7326626aeaa5"},"vehicle_type_id":"4","last_reported":1697782165,"current_range_meters":20400,"station_id":"ce4bh4p2rcd13ifvqe0g","pricing_plan_id":"free"},{"bike_id":"19004327-f74d-4a74-8ae7-d942ddc0e002","system_id":"levelo_inurba_marseille","lat":43.302759,"lon":5.400793,"is_reserved":false,"is_disabled":false,"rental_uris":{"android":"levelo://app?vid=19004327-f74d-4a74-8ae7-d942ddc0e002","ios":"levelo://app?vid=19004327-f74d-4a74-8ae7-d942ddc0e002"},"vehicle_type_id":"4","last_reported":1697782165,"current_range_meters":28000,"station_id":"ce4bgvh2rcd13ifvqcs0","pricing_plan_id":"free"},{"bike_id":"3dbb779b-f539-4d44-91e8-ee1482e4ca2e","system_id":"levelo_inurba_marseille","lat":43.28919,"lon":5.38399,"is_reserved":false,"is_disabled":false,"rental_uris":{"android":"levelo://app?vid=3dbb779b-f539-4d44-91e8-ee1482e4ca2e","ios":"levelo://app?vid=3dbb779b-f539-4d44-91e8-ee1482e4ca2e"},"vehicle_type_id":"4","last_reported":1697782165,"current_range_meters":28000,"station_id":"ce4bh612rcd13ifvqe6g","pricing_plan_id":"free"},{"bike_id":"b9ddc198-e0dd-418e-999c-a6c6ca578e35","system_id":"levelo_inurba_marseille","lat":43.302759,"lon":5.400793,"is_reserved":false,"is_disabled":false,"rental_uris":{"android":"levelo://app?vid=b9ddc198-e0dd-418e-999c-a6c6ca578e35","ios":"levelo://app?vid=b9ddc198-e0dd-418e-999c-a6c6ca578e35"},"vehicle_type_id":"4","last_reported":1697782165,"current_range_meters":26000,"station_id":"ce4bgvh2rcd13ifvqcs0","pricing_plan_id":"free"},{"bike_id":"c9236592-b7e6-40f5-8eda-dab25a0469a6","system_id":"levelo_inurba_marseille","lat":43.302436,"lon":5.400725,"is_reserved":false,"is_disabled":false,"rental_uris":{"android":"levelo://app?vid=c9236592-b7e6-40f5-8eda-dab25a0469a6","ios":"levelo://app?vid=c9236592-b7e6-40f5-8eda-dab25a0469a6"},"vehicle_type_id":"4","last_reported":1697782165,"current_range_meters":30800,"station_id":"ce4bgvh2rcd13ifvqcs0","pricing_plan_id":"free"},{"bike_id":"d0e89434-77bd-47cc-9cc0-b598fba70611","system_id":"levelo_inurba_marseille","lat":43.287184,"lon":5.37937,"is_reserved":false,"is_disabled":false,"rental_uris":{"android":"levelo://app?vid=d0e89434-77bd-47cc-9cc0-b598fba70611","ios":"levelo://app?vid=d0e89434-77bd-47cc-9cc0-b598fba70611"},"vehicle_type_id":"4","last_reported":1697782165,"current_range_meters":30000,"station_id":"ce4bh9p2rcd13ifvqec0","pricing_plan_id":"free"},{"bike_id":"f040eebd-7aeb-4c39-898f-4bdbc3b4503b","system_id":"levelo_inurba_marseille","lat":43.287184,"lon":5.37937,"is_reserved":false,"is_disabled":false,"rental_uris":{"android":"levelo://app?vid=f040eebd-7aeb-4c39-898f-4bdbc3b4503b","ios":"levelo://app?vid=f040eebd-7aeb-4c39-898f-4bdbc3b4503b"},"vehicle_type_id":"4","last_reported":1697782165,"current_range_meters":30400,"station_id":"ce4bh9p2rcd13ifvqec0","pricing_plan_id":"free"},{"bike_id":"f0c2d7d5-91c5-4ff5-9b8d-011ecf5d899f","system_id":"levelo_inurba_marseille","lat":43.287185,"lon":5.379373,"is_reserved":false,"is_disabled":false,"rental_uris":{"android":"levelo://app?vid=f0c2d7d5-91c5-4ff5-9b8d-011ecf5d899f","ios":"levelo://app?vid=f0c2d7d5-91c5-4ff5-9b8d-011ecf5d899f"},"vehicle_type_id":"4","last_reported":1697782165,"current_range_meters":22000,"station_id":"ce4bh9p2rcd13ifvqec0","pricing_plan_id":"free"},{"bike_id":"dc81aa59-61fb-4d51-b8f3-372f32340558","system_id":"levelo_inurba_marseille","lat":43.287184,"lon":5.37937,"is_reserved":false,"is_disabled":false,"rental_uris":{"android":"levelo://app?vid=dc81aa59-61fb-4d51-b8f3-372f32340558","ios":"levelo://app?vid=dc81aa59-61fb-4d51-b8f3-372f32340558"},"vehicle_type_id":"4","last_reported":1697782165,"current_range_meters":12000,"station_id":"ce4bh9p2rcd13ifvqec0","pricing_plan_id":"free"},{"bike_id":"5801bfe9-b3d6-49e9-a0a0-78748d4aba6e","system_id":"levelo_inurba_marseille","lat":43.287185,"lon":5.379373,"is_reserved":false,"is_disabled":false,"rental_uris":{"android":"levelo://app?vid=5801bfe9-b3d6-49e9-a0a0-78748d4aba6e","ios":"levelo://app?vid=5801bfe9-b3d6-49e9-a0a0-78748d4aba6e"},"vehicle_type_id":"4","last_reported":1697782165,"current_range_meters":5600,"station_id":"ce4bh9p2rcd13ifvqec0","pricing_plan_id":"free"},{"bike_id":"2358e758-2a14-415b-babf-0ffa5dad7ec6","system_id":"levelo_inurba_marseille","lat":43.287184,"lon":5.37937,"is_reserved":false,"is_disabled":false,"rental_uris":{"android":"levelo://app?vid=2358e758-2a14-415b-babf-0ffa5dad7ec6","ios":"levelo://app?vid=2358e758-2a14-415b-babf-0ffa5dad7ec6"},"vehicle_type_id":"4","last_reported":1697782165,"current_range_meters":24800,"station_id":"ce4bh9p2rcd13ifvqec0","pricing_plan_id":"free"},{"bike_id":"a669676b-02e0-4eef-8851-ee04b07fa0e2","system_id":"levelo_inurba_marseille","lat":43.28712,"lon":5.37939,"is_reserved":false,"is_disabled":false,"rental_uris":{"android":"levelo://app?vid=a669676b-02e0-4eef-8851-ee04b07fa0e2","ios":"levelo://app?vid=a669676b-02e0-4eef-8851-ee04b07fa0e2"},"vehicle_type_id":"4","last_reported":1697782165,"current_range_meters":28400,"station_id":"ce4bh9p2rcd13ifvqec0","pricing_plan_id":"free"},{"bike_id":"c0880ab9-5499-44e0-a21e-458246748aee","system_id":"levelo_inurba_marseille","lat":43.287184,"lon":5.37937,"is_reserved":false,"is_disabled":false,"rental_uris":{"android":"levelo://app?vid=c0880ab9-5499-44e0-a21e-458246748aee","ios":"levelo://app?vid=c0880ab9-5499-44e0-a21e-458246748aee"},"vehicle_type_id":"4","last_reported":1697782165,"current_range_meters":14400,"station_id":"ce4bh9p2rcd13ifvqec0","pricing_plan_id":"free"},{"bike_id":"24a2bc7d-a5ee-4dc4-a215-1c12dd4c5c15","system_id":"levelo_inurba_marseille","lat":43.335307,"lon":5.388143,"is_reserved":false,"is_disabled":false,"rental_uris":{"android":"levelo://app?vid=24a2bc7d-a5ee-4dc4-a215-1c12dd4c5c15","ios":"levelo://app?vid=24a2bc7d-a5ee-4dc4-a215-1c12dd4c5c15"},"vehicle_type_id":"4","last_reported":1697782165,"current_range_meters":23600,"station_id":"","pricing_plan_id":"free"},{"bike_id":"b7765660-80dd-4198-8e67-d3db2866bf84","system_id":"levelo_inurba_marseille","lat":43.28545,"lon":5.370062,"is_reserved":false,"is_disabled":false,"rental_uris":{"android":"levelo://app?vid=b7765660-80dd-4198-8e67-d3db2866bf84","ios":"levelo://app?vid=b7765660-80dd-4198-8e67-d3db2866bf84"},"vehicle_type_id":"4","last_reported":1697782165,"current_range_meters":22800,"station_id":"","pricing_plan_id":"free"},{"bike_id":"9f5a1463-5e96-482e-9338-4b8700daf0de","system_id":"levelo_inurba_marseille","lat":43.31641,"lon":5.40434,"is_reserved":false,"is_disabled":false,"rental_uris":{"android":"levelo://app?vid=9f5a1463-5e96-482e-9338-4b8700daf0de","ios":"levelo://app?vid=9f5a1463-5e96-482e-9338-4b8700daf0de"},"vehicle_type_id":"4","last_reported":1697782165,"current_range_meters":29200,"station_id":"ce4bh012rcd13ifvqd00","pricing_plan_id":"free"},{"bike_id":"6dba7c2d-7ed1-4646-9d5e-9af47c9e6d3a","system_id":"levelo_inurba_marseille","lat":43.31644,"lon":5.40435,"is_reserved":false,"is_disabled":false,"rental_uris":{"android":"levelo://app?vid=6dba7c2d-7ed1-4646-9d5e-9af47c9e6d3a","ios":"levelo://app?vid=6dba7c2d-7ed1-4646-9d5e-9af47c9e6d3a"},"vehicle_type_id":"4","last_reported":1697782165,"current_range_meters":13600,"station_id":"ce4bh012rcd13ifvqd00","pricing_plan_id":"free"},{"bike_id":"ad50c4dd-e38a-4b8d-b1d5-df023ee19871","system_id":"levelo_inurba_marseille","lat":43.316444,"lon":5.404357,"is_reserved":false,"is_disabled":false,"rental_uris":{"android":"levelo://app?vid=ad50c4dd-e38a-4b8d-b1d5-df023ee19871","ios":"levelo://app?vid=ad50c4dd-e38a-4b8d-b1d5-df023ee19871"},"vehicle_type_id":"4","last_reported":1697782165,"current_range_meters":29200,"station_id":"","pricing_plan_id":"free"},{"bike_id":"da6f26ab-f848-4eef-8341-bfbf455f2769","system_id":"levelo_inurba_marseille","lat":43.316517,"lon":5.404375,"is_reserved":false,"is_disabled":false,"rental_uris":{"android":"levelo://app?vid=da6f26ab-f848-4eef-8341-bfbf455f2769","ios":"levelo://app?vid=da6f26ab-f848-4eef-8341-bfbf455f2769"},"vehicle_type_id":"4","last_reported":1697782165,"current_range_meters":30400,"station_id":"ce4bh012rcd13ifvqd00","pricing_plan_id":"free"},{"bike_id":"ca270df8-3488-4cb6-b732-a3f3d1e5feda","system_id":"levelo_inurba_marseille","lat":43.283998,"lon":5.375062,"is_reserved":false,"is_disabled":false,"rental_uris":{"android":"levelo://app?vid=ca270df8-3488-4cb6-b732-a3f3d1e5feda","ios":"levelo://app?vid=ca270df8-3488-4cb6-b732-a3f3d1e5feda"},"vehicle_type_id":"4","last_reported":1697782165,"current_range_meters":28000,"station_id":"ce4bh412rcd13ifvqds0","pricing_plan_id":"free"},{"bike_id":"f2456c86-c9e0-4135-8547-98341a56d860","system_id":"levelo_inurba_marseille","lat":43.291994,"lon":5.392907,"is_reserved":false,"is_disabled":false,"rental_uris":{"android":"levelo://app?vid=f2456c86-c9e0-4135-8547-98341a56d860","ios":"levelo://app?vid=f2456c86-c9e0-4135-8547-98341a56d860"},"vehicle_type_id":"4","last_reported":1697782165,"current_range_meters":29600,"station_id":"ce4bh192rcd13ifvqdd0","pricing_plan_id":"free"},{"bike_id":"a482e47c-7dfe-445d-bad5-34476a840117","system_id":"levelo_inurba_marseille","lat":43.2847,"lon":5.358837,"is_reserved":false,"is_disabled":false,"rental_uris":{"android":"levelo://app?vid=a482e47c-7dfe-445d-bad5-34476a840117","ios":"levelo://app?vid=a482e47c-7dfe-445d-bad5-34476a840117"},"vehicle_type_id":"4","last_reported":1697782165,"current_range_meters":8800,"station_id":"ce4bhah2rcd13ifvqei0","pricing_plan_id":"free"},{"bike_id":"48334aae-b859-40a9-aac7-6a62e0148923","system_id":"levelo_inurba_marseille","lat":43.284538,"lon":5.358657,"is_reserved":false,"is_disabled":false,"rental_uris":{"android":"levelo://app?vid=48334aae-b859-40a9-aac7-6a62e0148923","ios":"levelo://app?vid=48334aae-b859-40a9-aac7-6a62e0148923"},"vehicle_type_id":"4","last_reported":1697782165,"current_range_meters":31200,"station_id":"ce4bhah2rcd13ifvqei0","pricing_plan_id":"free"},{"bike_id":"bd83e3ad-5979-478b-9093-9958a6a12822","system_id":"levelo_inurba_marseille","lat":43.284534,"lon":5.358662,"is_reserved":false,"is_disabled":false,"rental_uris":{"android":"levelo://app?vid=bd83e3ad-5979-478b-9093-9958a6a12822","ios":"levelo://app?vid=bd83e3ad-5979-478b-9093-9958a6a12822"},"vehicle_type_id":"4","last_reported":1697782165,"current_range_meters":28000,"station_id":"ce4bhah2rcd13ifvqei0","pricing_plan_id":"free"},{"bike_id":"2f760159-e4a4-406e-99c8-9e0fc429c064","system_id":"levelo_inurba_marseille","lat":43.284623,"lon":5.3589,"is_reserved":false,"is_disabled":false,"rental_uris":{"android":"levelo://app?vid=2f760159-e4a4-406e-99c8-9e0fc429c064","ios":"levelo://app?vid=2f760159-e4a4-406e-99c8-9e0fc429c064"},"vehicle_type_id":"4","last_reported":1697782165,"current_range_meters":17600,"station_id":"ce4bhah2rcd13ifvqei0","pricing_plan_id":"free"},{"bike_id":"249b7760-3e12-4ecb-a0cc-9701ebdc3681","system_id":"levelo_inurba_marseille","lat":43.284606,"lon":5.35894,"is_reserved":false,"is_disabled":false,"rental_uris":{"android":"levelo://app?vid=249b7760-3e12-4ecb-a0cc-9701ebdc3681","ios":"levelo://app?vid=249b7760-3e12-4ecb-a0cc-9701ebdc3681"},"vehicle_type_id":"4","last_reported":1697782165,"current_range_meters":30000,"station_id":"ce4bhah2rcd13ifvqei0","pricing_plan_id":"free"},{"bike_id":"251989d1-5835-406e-a860-8a8a531c81db","system_id":"levelo_inurba_marseille","lat":43.2846,"lon":5.358867,"is_reserved":false,"is_disabled":false,"rental_uris":{"android":"levelo://app?vid=251989d1-5835-406e-a860-8a8a531c81db","ios":"levelo://app?vid=251989d1-5835-406e-a860-8a8a531c81db"},"vehicle_type_id":"4","last_reported":1697782165,"current_range_meters":12800,"station_id":"ce4bhah2rcd13ifvqei0","pricing_plan_id":"free"},{"bike_id":"b8d332c4-736a-4023-8d01-9665b9f0953d","system_id":"levelo_inurba_marseille","lat":43.29449,"lon":5.39745,"is_reserved":false,"is_disabled":false,"rental_uris":{"android":"levelo://app?vid=b8d332c4-736a-4023-8d01-9665b9f0953d","ios":"levelo://app?vid=b8d332c4-736a-4023-8d01-9665b9f0953d"},"vehicle_type_id":"4","last_reported":1697782165,"current_range_meters":15200,"station_id":"ce4bh3h2rcd13ifvqdo0","pricing_plan_id":"free"},