{"last_updated":1739801318,"ttl":60,"version":"2.2","data":{"bikes":[{"bike_id":"d186f44f-17a0-4863-a988-759e71553d9a","system_id":"levelo_inurba_marseille","lat":43.31163,"lon":5.38727,"is_reserved":false,"is_disabled":false,"rental_uris":{"android":"levelo://app?vid=d186f44f-17a0-4863-a988-759e71553d9a","ios":"levelo://app?vid=d186f44f-17a0-4863-a988-759e71553d9a"},"vehicle_type_id":"4","last_reported":1739801318,"current_range_meters":2000,"station_id":"ce4bgv12rcd13ifvqcp0","pricing_plan_id":"cebpf4jnsgd1na2vs0mg"},{"bike_id":"9e7a1b36-2e01-4a75-8def-35cec576c3c5","system_id":"levelo_inurba_marseille","lat":43.27124,"lon":5.39237,"is_reserved":false,"is_disabled":true,"rental_uris":{"android":"levelo://app?vid=9e7a1b36-2e01-4a75-8def-35cec576c3c5","ios":"levelo://app?vid=9e7a1b36-2e01-4a75-8def-35cec576c3c5"},"vehicle_type_id":"4","last_reported":1739801318,"current_range_meters":2800,"station_id":"","pricing_plan_id":"cebpf4jnsgd1na2vs0mg"},{"bike_id":"1d9534c0-5db5-48c2-a707-0528db252be3","system_id":"levelo_inurba_marseille","lat":43.24559,"lon":5.39504,"is_reserved":false,"is_disabled":false,"rental_uris":{"android":"levelo://app?vid=1d9534c0-5db5-48c2-a707-0528db252be3","ios":"levelo://app?vid=1d9534c0-5db5-48c2-a707-0528db252be3"},"vehicle_type_id":"4","last_reported":1739801318,"current_range_meters":2800,"station_id":"ce4bhlp2rcd13ifvqgjg","pricing_plan_id":"cebpf4jnsgd1na2vs0mg"},{"bike_id":"f7fa2457-3ba8-43e2-938d-2535cc1fe4ae","system_id":"levelo_inurba_marseille","lat":43.23196,"lon":5.35562,"is_reserved":false,"is_disabled":false,"rental_uris":{"android":"levelo://app?vid=f7fa2457-3ba8-43e2-938d-2535cc1fe4ae","ios":"levelo://app?vid=f7fa2457-3ba8-43e2-938d-2535cc1fe4ae"},"vehicle_type_id":"4","last_reported":1739801318,"current_range_meters":2000,"station_id":"ce4bhu92rcd13ifvqi70","pricing_plan_id":"cebpf4jnsgd1na2vs0mg"},{"bike_id":"d1f4b90e-a0bf-44a0-8551-fdc016dfecea","system_id":"levelo_inurba_marseille","lat":43.23052,"lon":5.35494,"is_reserved":false,"is_disabled":false,"rental_uris":{"android":"levelo://app?vid=d1f4b90e-a0bf-44a0-8551-fdc016dfecea","ios":"levelo://app?vid=d1f4b90e-a0bf-44a0-8551-fdc016dfecea"},"vehicle_type_id":"4","last_reported":1739801318,"current_range_meters":2800,"station_id":"cpo3342slgdg3j2ifvpg","pricing_plan_id":"cebpf4jnsgd1na2vs0mg"},{"bike_id":"cfda9fe8-644b-4f2e-8d4a-e5a62ee9369d","system_id":"levelo_inurba_marseille","lat":43.33043,"lon":5.39032,"is_reserved":false,"is_disabled":false,"rental_uris":{"android":"levelo://app?vid=cfda9fe8-644b-4f2e-8d4a-e5a62ee9369d","ios":"levelo://app?vid=cfda9fe8-644b-4f2e-8d4a-e5a62ee9369d"},"vehicle_type_id":"4","last_reported":1739801318,"current_range_meters":2800,"station_id":"","pricing_plan_id":"cebpf4jnsgd1na2vs0mg"},{"bike_id":"18332cc9-0f16-4941-9018-c3813354a900","system_id":"levelo_inurba_marseille","lat":43.27627,"lon":5.39344,"is_reserved":false,"is_disabled":true,"rental_uris":{"android":"levelo://app?vid=18332cc9-0f16-4941-9018-c3813354a900","ios":"levelo://app?vid=18332cc9-0f16-4941-9018-c3813354a900"},"vehicle_type_id":"4","last_reported":1739801318,"current_range_meters":3200,"station_id":"","pricing_plan_id":"cebpf4jnsgd1na2vs0mg"},{"bike_id":"1215e2d7-350d-4334-a65e-4d6fac311b33","system_id":"levelo_inurba_marseille","lat":43.27684,"lon":5.38891,"is_reserved":false,"is_disabled":false,"rental_uris":{"android":"levelo://app?vid=1215e2d7-350d-4334-a65e-4d6fac311b33","ios":"levelo://app?vid=1215e2d7-350d-4334-a65e-4d6fac311b33"},"vehicle_type_id":"4","last_reported":1739801318,"current_range_meters":3200,"station_id":"ce4bhi12rcd13ifvqfo0","pricing_plan_id":"cebpf4jnsgd1na2vs0mg"},{"bike_id":"1f54a3d6-03b1-4265-8e45-3df12fe2c9b2","system_id":"levelo_inurba_marseille","lat":43.25038,"lon":5.38899,"is_reserved":false,"is_disabled":false,"rental_uris":{"android":"levelo://app?vid=1f54a3d6-03b1-4265-8e45-3df12fe2c9b2","ios":"levelo://app?vid=1f54a3d6-03b1-4265-8e45-3df12fe2c9b2"},"vehicle_type_id":"4","last_reported":1739801318,"current_range_meters":3600,"station_id":"ce4bhgp2rcd13ifvqfd0","pricing_plan_id":"cebpf4jnsgd1na2vs0mg"},{"bike_id":"d39f729d-b78f-4263-b83d-79f0a29954cd","system_id":"levelo_inurba_marseille","lat":43.2956,"lon":5.37503,"is_reserved":false,"is_disabled":false,"rental_uris":{"android":"levelo://app?vid=d39f729d-b78f-4263-b83d-79f0a29954cd","ios":"levelo://app?vid=d39f729d-b78f-4263-b83d-79f0a29954cd"},"vehicle_type_id":"4","last_reported":1739801318,"current_range_meters":3600,"station_id":"ce4bgh92rcd13ifvqb50","pricing_plan_id":"cebpf4jnsgd1na2vs0mg"},{"bike_id":"90d7f975-f7cd-450c-adca-c25e8504ac90","system_id":"levelo_inurba_marseille","lat":43.30955,"lon":5.39038,"is_reserved":false,"is_disabled":false,"rental_uris":{"android":"levelo://app?vid=90d7f975-f7cd-450c-adca-c25e8504ac90","ios":"levelo://app?vid=90d7f975-f7cd-450c-adca-c25e8504ac90"},"vehicle_type_id":"4","last_reported":1739801318,"current_range_meters":4000,"station_id":"ce4bgup2rcd13ifvqco0","pricing_plan_id":"cebpf4jnsgd1na2vs0mg"},{"bike_id":"195de0eb-7f44-4be2-b666-380d7bfc425c","system_id":"levelo_inurba_marseille","lat":43.23196,"lon":5.39994,"is_reserved":false,"is_disabled":false,"rental_uris":{"android":"levelo://app?vid=195de0eb-7f44-4be2-b666-380d7bfc425c","ios":"levelo://app?vid=195de0eb-7f44-4be2-b666-380d7bfc425c"},"vehicle_type_id":"4","last_reported":1739801318,"current_range_meters":4000,"station_id":"ce4bhn12rcd13ifvqgqg","pricing_plan_id":"cebpf4jnsgd1na2vs0mg"},{"bike_id":"541e5230-d383-4a10-aae1-56671011baa5","system_id":"levelo_inurba_marseille","lat":43.23968,"lon":5.36628,"is_reserved":false,"is_disabled":false,"rental_uris":{"android":"levelo://app?vid=541e5230-d383-4a10-aae1-56671011baa5","ios":"levelo://app?vid=541e5230-d383-4a10-aae1-56671011baa5"},"vehicle_type_id":"4","last_reported":1739801318,"current_range_meters":4400,"station_id":"ce4bhi12rcd13ifvqfp0","pricing_plan_id":"cebpf4jnsgd1na2vs0mg"},{"bike_id":"cab84c5e-f01e-4466-be72-25f56473e679","system_id":"levelo_inurba_marseille","lat":43.31122,"lon":5.37768,"is_reserved":false,"is_disabled":false,"rental_uris":{"android":"levelo://app?vid=cab84c5e-f01e-4466-be72-25f56473e679","ios":"levelo://app?vid=cab84c5e-f01e-4466-be72-25f56473e679"},"vehicle_type_id":"4","last_reported":1739801318,"current_range_meters":4400,"station_id":"ce4bgt92rcd13ifvqcg0","pricing_plan_id":"cebpf4jnsgd1na2vs0mg"},{"bike_id":"d97d1f11-8fc1-4e79-a5a0-14c8ff80305e","system_id":"levelo_inurba_marseille","lat":43.23194,"lon":5.35554,"is_reserved":false,"is_disabled":false,"rental_uris":{"android":"levelo://app?vid=d97d1f11-8fc1-4e79-a5a0-14c8ff80305e","ios":"levelo://app?vid=d97d1f11-8fc1-4e79-a5a0-14c8ff80305e"},"vehicle_type_id":"4","last_reported":1739801318,"current_range_meters":4400,"station_id":"","pricing_plan_id":"cebpf4jnsgd1na2vs0mg"},{"bike_id":"4e7beed8-3f51-4c59-a37c-0ac46140a818","system_id":"levelo_inurba_marseille","lat":43.26945,"lon":5.38622,"is_reserved":false,"is_disabled":true,"rental_uris":{"android":"levelo://app?vid=4e7beed8-3f51-4c59-a37c-0ac46140a818","ios":"levelo://app?vid=4e7beed8-3f51-4c59-a37c-0ac46140a818"},"vehicle_type_id":"4","last_reported":1739801318,"current_range_meters":4400,"station_id":"","pricing_plan_id":"cebpf4jnsgd1na2vs0mg"},{"bike_id":"36731310-3cff-4691-98c1-21f705b5fae8","system_id":"levelo_inurba_marseille","lat":43.25866,"lon":5.39919,"is_reserved":false,"is_disabled":false,"rental_uris":{"android":"levelo://app?vid=36731310-3cff-4691-98c1-21f705b5fae8","ios":"levelo://app?vid=36731310-3cff-4691-98c1-21f705b5fae8"},"vehicle_type_id":"4","last_reported":1739801318,"current_range_meters":4800,"station_id":"ce4bhl92rcd13ifvqghg","pricing_plan_id":"cebpf4jnsgd1na2vs0mg"},{"bike_id":"7bb850d5-65cf-4cbc-859d-65e87954860d","system_id":"levelo_inurba_marseille","lat":43.23152,"lon":5.43722,"is_reserved":false,"is_disabled":false,"rental_uris":{"android":"levelo://app?vid=7bb850d5-65cf-4cbc-859d-65e87954860d","ios":"levelo://app?vid=7bb850d5-65cf-4cbc-859d-65e87954860d"},"vehicle_type_id":"4","last_reported":1739801318,"current_range_meters":4800,"station_id":"ce4bhmp2rcd13ifvqgog","pricing_plan_id":"cebpf4jnsgd1na2vs0mg"},{"bike_id":"bdb8f68f-6e0b-415d-b2c5-3c5378a2a4ce","system_id":"levelo_inurba_marseille","lat":43.2407,"lon":5.37763,"is_reserved":false,"is_disabled":false,"rental_uris":{"android":"levelo://app?vid=bdb8f68f-6e0b-415d-b2c5-3c5378a2a4ce","ios":"levelo://app?vid=bdb8f68f-6e0b-415d-b2c5-3c5378a2a4ce"},"vehicle_type_id":"4","last_reported":1739801318,"current_range_meters":4800,"station_id":"ce4bhnp2rcd13ifvqgvg","pricing_plan_id":"cebpf4jnsgd1na2vs0mg"},{"bike_id":"7947cfec-43c7-4df1-bfa6-05f75e1f88fe","system_id":"levelo_inurba_marseille","lat":43.30136,"lon":5.38791,"is_reserved":false,"is_disabled":false,"rental_uris":{"android":"levelo://app?vid=7947cfec-43c7-4df1-bfa6-05f75e1f88fe","ios":"levelo://app?vid=7947cfec-43c7-4df1-bfa6-05f75e1f88fe"},"vehicle_type_id":"4","last_reported":1739801318,"current_range_meters":5600,"station_id":"ce4bhoh2rcd13ifvqh6g","pricing_plan_id":"cebpf4jnsgd1na2vs0mg"},{"bike_id":"d91e5174-ec9b-4eac-ac1c-c13c307c2853","system_id":"levelo_inurba_marseille","lat":43.25007,"lon":5.38923,"is_reserved":false,"is_disabled":false,"rental_uris":{"android":"levelo://app?vid=d91e5174-ec9b-4eac-ac1c-c13c307c2853","ios":"levelo://app?vid=d91e5174-ec9b-4eac-ac1c-c13c307c2853"},"vehicle_type_id":"4","last_reported":1739801318,"current_range_meters":6000,"station_id":"","pricing_plan_id":"cebpf4jnsgd1na2vs0mg"},{"bike_id":"f3286808-b363-406a-9268-990de55986b6","system_id":"levelo_inurba_marseille","lat":43.25491,"lon":5.3765,"is_reserved":false,"is_disabled":false,"rental_uris":{"android":"levelo://app?vid=f3286808-b363-406a-9268-990de55986b6","ios":"levelo://app?vid=f3286808-b363-406a-9268-990de55986b6"},"vehicle_type_id":"4","last_reported":1739801318,"current_range_meters":6400,"station_id":"ce4bhh12rcd13ifvqff0","pricing_plan_id":"cebpf4jnsgd1na2vs0mg"},{"bike_id":"9d67e5be-0f0c-4384-ad05-a5af54209462","system_id":"levelo_inurba_marseille","lat":43.30213,"lon":5.39473,"is_reserved":false,"is_disabled":false,"rental_uris":{"android":"levelo://app?vid=9d67e5be-0f0c-4384-ad05-a5af54209462","ios":"levelo://app?vid=9d67e5be-0f0c-4384-ad05-a5af54209462"},"vehicle_type_id":"4","last_reported":1739801318,"current_range_meters":6400,"station_id":"","pricing_plan_id":"cebpf4jnsgd1na2vs0mg"},{"bike_id":"d44236ba-71a5-47f7-b336-30d61a0779fa","system_id":"levelo_inurba_marseille","lat":43.24175,"lon":5.39736,"is_reserved":false,"is_disabled":false,"rental_uris":{"android":"levelo://app?vid=d44236ba-71a5-47f7-b336-30d61a0779fa","ios":"levelo://app?vid=d44236ba-71a5-47f7-b336-30d61a0779fa"},"vehicle_type_id":"4","last_reported":1739801318,"current_range_meters":6400,"station_id":"ce4bhn12rcd13ifvqgpg","pricing_plan_id":"cebpf4jnsgd1na2vs0mg"},{"bike_id":"6b21d320-52d0-422d-a96b-25dc166ffb72","system_id":"levelo_inurba_marseille","lat":43.30426,"lon":5.41324,"is_reserved":false,"is_disabled":true,"rental_uris":{"android":"levelo://app?vid=6b21d320-52d0-422d-a96b-25dc166ffb72","ios":"levelo://app?vid=6b21d320-52d0-422d-a96b-25dc166ffb72"},"vehicle_type_id":"4","last_reported":1739801318,"current_range_meters":6400,"station_id":"ce4bhop2rcd13ifvqh8g","pricing_plan_id":"cebpf4jnsgd1na2vs0mg"},{"bike_id":"1d6f5a5a-bf78-4d12-91e4-6dc8a2b7ed98","system_id":"levelo_inurba_marseille","lat":43.27485,"lon":5.42441,"is_reserved":false,"is_disabled":true,"rental_uris":{"android":"levelo://app?vid=1d6f5a5a-bf78-4d12-91e4-6dc8a2b7ed98","ios":"levelo://app?vid=1d6f5a5a-bf78-4d12-91e4-6dc8a2b7ed98"},"vehicle_type_id":"4","last_reported":1739801318,"current_range_meters":6800,"station_id":"ce4bhn92rcd13ifvqgrg","pricing_plan_id":"cebpf4jnsgd1na2vs0mg"},{"bike_id":"2458fec4-586e-4d1a-ba5d-71ff073f5fd6","system_id":"levelo_inurba_marseille","lat":43.302165,"lon":5.394684,"is_reserved":false,"is_disabled":false,"rental_uris":{"android":"levelo://app?vid=2458fec4-586e-4d1a-ba5d-71ff073f5fd6","ios":"levelo://app?vid=2458fec4-586e-4d1a-ba5d-71ff073f5fd6"},"vehicle_type_id":"4","last_reported":1739801318,"current_range_meters":6800,"station_id":"ce4bhh92rcd13ifvqfj0","pricing_plan_id":"cebpf4jnsgd1na2vs0mg"},{"bike_id":"b259ec2f-3a85-43df-9379-f97beaa6b6db","system_id":"levelo_inurba_marseille","lat":43.299725,"lon":5.371545,"is_reserved":false,"is_disabled":false,"rental_uris":{"android":"levelo://app?vid=b259ec2f-3a85-43df-9379-f97beaa6b6db","ios":"levelo://app?vid=b259ec2f-3a85-43df-9379-f97beaa6b6db"},"vehicle_type_id":"4","last_reported":1739801318,"current_range_meters":7200,"station_id":"","pricing_plan_id":"cebpf4jnsgd1na2vs0mg"},{"bike_id":"37b253fc-8778-433e-81f0-e2534b066e5d","system_id":"levelo_inurba_marseille","lat":43.26492,"lon":5.39543,"is_reserved":false,"is_disabled":false,"rental_uris":{"android":"levelo://app?vid=37b253fc-8778-433e-81f0-e2534b066e5d","ios":"levelo://app?vid=37b253fc-8778-433e-81f0-e2534b066e5d"},"vehicle_type_id":"4","last_reported":1739801318,"current_range_meters":7200,"station_id":"","pricing_plan_id":"cebpf4jnsgd1na2vs0mg"},{"bike_id":"96a96649-77a9-44c4-824f-d3e92f79f91f","system_id":"levelo_inurba_marseille","lat":43.2397,"lon":5.3664,"is_reserved":false,"is_disabled":false,"rental_uris":{"android":"levelo://app?vid=96a96649-77a9-44c4-824f-d3e92f79f91f","ios":"levelo://app?vid=96a96649-77a9-44c4-824f-d3e92f79f91f"},"vehicle_type_id":"4","last_reported":1739801318,"current_range_meters":7200,"station_id":"ce4bhi12rcd13ifvqfp0","pricing_plan_id":"cebpf4jnsgd1na2vs0mg"},{"bike_id":"c4916927-7d10-4eb6-bf80-df6fa900d439","system_id":"levelo_inurba_marseille","lat":43.29565,"lon":5.42273,"is_reserved":false,"is_disabled":true,"rental_uris":{"android":"levelo://app?vid=c4916927-7d10-4eb6-bf80-df6fa900d439","ios":"levelo://app?vid=c4916927-7d10-4eb6-bf80-df6fa900d439"},"vehicle_type_id":"4","last_reported":1739801318,"current_range_meters":7200,"station_id":"ce4bhph2rcd13ifvqhdg","pricing_plan_id":"cebpf4jnsgd1na2vs0mg"},{"bike_id":"ce61429a-686f-445d-80d9-4b10876ed4ef","system_id":"levelo_inurba_marseille","lat":43.337444,"lon":5.374475,"is_reserved":false,"is_disabled":true,"rental_uris":{"android":"levelo://app?vid=ce61429a-686f-445d-80d9-4b10876ed4ef","ios":"levelo://app?vid=ce61429a-686f-445d-80d9-4b10876ed4ef"},"vehicle_type_id":"4","last_reported":1739801318,"current_range_meters":7200,"station_id":"","pricing_plan_id":"cebpf4jnsgd1na2vs0mg"},{"bike_id":"eab31898-d3d3-4356-867b-a31aa919e6f7","system_id":"levelo_inurba_marseille","lat":43.27374,"lon":5.36257,"is_reserved":false,"is_disabled":false,"rental_uris":{"android":"levelo://app?vid=eab31898-d3d3-4356-867b-a31aa919e6f7","ios":"levelo://app?vid=eab31898-d3d3-4356-867b-a31aa919e6f7"},"vehicle_type_id":"4","last_reported":1739801318,"current_range_meters":7200,"station_id":"ce4bhbh2rcd13ifvqeo0","pricing_plan_id":"cebpf4jnsgd1na2vs0mg"},{"bike_id":"33a2f713-59cf-4dee-bd5e-cf5438338de0","system_id":"levelo_inurba_marseille","lat":43.30474,"lon":5.36961,"is_reserved":false,"is_disabled":false,"rental_uris":{"android":"levelo://app?vid=33a2f713-59cf-4dee-bd5e-cf5438338de0","ios":"levelo://app?vid=33a2f713-59cf-4dee-bd5e-cf5438338de0"},"vehicle_type_id":"4","last_reported":1739801318,"current_range_meters":7200,"station_id":"","pricing_plan_id":"cebpf4jnsgd1na2vs0mg"},{"bike_id":"37985d1e-58e4-447a-a26a-66e367254631","system_id":"levelo_inurba_marseille","lat":43.25005,"lon":5.38928,"is_reserved":false,"is_disabled":false,"rental_uris":{"android":"levelo://app?vid=37985d1e-58e4-447a-a26a-66e367254631","ios":"levelo://app?vid=37985d1e-58e4-447a-a26a-66e367254631"},"vehicle_type_id":"4","last_reported":1739801318,"current_range_meters":7200,"station_id":"","pricing_plan_id":"cebpf4jnsgd1na2vs0mg"},{"bike_id":"26e1d522-c3b4-416e-9512-0af8ea7b2016","system_id":"levelo_inurba_marseille","lat":43.23061,"lon":5.3549,"is_reserved":false,"is_disabled":false,"rental_uris":{"android":"levelo://app?vid=26e1d522-c3b4-416e-9512-0af8ea7b2016","ios":"levelo://app?vid=26e1d522-c3b4-416e-9512-0af8ea7b2016"},"vehicle_type_id":"4","last_reported":1739801318,"current_range_meters":8000,"station_id":"cpo3342slgdg3j2ifvpg","pricing_plan_id":"cebpf4jnsgd1na2vs0mg"},{"bike_id":"68c9ec09-efa3-42b7-9d9b-298456b6ded4","system_id":"levelo_inurba_marseille","lat":43.30463,"lon":5.3696,"is_reserved":false,"is_disabled":false,"rental_uris":{"android":"levelo://app?vid=68c9ec09-efa3-42b7-9d9b-298456b6ded4","ios":"levelo://app?vid=68c9ec09-efa3-42b7-9d9b-298456b6ded4"},"vehicle_type_id":"4","last_reported":1739801318,"current_range_meters":8000,"station_id":"","pricing_plan_id":"cebpf4jnsgd1na2vs0mg"},{"bike_id":"b141a526-1b05-4d9f-8317-0d9dc49d567c","system_id":"levelo_inurba_marseille","lat":43.27947,"lon":5.41032,"is_reserved":false,"is_disabled":false,"rental_uris":{"android":"levelo://app?vid=b141a526-1b05-4d9f-8317-0d9dc49d567c","ios":"levelo://app?vid=b141a526-1b05-4d9f-8317-0d9dc49d567c"},"vehicle_type_id":"4","last_reported":1739801318,"current_range_meters":8000,"station_id":"ce4bhnp2rcd13ifvqh0g","pricing_plan_id":"cebpf4jnsgd1na2vs0mg"},{"bike_id":"4089f1a0-cd12-42d3-a6c3-01d445970a86","system_id":"levelo_inurba_marseille","lat":43.3127,"lon":5.37405,"is_reserved":false,"is_disabled":false,"rental_uris":{"android":"levelo://app?vid=4089f1a0-cd12-42d3-a6c3-01d445970a86","ios":"levelo://app?vid=4089f1a0-cd12-42d3-a6c3-01d445970a86"},"vehicle_type_id":"4","last_reported":1739801318,"current_range_meters":8000,"station_id":"","pricing_plan_id":"cebpf4jnsgd1na2vs0mg"},{"bike_id":"67ba421b-92c9-401a-9ab8-8a3bcdce9cfb","system_id":"levelo_inurba_marseille","lat":43.26932,"lon":5.38914,"is_reserved":false,"is_disabled":false,"rental_uris":{"android":"levelo://app?vid=67ba421b-92c9-401a-9ab8-8a3bcdce9cfb","ios":"levelo://app?vid=67ba421b-92c9-401a-9ab8-8a3bcdce9cfb"},"vehicle_type_id":"4","last_reported":1739801318,"current_range_meters":8000,"station_id":"","pricing_plan_id":"cebpf4jnsgd1na2vs0mg"},{"bike_id":"3a9a968d-dcc9-4ffb-90af-aadcb8469a1d","system_id":"levelo_inurba_marseille","lat":43.32243,"lon":5.39418,"is_reserved":false,"is_disabled":false,"rental_uris":{"android":"levelo://app?vid=3a9a968d-dcc9-4ffb-90af-aadcb8469a1d","ios":"levelo://app?vid=3a9a968d-dcc9-4ffb-90af-aadcb8469a1d"},"vehicle_type_id":"4","last_reported":1739801318,"current_range_meters":8000,"station_id":"","pricing_plan_id":"cebpf4jnsgd1na2vs0mg"},{"bike_id":"2b51147d-1f92-480b-a06a-e9b8532cd66d","system_id":"levelo_inurba_marseille","lat":43.28001,"lon":5.41658,"is_reserved":false,"is_disabled":false,"rental_uris":{"android":"levelo://app?vid=2b51147d-1f92-480b-a06a-e9b8532cd66d","ios":"levelo://app?vid=2b51147d-1f92-480b-a06a-e9b8532cd66d"},"vehicle_type_id":"4","last_reported":1739801318,"current_range_meters":8000,"station_id":"ce4bho12rcd13ifvqh1g","pricing_plan_id":"cebpf4jnsgd1na2vs0mg"},{"bike_id":"09fdc3cf-3210-4300-a8eb-6c0f482ca4d0","system_id":"levelo_inurba_marseille","lat":43.29598,"lon":5.38099,"is_reserved":false,"is_disabled":true,"rental_uris":{"android":"levelo://app?vid=09fdc3cf-3210-4300-a8eb-6c0f482ca4d0","ios":"levelo://app?vid=09fdc3cf-3210-4300-a8eb-6c0f482ca4d0"},"vehicle_type_id":"4","last_reported":1739801318,"current_range_meters":8400,"station_id":"ce4bgl12rcd13ifvqbo0","pricing_plan_id":"cebpf4jnsgd1na2vs0mg"},{"bike_id":"2420c121-c082-41fe-9256-9209689167cc","system_id":"levelo_inurba_marseille","lat":43.25083,"lon":5.39515,"is_reserved":false,"is_disabled":false,"rental_uris":{"android":"levelo://app?vid=2420c121-c082-41fe-9256-9209689167cc","ios":"levelo://app?vid=2420c121-c082-41fe-9256-9209689167cc"},"vehicle_type_id":"4","last_reported":1739801318,"current_range_meters":8400,"station_id":"ce4bhm12rcd13ifvqgkg","pricing_plan_id":"cebpf4jnsgd1na2vs0mg"},{"bike_id":"81cedbb6-46f3-45e8-8f32-22e78033433a","system_id":"levelo_inurba_marseille","lat":43.27569,"lon":5.3843,"is_reserved":false,"is_disabled":false,"rental_uris":{"android":"levelo://app?vid=81cedbb6-46f3-45e8-8f32-22e78033433a","ios":"levelo://app?vid=81cedbb6-46f3-45e8-8f32-22e78033433a"},"vehicle_type_id":"4","last_reported":1739801318,"current_range_meters":8400,"station_id":"ce4bhh92rcd13ifvqfi0","pricing_plan_id":"cebpf4jnsgd1na2vs0mg"},{"bike_id":"30fe6385-92b9-4b96-9ceb-8a7e55699a18","system_id":"levelo_inurba_marseille","lat":43.29026,"lon":5.35576,"is_reserved":false,"is_disabled":false,"rental_uris":{"android":"levelo://app?vid=30fe6385-92b9-4b96-9ceb-8a7e55699a18","ios":"levelo://app?vid=30fe6385-92b9-4b96-9ceb-8a7e55699a18"},"vehicle_type_id":"4","last_reported":1739801318,"current_range_meters":8400,"station_id":"ce4bhb92rcd13ifvqen0","pricing_plan_id":"cebpf4jnsgd1na2vs0mg"},{"bike_id":"2b278cf2-594f-4230-8154-882e1df047f2","system_id":"levelo_inurba_marseille","lat":43.24087,"lon":5.37742,"is_reserved":false,"is_disabled":false,"rental_uris":{"android":"levelo://app?vid=2b278cf2-594f-4230-8154-882e1df047f2","ios":"levelo://app?vid=2b278cf2-594f-4230-8154-882e1df047f2"},"vehicle_type_id":"4","last_reported":1739801318,"current_range_meters":8400,"station_id":"ce4bhnp2rcd13ifvqgvg","pricing_plan_id":"cebpf4jnsgd1na2vs0mg"},{"bike_id":"1bf913bf-cc27-4833-ae9b-fbd75f8cb6a5","system_id":"levelo_inurba_marseille","lat":43.27072,"lon":5.42277,"is_reserved":false,"is_disabled":false,"rental_uris":{"android":"levelo://app?vid=1bf913bf-cc27-4833-ae9b-fbd75f8cb6a5","ios":"levelo://app?vid=1bf913bf-cc27-4833-ae9b-fbd75f8cb6a5"},"vehicle_type_id":"4","last_reported":1739801318,"current_range_meters":8400,"station_id":"ce4bhk92rcd13ifvqgb0","pricing_plan_id":"cebpf4jnsgd1na2vs0mg"},{"bike_id":"1028d825-a809-400b-a433-b2f52b266986","system_id":"levelo_inurba_marseille","lat":43.30936,"lon":5.37921,"is_reserved":false,"is_disabled":false,"rental_uris":{"android":"levelo://app?vid=1028d825-a809-400b-a433-b2f52b266986","ios":"levelo://app?vid=1028d825-a809-400b-a433-b2f52b266986"},"vehicle_type_id":"4","last_reported":1739801318,"current_range_meters":8400,"station_id":"","pricing_plan_id":"cebpf4jnsgd1na2vs0mg"},{"bike_id":"249925dc-9855-44a5-b66b-23a8629209a2","system_id":"levelo_inurba_marseille","lat":43.27952,"lon":5.41029,"is_reserved":false,"is_disabled":false,"rental_uris":{"android":"levelo://app?vid=249925dc-9855-44a5-b66b-23a8629209a2","ios":"levelo://app?vid=249925dc-9855-44a5-b66b-23a8629209a2"},"vehicle_type_id":"4","last_reported":1739801318,"current_range_meters":8800,"station_id":"ce4bhnp2rcd13ifvqh0g","pricing_plan_id":"cebpf4jnsgd1na2vs0mg"},{"bike_id":"9f72b035-42cd-4ed2-9def-93c83a040988","system_id":"levelo_inurba_marseille","lat":43.2408,"lon":5.3775,"is_reserved":false,"is_disabled":false,"rental_uris":{"android":"levelo://app?vid=9f72b035-42cd-4ed2-9def-93c83a040988","ios":"levelo://app?vid=9f72b035-42cd-4ed2-9def-93c83a040988"},"vehicle_type_id":"4","last_reported":1739801318,"current_range_meters":8800,"station_id":"ce4bhnp2rcd13ifvqgvg","pricing_plan_id":"cebpf4jnsgd1na2vs0mg"},{"bike_id":"ce7eb203-df1a-4323-a126-50fb5e9416e8","system_id":"levelo_inurba_marseille","lat":43.25013,"lon":5.38928,"is_reserved":false,"is_disabled":false,"rental_uris":{"android":"levelo://app?vid=ce7eb203-df1a-4323-a126-50fb5e9416e8","ios":"levelo://app?vid=ce7eb203-df1a-4323-a126-50fb5e9416e8"},"vehicle_type_id":"4","last_reported":1739801318,"current_range_meters":9200,"station_id":"ce4bhgp2rcd13ifvqfd0","pricing_plan_id":"cebpf4jnsgd1na2vs0mg"},{"bike_id":"61d21a7f-e930-499d-84bd-f3a8dea6e79b","system_id":"levelo_inurba_marseille","lat":43.24656,"lon":5.38883,"is_reserved":false,"is_disabled":false,"rental_uris":{"android":"levelo://app?vid=61d21a7f-e930-499d-84bd-f3a8dea6e79b","ios":"levelo://app?vid=61d21a7f-e930-499d-84bd-f3a8dea6e79b"},"vehicle_type_id":"4","last_reported":1739801318,"current_range_meters":9200,"station_id":"ce4bhg12rcd13ifvqf60","pricing_plan_id":"cebpf4jnsgd1na2vs0mg"},{"bike_id":"33b2f53e-b70b-4755-a9bd-161272f15b89","system_id":"levelo_inurba_marseille","lat":43.29637,"lon":5.37986,"is_reserved":false,"is_disabled":false,"rental_uris":{"android":"levelo://app?vid=33b2f53e-b70b-4755-a9bd-161272f15b89","ios":"levelo://app?vid=33b2f53e-b70b-4755-a9bd-161272f15b89"},"vehicle_type_id":"4","last_reported":1739801318,"current_range_meters":9200,"station_id":"","pricing_plan_id":"cebpf4jnsgd1na2vs0mg"},{"bike_id":"a1c81209-9637-4c0d-b61c-bb95f8bec12f","system_id":"levelo_inurba_marseille","lat":43.28006,"lon":5.400041,"is_reserved":false,"is_disabled":false,"rental_uris":{"android":"levelo://app?vid=a1c81209-9637-4c0d-b61c-bb95f8bec12f","ios":"levelo://app?vid=a1c81209-9637-4c0d-b61c-bb95f8bec12f"},"vehicle_type_id":"4","last_reported":1739801318,"current_range_meters":9200,"station_id":"ce4bho92rcd13ifvqh4g","pricing_plan_id":"cebpf4jnsgd1na2vs0mg"},{"bike_id":"8ed4f90e-e247-45c7-82a3-86ba1a83ee22","system_id":"levelo_inurba_marseille","lat":43.28145,"lon":5.42641,"is_reserved":false,"is_disabled":false,"rental_uris":{"android":"levelo://app?vid=8ed4f90e-e247-45c7-82a3-86ba1a83ee22","ios":"levelo://app?vid=8ed4f90e-e247-45c7-82a3-86ba1a83ee22"},"vehicle_type_id":"4","last_reported":1739801318,"current_range_meters":9600,"station_id":"","pricing_plan_id":"cebpf4jnsgd1na2vs0mg"},{"bike_id":"93cfa947-fe17-4dab-ad2d-b62d32402ea7","system_id":"levelo_inurba_marseille","lat":43.26681,"lon":5.38268,"is_reserved":false,"is_disabled":false,"rental_uris":{"android":"levelo://app?vid=93cfa947-fe17-4dab-ad2d-b62d32402ea7","ios":"levelo://app?vid=93cfa947-fe17-4dab-ad2d-b62d32402ea7"},"vehicle_type_id":"4","last_reported":1739801318,"current_range_meters":9600,"station_id":"ce4bhg92rcd13ifvqf90","pricing_plan_id":"cebpf4jnsgd1na2vs0mg"},{"bike_id":"71af5cb3-17fa-4fc8-a8ea-f2c475db18c6","system_id":"levelo_inurba_marseille","lat":43.29944,"lon":5.36521,"is_reserved":false,"is_disabled":false,"rental_uris":{"android":"levelo://app?vid=71af5cb3-17fa-4fc8-a8ea-f2c475db18c6","ios":"levelo://app?vid=71af5cb3-17fa-4fc8-a8ea-f2c475db18c6"},"vehicle_type_id":"4","last_reported":1739801318,"current_range_meters":9600,"station_id":"ce4bgm92rcd13ifvqbr0","pricing_plan_id":"cebpf4jnsgd1na2vs0mg"},{"bike_id":"8a49e737-2dba-437e-b0e4-c61d64b4fa11","system_id":"levelo_inurba_marseille","lat":43.24546,"lon":5.3952,"is_reserved":false,"is_disabled":false,"rental_uris":{"android":"levelo://app?vid=8a49e737-2dba-437e-b0e4-c61d64b4fa11","ios":"levelo://app?vid=8a49e737-2dba-437e-b0e4-c61d64b4fa11"},"vehicle_type_id":"4","last_reported":1739801318,"current_range_meters":9600,"station_id":"ce4bhlp2rcd13ifvqgjg","pricing_plan_id":"cebpf4jnsgd1na2vs0mg"},{"bike_id":"59ded7b0-a8b6-4def-9cfa-7f57bb4128d1","system_id":"levelo_inurba_marseille","lat":43.28732,"lon":5.36092,"is_reserved":false,"is_disabled":false,"rental_uris":{"android":"levelo://app?vid=59ded7b0-a8b6-4def-9cfa-7f57bb4128d1","ios":"levelo://app?vid=59ded7b0-a8b6-4def-9cfa-7f57bb4128d1"},"vehicle_type_id":"4","last_reported":1739801318,"current_range_meters":9600,"station_id":"cki0cbj6b192h4jlfktg","pricing_plan_id":"cebpf4jnsgd1na2vs0mg"},{"bike_id":"65a36bf8-d927-443e-bdd7-b23e6c691214","system_id":"levelo_inurba_marseille","lat":43.24179,"lon":5.39734,"is_reserved":false,"is_disabled":false,"rental_uris":{"android":"levelo://app?vid=65a36bf8-d927-443e-bdd7-b23e6c691214","ios":"levelo://app?vid=65a36bf8-d927-443e-bdd7-b23e6c691214"},"vehicle_type_id":"4","last_reported":1739801318,"current_range_meters":9600,"station_id":"ce4bhn12rcd13ifvqgpg","pricing_plan_id":"cebpf4jnsgd1na2vs0mg"},{"bike_id":"483449cd-31b3-4ec2-a842-2a81f5aafb0a","system_id":"levelo_inurba_marseille","lat":43.33725,"lon":5.39181,"is_reserved":false,"is_disabled":false,"rental_uris":{"android":"levelo://app?vid=483449cd-31b3-4ec2-a842-2a81f5aafb0a","ios":"levelo://app?vid=483449cd-31b3-4ec2-a842-2a81f5aafb0a"},"vehicle_type_id":"4","last_reported":1739801318,"current_range_meters":9600,"station_id":"ce4bhr92rcd13ifvqhsg","pricing_plan_id":"cebpf4jnsgd1na2vs0mg"},{"bike_id":"d57030fe-8441-4952-a7f7-3f1cbb5aef84","system_id":"levelo_inurba_marseille","lat":43.26498,"lon":5.39545,"is_reserved":false,"is_disabled":false,"rental_uris":{"android":"levelo://app?vid=d57030fe-8441-4952-a7f7-3f1cbb5aef84","ios":"levelo://app?vid=d57030fe-8441-4952-a7f7-3f1cbb5aef84"},"vehicle_type_id":"4","last_reported":1739801318,"current_range_meters":10000,"station_id":"ce4bhi12rcd13ifvqfq0","pricing_plan_id":"cebpf4jnsgd1na2vs0mg"},{"bike_id":"a4486009-14b3-42a6-92a6-1cbb06bda8c4","system_id":"levelo_inurba_marseille","lat":43.304587,"lon":5.379195,"is_reserved":false,"is_disabled":false,"rental_uris":{"android":"levelo://app?vid=a4486009-14b3-42a6-92a6-1cbb06bda8c4","ios":"levelo://app?vid=a4486009-14b3-42a6-92a6-1cbb06bda8c4"},"vehicle_type_id":"4","last_reported":1739801318,"current_range_meters":10000,"station_id":"ce4bh692rcd13ifvqea0","pricing_plan_id":"cebpf4jnsgd1na2vs0mg"},{"bike_id":"11e9dbf6-50d3-4e95-af90-70ada63aae91","system_id":"levelo_inurba_marseille","lat":43.24181,"lon":5.39728,"is_reserved":false,"is_disabled":false,"rental_uris":{"android":"levelo://app?vid=11e9dbf6-50d3-4e95-af90-70ada63aae91","ios":"levelo://app?vid=11e9dbf6-50d3-4e95-af90-70ada63aae91"},"vehicle_type_id":"4","last_reported":1739801318,"current_range_meters":10000,"station_id":"","pricing_plan_id":"cebpf4jnsgd1na2vs0mg"},{"bike_id":"79baadc6-b935-4835-af62-c2f0575558d0","system_id":"levelo_inurba_marseille","lat":43.28941,"lon":5.36639,"is_reserved":false,"is_disabled":false,"rental_uris":{"android":"levelo://app?vid=79baadc6-b935-4835-af62-c2f0575558d0","ios":"levelo://app?vid=79baadc6-b935-4835-af62-c2f0575558d0"},"vehicle_type_id":"4","last_reported":1739801318,"current_range_meters":10000,"station_id":"ce4bhap2rcd13ifvqek0","pricing_plan_id":"cebpf4jnsgd1na2vs0mg"},{"bike_id":"2c9700ea-057b-4786-a86f-c93de6d53138","system_id":"levelo_inurba_marseille","lat":43.27089,"lon":5.40425,"is_reserved":false,"is_disabled":false,"rental_uris":{"android":"levelo://app?vid=2c9700ea-057b-4786-a86f-c93de6d53138","ios":"levelo://app?vid=2c9700ea-057b-4786-a86f-c93de6d53138"},"vehicle_type_id":"4","last_reported":1739801318,"current_range_meters":10000,"station_id":"","pricing_plan_id":"cebpf4jnsgd1na2vs0mg"},{"bike_id":"daac048e-560f-4ac4-8253-f428b1e4a640","system_id":"levelo_inurba_marseille","lat":43.24168,"lon":5.3974,"is_reserved":false,"is_disabled":false,"rental_uris":{"android":"levelo://app?vid=daac048e-560f-4ac4-8253-f428b1e4a640","ios":"levelo://app?vid=daac048e-560f-4ac4-8253-f428b1e4a640"},"vehicle_type_id":"4","last_reported":1739801318,"current_range_meters":10000,"station_id":"ce4bhn12rcd13ifvqgpg","pricing_plan_id":"cebpf4jnsgd1na2vs0mg"},{"bike_id":"09d8e7e3-4c41-44b3-abcb-31b4b4a1dfae","system_id":"levelo_inurba_marseille","lat":43.25006,"lon":5.3893,"is_reserved":false,"is_disabled":false,"rental_uris":{"android":"levelo://app?vid=09d8e7e3-4c41-44b3-abcb-31b4b4a1dfae","ios":"levelo://app?vid=09d8e7e3-4c41-44b3-abcb-31b4b4a1dfae"},"vehicle_type_id":"4","last_reported":1739801318,"current_range_meters":10000,"station_id":"ce4bhgp2rcd13ifvqfd0","pricing_plan_id":"cebpf4jnsgd1na2vs0mg"},{"bike_id":"79f62c9d-1f7b-4919-b99c-b3088be87c66","system_id":"levelo_inurba_marseille","lat":43.250021,"lon":5.389374,"is_reserved":false,"is_disabled":false,"rental_uris":{"android":"levelo://app?vid=79f62c9d-1f7b-4919-b99c-b3088be87c66","ios":"levelo://app?vid=79f62c9d-1f7b-4919-b99c-b3088be87c66"},"vehicle_type_id":"4","last_reported":1739801318,"current_range_meters":10000,"station_id":"ce4bhgp2rcd13ifvqfd0","pricing_plan_id":"cebpf4jnsgd1na2vs0mg"},{"bike_id":"506e9171-84b0-4415-9193-58b19ec236bb","system_id":"levelo_inurba_marseille","lat":43.28271,"lon":5.35074,"is_reserved":false,"is_disabled":false,"rental_uris":{"android":"levelo://app?vid=506e9171-84b0-4415-9193-58b19ec236bb","ios":"levelo://app?vid=506e9171-84b0-4415-9193-58b19ec236bb"},"vehicle_type_id":"4","last_reported":1739801318,"current_range_meters":10000,"station_id":"ce4bhbp2rcd13ifvqerg","pricing_plan_id":"cebpf4jnsgd1na2vs0mg"},{"bike_id":"2c303c15-f20b-492c-bbda-11ff7cfc4235","system_id":"levelo_inurba_marseille","lat":43.296407,"lon":5.4058,"is_reserved":false,"is_disabled":false,"rental_uris":{"android":"levelo://app?vid=2c303c15-f20b-492c-bbda-11ff7cfc4235","ios":"levelo://app?vid=2c303c15-f20b-492c-bbda-11ff7cfc4235"},"vehicle_type_id":"4","last_reported":1739801318,"current_range_meters":9600,"station_id":"ce4bh0h2rcd13ifvqd60","pricing_plan_id":"cebpf4jnsgd1na2vs0mg"},{"bike_id":"c08ef8fc-eadc-4048-836f-8df24dd9f463","system_id":"levelo_inurba_marseille","lat":43.29005,"lon":5.35616,"is_reserved":false,"is_disabled":false,"rental_uris":{"android":"levelo://app?vid=c08ef8fc-eadc-4048-836f-8df24dd9f463","ios":"levelo://app?vid=c08ef8fc-eadc-4048-836f-8df24dd9f463"},"vehicle_type_id":"4","last_reported":1739801318,"current_range_meters":10000,"station_id":"ce4bhb92rcd13ifvqen0","pricing_plan_id":"cebpf4jnsgd1na2vs0mg"},{"bike_id":"9a86aff9-d852-4512-b047-433feac4afd8","system_id":"levelo_inurba_marseille","lat":43.31256,"lon":5.36667,"is_reserved":false,"is_disabled":false,"rental_uris":{"android":"levelo://app?vid=9a86aff9-d852-4512-b047-433feac4afd8","ios":"levelo://app?vid=9a86aff9-d852-4512-b047-433feac4afd8"},"vehicle_type_id":"4","last_reported":1739801318,"current_range_meters":10800,"station_id":"","pricing_plan_id":"cebpf4jnsgd1na2vs0mg"},{"bike_id":"f49d96af-5630-4761-a17e-ea2e12354d6b","system_id":"levelo_inurba_marseille","lat":43.31134,"lon":5.38313,"is_reserved":false,"is_disabled":true,"rental_uris":{"android":"levelo://app?vid=f49d96af-5630-4761-a17e-ea2e12354d6b","ios":"levelo://app?vid=f49d96af-5630-4761-a17e-ea2e12354d6b"},"vehicle_type_id":"4","last_reported":1739801318,"current_range_meters":10800,"station_id":"","pricing_plan_id":"cebpf4jnsgd1na2vs0mg"},{"bike_id":"d987532f-bafe-447e-92c6-1ad2da2cc856","system_id":"levelo_inurba_marseille","lat":43.23144,"lon":5.4371,"is_reserved":false,"is_disabled":false,"rental_uris":{"android":"levelo://app?vid=d987532f-bafe-447e-92c6-1ad2da2cc856","ios":"levelo://app?vid=d987532f-bafe-447e-92c6-1ad2da2cc856"},"vehicle_type_id":"4","last_reported":1739801318,"current_range_meters":10800,"station_id":"ce4bhmp2rcd13ifvqgog","pricing_plan_id":"cebpf4jnsgd1na2vs0mg"},{"bike_id":"be07b206-3a2e-4564-acfe-4b10ae764754","system_id":"levelo_inurba_marseille","lat":43.27207,"lon":5.39192,"is_reserved":false,"is_disabled":false,"rental_uris":{"android":"levelo://app?vid=be07b206-3a2e-4564-acfe-4b10ae764754","ios":"levelo://app?vid=be07b206-3a2e-4564-acfe-4b10ae764754"},"vehicle_type_id":"4","last_reported":1739801318,"current_range_meters":10800,"station_id":"ce4bhhp2rcd13ifvqfm0","pricing_plan_id":"cebpf4jnsgd1na2vs0mg"},{"bike_id":"98dafedc-f25b-409d-b3e2-803b47ffb900","system_id":"levelo_inurba_marseille","lat":43.24494,"lon":5.37255,"is_reserved":false,"is_disabled":false,"rental_uris":{"android":"levelo://app?vid=98dafedc-f25b-409d-b3e2-803b47ffb900","ios":"levelo://app?vid=98dafedc-f25b-409d-b3e2-803b47ffb900"},"vehicle_type_id":"4","last_reported":1739801318,"current_range_meters":10800,"station_id":"","pricing_plan_id":"cebpf4jnsgd1na2vs0mg"},{"bike_id":"cbb05c08-1d05-478f-8ff8-33b00dfab58f","system_id":"levelo_inurba_marseille","lat":43.29008,"lon":5.35613,"is_reserved":false,"is_disabled":false,"rental_uris":{"android":"levelo://app?vid=cbb05c08-1d05-478f-8ff8-33b00dfab58f","ios":"levelo://app?vid=cbb05c08-1d05-478f-8ff8-33b00dfab58f"},"vehicle_type_id":"4","last_reported":1739801318,"current_range_meters":11200,"station_id":"ce4bhb92rcd13ifvqen0","pricing_plan_id":"cebpf4jnsgd1na2vs0mg"},{"bike_id":"5ee6a1ba-03c0-4a44-9aa8-e9c6d0c2d63a","system_id":"levelo_inurba_marseille","lat":43.28156,"lon":5.42655,"is_reserved":false,"is_disabled":false,"rental_uris":{"android":"levelo://app?vid=5ee6a1ba-03c0-4a44-9aa8-e9c6d0c2d63a","ios":"levelo://app?vid=5ee6a1ba-03c0-4a44-9aa8-e9c6d0c2d63a"},"vehicle_type_id":"4","last_reported":1739801318,"current_range_meters":11200,"station_id":"ce4bhnh2rcd13ifvqgug","pricing_plan_id":"cebpf4jnsgd1na2vs0mg"},{"bike_id":"adc9866e-bdcc-41b3-aaa3-a381c4de181f","system_id":"levelo_inurba_marseille","lat":43.23072,"lon":5.35482,"is_reserved":false,"is_disabled":false,"rental_uris":{"android":"levelo://app?vid=adc9866e-bdcc-41b3-aaa3-a381c4de181f","ios":"levelo://app?vid=adc9866e-bdcc-41b3-aaa3-a381c4de181f"},"vehicle_type_id":"4","last_reported":1739801318,"current_range_meters":11200,"station_id":"","pricing_plan_id":"cebpf4jnsgd1na2vs0mg"},{"bike_id":"f3af8f83-a92b-482c-bd5a-ab58262448c7","system_id":"levelo_inurba_marseille","lat":43.28603,"lon":5.37063,"is_reserved":false,"is_disabled":false,"rental_uris":{"android":"levelo://app?vid=f3af8f83-a92b-482c-bd5a-ab58262448c7","ios":"levelo://app?vid=f3af8f83-a92b-482c-bd5a-ab58262448c7"},"vehicle_type_id":"4","last_reported":1739801318,"current_range_meters":11200,"station_id":"ce4bht12rcd13ifvqi60","pricing_plan_id":"cebpf4jnsgd1na2vs0mg"},{"bike_id":"7c7c0f20-4ebe-4ae9-a466-5bcf5fc08c06","system_id":"levelo_inurba_marseille","lat":43.2919,"lon":5.35728,"is_reserved":false,"is_disabled":true,"rental_uris":{"android":"levelo://app?vid=7c7c0f20-4ebe-4ae9-a466-5bcf5fc08c06","ios":"levelo://app?vid=7c7c0f20-4ebe-4ae9-a466-5bcf5fc08c06"},"vehicle_type_id":"4","last_reported":1739801318,"current_range_meters":11200,"station_id":"","pricing_plan_id":"cebpf4jnsgd1na2vs0mg"},{"bike_id":"f6765e77-c877-4a50-b1d3-054ccbe3491c","system_id":"levelo_inurba_marseille","lat":43.28273,"lon":5.35066,"is_reserved":false,"is_disabled":false,"rental_uris":{"android":"levelo://app?vid=f6765e77-c877-4a50-b1d3-054ccbe3491c","ios":"levelo://app?vid=f6765e77-c877-4a50-b1d3-054ccbe3491c"},"vehicle_type_id":"4","last_reported":1739801318,"current_range_meters":11600,"station_id":"","pricing_plan_id":"cebpf4jnsgd1na2vs0mg"},{"bike_id":"c36989a5-cdfa-4538-b1a5-6c66eaf692e4","system_id":"levelo_inurba_marseille","lat":43.29958,"lon":5.41317,"is_reserved":false,"is_disabled":false,"rental_uris":{"android":"levelo://app?vid=c36989a5-cdfa-4538-b1a5-6c66eaf692e4","ios":"levelo://app?vid=c36989a5-cdfa-4538-b1a5-6c66eaf692e4"},"vehicle_type_id":"4","last_reported":1739801318,"current_range_meters":11600,"station_id":"ce4bhp12rcd13ifvqh9g","pricing_plan_id":"cebpf4jnsgd1na2vs0mg"},{"bike_id":"84ec75b2-ffa6-4a41-aa45-280c675dbabc","system_id":"levelo_inurba_marseille","lat":43.29267,"lon":5.40139,"is_reserved":false,"is_disabled":false,"rental_uris":{"android":"levelo://app?vid=84ec75b2-ffa6-4a41-aa45-280c675dbabc","ios":"levelo://app?vid=84ec75b2-ffa6-4a41-aa45-280c675dbabc"},"vehicle_type_id":"4","last_reported":1739801318,"current_range_meters":11600,"station_id":"ce4bh312rcd13ifvqdk0","pricing_plan_id":"cebpf4jnsgd1na2vs0mg"},{"bike_id":"63213ce8-ab3b-490e-8b8e-c1a55a68b2ca","system_id":"levelo_inurba_marseille","lat":43.2951,"lon":5.38198,"is_reserved":false,"is_disabled":true,"rental_uris":{"android":"levelo://app?vid=63213ce8-ab3b-490e-8b8e-c1a55a68b2ca","ios":"levelo://app?vid=63213ce8-ab3b-490e-8b8e-c1a55a68b2ca"},"vehicle_type_id":"4","last_reported":1739801318,"current_range_meters":11600,"station_id":"","pricing_plan_id":"cebpf4jnsgd1na2vs0mg"},{"bike_id":"70bfa592-28ae-4e73-b151-53f8aa2598c8","system_id":"levelo_inurba_marseille","lat":43.307822,"lon":5.381624,"is_reserved":false,"is_disabled":false,"rental_uris":{"android":"levelo://app?vid=70bfa592-28ae-4e73-b151-53f8aa2598c8","ios":"levelo://app?vid=70bfa592-28ae-4e73-b151-53f8aa2598c8"},"vehicle_type_id":"4","last_reported":1739801318,"current_range_meters":12000,"station_id":"ce4bgv92rcd13ifvqcr0","pricing_plan_id":"cebpf4jnsgd1na2vs0mg"},{"bike_id":"f24826f6-3623-4502-8662-9b349cbb305a","system_id":"levelo_inurba_marseille","lat":43.26562,"lon":5.3728,"is_reserved":false,"is_disabled":false,"rental_uris":{"android":"levelo://app?vid=f24826f6-3623-4502-8662-9b349cbb305a","ios":"levelo://app?vid=f24826f6-3623-4502-8662-9b349cbb305a"},"vehicle_type_id":"4","last_reported":1739801318,"current_range_meters":12400,"station_id":"ce4bhg12rcd13ifvqf70","pricing_plan_id":"cebpf4jnsgd1na2vs0mg"},{"bike_id":"cb8372d6-bad2-4555-89ad-5b495afb0b59","system_id":"levelo_inurba_marseille","lat":43.24813,"lon":5.37464,"is_reserved":false,"is_disabled":false,"rental_uris":{"android":"levelo://app?vid=cb8372d6-bad2-4555-89ad-5b495afb0b59","ios":"levelo://app?vid=cb8372d6-bad2-4555-89ad-5b495afb0b59"},"vehicle_type_id":"4","last_reported":1739801318,"current_range_meters":12400,"station_id":"ce4bhgh2rcd13ifvqfb0","pricing_plan_id":"cebpf4jnsgd1na2vs0mg"},{"bike_id":"8f9e8329-57e0-4c28-8199-1caa70c47efc","system_id":"levelo_inurba_marseille","lat":43.28601,"lon":5.37074,"is_reserved":false,"is_disabled":false,"rental_uris":{"android":"levelo://app?vid=8f9e8329-57e0-4c28-8199-1caa70c47efc","ios":"levelo://app?vid=8f9e8329-57e0-4c28-8199-1caa70c47efc"},"vehicle_type_id":"4","last_reported":1739801318,"current_range_meters":12400,"station_id":"ce4bht12rcd13ifvqi60","pricing_plan_id":"cebpf4jnsgd1na2vs0mg"},{"bike_id":"4485b41d-8ad5-481d-8c6e-243d5823c9cc","system_id":"levelo_inurba_marseille","lat":43.25039,"lon":5.38895,"is_reserved":false,"is_disabled":false,"rental_uris":{"android":"levelo://app?vid=4485b41d-8ad5-481d-8c6e-243d5823c9cc","ios":"levelo://app?vid=4485b41d-8ad5-481d-8c6e-243d5823c9cc"},"vehicle_type_id":"4","last_reported":1739801318,"current_range_meters":12400,"station_id":"ce4bhgp2rcd13ifvqfd0","pricing_plan_id":"cebpf4jnsgd1na2vs0mg"},{"bike_id":"2557666a-4e07-468e-a5ca-a54402392ad4","system_id":"levelo_inurba_marseille","lat":43.30312,"lon":5.39208,"is_reserved":false,"is_disabled":false,"rental_uris":{"android":"levelo://app?vid=2557666a-4e07-468e-a5ca-a54402392ad4","ios":"levelo://app?vid=2557666a-4e07-468e-a5ca-a54402392ad4"},"vehicle_type_id":"4","last_reported":1739801318,"current_range_meters":12400,"station_id":"ce4bgkh2rcd13ifvqbk0","pricing_plan_id":"cebpf4jnsgd1na2vs0mg"},{"bike_id":"f5336d63-2bf5-49bb-9c74-334fdd123f19","system_id":"levelo_inurba_marseille","lat":43.241791,"lon":5.397308,"is_reserved":false,"is_disabled":false,"rental_uris":{"android":"levelo://app?vid=f5336d63-2bf5-49bb-9c74-334fdd123f19","ios":"levelo://app?vid=f5336d63-2bf5-49bb-9c74-334fdd123f19"},"vehicle_type_id":"4","last_reported":1739801318,"current_range_meters":12400,"station_id":"ce4bgr92rcd13ifvqc7g","pricing_plan_id":"cebpf4jnsgd1na2vs0mg"},{"bike_id":"81e45bb9-7de5-40d3-b855-4945c50a65b6","system_id":"levelo_inurba_marseille","lat":43.29579,"lon":5.36743,"is_reserved":false,"is_disabled":false,"rental_uris":{"android":"levelo://app?vid=81e45bb9-7de5-40d3-b855-4945c50a65b6","ios":"levelo://app?vid=81e45bb9-7de5-40d3-b855-4945c50a65b6"},"vehicle_type_id":"4","last_reported":1739801318,"current_range_meters":12800,"station_id":"","pricing_plan_id":"cebpf4jnsgd1na2vs0mg"},{"bike_id":"cdf6aff9-9bff-4b13-85c5-00ba96ee89f0","system_id":"levelo_inurba_marseille","lat":43.28269,"lon":5.3507,"is_reserved":false,"is_disabled":false,"rental_uris":{"android":"levelo://app?vid=cdf6aff9-9bff-4b13-85c5-00ba96ee89f0","ios":"levelo://app?vid=cdf6aff9-9bff-4b13-85c5-00ba96ee89f0"},"vehicle_type_id":"4","last_reported":1739801318,"current_range_meters":12800,"station_id":"","pricing_plan_id":"cebpf4jnsgd1na2vs0mg"},{"bike_id":"085f975e-f80f-40c8-8c97-4c4e0a22eba2","system_id":"levelo_inurba_marseille","lat":43.23968,"lon":5.36627,"is_reserved":false,"is_disabled":false,"rental_uris":{"android":"levelo://app?vid=085f975e-f80f-40c8-8c97-4c4e0a22eba2","ios":"levelo://app?vid=085f975e-f80f-40c8-8c97-4c4e0a22eba2"},"vehicle_type_id":"4","last_reported":1739801318,"current_range_meters":12800,"station_id":"ce4bhi12rcd13ifvqfp0","pricing_plan_id":"cebpf4jnsgd1na2vs0mg"},{"bike_id":"b87258ce-6f3a-4a8b-88fa-fc379934b70c","system_id":"levelo_inurba_marseille","lat":43.241727,"lon":5.397233,"is_reserved":false,"is_disabled":false,"rental_uris":{"android":"levelo://app?vid=b87258ce-6f3a-4a8b-88fa-fc379934b70c","ios":"levelo://app?vid=b87258ce-6f3a-4a8b-88fa-fc379934b70c"},"vehicle_type_id":"4","last_reported":1739801318,"current_range_meters":12800,"station_id":"ce4bhn12rcd13ifvqgpg","pricing_plan_id":"cebpf4jnsgd1na2vs0mg"},{"bike_id":"738363d1-b6c6-47e0-b82f-58a05611f737","system_id":"levelo_inurba_marseille","lat":43.28152,"lon":5.42649,"is_reserved":false,"is_disabled":false,"rental_uris":{"android":"levelo://app?vid=738363d1-b6c6-47e0-b82f-58a05611f737","ios":"levelo://app?vid=738363d1-b6c6-47e0-b82f-58a05611f737"},"vehicle_type_id":"4","last_reported":1739801318,"current_range_meters":12800,"station_id":"","pricing_plan_id":"cebpf4jnsgd1na2vs0mg"},{"bike_id":"6528e792-6c2b-41ab-b102-37d30001a0e7","system_id":"levelo_inurba_marseille","lat":43.27231,"lon":5.40049,"is_reserved":false,"is_disabled":false,"rental_uris":{"android":"levelo://app?vid=6528e792-6c2b-41ab-b102-37d30001a0e7","ios":"levelo://app?vid=6528e792-6c2b-41ab-b102-37d30001a0e7"},"vehicle_type_id":"4","last_reported":1739801318,"current_range_meters":13600,"station_id":"","pricing_plan_id":"cebpf4jnsgd1na2vs0mg"},{"bike_id":"49cadee9-38b9-48b7-a227-083b366802fc","system_id":"levelo_inurba_marseille","lat":43.24549,"lon":5.39527,"is_reserved":false,"is_disabled":false,"rental_uris":{"android":"levelo://app?vid=49cadee9-38b9-48b7-a227-083b366802fc","ios":"levelo://app?vid=49cadee9-38b9-48b7-a227-083b366802fc"},"vehicle_type_id":"4","last_reported":1739801318,"current_range_meters":13600,"station_id":"ce4bhlp2rcd13ifvqgjg","pricing_plan_id":"cebpf4jnsgd1na2vs0mg"},{"bike_id":"cafdaaa9-f913-4ecf-bf54-af3a1bd50499","system_id":"levelo_inurba_marseille","lat":43.30149,"lon":5.38772,"is_reserved":false,"is_disabled":true,"rental_uris":{"android":"levelo://app?vid=cafdaaa9-f913-4ecf-bf54-af3a1bd50499","ios":"levelo://app?vid=cafdaaa9-f913-4ecf-bf54-af3a1bd50499"},"vehicle_type_id":"4","last_reported":1739801318,"current_range_meters":13600,"station_id":"ce4bghh2rcd13ifvqb60","pricing_plan_id":"cebpf4jnsgd1na2vs0mg"},{"bike_id":"4db24d20-69f6-4233-a2e8-8cb1460f43bf","system_id":"levelo_inurba_marseille","lat":43.25868,"lon":5.39907,"is_reserved":false,"is_disabled":false,"rental_uris":{"android":"levelo://app?vid=4db24d20-69f6-4233-a2e8-8cb1460f43bf","ios":"levelo://app?vid=4db24d20-69f6-4233-a2e8-8cb1460f43bf"},"vehicle_type_id":"4","last_reported":1739801318,"current_range_meters":13600,"station_id":"ce4bhl92rcd13ifvqghg","pricing_plan_id":"cebpf4jnsgd1na2vs0mg"},{"bike_id":"9beb99fa-247c-4be4-994c-ad481a4bc4b6","system_id":"levelo_inurba_marseille","lat":43.23155,"lon":5.43709,"is_reserved":false,"is_disabled":false,"rental_uris":{"android":"levelo://app?vid=9beb99fa-247c-4be4-994c-ad481a4bc4b6","ios":"levelo://app?vid=9beb99fa-247c-4be4-994c-ad481a4bc4b6"},"vehicle_type_id":"4","last_reported":1739801318,"current_range_meters":13600,"station_id":"ce4bhmp2rcd13ifvqgog","pricing_plan_id":"cebpf4jnsgd1na2vs0mg"},{"bike_id":"5d0532ad-5705-4146-8853-eb6d1d5664b6","system_id":"levelo_inurba_marseille","lat":43.29622,"lon":5.37715,"is_reserved":false,"is_disabled":false,"rental_uris":{"android":"levelo://app?vid=5d0532ad-5705-4146-8853-eb6d1d5664b6","ios":"levelo://app?vid=5d0532ad-5705-4146-8853-eb6d1d5664b6"},"vehicle_type_id":"4","last_reported":1739801318,"current_range_meters":13600,"station_id":"","pricing_plan_id":"cebpf4jnsgd1na2vs0mg"},{"bike_id":"9b440944-d94f-4a42-9db6-0945ff72e764","system_id":"levelo_inurba_marseille","lat":43.23964,"lon":5.3663,"is_reserved":false,"is_disabled":false,"rental_uris":{"android":"levelo://app?vid=9b440944-d94f-4a42-9db6-0945ff72e764","ios":"levelo://app?vid=9b440944-d94f-4a42-9db6-0945ff72e764"},"vehicle_type_id":"4","last_reported":1739801318,"current_range_meters":14000,"station_id":"ce4bhi12rcd13ifvqfp0","pricing_plan_id":"cebpf4jnsgd1na2vs0mg"},{"bike_id":"4e2b468f-8f4a-4d73-8517-62fa28d3fb4c","system_id":"levelo_inurba_marseille","lat":43.24821,"lon":5.37447,"is_reserved":false,"is_disabled":false,"rental_uris":{"android":"levelo://app?vid=4e2b468f-8f4a-4d73-8517-62fa28d3fb4c","ios":"levelo://app?vid=4e2b468f-8f4a-4d73-8517-62fa28d3fb4c"},"vehicle_type_id":"4","last_reported":1739801318,"current_range_meters":14000,"station_id":"ce4bhgh2rcd13ifvqfb0","pricing_plan_id":"cebpf4jnsgd1na2vs0mg"},{"bike_id":"22578521-0ea7-463a-8019-3c6269779208","system_id":"levelo_inurba_marseille","lat":43.23071,"lon":5.3551,"is_reserved":false,"is_disabled":false,"rental_uris":{"android":"levelo://app?vid=22578521-0ea7-463a-8019-3c6269779208","ios":"levelo://app?vid=22578521-0ea7-463a-8019-3c6269779208"},"vehicle_type_id":"4","last_reported":1739801318,"current_range_meters":14000,"station_id":"cpo3342slgdg3j2ifvpg","pricing_plan_id":"cebpf4jnsgd1na2vs0mg"},{"bike_id":"33ff543a-c943-4225-840f-e1f4526dddbc","system_id":"levelo_inurba_marseille","lat":43.29006,"lon":5.35615,"is_reserved":false,"is_disabled":false,"rental_uris":{"android":"levelo://app?vid=33ff543a-c943-4225-840f-e1f4526dddbc","ios":"levelo://app?vid=33ff543a-c943-4225-840f-e1f4526dddbc"},"vehicle_type_id":"4","last_reported":1739801318,"current_range_meters":14000,"station_id":"ce4bhb92rcd13ifvqen0","pricing_plan_id":"cebpf4jnsgd1na2vs0mg"},{"bike_id":"305718df-da9c-4eef-9ea9-94ed4dc11135","system_id":"levelo_inurba_marseille","lat":43.27682,"lon":5.38871,"is_reserved":false,"is_disabled":false,"rental_uris":{"android":"levelo://app?vid=305718df-da9c-4eef-9ea9-94ed4dc11135","ios":"levelo://app?vid=305718df-da9c-4eef-9ea9-94ed4dc11135"},"vehicle_type_id":"4","last_reported":1739801318,"current_range_meters":14000,"station_id":"ce4bhi12rcd13ifvqfo0","pricing_plan_id":"cebpf4jnsgd1na2vs0mg"},{"bike_id":"72cdada6-11de-4b01-97c6-4897ea8a53cb","system_id":"levelo_inurba_marseille","lat":43.29759,"lon":5.38094,"is_reserved":false,"is_disabled":false,"rental_uris":{"android":"levelo://app?vid=72cdada6-11de-4b01-97c6-4897ea8a53cb","ios":"levelo://app?vid=72cdada6-11de-4b01-97c6-4897ea8a53cb"},"vehicle_type_id":"4","last_reported":1739801318,"current_range_meters":14400,"station_id":"ce4bgip2rcd13ifvqbb0","pricing_plan_id":"cebpf4jnsgd1na2vs0mg"},{"bike_id":"cd9b4085-c131-4f0b-9c5c-dcc681470367","system_id":"levelo_inurba_marseille","lat":43.32478,"lon":5.36552,"is_reserved":false,"is_disabled":false,"rental_uris":{"android":"levelo://app?vid=cd9b4085-c131-4f0b-9c5c-dcc681470367","ios":"levelo://app?vid=cd9b4085-c131-4f0b-9c5c-dcc681470367"},"vehicle_type_id":"4","last_reported":1739801318,"current_range_meters":14800,"station_id":"ce4bhs12rcd13ifvqhvg","pricing_plan_id":"cebpf4jnsgd1na2vs0mg"},{"bike_id":"c406416f-233a-40f0-adf4-a910af5ca12a","system_id":"levelo_inurba_marseille","lat":43.3015,"lon":5.38082,"is_reserved":false,"is_disabled":false,"rental_uris":{"android":"levelo://app?vid=c406416f-233a-40f0-adf4-a910af5ca12a","ios":"levelo://app?vid=c406416f-233a-40f0-adf4-a910af5ca12a"},"vehicle_type_id":"4","last_reported":1739801318,"current_range_meters":14800,"station_id":"ce4bgjp2rcd13ifvqbh0","pricing_plan_id":"cebpf4jnsgd1na2vs0mg"},{"bike_id":"020f9db3-6048-4a83-8c59-4acc533112c8","system_id":"levelo_inurba_marseille","lat":43.28174,"lon":5.42638,"is_reserved":false,"is_disabled":false,"rental_uris":{"android":"levelo://app?vid=020f9db3-6048-4a83-8c59-4acc533112c8","ios":"levelo://app?vid=020f9db3-6048-4a83-8c59-4acc533112c8"},"vehicle_type_id":"4","last_reported":1739801318,"current_range_meters":14800,"station_id":"ce4bhnh2rcd13ifvqgug","pricing_plan_id":"cebpf4jnsgd1na2vs0mg"},{"bike_id":"b38f8bb7-d532-4cc2-a81f-ad7fd56b0113","system_id":"levelo_inurba_marseille","lat":43.30096,"lon":5.39098,"is_reserved":false,"is_disabled":false,"rental_uris":{"android":"levelo://app?vid=b38f8bb7-d532-4cc2-a81f-ad7fd56b0113","ios":"levelo://app?vid=b38f8bb7-d532-4cc2-a81f-ad7fd56b0113"},"vehicle_type_id":"4","last_reported":1739801318,"current_range_meters":14400,"station_id":"ce4bh192rcd13ifvqdb0","pricing_plan_id":"cebpf4jnsgd1na2vs0mg"},{"bike_id":"2902daa0-01ad-4a13-8a3f-b94ff9e8f778","system_id":"levelo_inurba_marseille","lat":43.27494,"lon":5.42442,"is_reserved":false,"is_disabled":false,"rental_uris":{"android":"levelo://app?vid=2902daa0-01ad-4a13-8a3f-b94ff9e8f778","ios":"levelo://app?vid=2902daa0-01ad-4a13-8a3f-b94ff9e8f778"},"vehicle_type_id":"4","last_reported":1739801318,"current_range_meters":14800,"station_id":"ce4bhn92rcd13ifvqgrg","pricing_plan_id":"cebpf4jnsgd1na2vs0mg"},{"bike_id":"c5c59f41-6de9-4286-8e47-0b749ef897bc","system_id":"levelo_inurba_marseille","lat":43.28629,"lon":5.35107,"is_reserved":false,"is_disabled":false,"rental_uris":{"android":"levelo://app?vid=c5c59f41-6de9-4286-8e47-0b749ef897bc","ios":"levelo://app?vid=c5c59f41-6de9-4286-8e47-0b749ef897bc"},"vehicle_type_id":"4","last_reported":1739801318,"current_range_meters":15200,"station_id":"ce4bhch2rcd13ifvqeug","pricing_plan_id":"cebpf4jnsgd1na2vs0mg"},{"bike_id":"6425d75f-b97f-479e-88d8-844a57236e27","system_id":"levelo_inurba_marseille","lat":43.28497,"lon":5.38545,"is_reserved":false,"is_disabled":false,"rental_uris":{"android":"levelo://app?vid=6425d75f-b97f-479e-88d8-844a57236e27","ios":"levelo://app?vid=6425d75f-b97f-479e-88d8-844a57236e27"},"vehicle_type_id":"4","last_reported":1739801318,"current_range_meters":15200,"station_id":"ce4bh8p2rcd13ifvqeb0","pricing_plan_id":"cebpf4jnsgd1na2vs0mg"},{"bike_id":"8796c4a1-cf69-4acb-819d-b56299eee9b7","system_id":"levelo_inurba_marseille","lat":43.33256,"lon":5.37911,"is_reserved":false,"is_disabled":false,"rental_uris":{"android":"levelo://app?vid=8796c4a1-cf69-4acb-819d-b56299eee9b7","ios":"levelo://app?vid=8796c4a1-cf69-4acb-819d-b56299eee9b7"},"vehicle_type_id":"4","last_reported":1739801318,"current_range_meters":16000,"station_id":"ce4bhqp2rcd13ifvqhog","pricing_plan_id":"cebpf4jnsgd1na2vs0mg"},{"bike_id":"4a42b849-8dce-4679-be4e-fb42f1f7b062","system_id":"levelo_inurba_marseille","lat":43.24156,"lon":5.39719,"is_reserved":false,"is_disabled":false,"rental_uris":{"android":"levelo://app?vid=4a42b849-8dce-4679-be4e-fb42f1f7b062","ios":"levelo://app?vid=4a42b849-8dce-4679-be4e-fb42f1f7b062"},"vehicle_type_id":"4","last_reported":1739801318,"current_range_meters":16000,"station_id":"ce4bhn12rcd13ifvqgpg","pricing_plan_id":"cebpf4jnsgd1na2vs0mg"},{"bike_id":"5f6c3d54-427f-4c5e-9013-84144224f1c7","system_id":"levelo_inurba_marseille","lat":43.26538,"lon":5.37348,"is_reserved":false,"is_disabled":false,"rental_uris":{"android":"levelo://app?vid=5f6c3d54-427f-4c5e-9013-84144224f1c7","ios":"levelo://app?vid=5f6c3d54-427f-4c5e-9013-84144224f1c7"},"vehicle_type_id":"4","last_reported":1739801318,"current_range_meters":16000,"station_id":"ce4bhg12rcd13ifvqf70","pricing_plan_id":"cebpf4jnsgd1na2vs0mg"},{"bike_id":"f2ed1939-a611-4c0c-b834-6691e0118b72","system_id":"levelo_inurba_marseille","lat":43.23204,"lon":5.35566,"is_reserved":false,"is_disabled":false,"rental_uris":{"android":"levelo://app?vid=f2ed1939-a611-4c0c-b834-6691e0118b72","ios":"levelo://app?vid=f2ed1939-a611-4c0c-b834-6691e0118b72"},"vehicle_type_id":"4","last_reported":1739801318,"current_range_meters":16000,"station_id":"ce4bhu92rcd13ifvqi70","pricing_plan_id":"cebpf4jnsgd1na2vs0mg"},{"bike_id":"4767ce61-083b-49b6-b6bd-c77650019e8f","system_id":"levelo_inurba_marseille","lat":43.32104,"lon":5.36789,"is_reserved":false,"is_disabled":false,"rental_uris":{"android":"levelo://app?vid=4767ce61-083b-49b6-b6bd-c77650019e8f","ios":"levelo://app?vid=4767ce61-083b-49b6-b6bd-c77650019e8f"},"vehicle_type_id":"4","last_reported":1739801318,"current_range_meters":16000,"station_id":"","pricing_plan_id":"cebpf4jnsgd1na2vs0mg"},{"bike_id":"60e48e3f-1097-44c1-9d09-4ac070f15538","system_id":"levelo_inurba_marseille","lat":43.27073,"lon":5.42274,"is_reserved":false,"is_disabled":false,"rental_uris":{"android":"levelo://app?vid=60e48e3f-1097-44c1-9d09-4ac070f15538","ios":"levelo://app?vid=60e48e3f-1097-44c1-9d09-4ac070f15538"},"vehicle_type_id":"4","last_reported":1739801318,"current_range_meters":16000,"station_id":"ce4bhk92rcd13ifvqgb0","pricing_plan_id":"cebpf4jnsgd1na2vs0mg"},{"bike_id":"369335c3-2b15-44d9-b771-69fd00289155","system_id":"levelo_inurba_marseille","lat":43.29623,"lon":5.37716,"is_reserved":false,"is_disabled":false,"rental_uris":{"android":"levelo://app?vid=369335c3-2b15-44d9-b771-69fd00289155","ios":"levelo://app?vid=369335c3-2b15-44d9-b771-69fd00289155"},"vehicle_type_id":"4","last_reported":1739801318,"current_range_meters":16000,"station_id":"ce4bgi92rcd13ifvqb90","pricing_plan_id":"cebpf4jnsgd1na2vs0mg"},{"bike_id":"e57f9313-8443-49d5-820a-e3f0c205b6f2","system_id":"levelo_inurba_marseille","lat":43.24072,"lon":5.37761,"is_reserved":false,"is_disabled":false,"rental_uris":{"android":"levelo://app?vid=e57f9313-8443-49d5-820a-e3f0c205b6f2","ios":"levelo://app?vid=e57f9313-8443-49d5-820a-e3f0c205b6f2"},"vehicle_type_id":"4","last_reported":1739801318,"current_range_meters":16000,"station_id":"ce4bhnp2rcd13ifvqgvg","pricing_plan_id":"cebpf4jnsgd1na2vs0mg"},{"bike_id":"9084f880-c05c-41d9-962e-1ab7add2848e","system_id":"levelo_inurba_marseille","lat":43.24071,"lon":5.37755,"is_reserved":false,"is_disabled":false,"rental_uris":{"android":"levelo://app?vid=9084f880-c05c-41d9-962e-1ab7add2848e","ios":"levelo://app?vid=9084f880-c05c-41d9-962e-1ab7add2848e"},"vehicle_type_id":"4","last_reported":1739801318,"current_range_meters":16000,"station_id":"ce4bhnp2rcd13ifvqgvg","pricing_plan_id":"cebpf4jnsgd1na2vs0mg"},{"bike_id":"d1b292e2-afaf-4d01-841f-1489ff1ec4d2","system_id":"levelo_inurba_marseille","lat":43.28157,"lon":5.4265,"is_reserved":false,"is_disabled":false,"rental_uris":{"android":"levelo://app?vid=d1b292e2-afaf-4d01-841f-1489ff1ec4d2","ios":"levelo://app?vid=d1b292e2-afaf-4d01-841f-1489ff1ec4d2"},"vehicle_type_id":"4","last_reported":1739801318,"current_range_meters":16000,"station_id":"ce4bhnh2rcd13ifvqgug","pricing_plan_id":"cebpf4jnsgd1na2vs0mg"},{"bike_id":"c300d2f5-35bb-4d22-b445-3c56ab02df6a","system_id":"levelo_inurba_marseille","lat":43.29938,"lon":5.36522,"is_reserved":false,"is_disabled":false,"rental_uris":{"android":"levelo://app?vid=c300d2f5-35bb-4d22-b445-3c56ab02df6a","ios":"levelo://app?vid=c300d2f5-35bb-4d22-b445-3c56ab02df6a"},"vehicle_type_id":"4","last_reported":1739801318,"current_range_meters":16000,"station_id":"ce4bgm92rcd13ifvqbr0","pricing_plan_id":"cebpf4jnsgd1na2vs0mg"},{"bike_id":"91bf3218-0a05-4226-acc9-b3131b7d5a8d","system_id":"levelo_inurba_marseille","lat":43.23965,"lon":5.3662,"is_reserved":false,"is_disabled":false,"rental_uris":{"android":"levelo://app?vid=91bf3218-0a05-4226-acc9-b3131b7d5a8d","ios":"levelo://app?vid=91bf3218-0a05-4226-acc9-b3131b7d5a8d"},"vehicle_type_id":"4","last_reported":1739801318,"current_range_meters":16400,"station_id":"ce4bhi12rcd13ifvqfp0","pricing_plan_id":"cebpf4jnsgd1na2vs0mg"},{"bike_id":"d9da9ec9-50c3-42fd-9f4d-8da50caac3d0","system_id":"levelo_inurba_marseille","lat":43.26971,"lon":5.38643,"is_reserved":false,"is_disabled":false,"rental_uris":{"android":"levelo://app?vid=d9da9ec9-50c3-42fd-9f4d-8da50caac3d0","ios":"levelo://app?vid=d9da9ec9-50c3-42fd-9f4d-8da50caac3d0"},"vehicle_type_id":"4","last_reported":1739801318,"current_range_meters":16400,"station_id":"ce4bhh92rcd13ifvqfh0","pricing_plan_id":"cebpf4jnsgd1na2vs0mg"},{"bike_id":"d1dec037-ee4c-4db9-a655-1087d8ee1f4f","system_id":"levelo_inurba_marseille","lat":43.284497,"lon":5.391954,"is_reserved":false,"is_disabled":true,"rental_uris":{"android":"levelo://app?vid=d1dec037-ee4c-4db9-a655-1087d8ee1f4f","ios":"levelo://app?vid=d1dec037-ee4c-4db9-a655-1087d8ee1f4f"},"vehicle_type_id":"4","last_reported":1739801318,"current_range_meters":16400,"station_id":"","pricing_plan_id":"cebpf4jnsgd1na2vs0mg"},{"bike_id":"265573d5-55e5-476e-b8f4-b96289e9a660","system_id":"levelo_inurba_marseille","lat":43.24559,"lon":5.39516,"is_reserved":false,"is_disabled":false,"rental_uris":{"android":"levelo://app?vid=265573d5-55e5-476e-b8f4-b96289e9a660","ios":"levelo://app?vid=265573d5-55e5-476e-b8f4-b96289e9a660"},"vehicle_type_id":"4","last_reported":1739801318,"current_range_meters":16400,"station_id":"ce4bhlp2rcd13ifvqgjg","pricing_plan_id":"cebpf4jnsgd1na2vs0mg"},{"bike_id":"7e2a03c9-4d7f-4291-ac8a-b2f1e14fd908","system_id":"levelo_inurba_marseille","lat":43.27314,"lon":5.39126,"is_reserved":false,"is_disabled":false,"rental_uris":{"android":"levelo://app?vid=7e2a03c9-4d7f-4291-ac8a-b2f1e14fd908","ios":"levelo://app?vid=7e2a03c9-4d7f-4291-ac8a-b2f1e14fd908"},"vehicle_type_id":"4","last_reported":1739801318,"current_range_meters":16400,"station_id":"ce4bhgp2rcd13ifvqfe0","pricing_plan_id":"cebpf4jnsgd1na2vs0mg"},{"bike_id":"36e65aef-5e8f-411d-8259-c3d09786f117","system_id":"levelo_inurba_marseille","lat":43.293349,"lon":5.403681,"is_reserved":false,"is_disabled":false,"rental_uris":{"android":"levelo://app?vid=36e65aef-5e8f-411d-8259-c3d09786f117","ios":"levelo://app?vid=36e65aef-5e8f-411d-8259-c3d09786f117"},"vehicle_type_id":"4","last_reported":1739801318,"current_range_meters":16400,"station_id":"ce4bh192rcd13ifvqdd0","pricing_plan_id":"cebpf4jnsgd1na2vs0mg"},{"bike_id":"a3d19399-f165-4423-a6ad-9b298564f78d","system_id":"levelo_inurba_marseille","lat":43.277,"lon":5.41531,"is_reserved":false,"is_disabled":false,"rental_uris":{"android":"levelo://app?vid=a3d19399-f165-4423-a6ad-9b298564f78d","ios":"levelo://app?vid=a3d19399-f165-4423-a6ad-9b298564f78d"},"vehicle_type_id":"4","last_reported":1739801318,"current_range_meters":16400,"station_id":"","pricing_plan_id":"cebpf4jnsgd1na2vs0mg"},{"bike_id":"16ae9346-1fd3-41c3-8720-052fd94ef64a","system_id":"levelo_inurba_marseille","lat":43.27958,"lon":5.38722,"is_reserved":false,"is_disabled":false,"rental_uris":{"android":"levelo://app?vid=16ae9346-1fd3-41c3-8720-052fd94ef64a","ios":"levelo://app?vid=16ae9346-1fd3-41c3-8720-052fd94ef64a"},"vehicle_type_id":"4","last_reported":1739801318,"current_range_meters":16800,"station_id":"ce4bhg12rcd13ifvqf80","pricing_plan_id":"cebpf4jnsgd1na2vs0mg"},{"bike_id":"058be7b0-6b2b-48ae-80a6-6763c1fa04e8","system_id":"levelo_inurba_marseille","lat":43.2604,"lon":5.37547,"is_reserved":false,"is_disabled":false,"rental_uris":{"android":"levelo://app?vid=058be7b0-6b2b-48ae-80a6-6763c1fa04e8","ios":"levelo://app?vid=058be7b0-6b2b-48ae-80a6-6763c1fa04e8"},"vehicle_type_id":"4","last_reported":1739801318,"current_range_meters":16800,"station_id":"ce4bhgh2rcd13ifvqfa0","pricing_plan_id":"cebpf4jnsgd1na2vs0mg"},{"bike_id":"8400608f-9b0c-4949-8392-d9cd9cc2f7d1","system_id":"levelo_inurba_marseille","lat":43.32371,"lon":5.40595,"is_reserved":false,"is_disabled":false,"rental_uris":{"android":"levelo://app?vid=8400608f-9b0c-4949-8392-d9cd9cc2f7d1","ios":"levelo://app?vid=8400608f-9b0c-4949-8392-d9cd9cc2f7d1"},"vehicle_type_id":"4","last_reported":1739801318,"current_range_meters":16800,"station_id":"","pricing_plan_id":"cebpf4jnsgd1na2vs0mg"},{"bike_id":"d2ebfaae-2273-42f3-ba56-88f2905b2c63","system_id":"levelo_inurba_marseille","lat":43.29526,"lon":5.3855,"is_reserved":false,"is_disabled":true,"rental_uris":{"android":"levelo://app?vid=d2ebfaae-2273-42f3-ba56-88f2905b2c63","ios":"levelo://app?vid=d2ebfaae-2273-42f3-ba56-88f2905b2c63"},"vehicle_type_id":"4","last_reported":1739801318,"current_range_meters":16800,"station_id":"ce4bgih2rcd13ifvqba0","pricing_plan_id":"cebpf4jnsgd1na2vs0mg"},{"bike_id":"51e5e272-1390-4266-8747-10ef46d95bd1","system_id":"levelo_inurba_marseille","lat":43.22935,"lon":5.35377,"is_reserved":false,"is_disabled":false,"rental_uris":{"android":"levelo://app?vid=51e5e272-1390-4266-8747-10ef46d95bd1","ios":"levelo://app?vid=51e5e272-1390-4266-8747-10ef46d95bd1"},"vehicle_type_id":"4","last_reported":1739801318,"current_range_meters":16800,"station_id":"cpo3532slgdg3j2ikp40","pricing_plan_id":"cebpf4jnsgd1na2vs0mg"},{"bike_id":"a235a9bb-4567-4c75-a8ec-ed925194767e","system_id":"levelo_inurba_marseille","lat":43.283537,"lon":5.381054,"is_reserved":false,"is_disabled":false,"rental_uris":{"android":"levelo://app?vid=a235a9bb-4567-4c75-a8ec-ed925194767e","ios":"levelo://app?vid=a235a9bb-4567-4c75-a8ec-ed925194767e"},"vehicle_type_id":"4","last_reported":1739801318,"current_range_meters":16800,"station_id":"ce4bhi12rcd13ifvqfo0","pricing_plan_id":"cebpf4jnsgd1na2vs0mg"},{"bike_id":"c88c0dc8-5a6b-4ce0-af6b-615734767dd1","system_id":"levelo_inurba_marseille","lat":43.29229,"lon":5.36068,"is_reserved":false,"is_disabled":false,"rental_uris":{"android":"levelo://app?vid=c88c0dc8-5a6b-4ce0-af6b-615734767dd1","ios":"levelo://app?vid=c88c0dc8-5a6b-4ce0-af6b-615734767dd1"},"vehicle_type_id":"4","last_reported":1739801318,"current_range_meters":16800,"station_id":"ce4bhbh2rcd13ifvqeqg","pricing_plan_id":"cebpf4jnsgd1na2vs0mg"},{"bike_id":"721703a2-532a-4593-88cc-d02780117d20","system_id":"levelo_inurba_marseille","lat":43.29611,"lon":5.37725,"is_reserved":false,"is_disabled":false,"rental_uris":{"android":"levelo://app?vid=721703a2-532a-4593-88cc-d02780117d20","ios":"levelo://app?vid=721703a2-532a-4593-88cc-d02780117d20"},"vehicle_type_id":"4","last_reported":1739801318,"current_range_meters":17200,"station_id":"ce4bgi92rcd13ifvqb90","pricing_plan_id":"cebpf4jnsgd1na2vs0mg"},{"bike_id":"b7ea6e7f-4daa-4886-9c63-6c0211897347","system_id":"levelo_inurba_marseille","lat":43.30086,"lon":5.39078,"is_reserved":false,"is_disabled":false,"rental_uris":{"android":"levelo://app?vid=b7ea6e7f-4daa-4886-9c63-6c0211897347","ios":"levelo://app?vid=b7ea6e7f-4daa-4886-9c63-6c0211897347"},"vehicle_type_id":"4","last_reported":1739801318,"current_range_meters":17200,"station_id":"","pricing_plan_id":"cebpf4jnsgd1na2vs0mg"},{"bike_id":"19054a3c-ce1e-4433-a01e-9572f69a3f4e","system_id":"levelo_inurba_marseille","lat":43.29614,"lon":5.37725,"is_reserved":false,"is_disabled":false,"rental_uris":{"android":"levelo://app?vid=19054a3c-ce1e-4433-a01e-9572f69a3f4e","ios":"levelo://app?vid=19054a3c-ce1e-4433-a01e-9572f69a3f4e"},"vehicle_type_id":"4","last_reported":1739801318,"current_range_meters":17200,"station_id":"ce4bgi92rcd13ifvqb90","pricing_plan_id":"cebpf4jnsgd1na2vs0mg"},{"bike_id":"cc0820da-8958-41fc-bd33-b7f6bd8eba38","system_id":"levelo_inurba_marseille","lat":43.3278,"lon":5.39209,"is_reserved":false,"is_disabled":false,"rental_uris":{"android":"levelo://app?vid=cc0820da-8958-41fc-bd33-b7f6bd8eba38","ios":"levelo://app?vid=cc0820da-8958-41fc-bd33-b7f6bd8eba38"},"vehicle_type_id":"4","last_reported":1739801318,"current_range_meters":17200,"station_id":"ce4bhr92rcd13ifvqhrg","pricing_plan_id":"cebpf4jnsgd1na2vs0mg"},{"bike_id":"f235e94e-40b4-4a4c-8f15-bd95df01e708","system_id":"levelo_inurba_marseille","lat":43.25927,"lon":5.40907,"is_reserved":false,"is_disabled":false,"rental_uris":{"android":"levelo://app?vid=f235e94e-40b4-4a4c-8f15-bd95df01e708","ios":"levelo://app?vid=f235e94e-40b4-4a4c-8f15-bd95df01e708"},"vehicle_type_id":"4","last_reported":1739801318,"current_range_meters":17200,"station_id":"ce4bhm92rcd13ifvqglg","pricing_plan_id":"cebpf4jnsgd1na2vs0mg"},{"bike_id":"bb4a3648-09cb-4cc2-9947-bf380533d03f","system_id":"levelo_inurba_marseille","lat":43.31681,"lon":5.37241,"is_reserved":false,"is_disabled":false,"rental_uris":{"android":"levelo://app?vid=bb4a3648-09cb-4cc2-9947-bf380533d03f","ios":"levelo://app?vid=bb4a3648-09cb-4cc2-9947-bf380533d03f"},"vehicle_type_id":"4","last_reported":1739801318,"current_range_meters":17200,"station_id":"","pricing_plan_id":"cebpf4jnsgd1na2vs0mg"},{"bike_id":"e493d32f-c7df-48a8-8644-e6c67b333882","system_id":"levelo_inurba_marseille","lat":43.30145,"lon":5.37116,"is_reserved":false,"is_disabled":false,"rental_uris":{"android":"levelo://app?vid=e493d32f-c7df-48a8-8644-e6c67b333882","ios":"levelo://app?vid=e493d32f-c7df-48a8-8644-e6c67b333882"},"vehicle_type_id":"4","last_reported":1739801318,"current_range_meters":17200,"station_id":"","pricing_plan_id":"cebpf4jnsgd1na2vs0mg"},{"bike_id":"9f5e2ed3-dbc9-412d-b781-75ed365a25cc","system_id":"levelo_inurba_marseille","lat":43.27051,"lon":5.4026,"is_reserved":false,"is_disabled":false,"rental_uris":{"android":"levelo://app?vid=9f5e2ed3-dbc9-412d-b781-75ed365a25cc","ios":"levelo://app?vid=9f5e2ed3-dbc9-412d-b781-75ed365a25cc"},"vehicle_type_id":"4","last_reported":1739801318,"current_range_meters":17600,"station_id":"ce4bhk92rcd13ifvqgc0","pricing_plan_id":"cebpf4jnsgd1na2vs0mg"},{"bike_id":"e4e05a15-a3a8-4357-bbb4-dce01e6e34e1","system_id":"levelo_inurba_marseille","lat":43.26803,"lon":5.4027,"is_reserved":false,"is_disabled":false,"rental_uris":{"android":"levelo://app?vid=e4e05a15-a3a8-4357-bbb4-dce01e6e34e1","ios":"levelo://app?vid=e4e05a15-a3a8-4357-bbb4-dce01e6e34e1"},"vehicle_type_id":"4","last_reported":1739801318,"current_range_meters":17600,"station_id":"ce501612rcd8frsf0b60","pricing_plan_id":"cebpf4jnsgd1na2vs0mg"},{"bike_id":"e16d0106-0dcd-4e54-b741-94ffb5bcdc07","system_id":"levelo_inurba_marseille","lat":43.28078,"lon":5.3966,"is_reserved":false,"is_disabled":false,"rental_uris":{"android":"levelo://app?vid=e16d0106-0dcd-4e54-b741-94ffb5bcdc07","ios":"levelo://app?vid=e16d0106-0dcd-4e54-b741-94ffb5bcdc07"},"vehicle_type_id":"4","last_reported":1739801318,"current_range_meters":17600,"station_id":"ce4bho12rcd13ifvqh2g","pricing_plan_id":"cebpf4jnsgd1na2vs0mg"},{"bike_id":"8af59974-aa0c-4c34-b272-30faeaa01497","system_id":"levelo_inurba_marseille","lat":43.26228,"lon":5.40452,"is_reserved":false,"is_disabled":false,"rental_uris":{"android":"levelo://app?vid=8af59974-aa0c-4c34-b272-30faeaa01497","ios":"levelo://app?vid=8af59974-aa0c-4c34-b272-30faeaa01497"},"vehicle_type_id":"4","last_reported":1739801318,"current_range_meters":17600,"station_id":"ce4bhmh2rcd13ifvqgmg","pricing_plan_id":"cebpf4jnsgd1na2vs0mg"},{"bike_id":"1c4ab1c1-f8e5-4ceb-8507-e3b252ef908b","system_id":"levelo_inurba_marseille","lat":43.24167,"lon":5.36393,"is_reserved":false,"is_disabled":false,"rental_uris":{"android":"levelo://app?vid=1c4ab1c1-f8e5-4ceb-8507-e3b252ef908b","ios":"levelo://app?vid=1c4ab1c1-f8e5-4ceb-8507-e3b252ef908b"},"vehicle_type_id":"4","last_reported":1739801318,"current_range_meters":17600,"station_id":"cpo36qri1sfpv3e86is0","pricing_plan_id":"cebpf4jnsgd1na2vs0mg"},{"bike_id":"a9e8daf3-70cf-4ca0-a2bf-a2ff80ebc918","system_id":"levelo_inurba_marseille","lat":43.3046,"lon":5.36957,"is_reserved":false,"is_disabled":false,"rental_uris":{"android":"levelo://app?vid=a9e8daf3-70cf-4ca0-a2bf-a2ff80ebc918","ios":"levelo://app?vid=a9e8daf3-70cf-4ca0-a2bf-a2ff80ebc918"},"vehicle_type_id":"4","last_reported":1739801318,"current_range_meters":17600,"station_id":"","pricing_plan_id":"cebpf4jnsgd1na2vs0mg"},{"bike_id":"720c002f-8755-40d5-a948-1fe18ecae224","system_id":"levelo_inurba_marseille","lat":43.30158,"lon":5.381,"is_reserved":false,"is_disabled":false,"rental_uris":{"android":"levelo://app?vid=720c002f-8755-40d5-a948-1fe18ecae224","ios":"levelo://app?vid=720c002f-8755-40d5-a948-1fe18ecae224"},"vehicle_type_id":"4","last_reported":1739801318,"current_range_meters":17600,"station_id":"ce4bgjp2rcd13ifvqbh0","pricing_plan_id":"cebpf4jnsgd1na2vs0mg"},{"bike_id":"7f4269dd-2ac5-4b5a-b384-c1682237db47","system_id":"levelo_inurba_marseille","lat":43.26807,"lon":5.40265,"is_reserved":false,"is_disabled":false,"rental_uris":{"android":"levelo://app?vid=7f4269dd-2ac5-4b5a-b384-c1682237db47","ios":"levelo://app?vid=7f4269dd-2ac5-4b5a-b384-c1682237db47"},"vehicle_type_id":"4","last_reported":1739801318,"current_range_meters":17600,"station_id":"ce501612rcd8frsf0b60","pricing_plan_id":"cebpf4jnsgd1na2vs0mg"},{"bike_id":"941f49b2-c5b0-49e9-b671-1c19546e11c7","system_id":"levelo_inurba_marseille","lat":43.27948,"lon":5.41039,"is_reserved":false,"is_disabled":false,"rental_uris":{"android":"levelo://app?vid=941f49b2-c5b0-49e9-b671-1c19546e11c7","ios":"levelo://app?vid=941f49b2-c5b0-49e9-b671-1c19546e11c7"},"vehicle_type_id":"4","last_reported":1739801318,"current_range_meters":17600,"station_id":"","pricing_plan_id":"cebpf4jnsgd1na2vs0mg"},{"bike_id":"a81f047e-2602-4d29-8821-508c11538471","system_id":"levelo_inurba_marseille","lat":43.22947,"lon":5.35364,"is_reserved":false,"is_disabled":false,"rental_uris":{"android":"levelo://app?vid=a81f047e-2602-4d29-8821-508c11538471","ios":"levelo://app?vid=a81f047e-2602-4d29-8821-508c11538471"},"vehicle_type_id":"4","last_reported":1739801318,"current_range_meters":18000,"station_id":"cpo3532slgdg3j2ikp40","pricing_plan_id":"cebpf4jnsgd1na2vs0mg"},{"bike_id":"af787586-648c-49c8-8cf5-cd6f17378806","system_id":"levelo_inurba_marseille","lat":43.27076,"lon":5.42278,"is_reserved":false,"is_disabled":false,"rental_uris":{"android":"levelo://app?vid=af787586-648c-49c8-8cf5-cd6f17378806","ios":"levelo://app?vid=af787586-648c-49c8-8cf5-cd6f17378806"},"vehicle_type_id":"4","last_reported":1739801318,"current_range_meters":18000,"station_id":"ce4bhk92rcd13ifvqgb0","pricing_plan_id":"cebpf4jnsgd1na2vs0mg"},{"bike_id":"99470bc2-2a8f-43a7-9f55-f9f780a712f1","system_id":"levelo_inurba_marseille","lat":43.30537,"lon":5.36515,"is_reserved":false,"is_disabled":false,"rental_uris":{"android":"levelo://app?vid=99470bc2-2a8f-43a7-9f55-f9f780a712f1","ios":"levelo://app?vid=99470bc2-2a8f-43a7-9f55-f9f780a712f1"},"vehicle_type_id":"4","last_reported":1739801318,"current_range_meters":18000,"station_id":"","pricing_plan_id":"cebpf4jnsgd1na2vs0mg"},{"bike_id":"20bf0f99-c9d5-43d0-bede-cee701a2ad02","system_id":"levelo_inurba_marseille","lat":43.27995,"lon":5.41655,"is_reserved":false,"is_disabled":false,"rental_uris":{"android":"levelo://app?vid=20bf0f99-c9d5-43d0-bede-cee701a2ad02","ios":"levelo://app?vid=20bf0f99-c9d5-43d0-bede-cee701a2ad02"},"vehicle_type_id":"4","last_reported":1739801318,"current_range_meters":18000,"station_id":"ce4bho12rcd13ifvqh1g","pricing_plan_id":"cebpf4jnsgd1na2vs0mg"},{"bike_id":"c4414ba8-a4ed-40d8-947a-dfaebe47dece","system_id":"levelo_inurba_marseille","lat":43.30787,"lon":5.3765,"is_reserved":false,"is_disabled":false,"rental_uris":{"android":"levelo://app?vid=c4414ba8-a4ed-40d8-947a-dfaebe47dece","ios":"levelo://app?vid=c4414ba8-a4ed-40d8-947a-dfaebe47dece"},"vehicle_type_id":"4","last_reported":1739801318,"current_range_meters":18000,"station_id":"ce4bgv92rcd13ifvqcq0","pricing_plan_id":"cebpf4jnsgd1na2vs0mg"},{"bike_id":"62173654-8739-4837-a99d-077c4a874f3e","system_id":"levelo_inurba_marseille","lat":43.29633,"lon":5.37135,"is_reserved":false,"is_disabled":false,"rental_uris":{"android":"levelo://app?vid=62173654-8739-4837-a99d-077c4a874f3e","ios":"levelo://app?vid=62173654-8739-4837-a99d-077c4a874f3e"},"vehicle_type_id":"4","last_reported":1739801318,"current_range_meters":18000,"station_id":"ce4bgnh2rcd13ifvqc0g","pricing_plan_id":"cebpf4jnsgd1na2vs0mg"},{"bike_id":"9698a2bd-8897-4f9c-97fa-5979b7c1135d","system_id":"levelo_inurba_marseille","lat":43.30556,"lon":5.36547,"is_reserved":false,"is_disabled":false,"rental_uris":{"android":"levelo://app?vid=9698a2bd-8897-4f9c-97fa-5979b7c1135d","ios":"levelo://app?vid=9698a2bd-8897-4f9c-97fa-5979b7c1135d"},"vehicle_type_id":"4","last_reported":1739801318,"current_range_meters":18000,"station_id":"ce4bgs12rcd13ifvqcag","pricing_plan_id":"cebpf4jnsgd1na2vs0mg"},{"bike_id":"1e435478-a2c9-4f48-87a1-13e3b6e4b782","system_id":"levelo_inurba_marseille","lat":43.26217,"lon":5.37437,"is_reserved":false,"is_disabled":false,"rental_uris":{"android":"levelo://app?vid=1e435478-a2c9-4f48-87a1-13e3b6e4b782","ios":"levelo://app?vid=1e435478-a2c9-4f48-87a1-13e3b6e4b782"},"vehicle_type_id":"4","last_reported":1739801318,"current_range_meters":18000,"station_id":"ce4bhgp2rcd13ifvqfc0","pricing_plan_id":"cebpf4jnsgd1na2vs0mg"},{"bike_id":"2ca81d85-8625-42cf-b788-bb864ac8e610","system_id":"levelo_inurba_marseille","lat":43.23966,"lon":5.36631,"is_reserved":false,"is_disabled":false,"rental_uris":{"android":"levelo://app?vid=2ca81d85-8625-42cf-b788-bb864ac8e610","ios":"levelo://app?vid=2ca81d85-8625-42cf-b788-bb864ac8e610"},"vehicle_type_id":"4","last_reported":1739801318,"current_range_meters":18000,"station_id":"ce4bhi12rcd13ifvqfp0","pricing_plan_id":"cebpf4jnsgd1na2vs0mg"},{"bike_id":"2b78a580-f064-4192-a68d-8925275237ea","system_id":"levelo_inurba_marseille","lat":43.28272,"lon":5.35076,"is_reserved":false,"is_disabled":false,"rental_uris":{"android":"levelo://app?vid=2b78a580-f064-4192-a68d-8925275237ea","ios":"levelo://app?vid=2b78a580-f064-4192-a68d-8925275237ea"},"vehicle_type_id":"4","last_reported":1739801318,"current_range_meters":18800,"station_id":"ce4bhbp2rcd13ifvqerg","pricing_plan_id":"cebpf4jnsgd1na2vs0mg"},{"bike_id":"e3a63746-60f0-441f-b809-6188fdc99480","system_id":"levelo_inurba_marseille","lat":43.32368,"lon":5.38881,"is_reserved":false,"is_disabled":false,"rental_uris":{"android":"levelo://app?vid=e3a63746-60f0-441f-b809-6188fdc99480","ios":"levelo://app?vid=e3a63746-60f0-441f-b809-6188fdc99480"},"vehicle_type_id":"4","last_reported":1739801318,"current_range_meters":18800,"station_id":"ce4bhqp2rcd13ifvqhog","pricing_plan_id":"cebpf4jnsgd1na2vs0mg"},{"bike_id":"db90dd96-e348-4c68-ac8b-20428675b838","system_id":"levelo_inurba_marseille","lat":43.27188,"lon":5.40008,"is_reserved":false,"is_disabled":false,"rental_uris":{"android":"levelo://app?vid=db90dd96-e348-4c68-ac8b-20428675b838","ios":"levelo://app?vid=db90dd96-e348-4c68-ac8b-20428675b838"},"vehicle_type_id":"4","last_reported":1739801318,"current_range_meters":18800,"station_id":"","pricing_plan_id":"cebpf4jnsgd1na2vs0mg"},{"bike_id":"d4ffb53e-1c13-43e0-a2be-6465cfef6546","system_id":"levelo_inurba_marseille","lat":43.290436,"lon":5.39947,"is_reserved":false,"is_disabled":false,"rental_uris":{"android":"levelo://app?vid=d4ffb53e-1c13-43e0-a2be-6465cfef6546","ios":"levelo://app?vid=d4ffb53e-1c13-43e0-a2be-6465cfef6546"},"vehicle_type_id":"4","last_reported":1739801318,"current_range_meters":18800,"station_id":"ce4bh9p2rcd13ifvqec0","pricing_plan_id":"cebpf4jnsgd1na2vs0mg"},{"bike_id":"ff7f4373-418d-47c4-92b8-8e40f7b617a4","system_id":"levelo_inurba_marseille","lat":43.22934,"lon":5.35375,"is_reserved":false,"is_disabled":false,"rental_uris":{"android":"levelo://app?vid=ff7f4373-418d-47c4-92b8-8e40f7b617a4","ios":"levelo://app?vid=ff7f4373-418d-47c4-92b8-8e40f7b617a4"},"vehicle_type_id":"4","last_reported":1739801318,"current_range_meters":19200,"station_id":"cpo3532slgdg3j2ikp40","pricing_plan_id":"cebpf4jnsgd1na2vs0mg"},{"bike_id":"9885c601-2cbe-4ea7-9b6c-479dc416387c","system_id":"levelo_inurba_marseille","lat":43.29908,"lon":5.43673,"is_reserved":false,"is_disabled":false,"rental_uris":{"android":"levelo://app?vid=9885c601-2cbe-4ea7-9b6c-479dc416387c","ios":"levelo://app?vid=9885c601-2cbe-4ea7-9b6c-479dc416387c"},"vehicle_type_id":"4","last_reported":1739801318,"current_range_meters":19200,"station_id":"ce4bhpp2rcd13ifvqhfg","pricing_plan_id":"cebpf4jnsgd1na2vs0mg"},{"bike_id":"475f1293-84a1-4367-858e-1bfb454f2c52","system_id":"levelo_inurba_marseille","lat":43.23149,"lon":5.43716,"is_reserved":false,"is_disabled":false,"rental_uris":{"android":"levelo://app?vid=475f1293-84a1-4367-858e-1bfb454f2c52","ios":"levelo://app?vid=475f1293-84a1-4367-858e-1bfb454f2c52"},"vehicle_type_id":"4","last_reported":1739801318,"current_range_meters":19200,"station_id":"ce4bhmp2rcd13ifvqgog","pricing_plan_id":"cebpf4jnsgd1na2vs0mg"},{"bike_id":"f2f038bb-5d3a-415b-9164-ad30d51c80ee","system_id":"levelo_inurba_marseille","lat":43.24057,"lon":5.37712,"is_reserved":false,"is_disabled":false,"rental_uris":{"android":"levelo://app?vid=f2f038bb-5d3a-415b-9164-ad30d51c80ee","ios":"levelo://app?vid=f2f038bb-5d3a-415b-9164-ad30d51c80ee"},"vehicle_type_id":"4","last_reported":1739801318,"current_range_meters":19200,"station_id":"","pricing_plan_id":"cebpf4jnsgd1na2vs0mg"},{"bike_id":"954882ad-f997-48eb-8b49-af0b0b38bc7e","system_id":"levelo_inurba_marseille","lat":43.31054,"lon":5.36965,"is_reserved":false,"is_disabled":false,"rental_uris":{"android":"levelo://app?vid=954882ad-f997-48eb-8b49-af0b0b38bc7e","ios":"levelo://app?vid=954882ad-f997-48eb-8b49-af0b0b38bc7e"},"vehicle_type_id":"4","last_reported":1739801318,"current_range_meters":19200,"station_id":"","pricing_plan_id":"cebpf4jnsgd1na2vs0mg"},{"bike_id":"5bd3b795-1c94-4f69-923e-28d6296b76b4","system_id":"levelo_inurba_marseille","lat":43.28002,"lon":5.41659,"is_reserved":false,"is_disabled":false,"rental_uris":{"android":"levelo://app?vid=5bd3b795-1c94-4f69-923e-28d6296b76b4","ios":"levelo://app?vid=5bd3b795-1c94-4f69-923e-28d6296b76b4"},"vehicle_type_id":"4","last_reported":1739801318,"current_range_meters":19200,"station_id":"ce4bho12rcd13ifvqh1g","pricing_plan_id":"cebpf4jnsgd1na2vs0mg"},{"bike_id":"fe93f667-8c09-4429-bb67-402b2df92f4e","system_id":"levelo_inurba_marseille","lat":43.29903,"lon":5.36499,"is_reserved":false,"is_disabled":false,"rental_uris":{"android":"levelo://app?vid=fe93f667-8c09-4429-bb67-402b2df92f4e","ios":"levelo://app?vid=fe93f667-8c09-4429-bb67-402b2df92f4e"},"vehicle_type_id":"4","last_reported":1739801318,"current_range_meters":19200,"station_id":"ce4bgm92rcd13ifvqbr0","pricing_plan_id":"cebpf4jnsgd1na2vs0mg"},{"bike_id":"e38e52ed-3aae-4e43-b18b-98d34795d553","system_id":"levelo_inurba_marseille","lat":43.27378,"lon":5.36258,"is_reserved":false,"is_disabled":false,"rental_uris":{"android":"levelo://app?vid=e38e52ed-3aae-4e43-b18b-98d34795d553","ios":"levelo://app?vid=e38e52ed-3aae-4e43-b18b-98d34795d553"},"vehicle_type_id":"4","last_reported":1739801318,"current_range_meters":19200,"station_id":"ce4bhbh2rcd13ifvqeo0","pricing_plan_id":"cebpf4jnsgd1na2vs0mg"},{"bike_id":"14a57a86-4bb3-485f-8ef3-5a1fe3259280","system_id":"levelo_inurba_marseille","lat":43.24353,"lon":5.396686,"is_reserved":false,"is_disabled":false,"rental_uris":{"android":"levelo://app?vid=14a57a86-4bb3-485f-8ef3-5a1fe3259280","ios":"levelo://app?vid=14a57a86-4bb3-485f-8ef3-5a1fe3259280"},"vehicle_type_id":"4","last_reported":1739801318,"current_range_meters":18800,"station_id":"ce4bgn12rcd13ifvqbt0","pricing_plan_id":"cebpf4jnsgd1na2vs0mg"},{"bike_id":"cbb1e776-6ac2-4cd0-a8d5-9fc7a9410b19","system_id":"levelo_inurba_marseille","lat":43.26932,"lon":5.38915,"is_reserved":false,"is_disabled":false,"rental_uris":{"android":"levelo://app?vid=cbb1e776-6ac2-4cd0-a8d5-9fc7a9410b19","ios":"levelo://app?vid=cbb1e776-6ac2-4cd0-a8d5-9fc7a9410b19"},"vehicle_type_id":"4","last_reported":1739801318,"current_range_meters":19600,"station_id":"","pricing_plan_id":"cebpf4jnsgd1na2vs0mg"},{"bike_id":"87e4e3d9-887e-4f25-bf58-279367bc8327","system_id":"levelo_inurba_marseille","lat":43.30643,"lon":5.40097,"is_reserved":false,"is_disabled":true,"rental_uris":{"android":"levelo://app?vid=87e4e3d9-887e-4f25-bf58-279367bc8327","ios":"levelo://app?vid=87e4e3d9-887e-4f25-bf58-279367bc8327"},"vehicle_type_id":"4","last_reported":1739801318,"current_range_meters":19600,"station_id":"ce4bh112rcd13ifvqda0","pricing_plan_id":"cebpf4jnsgd1na2vs0mg"},{"bike_id":"70f6d482-92b2-4967-8613-10a4e770ab10","system_id":"levelo_inurba_marseille","lat":43.27373,"lon":5.36258,"is_reserved":false,"is_disabled":false,"rental_uris":{"android":"levelo://app?vid=70f6d482-92b2-4967-8613-10a4e770ab10","ios":"levelo://app?vid=70f6d482-92b2-4967-8613-10a4e770ab10"},"vehicle_type_id":"4","last_reported":1739801318,"current_range_meters":19600,"station_id":"ce4bhbh2rcd13ifvqeo0","pricing_plan_id":"cebpf4jnsgd1na2vs0mg"},{"bike_id":"3931184e-4a64-4298-ae4d-a34102cb14b4","system_id":"levelo_inurba_marseille","lat":43.31527,"lon":5.3804,"is_reserved":false,"is_disabled":false,"rental_uris":{"android":"levelo://app?vid=3931184e-4a64-4298-ae4d-a34102cb14b4","ios":"levelo://app?vid=3931184e-4a64-4298-ae4d-a34102cb14b4"},"vehicle_type_id":"4","last_reported":1739801318,"current_range_meters":19600,"station_id":"ce4bhsp2rcd13ifvqi50","pricing_plan_id":"cebpf4jnsgd1na2vs0mg"},{"bike_id":"7312cda3-bba1-47e6-b097-bd447e567723","system_id":"levelo_inurba_marseille","lat":43.24075,"lon":5.3775,"is_reserved":false,"is_disabled":false,"rental_uris":{"android":"levelo://app?vid=7312cda3-bba1-47e6-b097-bd447e567723","ios":"levelo://app?vid=7312cda3-bba1-47e6-b097-bd447e567723"},"vehicle_type_id":"4","last_reported":1739801318,"current_range_meters":19600,"station_id":"ce4bhnp2rcd13ifvqgvg","pricing_plan_id":"cebpf4jnsgd1na2vs0mg"},{"bike_id":"1b680a6f-6f82-49da-bfeb-1a5d3ecf1480","system_id":"levelo_inurba_marseille","lat":43.313293,"lon":5.396847,"is_reserved":false,"is_disabled":false,"rental_uris":{"android":"levelo://app?vid=1b680a6f-6f82-49da-bfeb-1a5d3ecf1480","ios":"levelo://app?vid=1b680a6f-6f82-49da-bfeb-1a5d3ecf1480"},"vehicle_type_id":"4","last_reported":1739801318,"current_range_meters":19200,"station_id":"ce4bgvp2rcd13ifvqcu0","pricing_plan_id":"cebpf4jnsgd1na2vs0mg"},{"bike_id":"1d5d6ae1-009e-4e90-90b8-31651747fdb6","system_id":"levelo_inurba_marseille","lat":43.26037,"lon":5.37547,"is_reserved":false,"is_disabled":false,"rental_uris":{"android":"levelo://app?vid=1d5d6ae1-009e-4e90-90b8-31651747fdb6","ios":"levelo://app?vid=1d5d6ae1-009e-4e90-90b8-31651747fdb6"},"vehicle_type_id":"4","last_reported":1739801318,"current_range_meters":19600,"station_id":"ce4bhgh2rcd13ifvqfa0","pricing_plan_id":"cebpf4jnsgd1na2vs0mg"},{"bike_id":"ba6304da-4f3e-4121-b739-f6cb22e7afd9","system_id":"levelo_inurba_marseille","lat":43.31375,"lon":5.38493,"is_reserved":false,"is_disabled":false,"rental_uris":{"android":"levelo://app?vid=ba6304da-4f3e-4121-b739-f6cb22e7afd9","ios":"levelo://app?vid=ba6304da-4f3e-4121-b739-f6cb22e7afd9"},"vehicle_type_id":"4","last_reported":1739801318,"current_range_meters":19600,"station_id":"ce4bgt92rcd13ifvqcf0","pricing_plan_id":"cebpf4jnsgd1na2vs0mg"},{"bike_id":"f81766ed-4365-4a97-9dc4-1bc0c02009d1","system_id":"levelo_inurba_marseille","lat":43.26946,"lon":5.38636,"is_reserved":false,"is_disabled":false,"rental_uris":{"android":"levelo://app?vid=f81766ed-4365-4a97-9dc4-1bc0c02009d1","ios":"levelo://app?vid=f81766ed-4365-4a97-9dc4-1bc0c02009d1"},"vehicle_type_id":"4","last_reported":1739801318,"current_range_meters":20000,"station_id":"ce4bhh92rcd13ifvqfh0","pricing_plan_id":"cebpf4jnsgd1na2vs0mg"},{"bike_id":"546ed578-1985-4c98-8768-2c70d70fee24","system_id":"levelo_inurba_marseille","lat":43.30536,"lon":5.36544,"is_reserved":false,"is_disabled":false,"rental_uris":{"android":"levelo://app?vid=546ed578-1985-4c98-8768-2c70d70fee24","ios":"levelo://app?vid=546ed578-1985-4c98-8768-2c70d70fee24"},"vehicle_type_id":"4","last_reported":1739801318,"current_range_meters":20000,"station_id":"ce4bgs12rcd13ifvqcag","pricing_plan_id":"cebpf4jnsgd1na2vs0mg"},{"bike_id":"5937c61a-ff3c-4c9c-a9c5-7ca5a85e16f6","system_id":"levelo_inurba_marseille","lat":43.24068,"lon":5.37762,"is_reserved":false,"is_disabled":false,"rental_uris":{"android":"levelo://app?vid=5937c61a-ff3c-4c9c-a9c5-7ca5a85e16f6","ios":"levelo://app?vid=5937c61a-ff3c-4c9c-a9c5-7ca5a85e16f6"},"vehicle_type_id":"4","last_reported":1739801318,"current_range_meters":20000,"station_id":"ce4bhnp2rcd13ifvqgvg","pricing_plan_id":"cebpf4jnsgd1na2vs0mg"},{"bike_id":"03d4faad-c15a-48aa-9dae-b9ddb0491fbe","system_id":"levelo_inurba_marseille","lat":43.33716,"lon":5.39206,"is_reserved":false,"is_disabled":false,"rental_uris":{"android":"levelo://app?vid=03d4faad-c15a-48aa-9dae-b9ddb0491fbe","ios":"levelo://app?vid=03d4faad-c15a-48aa-9dae-b9ddb0491fbe"},"vehicle_type_id":"4","last_reported":1739801318,"current_range_meters":20000,"station_id":"ce4bhr92rcd13ifvqhsg","pricing_plan_id":"cebpf4jnsgd1na2vs0mg"},{"bike_id":"5ff089da-2296-4730-b7fd-e4f029c974c8","system_id":"levelo_inurba_marseille","lat":43.27561,"lon":5.38426,"is_reserved":false,"is_disabled":false,"rental_uris":{"android":"levelo://app?vid=5ff089da-2296-4730-b7fd-e4f029c974c8","ios":"levelo://app?vid=5ff089da-2296-4730-b7fd-e4f029c974c8"},"vehicle_type_id":"4","last_reported":1739801318,"current_range_meters":19600,"station_id":"ce4bhh92rcd13ifvqfi0","pricing_plan_id":"cebpf4jnsgd1na2vs0mg"},{"bike_id":"c22b076a-c085-4a58-81f5-c0fa44a6fd44","system_id":"levelo_inurba_marseille","lat":43.23959,"lon":5.36635,"is_reserved":false,"is_disabled":false,"rental_uris":{"android":"levelo://app?vid=c22b076a-c085-4a58-81f5-c0fa44a6fd44","ios":"levelo://app?vid=c22b076a-c085-4a58-81f5-c0fa44a6fd44"},"vehicle_type_id":"4","last_reported":1739801318,"current_range_meters":20000,"station_id":"ce4bhi12rcd13ifvqfp0","pricing_plan_id":"cebpf4jnsgd1na2vs0mg"},{"bike_id":"d8755149-4fdf-4fc4-8e01-cfb5ece8fc21","system_id":"levelo_inurba_marseille","lat":43.303137,"lon":5.368913,"is_reserved":false,"is_disabled":false,"rental_uris":{"android":"levelo://app?vid=d8755149-4fdf-4fc4-8e01-cfb5ece8fc21","ios":"levelo://app?vid=d8755149-4fdf-4fc4-8e01-cfb5ece8fc21"},"vehicle_type_id":"4","last_reported":1739801318,"current_range_meters":20400,"station_id":"","pricing_plan_id":"cebpf4jnsgd1na2vs0mg"},{"bike_id":"6dda2f23-46bb-4bc4-9193-80a071d223c9","system_id":"levelo_inurba_marseille","lat":43.30644,"lon":5.36751,"is_reserved":false,"is_disabled":false,"rental_uris":{"android":"levelo://app?vid=6dda2f23-46bb-4bc4-9193-80a071d223c9","ios":"levelo://app?vid=6dda2f23-46bb-4bc4-9193-80a071d223c9"},"vehicle_type_id":"4","last_reported":1739801318,"current_range_meters":20400,"station_id":"","pricing_plan_id":"cebpf4jnsgd1na2vs0mg"},{"bike_id":"427d4ba6-8b19-40bb-8eec-f1fa8bab3c67","system_id":"levelo_inurba_marseille","lat":43.28374,"lon":5.38638,"is_reserved":false,"is_disabled":false,"rental_uris":{"android":"levelo://app?vid=427d4ba6-8b19-40bb-8eec-f1fa8bab3c67","ios":"levelo://app?vid=427d4ba6-8b19-40bb-8eec-f1fa8bab3c67"},"vehicle_type_id":"4","last_reported":1739801318,"current_range_meters":20400,"station_id":"ce4bh492rcd13ifvqdvg","pricing_plan_id":"cebpf4jnsgd1na2vs0mg"},{"bike_id":"8306b4a2-e89f-4058-b3c1-a7c39cd3e10a","system_id":"levelo_inurba_marseille","lat":43.27938,"lon":5.41029,"is_reserved":false,"is_disabled":false,"rental_uris":{"android":"levelo://app?vid=8306b4a2-e89f-4058-b3c1-a7c39cd3e10a","ios":"levelo://app?vid=8306b4a2-e89f-4058-b3c1-a7c39cd3e10a"},"vehicle_type_id":"4","last_reported":1739801318,"current_range_meters":20400,"station_id":"ce4bhnp2rcd13ifvqh0g","pricing_plan_id":"cebpf4jnsgd1na2vs0mg"},{"bike_id":"bf68de29-db92-4d9a-82b5-379b55f5f931","system_id":"levelo_inurba_marseille","lat":43.27619,"lon":5.36115,"is_reserved":false,"is_disabled":false,"rental_uris":{"android":"levelo://app?vid=bf68de29-db92-4d9a-82b5-379b55f5f931","ios":"levelo://app?vid=bf68de29-db92-4d9a-82b5-379b55f5f931"},"vehicle_type_id":"4","last_reported":1739801318,"current_range_meters":20400,"station_id":"ce4bgj92rcd13ifvqbe0","pricing_plan_id":"cebpf4jnsgd1na2vs0mg"},{"bike_id":"ea59682e-3627-4592-8ea0-4a29e940490e","system_id":"levelo_inurba_marseille","lat":43.29976,"lon":5.37147,"is_reserved":false,"is_disabled":false,"rental_uris":{"android":"levelo://app?vid=ea59682e-3627-4592-8ea0-4a29e940490e","ios":"levelo://app?vid=ea59682e-3627-4592-8ea0-4a29e940490e"},"vehicle_type_id":"4","last_reported":1739801318,"current_range_meters":20800,"station_id":"ce4bgr92rcd13ifvqc7g","pricing_plan_id":"cebpf4jnsgd1na2vs0mg"},{"bike_id":"6ca2d5e8-b927-4a30-a180-83404e8b3fa0","system_id":"levelo_inurba_marseille","lat":43.32359,"lon":5.3675,"is_reserved":false,"is_disabled":false,"rental_uris":{"android":"levelo://app?vid=6ca2d5e8-b927-4a30-a180-83404e8b3fa0","ios":"levelo://app?vid=6ca2d5e8-b927-4a30-a180-83404e8b3fa0"},"vehicle_type_id":"4","last_reported":1739801318,"current_range_meters":20800,"station_id":"ce4bhsh2rcd13ifvqi2g","pricing_plan_id":"cebpf4jnsgd1na2vs0mg"},{"bike_id":"893de28b-5e29-4ce9-bd72-5e1fc28ae55c","system_id":"levelo_inurba_marseille","lat":43.23165,"lon":5.43693,"is_reserved":false,"is_disabled":false,"rental_uris":{"android":"levelo://app?vid=893de28b-5e29-4ce9-bd72-5e1fc28ae55c","ios":"levelo://app?vid=893de28b-5e29-4ce9-bd72-5e1fc28ae55c"},"vehicle_type_id":"4","last_reported":1739801318,"current_range_meters":20800,"station_id":"ce4bhmp2rcd13ifvqgog","pricing_plan_id":"cebpf4jnsgd1na2vs0mg"},{"bike_id":"2ab31347-0af9-4979-82f5-b4808ab2e38a","system_id":"levelo_inurba_marseille","lat":43.28081,"lon":5.39676,"is_reserved":false,"is_disabled":false,"rental_uris":{"android":"levelo://app?vid=2ab31347-0af9-4979-82f5-b4808ab2e38a","ios":"levelo://app?vid=2ab31347-0af9-4979-82f5-b4808ab2e38a"},"vehicle_type_id":"4","last_reported":1739801318,"current_range_meters":21600,"station_id":"ce4bho12rcd13ifvqh2g","pricing_plan_id":"cebpf4jnsgd1na2vs0mg"},{"bike_id":"12725e8e-3208-4056-9f19-b66d50538453","system_id":"levelo_inurba_marseille","lat":43.29981,"lon":5.37177,"is_reserved":false,"is_disabled":false,"rental_uris":{"android":"levelo://app?vid=12725e8e-3208-4056-9f19-b66d50538453","ios":"levelo://app?vid=12725e8e-3208-4056-9f19-b66d50538453"},"vehicle_type_id":"4","last_reported":1739801318,"current_range_meters":21600,"station_id":"ce4bgr92rcd13ifvqc7g","pricing_plan_id":"cebpf4jnsgd1na2vs0mg"},{"bike_id":"ef4f6a2e-8025-4dde-a751-dced4ee9b2f1","system_id":"levelo_inurba_marseille","lat":43.28612,"lon":5.351,"is_reserved":false,"is_disabled":false,"rental_uris":{"android":"levelo://app?vid=ef4f6a2e-8025-4dde-a751-dced4ee9b2f1","ios":"levelo://app?vid=ef4f6a2e-8025-4dde-a751-dced4ee9b2f1"},"vehicle_type_id":"4","last_reported":1739801318,"current_range_meters":21600,"station_id":"ce4bhch2rcd13ifvqeug","pricing_plan_id":"cebpf4jnsgd1na2vs0mg"},{"bike_id":"1d63a175-89ef-49ff-9ead-dfe9ed6c22cf","system_id":"levelo_inurba_marseille","lat":43.2469,"lon":5.39443,"is_reserved":false,"is_disabled":false,"rental_uris":{"android":"levelo://app?vid=1d63a175-89ef-49ff-9ead-dfe9ed6c22cf","ios":"levelo://app?vid=1d63a175-89ef-49ff-9ead-dfe9ed6c22cf"},"vehicle_type_id":"4","last_reported":1739801318,"current_range_meters":21600,"station_id":"","pricing_plan_id":"cebpf4jnsgd1na2vs0mg"},{"bike_id":"cb8963a4-d02f-481a-a780-943850fbdab1","system_id":"levelo_inurba_marseille","lat":43.254791,"lon":5.401113,"is_reserved":false,"is_disabled":false,"rental_uris":{"android":"levelo://app?vid=cb8963a4-d02f-481a-a780-943850fbdab1","ios":"levelo://app?vid=cb8963a4-d02f-481a-a780-943850fbdab1"},"vehicle_type_id":"4","last_reported":1739801318,"current_range_meters":21600,"station_id":"ce4bhjp2rcd13ifvqga0","pricing_plan_id":"cebpf4jnsgd1na2vs0mg"},{"bike_id":"140d266e-cf55-41b4-9355-9b7de8b7e5ff","system_id":"levelo_inurba_marseille","lat":43.24171,"lon":5.39725,"is_reserved":false,"is_disabled":false,"rental_uris":{"android":"levelo://app?vid=140d266e-cf55-41b4-9355-9b7de8b7e5ff","ios":"levelo://app?vid=140d266e-cf55-41b4-9355-9b7de8b7e5ff"},"vehicle_type_id":"4","last_reported":1739801318,"current_range_meters":21600,"station_id":"ce4bhn12rcd13ifvqgpg","pricing_plan_id":"cebpf4jnsgd1na2vs0mg"},{"bike_id":"717fe8ca-28b8-437e-b57f-dd7e30b5ee21","system_id":"levelo_inurba_marseille","lat":43.28579,"lon":5.39502,"is_reserved":false,"is_disabled":false,"rental_uris":{"android":"levelo://app?vid=717fe8ca-28b8-437e-b57f-dd7e30b5ee21","ios":"levelo://app?vid=717fe8ca-28b8-437e-b57f-dd7e30b5ee21"},"vehicle_type_id":"4","last_reported":1739801318,"current_range_meters":22000,"station_id":"ce4bh292rcd13ifvqdg0","pricing_plan_id":"cebpf4jnsgd1na2vs0mg"},{"bike_id":"16e022be-c3dc-4d12-ae64-0be9119a114a","system_id":"levelo_inurba_marseille","lat":43.27618,"lon":5.3611,"is_reserved":false,"is_disabled":false,"rental_uris":{"android":"levelo://app?vid=16e022be-c3dc-4d12-ae64-0be9119a114a","ios":"levelo://app?vid=16e022be-c3dc-4d12-ae64-0be9119a114a"},"vehicle_type_id":"4","last_reported":1739801318,"current_range_meters":22000,"station_id":"ce4bgj92rcd13ifvqbe0","pricing_plan_id":"cebpf4jnsgd1na2vs0mg"},{"bike_id":"7e54dc5a-c9dc-4b0a-9bfa-3199bf5d0ed1","system_id":"levelo_inurba_marseille","lat":43.26206,"lon":5.37437,"is_reserved":false,"is_disabled":false,"rental_uris":{"android":"levelo://app?vid=7e54dc5a-c9dc-4b0a-9bfa-3199bf5d0ed1","ios":"levelo://app?vid=7e54dc5a-c9dc-4b0a-9bfa-3199bf5d0ed1"},"vehicle_type_id":"4","last_reported":1739801318,"current_range_meters":22000,"station_id":"ce4bhgp2rcd13ifvqfc0","pricing_plan_id":"cebpf4jnsgd1na2vs0mg"},{"bike_id":"b8a527b2-46db-4f57-8495-5cf7a1afa6f6","system_id":"levelo_inurba_marseille","lat":43.27054,"lon":5.40265,"is_reserved":false,"is_disabled":false,"rental_uris":{"android":"levelo://app?vid=b8a527b2-46db-4f57-8495-5cf7a1afa6f6","ios":"levelo://app?vid=b8a527b2-46db-4f57-8495-5cf7a1afa6f6"},"vehicle_type_id":"4","last_reported":1739801318,"current_range_meters":22000,"station_id":"ce4bhk92rcd13ifvqgc0","pricing_plan_id":"cebpf4jnsgd1na2vs0mg"},{"bike_id":"8b9c785f-edc1-40ba-a436-ee6242edf5ff","system_id":"levelo_inurba_marseille","lat":43.27999,"lon":5.41662,"is_reserved":false,"is_disabled":false,"rental_uris":{"android":"levelo://app?vid=8b9c785f-edc1-40ba-a436-ee6242edf5ff","ios":"levelo://app?vid=8b9c785f-edc1-40ba-a436-ee6242edf5ff"},"vehicle_type_id":"4","last_reported":1739801318,"current_range_meters":22000,"station_id":"ce4bho12rcd13ifvqh1g","pricing_plan_id":"cebpf4jnsgd1na2vs0mg"},{"bike_id":"4a01e731-612e-4b84-be7f-6596920cefc6","system_id":"levelo_inurba_marseille","lat":43.32291,"lon":5.38275,"is_reserved":false,"is_disabled":false,"rental_uris":{"android":"levelo://app?vid=4a01e731-612e-4b84-be7f-6596920cefc6","ios":"levelo://app?vid=4a01e731-612e-4b84-be7f-6596920cefc6"},"vehicle_type_id":"4","last_reported":1739801318,"current_range_meters":22000,"station_id":"ce4bhr12rcd13ifvqhqg","pricing_plan_id":"cebpf4jnsgd1na2vs0mg"},{"bike_id":"1129ec66-bba0-417b-a8e8-8f5d9dd16838","system_id":"levelo_inurba_marseille","lat":43.2694,"lon":5.38916,"is_reserved":false,"is_disabled":false,"rental_uris":{"android":"levelo://app?vid=1129ec66-bba0-417b-a8e8-8f5d9dd16838","ios":"levelo://app?vid=1129ec66-bba0-417b-a8e8-8f5d9dd16838"},"vehicle_type_id":"4","last_reported":1739801318,"current_range_meters":22400,"station_id":"ce4bhh92rcd13ifvqfh0","pricing_plan_id":"cebpf4jnsgd1na2vs0mg"},{"bike_id":"b0849772-aadd-4647-9f75-f3bd79acd319","system_id":"levelo_inurba_marseille","lat":43.28426,"lon":5.34977,"is_reserved":false,"is_disabled":false,"rental_uris":{"android":"levelo://app?vid=b0849772-aadd-4647-9f75-f3bd79acd319","ios":"levelo://app?vid=b0849772-aadd-4647-9f75-f3bd79acd319"},"vehicle_type_id":"4","last_reported":1739801318,"current_range_meters":22400,"station_id":"ce4bhbh2rcd13ifvqepg","pricing_plan_id":"cebpf4jnsgd1na2vs0mg"},{"bike_id":"e143e45f-4b79-4243-a90e-3437fb713965","system_id":"levelo_inurba_marseille","lat":43.24156,"lon":5.39755,"is_reserved":false,"is_disabled":false,"rental_uris":{"android":"levelo://app?vid=e143e45f-4b79-4243-a90e-3437fb713965","ios":"levelo://app?vid=e143e45f-4b79-4243-a90e-3437fb713965"},"vehicle_type_id":"4","last_reported":1739801318,"current_range_meters":22400,"station_id":"ce4bhn12rcd13ifvqgpg","pricing_plan_id":"cebpf4jnsgd1na2vs0mg"},{"bike_id":"a662d250-9d12-49cf-972a-9aa337ac7c51","system_id":"levelo_inurba_marseille","lat":43.24802,"lon":5.37448,"is_reserved":false,"is_disabled":false,"rental_uris":{"android":"levelo://app?vid=a662d250-9d12-49cf-972a-9aa337ac7c51","ios":"levelo://app?vid=a662d250-9d12-49cf-972a-9aa337ac7c51"},"vehicle_type_id":"4","last_reported":1739801318,"current_range_meters":22000,"station_id":"ce4bhgh2rcd13ifvqfb0","pricing_plan_id":"cebpf4jnsgd1na2vs0mg"},{"bike_id":"811fee9c-cfc2-43d3-a43e-3f0976b4880b","system_id":"levelo_inurba_marseille","lat":43.24172,"lon":5.39729,"is_reserved":false,"is_disabled":false,"rental_uris":{"android":"levelo://app?vid=811fee9c-cfc2-43d3-a43e-3f0976b4880b","ios":"levelo://app?vid=811fee9c-cfc2-43d3-a43e-3f0976b4880b"},"vehicle_type_id":"4","last_reported":1739801318,"current_range_meters":22400,"station_id":"ce4bhn12rcd13ifvqgpg","pricing_plan_id":"cebpf4jnsgd1na2vs0mg"},{"bike_id":"3ae87cd8-704c-4969-9a2f-40da1804b059","system_id":"levelo_inurba_marseille","lat":43.2841,"lon":5.34986,"is_reserved":false,"is_disabled":false,"rental_uris":{"android":"levelo://app?vid=3ae87cd8-704c-4969-9a2f-40da1804b059","ios":"levelo://app?vid=3ae87cd8-704c-4969-9a2f-40da1804b059"},"vehicle_type_id":"4","last_reported":1739801318,"current_range_meters":22400,"station_id":"","pricing_plan_id":"cebpf4jnsgd1na2vs0mg"},