{"last_updated":1769008797,"ttl":60,"version":"2.2","data":{"bikes":[{"bike_id":"02fd6b95-e666-4086-9189-a1ebcb7008ba","system_id":"levelo_inurba_marseille","lat":43.2961,"lon":5.36718,"is_reserved":false,"is_disabled":false,"rental_uris":{"android":"levelo://app?vid=02fd6b95-e666-4086-9189-a1ebcb7008ba","ios":"levelo://app?vid=02fd6b95-e666-4086-9189-a1ebcb7008ba"},"vehicle_type_id":"4","last_reported":1769008797,"current_range_meters":2800,"station_id":"ce4bgph2rcd13ifvqc2g","pricing_plan_id":"cebpf4jnsgd1na2vs0mg"},{"bike_id":"c90f8d49-c464-4abb-b50f-a6f2833250ba","system_id":"levelo_inurba_marseille","lat":43.260663,"lon":5.394011,"is_reserved":false,"is_disabled":false,"rental_uris":{"android":"levelo://app?vid=c90f8d49-c464-4abb-b50f-a6f2833250ba","ios":"levelo://app?vid=c90f8d49-c464-4abb-b50f-a6f2833250ba"},"vehicle_type_id":"4","last_reported":1769008797,"current_range_meters":2800,"station_id":"ce4bhh92rcd13ifvqfj0","pricing_plan_id":"cebpf4jnsgd1na2vs0mg"},{"bike_id":"bab01ecc-a66d-4be2-9f9c-e1a82428feef","system_id":"levelo_inurba_marseille","lat":43.27832,"lon":5.39203,"is_reserved":false,"is_disabled":false,"rental_uris":{"android":"levelo://app?vid=bab01ecc-a66d-4be2-9f9c-e1a82428feef","ios":"levelo://app?vid=bab01ecc-a66d-4be2-9f9c-e1a82428feef"},"vehicle_type_id":"4","last_reported":1769008797,"current_range_meters":2800,"station_id":"ce4bhjp2rcd13ifvqga0","pricing_plan_id":"cebpf4jnsgd1na2vs0mg"},{"bike_id":"a89da980-36be-4958-9aa0-4e1f42aab655","system_id":"levelo_inurba_marseille","lat":43.24994,"lon":5.38953,"is_reserved":false,"is_disabled":false,"rental_uris":{"android":"levelo://app?vid=a89da980-36be-4958-9aa0-4e1f42aab655","ios":"levelo://app?vid=a89da980-36be-4958-9aa0-4e1f42aab655"},"vehicle_type_id":"4","last_reported":1769008797,"current_range_meters":2800,"station_id":"ce4bhgp2rcd13ifvqfd0","pricing_plan_id":"cebpf4jnsgd1na2vs0mg"},{"bike_id":"6b93d8bd-0ec1-4352-b9cb-4098b1b7fdde","system_id":"levelo_inurba_marseille","lat":43.25573,"lon":5.3823,"is_reserved":false,"is_disabled":false,"rental_uris":{"android":"levelo://app?vid=6b93d8bd-0ec1-4352-b9cb-4098b1b7fdde","ios":"levelo://app?vid=6b93d8bd-0ec1-4352-b9cb-4098b1b7fdde"},"vehicle_type_id":"4","last_reported":1769008797,"current_range_meters":2800,"station_id":"ce4bhih2rcd13ifvqfs0","pricing_plan_id":"cebpf4jnsgd1na2vs0mg"},{"bike_id":"fb90fa15-2592-4ccc-b435-09066c897f87","system_id":"levelo_inurba_marseille","lat":43.31076,"lon":5.38355,"is_reserved":false,"is_disabled":false,"rental_uris":{"android":"levelo://app?vid=fb90fa15-2592-4ccc-b435-09066c897f87","ios":"levelo://app?vid=fb90fa15-2592-4ccc-b435-09066c897f87"},"vehicle_type_id":"4","last_reported":1769008797,"current_range_meters":2800,"station_id":"ce4bgv92rcd13ifvqcr0","pricing_plan_id":"cebpf4jnsgd1na2vs0mg"},{"bike_id":"fbbedfeb-5767-4a40-9eeb-fb558ba05242","system_id":"levelo_inurba_marseille","lat":43.24999,"lon":5.38924,"is_reserved":false,"is_disabled":false,"rental_uris":{"android":"levelo://app?vid=fbbedfeb-5767-4a40-9eeb-fb558ba05242","ios":"levelo://app?vid=fbbedfeb-5767-4a40-9eeb-fb558ba05242"},"vehicle_type_id":"4","last_reported":1769008797,"current_range_meters":2800,"station_id":"ce4bhgp2rcd13ifvqfd0","pricing_plan_id":"cebpf4jnsgd1na2vs0mg"},{"bike_id":"448507df-9b8e-42f4-b669-b3de1a2aee68","system_id":"levelo_inurba_marseille","lat":43.27206,"lon":5.39179,"is_reserved":false,"is_disabled":false,"rental_uris":{"android":"levelo://app?vid=448507df-9b8e-42f4-b669-b3de1a2aee68","ios":"levelo://app?vid=448507df-9b8e-42f4-b669-b3de1a2aee68"},"vehicle_type_id":"4","last_reported":1769008797,"current_range_meters":2800,"station_id":"ce4bhhp2rcd13ifvqfm0","pricing_plan_id":"cebpf4jnsgd1na2vs0mg"},{"bike_id":"52a8e2dc-a331-438b-8cd8-653c6d5644ae","system_id":"levelo_inurba_marseille","lat":43.27905,"lon":5.38267,"is_reserved":false,"is_disabled":false,"rental_uris":{"android":"levelo://app?vid=52a8e2dc-a331-438b-8cd8-653c6d5644ae","ios":"levelo://app?vid=52a8e2dc-a331-438b-8cd8-653c6d5644ae"},"vehicle_type_id":"4","last_reported":1769008797,"current_range_meters":2800,"station_id":"","pricing_plan_id":"cebpf4jnsgd1na2vs0mg"},{"bike_id":"45af3b29-317d-4d28-9c11-b2304d336e56","system_id":"levelo_inurba_marseille","lat":43.24997,"lon":5.38941,"is_reserved":false,"is_disabled":false,"rental_uris":{"android":"levelo://app?vid=45af3b29-317d-4d28-9c11-b2304d336e56","ios":"levelo://app?vid=45af3b29-317d-4d28-9c11-b2304d336e56"},"vehicle_type_id":"4","last_reported":1769008797,"current_range_meters":2800,"station_id":"ce4bhgp2rcd13ifvqfd0","pricing_plan_id":"cebpf4jnsgd1na2vs0mg"},{"bike_id":"85567b1a-e7a8-4ef6-aff2-41e980a629d2","system_id":"levelo_inurba_marseille","lat":43.26789,"lon":5.39416,"is_reserved":false,"is_disabled":false,"rental_uris":{"android":"levelo://app?vid=85567b1a-e7a8-4ef6-aff2-41e980a629d2","ios":"levelo://app?vid=85567b1a-e7a8-4ef6-aff2-41e980a629d2"},"vehicle_type_id":"4","last_reported":1769008797,"current_range_meters":2800,"station_id":"ce4bhh12rcd13ifvqfg0","pricing_plan_id":"cebpf4jnsgd1na2vs0mg"},{"bike_id":"ce65da15-5103-4c08-86e5-b4783ea2b238","system_id":"levelo_inurba_marseille","lat":43.29313,"lon":5.37181,"is_reserved":false,"is_disabled":false,"rental_uris":{"android":"levelo://app?vid=ce65da15-5103-4c08-86e5-b4783ea2b238","ios":"levelo://app?vid=ce65da15-5103-4c08-86e5-b4783ea2b238"},"vehicle_type_id":"4","last_reported":1769008797,"current_range_meters":2800,"station_id":"ce4bgh92rcd13ifvqb40","pricing_plan_id":"cebpf4jnsgd1na2vs0mg"},{"bike_id":"31096d93-1491-4886-84da-d02432ca2a62","system_id":"levelo_inurba_marseille","lat":43.24162,"lon":5.36395,"is_reserved":false,"is_disabled":false,"rental_uris":{"android":"levelo://app?vid=31096d93-1491-4886-84da-d02432ca2a62","ios":"levelo://app?vid=31096d93-1491-4886-84da-d02432ca2a62"},"vehicle_type_id":"4","last_reported":1769008797,"current_range_meters":2800,"station_id":"cpo36qri1sfpv3e86is0","pricing_plan_id":"cebpf4jnsgd1na2vs0mg"},{"bike_id":"c50357ef-ddfe-41af-91eb-143fbf74d35f","system_id":"levelo_inurba_marseille","lat":43.2455,"lon":5.39523,"is_reserved":false,"is_disabled":false,"rental_uris":{"android":"levelo://app?vid=c50357ef-ddfe-41af-91eb-143fbf74d35f","ios":"levelo://app?vid=c50357ef-ddfe-41af-91eb-143fbf74d35f"},"vehicle_type_id":"4","last_reported":1769008797,"current_range_meters":3200,"station_id":"ce4bhlp2rcd13ifvqgjg","pricing_plan_id":"cebpf4jnsgd1na2vs0mg"},{"bike_id":"f9c756b7-6ab4-4842-b242-46f06e32e85d","system_id":"levelo_inurba_marseille","lat":43.279952,"lon":5.400339,"is_reserved":false,"is_disabled":false,"rental_uris":{"android":"levelo://app?vid=f9c756b7-6ab4-4842-b242-46f06e32e85d","ios":"levelo://app?vid=f9c756b7-6ab4-4842-b242-46f06e32e85d"},"vehicle_type_id":"4","last_reported":1769008797,"current_range_meters":3200,"station_id":"ce4bho92rcd13ifvqh4g","pricing_plan_id":"cebpf4jnsgd1na2vs0mg"},{"bike_id":"a3e2caaf-f379-45ac-a2b8-d61c1da080dd","system_id":"levelo_inurba_marseille","lat":43.32499,"lon":5.38292,"is_reserved":false,"is_disabled":false,"rental_uris":{"android":"levelo://app?vid=a3e2caaf-f379-45ac-a2b8-d61c1da080dd","ios":"levelo://app?vid=a3e2caaf-f379-45ac-a2b8-d61c1da080dd"},"vehicle_type_id":"4","last_reported":1769008797,"current_range_meters":3200,"station_id":"st_d4asgbiv49dc73anf9m0","pricing_plan_id":"cebpf4jnsgd1na2vs0mg"},{"bike_id":"30b41dfc-3722-464e-8dbc-0dd881b9ba66","system_id":"levelo_inurba_marseille","lat":43.278127,"lon":5.407051,"is_reserved":false,"is_disabled":false,"rental_uris":{"android":"levelo://app?vid=30b41dfc-3722-464e-8dbc-0dd881b9ba66","ios":"levelo://app?vid=30b41dfc-3722-464e-8dbc-0dd881b9ba66"},"vehicle_type_id":"4","last_reported":1769008797,"current_range_meters":3200,"station_id":"ce4bhnh2rcd13ifvqgtg","pricing_plan_id":"cebpf4jnsgd1na2vs0mg"},{"bike_id":"d2cb0070-0422-466b-b462-1892f78475a2","system_id":"levelo_inurba_marseille","lat":43.22917,"lon":5.35376,"is_reserved":false,"is_disabled":false,"rental_uris":{"android":"levelo://app?vid=d2cb0070-0422-466b-b462-1892f78475a2","ios":"levelo://app?vid=d2cb0070-0422-466b-b462-1892f78475a2"},"vehicle_type_id":"4","last_reported":1769008797,"current_range_meters":3200,"station_id":"cpo3532slgdg3j2ikp40","pricing_plan_id":"cebpf4jnsgd1na2vs0mg"},{"bike_id":"8794cdb3-b07a-4a6a-b8a7-d49e68bcc2e0","system_id":"levelo_inurba_marseille","lat":43.27813,"lon":5.40715,"is_reserved":false,"is_disabled":false,"rental_uris":{"android":"levelo://app?vid=8794cdb3-b07a-4a6a-b8a7-d49e68bcc2e0","ios":"levelo://app?vid=8794cdb3-b07a-4a6a-b8a7-d49e68bcc2e0"},"vehicle_type_id":"4","last_reported":1769008797,"current_range_meters":3200,"station_id":"ce4bhnh2rcd13ifvqgtg","pricing_plan_id":"cebpf4jnsgd1na2vs0mg"},{"bike_id":"52c85b02-607c-4226-bd7b-fd246dd2dae8","system_id":"levelo_inurba_marseille","lat":43.22562,"lon":5.41633,"is_reserved":false,"is_disabled":false,"rental_uris":{"android":"levelo://app?vid=52c85b02-607c-4226-bd7b-fd246dd2dae8","ios":"levelo://app?vid=52c85b02-607c-4226-bd7b-fd246dd2dae8"},"vehicle_type_id":"4","last_reported":1769008797,"current_range_meters":3200,"station_id":"st_d2o4gvlbi1j2169b742g","pricing_plan_id":"cebpf4jnsgd1na2vs0mg"},{"bike_id":"6e6d5164-25fe-46ff-9402-dc49f843a062","system_id":"levelo_inurba_marseille","lat":43.28422,"lon":5.34986,"is_reserved":false,"is_disabled":false,"rental_uris":{"android":"levelo://app?vid=6e6d5164-25fe-46ff-9402-dc49f843a062","ios":"levelo://app?vid=6e6d5164-25fe-46ff-9402-dc49f843a062"},"vehicle_type_id":"4","last_reported":1769008797,"current_range_meters":3200,"station_id":"ce4bhbh2rcd13ifvqepg","pricing_plan_id":"cebpf4jnsgd1na2vs0mg"},{"bike_id":"f81c1bc5-8c2a-420f-a12f-8964d9ee7970","system_id":"levelo_inurba_marseille","lat":43.29491,"lon":5.43311,"is_reserved":false,"is_disabled":false,"rental_uris":{"android":"levelo://app?vid=f81c1bc5-8c2a-420f-a12f-8964d9ee7970","ios":"levelo://app?vid=f81c1bc5-8c2a-420f-a12f-8964d9ee7970"},"vehicle_type_id":"4","last_reported":1769008797,"current_range_meters":3200,"station_id":"st_d3j5ugp08ojc73fj9d10","pricing_plan_id":"cebpf4jnsgd1na2vs0mg"},{"bike_id":"10483c0a-1726-407f-8492-2530493c0d67","system_id":"levelo_inurba_marseille","lat":43.25015,"lon":5.38908,"is_reserved":false,"is_disabled":false,"rental_uris":{"android":"levelo://app?vid=10483c0a-1726-407f-8492-2530493c0d67","ios":"levelo://app?vid=10483c0a-1726-407f-8492-2530493c0d67"},"vehicle_type_id":"4","last_reported":1769008797,"current_range_meters":3200,"station_id":"ce4bhgp2rcd13ifvqfd0","pricing_plan_id":"cebpf4jnsgd1na2vs0mg"},{"bike_id":"5d8d5d3f-1fe4-4527-8d1b-a00bfbbe312f","system_id":"levelo_inurba_marseille","lat":43.24387,"lon":5.37069,"is_reserved":false,"is_disabled":false,"rental_uris":{"android":"levelo://app?vid=5d8d5d3f-1fe4-4527-8d1b-a00bfbbe312f","ios":"levelo://app?vid=5d8d5d3f-1fe4-4527-8d1b-a00bfbbe312f"},"vehicle_type_id":"4","last_reported":1769008797,"current_range_meters":3200,"station_id":"ce4bhhh2rcd13ifvqfk0","pricing_plan_id":"cebpf4jnsgd1na2vs0mg"},{"bike_id":"7bf2cdba-338f-492c-aadf-49e2d691c7c3","system_id":"levelo_inurba_marseille","lat":43.24672,"lon":5.38149,"is_reserved":false,"is_disabled":false,"rental_uris":{"android":"levelo://app?vid=7bf2cdba-338f-492c-aadf-49e2d691c7c3","ios":"levelo://app?vid=7bf2cdba-338f-492c-aadf-49e2d691c7c3"},"vehicle_type_id":"4","last_reported":1769008797,"current_range_meters":3200,"station_id":"ce4bhih2rcd13ifvqfr0","pricing_plan_id":"cebpf4jnsgd1na2vs0mg"},{"bike_id":"151559c2-1d3d-413f-aef6-4412bd73e8de","system_id":"levelo_inurba_marseille","lat":43.23182,"lon":5.39987,"is_reserved":false,"is_disabled":false,"rental_uris":{"android":"levelo://app?vid=151559c2-1d3d-413f-aef6-4412bd73e8de","ios":"levelo://app?vid=151559c2-1d3d-413f-aef6-4412bd73e8de"},"vehicle_type_id":"4","last_reported":1769008797,"current_range_meters":3200,"station_id":"ce4bhn12rcd13ifvqgqg","pricing_plan_id":"cebpf4jnsgd1na2vs0mg"},{"bike_id":"4730ac5c-64de-49aa-82c1-159fded22752","system_id":"levelo_inurba_marseille","lat":43.2464,"lon":5.43136,"is_reserved":false,"is_disabled":false,"rental_uris":{"android":"levelo://app?vid=4730ac5c-64de-49aa-82c1-159fded22752","ios":"levelo://app?vid=4730ac5c-64de-49aa-82c1-159fded22752"},"vehicle_type_id":"4","last_reported":1769008797,"current_range_meters":3200,"station_id":"st_d2m6c4gdas8pm72e190g","pricing_plan_id":"cebpf4jnsgd1na2vs0mg"},{"bike_id":"9dff9bae-d519-49ab-850f-a6b93762d1fc","system_id":"levelo_inurba_marseille","lat":43.25342,"lon":5.42174,"is_reserved":false,"is_disabled":false,"rental_uris":{"android":"levelo://app?vid=9dff9bae-d519-49ab-850f-a6b93762d1fc","ios":"levelo://app?vid=9dff9bae-d519-49ab-850f-a6b93762d1fc"},"vehicle_type_id":"4","last_reported":1769008797,"current_range_meters":3200,"station_id":"st_d2m65c5bi1j21697t3ng","pricing_plan_id":"cebpf4jnsgd1na2vs0mg"},{"bike_id":"ca9c9398-a88a-4707-b404-30d4e347be78","system_id":"levelo_inurba_marseille","lat":43.32089,"lon":5.36784,"is_reserved":false,"is_disabled":false,"rental_uris":{"android":"levelo://app?vid=ca9c9398-a88a-4707-b404-30d4e347be78","ios":"levelo://app?vid=ca9c9398-a88a-4707-b404-30d4e347be78"},"vehicle_type_id":"4","last_reported":1769008797,"current_range_meters":3600,"station_id":"ce4bhrh2rcd13ifvqhug","pricing_plan_id":"cebpf4jnsgd1na2vs0mg"},{"bike_id":"36d5dc57-c991-4b46-b209-ebe4525537c8","system_id":"levelo_inurba_marseille","lat":43.29579,"lon":5.37529,"is_reserved":false,"is_disabled":false,"rental_uris":{"android":"levelo://app?vid=36d5dc57-c991-4b46-b209-ebe4525537c8","ios":"levelo://app?vid=36d5dc57-c991-4b46-b209-ebe4525537c8"},"vehicle_type_id":"4","last_reported":1769008797,"current_range_meters":3600,"station_id":"ce4bgh92rcd13ifvqb50","pricing_plan_id":"cebpf4jnsgd1na2vs0mg"},{"bike_id":"b3e3a655-44a1-42f9-a5d1-8403f099fa55","system_id":"levelo_inurba_marseille","lat":43.28413,"lon":5.34993,"is_reserved":false,"is_disabled":false,"rental_uris":{"android":"levelo://app?vid=b3e3a655-44a1-42f9-a5d1-8403f099fa55","ios":"levelo://app?vid=b3e3a655-44a1-42f9-a5d1-8403f099fa55"},"vehicle_type_id":"4","last_reported":1769008797,"current_range_meters":3600,"station_id":"ce4bhbh2rcd13ifvqepg","pricing_plan_id":"cebpf4jnsgd1na2vs0mg"},{"bike_id":"c5e35279-b895-4f82-be51-88a8ee6a696f","system_id":"levelo_inurba_marseille","lat":43.30422,"lon":5.39747,"is_reserved":false,"is_disabled":false,"rental_uris":{"android":"levelo://app?vid=c5e35279-b895-4f82-be51-88a8ee6a696f","ios":"levelo://app?vid=c5e35279-b895-4f82-be51-88a8ee6a696f"},"vehicle_type_id":"4","last_reported":1769008797,"current_range_meters":3600,"station_id":"ce4bh092rcd13ifvqd20","pricing_plan_id":"cebpf4jnsgd1na2vs0mg"},{"bike_id":"51469472-4cc7-4fff-babd-738f91e7aa30","system_id":"levelo_inurba_marseille","lat":43.26234,"lon":5.40428,"is_reserved":false,"is_disabled":false,"rental_uris":{"android":"levelo://app?vid=51469472-4cc7-4fff-babd-738f91e7aa30","ios":"levelo://app?vid=51469472-4cc7-4fff-babd-738f91e7aa30"},"vehicle_type_id":"4","last_reported":1769008797,"current_range_meters":3600,"station_id":"ce4bhmh2rcd13ifvqgmg","pricing_plan_id":"cebpf4jnsgd1na2vs0mg"},{"bike_id":"0ff79933-977c-4c29-925c-8c6ecc04f788","system_id":"levelo_inurba_marseille","lat":43.299246,"lon":5.374715,"is_reserved":false,"is_disabled":false,"rental_uris":{"android":"levelo://app?vid=0ff79933-977c-4c29-925c-8c6ecc04f788","ios":"levelo://app?vid=0ff79933-977c-4c29-925c-8c6ecc04f788"},"vehicle_type_id":"4","last_reported":1769008797,"current_range_meters":3600,"station_id":"ce4bgkh2rcd13ifvqbl0","pricing_plan_id":"cebpf4jnsgd1na2vs0mg"},{"bike_id":"56aebe64-5e14-40af-99f2-62c233e94a99","system_id":"levelo_inurba_marseille","lat":43.29712,"lon":5.38733,"is_reserved":false,"is_disabled":false,"rental_uris":{"android":"levelo://app?vid=56aebe64-5e14-40af-99f2-62c233e94a99","ios":"levelo://app?vid=56aebe64-5e14-40af-99f2-62c233e94a99"},"vehicle_type_id":"4","last_reported":1769008797,"current_range_meters":3600,"station_id":"","pricing_plan_id":"cebpf4jnsgd1na2vs0mg"},{"bike_id":"ab8f0e9e-82c0-4cd4-ae4a-73fe86db6b63","system_id":"levelo_inurba_marseille","lat":43.30181,"lon":5.38064,"is_reserved":false,"is_disabled":false,"rental_uris":{"android":"levelo://app?vid=ab8f0e9e-82c0-4cd4-ae4a-73fe86db6b63","ios":"levelo://app?vid=ab8f0e9e-82c0-4cd4-ae4a-73fe86db6b63"},"vehicle_type_id":"4","last_reported":1769008797,"current_range_meters":3600,"station_id":"ce4bgjp2rcd13ifvqbh0","pricing_plan_id":"cebpf4jnsgd1na2vs0mg"},{"bike_id":"d9d259ef-225c-4373-ba75-518a5c906d5f","system_id":"levelo_inurba_marseille","lat":43.291609,"lon":5.359159,"is_reserved":false,"is_disabled":false,"rental_uris":{"android":"levelo://app?vid=d9d259ef-225c-4373-ba75-518a5c906d5f","ios":"levelo://app?vid=d9d259ef-225c-4373-ba75-518a5c906d5f"},"vehicle_type_id":"4","last_reported":1769008797,"current_range_meters":3600,"station_id":"ce4bhbh2rcd13ifvqeqg","pricing_plan_id":"cebpf4jnsgd1na2vs0mg"},{"bike_id":"5c5d8eba-7ee4-4e8f-8c15-5f2384fc7801","system_id":"levelo_inurba_marseille","lat":43.29917,"lon":5.36526,"is_reserved":false,"is_disabled":false,"rental_uris":{"android":"levelo://app?vid=5c5d8eba-7ee4-4e8f-8c15-5f2384fc7801","ios":"levelo://app?vid=5c5d8eba-7ee4-4e8f-8c15-5f2384fc7801"},"vehicle_type_id":"4","last_reported":1769008797,"current_range_meters":3600,"station_id":"ce4bgm92rcd13ifvqbr0","pricing_plan_id":"cebpf4jnsgd1na2vs0mg"},{"bike_id":"05445378-8a5d-473e-a02e-3796d63a29c8","system_id":"levelo_inurba_marseille","lat":43.26363,"lon":5.41057,"is_reserved":false,"is_disabled":false,"rental_uris":{"android":"levelo://app?vid=05445378-8a5d-473e-a02e-3796d63a29c8","ios":"levelo://app?vid=05445378-8a5d-473e-a02e-3796d63a29c8"},"vehicle_type_id":"4","last_reported":1769008797,"current_range_meters":3600,"station_id":"st_d4e5ca6na9uc73bfl5fg","pricing_plan_id":"cebpf4jnsgd1na2vs0mg"},{"bike_id":"ad473098-59c2-4c8e-8fd2-dd511975eb09","system_id":"levelo_inurba_marseille","lat":43.21755,"lon":5.34593,"is_reserved":false,"is_disabled":true,"rental_uris":{"android":"levelo://app?vid=ad473098-59c2-4c8e-8fd2-dd511975eb09","ios":"levelo://app?vid=ad473098-59c2-4c8e-8fd2-dd511975eb09"},"vehicle_type_id":"4","last_reported":1769008797,"current_range_meters":3600,"station_id":"","pricing_plan_id":"cebpf4jnsgd1na2vs0mg"},{"bike_id":"86d6d711-fb8f-44eb-b535-a89b07c8d989","system_id":"levelo_inurba_marseille","lat":43.31485,"lon":5.37304,"is_reserved":false,"is_disabled":false,"rental_uris":{"android":"levelo://app?vid=86d6d711-fb8f-44eb-b535-a89b07c8d989","ios":"levelo://app?vid=86d6d711-fb8f-44eb-b535-a89b07c8d989"},"vehicle_type_id":"4","last_reported":1769008797,"current_range_meters":3600,"station_id":"ce4bgt12rcd13ifvqcd0","pricing_plan_id":"cebpf4jnsgd1na2vs0mg"},{"bike_id":"ae82840e-6713-4278-be7e-382935799675","system_id":"levelo_inurba_marseille","lat":43.32355,"lon":5.38486,"is_reserved":false,"is_disabled":false,"rental_uris":{"android":"levelo://app?vid=ae82840e-6713-4278-be7e-382935799675","ios":"levelo://app?vid=ae82840e-6713-4278-be7e-382935799675"},"vehicle_type_id":"4","last_reported":1769008797,"current_range_meters":3600,"station_id":"st_d45171o9ee8s73djdqug","pricing_plan_id":"cebpf4jnsgd1na2vs0mg"},{"bike_id":"8155f86b-6d64-4287-9ed7-7fbe9d103dde","system_id":"levelo_inurba_marseille","lat":43.22561,"lon":5.41625,"is_reserved":false,"is_disabled":false,"rental_uris":{"android":"levelo://app?vid=8155f86b-6d64-4287-9ed7-7fbe9d103dde","ios":"levelo://app?vid=8155f86b-6d64-4287-9ed7-7fbe9d103dde"},"vehicle_type_id":"4","last_reported":1769008797,"current_range_meters":3600,"station_id":"st_d2o4gvlbi1j2169b742g","pricing_plan_id":"cebpf4jnsgd1na2vs0mg"},{"bike_id":"4b68c0f2-a098-4371-9aa9-73b5399ef6fa","system_id":"levelo_inurba_marseille","lat":43.25574,"lon":5.38238,"is_reserved":false,"is_disabled":false,"rental_uris":{"android":"levelo://app?vid=4b68c0f2-a098-4371-9aa9-73b5399ef6fa","ios":"levelo://app?vid=4b68c0f2-a098-4371-9aa9-73b5399ef6fa"},"vehicle_type_id":"4","last_reported":1769008797,"current_range_meters":3600,"station_id":"ce4bhih2rcd13ifvqfs0","pricing_plan_id":"cebpf4jnsgd1na2vs0mg"},{"bike_id":"54316412-c7a5-402a-95ac-f263a81a7923","system_id":"levelo_inurba_marseille","lat":43.30951,"lon":5.39028,"is_reserved":false,"is_disabled":false,"rental_uris":{"android":"levelo://app?vid=54316412-c7a5-402a-95ac-f263a81a7923","ios":"levelo://app?vid=54316412-c7a5-402a-95ac-f263a81a7923"},"vehicle_type_id":"4","last_reported":1769008797,"current_range_meters":3600,"station_id":"ce4bgup2rcd13ifvqco0","pricing_plan_id":"cebpf4jnsgd1na2vs0mg"},{"bike_id":"04d1fa74-7078-4e54-86c0-c9d3f7b08c45","system_id":"levelo_inurba_marseille","lat":43.25579,"lon":5.38222,"is_reserved":false,"is_disabled":false,"rental_uris":{"android":"levelo://app?vid=04d1fa74-7078-4e54-86c0-c9d3f7b08c45","ios":"levelo://app?vid=04d1fa74-7078-4e54-86c0-c9d3f7b08c45"},"vehicle_type_id":"4","last_reported":1769008797,"current_range_meters":4000,"station_id":"ce4bhih2rcd13ifvqfs0","pricing_plan_id":"cebpf4jnsgd1na2vs0mg"},{"bike_id":"8d5b3e3a-d750-4a92-90db-cb6e545dc6f6","system_id":"levelo_inurba_marseille","lat":43.31218,"lon":5.36862,"is_reserved":false,"is_disabled":false,"rental_uris":{"android":"levelo://app?vid=8d5b3e3a-d750-4a92-90db-cb6e545dc6f6","ios":"levelo://app?vid=8d5b3e3a-d750-4a92-90db-cb6e545dc6f6"},"vehicle_type_id":"4","last_reported":1769008797,"current_range_meters":4000,"station_id":"ce4bgl92rcd13ifvqbq0","pricing_plan_id":"cebpf4jnsgd1na2vs0mg"},{"bike_id":"eaad7dcc-c797-4d78-96ea-aa702bdcc172","system_id":"levelo_inurba_marseille","lat":43.315308,"lon":5.38021,"is_reserved":false,"is_disabled":false,"rental_uris":{"android":"levelo://app?vid=eaad7dcc-c797-4d78-96ea-aa702bdcc172","ios":"levelo://app?vid=eaad7dcc-c797-4d78-96ea-aa702bdcc172"},"vehicle_type_id":"4","last_reported":1769008797,"current_range_meters":4000,"station_id":"ce4bhsp2rcd13ifvqi50","pricing_plan_id":"cebpf4jnsgd1na2vs0mg"},{"bike_id":"66160d64-23f9-4d70-b989-daa254cf260e","system_id":"levelo_inurba_marseille","lat":43.28152,"lon":5.42629,"is_reserved":false,"is_disabled":true,"rental_uris":{"android":"levelo://app?vid=66160d64-23f9-4d70-b989-daa254cf260e","ios":"levelo://app?vid=66160d64-23f9-4d70-b989-daa254cf260e"},"vehicle_type_id":"4","last_reported":1769008797,"current_range_meters":4000,"station_id":"ce4bhnh2rcd13ifvqgug","pricing_plan_id":"cebpf4jnsgd1na2vs0mg"},{"bike_id":"35eb0f0f-42a8-4fd5-956e-bec6aa3f7ee3","system_id":"levelo_inurba_marseille","lat":43.231788,"lon":5.399988,"is_reserved":false,"is_disabled":false,"rental_uris":{"android":"levelo://app?vid=35eb0f0f-42a8-4fd5-956e-bec6aa3f7ee3","ios":"levelo://app?vid=35eb0f0f-42a8-4fd5-956e-bec6aa3f7ee3"},"vehicle_type_id":"4","last_reported":1769008797,"current_range_meters":4000,"station_id":"ce4bhn12rcd13ifvqgqg","pricing_plan_id":"cebpf4jnsgd1na2vs0mg"},{"bike_id":"2cf1ea64-26bb-4964-939a-03465aee6659","system_id":"levelo_inurba_marseille","lat":43.2256,"lon":5.41644,"is_reserved":false,"is_disabled":false,"rental_uris":{"android":"levelo://app?vid=2cf1ea64-26bb-4964-939a-03465aee6659","ios":"levelo://app?vid=2cf1ea64-26bb-4964-939a-03465aee6659"},"vehicle_type_id":"4","last_reported":1769008797,"current_range_meters":4000,"station_id":"st_d2o4gvlbi1j2169b742g","pricing_plan_id":"cebpf4jnsgd1na2vs0mg"},{"bike_id":"f3aa627e-2488-4dec-a22b-c5e88db3c758","system_id":"levelo_inurba_marseille","lat":43.28281,"lon":5.35067,"is_reserved":false,"is_disabled":false,"rental_uris":{"android":"levelo://app?vid=f3aa627e-2488-4dec-a22b-c5e88db3c758","ios":"levelo://app?vid=f3aa627e-2488-4dec-a22b-c5e88db3c758"},"vehicle_type_id":"4","last_reported":1769008797,"current_range_meters":4000,"station_id":"ce4bhbp2rcd13ifvqerg","pricing_plan_id":"cebpf4jnsgd1na2vs0mg"},{"bike_id":"c9632c24-d4ba-453f-a643-952c5a012a8a","system_id":"levelo_inurba_marseille","lat":43.22568,"lon":5.41626,"is_reserved":false,"is_disabled":false,"rental_uris":{"android":"levelo://app?vid=c9632c24-d4ba-453f-a643-952c5a012a8a","ios":"levelo://app?vid=c9632c24-d4ba-453f-a643-952c5a012a8a"},"vehicle_type_id":"4","last_reported":1769008797,"current_range_meters":4400,"station_id":"st_d2o4gvlbi1j2169b742g","pricing_plan_id":"cebpf4jnsgd1na2vs0mg"},{"bike_id":"20f2e691-7ee8-4508-9b1c-b43a813819d1","system_id":"levelo_inurba_marseille","lat":43.26033,"lon":5.37548,"is_reserved":false,"is_disabled":false,"rental_uris":{"android":"levelo://app?vid=20f2e691-7ee8-4508-9b1c-b43a813819d1","ios":"levelo://app?vid=20f2e691-7ee8-4508-9b1c-b43a813819d1"},"vehicle_type_id":"4","last_reported":1769008797,"current_range_meters":4400,"station_id":"ce4bhgh2rcd13ifvqfa0","pricing_plan_id":"cebpf4jnsgd1na2vs0mg"},{"bike_id":"02b19501-ae2b-4d21-ae93-ce26586838ae","system_id":"levelo_inurba_marseille","lat":43.29582,"lon":5.42251,"is_reserved":false,"is_disabled":false,"rental_uris":{"android":"levelo://app?vid=02b19501-ae2b-4d21-ae93-ce26586838ae","ios":"levelo://app?vid=02b19501-ae2b-4d21-ae93-ce26586838ae"},"vehicle_type_id":"4","last_reported":1769008797,"current_range_meters":4400,"station_id":"ce4bhph2rcd13ifvqhdg","pricing_plan_id":"cebpf4jnsgd1na2vs0mg"},{"bike_id":"7d2f250a-191b-441d-876b-7325dd6245a6","system_id":"levelo_inurba_marseille","lat":43.24995,"lon":5.38939,"is_reserved":false,"is_disabled":false,"rental_uris":{"android":"levelo://app?vid=7d2f250a-191b-441d-876b-7325dd6245a6","ios":"levelo://app?vid=7d2f250a-191b-441d-876b-7325dd6245a6"},"vehicle_type_id":"4","last_reported":1769008797,"current_range_meters":4400,"station_id":"ce4bhgp2rcd13ifvqfd0","pricing_plan_id":"cebpf4jnsgd1na2vs0mg"},{"bike_id":"1be53d07-36d2-4312-bb90-5a39af7c22c5","system_id":"levelo_inurba_marseille","lat":43.273209,"lon":5.390624,"is_reserved":false,"is_disabled":false,"rental_uris":{"android":"levelo://app?vid=1be53d07-36d2-4312-bb90-5a39af7c22c5","ios":"levelo://app?vid=1be53d07-36d2-4312-bb90-5a39af7c22c5"},"vehicle_type_id":"4","last_reported":1769008797,"current_range_meters":4400,"station_id":"ce4bhgp2rcd13ifvqfe0","pricing_plan_id":"cebpf4jnsgd1na2vs0mg"},{"bike_id":"5dbfcf3f-7cec-4c29-8168-14f9c37f7762","system_id":"levelo_inurba_marseille","lat":43.22564,"lon":5.41629,"is_reserved":false,"is_disabled":false,"rental_uris":{"android":"levelo://app?vid=5dbfcf3f-7cec-4c29-8168-14f9c37f7762","ios":"levelo://app?vid=5dbfcf3f-7cec-4c29-8168-14f9c37f7762"},"vehicle_type_id":"4","last_reported":1769008797,"current_range_meters":4400,"station_id":"st_d2o4gvlbi1j2169b742g","pricing_plan_id":"cebpf4jnsgd1na2vs0mg"},{"bike_id":"6f46295d-506c-44b0-a550-6fb127e6ce41","system_id":"levelo_inurba_marseille","lat":43.288597,"lon":5.425148,"is_reserved":false,"is_disabled":false,"rental_uris":{"android":"levelo://app?vid=6f46295d-506c-44b0-a550-6fb127e6ce41","ios":"levelo://app?vid=6f46295d-506c-44b0-a550-6fb127e6ce41"},"vehicle_type_id":"4","last_reported":1769008797,"current_range_meters":4400,"station_id":"ce4bh392rcd13ifvqdm0","pricing_plan_id":"cebpf4jnsgd1na2vs0mg"},{"bike_id":"a53ce889-7f48-423c-a39a-8f7e906a512a","system_id":"levelo_inurba_marseille","lat":43.26691,"lon":5.38256,"is_reserved":false,"is_disabled":false,"rental_uris":{"android":"levelo://app?vid=a53ce889-7f48-423c-a39a-8f7e906a512a","ios":"levelo://app?vid=a53ce889-7f48-423c-a39a-8f7e906a512a"},"vehicle_type_id":"4","last_reported":1769008797,"current_range_meters":4800,"station_id":"ce4bhg92rcd13ifvqf90","pricing_plan_id":"cebpf4jnsgd1na2vs0mg"},{"bike_id":"a438dab4-38af-4eb9-87e3-ba5097c4145b","system_id":"levelo_inurba_marseille","lat":43.25341,"lon":5.4217,"is_reserved":false,"is_disabled":false,"rental_uris":{"android":"levelo://app?vid=a438dab4-38af-4eb9-87e3-ba5097c4145b","ios":"levelo://app?vid=a438dab4-38af-4eb9-87e3-ba5097c4145b"},"vehicle_type_id":"4","last_reported":1769008797,"current_range_meters":4800,"station_id":"st_d2m65c5bi1j21697t3ng","pricing_plan_id":"cebpf4jnsgd1na2vs0mg"},{"bike_id":"394ccb93-cc2d-4e8a-ac01-18019d2f80ad","system_id":"levelo_inurba_marseille","lat":43.29895,"lon":5.43677,"is_reserved":false,"is_disabled":false,"rental_uris":{"android":"levelo://app?vid=394ccb93-cc2d-4e8a-ac01-18019d2f80ad","ios":"levelo://app?vid=394ccb93-cc2d-4e8a-ac01-18019d2f80ad"},"vehicle_type_id":"4","last_reported":1769008797,"current_range_meters":4800,"station_id":"ce4bhpp2rcd13ifvqhfg","pricing_plan_id":"cebpf4jnsgd1na2vs0mg"},{"bike_id":"684924de-9238-4ab8-ade2-e5451cd92ae0","system_id":"levelo_inurba_marseille","lat":43.22933,"lon":5.35373,"is_reserved":false,"is_disabled":false,"rental_uris":{"android":"levelo://app?vid=684924de-9238-4ab8-ade2-e5451cd92ae0","ios":"levelo://app?vid=684924de-9238-4ab8-ade2-e5451cd92ae0"},"vehicle_type_id":"4","last_reported":1769008797,"current_range_meters":4800,"station_id":"cpo3532slgdg3j2ikp40","pricing_plan_id":"cebpf4jnsgd1na2vs0mg"},{"bike_id":"367610fd-314c-4b42-b6fb-f1cf13016be3","system_id":"levelo_inurba_marseille","lat":43.29302,"lon":5.37453,"is_reserved":false,"is_disabled":false,"rental_uris":{"android":"levelo://app?vid=367610fd-314c-4b42-b6fb-f1cf13016be3","ios":"levelo://app?vid=367610fd-314c-4b42-b6fb-f1cf13016be3"},"vehicle_type_id":"4","last_reported":1769008797,"current_range_meters":4800,"station_id":"ce4bgi12rcd13ifvqb70","pricing_plan_id":"cebpf4jnsgd1na2vs0mg"},{"bike_id":"c103ce9c-0aaa-4a53-b373-a704be8ed706","system_id":"levelo_inurba_marseille","lat":43.25361,"lon":5.42178,"is_reserved":false,"is_disabled":false,"rental_uris":{"android":"levelo://app?vid=c103ce9c-0aaa-4a53-b373-a704be8ed706","ios":"levelo://app?vid=c103ce9c-0aaa-4a53-b373-a704be8ed706"},"vehicle_type_id":"4","last_reported":1769008797,"current_range_meters":4800,"station_id":"st_d2m65c5bi1j21697t3ng","pricing_plan_id":"cebpf4jnsgd1na2vs0mg"},{"bike_id":"34c0e104-8ac5-4f79-b594-51b7631e1c5d","system_id":"levelo_inurba_marseille","lat":43.29963,"lon":5.37163,"is_reserved":false,"is_disabled":false,"rental_uris":{"android":"levelo://app?vid=34c0e104-8ac5-4f79-b594-51b7631e1c5d","ios":"levelo://app?vid=34c0e104-8ac5-4f79-b594-51b7631e1c5d"},"vehicle_type_id":"4","last_reported":1769008797,"current_range_meters":4800,"station_id":"ce4bgr92rcd13ifvqc7g","pricing_plan_id":"cebpf4jnsgd1na2vs0mg"},{"bike_id":"9419d8e7-1fda-405d-a92e-5073a597cec2","system_id":"levelo_inurba_marseille","lat":43.30533,"lon":5.36727,"is_reserved":false,"is_disabled":false,"rental_uris":{"android":"levelo://app?vid=9419d8e7-1fda-405d-a92e-5073a597cec2","ios":"levelo://app?vid=9419d8e7-1fda-405d-a92e-5073a597cec2"},"vehicle_type_id":"4","last_reported":1769008797,"current_range_meters":4800,"station_id":"ce4bgrp2rcd13ifvqc9g","pricing_plan_id":"cebpf4jnsgd1na2vs0mg"},{"bike_id":"e2ec3ce1-79e3-4616-950f-4ba8d040a555","system_id":"levelo_inurba_marseille","lat":43.26549,"lon":5.37307,"is_reserved":false,"is_disabled":false,"rental_uris":{"android":"levelo://app?vid=e2ec3ce1-79e3-4616-950f-4ba8d040a555","ios":"levelo://app?vid=e2ec3ce1-79e3-4616-950f-4ba8d040a555"},"vehicle_type_id":"4","last_reported":1769008797,"current_range_meters":4800,"station_id":"ce4bhg12rcd13ifvqf70","pricing_plan_id":"cebpf4jnsgd1na2vs0mg"},{"bike_id":"74db63e2-d1f2-400f-9474-68a341ed39eb","system_id":"levelo_inurba_marseille","lat":43.25817,"lon":5.39432,"is_reserved":false,"is_disabled":false,"rental_uris":{"android":"levelo://app?vid=74db63e2-d1f2-400f-9474-68a341ed39eb","ios":"levelo://app?vid=74db63e2-d1f2-400f-9474-68a341ed39eb"},"vehicle_type_id":"4","last_reported":1769008797,"current_range_meters":4800,"station_id":"ce4bhip2rcd13ifvqft0","pricing_plan_id":"cebpf4jnsgd1na2vs0mg"},{"bike_id":"16a8eb4e-6065-4983-a65c-04af9ed7c7ec","system_id":"levelo_inurba_marseille","lat":43.29274,"lon":5.36851,"is_reserved":false,"is_disabled":false,"rental_uris":{"android":"levelo://app?vid=16a8eb4e-6065-4983-a65c-04af9ed7c7ec","ios":"levelo://app?vid=16a8eb4e-6065-4983-a65c-04af9ed7c7ec"},"vehicle_type_id":"4","last_reported":1769008797,"current_range_meters":4800,"station_id":"ce4bhbp2rcd13ifvqesg","pricing_plan_id":"cebpf4jnsgd1na2vs0mg"},{"bike_id":"8071b732-6495-4355-8bd2-d391f59dfffd","system_id":"levelo_inurba_marseille","lat":43.21756,"lon":5.34595,"is_reserved":false,"is_disabled":false,"rental_uris":{"android":"levelo://app?vid=8071b732-6495-4355-8bd2-d391f59dfffd","ios":"levelo://app?vid=8071b732-6495-4355-8bd2-d391f59dfffd"},"vehicle_type_id":"4","last_reported":1769008797,"current_range_meters":4800,"station_id":"","pricing_plan_id":"cebpf4jnsgd1na2vs0mg"},{"bike_id":"7f57e4b7-adcc-40f6-a2f9-1294ef7abba0","system_id":"levelo_inurba_marseille","lat":43.30906,"lon":5.36835,"is_reserved":false,"is_disabled":false,"rental_uris":{"android":"levelo://app?vid=7f57e4b7-adcc-40f6-a2f9-1294ef7abba0","ios":"levelo://app?vid=7f57e4b7-adcc-40f6-a2f9-1294ef7abba0"},"vehicle_type_id":"4","last_reported":1769008797,"current_range_meters":5600,"station_id":"ce4bgn92rcd13ifvqbvg","pricing_plan_id":"cebpf4jnsgd1na2vs0mg"},{"bike_id":"e518b3b5-ceb8-42df-a40f-1b9cad67801c","system_id":"levelo_inurba_marseille","lat":43.2446,"lon":5.42546,"is_reserved":false,"is_disabled":false,"rental_uris":{"android":"levelo://app?vid=e518b3b5-ceb8-42df-a40f-1b9cad67801c","ios":"levelo://app?vid=e518b3b5-ceb8-42df-a40f-1b9cad67801c"},"vehicle_type_id":"4","last_reported":1769008797,"current_range_meters":5600,"station_id":"st_d4a3vfp97mjs738cd8kg","pricing_plan_id":"cebpf4jnsgd1na2vs0mg"},{"bike_id":"65bb14cd-16b1-4e9b-9544-278b60729e3a","system_id":"levelo_inurba_marseille","lat":43.28322,"lon":5.3739,"is_reserved":false,"is_disabled":false,"rental_uris":{"android":"levelo://app?vid=65bb14cd-16b1-4e9b-9544-278b60729e3a","ios":"levelo://app?vid=65bb14cd-16b1-4e9b-9544-278b60729e3a"},"vehicle_type_id":"4","last_reported":1769008797,"current_range_meters":5600,"station_id":"ce4bh412rcd13ifvqds0","pricing_plan_id":"cebpf4jnsgd1na2vs0mg"},{"bike_id":"153495b2-5255-43d3-b257-40aa9dbeb33b","system_id":"levelo_inurba_marseille","lat":43.27371,"lon":5.36271,"is_reserved":false,"is_disabled":false,"rental_uris":{"android":"levelo://app?vid=153495b2-5255-43d3-b257-40aa9dbeb33b","ios":"levelo://app?vid=153495b2-5255-43d3-b257-40aa9dbeb33b"},"vehicle_type_id":"4","last_reported":1769008797,"current_range_meters":5600,"station_id":"ce4bhbh2rcd13ifvqeo0","pricing_plan_id":"cebpf4jnsgd1na2vs0mg"},{"bike_id":"ad079184-bcde-453a-864a-b15e9eacde93","system_id":"levelo_inurba_marseille","lat":43.26068,"lon":5.39388,"is_reserved":false,"is_disabled":false,"rental_uris":{"android":"levelo://app?vid=ad079184-bcde-453a-864a-b15e9eacde93","ios":"levelo://app?vid=ad079184-bcde-453a-864a-b15e9eacde93"},"vehicle_type_id":"4","last_reported":1769008797,"current_range_meters":5600,"station_id":"ce4bhh92rcd13ifvqfj0","pricing_plan_id":"cebpf4jnsgd1na2vs0mg"},{"bike_id":"33c4481d-66d1-4579-886b-35e65a64fec0","system_id":"levelo_inurba_marseille","lat":43.282637,"lon":5.350625,"is_reserved":false,"is_disabled":false,"rental_uris":{"android":"levelo://app?vid=33c4481d-66d1-4579-886b-35e65a64fec0","ios":"levelo://app?vid=33c4481d-66d1-4579-886b-35e65a64fec0"},"vehicle_type_id":"4","last_reported":1769008797,"current_range_meters":5600,"station_id":"ce4bhah2rcd13ifvqej0","pricing_plan_id":"cebpf4jnsgd1na2vs0mg"},{"bike_id":"60a6b45d-ce53-46f0-bc34-a898a323174a","system_id":"levelo_inurba_marseille","lat":43.28616,"lon":5.35101,"is_reserved":false,"is_disabled":false,"rental_uris":{"android":"levelo://app?vid=60a6b45d-ce53-46f0-bc34-a898a323174a","ios":"levelo://app?vid=60a6b45d-ce53-46f0-bc34-a898a323174a"},"vehicle_type_id":"4","last_reported":1769008797,"current_range_meters":5600,"station_id":"ce4bhch2rcd13ifvqeug","pricing_plan_id":"cebpf4jnsgd1na2vs0mg"},{"bike_id":"e9cf4d98-a47d-4cc7-82f6-b2e075f45c6a","system_id":"levelo_inurba_marseille","lat":43.22568,"lon":5.41629,"is_reserved":false,"is_disabled":false,"rental_uris":{"android":"levelo://app?vid=e9cf4d98-a47d-4cc7-82f6-b2e075f45c6a","ios":"levelo://app?vid=e9cf4d98-a47d-4cc7-82f6-b2e075f45c6a"},"vehicle_type_id":"4","last_reported":1769008797,"current_range_meters":6000,"station_id":"st_d2o4gvlbi1j2169b742g","pricing_plan_id":"cebpf4jnsgd1na2vs0mg"},{"bike_id":"bad72b34-7a97-441b-a2de-27c23c8fe149","system_id":"levelo_inurba_marseille","lat":43.32358,"lon":5.38512,"is_reserved":false,"is_disabled":false,"rental_uris":{"android":"levelo://app?vid=bad72b34-7a97-441b-a2de-27c23c8fe149","ios":"levelo://app?vid=bad72b34-7a97-441b-a2de-27c23c8fe149"},"vehicle_type_id":"4","last_reported":1769008797,"current_range_meters":6000,"station_id":"st_d45171o9ee8s73djdqug","pricing_plan_id":"cebpf4jnsgd1na2vs0mg"},{"bike_id":"8069f374-6bb2-4df8-950d-be2e50fcd180","system_id":"levelo_inurba_marseille","lat":43.31122,"lon":5.37759,"is_reserved":false,"is_disabled":true,"rental_uris":{"android":"levelo://app?vid=8069f374-6bb2-4df8-950d-be2e50fcd180","ios":"levelo://app?vid=8069f374-6bb2-4df8-950d-be2e50fcd180"},"vehicle_type_id":"4","last_reported":1769008797,"current_range_meters":6000,"station_id":"ce4bgt92rcd13ifvqcg0","pricing_plan_id":"cebpf4jnsgd1na2vs0mg"},{"bike_id":"0b74c550-8ef4-428e-a4f9-57584b053a4e","system_id":"levelo_inurba_marseille","lat":43.28728,"lon":5.37931,"is_reserved":false,"is_disabled":false,"rental_uris":{"android":"levelo://app?vid=0b74c550-8ef4-428e-a4f9-57584b053a4e","ios":"levelo://app?vid=0b74c550-8ef4-428e-a4f9-57584b053a4e"},"vehicle_type_id":"4","last_reported":1769008797,"current_range_meters":6000,"station_id":"ce4bh9p2rcd13ifvqec0","pricing_plan_id":"cebpf4jnsgd1na2vs0mg"},{"bike_id":"10c91b11-c19d-41a7-8301-eca5c529c14d","system_id":"levelo_inurba_marseille","lat":43.27843,"lon":5.40676,"is_reserved":false,"is_disabled":false,"rental_uris":{"android":"levelo://app?vid=10c91b11-c19d-41a7-8301-eca5c529c14d","ios":"levelo://app?vid=10c91b11-c19d-41a7-8301-eca5c529c14d"},"vehicle_type_id":"4","last_reported":1769008797,"current_range_meters":6000,"station_id":"ce4bhnh2rcd13ifvqgtg","pricing_plan_id":"cebpf4jnsgd1na2vs0mg"},{"bike_id":"56496f15-285b-4dff-92b3-54ffdff3e399","system_id":"levelo_inurba_marseille","lat":43.26846,"lon":5.39574,"is_reserved":false,"is_disabled":false,"rental_uris":{"android":"levelo://app?vid=56496f15-285b-4dff-92b3-54ffdff3e399","ios":"levelo://app?vid=56496f15-285b-4dff-92b3-54ffdff3e399"},"vehicle_type_id":"4","last_reported":1769008797,"current_range_meters":6000,"station_id":"","pricing_plan_id":"cebpf4jnsgd1na2vs0mg"},{"bike_id":"598ddaa8-44fe-4de5-b98c-6379c379ee25","system_id":"levelo_inurba_marseille","lat":43.241667,"lon":5.363989,"is_reserved":false,"is_disabled":false,"rental_uris":{"android":"levelo://app?vid=598ddaa8-44fe-4de5-b98c-6379c379ee25","ios":"levelo://app?vid=598ddaa8-44fe-4de5-b98c-6379c379ee25"},"vehicle_type_id":"4","last_reported":1769008797,"current_range_meters":6000,"station_id":"cpo36qri1sfpv3e86is0","pricing_plan_id":"cebpf4jnsgd1na2vs0mg"},{"bike_id":"5f6a0a0c-aaf7-41c1-be98-33b50db68fe6","system_id":"levelo_inurba_marseille","lat":43.26485,"lon":5.39544,"is_reserved":false,"is_disabled":true,"rental_uris":{"android":"levelo://app?vid=5f6a0a0c-aaf7-41c1-be98-33b50db68fe6","ios":"levelo://app?vid=5f6a0a0c-aaf7-41c1-be98-33b50db68fe6"},"vehicle_type_id":"4","last_reported":1769008797,"current_range_meters":6000,"station_id":"ce4bhi12rcd13ifvqfq0","pricing_plan_id":"cebpf4jnsgd1na2vs0mg"},{"bike_id":"1af80c1a-b0d4-4c2c-abaf-c31326f7004a","system_id":"levelo_inurba_marseille","lat":43.280332,"lon":5.36942,"is_reserved":false,"is_disabled":false,"rental_uris":{"android":"levelo://app?vid=1af80c1a-b0d4-4c2c-abaf-c31326f7004a","ios":"levelo://app?vid=1af80c1a-b0d4-4c2c-abaf-c31326f7004a"},"vehicle_type_id":"4","last_reported":1769008797,"current_range_meters":6000,"station_id":"ce4bha12rcd13ifvqef0","pricing_plan_id":"cebpf4jnsgd1na2vs0mg"},{"bike_id":"12d50624-36fb-429d-be6d-b5122cf2de21","system_id":"levelo_inurba_marseille","lat":43.317803,"lon":5.390047,"is_reserved":false,"is_disabled":false,"rental_uris":{"android":"levelo://app?vid=12d50624-36fb-429d-be6d-b5122cf2de21","ios":"levelo://app?vid=12d50624-36fb-429d-be6d-b5122cf2de21"},"vehicle_type_id":"4","last_reported":1769008797,"current_range_meters":6000,"station_id":"ce4bhqp2rcd13ifvqhng","pricing_plan_id":"cebpf4jnsgd1na2vs0mg"},{"bike_id":"02bb5eed-6d46-4907-942b-2953f5d09c0c","system_id":"levelo_inurba_marseille","lat":43.309425,"lon":5.368478,"is_reserved":false,"is_disabled":false,"rental_uris":{"android":"levelo://app?vid=02bb5eed-6d46-4907-942b-2953f5d09c0c","ios":"levelo://app?vid=02bb5eed-6d46-4907-942b-2953f5d09c0c"},"vehicle_type_id":"4","last_reported":1769008797,"current_range_meters":6000,"station_id":"ce4bgn92rcd13ifvqbvg","pricing_plan_id":"cebpf4jnsgd1na2vs0mg"},{"bike_id":"bc53fded-5652-4ab5-920f-ec142a69c388","system_id":"levelo_inurba_marseille","lat":43.2979,"lon":5.39366,"is_reserved":false,"is_disabled":false,"rental_uris":{"android":"levelo://app?vid=bc53fded-5652-4ab5-920f-ec142a69c388","ios":"levelo://app?vid=bc53fded-5652-4ab5-920f-ec142a69c388"},"vehicle_type_id":"4","last_reported":1769008797,"current_range_meters":6000,"station_id":"chh1huq6cuj3fo74tm60","pricing_plan_id":"cebpf4jnsgd1na2vs0mg"},{"bike_id":"1e9683fd-3419-4707-ab97-e3b80d5f4bea","system_id":"levelo_inurba_marseille","lat":43.27158,"lon":5.40458,"is_reserved":false,"is_disabled":false,"rental_uris":{"android":"levelo://app?vid=1e9683fd-3419-4707-ab97-e3b80d5f4bea","ios":"levelo://app?vid=1e9683fd-3419-4707-ab97-e3b80d5f4bea"},"vehicle_type_id":"4","last_reported":1769008797,"current_range_meters":6000,"station_id":"","pricing_plan_id":"cebpf4jnsgd1na2vs0mg"},{"bike_id":"c8a70a5c-17b8-4dce-bb97-0a4f7b52bf2f","system_id":"levelo_inurba_marseille","lat":43.2465,"lon":5.389,"is_reserved":false,"is_disabled":false,"rental_uris":{"android":"levelo://app?vid=c8a70a5c-17b8-4dce-bb97-0a4f7b52bf2f","ios":"levelo://app?vid=c8a70a5c-17b8-4dce-bb97-0a4f7b52bf2f"},"vehicle_type_id":"4","last_reported":1769008797,"current_range_meters":6000,"station_id":"ce4bhg12rcd13ifvqf60","pricing_plan_id":"cebpf4jnsgd1na2vs0mg"},{"bike_id":"29bfec45-ad76-429c-882a-34b6f5ca4191","system_id":"levelo_inurba_marseille","lat":43.32103,"lon":5.36773,"is_reserved":false,"is_disabled":false,"rental_uris":{"android":"levelo://app?vid=29bfec45-ad76-429c-882a-34b6f5ca4191","ios":"levelo://app?vid=29bfec45-ad76-429c-882a-34b6f5ca4191"},"vehicle_type_id":"4","last_reported":1769008797,"current_range_meters":6000,"station_id":"ce4bhrh2rcd13ifvqhug","pricing_plan_id":"cebpf4jnsgd1na2vs0mg"},{"bike_id":"af269778-306e-4b33-a383-4068740aa996","system_id":"levelo_inurba_marseille","lat":43.29619,"lon":5.37156,"is_reserved":false,"is_disabled":false,"rental_uris":{"android":"levelo://app?vid=af269778-306e-4b33-a383-4068740aa996","ios":"levelo://app?vid=af269778-306e-4b33-a383-4068740aa996"},"vehicle_type_id":"4","last_reported":1769008797,"current_range_meters":6000,"station_id":"ce4bgnh2rcd13ifvqc0g","pricing_plan_id":"cebpf4jnsgd1na2vs0mg"},{"bike_id":"d8903209-6fa2-4155-9052-85954318829d","system_id":"levelo_inurba_marseille","lat":43.24174,"lon":5.39729,"is_reserved":false,"is_disabled":false,"rental_uris":{"android":"levelo://app?vid=d8903209-6fa2-4155-9052-85954318829d","ios":"levelo://app?vid=d8903209-6fa2-4155-9052-85954318829d"},"vehicle_type_id":"4","last_reported":1769008797,"current_range_meters":6000,"station_id":"ce4bhn12rcd13ifvqgpg","pricing_plan_id":"cebpf4jnsgd1na2vs0mg"},{"bike_id":"4583653e-b607-4b10-bc93-7e3c9e290288","system_id":"levelo_inurba_marseille","lat":43.26782,"lon":5.39412,"is_reserved":false,"is_disabled":false,"rental_uris":{"android":"levelo://app?vid=4583653e-b607-4b10-bc93-7e3c9e290288","ios":"levelo://app?vid=4583653e-b607-4b10-bc93-7e3c9e290288"},"vehicle_type_id":"4","last_reported":1769008797,"current_range_meters":6000,"station_id":"ce4bhh12rcd13ifvqfg0","pricing_plan_id":"cebpf4jnsgd1na2vs0mg"},{"bike_id":"92627d90-ac48-4227-8b3f-dad6aa59d4b3","system_id":"levelo_inurba_marseille","lat":43.211905,"lon":5.350786,"is_reserved":false,"is_disabled":false,"rental_uris":{"android":"levelo://app?vid=92627d90-ac48-4227-8b3f-dad6aa59d4b3","ios":"levelo://app?vid=92627d90-ac48-4227-8b3f-dad6aa59d4b3"},"vehicle_type_id":"4","last_reported":1769008797,"current_range_meters":6400,"station_id":"","pricing_plan_id":"cebpf4jnsgd1na2vs0mg"},{"bike_id":"4178a09e-0057-4db3-ad9c-f96c7ccfdb30","system_id":"levelo_inurba_marseille","lat":43.2991,"lon":5.37456,"is_reserved":false,"is_disabled":false,"rental_uris":{"android":"levelo://app?vid=4178a09e-0057-4db3-ad9c-f96c7ccfdb30","ios":"levelo://app?vid=4178a09e-0057-4db3-ad9c-f96c7ccfdb30"},"vehicle_type_id":"4","last_reported":1769008797,"current_range_meters":6400,"station_id":"ce4bgjh2rcd13ifvqbg0","pricing_plan_id":"cebpf4jnsgd1na2vs0mg"},{"bike_id":"1c4dcd1e-fbcf-400b-b7b6-5953d2100e9f","system_id":"levelo_inurba_marseille","lat":43.29617,"lon":5.37158,"is_reserved":false,"is_disabled":false,"rental_uris":{"android":"levelo://app?vid=1c4dcd1e-fbcf-400b-b7b6-5953d2100e9f","ios":"levelo://app?vid=1c4dcd1e-fbcf-400b-b7b6-5953d2100e9f"},"vehicle_type_id":"4","last_reported":1769008797,"current_range_meters":6400,"station_id":"ce4bgnh2rcd13ifvqc0g","pricing_plan_id":"cebpf4jnsgd1na2vs0mg"},{"bike_id":"957f7061-d92f-42e6-a864-fbbd62c46fec","system_id":"levelo_inurba_marseille","lat":43.231577,"lon":5.437056,"is_reserved":false,"is_disabled":false,"rental_uris":{"android":"levelo://app?vid=957f7061-d92f-42e6-a864-fbbd62c46fec","ios":"levelo://app?vid=957f7061-d92f-42e6-a864-fbbd62c46fec"},"vehicle_type_id":"4","last_reported":1769008797,"current_range_meters":6400,"station_id":"ce4bhmp2rcd13ifvqgog","pricing_plan_id":"cebpf4jnsgd1na2vs0mg"},{"bike_id":"fc4e3a66-55ac-450e-a159-861862597655","system_id":"levelo_inurba_marseille","lat":43.273165,"lon":5.3908,"is_reserved":false,"is_disabled":false,"rental_uris":{"android":"levelo://app?vid=fc4e3a66-55ac-450e-a159-861862597655","ios":"levelo://app?vid=fc4e3a66-55ac-450e-a159-861862597655"},"vehicle_type_id":"4","last_reported":1769008797,"current_range_meters":6400,"station_id":"ce4bhgp2rcd13ifvqfe0","pricing_plan_id":"cebpf4jnsgd1na2vs0mg"},{"bike_id":"99d65f09-c0e6-4f0f-b72f-6e110c0f1bd4","system_id":"levelo_inurba_marseille","lat":43.29011,"lon":5.37624,"is_reserved":false,"is_disabled":false,"rental_uris":{"android":"levelo://app?vid=99d65f09-c0e6-4f0f-b72f-6e110c0f1bd4","ios":"levelo://app?vid=99d65f09-c0e6-4f0f-b72f-6e110c0f1bd4"},"vehicle_type_id":"4","last_reported":1769008797,"current_range_meters":6400,"station_id":"ce4bh692rcd13ifvqe90","pricing_plan_id":"cebpf4jnsgd1na2vs0mg"},{"bike_id":"9fe9b7fa-bf5e-456b-b148-d56a572e2392","system_id":"levelo_inurba_marseille","lat":43.2256,"lon":5.4164,"is_reserved":false,"is_disabled":false,"rental_uris":{"android":"levelo://app?vid=9fe9b7fa-bf5e-456b-b148-d56a572e2392","ios":"levelo://app?vid=9fe9b7fa-bf5e-456b-b148-d56a572e2392"},"vehicle_type_id":"4","last_reported":1769008797,"current_range_meters":6400,"station_id":"st_d2o4gvlbi1j2169b742g","pricing_plan_id":"cebpf4jnsgd1na2vs0mg"},{"bike_id":"2351e1c9-97c0-42ed-8ba7-93d168c64106","system_id":"levelo_inurba_marseille","lat":43.29772,"lon":5.42776,"is_reserved":false,"is_disabled":false,"rental_uris":{"android":"levelo://app?vid=2351e1c9-97c0-42ed-8ba7-93d168c64106","ios":"levelo://app?vid=2351e1c9-97c0-42ed-8ba7-93d168c64106"},"vehicle_type_id":"4","last_reported":1769008797,"current_range_meters":6400,"station_id":"st_d3md5207bmas73dh9klg","pricing_plan_id":"cebpf4jnsgd1na2vs0mg"},{"bike_id":"00729f81-defe-4949-ab38-da427b717ebf","system_id":"levelo_inurba_marseille","lat":43.262174,"lon":5.404455,"is_reserved":false,"is_disabled":false,"rental_uris":{"android":"levelo://app?vid=00729f81-defe-4949-ab38-da427b717ebf","ios":"levelo://app?vid=00729f81-defe-4949-ab38-da427b717ebf"},"vehicle_type_id":"4","last_reported":1769008797,"current_range_meters":6400,"station_id":"ce4bhmh2rcd13ifvqgmg","pricing_plan_id":"cebpf4jnsgd1na2vs0mg"},{"bike_id":"511fc97e-4342-48bd-969a-a85990179b2c","system_id":"levelo_inurba_marseille","lat":43.3017,"lon":5.38069,"is_reserved":false,"is_disabled":false,"rental_uris":{"android":"levelo://app?vid=511fc97e-4342-48bd-969a-a85990179b2c","ios":"levelo://app?vid=511fc97e-4342-48bd-969a-a85990179b2c"},"vehicle_type_id":"4","last_reported":1769008797,"current_range_meters":6400,"station_id":"ce4bgjp2rcd13ifvqbh0","pricing_plan_id":"cebpf4jnsgd1na2vs0mg"},{"bike_id":"6b0a7910-4f3c-47d6-b165-5319282e4ed9","system_id":"levelo_inurba_marseille","lat":43.33541,"lon":5.3747,"is_reserved":false,"is_disabled":false,"rental_uris":{"android":"levelo://app?vid=6b0a7910-4f3c-47d6-b165-5319282e4ed9","ios":"levelo://app?vid=6b0a7910-4f3c-47d6-b165-5319282e4ed9"},"vehicle_type_id":"4","last_reported":1769008797,"current_range_meters":6400,"station_id":"","pricing_plan_id":"cebpf4jnsgd1na2vs0mg"},{"bike_id":"93c7a025-127d-40b2-862c-98919fbc02da","system_id":"levelo_inurba_marseille","lat":43.23197,"lon":5.3997,"is_reserved":false,"is_disabled":false,"rental_uris":{"android":"levelo://app?vid=93c7a025-127d-40b2-862c-98919fbc02da","ios":"levelo://app?vid=93c7a025-127d-40b2-862c-98919fbc02da"},"vehicle_type_id":"4","last_reported":1769008797,"current_range_meters":6400,"station_id":"ce4bhn12rcd13ifvqgqg","pricing_plan_id":"cebpf4jnsgd1na2vs0mg"},{"bike_id":"d89b50c4-db54-4baa-aec9-247ae4e92aef","system_id":"levelo_inurba_marseille","lat":43.273426,"lon":5.362575,"is_reserved":false,"is_disabled":false,"rental_uris":{"android":"levelo://app?vid=d89b50c4-db54-4baa-aec9-247ae4e92aef","ios":"levelo://app?vid=d89b50c4-db54-4baa-aec9-247ae4e92aef"},"vehicle_type_id":"4","last_reported":1769008797,"current_range_meters":6400,"station_id":"ce4bhbh2rcd13ifvqeo0","pricing_plan_id":"cebpf4jnsgd1na2vs0mg"},{"bike_id":"31c21be6-18ca-494d-8d01-2f205767068d","system_id":"levelo_inurba_marseille","lat":43.31853,"lon":5.3746,"is_reserved":false,"is_disabled":false,"rental_uris":{"android":"levelo://app?vid=31c21be6-18ca-494d-8d01-2f205767068d","ios":"levelo://app?vid=31c21be6-18ca-494d-8d01-2f205767068d"},"vehicle_type_id":"4","last_reported":1769008797,"current_range_meters":6400,"station_id":"","pricing_plan_id":"cebpf4jnsgd1na2vs0mg"},{"bike_id":"f72efe51-12d3-4c91-8eb1-b0d276f7cb47","system_id":"levelo_inurba_marseille","lat":43.248039,"lon":5.374545,"is_reserved":false,"is_disabled":false,"rental_uris":{"android":"levelo://app?vid=f72efe51-12d3-4c91-8eb1-b0d276f7cb47","ios":"levelo://app?vid=f72efe51-12d3-4c91-8eb1-b0d276f7cb47"},"vehicle_type_id":"4","last_reported":1769008797,"current_range_meters":6400,"station_id":"ce4bhgh2rcd13ifvqfb0","pricing_plan_id":"cebpf4jnsgd1na2vs0mg"},{"bike_id":"d63e6119-384a-4d14-b47c-96d45b7ac496","system_id":"levelo_inurba_marseille","lat":43.2894,"lon":5.3663,"is_reserved":false,"is_disabled":false,"rental_uris":{"android":"levelo://app?vid=d63e6119-384a-4d14-b47c-96d45b7ac496","ios":"levelo://app?vid=d63e6119-384a-4d14-b47c-96d45b7ac496"},"vehicle_type_id":"4","last_reported":1769008797,"current_range_meters":6400,"station_id":"ce4bhap2rcd13ifvqek0","pricing_plan_id":"cebpf4jnsgd1na2vs0mg"},{"bike_id":"e6df6fb7-994b-4037-99d6-76175fe9a7d0","system_id":"levelo_inurba_marseille","lat":43.23198,"lon":5.39988,"is_reserved":false,"is_disabled":false,"rental_uris":{"android":"levelo://app?vid=e6df6fb7-994b-4037-99d6-76175fe9a7d0","ios":"levelo://app?vid=e6df6fb7-994b-4037-99d6-76175fe9a7d0"},"vehicle_type_id":"4","last_reported":1769008797,"current_range_meters":6400,"station_id":"ce4bhn12rcd13ifvqgqg","pricing_plan_id":"cebpf4jnsgd1na2vs0mg"},{"bike_id":"70c4dff7-2a4a-497f-87c5-b875ff1b597a","system_id":"levelo_inurba_marseille","lat":43.26555,"lon":5.37268,"is_reserved":false,"is_disabled":false,"rental_uris":{"android":"levelo://app?vid=70c4dff7-2a4a-497f-87c5-b875ff1b597a","ios":"levelo://app?vid=70c4dff7-2a4a-497f-87c5-b875ff1b597a"},"vehicle_type_id":"4","last_reported":1769008797,"current_range_meters":6400,"station_id":"ce4bhg12rcd13ifvqf70","pricing_plan_id":"cebpf4jnsgd1na2vs0mg"},{"bike_id":"e7f76cdd-69c1-4b4a-aab9-81b38847c33b","system_id":"levelo_inurba_marseille","lat":43.24384,"lon":5.37045,"is_reserved":false,"is_disabled":false,"rental_uris":{"android":"levelo://app?vid=e7f76cdd-69c1-4b4a-aab9-81b38847c33b","ios":"levelo://app?vid=e7f76cdd-69c1-4b4a-aab9-81b38847c33b"},"vehicle_type_id":"4","last_reported":1769008797,"current_range_meters":6400,"station_id":"ce4bhhh2rcd13ifvqfk0","pricing_plan_id":"cebpf4jnsgd1na2vs0mg"},{"bike_id":"e47dfb0a-fd42-4915-8bd4-c942b77cb4c9","system_id":"levelo_inurba_marseille","lat":43.255805,"lon":5.382316,"is_reserved":false,"is_disabled":false,"rental_uris":{"android":"levelo://app?vid=e47dfb0a-fd42-4915-8bd4-c942b77cb4c9","ios":"levelo://app?vid=e47dfb0a-fd42-4915-8bd4-c942b77cb4c9"},"vehicle_type_id":"4","last_reported":1769008797,"current_range_meters":6400,"station_id":"ce4bhih2rcd13ifvqfs0","pricing_plan_id":"cebpf4jnsgd1na2vs0mg"},{"bike_id":"0379376e-0eb6-46fc-a08a-b7751f70a695","system_id":"levelo_inurba_marseille","lat":43.30554,"lon":5.36534,"is_reserved":false,"is_disabled":false,"rental_uris":{"android":"levelo://app?vid=0379376e-0eb6-46fc-a08a-b7751f70a695","ios":"levelo://app?vid=0379376e-0eb6-46fc-a08a-b7751f70a695"},"vehicle_type_id":"4","last_reported":1769008797,"current_range_meters":6800,"station_id":"ce4bgs12rcd13ifvqcag","pricing_plan_id":"cebpf4jnsgd1na2vs0mg"},{"bike_id":"f73788f7-dec5-4308-a431-6e346b811946","system_id":"levelo_inurba_marseille","lat":43.30168,"lon":5.38057,"is_reserved":false,"is_disabled":false,"rental_uris":{"android":"levelo://app?vid=f73788f7-dec5-4308-a431-6e346b811946","ios":"levelo://app?vid=f73788f7-dec5-4308-a431-6e346b811946"},"vehicle_type_id":"4","last_reported":1769008797,"current_range_meters":6800,"station_id":"ce4bgjp2rcd13ifvqbh0","pricing_plan_id":"cebpf4jnsgd1na2vs0mg"},{"bike_id":"5f477738-733e-4c98-961a-33429c5938fd","system_id":"levelo_inurba_marseille","lat":43.260586,"lon":5.393984,"is_reserved":false,"is_disabled":false,"rental_uris":{"android":"levelo://app?vid=5f477738-733e-4c98-961a-33429c5938fd","ios":"levelo://app?vid=5f477738-733e-4c98-961a-33429c5938fd"},"vehicle_type_id":"4","last_reported":1769008797,"current_range_meters":6800,"station_id":"ce4bhh92rcd13ifvqfj0","pricing_plan_id":"cebpf4jnsgd1na2vs0mg"},{"bike_id":"bafc9506-a3a2-4822-8cfc-002093a965c0","system_id":"levelo_inurba_marseille","lat":43.24821,"lon":5.37464,"is_reserved":false,"is_disabled":false,"rental_uris":{"android":"levelo://app?vid=bafc9506-a3a2-4822-8cfc-002093a965c0","ios":"levelo://app?vid=bafc9506-a3a2-4822-8cfc-002093a965c0"},"vehicle_type_id":"4","last_reported":1769008797,"current_range_meters":6800,"station_id":"ce4bhgh2rcd13ifvqfb0","pricing_plan_id":"cebpf4jnsgd1na2vs0mg"},{"bike_id":"89135454-4abd-4d5a-82e0-204044686012","system_id":"levelo_inurba_marseille","lat":43.27997,"lon":5.40007,"is_reserved":false,"is_disabled":false,"rental_uris":{"android":"levelo://app?vid=89135454-4abd-4d5a-82e0-204044686012","ios":"levelo://app?vid=89135454-4abd-4d5a-82e0-204044686012"},"vehicle_type_id":"4","last_reported":1769008797,"current_range_meters":6800,"station_id":"ce4bho92rcd13ifvqh4g","pricing_plan_id":"cebpf4jnsgd1na2vs0mg"},{"bike_id":"5bdad711-817a-42cc-84b1-10d4beae812a","system_id":"levelo_inurba_marseille","lat":43.2256,"lon":5.41631,"is_reserved":false,"is_disabled":false,"rental_uris":{"android":"levelo://app?vid=5bdad711-817a-42cc-84b1-10d4beae812a","ios":"levelo://app?vid=5bdad711-817a-42cc-84b1-10d4beae812a"},"vehicle_type_id":"4","last_reported":1769008797,"current_range_meters":6800,"station_id":"st_d2o4gvlbi1j2169b742g","pricing_plan_id":"cebpf4jnsgd1na2vs0mg"},{"bike_id":"a8cbb882-191f-449c-9c7d-fae3860a6568","system_id":"levelo_inurba_marseille","lat":43.26943,"lon":5.40252,"is_reserved":false,"is_disabled":false,"rental_uris":{"android":"levelo://app?vid=a8cbb882-191f-449c-9c7d-fae3860a6568","ios":"levelo://app?vid=a8cbb882-191f-449c-9c7d-fae3860a6568"},"vehicle_type_id":"4","last_reported":1769008797,"current_range_meters":6800,"station_id":"cjm6bp8fraef2m0cb0m0","pricing_plan_id":"cebpf4jnsgd1na2vs0mg"},{"bike_id":"8c9d9dd5-6ae3-4a8b-ab79-ea51ac5d3931","system_id":"levelo_inurba_marseille","lat":43.27981,"lon":5.41659,"is_reserved":false,"is_disabled":false,"rental_uris":{"android":"levelo://app?vid=8c9d9dd5-6ae3-4a8b-ab79-ea51ac5d3931","ios":"levelo://app?vid=8c9d9dd5-6ae3-4a8b-ab79-ea51ac5d3931"},"vehicle_type_id":"4","last_reported":1769008797,"current_range_meters":6800,"station_id":"ce4bho12rcd13ifvqh1g","pricing_plan_id":"cebpf4jnsgd1na2vs0mg"},{"bike_id":"d800779d-1be3-4b3b-bd26-326b29efb8d6","system_id":"levelo_inurba_marseille","lat":43.243252,"lon":5.396628,"is_reserved":false,"is_disabled":false,"rental_uris":{"android":"levelo://app?vid=d800779d-1be3-4b3b-bd26-326b29efb8d6","ios":"levelo://app?vid=d800779d-1be3-4b3b-bd26-326b29efb8d6"},"vehicle_type_id":"4","last_reported":1769008797,"current_range_meters":6800,"station_id":"st_d3nk18o9ro0c73en2l3g","pricing_plan_id":"cebpf4jnsgd1na2vs0mg"},{"bike_id":"5b9b3b18-99c1-4f9d-8b57-c4139ebc48e1","system_id":"levelo_inurba_marseille","lat":43.317065,"lon":5.376988,"is_reserved":false,"is_disabled":false,"rental_uris":{"android":"levelo://app?vid=5b9b3b18-99c1-4f9d-8b57-c4139ebc48e1","ios":"levelo://app?vid=5b9b3b18-99c1-4f9d-8b57-c4139ebc48e1"},"vehicle_type_id":"4","last_reported":1769008797,"current_range_meters":6800,"station_id":"","pricing_plan_id":"cebpf4jnsgd1na2vs0mg"},{"bike_id":"9b2e69b4-4805-4b44-bd70-a411a2910006","system_id":"levelo_inurba_marseille","lat":43.2706,"lon":5.40261,"is_reserved":false,"is_disabled":false,"rental_uris":{"android":"levelo://app?vid=9b2e69b4-4805-4b44-bd70-a411a2910006","ios":"levelo://app?vid=9b2e69b4-4805-4b44-bd70-a411a2910006"},"vehicle_type_id":"4","last_reported":1769008797,"current_range_meters":6800,"station_id":"ce4bhk92rcd13ifvqgc0","pricing_plan_id":"cebpf4jnsgd1na2vs0mg"},{"bike_id":"f301122d-f153-4ba4-b2ce-7618956b050f","system_id":"levelo_inurba_marseille","lat":43.26211,"lon":5.3745,"is_reserved":false,"is_disabled":false,"rental_uris":{"android":"levelo://app?vid=f301122d-f153-4ba4-b2ce-7618956b050f","ios":"levelo://app?vid=f301122d-f153-4ba4-b2ce-7618956b050f"},"vehicle_type_id":"4","last_reported":1769008797,"current_range_meters":6800,"station_id":"ce4bhgp2rcd13ifvqfc0","pricing_plan_id":"cebpf4jnsgd1na2vs0mg"},{"bike_id":"9c6a25af-e602-4830-9f55-98a08de3d70c","system_id":"levelo_inurba_marseille","lat":43.28618,"lon":5.35103,"is_reserved":false,"is_disabled":false,"rental_uris":{"android":"levelo://app?vid=9c6a25af-e602-4830-9f55-98a08de3d70c","ios":"levelo://app?vid=9c6a25af-e602-4830-9f55-98a08de3d70c"},"vehicle_type_id":"4","last_reported":1769008797,"current_range_meters":6800,"station_id":"ce4bhch2rcd13ifvqeug","pricing_plan_id":"cebpf4jnsgd1na2vs0mg"},{"bike_id":"60f5b5d2-bdd9-4296-ae74-cba0d079ef9d","system_id":"levelo_inurba_marseille","lat":43.29548,"lon":5.37524,"is_reserved":false,"is_disabled":false,"rental_uris":{"android":"levelo://app?vid=60f5b5d2-bdd9-4296-ae74-cba0d079ef9d","ios":"levelo://app?vid=60f5b5d2-bdd9-4296-ae74-cba0d079ef9d"},"vehicle_type_id":"4","last_reported":1769008797,"current_range_meters":6800,"station_id":"ce4bgkp2rcd13ifvqbmg","pricing_plan_id":"cebpf4jnsgd1na2vs0mg"},{"bike_id":"d219e86e-7bd2-4634-893c-c4dc3b412045","system_id":"levelo_inurba_marseille","lat":43.25578,"lon":5.38235,"is_reserved":false,"is_disabled":false,"rental_uris":{"android":"levelo://app?vid=d219e86e-7bd2-4634-893c-c4dc3b412045","ios":"levelo://app?vid=d219e86e-7bd2-4634-893c-c4dc3b412045"},"vehicle_type_id":"4","last_reported":1769008797,"current_range_meters":6800,"station_id":"ce4bhih2rcd13ifvqfs0","pricing_plan_id":"cebpf4jnsgd1na2vs0mg"},{"bike_id":"779c5370-daaa-4d54-ab12-1755b8458758","system_id":"levelo_inurba_marseille","lat":43.29248,"lon":5.40144,"is_reserved":false,"is_disabled":false,"rental_uris":{"android":"levelo://app?vid=779c5370-daaa-4d54-ab12-1755b8458758","ios":"levelo://app?vid=779c5370-daaa-4d54-ab12-1755b8458758"},"vehicle_type_id":"4","last_reported":1769008797,"current_range_meters":6800,"station_id":"ce4bh312rcd13ifvqdk0","pricing_plan_id":"cebpf4jnsgd1na2vs0mg"},{"bike_id":"416786c9-5441-4ae2-97be-8dd18ff4a833","system_id":"levelo_inurba_marseille","lat":43.26579,"lon":5.40315,"is_reserved":false,"is_disabled":false,"rental_uris":{"android":"levelo://app?vid=416786c9-5441-4ae2-97be-8dd18ff4a833","ios":"levelo://app?vid=416786c9-5441-4ae2-97be-8dd18ff4a833"},"vehicle_type_id":"4","last_reported":1769008797,"current_range_meters":6800,"station_id":"ce4bhmp2rcd13ifvqgng","pricing_plan_id":"cebpf4jnsgd1na2vs0mg"},{"bike_id":"f3f27d86-0784-4222-889b-15433e5b0baf","system_id":"levelo_inurba_marseille","lat":43.24462,"lon":5.42532,"is_reserved":false,"is_disabled":false,"rental_uris":{"android":"levelo://app?vid=f3f27d86-0784-4222-889b-15433e5b0baf","ios":"levelo://app?vid=f3f27d86-0784-4222-889b-15433e5b0baf"},"vehicle_type_id":"4","last_reported":1769008797,"current_range_meters":7200,"station_id":"st_d4a3vfp97mjs738cd8kg","pricing_plan_id":"cebpf4jnsgd1na2vs0mg"},{"bike_id":"f09c06aa-a05d-4b00-b228-d8bee2b62b4f","system_id":"levelo_inurba_marseille","lat":43.32348,"lon":5.36741,"is_reserved":false,"is_disabled":false,"rental_uris":{"android":"levelo://app?vid=f09c06aa-a05d-4b00-b228-d8bee2b62b4f","ios":"levelo://app?vid=f09c06aa-a05d-4b00-b228-d8bee2b62b4f"},"vehicle_type_id":"4","last_reported":1769008797,"current_range_meters":7200,"station_id":"ce4bhsh2rcd13ifvqi2g","pricing_plan_id":"cebpf4jnsgd1na2vs0mg"},{"bike_id":"054e163b-1e47-4a0a-a038-a7939885860e","system_id":"levelo_inurba_marseille","lat":43.32347,"lon":5.36727,"is_reserved":false,"is_disabled":false,"rental_uris":{"android":"levelo://app?vid=054e163b-1e47-4a0a-a038-a7939885860e","ios":"levelo://app?vid=054e163b-1e47-4a0a-a038-a7939885860e"},"vehicle_type_id":"4","last_reported":1769008797,"current_range_meters":7200,"station_id":"ce4bhsh2rcd13ifvqi2g","pricing_plan_id":"cebpf4jnsgd1na2vs0mg"},{"bike_id":"ffabd398-f54b-45bd-9851-1b3115defcf6","system_id":"levelo_inurba_marseille","lat":43.24181,"lon":5.39702,"is_reserved":false,"is_disabled":false,"rental_uris":{"android":"levelo://app?vid=ffabd398-f54b-45bd-9851-1b3115defcf6","ios":"levelo://app?vid=ffabd398-f54b-45bd-9851-1b3115defcf6"},"vehicle_type_id":"4","last_reported":1769008797,"current_range_meters":7200,"station_id":"ce4bhn12rcd13ifvqgpg","pricing_plan_id":"cebpf4jnsgd1na2vs0mg"},{"bike_id":"f2be0d3a-c780-49f9-ac96-5d6cd13e769b","system_id":"levelo_inurba_marseille","lat":43.24548,"lon":5.3952,"is_reserved":false,"is_disabled":false,"rental_uris":{"android":"levelo://app?vid=f2be0d3a-c780-49f9-ac96-5d6cd13e769b","ios":"levelo://app?vid=f2be0d3a-c780-49f9-ac96-5d6cd13e769b"},"vehicle_type_id":"4","last_reported":1769008797,"current_range_meters":7200,"station_id":"ce4bhlp2rcd13ifvqgjg","pricing_plan_id":"cebpf4jnsgd1na2vs0mg"},{"bike_id":"bb5e6a2e-6ae0-470f-8518-1b246fed6d00","system_id":"levelo_inurba_marseille","lat":43.28721,"lon":5.37946,"is_reserved":false,"is_disabled":false,"rental_uris":{"android":"levelo://app?vid=bb5e6a2e-6ae0-470f-8518-1b246fed6d00","ios":"levelo://app?vid=bb5e6a2e-6ae0-470f-8518-1b246fed6d00"},"vehicle_type_id":"4","last_reported":1769008797,"current_range_meters":7200,"station_id":"ce4bh9p2rcd13ifvqec0","pricing_plan_id":"cebpf4jnsgd1na2vs0mg"},{"bike_id":"fd959035-d2da-4511-9d16-6e7ed4b775a3","system_id":"levelo_inurba_marseille","lat":43.24555,"lon":5.39513,"is_reserved":false,"is_disabled":false,"rental_uris":{"android":"levelo://app?vid=fd959035-d2da-4511-9d16-6e7ed4b775a3","ios":"levelo://app?vid=fd959035-d2da-4511-9d16-6e7ed4b775a3"},"vehicle_type_id":"4","last_reported":1769008797,"current_range_meters":7200,"station_id":"ce4bhlp2rcd13ifvqgjg","pricing_plan_id":"cebpf4jnsgd1na2vs0mg"},{"bike_id":"99c29b70-ca8b-4bfd-8033-9b623e080983","system_id":"levelo_inurba_marseille","lat":43.29622,"lon":5.37158,"is_reserved":false,"is_disabled":false,"rental_uris":{"android":"levelo://app?vid=99c29b70-ca8b-4bfd-8033-9b623e080983","ios":"levelo://app?vid=99c29b70-ca8b-4bfd-8033-9b623e080983"},"vehicle_type_id":"4","last_reported":1769008797,"current_range_meters":7200,"station_id":"ce4bgnh2rcd13ifvqc0g","pricing_plan_id":"cebpf4jnsgd1na2vs0mg"},{"bike_id":"67ee24bc-76b2-4aeb-9e34-516f561b3506","system_id":"levelo_inurba_marseille","lat":43.2594,"lon":5.40898,"is_reserved":false,"is_disabled":false,"rental_uris":{"android":"levelo://app?vid=67ee24bc-76b2-4aeb-9e34-516f561b3506","ios":"levelo://app?vid=67ee24bc-76b2-4aeb-9e34-516f561b3506"},"vehicle_type_id":"4","last_reported":1769008797,"current_range_meters":7200,"station_id":"ce4bhm92rcd13ifvqglg","pricing_plan_id":"cebpf4jnsgd1na2vs0mg"},{"bike_id":"69cadbd2-5224-4e51-ae89-c9629cd1670e","system_id":"levelo_inurba_marseille","lat":43.212,"lon":5.35078,"is_reserved":false,"is_disabled":false,"rental_uris":{"android":"levelo://app?vid=69cadbd2-5224-4e51-ae89-c9629cd1670e","ios":"levelo://app?vid=69cadbd2-5224-4e51-ae89-c9629cd1670e"},"vehicle_type_id":"4","last_reported":1769008797,"current_range_meters":7200,"station_id":"st_cvj6sg6p6f1abm77japg","pricing_plan_id":"cebpf4jnsgd1na2vs0mg"},{"bike_id":"c54db9bf-098e-4e88-a2d4-d344b96088cc","system_id":"levelo_inurba_marseille","lat":43.29229,"lon":5.362194,"is_reserved":false,"is_disabled":false,"rental_uris":{"android":"levelo://app?vid=c54db9bf-098e-4e88-a2d4-d344b96088cc","ios":"levelo://app?vid=c54db9bf-098e-4e88-a2d4-d344b96088cc"},"vehicle_type_id":"4","last_reported":1769008797,"current_range_meters":7200,"station_id":"ce4bhbh2rcd13ifvqeqg","pricing_plan_id":"cebpf4jnsgd1na2vs0mg"},{"bike_id":"5e4f73e3-15b5-4161-b411-195292d3e766","system_id":"levelo_inurba_marseille","lat":43.24466,"lon":5.42533,"is_reserved":false,"is_disabled":false,"rental_uris":{"android":"levelo://app?vid=5e4f73e3-15b5-4161-b411-195292d3e766","ios":"levelo://app?vid=5e4f73e3-15b5-4161-b411-195292d3e766"},"vehicle_type_id":"4","last_reported":1769008797,"current_range_meters":7200,"station_id":"st_d4a3vfp97mjs738cd8kg","pricing_plan_id":"cebpf4jnsgd1na2vs0mg"},{"bike_id":"680c5331-bc27-4ba1-877b-285f359ab6df","system_id":"levelo_inurba_marseille","lat":43.32756,"lon":5.39231,"is_reserved":false,"is_disabled":false,"rental_uris":{"android":"levelo://app?vid=680c5331-bc27-4ba1-877b-285f359ab6df","ios":"levelo://app?vid=680c5331-bc27-4ba1-877b-285f359ab6df"},"vehicle_type_id":"4","last_reported":1769008797,"current_range_meters":7200,"station_id":"","pricing_plan_id":"cebpf4jnsgd1na2vs0mg"},{"bike_id":"87376c51-7b52-4611-acd2-49441baafe3f","system_id":"levelo_inurba_marseille","lat":43.24611,"lon":5.40218,"is_reserved":false,"is_disabled":false,"rental_uris":{"android":"levelo://app?vid=87376c51-7b52-4611-acd2-49441baafe3f","ios":"levelo://app?vid=87376c51-7b52-4611-acd2-49441baafe3f"},"vehicle_type_id":"4","last_reported":1769008797,"current_range_meters":7200,"station_id":"","pricing_plan_id":"cebpf4jnsgd1na2vs0mg"},{"bike_id":"cc08d2b6-69fb-4c32-9f0f-91f88c556b74","system_id":"levelo_inurba_marseille","lat":43.22934,"lon":5.35381,"is_reserved":false,"is_disabled":false,"rental_uris":{"android":"levelo://app?vid=cc08d2b6-69fb-4c32-9f0f-91f88c556b74","ios":"levelo://app?vid=cc08d2b6-69fb-4c32-9f0f-91f88c556b74"},"vehicle_type_id":"4","last_reported":1769008797,"current_range_meters":7200,"station_id":"cpo3532slgdg3j2ikp40","pricing_plan_id":"cebpf4jnsgd1na2vs0mg"},{"bike_id":"43448dd5-9537-449d-8160-6a955b585b98","system_id":"levelo_inurba_marseille","lat":43.25581,"lon":5.38232,"is_reserved":false,"is_disabled":false,"rental_uris":{"android":"levelo://app?vid=43448dd5-9537-449d-8160-6a955b585b98","ios":"levelo://app?vid=43448dd5-9537-449d-8160-6a955b585b98"},"vehicle_type_id":"4","last_reported":1769008797,"current_range_meters":7200,"station_id":"ce4bhih2rcd13ifvqfs0","pricing_plan_id":"cebpf4jnsgd1na2vs0mg"},{"bike_id":"15323a66-193b-4084-987d-2a29bba519f3","system_id":"levelo_inurba_marseille","lat":43.301272,"lon":5.43114,"is_reserved":false,"is_disabled":false,"rental_uris":{"android":"levelo://app?vid=15323a66-193b-4084-987d-2a29bba519f3","ios":"levelo://app?vid=15323a66-193b-4084-987d-2a29bba519f3"},"vehicle_type_id":"4","last_reported":1769008797,"current_range_meters":7200,"station_id":"st_d3js3co5814s73ftftug","pricing_plan_id":"cebpf4jnsgd1na2vs0mg"},{"bike_id":"c055199c-bd62-490e-8577-d64c0f179897","system_id":"levelo_inurba_marseille","lat":43.28559,"lon":5.44102,"is_reserved":false,"is_disabled":false,"rental_uris":{"android":"levelo://app?vid=c055199c-bd62-490e-8577-d64c0f179897","ios":"levelo://app?vid=c055199c-bd62-490e-8577-d64c0f179897"},"vehicle_type_id":"4","last_reported":1769008797,"current_range_meters":7200,"station_id":"st_d3j3df2ikq2c7380ej80","pricing_plan_id":"cebpf4jnsgd1na2vs0mg"},{"bike_id":"ec8c6185-9e95-483c-84de-8ce764ea6ed6","system_id":"levelo_inurba_marseille","lat":43.30422,"lon":5.41282,"is_reserved":false,"is_disabled":false,"rental_uris":{"android":"levelo://app?vid=ec8c6185-9e95-483c-84de-8ce764ea6ed6","ios":"levelo://app?vid=ec8c6185-9e95-483c-84de-8ce764ea6ed6"},"vehicle_type_id":"4","last_reported":1769008797,"current_range_meters":7200,"station_id":"ce4bhop2rcd13ifvqh8g","pricing_plan_id":"cebpf4jnsgd1na2vs0mg"},{"bike_id":"19c9b524-76f1-4e5d-8be9-000b11a19079","system_id":"levelo_inurba_marseille","lat":43.25054,"lon":5.3888,"is_reserved":false,"is_disabled":false,"rental_uris":{"android":"levelo://app?vid=19c9b524-76f1-4e5d-8be9-000b11a19079","ios":"levelo://app?vid=19c9b524-76f1-4e5d-8be9-000b11a19079"},"vehicle_type_id":"4","last_reported":1769008797,"current_range_meters":8000,"station_id":"ce4bhgp2rcd13ifvqfd0","pricing_plan_id":"cebpf4jnsgd1na2vs0mg"},{"bike_id":"a57784bc-f5d9-4a04-91a0-a0ce88abf185","system_id":"levelo_inurba_marseille","lat":43.24393,"lon":5.37049,"is_reserved":false,"is_disabled":false,"rental_uris":{"android":"levelo://app?vid=a57784bc-f5d9-4a04-91a0-a0ce88abf185","ios":"levelo://app?vid=a57784bc-f5d9-4a04-91a0-a0ce88abf185"},"vehicle_type_id":"4","last_reported":1769008797,"current_range_meters":8000,"station_id":"ce4bhhh2rcd13ifvqfk0","pricing_plan_id":"cebpf4jnsgd1na2vs0mg"},{"bike_id":"fe2a828f-710f-491e-b529-f22ca09a8365","system_id":"levelo_inurba_marseille","lat":43.3073,"lon":5.40948,"is_reserved":false,"is_disabled":false,"rental_uris":{"android":"levelo://app?vid=fe2a828f-710f-491e-b529-f22ca09a8365","ios":"levelo://app?vid=fe2a828f-710f-491e-b529-f22ca09a8365"},"vehicle_type_id":"4","last_reported":1769008797,"current_range_meters":8000,"station_id":"","pricing_plan_id":"cebpf4jnsgd1na2vs0mg"},{"bike_id":"f3a01c85-86e9-4a7c-837b-602faf4bbfde","system_id":"levelo_inurba_marseille","lat":43.27996,"lon":5.38691,"is_reserved":false,"is_disabled":false,"rental_uris":{"android":"levelo://app?vid=f3a01c85-86e9-4a7c-837b-602faf4bbfde","ios":"levelo://app?vid=f3a01c85-86e9-4a7c-837b-602faf4bbfde"},"vehicle_type_id":"4","last_reported":1769008797,"current_range_meters":8000,"station_id":"ce4bhg12rcd13ifvqf80","pricing_plan_id":"cebpf4jnsgd1na2vs0mg"},{"bike_id":"62084993-044f-47fc-88ef-6afaf48cc7e6","system_id":"levelo_inurba_marseille","lat":43.27374,"lon":5.36257,"is_reserved":false,"is_disabled":false,"rental_uris":{"android":"levelo://app?vid=62084993-044f-47fc-88ef-6afaf48cc7e6","ios":"levelo://app?vid=62084993-044f-47fc-88ef-6afaf48cc7e6"},"vehicle_type_id":"4","last_reported":1769008797,"current_range_meters":8000,"station_id":"ce4bhbh2rcd13ifvqeo0","pricing_plan_id":"cebpf4jnsgd1na2vs0mg"},{"bike_id":"0c39f0d8-be10-4e6d-9b77-03ab45f27e26","system_id":"levelo_inurba_marseille","lat":43.27826,"lon":5.40704,"is_reserved":false,"is_disabled":false,"rental_uris":{"android":"levelo://app?vid=0c39f0d8-be10-4e6d-9b77-03ab45f27e26","ios":"levelo://app?vid=0c39f0d8-be10-4e6d-9b77-03ab45f27e26"},"vehicle_type_id":"4","last_reported":1769008797,"current_range_meters":8000,"station_id":"ce4bhnh2rcd13ifvqgtg","pricing_plan_id":"cebpf4jnsgd1na2vs0mg"},{"bike_id":"cbd01da8-942b-4616-b288-605854f635c7","system_id":"levelo_inurba_marseille","lat":43.280389,"lon":5.369414,"is_reserved":false,"is_disabled":false,"rental_uris":{"android":"levelo://app?vid=cbd01da8-942b-4616-b288-605854f635c7","ios":"levelo://app?vid=cbd01da8-942b-4616-b288-605854f635c7"},"vehicle_type_id":"4","last_reported":1769008797,"current_range_meters":8000,"station_id":"ce4bha12rcd13ifvqef0","pricing_plan_id":"cebpf4jnsgd1na2vs0mg"},{"bike_id":"7a96442d-d5a0-40a3-8b53-4d6c38b34869","system_id":"levelo_inurba_marseille","lat":43.28471,"lon":5.38414,"is_reserved":false,"is_disabled":false,"rental_uris":{"android":"levelo://app?vid=7a96442d-d5a0-40a3-8b53-4d6c38b34869","ios":"levelo://app?vid=7a96442d-d5a0-40a3-8b53-4d6c38b34869"},"vehicle_type_id":"4","last_reported":1769008797,"current_range_meters":8000,"station_id":"ce4bh512rcd13ifvqe3g","pricing_plan_id":"cebpf4jnsgd1na2vs0mg"},{"bike_id":"2df2b395-8651-45e0-b24b-6ceb74dd000d","system_id":"levelo_inurba_marseille","lat":43.3095,"lon":5.39042,"is_reserved":false,"is_disabled":false,"rental_uris":{"android":"levelo://app?vid=2df2b395-8651-45e0-b24b-6ceb74dd000d","ios":"levelo://app?vid=2df2b395-8651-45e0-b24b-6ceb74dd000d"},"vehicle_type_id":"4","last_reported":1769008797,"current_range_meters":8000,"station_id":"ce4bgup2rcd13ifvqco0","pricing_plan_id":"cebpf4jnsgd1na2vs0mg"},{"bike_id":"88718b1a-0b41-4247-9187-dd16a929e14b","system_id":"levelo_inurba_marseille","lat":43.2655,"lon":5.37297,"is_reserved":false,"is_disabled":false,"rental_uris":{"android":"levelo://app?vid=88718b1a-0b41-4247-9187-dd16a929e14b","ios":"levelo://app?vid=88718b1a-0b41-4247-9187-dd16a929e14b"},"vehicle_type_id":"4","last_reported":1769008797,"current_range_meters":8000,"station_id":"ce4bhg12rcd13ifvqf70","pricing_plan_id":"cebpf4jnsgd1na2vs0mg"},{"bike_id":"d68cd528-87dc-4a28-8471-721b0cea6df0","system_id":"levelo_inurba_marseille","lat":43.28157,"lon":5.39215,"is_reserved":false,"is_disabled":false,"rental_uris":{"android":"levelo://app?vid=d68cd528-87dc-4a28-8471-721b0cea6df0","ios":"levelo://app?vid=d68cd528-87dc-4a28-8471-721b0cea6df0"},"vehicle_type_id":"4","last_reported":1769008797,"current_range_meters":8000,"station_id":"","pricing_plan_id":"cebpf4jnsgd1na2vs0mg"},{"bike_id":"85c8ca17-638c-4493-a466-d85b344a9de0","system_id":"levelo_inurba_marseille","lat":43.29779,"lon":5.37106,"is_reserved":false,"is_disabled":false,"rental_uris":{"android":"levelo://app?vid=85c8ca17-638c-4493-a466-d85b344a9de0","ios":"levelo://app?vid=85c8ca17-638c-4493-a466-d85b344a9de0"},"vehicle_type_id":"4","last_reported":1769008797,"current_range_meters":8000,"station_id":"ce4bgop2rcd13ifvqc1g","pricing_plan_id":"cebpf4jnsgd1na2vs0mg"},{"bike_id":"6ec86b6a-11af-44ec-aa58-beb1b9c8a19f","system_id":"levelo_inurba_marseille","lat":43.32477,"lon":5.36562,"is_reserved":false,"is_disabled":false,"rental_uris":{"android":"levelo://app?vid=6ec86b6a-11af-44ec-aa58-beb1b9c8a19f","ios":"levelo://app?vid=6ec86b6a-11af-44ec-aa58-beb1b9c8a19f"},"vehicle_type_id":"4","last_reported":1769008797,"current_range_meters":8000,"station_id":"ce4bhs12rcd13ifvqhvg","pricing_plan_id":"cebpf4jnsgd1na2vs0mg"},{"bike_id":"e60b80c1-e035-4d06-8dfd-6a5996278e1f","system_id":"levelo_inurba_marseille","lat":43.24462,"lon":5.42517,"is_reserved":false,"is_disabled":false,"rental_uris":{"android":"levelo://app?vid=e60b80c1-e035-4d06-8dfd-6a5996278e1f","ios":"levelo://app?vid=e60b80c1-e035-4d06-8dfd-6a5996278e1f"},"vehicle_type_id":"4","last_reported":1769008797,"current_range_meters":8000,"station_id":"st_d4a3vfp97mjs738cd8kg","pricing_plan_id":"cebpf4jnsgd1na2vs0mg"},{"bike_id":"131d083d-d299-49de-ae79-91ebeb210640","system_id":"levelo_inurba_marseille","lat":43.25714,"lon":5.41807,"is_reserved":false,"is_disabled":false,"rental_uris":{"android":"levelo://app?vid=131d083d-d299-49de-ae79-91ebeb210640","ios":"levelo://app?vid=131d083d-d299-49de-ae79-91ebeb210640"},"vehicle_type_id":"4","last_reported":1769008797,"current_range_meters":8000,"station_id":"","pricing_plan_id":"cebpf4jnsgd1na2vs0mg"},{"bike_id":"408e8636-0be7-4b88-bee2-39675973c9f7","system_id":"levelo_inurba_marseille","lat":43.29038,"lon":5.39982,"is_reserved":false,"is_disabled":false,"rental_uris":{"android":"levelo://app?vid=408e8636-0be7-4b88-bee2-39675973c9f7","ios":"levelo://app?vid=408e8636-0be7-4b88-bee2-39675973c9f7"},"vehicle_type_id":"4","last_reported":1769008797,"current_range_meters":8400,"station_id":"ce4bh392rcd13ifvqdm0","pricing_plan_id":"cebpf4jnsgd1na2vs0mg"},{"bike_id":"0c9bcb13-f2f9-4e52-891b-edbcebfd51c3","system_id":"levelo_inurba_marseille","lat":43.28933,"lon":5.36636,"is_reserved":false,"is_disabled":false,"rental_uris":{"android":"levelo://app?vid=0c9bcb13-f2f9-4e52-891b-edbcebfd51c3","ios":"levelo://app?vid=0c9bcb13-f2f9-4e52-891b-edbcebfd51c3"},"vehicle_type_id":"4","last_reported":1769008797,"current_range_meters":8400,"station_id":"ce4bhap2rcd13ifvqek0","pricing_plan_id":"cebpf4jnsgd1na2vs0mg"},{"bike_id":"ee0f918b-8928-4cf8-9333-f54ea1e2ce7a","system_id":"levelo_inurba_marseille","lat":43.25583,"lon":5.3823,"is_reserved":false,"is_disabled":false,"rental_uris":{"android":"levelo://app?vid=ee0f918b-8928-4cf8-9333-f54ea1e2ce7a","ios":"levelo://app?vid=ee0f918b-8928-4cf8-9333-f54ea1e2ce7a"},"vehicle_type_id":"4","last_reported":1769008797,"current_range_meters":8400,"station_id":"ce4bhih2rcd13ifvqfs0","pricing_plan_id":"cebpf4jnsgd1na2vs0mg"},{"bike_id":"be769fd2-e0f2-434c-a844-074b28c71c90","system_id":"levelo_inurba_marseille","lat":43.25937,"lon":5.409,"is_reserved":false,"is_disabled":false,"rental_uris":{"android":"levelo://app?vid=be769fd2-e0f2-434c-a844-074b28c71c90","ios":"levelo://app?vid=be769fd2-e0f2-434c-a844-074b28c71c90"},"vehicle_type_id":"4","last_reported":1769008797,"current_range_meters":8400,"station_id":"ce4bhm92rcd13ifvqglg","pricing_plan_id":"cebpf4jnsgd1na2vs0mg"},{"bike_id":"e07cc4c7-f8da-43b9-86b7-9b5a29a91e8f","system_id":"levelo_inurba_marseille","lat":43.27917,"lon":5.3802,"is_reserved":false,"is_disabled":false,"rental_uris":{"android":"levelo://app?vid=e07cc4c7-f8da-43b9-86b7-9b5a29a91e8f","ios":"levelo://app?vid=e07cc4c7-f8da-43b9-86b7-9b5a29a91e8f"},"vehicle_type_id":"4","last_reported":1769008797,"current_range_meters":8400,"station_id":"ce4bhf92rcd13ifvqf50","pricing_plan_id":"cebpf4jnsgd1na2vs0mg"},{"bike_id":"ebc59118-e1a4-482d-84d0-eafb34b0b9ea","system_id":"levelo_inurba_marseille","lat":43.23776,"lon":5.36621,"is_reserved":false,"is_disabled":false,"rental_uris":{"android":"levelo://app?vid=ebc59118-e1a4-482d-84d0-eafb34b0b9ea","ios":"levelo://app?vid=ebc59118-e1a4-482d-84d0-eafb34b0b9ea"},"vehicle_type_id":"4","last_reported":1769008797,"current_range_meters":8400,"station_id":"st_d3nk18o9ro0c73en2l3g","pricing_plan_id":"cebpf4jnsgd1na2vs0mg"},{"bike_id":"888aaf1f-cf99-430c-b721-47b143b278d8","system_id":"levelo_inurba_marseille","lat":43.25932,"lon":5.40899,"is_reserved":false,"is_disabled":false,"rental_uris":{"android":"levelo://app?vid=888aaf1f-cf99-430c-b721-47b143b278d8","ios":"levelo://app?vid=888aaf1f-cf99-430c-b721-47b143b278d8"},"vehicle_type_id":"4","last_reported":1769008797,"current_range_meters":8400,"station_id":"ce4bhm92rcd13ifvqglg","pricing_plan_id":"cebpf4jnsgd1na2vs0mg"},{"bike_id":"28f55ca8-d2ea-41c1-902d-e5277b239569","system_id":"levelo_inurba_marseille","lat":43.26377,"lon":5.41076,"is_reserved":false,"is_disabled":false,"rental_uris":{"android":"levelo://app?vid=28f55ca8-d2ea-41c1-902d-e5277b239569","ios":"levelo://app?vid=28f55ca8-d2ea-41c1-902d-e5277b239569"},"vehicle_type_id":"4","last_reported":1769008797,"current_range_meters":8400,"station_id":"st_d4e5ca6na9uc73bfl5fg","pricing_plan_id":"cebpf4jnsgd1na2vs0mg"},{"bike_id":"d9fff92a-3943-4a01-98e1-7c430b29f114","system_id":"levelo_inurba_marseille","lat":43.27988,"lon":5.41673,"is_reserved":false,"is_disabled":false,"rental_uris":{"android":"levelo://app?vid=d9fff92a-3943-4a01-98e1-7c430b29f114","ios":"levelo://app?vid=d9fff92a-3943-4a01-98e1-7c430b29f114"},"vehicle_type_id":"4","last_reported":1769008797,"current_range_meters":8400,"station_id":"ce4bho12rcd13ifvqh1g","pricing_plan_id":"cebpf4jnsgd1na2vs0mg"},{"bike_id":"90fd9743-abf7-4844-951b-b0c621e30ae6","system_id":"levelo_inurba_marseille","lat":43.30908,"lon":5.36853,"is_reserved":false,"is_disabled":false,"rental_uris":{"android":"levelo://app?vid=90fd9743-abf7-4844-951b-b0c621e30ae6","ios":"levelo://app?vid=90fd9743-abf7-4844-951b-b0c621e30ae6"},"vehicle_type_id":"4","last_reported":1769008797,"current_range_meters":8400,"station_id":"ce4bgn92rcd13ifvqbvg","pricing_plan_id":"cebpf4jnsgd1na2vs0mg"},{"bike_id":"f6de2d43-1f49-448d-9d89-c685ca8fe5a3","system_id":"levelo_inurba_marseille","lat":43.30546,"lon":5.36533,"is_reserved":false,"is_disabled":false,"rental_uris":{"android":"levelo://app?vid=f6de2d43-1f49-448d-9d89-c685ca8fe5a3","ios":"levelo://app?vid=f6de2d43-1f49-448d-9d89-c685ca8fe5a3"},"vehicle_type_id":"4","last_reported":1769008797,"current_range_meters":8400,"station_id":"ce4bgs12rcd13ifvqcag","pricing_plan_id":"cebpf4jnsgd1na2vs0mg"},{"bike_id":"fddbb7cb-a21d-46ff-8d07-df9eecd44019","system_id":"levelo_inurba_marseille","lat":43.3211,"lon":5.36788,"is_reserved":false,"is_disabled":false,"rental_uris":{"android":"levelo://app?vid=fddbb7cb-a21d-46ff-8d07-df9eecd44019","ios":"levelo://app?vid=fddbb7cb-a21d-46ff-8d07-df9eecd44019"},"vehicle_type_id":"4","last_reported":1769008797,"current_range_meters":8400,"station_id":"ce4bhrh2rcd13ifvqhug","pricing_plan_id":"cebpf4jnsgd1na2vs0mg"},{"bike_id":"5c5e1930-77dc-45bd-bed1-98d8ce506dbf","system_id":"levelo_inurba_marseille","lat":43.26071,"lon":5.39367,"is_reserved":false,"is_disabled":false,"rental_uris":{"android":"levelo://app?vid=5c5e1930-77dc-45bd-bed1-98d8ce506dbf","ios":"levelo://app?vid=5c5e1930-77dc-45bd-bed1-98d8ce506dbf"},"vehicle_type_id":"4","last_reported":1769008797,"current_range_meters":8400,"station_id":"ce4bhh92rcd13ifvqfj0","pricing_plan_id":"cebpf4jnsgd1na2vs0mg"},{"bike_id":"ca1f68a2-e356-46d7-8d5f-503710c9279d","system_id":"levelo_inurba_marseille","lat":43.2558,"lon":5.38232,"is_reserved":false,"is_disabled":false,"rental_uris":{"android":"levelo://app?vid=ca1f68a2-e356-46d7-8d5f-503710c9279d","ios":"levelo://app?vid=ca1f68a2-e356-46d7-8d5f-503710c9279d"},"vehicle_type_id":"4","last_reported":1769008797,"current_range_meters":8400,"station_id":"ce4bhih2rcd13ifvqfs0","pricing_plan_id":"cebpf4jnsgd1na2vs0mg"},{"bike_id":"f9ca995a-cc09-49fb-a65b-5cbcd6266ccb","system_id":"levelo_inurba_marseille","lat":43.30149,"lon":5.38093,"is_reserved":false,"is_disabled":false,"rental_uris":{"android":"levelo://app?vid=f9ca995a-cc09-49fb-a65b-5cbcd6266ccb","ios":"levelo://app?vid=f9ca995a-cc09-49fb-a65b-5cbcd6266ccb"},"vehicle_type_id":"4","last_reported":1769008797,"current_range_meters":8400,"station_id":"ce4bgjp2rcd13ifvqbh0","pricing_plan_id":"cebpf4jnsgd1na2vs0mg"},{"bike_id":"800ac751-b72d-4eb8-b5ef-7e899db1abd8","system_id":"levelo_inurba_marseille","lat":43.32707,"lon":5.39228,"is_reserved":false,"is_disabled":false,"rental_uris":{"android":"levelo://app?vid=800ac751-b72d-4eb8-b5ef-7e899db1abd8","ios":"levelo://app?vid=800ac751-b72d-4eb8-b5ef-7e899db1abd8"},"vehicle_type_id":"4","last_reported":1769008797,"current_range_meters":8400,"station_id":"","pricing_plan_id":"cebpf4jnsgd1na2vs0mg"},{"bike_id":"6ce190b6-c466-4ac6-bb9d-9cc75b2398c8","system_id":"levelo_inurba_marseille","lat":43.3095,"lon":5.3904,"is_reserved":false,"is_disabled":false,"rental_uris":{"android":"levelo://app?vid=6ce190b6-c466-4ac6-bb9d-9cc75b2398c8","ios":"levelo://app?vid=6ce190b6-c466-4ac6-bb9d-9cc75b2398c8"},"vehicle_type_id":"4","last_reported":1769008797,"current_range_meters":8400,"station_id":"ce4bgup2rcd13ifvqco0","pricing_plan_id":"cebpf4jnsgd1na2vs0mg"},{"bike_id":"cc6c67fb-9f54-47f7-8f0d-7fec1fcec045","system_id":"levelo_inurba_marseille","lat":43.29877,"lon":5.38911,"is_reserved":false,"is_disabled":false,"rental_uris":{"android":"levelo://app?vid=cc6c67fb-9f54-47f7-8f0d-7fec1fcec045","ios":"levelo://app?vid=cc6c67fb-9f54-47f7-8f0d-7fec1fcec045"},"vehicle_type_id":"4","last_reported":1769008797,"current_range_meters":8400,"station_id":"ce4bh392rcd13ifvqdl0","pricing_plan_id":"cebpf4jnsgd1na2vs0mg"},{"bike_id":"aec5c08c-9f05-47e9-bb02-2d63b83fc483","system_id":"levelo_inurba_marseille","lat":43.26868,"lon":5.39321,"is_reserved":false,"is_disabled":false,"rental_uris":{"android":"levelo://app?vid=aec5c08c-9f05-47e9-bb02-2d63b83fc483","ios":"levelo://app?vid=aec5c08c-9f05-47e9-bb02-2d63b83fc483"},"vehicle_type_id":"4","last_reported":1769008797,"current_range_meters":8400,"station_id":"","pricing_plan_id":"cebpf4jnsgd1na2vs0mg"},{"bike_id":"42ad3ecc-0a5c-4850-9931-a019c27979e1","system_id":"levelo_inurba_marseille","lat":43.286065,"lon":5.35107,"is_reserved":false,"is_disabled":false,"rental_uris":{"android":"levelo://app?vid=42ad3ecc-0a5c-4850-9931-a019c27979e1","ios":"levelo://app?vid=42ad3ecc-0a5c-4850-9931-a019c27979e1"},"vehicle_type_id":"4","last_reported":1769008797,"current_range_meters":8400,"station_id":"ce4bhch2rcd13ifvqeug","pricing_plan_id":"cebpf4jnsgd1na2vs0mg"},{"bike_id":"83461687-2d6f-44e3-8195-fb721f9fb181","system_id":"levelo_inurba_marseille","lat":43.28481,"lon":5.4839,"is_reserved":false,"is_disabled":false,"rental_uris":{"android":"levelo://app?vid=83461687-2d6f-44e3-8195-fb721f9fb181","ios":"levelo://app?vid=83461687-2d6f-44e3-8195-fb721f9fb181"},"vehicle_type_id":"4","last_reported":1769008797,"current_range_meters":8400,"station_id":"","pricing_plan_id":"cebpf4jnsgd1na2vs0mg"},{"bike_id":"1782106b-3848-46bf-bdd2-73c351900c24","system_id":"levelo_inurba_marseille","lat":43.29081,"lon":5.37149,"is_reserved":false,"is_disabled":false,"rental_uris":{"android":"levelo://app?vid=1782106b-3848-46bf-bdd2-73c351900c24","ios":"levelo://app?vid=1782106b-3848-46bf-bdd2-73c351900c24"},"vehicle_type_id":"4","last_reported":1769008797,"current_range_meters":8400,"station_id":"ce4bh5p2rcd13ifvqe4g","pricing_plan_id":"cebpf4jnsgd1na2vs0mg"},{"bike_id":"e48ab265-bb06-4d08-bacf-529c55ca8ad1","system_id":"levelo_inurba_marseille","lat":43.31248,"lon":5.40184,"is_reserved":false,"is_disabled":false,"rental_uris":{"android":"levelo://app?vid=e48ab265-bb06-4d08-bacf-529c55ca8ad1","ios":"levelo://app?vid=e48ab265-bb06-4d08-bacf-529c55ca8ad1"},"vehicle_type_id":"4","last_reported":1769008797,"current_range_meters":8400,"station_id":"ce4bh092rcd13ifvqd30","pricing_plan_id":"cebpf4jnsgd1na2vs0mg"},{"bike_id":"ab9bc5af-4b96-48b6-8f67-7f8c3b37471c","system_id":"levelo_inurba_marseille","lat":43.2892,"lon":5.36641,"is_reserved":false,"is_disabled":false,"rental_uris":{"android":"levelo://app?vid=ab9bc5af-4b96-48b6-8f67-7f8c3b37471c","ios":"levelo://app?vid=ab9bc5af-4b96-48b6-8f67-7f8c3b37471c"},"vehicle_type_id":"4","last_reported":1769008797,"current_range_meters":8400,"station_id":"ce4bhap2rcd13ifvqek0","pricing_plan_id":"cebpf4jnsgd1na2vs0mg"},{"bike_id":"19c9b4d2-1ea0-4167-80ed-614d6330d907","system_id":"levelo_inurba_marseille","lat":43.23196,"lon":5.39992,"is_reserved":false,"is_disabled":false,"rental_uris":{"android":"levelo://app?vid=19c9b4d2-1ea0-4167-80ed-614d6330d907","ios":"levelo://app?vid=19c9b4d2-1ea0-4167-80ed-614d6330d907"},"vehicle_type_id":"4","last_reported":1769008797,"current_range_meters":8400,"station_id":"ce4bhn12rcd13ifvqgqg","pricing_plan_id":"cebpf4jnsgd1na2vs0mg"},{"bike_id":"db5c533d-ad6a-4cca-9da6-b7b91ac05bc1","system_id":"levelo_inurba_marseille","lat":43.21766,"lon":5.34608,"is_reserved":false,"is_disabled":false,"rental_uris":{"android":"levelo://app?vid=db5c533d-ad6a-4cca-9da6-b7b91ac05bc1","ios":"levelo://app?vid=db5c533d-ad6a-4cca-9da6-b7b91ac05bc1"},"vehicle_type_id":"4","last_reported":1769008797,"current_range_meters":8400,"station_id":"st_cvj6r9ubvosntc0bgbag","pricing_plan_id":"cebpf4jnsgd1na2vs0mg"},{"bike_id":"ae082b45-528d-4d2d-a946-c7dc2ab87b58","system_id":"levelo_inurba_marseille","lat":43.27379,"lon":5.36257,"is_reserved":false,"is_disabled":false,"rental_uris":{"android":"levelo://app?vid=ae082b45-528d-4d2d-a946-c7dc2ab87b58","ios":"levelo://app?vid=ae082b45-528d-4d2d-a946-c7dc2ab87b58"},"vehicle_type_id":"4","last_reported":1769008797,"current_range_meters":8800,"station_id":"ce4bhbh2rcd13ifvqeo0","pricing_plan_id":"cebpf4jnsgd1na2vs0mg"},{"bike_id":"5f373192-772a-42cb-b59e-2d376c926597","system_id":"levelo_inurba_marseille","lat":43.27824,"lon":5.39216,"is_reserved":false,"is_disabled":false,"rental_uris":{"android":"levelo://app?vid=5f373192-772a-42cb-b59e-2d376c926597","ios":"levelo://app?vid=5f373192-772a-42cb-b59e-2d376c926597"},"vehicle_type_id":"4","last_reported":1769008797,"current_range_meters":8800,"station_id":"ce4bhjp2rcd13ifvqga0","pricing_plan_id":"cebpf4jnsgd1na2vs0mg"},{"bike_id":"579c9777-7e69-44b2-af1b-15cc82b89740","system_id":"levelo_inurba_marseille","lat":43.24638,"lon":5.43141,"is_reserved":false,"is_disabled":false,"rental_uris":{"android":"levelo://app?vid=579c9777-7e69-44b2-af1b-15cc82b89740","ios":"levelo://app?vid=579c9777-7e69-44b2-af1b-15cc82b89740"},"vehicle_type_id":"4","last_reported":1769008797,"current_range_meters":8800,"station_id":"st_d2m6c4gdas8pm72e190g","pricing_plan_id":"cebpf4jnsgd1na2vs0mg"},{"bike_id":"bf9df301-dc0d-41cc-96a1-27301e9f819b","system_id":"levelo_inurba_marseille","lat":43.28488,"lon":5.48388,"is_reserved":false,"is_disabled":false,"rental_uris":{"android":"levelo://app?vid=bf9df301-dc0d-41cc-96a1-27301e9f819b","ios":"levelo://app?vid=bf9df301-dc0d-41cc-96a1-27301e9f819b"},"vehicle_type_id":"4","last_reported":1769008797,"current_range_meters":8800,"station_id":"","pricing_plan_id":"cebpf4jnsgd1na2vs0mg"},{"bike_id":"3a05cc6e-50be-46aa-996b-cd6b30cbdddf","system_id":"levelo_inurba_marseille","lat":43.26669,"lon":5.38293,"is_reserved":false,"is_disabled":false,"rental_uris":{"android":"levelo://app?vid=3a05cc6e-50be-46aa-996b-cd6b30cbdddf","ios":"levelo://app?vid=3a05cc6e-50be-46aa-996b-cd6b30cbdddf"},"vehicle_type_id":"4","last_reported":1769008797,"current_range_meters":8800,"station_id":"ce4bhg92rcd13ifvqf90","pricing_plan_id":"cebpf4jnsgd1na2vs0mg"},{"bike_id":"488d3d36-c3f0-4390-80be-f0194a76248a","system_id":"levelo_inurba_marseille","lat":43.25577,"lon":5.40429,"is_reserved":false,"is_disabled":false,"rental_uris":{"android":"levelo://app?vid=488d3d36-c3f0-4390-80be-f0194a76248a","ios":"levelo://app?vid=488d3d36-c3f0-4390-80be-f0194a76248a"},"vehicle_type_id":"4","last_reported":1769008797,"current_range_meters":8800,"station_id":"","pricing_plan_id":"cebpf4jnsgd1na2vs0mg"},{"bike_id":"1349815c-9b83-4b3b-bb4a-5fbd7c3b48c8","system_id":"levelo_inurba_marseille","lat":43.27345,"lon":5.39096,"is_reserved":false,"is_disabled":false,"rental_uris":{"android":"levelo://app?vid=1349815c-9b83-4b3b-bb4a-5fbd7c3b48c8","ios":"levelo://app?vid=1349815c-9b83-4b3b-bb4a-5fbd7c3b48c8"},"vehicle_type_id":"4","last_reported":1769008797,"current_range_meters":8800,"station_id":"ce4bhgp2rcd13ifvqfe0","pricing_plan_id":"cebpf4jnsgd1na2vs0mg"},{"bike_id":"4170916e-f70d-4de8-9cd7-0569ec797e95","system_id":"levelo_inurba_marseille","lat":43.25511,"lon":5.37652,"is_reserved":false,"is_disabled":false,"rental_uris":{"android":"levelo://app?vid=4170916e-f70d-4de8-9cd7-0569ec797e95","ios":"levelo://app?vid=4170916e-f70d-4de8-9cd7-0569ec797e95"},"vehicle_type_id":"4","last_reported":1769008797,"current_range_meters":8800,"station_id":"ce4bhh12rcd13ifvqff0","pricing_plan_id":"cebpf4jnsgd1na2vs0mg"},{"bike_id":"608693ee-146a-43ab-bdee-d762de330fcf","system_id":"levelo_inurba_marseille","lat":43.28528,"lon":5.44102,"is_reserved":false,"is_disabled":false,"rental_uris":{"android":"levelo://app?vid=608693ee-146a-43ab-bdee-d762de330fcf","ios":"levelo://app?vid=608693ee-146a-43ab-bdee-d762de330fcf"},"vehicle_type_id":"4","last_reported":1769008797,"current_range_meters":8800,"station_id":"st_d3j3df2ikq2c7380ej80","pricing_plan_id":"cebpf4jnsgd1na2vs0mg"},{"bike_id":"b14b7864-c78c-4d3b-8985-7705cba3866f","system_id":"levelo_inurba_marseille","lat":43.2293,"lon":5.35379,"is_reserved":false,"is_disabled":false,"rental_uris":{"android":"levelo://app?vid=b14b7864-c78c-4d3b-8985-7705cba3866f","ios":"levelo://app?vid=b14b7864-c78c-4d3b-8985-7705cba3866f"},"vehicle_type_id":"4","last_reported":1769008797,"current_range_meters":8800,"station_id":"cpo3532slgdg3j2ikp40","pricing_plan_id":"cebpf4jnsgd1na2vs0mg"},{"bike_id":"707d746c-6304-4c0b-bdf7-9e705ef4a7a0","system_id":"levelo_inurba_marseille","lat":43.27809,"lon":5.40683,"is_reserved":false,"is_disabled":false,"rental_uris":{"android":"levelo://app?vid=707d746c-6304-4c0b-bdf7-9e705ef4a7a0","ios":"levelo://app?vid=707d746c-6304-4c0b-bdf7-9e705ef4a7a0"},"vehicle_type_id":"4","last_reported":1769008797,"current_range_meters":8800,"station_id":"ce4bhnh2rcd13ifvqgtg","pricing_plan_id":"cebpf4jnsgd1na2vs0mg"},{"bike_id":"bc1749f2-e201-428b-aae0-5e7b316293ca","system_id":"levelo_inurba_marseille","lat":43.295009,"lon":5.377848,"is_reserved":false,"is_disabled":false,"rental_uris":{"android":"levelo://app?vid=bc1749f2-e201-428b-aae0-5e7b316293ca","ios":"levelo://app?vid=bc1749f2-e201-428b-aae0-5e7b316293ca"},"vehicle_type_id":"4","last_reported":1769008797,"current_range_meters":8800,"station_id":"","pricing_plan_id":"cebpf4jnsgd1na2vs0mg"},{"bike_id":"eaad6f6d-2acf-47b7-9b8b-34e435851cf8","system_id":"levelo_inurba_marseille","lat":43.28229,"lon":5.39078,"is_reserved":false,"is_disabled":false,"rental_uris":{"android":"levelo://app?vid=eaad6f6d-2acf-47b7-9b8b-34e435851cf8","ios":"levelo://app?vid=eaad6f6d-2acf-47b7-9b8b-34e435851cf8"},"vehicle_type_id":"4","last_reported":1769008797,"current_range_meters":8800,"station_id":"ce4bhn92rcd13ifvqgsg","pricing_plan_id":"cebpf4jnsgd1na2vs0mg"},{"bike_id":"784e14ea-895f-421a-b28d-3f1239d5806a","system_id":"levelo_inurba_marseille","lat":43.30154,"lon":5.3809,"is_reserved":false,"is_disabled":false,"rental_uris":{"android":"levelo://app?vid=784e14ea-895f-421a-b28d-3f1239d5806a","ios":"levelo://app?vid=784e14ea-895f-421a-b28d-3f1239d5806a"},"vehicle_type_id":"4","last_reported":1769008797,"current_range_meters":9200,"station_id":"ce4bgjp2rcd13ifvqbh0","pricing_plan_id":"cebpf4jnsgd1na2vs0mg"},{"bike_id":"fc5d102e-6a36-4a5b-99d5-23cf30eec9b5","system_id":"levelo_inurba_marseille","lat":43.23192,"lon":5.3555,"is_reserved":false,"is_disabled":false,"rental_uris":{"android":"levelo://app?vid=fc5d102e-6a36-4a5b-99d5-23cf30eec9b5","ios":"levelo://app?vid=fc5d102e-6a36-4a5b-99d5-23cf30eec9b5"},"vehicle_type_id":"4","last_reported":1769008797,"current_range_meters":9200,"station_id":"ce4bhu92rcd13ifvqi70","pricing_plan_id":"cebpf4jnsgd1na2vs0mg"},{"bike_id":"0fb3d036-2071-4d4b-a99c-0b94be6cfd65","system_id":"levelo_inurba_marseille","lat":43.281581,"lon":5.426556,"is_reserved":false,"is_disabled":false,"rental_uris":{"android":"levelo://app?vid=0fb3d036-2071-4d4b-a99c-0b94be6cfd65","ios":"levelo://app?vid=0fb3d036-2071-4d4b-a99c-0b94be6cfd65"},"vehicle_type_id":"4","last_reported":1769008797,"current_range_meters":9200,"station_id":"ce4bhnh2rcd13ifvqgug","pricing_plan_id":"cebpf4jnsgd1na2vs0mg"},{"bike_id":"3c072c65-168b-4b7a-8d41-bfb8256a86af","system_id":"levelo_inurba_marseille","lat":43.27206,"lon":5.39186,"is_reserved":false,"is_disabled":false,"rental_uris":{"android":"levelo://app?vid=3c072c65-168b-4b7a-8d41-bfb8256a86af","ios":"levelo://app?vid=3c072c65-168b-4b7a-8d41-bfb8256a86af"},"vehicle_type_id":"4","last_reported":1769008797,"current_range_meters":9200,"station_id":"ce4bhhp2rcd13ifvqfm0","pricing_plan_id":"cebpf4jnsgd1na2vs0mg"},{"bike_id":"4b5aa404-a223-4202-a9b4-4364010f0fb4","system_id":"levelo_inurba_marseille","lat":43.3376,"lon":5.37478,"is_reserved":false,"is_disabled":false,"rental_uris":{"android":"levelo://app?vid=4b5aa404-a223-4202-a9b4-4364010f0fb4","ios":"levelo://app?vid=4b5aa404-a223-4202-a9b4-4364010f0fb4"},"vehicle_type_id":"4","last_reported":1769008797,"current_range_meters":9200,"station_id":"","pricing_plan_id":"cebpf4jnsgd1na2vs0mg"},{"bike_id":"4b79c6ba-24db-417a-b307-75ad61c062ef","system_id":"levelo_inurba_marseille","lat":43.30959,"lon":5.39056,"is_reserved":false,"is_disabled":false,"rental_uris":{"android":"levelo://app?vid=4b79c6ba-24db-417a-b307-75ad61c062ef","ios":"levelo://app?vid=4b79c6ba-24db-417a-b307-75ad61c062ef"},"vehicle_type_id":"4","last_reported":1769008797,"current_range_meters":9200,"station_id":"ce4bgup2rcd13ifvqco0","pricing_plan_id":"cebpf4jnsgd1na2vs0mg"},{"bike_id":"bb8c5d93-1f95-40fe-8c36-a8746698ea69","system_id":"levelo_inurba_marseille","lat":43.30988,"lon":5.39067,"is_reserved":false,"is_disabled":false,"rental_uris":{"android":"levelo://app?vid=bb8c5d93-1f95-40fe-8c36-a8746698ea69","ios":"levelo://app?vid=bb8c5d93-1f95-40fe-8c36-a8746698ea69"},"vehicle_type_id":"4","last_reported":1769008797,"current_range_meters":9200,"station_id":"ce4bgup2rcd13ifvqco0","pricing_plan_id":"cebpf4jnsgd1na2vs0mg"},{"bike_id":"8de67db5-d700-4e6d-9383-af94091c6218","system_id":"levelo_inurba_marseille","lat":43.27368,"lon":5.36257,"is_reserved":false,"is_disabled":false,"rental_uris":{"android":"levelo://app?vid=8de67db5-d700-4e6d-9383-af94091c6218","ios":"levelo://app?vid=8de67db5-d700-4e6d-9383-af94091c6218"},"vehicle_type_id":"4","last_reported":1769008797,"current_range_meters":9200,"station_id":"ce4bhbh2rcd13ifvqeo0","pricing_plan_id":"cebpf4jnsgd1na2vs0mg"},{"bike_id":"779abb0e-4f39-4b8e-8b0d-385800da86cf","system_id":"levelo_inurba_marseille","lat":43.28473,"lon":5.38546,"is_reserved":false,"is_disabled":true,"rental_uris":{"android":"levelo://app?vid=779abb0e-4f39-4b8e-8b0d-385800da86cf","ios":"levelo://app?vid=779abb0e-4f39-4b8e-8b0d-385800da86cf"},"vehicle_type_id":"4","last_reported":1769008797,"current_range_meters":9200,"station_id":"ce4bh8p2rcd13ifvqeb0","pricing_plan_id":"cebpf4jnsgd1na2vs0mg"},{"bike_id":"d8f34b5e-d831-4a3d-8643-93f2f2dfecae","system_id":"levelo_inurba_marseille","lat":43.24167,"lon":5.36384,"is_reserved":false,"is_disabled":false,"rental_uris":{"android":"levelo://app?vid=d8f34b5e-d831-4a3d-8643-93f2f2dfecae","ios":"levelo://app?vid=d8f34b5e-d831-4a3d-8643-93f2f2dfecae"},"vehicle_type_id":"4","last_reported":1769008797,"current_range_meters":9200,"station_id":"cpo36qri1sfpv3e86is0","pricing_plan_id":"cebpf4jnsgd1na2vs0mg"},{"bike_id":"22bc6d8e-7e0c-4234-afe0-c88e2589ac70","system_id":"levelo_inurba_marseille","lat":43.27052,"lon":5.39898,"is_reserved":false,"is_disabled":false,"rental_uris":{"android":"levelo://app?vid=22bc6d8e-7e0c-4234-afe0-c88e2589ac70","ios":"levelo://app?vid=22bc6d8e-7e0c-4234-afe0-c88e2589ac70"},"vehicle_type_id":"4","last_reported":1769008797,"current_range_meters":9200,"station_id":"","pricing_plan_id":"cebpf4jnsgd1na2vs0mg"},{"bike_id":"0010bb61-fe35-42a9-b909-60f5305e538e","system_id":"levelo_inurba_marseille","lat":43.25836,"lon":5.39424,"is_reserved":false,"is_disabled":false,"rental_uris":{"android":"levelo://app?vid=0010bb61-fe35-42a9-b909-60f5305e538e","ios":"levelo://app?vid=0010bb61-fe35-42a9-b909-60f5305e538e"},"vehicle_type_id":"4","last_reported":1769008797,"current_range_meters":9200,"station_id":"ce4bhip2rcd13ifvqft0","pricing_plan_id":"cebpf4jnsgd1na2vs0mg"},{"bike_id":"fa744a11-74e0-4714-b5af-a7a98063b1b4","system_id":"levelo_inurba_marseille","lat":43.27191,"lon":5.39189,"is_reserved":false,"is_disabled":false,"rental_uris":{"android":"levelo://app?vid=fa744a11-74e0-4714-b5af-a7a98063b1b4","ios":"levelo://app?vid=fa744a11-74e0-4714-b5af-a7a98063b1b4"},"vehicle_type_id":"4","last_reported":1769008797,"current_range_meters":9200,"station_id":"ce4bhhp2rcd13ifvqfm0","pricing_plan_id":"cebpf4jnsgd1na2vs0mg"},{"bike_id":"f1a7fd72-f23c-4a74-a4b4-632781c2d8d3","system_id":"levelo_inurba_marseille","lat":43.25722,"lon":5.41131,"is_reserved":false,"is_disabled":false,"rental_uris":{"android":"levelo://app?vid=f1a7fd72-f23c-4a74-a4b4-632781c2d8d3","ios":"levelo://app?vid=f1a7fd72-f23c-4a74-a4b4-632781c2d8d3"},