{"last_updated":1724432828,"ttl":30,"version":"2.2","data":{"bikes":[{"bike_id":"f70dca67-1193-4609-8bf7-b19d2724eb63","system_id":"levelo_inurba_marseille","lat":43.312239,"lon":5.368562,"is_reserved":false,"is_disabled":false,"rental_uris":{"android":"levelo://app?vid=f70dca67-1193-4609-8bf7-b19d2724eb63","ios":"levelo://app?vid=f70dca67-1193-4609-8bf7-b19d2724eb63"},"vehicle_type_id":"4","last_reported":1724432829,"current_range_meters":24800,"station_id":"ce4bgl92rcd13ifvqbq0","pricing_plan_id":"cebpf4jnsgd1na2vs0mg"},{"bike_id":"3818618b-d297-49f1-bd52-afee350e6f53","system_id":"levelo_inurba_marseille","lat":43.311948,"lon":5.368813,"is_reserved":false,"is_disabled":false,"rental_uris":{"android":"levelo://app?vid=3818618b-d297-49f1-bd52-afee350e6f53","ios":"levelo://app?vid=3818618b-d297-49f1-bd52-afee350e6f53"},"vehicle_type_id":"4","last_reported":1724432829,"current_range_meters":26000,"station_id":"ce4bgl92rcd13ifvqbq0","pricing_plan_id":"cebpf4jnsgd1na2vs0mg"},{"bike_id":"648afc39-9f70-4b9f-9fd1-463828d581af","system_id":"levelo_inurba_marseille","lat":43.314811,"lon":5.373103,"is_reserved":false,"is_disabled":false,"rental_uris":{"android":"levelo://app?vid=648afc39-9f70-4b9f-9fd1-463828d581af","ios":"levelo://app?vid=648afc39-9f70-4b9f-9fd1-463828d581af"},"vehicle_type_id":"4","last_reported":1724432829,"current_range_meters":27200,"station_id":"ce4bgt12rcd13ifvqcd0","pricing_plan_id":"cebpf4jnsgd1na2vs0mg"},{"bike_id":"8e970e8e-d5c7-4855-a0f1-1d70143eb1e9","system_id":"levelo_inurba_marseille","lat":43.314811,"lon":5.373103,"is_reserved":false,"is_disabled":false,"rental_uris":{"android":"levelo://app?vid=8e970e8e-d5c7-4855-a0f1-1d70143eb1e9","ios":"levelo://app?vid=8e970e8e-d5c7-4855-a0f1-1d70143eb1e9"},"vehicle_type_id":"4","last_reported":1724432829,"current_range_meters":5600,"station_id":"ce4bgt12rcd13ifvqcd0","pricing_plan_id":"cebpf4jnsgd1na2vs0mg"},{"bike_id":"e85ebb8f-430d-4c25-bcc7-97734885f311","system_id":"levelo_inurba_marseille","lat":43.31502,"lon":5.37308,"is_reserved":false,"is_disabled":false,"rental_uris":{"android":"levelo://app?vid=e85ebb8f-430d-4c25-bcc7-97734885f311","ios":"levelo://app?vid=e85ebb8f-430d-4c25-bcc7-97734885f311"},"vehicle_type_id":"4","last_reported":1724432829,"current_range_meters":0,"station_id":"ce4bgt12rcd13ifvqcd0","pricing_plan_id":"cebpf4jnsgd1na2vs0mg"},{"bike_id":"73ef7286-60ed-469a-82b6-eac8ad2b0f72","system_id":"levelo_inurba_marseille","lat":43.309039,"lon":5.371797,"is_reserved":false,"is_disabled":false,"rental_uris":{"android":"levelo://app?vid=73ef7286-60ed-469a-82b6-eac8ad2b0f72","ios":"levelo://app?vid=73ef7286-60ed-469a-82b6-eac8ad2b0f72"},"vehicle_type_id":"4","last_reported":1724432829,"current_range_meters":13600,"station_id":"ce4bguh2rcd13ifvqckg","pricing_plan_id":"cebpf4jnsgd1na2vs0mg"},{"bike_id":"8f78b204-e32b-4ba1-992d-8792ce32e8a9","system_id":"levelo_inurba_marseille","lat":43.30537,"lon":5.367345,"is_reserved":false,"is_disabled":false,"rental_uris":{"android":"levelo://app?vid=8f78b204-e32b-4ba1-992d-8792ce32e8a9","ios":"levelo://app?vid=8f78b204-e32b-4ba1-992d-8792ce32e8a9"},"vehicle_type_id":"4","last_reported":1724432829,"current_range_meters":12400,"station_id":"ce4bgrp2rcd13ifvqc9g","pricing_plan_id":"cebpf4jnsgd1na2vs0mg"},{"bike_id":"c30d283f-005e-431d-ad8c-0257375e99bf","system_id":"levelo_inurba_marseille","lat":43.311131,"lon":5.377651,"is_reserved":false,"is_disabled":false,"rental_uris":{"android":"levelo://app?vid=c30d283f-005e-431d-ad8c-0257375e99bf","ios":"levelo://app?vid=c30d283f-005e-431d-ad8c-0257375e99bf"},"vehicle_type_id":"4","last_reported":1724432829,"current_range_meters":0,"station_id":"ce4bgt92rcd13ifvqcg0","pricing_plan_id":"cebpf4jnsgd1na2vs0mg"},{"bike_id":"1ba0ca3a-990a-4fa3-9d63-d8dac8d89540","system_id":"levelo_inurba_marseille","lat":43.31125,"lon":5.37768,"is_reserved":false,"is_disabled":false,"rental_uris":{"android":"levelo://app?vid=1ba0ca3a-990a-4fa3-9d63-d8dac8d89540","ios":"levelo://app?vid=1ba0ca3a-990a-4fa3-9d63-d8dac8d89540"},"vehicle_type_id":"4","last_reported":1724432829,"current_range_meters":0,"station_id":"ce4bgt92rcd13ifvqcg0","pricing_plan_id":"cebpf4jnsgd1na2vs0mg"},{"bike_id":"b3ca85ca-8394-44d7-bdcc-51668d9af196","system_id":"levelo_inurba_marseille","lat":43.307945,"lon":5.376487,"is_reserved":false,"is_disabled":false,"rental_uris":{"android":"levelo://app?vid=b3ca85ca-8394-44d7-bdcc-51668d9af196","ios":"levelo://app?vid=b3ca85ca-8394-44d7-bdcc-51668d9af196"},"vehicle_type_id":"4","last_reported":1724432829,"current_range_meters":5600,"station_id":"ce4bgv92rcd13ifvqcq0","pricing_plan_id":"cebpf4jnsgd1na2vs0mg"},{"bike_id":"b7f52012-8f51-4f1e-b183-56efe50c9462","system_id":"levelo_inurba_marseille","lat":43.307945,"lon":5.376487,"is_reserved":false,"is_disabled":false,"rental_uris":{"android":"levelo://app?vid=b7f52012-8f51-4f1e-b183-56efe50c9462","ios":"levelo://app?vid=b7f52012-8f51-4f1e-b183-56efe50c9462"},"vehicle_type_id":"4","last_reported":1724432829,"current_range_meters":17200,"station_id":"ce4bgv92rcd13ifvqcq0","pricing_plan_id":"cebpf4jnsgd1na2vs0mg"},{"bike_id":"c33ed31f-73b4-4d64-a9bf-f25b10072284","system_id":"levelo_inurba_marseille","lat":43.307945,"lon":5.376487,"is_reserved":false,"is_disabled":false,"rental_uris":{"android":"levelo://app?vid=c33ed31f-73b4-4d64-a9bf-f25b10072284","ios":"levelo://app?vid=c33ed31f-73b4-4d64-a9bf-f25b10072284"},"vehicle_type_id":"4","last_reported":1724432829,"current_range_meters":22000,"station_id":"ce4bgv92rcd13ifvqcq0","pricing_plan_id":"cebpf4jnsgd1na2vs0mg"},{"bike_id":"1056704b-261d-4e79-9912-58fe5aa2faba","system_id":"levelo_inurba_marseille","lat":43.317075,"lon":5.377367,"is_reserved":false,"is_disabled":false,"rental_uris":{"android":"levelo://app?vid=1056704b-261d-4e79-9912-58fe5aa2faba","ios":"levelo://app?vid=1056704b-261d-4e79-9912-58fe5aa2faba"},"vehicle_type_id":"4","last_reported":1724432829,"current_range_meters":26000,"station_id":"ce4bgth2rcd13ifvqch0","pricing_plan_id":"cebpf4jnsgd1na2vs0mg"},{"bike_id":"26077774-4155-46c1-baff-3ecdb0384a8e","system_id":"levelo_inurba_marseille","lat":43.312013,"lon":5.379443,"is_reserved":false,"is_disabled":false,"rental_uris":{"android":"levelo://app?vid=26077774-4155-46c1-baff-3ecdb0384a8e","ios":"levelo://app?vid=26077774-4155-46c1-baff-3ecdb0384a8e"},"vehicle_type_id":"4","last_reported":1724432829,"current_range_meters":12400,"station_id":"","pricing_plan_id":"cebpf4jnsgd1na2vs0mg"},{"bike_id":"9d9e6305-68a7-4e51-b125-597288649693","system_id":"levelo_inurba_marseille","lat":43.315293,"lon":5.380349,"is_reserved":false,"is_disabled":false,"rental_uris":{"android":"levelo://app?vid=9d9e6305-68a7-4e51-b125-597288649693","ios":"levelo://app?vid=9d9e6305-68a7-4e51-b125-597288649693"},"vehicle_type_id":"4","last_reported":1724432829,"current_range_meters":4000,"station_id":"ce4bhsp2rcd13ifvqi50","pricing_plan_id":"cebpf4jnsgd1na2vs0mg"},{"bike_id":"b1be078d-0200-44bc-b8f4-12d8038071f3","system_id":"levelo_inurba_marseille","lat":43.315289,"lon":5.380349,"is_reserved":false,"is_disabled":false,"rental_uris":{"android":"levelo://app?vid=b1be078d-0200-44bc-b8f4-12d8038071f3","ios":"levelo://app?vid=b1be078d-0200-44bc-b8f4-12d8038071f3"},"vehicle_type_id":"4","last_reported":1724432829,"current_range_meters":9200,"station_id":"ce4bhsp2rcd13ifvqi50","pricing_plan_id":"cebpf4jnsgd1na2vs0mg"},{"bike_id":"d371de8e-54ca-4260-a0a0-f52a0d910b32","system_id":"levelo_inurba_marseille","lat":43.308012,"lon":5.381511,"is_reserved":false,"is_disabled":false,"rental_uris":{"android":"levelo://app?vid=d371de8e-54ca-4260-a0a0-f52a0d910b32","ios":"levelo://app?vid=d371de8e-54ca-4260-a0a0-f52a0d910b32"},"vehicle_type_id":"4","last_reported":1724432829,"current_range_meters":16400,"station_id":"ce4bgt12rcd13ifvqce0","pricing_plan_id":"cebpf4jnsgd1na2vs0mg"},{"bike_id":"eebe658c-32c5-4b8c-bc61-08ae47483909","system_id":"levelo_inurba_marseille","lat":43.301939,"lon":5.366286,"is_reserved":false,"is_disabled":false,"rental_uris":{"android":"levelo://app?vid=eebe658c-32c5-4b8c-bc61-08ae47483909","ios":"levelo://app?vid=eebe658c-32c5-4b8c-bc61-08ae47483909"},"vehicle_type_id":"4","last_reported":1724432829,"current_range_meters":14400,"station_id":"ce4bgrh2rcd13ifvqc8g","pricing_plan_id":"cebpf4jnsgd1na2vs0mg"},{"bike_id":"e4cc5382-94dd-47fa-86a8-bb2938af4376","system_id":"levelo_inurba_marseille","lat":43.301939,"lon":5.366286,"is_reserved":false,"is_disabled":false,"rental_uris":{"android":"levelo://app?vid=e4cc5382-94dd-47fa-86a8-bb2938af4376","ios":"levelo://app?vid=e4cc5382-94dd-47fa-86a8-bb2938af4376"},"vehicle_type_id":"4","last_reported":1724432829,"current_range_meters":21200,"station_id":"ce4bgrh2rcd13ifvqc8g","pricing_plan_id":"cebpf4jnsgd1na2vs0mg"},{"bike_id":"277623e1-3fec-4c1a-9a41-b88c2c75d994","system_id":"levelo_inurba_marseille","lat":43.301939,"lon":5.366286,"is_reserved":false,"is_disabled":false,"rental_uris":{"android":"levelo://app?vid=277623e1-3fec-4c1a-9a41-b88c2c75d994","ios":"levelo://app?vid=277623e1-3fec-4c1a-9a41-b88c2c75d994"},"vehicle_type_id":"4","last_reported":1724432829,"current_range_meters":17200,"station_id":"ce4bgrh2rcd13ifvqc8g","pricing_plan_id":"cebpf4jnsgd1na2vs0mg"},{"bike_id":"a9e9701a-f264-433d-94f4-cb5e16340b4c","system_id":"levelo_inurba_marseille","lat":43.308012,"lon":5.381511,"is_reserved":false,"is_disabled":false,"rental_uris":{"android":"levelo://app?vid=a9e9701a-f264-433d-94f4-cb5e16340b4c","ios":"levelo://app?vid=a9e9701a-f264-433d-94f4-cb5e16340b4c"},"vehicle_type_id":"4","last_reported":1724432829,"current_range_meters":400,"station_id":"ce4bgt12rcd13ifvqce0","pricing_plan_id":"cebpf4jnsgd1na2vs0mg"},{"bike_id":"b24a5202-c0f7-49fd-a89f-099d014700de","system_id":"levelo_inurba_marseille","lat":43.324771,"lon":5.36557,"is_reserved":false,"is_disabled":false,"rental_uris":{"android":"levelo://app?vid=b24a5202-c0f7-49fd-a89f-099d014700de","ios":"levelo://app?vid=b24a5202-c0f7-49fd-a89f-099d014700de"},"vehicle_type_id":"4","last_reported":1724432829,"current_range_meters":29200,"station_id":"ce4bhs12rcd13ifvqhvg","pricing_plan_id":"cebpf4jnsgd1na2vs0mg"},{"bike_id":"fe88d468-5af4-423b-9ddb-fd8abb032aeb","system_id":"levelo_inurba_marseille","lat":43.324771,"lon":5.36557,"is_reserved":false,"is_disabled":false,"rental_uris":{"android":"levelo://app?vid=fe88d468-5af4-423b-9ddb-fd8abb032aeb","ios":"levelo://app?vid=fe88d468-5af4-423b-9ddb-fd8abb032aeb"},"vehicle_type_id":"4","last_reported":1724432829,"current_range_meters":15600,"station_id":"ce4bhs12rcd13ifvqhvg","pricing_plan_id":"cebpf4jnsgd1na2vs0mg"},{"bike_id":"a49626f2-2a42-40e9-928c-5b4ea2eb8270","system_id":"levelo_inurba_marseille","lat":43.324771,"lon":5.36557,"is_reserved":false,"is_disabled":false,"rental_uris":{"android":"levelo://app?vid=a49626f2-2a42-40e9-928c-5b4ea2eb8270","ios":"levelo://app?vid=a49626f2-2a42-40e9-928c-5b4ea2eb8270"},"vehicle_type_id":"4","last_reported":1724432829,"current_range_meters":12000,"station_id":"ce4bhs12rcd13ifvqhvg","pricing_plan_id":"cebpf4jnsgd1na2vs0mg"},{"bike_id":"fa4728c9-467b-4bdc-88d2-f56075148a06","system_id":"levelo_inurba_marseille","lat":43.324771,"lon":5.36557,"is_reserved":false,"is_disabled":false,"rental_uris":{"android":"levelo://app?vid=fa4728c9-467b-4bdc-88d2-f56075148a06","ios":"levelo://app?vid=fa4728c9-467b-4bdc-88d2-f56075148a06"},"vehicle_type_id":"4","last_reported":1724432829,"current_range_meters":17200,"station_id":"ce4bhs12rcd13ifvqhvg","pricing_plan_id":"cebpf4jnsgd1na2vs0mg"},{"bike_id":"1324a6e5-ac3e-4494-b969-e878d4ed2fcc","system_id":"levelo_inurba_marseille","lat":43.324771,"lon":5.36557,"is_reserved":false,"is_disabled":false,"rental_uris":{"android":"levelo://app?vid=1324a6e5-ac3e-4494-b969-e878d4ed2fcc","ios":"levelo://app?vid=1324a6e5-ac3e-4494-b969-e878d4ed2fcc"},"vehicle_type_id":"4","last_reported":1724432829,"current_range_meters":29600,"station_id":"ce4bhs12rcd13ifvqhvg","pricing_plan_id":"cebpf4jnsgd1na2vs0mg"},{"bike_id":"a1ac0451-3398-4947-9ccd-6a7080d125c4","system_id":"levelo_inurba_marseille","lat":43.324771,"lon":5.36557,"is_reserved":false,"is_disabled":false,"rental_uris":{"android":"levelo://app?vid=a1ac0451-3398-4947-9ccd-6a7080d125c4","ios":"levelo://app?vid=a1ac0451-3398-4947-9ccd-6a7080d125c4"},"vehicle_type_id":"4","last_reported":1724432829,"current_range_meters":21200,"station_id":"ce4bhs12rcd13ifvqhvg","pricing_plan_id":"cebpf4jnsgd1na2vs0mg"},{"bike_id":"7fcd07c3-b936-4ec9-9ed3-f193fcad5baf","system_id":"levelo_inurba_marseille","lat":43.324771,"lon":5.36557,"is_reserved":false,"is_disabled":false,"rental_uris":{"android":"levelo://app?vid=7fcd07c3-b936-4ec9-9ed3-f193fcad5baf","ios":"levelo://app?vid=7fcd07c3-b936-4ec9-9ed3-f193fcad5baf"},"vehicle_type_id":"4","last_reported":1724432829,"current_range_meters":19200,"station_id":"ce4bhs12rcd13ifvqhvg","pricing_plan_id":"cebpf4jnsgd1na2vs0mg"},{"bike_id":"bdd677b9-680e-4388-ab92-7d9b5e677b0a","system_id":"levelo_inurba_marseille","lat":43.32488,"lon":5.36573,"is_reserved":false,"is_disabled":false,"rental_uris":{"android":"levelo://app?vid=bdd677b9-680e-4388-ab92-7d9b5e677b0a","ios":"levelo://app?vid=bdd677b9-680e-4388-ab92-7d9b5e677b0a"},"vehicle_type_id":"4","last_reported":1724432829,"current_range_meters":30400,"station_id":"ce4bhs12rcd13ifvqhvg","pricing_plan_id":"cebpf4jnsgd1na2vs0mg"},{"bike_id":"4b068ad2-1221-4476-9487-2b7eb5619d8a","system_id":"levelo_inurba_marseille","lat":43.31366,"lon":5.38364,"is_reserved":false,"is_disabled":false,"rental_uris":{"android":"levelo://app?vid=4b068ad2-1221-4476-9487-2b7eb5619d8a","ios":"levelo://app?vid=4b068ad2-1221-4476-9487-2b7eb5619d8a"},"vehicle_type_id":"4","last_reported":1724432829,"current_range_meters":9200,"station_id":"","pricing_plan_id":"cebpf4jnsgd1na2vs0mg"},{"bike_id":"753cab7f-e9d9-4ca6-a74b-5853e8694d9e","system_id":"levelo_inurba_marseille","lat":43.30143,"lon":5.37413,"is_reserved":false,"is_disabled":false,"rental_uris":{"android":"levelo://app?vid=753cab7f-e9d9-4ca6-a74b-5853e8694d9e","ios":"levelo://app?vid=753cab7f-e9d9-4ca6-a74b-5853e8694d9e"},"vehicle_type_id":"4","last_reported":1724432829,"current_range_meters":400,"station_id":"ce4bgs92rcd13ifvqcc0","pricing_plan_id":"cebpf4jnsgd1na2vs0mg"},{"bike_id":"2d472cc6-1696-4a97-926d-37a1efad8267","system_id":"levelo_inurba_marseille","lat":43.319935,"lon":5.381699,"is_reserved":false,"is_disabled":false,"rental_uris":{"android":"levelo://app?vid=2d472cc6-1696-4a97-926d-37a1efad8267","ios":"levelo://app?vid=2d472cc6-1696-4a97-926d-37a1efad8267"},"vehicle_type_id":"4","last_reported":1724432829,"current_range_meters":31600,"station_id":"ce4bhr12rcd13ifvqhpg","pricing_plan_id":"cebpf4jnsgd1na2vs0mg"},{"bike_id":"0158f74a-e2c5-4fcc-bc55-cb1fffa33530","system_id":"levelo_inurba_marseille","lat":43.319935,"lon":5.381699,"is_reserved":false,"is_disabled":false,"rental_uris":{"android":"levelo://app?vid=0158f74a-e2c5-4fcc-bc55-cb1fffa33530","ios":"levelo://app?vid=0158f74a-e2c5-4fcc-bc55-cb1fffa33530"},"vehicle_type_id":"4","last_reported":1724432829,"current_range_meters":400,"station_id":"ce4bhr12rcd13ifvqhpg","pricing_plan_id":"cebpf4jnsgd1na2vs0mg"},{"bike_id":"18dc2d6a-07d6-412d-b925-700aa472c317","system_id":"levelo_inurba_marseille","lat":43.32006,"lon":5.38155,"is_reserved":false,"is_disabled":false,"rental_uris":{"android":"levelo://app?vid=18dc2d6a-07d6-412d-b925-700aa472c317","ios":"levelo://app?vid=18dc2d6a-07d6-412d-b925-700aa472c317"},"vehicle_type_id":"4","last_reported":1724432829,"current_range_meters":0,"station_id":"ce4bhr12rcd13ifvqhpg","pricing_plan_id":"cebpf4jnsgd1na2vs0mg"},{"bike_id":"18808a91-f354-4d1f-a9f8-b1b4eee89e0a","system_id":"levelo_inurba_marseille","lat":43.313571,"lon":5.384829,"is_reserved":false,"is_disabled":false,"rental_uris":{"android":"levelo://app?vid=18808a91-f354-4d1f-a9f8-b1b4eee89e0a","ios":"levelo://app?vid=18808a91-f354-4d1f-a9f8-b1b4eee89e0a"},"vehicle_type_id":"4","last_reported":1724432829,"current_range_meters":8400,"station_id":"ce4bgt92rcd13ifvqcf0","pricing_plan_id":"cebpf4jnsgd1na2vs0mg"},{"bike_id":"3f421c23-2cf6-4956-8331-7859077d1ec1","system_id":"levelo_inurba_marseille","lat":43.29935,"lon":5.36545,"is_reserved":false,"is_disabled":false,"rental_uris":{"android":"levelo://app?vid=3f421c23-2cf6-4956-8331-7859077d1ec1","ios":"levelo://app?vid=3f421c23-2cf6-4956-8331-7859077d1ec1"},"vehicle_type_id":"4","last_reported":1724432829,"current_range_meters":4000,"station_id":"","pricing_plan_id":"cebpf4jnsgd1na2vs0mg"},{"bike_id":"92bbbab0-5cd1-4bd0-8887-5bed3c0c32b5","system_id":"levelo_inurba_marseille","lat":43.299222,"lon":5.365554,"is_reserved":false,"is_disabled":false,"rental_uris":{"android":"levelo://app?vid=92bbbab0-5cd1-4bd0-8887-5bed3c0c32b5","ios":"levelo://app?vid=92bbbab0-5cd1-4bd0-8887-5bed3c0c32b5"},"vehicle_type_id":"4","last_reported":1724432829,"current_range_meters":0,"station_id":"ce4bgm92rcd13ifvqbr0","pricing_plan_id":"cebpf4jnsgd1na2vs0mg"},{"bike_id":"5fe8b0eb-416c-4b6d-94a8-d168aa6c7e92","system_id":"levelo_inurba_marseille","lat":43.299222,"lon":5.365554,"is_reserved":false,"is_disabled":false,"rental_uris":{"android":"levelo://app?vid=5fe8b0eb-416c-4b6d-94a8-d168aa6c7e92","ios":"levelo://app?vid=5fe8b0eb-416c-4b6d-94a8-d168aa6c7e92"},"vehicle_type_id":"4","last_reported":1724432829,"current_range_meters":800,"station_id":"ce4bgm92rcd13ifvqbr0","pricing_plan_id":"cebpf4jnsgd1na2vs0mg"},{"bike_id":"599ee779-2683-451e-9991-3d437234b5bf","system_id":"levelo_inurba_marseille","lat":43.299724,"lon":5.371829,"is_reserved":false,"is_disabled":false,"rental_uris":{"android":"levelo://app?vid=599ee779-2683-451e-9991-3d437234b5bf","ios":"levelo://app?vid=599ee779-2683-451e-9991-3d437234b5bf"},"vehicle_type_id":"4","last_reported":1724432829,"current_range_meters":2800,"station_id":"ce4bgr92rcd13ifvqc7g","pricing_plan_id":"cebpf4jnsgd1na2vs0mg"},{"bike_id":"5021a466-6fd6-46cc-b12d-77223ccba0ab","system_id":"levelo_inurba_marseille","lat":43.299724,"lon":5.371829,"is_reserved":false,"is_disabled":false,"rental_uris":{"android":"levelo://app?vid=5021a466-6fd6-46cc-b12d-77223ccba0ab","ios":"levelo://app?vid=5021a466-6fd6-46cc-b12d-77223ccba0ab"},"vehicle_type_id":"4","last_reported":1724432829,"current_range_meters":2800,"station_id":"ce4bgr92rcd13ifvqc7g","pricing_plan_id":"cebpf4jnsgd1na2vs0mg"},{"bike_id":"c90fa523-97cb-4966-bbc2-4e0a8315e6b7","system_id":"levelo_inurba_marseille","lat":43.298433,"lon":5.362774,"is_reserved":false,"is_disabled":false,"rental_uris":{"android":"levelo://app?vid=c90fa523-97cb-4966-bbc2-4e0a8315e6b7","ios":"levelo://app?vid=c90fa523-97cb-4966-bbc2-4e0a8315e6b7"},"vehicle_type_id":"4","last_reported":1724432829,"current_range_meters":1200,"station_id":"ce4bgpp2rcd13ifvqc3g","pricing_plan_id":"cebpf4jnsgd1na2vs0mg"},{"bike_id":"b6778ee2-26c5-4bc5-a238-36d273dc1c76","system_id":"levelo_inurba_marseille","lat":43.305377,"lon":5.38425,"is_reserved":false,"is_disabled":false,"rental_uris":{"android":"levelo://app?vid=b6778ee2-26c5-4bc5-a238-36d273dc1c76","ios":"levelo://app?vid=b6778ee2-26c5-4bc5-a238-36d273dc1c76"},"vehicle_type_id":"4","last_reported":1724432829,"current_range_meters":0,"station_id":"ce4bgg92rcd13ifvqb30","pricing_plan_id":"cebpf4jnsgd1na2vs0mg"},{"bike_id":"dab0f61b-b255-42d8-bffb-5006361805f6","system_id":"levelo_inurba_marseille","lat":43.305364,"lon":5.384119,"is_reserved":false,"is_disabled":false,"rental_uris":{"android":"levelo://app?vid=dab0f61b-b255-42d8-bffb-5006361805f6","ios":"levelo://app?vid=dab0f61b-b255-42d8-bffb-5006361805f6"},"vehicle_type_id":"4","last_reported":1724432829,"current_range_meters":2000,"station_id":"ce4bgg92rcd13ifvqb30","pricing_plan_id":"cebpf4jnsgd1na2vs0mg"},{"bike_id":"f8a8bf0e-c5a5-48ef-bd0d-acbfb7b6bfd8","system_id":"levelo_inurba_marseille","lat":43.298433,"lon":5.362774,"is_reserved":false,"is_disabled":false,"rental_uris":{"android":"levelo://app?vid=f8a8bf0e-c5a5-48ef-bd0d-acbfb7b6bfd8","ios":"levelo://app?vid=f8a8bf0e-c5a5-48ef-bd0d-acbfb7b6bfd8"},"vehicle_type_id":"4","last_reported":1724432829,"current_range_meters":14800,"station_id":"ce4bgpp2rcd13ifvqc3g","pricing_plan_id":"cebpf4jnsgd1na2vs0mg"},{"bike_id":"92cd3333-28c0-4311-a478-8cea50a5969a","system_id":"levelo_inurba_marseille","lat":43.311722,"lon":5.387247,"is_reserved":false,"is_disabled":false,"rental_uris":{"android":"levelo://app?vid=92cd3333-28c0-4311-a478-8cea50a5969a","ios":"levelo://app?vid=92cd3333-28c0-4311-a478-8cea50a5969a"},"vehicle_type_id":"4","last_reported":1724432829,"current_range_meters":0,"station_id":"ce4bgv12rcd13ifvqcp0","pricing_plan_id":"cebpf4jnsgd1na2vs0mg"},{"bike_id":"a3172a1b-2f38-4c4c-9f67-535442a06cae","system_id":"levelo_inurba_marseille","lat":43.299177,"lon":5.374783,"is_reserved":false,"is_disabled":false,"rental_uris":{"android":"levelo://app?vid=a3172a1b-2f38-4c4c-9f67-535442a06cae","ios":"levelo://app?vid=a3172a1b-2f38-4c4c-9f67-535442a06cae"},"vehicle_type_id":"4","last_reported":1724432829,"current_range_meters":22000,"station_id":"","pricing_plan_id":"cebpf4jnsgd1na2vs0mg"},{"bike_id":"67ed4c39-f532-4efd-aa0c-8f503a64ec97","system_id":"levelo_inurba_marseille","lat":43.299243,"lon":5.374807,"is_reserved":false,"is_disabled":false,"rental_uris":{"android":"levelo://app?vid=67ed4c39-f532-4efd-aa0c-8f503a64ec97","ios":"levelo://app?vid=67ed4c39-f532-4efd-aa0c-8f503a64ec97"},"vehicle_type_id":"4","last_reported":1724432829,"current_range_meters":22800,"station_id":"ce4bgjh2rcd13ifvqbg0","pricing_plan_id":"cebpf4jnsgd1na2vs0mg"},{"bike_id":"8895f6c8-1746-4a55-a54f-d87da200649e","system_id":"levelo_inurba_marseille","lat":43.311722,"lon":5.387247,"is_reserved":false,"is_disabled":false,"rental_uris":{"android":"levelo://app?vid=8895f6c8-1746-4a55-a54f-d87da200649e","ios":"levelo://app?vid=8895f6c8-1746-4a55-a54f-d87da200649e"},"vehicle_type_id":"4","last_reported":1724432829,"current_range_meters":16400,"station_id":"ce4bgv12rcd13ifvqcp0","pricing_plan_id":"cebpf4jnsgd1na2vs0mg"},{"bike_id":"952e339d-a983-44d5-ae1e-2b7415a888ba","system_id":"levelo_inurba_marseille","lat":43.32287,"lon":5.38254,"is_reserved":false,"is_disabled":false,"rental_uris":{"android":"levelo://app?vid=952e339d-a983-44d5-ae1e-2b7415a888ba","ios":"levelo://app?vid=952e339d-a983-44d5-ae1e-2b7415a888ba"},"vehicle_type_id":"4","last_reported":1724432829,"current_range_meters":21200,"station_id":"ce4bhr12rcd13ifvqhqg","pricing_plan_id":"cebpf4jnsgd1na2vs0mg"},{"bike_id":"19fa88a7-0105-417e-99b1-2b95d62efefa","system_id":"levelo_inurba_marseille","lat":43.322963,"lon":5.382583,"is_reserved":false,"is_disabled":false,"rental_uris":{"android":"levelo://app?vid=19fa88a7-0105-417e-99b1-2b95d62efefa","ios":"levelo://app?vid=19fa88a7-0105-417e-99b1-2b95d62efefa"},"vehicle_type_id":"4","last_reported":1724432829,"current_range_meters":26400,"station_id":"ce4bhr12rcd13ifvqhqg","pricing_plan_id":"cebpf4jnsgd1na2vs0mg"},{"bike_id":"82158d87-538a-47d7-85e9-cb8ad5343566","system_id":"levelo_inurba_marseille","lat":43.297163,"lon":5.365866,"is_reserved":false,"is_disabled":false,"rental_uris":{"android":"levelo://app?vid=82158d87-538a-47d7-85e9-cb8ad5343566","ios":"levelo://app?vid=82158d87-538a-47d7-85e9-cb8ad5343566"},"vehicle_type_id":"4","last_reported":1724432829,"current_range_meters":7200,"station_id":"ce4bgn12rcd13ifvqbt0","pricing_plan_id":"cebpf4jnsgd1na2vs0mg"},{"bike_id":"2cfe18b8-b996-4684-a501-7e9e93a481aa","system_id":"levelo_inurba_marseille","lat":43.297163,"lon":5.365866,"is_reserved":false,"is_disabled":false,"rental_uris":{"android":"levelo://app?vid=2cfe18b8-b996-4684-a501-7e9e93a481aa","ios":"levelo://app?vid=2cfe18b8-b996-4684-a501-7e9e93a481aa"},"vehicle_type_id":"4","last_reported":1724432829,"current_range_meters":8000,"station_id":"ce4bgn12rcd13ifvqbt0","pricing_plan_id":"cebpf4jnsgd1na2vs0mg"},{"bike_id":"9e54d303-dd33-442d-aab6-437b16a6c02a","system_id":"levelo_inurba_marseille","lat":43.297163,"lon":5.365866,"is_reserved":false,"is_disabled":false,"rental_uris":{"android":"levelo://app?vid=9e54d303-dd33-442d-aab6-437b16a6c02a","ios":"levelo://app?vid=9e54d303-dd33-442d-aab6-437b16a6c02a"},"vehicle_type_id":"4","last_reported":1724432829,"current_range_meters":1200,"station_id":"ce4bgn12rcd13ifvqbt0","pricing_plan_id":"cebpf4jnsgd1na2vs0mg"},{"bike_id":"68982bdc-7512-49d6-8726-558e219d475f","system_id":"levelo_inurba_marseille","lat":43.29692,"lon":5.37291,"is_reserved":false,"is_disabled":false,"rental_uris":{"android":"levelo://app?vid=68982bdc-7512-49d6-8726-558e219d475f","ios":"levelo://app?vid=68982bdc-7512-49d6-8726-558e219d475f"},"vehicle_type_id":"4","last_reported":1724432829,"current_range_meters":26400,"station_id":"ce4bgk12rcd13ifvqbj0","pricing_plan_id":"cebpf4jnsgd1na2vs0mg"},{"bike_id":"4b08a327-81d1-4e61-923c-edc8f8b29ecd","system_id":"levelo_inurba_marseille","lat":43.29691,"lon":5.37308,"is_reserved":false,"is_disabled":false,"rental_uris":{"android":"levelo://app?vid=4b08a327-81d1-4e61-923c-edc8f8b29ecd","ios":"levelo://app?vid=4b08a327-81d1-4e61-923c-edc8f8b29ecd"},"vehicle_type_id":"4","last_reported":1724432829,"current_range_meters":26000,"station_id":"ce4bgk12rcd13ifvqbj0","pricing_plan_id":"cebpf4jnsgd1na2vs0mg"},{"bike_id":"0228010a-3d50-4501-bee7-0652d12336f3","system_id":"levelo_inurba_marseille","lat":43.29626,"lon":5.37169,"is_reserved":false,"is_disabled":false,"rental_uris":{"android":"levelo://app?vid=0228010a-3d50-4501-bee7-0652d12336f3","ios":"levelo://app?vid=0228010a-3d50-4501-bee7-0652d12336f3"},"vehicle_type_id":"4","last_reported":1724432829,"current_range_meters":20400,"station_id":"ce4bgnh2rcd13ifvqc0g","pricing_plan_id":"cebpf4jnsgd1na2vs0mg"},{"bike_id":"8f91df06-7103-422e-86bb-05c4c88bef05","system_id":"levelo_inurba_marseille","lat":43.296131,"lon":5.370773,"is_reserved":false,"is_disabled":false,"rental_uris":{"android":"levelo://app?vid=8f91df06-7103-422e-86bb-05c4c88bef05","ios":"levelo://app?vid=8f91df06-7103-422e-86bb-05c4c88bef05"},"vehicle_type_id":"4","last_reported":1724432829,"current_range_meters":29600,"station_id":"ce4bgnh2rcd13ifvqc0g","pricing_plan_id":"cebpf4jnsgd1na2vs0mg"},{"bike_id":"e72fd784-67ef-4a9e-a470-c5b37d0ea635","system_id":"levelo_inurba_marseille","lat":43.29573,"lon":5.367355,"is_reserved":false,"is_disabled":false,"rental_uris":{"android":"levelo://app?vid=e72fd784-67ef-4a9e-a470-c5b37d0ea635","ios":"levelo://app?vid=e72fd784-67ef-4a9e-a470-c5b37d0ea635"},"vehicle_type_id":"4","last_reported":1724432829,"current_range_meters":0,"station_id":"ce4bgph2rcd13ifvqc2g","pricing_plan_id":"cebpf4jnsgd1na2vs0mg"},{"bike_id":"44038f9f-49d2-4f9b-92b1-7fc4b40d59ce","system_id":"levelo_inurba_marseille","lat":43.296131,"lon":5.370791,"is_reserved":false,"is_disabled":false,"rental_uris":{"android":"levelo://app?vid=44038f9f-49d2-4f9b-92b1-7fc4b40d59ce","ios":"levelo://app?vid=44038f9f-49d2-4f9b-92b1-7fc4b40d59ce"},"vehicle_type_id":"4","last_reported":1724432829,"current_range_meters":0,"station_id":"ce4bgnh2rcd13ifvqc0g","pricing_plan_id":"cebpf4jnsgd1na2vs0mg"},{"bike_id":"6fec813d-80fd-4397-b5d1-c4dd9669c8d8","system_id":"levelo_inurba_marseille","lat":43.296131,"lon":5.370773,"is_reserved":false,"is_disabled":false,"rental_uris":{"android":"levelo://app?vid=6fec813d-80fd-4397-b5d1-c4dd9669c8d8","ios":"levelo://app?vid=6fec813d-80fd-4397-b5d1-c4dd9669c8d8"},"vehicle_type_id":"4","last_reported":1724432829,"current_range_meters":14800,"station_id":"ce4bgnh2rcd13ifvqc0g","pricing_plan_id":"cebpf4jnsgd1na2vs0mg"},{"bike_id":"b8fe126b-08c9-478d-a563-b8e36126f1e9","system_id":"levelo_inurba_marseille","lat":43.296131,"lon":5.370791,"is_reserved":false,"is_disabled":false,"rental_uris":{"android":"levelo://app?vid=b8fe126b-08c9-478d-a563-b8e36126f1e9","ios":"levelo://app?vid=b8fe126b-08c9-478d-a563-b8e36126f1e9"},"vehicle_type_id":"4","last_reported":1724432829,"current_range_meters":15200,"station_id":"ce4bgnh2rcd13ifvqc0g","pricing_plan_id":"cebpf4jnsgd1na2vs0mg"},{"bike_id":"8a96c60e-f6c3-46ce-8413-ec76355a3353","system_id":"levelo_inurba_marseille","lat":43.296131,"lon":5.370791,"is_reserved":false,"is_disabled":false,"rental_uris":{"android":"levelo://app?vid=8a96c60e-f6c3-46ce-8413-ec76355a3353","ios":"levelo://app?vid=8a96c60e-f6c3-46ce-8413-ec76355a3353"},"vehicle_type_id":"4","last_reported":1724432829,"current_range_meters":31200,"station_id":"ce4bgnh2rcd13ifvqc0g","pricing_plan_id":"cebpf4jnsgd1na2vs0mg"},{"bike_id":"4db8e491-06d8-41b3-bca4-f7329767c71b","system_id":"levelo_inurba_marseille","lat":43.29573,"lon":5.367355,"is_reserved":false,"is_disabled":false,"rental_uris":{"android":"levelo://app?vid=4db8e491-06d8-41b3-bca4-f7329767c71b","ios":"levelo://app?vid=4db8e491-06d8-41b3-bca4-f7329767c71b"},"vehicle_type_id":"4","last_reported":1724432829,"current_range_meters":15600,"station_id":"ce4bgph2rcd13ifvqc2g","pricing_plan_id":"cebpf4jnsgd1na2vs0mg"},{"bike_id":"4a3cc79e-c57a-4205-8d4a-c7f60c516836","system_id":"levelo_inurba_marseille","lat":43.29581,"lon":5.36754,"is_reserved":false,"is_disabled":false,"rental_uris":{"android":"levelo://app?vid=4a3cc79e-c57a-4205-8d4a-c7f60c516836","ios":"levelo://app?vid=4a3cc79e-c57a-4205-8d4a-c7f60c516836"},"vehicle_type_id":"4","last_reported":1724432829,"current_range_meters":18400,"station_id":"ce4bgph2rcd13ifvqc2g","pricing_plan_id":"cebpf4jnsgd1na2vs0mg"},{"bike_id":"840a546d-09ce-4576-be5f-66767ded3f5c","system_id":"levelo_inurba_marseille","lat":43.29573,"lon":5.367355,"is_reserved":false,"is_disabled":false,"rental_uris":{"android":"levelo://app?vid=840a546d-09ce-4576-be5f-66767ded3f5c","ios":"levelo://app?vid=840a546d-09ce-4576-be5f-66767ded3f5c"},"vehicle_type_id":"4","last_reported":1724432829,"current_range_meters":2800,"station_id":"ce4bgph2rcd13ifvqc2g","pricing_plan_id":"cebpf4jnsgd1na2vs0mg"},{"bike_id":"4e3b2698-f155-475b-b492-dfd1b973bb71","system_id":"levelo_inurba_marseille","lat":43.29573,"lon":5.367355,"is_reserved":false,"is_disabled":false,"rental_uris":{"android":"levelo://app?vid=4e3b2698-f155-475b-b492-dfd1b973bb71","ios":"levelo://app?vid=4e3b2698-f155-475b-b492-dfd1b973bb71"},"vehicle_type_id":"4","last_reported":1724432829,"current_range_meters":4000,"station_id":"ce4bgph2rcd13ifvqc2g","pricing_plan_id":"cebpf4jnsgd1na2vs0mg"},{"bike_id":"e3cc912b-a0be-4232-aaf3-df93f991d9bd","system_id":"levelo_inurba_marseille","lat":43.296935,"lon":5.376544,"is_reserved":false,"is_disabled":false,"rental_uris":{"android":"levelo://app?vid=e3cc912b-a0be-4232-aaf3-df93f991d9bd","ios":"levelo://app?vid=e3cc912b-a0be-4232-aaf3-df93f991d9bd"},"vehicle_type_id":"4","last_reported":1724432829,"current_range_meters":7600,"station_id":"ce4bgkh2rcd13ifvqbl0","pricing_plan_id":"cebpf4jnsgd1na2vs0mg"},{"bike_id":"9280c8b4-eb67-4ab6-a697-375f2ea5ff98","system_id":"levelo_inurba_marseille","lat":43.309589,"lon":5.390258,"is_reserved":false,"is_disabled":false,"rental_uris":{"android":"levelo://app?vid=9280c8b4-eb67-4ab6-a697-375f2ea5ff98","ios":"levelo://app?vid=9280c8b4-eb67-4ab6-a697-375f2ea5ff98"},"vehicle_type_id":"4","last_reported":1724432829,"current_range_meters":30800,"station_id":"ce4bgup2rcd13ifvqco0","pricing_plan_id":"cebpf4jnsgd1na2vs0mg"},{"bike_id":"9e08c8f5-713c-4d11-8583-bc7f761ce028","system_id":"levelo_inurba_marseille","lat":43.309589,"lon":5.390258,"is_reserved":false,"is_disabled":false,"rental_uris":{"android":"levelo://app?vid=9e08c8f5-713c-4d11-8583-bc7f761ce028","ios":"levelo://app?vid=9e08c8f5-713c-4d11-8583-bc7f761ce028"},"vehicle_type_id":"4","last_reported":1724432829,"current_range_meters":0,"station_id":"ce4bgup2rcd13ifvqco0","pricing_plan_id":"cebpf4jnsgd1na2vs0mg"},{"bike_id":"4c7276fe-51c2-4fe4-a463-e335c82b500a","system_id":"levelo_inurba_marseille","lat":43.309589,"lon":5.390258,"is_reserved":false,"is_disabled":false,"rental_uris":{"android":"levelo://app?vid=4c7276fe-51c2-4fe4-a463-e335c82b500a","ios":"levelo://app?vid=4c7276fe-51c2-4fe4-a463-e335c82b500a"},"vehicle_type_id":"4","last_reported":1724432829,"current_range_meters":0,"station_id":"ce4bgup2rcd13ifvqco0","pricing_plan_id":"cebpf4jnsgd1na2vs0mg"},{"bike_id":"98f1a0f9-8f23-4efb-b31e-81de103751a5","system_id":"levelo_inurba_marseille","lat":43.309589,"lon":5.390258,"is_reserved":false,"is_disabled":false,"rental_uris":{"android":"levelo://app?vid=98f1a0f9-8f23-4efb-b31e-81de103751a5","ios":"levelo://app?vid=98f1a0f9-8f23-4efb-b31e-81de103751a5"},"vehicle_type_id":"4","last_reported":1724432829,"current_range_meters":4000,"station_id":"ce4bgup2rcd13ifvqco0","pricing_plan_id":"cebpf4jnsgd1na2vs0mg"},{"bike_id":"5b3c0dee-671f-4cf9-9f53-b72422a692b5","system_id":"levelo_inurba_marseille","lat":43.309589,"lon":5.390258,"is_reserved":false,"is_disabled":false,"rental_uris":{"android":"levelo://app?vid=5b3c0dee-671f-4cf9-9f53-b72422a692b5","ios":"levelo://app?vid=5b3c0dee-671f-4cf9-9f53-b72422a692b5"},"vehicle_type_id":"4","last_reported":1724432829,"current_range_meters":11600,"station_id":"ce4bgup2rcd13ifvqco0","pricing_plan_id":"cebpf4jnsgd1na2vs0mg"},{"bike_id":"4eb04718-3c27-400c-b44c-44fbb3b1f502","system_id":"levelo_inurba_marseille","lat":43.295748,"lon":5.37522,"is_reserved":false,"is_disabled":false,"rental_uris":{"android":"levelo://app?vid=4eb04718-3c27-400c-b44c-44fbb3b1f502","ios":"levelo://app?vid=4eb04718-3c27-400c-b44c-44fbb3b1f502"},"vehicle_type_id":"4","last_reported":1724432829,"current_range_meters":16400,"station_id":"ce4bgh92rcd13ifvqb50","pricing_plan_id":"cebpf4jnsgd1na2vs0mg"},{"bike_id":"3bdc94f9-283a-48a7-905a-6866f7f0868d","system_id":"levelo_inurba_marseille","lat":43.298037,"lon":5.381066,"is_reserved":false,"is_disabled":false,"rental_uris":{"android":"levelo://app?vid=3bdc94f9-283a-48a7-905a-6866f7f0868d","ios":"levelo://app?vid=3bdc94f9-283a-48a7-905a-6866f7f0868d"},"vehicle_type_id":"4","last_reported":1724432829,"current_range_meters":800,"station_id":"ce4bgip2rcd13ifvqbb0","pricing_plan_id":"cebpf4jnsgd1na2vs0mg"},{"bike_id":"fc404b9a-7e06-4b5e-85f9-7232072f9fa6","system_id":"levelo_inurba_marseille","lat":43.298037,"lon":5.381066,"is_reserved":false,"is_disabled":false,"rental_uris":{"android":"levelo://app?vid=fc404b9a-7e06-4b5e-85f9-7232072f9fa6","ios":"levelo://app?vid=fc404b9a-7e06-4b5e-85f9-7232072f9fa6"},"vehicle_type_id":"4","last_reported":1724432829,"current_range_meters":17600,"station_id":"ce4bgip2rcd13ifvqbb0","pricing_plan_id":"cebpf4jnsgd1na2vs0mg"},{"bike_id":"906af7ee-b6d2-48e3-bb1a-70ee7adb28bb","system_id":"levelo_inurba_marseille","lat":43.304274,"lon":5.388873,"is_reserved":false,"is_disabled":false,"rental_uris":{"android":"levelo://app?vid=906af7ee-b6d2-48e3-bb1a-70ee7adb28bb","ios":"levelo://app?vid=906af7ee-b6d2-48e3-bb1a-70ee7adb28bb"},"vehicle_type_id":"4","last_reported":1724432829,"current_range_meters":27200,"station_id":"ce4bgk12rcd13ifvqbi0","pricing_plan_id":"cebpf4jnsgd1na2vs0mg"},{"bike_id":"bf43524e-cc63-4a2a-b978-60b42a937291","system_id":"levelo_inurba_marseille","lat":43.295748,"lon":5.37522,"is_reserved":false,"is_disabled":false,"rental_uris":{"android":"levelo://app?vid=bf43524e-cc63-4a2a-b978-60b42a937291","ios":"levelo://app?vid=bf43524e-cc63-4a2a-b978-60b42a937291"},"vehicle_type_id":"4","last_reported":1724432829,"current_range_meters":16000,"station_id":"ce4bgh92rcd13ifvqb50","pricing_plan_id":"cebpf4jnsgd1na2vs0mg"},{"bike_id":"0fc0b299-3a51-46a5-bc28-b5cab597143b","system_id":"levelo_inurba_marseille","lat":43.296277,"lon":5.377108,"is_reserved":false,"is_disabled":false,"rental_uris":{"android":"levelo://app?vid=0fc0b299-3a51-46a5-bc28-b5cab597143b","ios":"levelo://app?vid=0fc0b299-3a51-46a5-bc28-b5cab597143b"},"vehicle_type_id":"4","last_reported":1724432829,"current_range_meters":23600,"station_id":"ce4bgi92rcd13ifvqb90","pricing_plan_id":"cebpf4jnsgd1na2vs0mg"},{"bike_id":"dfa6a068-3249-4519-be0c-b3b42ce12f3e","system_id":"levelo_inurba_marseille","lat":43.29977,"lon":5.38485,"is_reserved":false,"is_disabled":false,"rental_uris":{"android":"levelo://app?vid=dfa6a068-3249-4519-be0c-b3b42ce12f3e","ios":"levelo://app?vid=dfa6a068-3249-4519-be0c-b3b42ce12f3e"},"vehicle_type_id":"4","last_reported":1724432829,"current_range_meters":0,"station_id":"ce4bgj92rcd13ifvqbd0","pricing_plan_id":"cebpf4jnsgd1na2vs0mg"},{"bike_id":"82582008-7b96-4a6f-b008-cfa4fc0e35ce","system_id":"levelo_inurba_marseille","lat":43.295279,"lon":5.375048,"is_reserved":false,"is_disabled":false,"rental_uris":{"android":"levelo://app?vid=82582008-7b96-4a6f-b008-cfa4fc0e35ce","ios":"levelo://app?vid=82582008-7b96-4a6f-b008-cfa4fc0e35ce"},"vehicle_type_id":"4","last_reported":1724432829,"current_range_meters":4000,"station_id":"ce4bgkp2rcd13ifvqbmg","pricing_plan_id":"cebpf4jnsgd1na2vs0mg"},{"bike_id":"d1422ac5-70af-4a85-9e68-2edb6588422a","system_id":"levelo_inurba_marseille","lat":43.299717,"lon":5.384845,"is_reserved":false,"is_disabled":false,"rental_uris":{"android":"levelo://app?vid=d1422ac5-70af-4a85-9e68-2edb6588422a","ios":"levelo://app?vid=d1422ac5-70af-4a85-9e68-2edb6588422a"},"vehicle_type_id":"4","last_reported":1724432829,"current_range_meters":5200,"station_id":"ce4bgj92rcd13ifvqbd0","pricing_plan_id":"cebpf4jnsgd1na2vs0mg"},{"bike_id":"c99af297-396d-41b6-adf4-62c7aaa42e20","system_id":"levelo_inurba_marseille","lat":43.299724,"lon":5.384848,"is_reserved":false,"is_disabled":false,"rental_uris":{"android":"levelo://app?vid=c99af297-396d-41b6-adf4-62c7aaa42e20","ios":"levelo://app?vid=c99af297-396d-41b6-adf4-62c7aaa42e20"},"vehicle_type_id":"4","last_reported":1724432829,"current_range_meters":20800,"station_id":"ce4bgj92rcd13ifvqbd0","pricing_plan_id":"cebpf4jnsgd1na2vs0mg"},{"bike_id":"0f5d8844-5df8-42cf-b66a-53049d89f87e","system_id":"levelo_inurba_marseille","lat":43.3047,"lon":5.38992,"is_reserved":false,"is_disabled":false,"rental_uris":{"android":"levelo://app?vid=0f5d8844-5df8-42cf-b66a-53049d89f87e","ios":"levelo://app?vid=0f5d8844-5df8-42cf-b66a-53049d89f87e"},"vehicle_type_id":"4","last_reported":1724432829,"current_range_meters":2800,"station_id":"","pricing_plan_id":"cebpf4jnsgd1na2vs0mg"},{"bike_id":"28ab2bd9-19f9-46ae-a3ce-7f3fa04a11bd","system_id":"levelo_inurba_marseille","lat":43.29958,"lon":5.38503,"is_reserved":false,"is_disabled":false,"rental_uris":{"android":"levelo://app?vid=28ab2bd9-19f9-46ae-a3ce-7f3fa04a11bd","ios":"levelo://app?vid=28ab2bd9-19f9-46ae-a3ce-7f3fa04a11bd"},"vehicle_type_id":"4","last_reported":1724432829,"current_range_meters":25600,"station_id":"ce4bgj92rcd13ifvqbd0","pricing_plan_id":"cebpf4jnsgd1na2vs0mg"},{"bike_id":"00b504a8-69f3-42c1-9c47-69cc397916b8","system_id":"levelo_inurba_marseille","lat":43.301396,"lon":5.387812,"is_reserved":false,"is_disabled":false,"rental_uris":{"android":"levelo://app?vid=00b504a8-69f3-42c1-9c47-69cc397916b8","ios":"levelo://app?vid=00b504a8-69f3-42c1-9c47-69cc397916b8"},"vehicle_type_id":"4","last_reported":1724432829,"current_range_meters":0,"station_id":"ce4bghh2rcd13ifvqb60","pricing_plan_id":"cebpf4jnsgd1na2vs0mg"},{"bike_id":"6ea91c09-c188-471e-b36f-72cf3c2bef9e","system_id":"levelo_inurba_marseille","lat":43.301396,"lon":5.387812,"is_reserved":false,"is_disabled":false,"rental_uris":{"android":"levelo://app?vid=6ea91c09-c188-471e-b36f-72cf3c2bef9e","ios":"levelo://app?vid=6ea91c09-c188-471e-b36f-72cf3c2bef9e"},"vehicle_type_id":"4","last_reported":1724432829,"current_range_meters":13200,"station_id":"ce4bghh2rcd13ifvqb60","pricing_plan_id":"cebpf4jnsgd1na2vs0mg"},{"bike_id":"d27b31c3-3f81-4016-986d-e2c5c04b1aa1","system_id":"levelo_inurba_marseille","lat":43.299717,"lon":5.384845,"is_reserved":false,"is_disabled":false,"rental_uris":{"android":"levelo://app?vid=d27b31c3-3f81-4016-986d-e2c5c04b1aa1","ios":"levelo://app?vid=d27b31c3-3f81-4016-986d-e2c5c04b1aa1"},"vehicle_type_id":"4","last_reported":1724432829,"current_range_meters":23200,"station_id":"ce4bgj92rcd13ifvqbd0","pricing_plan_id":"cebpf4jnsgd1na2vs0mg"},{"bike_id":"073adf17-219b-4850-afa2-c781e3a1a4c2","system_id":"levelo_inurba_marseille","lat":43.301396,"lon":5.387812,"is_reserved":false,"is_disabled":false,"rental_uris":{"android":"levelo://app?vid=073adf17-219b-4850-afa2-c781e3a1a4c2","ios":"levelo://app?vid=073adf17-219b-4850-afa2-c781e3a1a4c2"},"vehicle_type_id":"4","last_reported":1724432829,"current_range_meters":1600,"station_id":"ce4bghh2rcd13ifvqb60","pricing_plan_id":"cebpf4jnsgd1na2vs0mg"},{"bike_id":"f1a58867-381b-4e08-bfba-b45761ae27e2","system_id":"levelo_inurba_marseille","lat":43.296131,"lon":5.370791,"is_reserved":false,"is_disabled":false,"rental_uris":{"android":"levelo://app?vid=f1a58867-381b-4e08-bfba-b45761ae27e2","ios":"levelo://app?vid=f1a58867-381b-4e08-bfba-b45761ae27e2"},"vehicle_type_id":"4","last_reported":1724432829,"current_range_meters":27200,"station_id":"ce4bgnh2rcd13ifvqc0g","pricing_plan_id":"cebpf4jnsgd1na2vs0mg"},{"bike_id":"1efa9e53-352b-47b3-8686-63bb2e887b9c","system_id":"levelo_inurba_marseille","lat":43.29602,"lon":5.381084,"is_reserved":false,"is_disabled":false,"rental_uris":{"android":"levelo://app?vid=1efa9e53-352b-47b3-8686-63bb2e887b9c","ios":"levelo://app?vid=1efa9e53-352b-47b3-8686-63bb2e887b9c"},"vehicle_type_id":"4","last_reported":1724432829,"current_range_meters":800,"station_id":"ce4bgl12rcd13ifvqbo0","pricing_plan_id":"cebpf4jnsgd1na2vs0mg"},{"bike_id":"b22d5c35-d203-4219-938e-3748332f9d8e","system_id":"levelo_inurba_marseille","lat":43.3065,"lon":5.39281,"is_reserved":false,"is_disabled":false,"rental_uris":{"android":"levelo://app?vid=b22d5c35-d203-4219-938e-3748332f9d8e","ios":"levelo://app?vid=b22d5c35-d203-4219-938e-3748332f9d8e"},"vehicle_type_id":"4","last_reported":1724432829,"current_range_meters":31200,"station_id":"","pricing_plan_id":"cebpf4jnsgd1na2vs0mg"},{"bike_id":"01352e10-6b54-4488-a431-80f84cf7819f","system_id":"levelo_inurba_marseille","lat":43.293249,"lon":5.371578,"is_reserved":false,"is_disabled":false,"rental_uris":{"android":"levelo://app?vid=01352e10-6b54-4488-a431-80f84cf7819f","ios":"levelo://app?vid=01352e10-6b54-4488-a431-80f84cf7819f"},"vehicle_type_id":"4","last_reported":1724432829,"current_range_meters":28400,"station_id":"ce4bgh92rcd13ifvqb40","pricing_plan_id":"cebpf4jnsgd1na2vs0mg"},{"bike_id":"a053cfde-6f7f-48d0-b4eb-b98b2bf679c4","system_id":"levelo_inurba_marseille","lat":43.293249,"lon":5.371578,"is_reserved":false,"is_disabled":false,"rental_uris":{"android":"levelo://app?vid=a053cfde-6f7f-48d0-b4eb-b98b2bf679c4","ios":"levelo://app?vid=a053cfde-6f7f-48d0-b4eb-b98b2bf679c4"},"vehicle_type_id":"4","last_reported":1724432829,"current_range_meters":0,"station_id":"ce4bgh92rcd13ifvqb40","pricing_plan_id":"cebpf4jnsgd1na2vs0mg"},{"bike_id":"7c4a21a1-c98a-42f8-ae77-8d837aefa8ee","system_id":"levelo_inurba_marseille","lat":43.29279,"lon":5.36848,"is_reserved":false,"is_disabled":false,"rental_uris":{"android":"levelo://app?vid=7c4a21a1-c98a-42f8-ae77-8d837aefa8ee","ios":"levelo://app?vid=7c4a21a1-c98a-42f8-ae77-8d837aefa8ee"},"vehicle_type_id":"4","last_reported":1724432829,"current_range_meters":26400,"station_id":"ce4bhbp2rcd13ifvqesg","pricing_plan_id":"cebpf4jnsgd1na2vs0mg"},{"bike_id":"3215ff88-d034-4d99-9b31-6bef6862752c","system_id":"levelo_inurba_marseille","lat":43.292749,"lon":5.368402,"is_reserved":false,"is_disabled":false,"rental_uris":{"android":"levelo://app?vid=3215ff88-d034-4d99-9b31-6bef6862752c","ios":"levelo://app?vid=3215ff88-d034-4d99-9b31-6bef6862752c"},"vehicle_type_id":"4","last_reported":1724432829,"current_range_meters":21600,"station_id":"ce4bhbp2rcd13ifvqesg","pricing_plan_id":"cebpf4jnsgd1na2vs0mg"},{"bike_id":"6189cf9e-ab71-45e2-9227-408d5654b6e4","system_id":"levelo_inurba_marseille","lat":43.292754,"lon":5.368398,"is_reserved":false,"is_disabled":false,"rental_uris":{"android":"levelo://app?vid=6189cf9e-ab71-45e2-9227-408d5654b6e4","ios":"levelo://app?vid=6189cf9e-ab71-45e2-9227-408d5654b6e4"},"vehicle_type_id":"4","last_reported":1724432829,"current_range_meters":26800,"station_id":"","pricing_plan_id":"cebpf4jnsgd1na2vs0mg"},{"bike_id":"dfc09bb8-aedb-4710-9619-a87833036f66","system_id":"levelo_inurba_marseille","lat":43.292749,"lon":5.368402,"is_reserved":false,"is_disabled":false,"rental_uris":{"android":"levelo://app?vid=dfc09bb8-aedb-4710-9619-a87833036f66","ios":"levelo://app?vid=dfc09bb8-aedb-4710-9619-a87833036f66"},"vehicle_type_id":"4","last_reported":1724432829,"current_range_meters":22800,"station_id":"ce4bhbp2rcd13ifvqesg","pricing_plan_id":"cebpf4jnsgd1na2vs0mg"},{"bike_id":"a584de9a-b4d7-42e0-93c5-f49ebb42b83a","system_id":"levelo_inurba_marseille","lat":43.293259,"lon":5.371586,"is_reserved":false,"is_disabled":false,"rental_uris":{"android":"levelo://app?vid=a584de9a-b4d7-42e0-93c5-f49ebb42b83a","ios":"levelo://app?vid=a584de9a-b4d7-42e0-93c5-f49ebb42b83a"},"vehicle_type_id":"4","last_reported":1724432829,"current_range_meters":2400,"station_id":"ce4bgh92rcd13ifvqb40","pricing_plan_id":"cebpf4jnsgd1na2vs0mg"},{"bike_id":"306b899d-498a-4a20-945d-ae406200989e","system_id":"levelo_inurba_marseille","lat":43.293009,"lon":5.374584,"is_reserved":false,"is_disabled":false,"rental_uris":{"android":"levelo://app?vid=306b899d-498a-4a20-945d-ae406200989e","ios":"levelo://app?vid=306b899d-498a-4a20-945d-ae406200989e"},"vehicle_type_id":"4","last_reported":1724432829,"current_range_meters":21200,"station_id":"ce4bgi12rcd13ifvqb70","pricing_plan_id":"cebpf4jnsgd1na2vs0mg"},{"bike_id":"bcb1fdc5-7d71-40a3-8f59-00a89766b9eb","system_id":"levelo_inurba_marseille","lat":43.293009,"lon":5.374584,"is_reserved":false,"is_disabled":false,"rental_uris":{"android":"levelo://app?vid=bcb1fdc5-7d71-40a3-8f59-00a89766b9eb","ios":"levelo://app?vid=bcb1fdc5-7d71-40a3-8f59-00a89766b9eb"},"vehicle_type_id":"4","last_reported":1724432829,"current_range_meters":16000,"station_id":"ce4bgi12rcd13ifvqb70","pricing_plan_id":"cebpf4jnsgd1na2vs0mg"},{"bike_id":"6a2a032b-a4a8-43c6-847a-beebcb38b5cb","system_id":"levelo_inurba_marseille","lat":43.293009,"lon":5.374584,"is_reserved":false,"is_disabled":false,"rental_uris":{"android":"levelo://app?vid=6a2a032b-a4a8-43c6-847a-beebcb38b5cb","ios":"levelo://app?vid=6a2a032b-a4a8-43c6-847a-beebcb38b5cb"},"vehicle_type_id":"4","last_reported":1724432829,"current_range_meters":24400,"station_id":"ce4bgi12rcd13ifvqb70","pricing_plan_id":"cebpf4jnsgd1na2vs0mg"},{"bike_id":"62c6e113-0ea1-4dc8-90f5-860bcb63f06a","system_id":"levelo_inurba_marseille","lat":43.313291,"lon":5.396838,"is_reserved":false,"is_disabled":false,"rental_uris":{"android":"levelo://app?vid=62c6e113-0ea1-4dc8-90f5-860bcb63f06a","ios":"levelo://app?vid=62c6e113-0ea1-4dc8-90f5-860bcb63f06a"},"vehicle_type_id":"4","last_reported":1724432829,"current_range_meters":14800,"station_id":"ce4bgvp2rcd13ifvqcu0","pricing_plan_id":"cebpf4jnsgd1na2vs0mg"},{"bike_id":"8d3edeb7-56b2-41a6-a3da-c17f0e8dd06b","system_id":"levelo_inurba_marseille","lat":43.293009,"lon":5.374584,"is_reserved":false,"is_disabled":false,"rental_uris":{"android":"levelo://app?vid=8d3edeb7-56b2-41a6-a3da-c17f0e8dd06b","ios":"levelo://app?vid=8d3edeb7-56b2-41a6-a3da-c17f0e8dd06b"},"vehicle_type_id":"4","last_reported":1724432829,"current_range_meters":6400,"station_id":"ce4bgi12rcd13ifvqb70","pricing_plan_id":"cebpf4jnsgd1na2vs0mg"},{"bike_id":"1ed29361-49fb-4c8c-a0ce-e7dce4c2a26d","system_id":"levelo_inurba_marseille","lat":43.293009,"lon":5.374584,"is_reserved":false,"is_disabled":false,"rental_uris":{"android":"levelo://app?vid=1ed29361-49fb-4c8c-a0ce-e7dce4c2a26d","ios":"levelo://app?vid=1ed29361-49fb-4c8c-a0ce-e7dce4c2a26d"},"vehicle_type_id":"4","last_reported":1724432829,"current_range_meters":0,"station_id":"ce4bgi12rcd13ifvqb70","pricing_plan_id":"cebpf4jnsgd1na2vs0mg"},{"bike_id":"d6f21481-cba4-4805-a6e9-efb60c022c1c","system_id":"levelo_inurba_marseille","lat":43.305994,"lon":5.393687,"is_reserved":false,"is_disabled":false,"rental_uris":{"android":"levelo://app?vid=d6f21481-cba4-4805-a6e9-efb60c022c1c","ios":"levelo://app?vid=d6f21481-cba4-4805-a6e9-efb60c022c1c"},"vehicle_type_id":"4","last_reported":1724432829,"current_range_meters":30000,"station_id":"ce4bh0p2rcd13ifvqd80","pricing_plan_id":"cebpf4jnsgd1na2vs0mg"},{"bike_id":"7d9c0e7e-80ca-49cc-afbd-fb2f48c18d41","system_id":"levelo_inurba_marseille","lat":43.305994,"lon":5.393687,"is_reserved":false,"is_disabled":false,"rental_uris":{"android":"levelo://app?vid=7d9c0e7e-80ca-49cc-afbd-fb2f48c18d41","ios":"levelo://app?vid=7d9c0e7e-80ca-49cc-afbd-fb2f48c18d41"},"vehicle_type_id":"4","last_reported":1724432829,"current_range_meters":16000,"station_id":"ce4bh0p2rcd13ifvqd80","pricing_plan_id":"cebpf4jnsgd1na2vs0mg"},{"bike_id":"bb5d25f6-5bd4-4070-922d-6c193b931703","system_id":"levelo_inurba_marseille","lat":43.305994,"lon":5.393687,"is_reserved":false,"is_disabled":false,"rental_uris":{"android":"levelo://app?vid=bb5d25f6-5bd4-4070-922d-6c193b931703","ios":"levelo://app?vid=bb5d25f6-5bd4-4070-922d-6c193b931703"},"vehicle_type_id":"4","last_reported":1724432829,"current_range_meters":8400,"station_id":"ce4bh0p2rcd13ifvqd80","pricing_plan_id":"cebpf4jnsgd1na2vs0mg"},{"bike_id":"3e4ff261-d03a-43e5-a979-dcab5b508fea","system_id":"levelo_inurba_marseille","lat":43.305994,"lon":5.393687,"is_reserved":false,"is_disabled":false,"rental_uris":{"android":"levelo://app?vid=3e4ff261-d03a-43e5-a979-dcab5b508fea","ios":"levelo://app?vid=3e4ff261-d03a-43e5-a979-dcab5b508fea"},"vehicle_type_id":"4","last_reported":1724432829,"current_range_meters":5200,"station_id":"ce4bh0p2rcd13ifvqd80","pricing_plan_id":"cebpf4jnsgd1na2vs0mg"},{"bike_id":"3bd802ba-0328-48da-9be7-a9a6d542eb21","system_id":"levelo_inurba_marseille","lat":43.303002,"lon":5.392142,"is_reserved":false,"is_disabled":false,"rental_uris":{"android":"levelo://app?vid=3bd802ba-0328-48da-9be7-a9a6d542eb21","ios":"levelo://app?vid=3bd802ba-0328-48da-9be7-a9a6d542eb21"},"vehicle_type_id":"4","last_reported":1724432829,"current_range_meters":19200,"station_id":"ce4bgkh2rcd13ifvqbk0","pricing_plan_id":"cebpf4jnsgd1na2vs0mg"},{"bike_id":"cf9bb453-c9cb-49f7-90ef-8486f31cb275","system_id":"levelo_inurba_marseille","lat":43.29377,"lon":5.37856,"is_reserved":false,"is_disabled":false,"rental_uris":{"android":"levelo://app?vid=cf9bb453-c9cb-49f7-90ef-8486f31cb275","ios":"levelo://app?vid=cf9bb453-c9cb-49f7-90ef-8486f31cb275"},"vehicle_type_id":"4","last_reported":1724432829,"current_range_meters":0,"station_id":"ce4bgjh2rcd13ifvqbf0","pricing_plan_id":"cebpf4jnsgd1na2vs0mg"},{"bike_id":"2ad586cc-e052-4a7d-af8b-7ad6c5aa97d1","system_id":"levelo_inurba_marseille","lat":43.2936,"lon":5.37835,"is_reserved":false,"is_disabled":false,"rental_uris":{"android":"levelo://app?vid=2ad586cc-e052-4a7d-af8b-7ad6c5aa97d1","ios":"levelo://app?vid=2ad586cc-e052-4a7d-af8b-7ad6c5aa97d1"},"vehicle_type_id":"4","last_reported":1724432829,"current_range_meters":0,"station_id":"ce4bgjh2rcd13ifvqbf0","pricing_plan_id":"cebpf4jnsgd1na2vs0mg"},{"bike_id":"f85ea2de-fa8d-4dd4-a0c3-f5bfb0b41b68","system_id":"levelo_inurba_marseille","lat":43.29373,"lon":5.37857,"is_reserved":false,"is_disabled":false,"rental_uris":{"android":"levelo://app?vid=f85ea2de-fa8d-4dd4-a0c3-f5bfb0b41b68","ios":"levelo://app?vid=f85ea2de-fa8d-4dd4-a0c3-f5bfb0b41b68"},"vehicle_type_id":"4","last_reported":1724432829,"current_range_meters":0,"station_id":"ce4bgjh2rcd13ifvqbf0","pricing_plan_id":"cebpf4jnsgd1na2vs0mg"},{"bike_id":"d375aade-b13d-46c6-8991-f0077acab7c0","system_id":"levelo_inurba_marseille","lat":43.2936,"lon":5.37835,"is_reserved":false,"is_disabled":false,"rental_uris":{"android":"levelo://app?vid=d375aade-b13d-46c6-8991-f0077acab7c0","ios":"levelo://app?vid=d375aade-b13d-46c6-8991-f0077acab7c0"},"vehicle_type_id":"4","last_reported":1724432829,"current_range_meters":18000,"station_id":"ce4bgjh2rcd13ifvqbf0","pricing_plan_id":"cebpf4jnsgd1na2vs0mg"},{"bike_id":"3c7b25c2-7907-4916-ae2f-8b5e9c394e69","system_id":"levelo_inurba_marseille","lat":43.30498,"lon":5.39364,"is_reserved":false,"is_disabled":false,"rental_uris":{"android":"levelo://app?vid=3c7b25c2-7907-4916-ae2f-8b5e9c394e69","ios":"levelo://app?vid=3c7b25c2-7907-4916-ae2f-8b5e9c394e69"},"vehicle_type_id":"4","last_reported":1724432829,"current_range_meters":7200,"station_id":"","pricing_plan_id":"cebpf4jnsgd1na2vs0mg"},{"bike_id":"226baab9-6713-44c0-bed4-d4668e5d4331","system_id":"levelo_inurba_marseille","lat":43.292239,"lon":5.36069,"is_reserved":false,"is_disabled":false,"rental_uris":{"android":"levelo://app?vid=226baab9-6713-44c0-bed4-d4668e5d4331","ios":"levelo://app?vid=226baab9-6713-44c0-bed4-d4668e5d4331"},"vehicle_type_id":"4","last_reported":1724432829,"current_range_meters":0,"station_id":"ce4bhbh2rcd13ifvqeqg","pricing_plan_id":"cebpf4jnsgd1na2vs0mg"},{"bike_id":"a0ba04e0-9cf6-4bee-abb5-2dde4ffa43bb","system_id":"levelo_inurba_marseille","lat":43.30085,"lon":5.390856,"is_reserved":false,"is_disabled":false,"rental_uris":{"android":"levelo://app?vid=a0ba04e0-9cf6-4bee-abb5-2dde4ffa43bb","ios":"levelo://app?vid=a0ba04e0-9cf6-4bee-abb5-2dde4ffa43bb"},"vehicle_type_id":"4","last_reported":1724432829,"current_range_meters":400,"station_id":"ce4bh192rcd13ifvqdb0","pricing_plan_id":"cebpf4jnsgd1na2vs0mg"},{"bike_id":"ffae95d2-190b-425f-9b05-f0c64b48c7a6","system_id":"levelo_inurba_marseille","lat":43.292311,"lon":5.360731,"is_reserved":false,"is_disabled":false,"rental_uris":{"android":"levelo://app?vid=ffae95d2-190b-425f-9b05-f0c64b48c7a6","ios":"levelo://app?vid=ffae95d2-190b-425f-9b05-f0c64b48c7a6"},"vehicle_type_id":"4","last_reported":1724432829,"current_range_meters":30000,"station_id":"ce4bhbh2rcd13ifvqeqg","pricing_plan_id":"cebpf4jnsgd1na2vs0mg"},{"bike_id":"bba0d891-b528-49fd-9dca-83b90f18ed2c","system_id":"levelo_inurba_marseille","lat":43.292311,"lon":5.360731,"is_reserved":false,"is_disabled":false,"rental_uris":{"android":"levelo://app?vid=bba0d891-b528-49fd-9dca-83b90f18ed2c","ios":"levelo://app?vid=bba0d891-b528-49fd-9dca-83b90f18ed2c"},"vehicle_type_id":"4","last_reported":1724432829,"current_range_meters":18000,"station_id":"ce4bhbh2rcd13ifvqeqg","pricing_plan_id":"cebpf4jnsgd1na2vs0mg"},{"bike_id":"60d90b10-d945-4ec7-8b43-16fbc9d15e3e","system_id":"levelo_inurba_marseille","lat":43.292311,"lon":5.360731,"is_reserved":false,"is_disabled":false,"rental_uris":{"android":"levelo://app?vid=60d90b10-d945-4ec7-8b43-16fbc9d15e3e","ios":"levelo://app?vid=60d90b10-d945-4ec7-8b43-16fbc9d15e3e"},"vehicle_type_id":"4","last_reported":1724432829,"current_range_meters":0,"station_id":"ce4bhbh2rcd13ifvqeqg","pricing_plan_id":"cebpf4jnsgd1na2vs0mg"},{"bike_id":"27898828-d259-4a11-abe6-fbd993575869","system_id":"levelo_inurba_marseille","lat":43.30085,"lon":5.390856,"is_reserved":false,"is_disabled":false,"rental_uris":{"android":"levelo://app?vid=27898828-d259-4a11-abe6-fbd993575869","ios":"levelo://app?vid=27898828-d259-4a11-abe6-fbd993575869"},"vehicle_type_id":"4","last_reported":1724432829,"current_range_meters":22800,"station_id":"ce4bh192rcd13ifvqdb0","pricing_plan_id":"cebpf4jnsgd1na2vs0mg"},{"bike_id":"04f3b4a1-b975-43cf-ab66-8592518a21d1","system_id":"levelo_inurba_marseille","lat":43.292311,"lon":5.360731,"is_reserved":false,"is_disabled":false,"rental_uris":{"android":"levelo://app?vid=04f3b4a1-b975-43cf-ab66-8592518a21d1","ios":"levelo://app?vid=04f3b4a1-b975-43cf-ab66-8592518a21d1"},"vehicle_type_id":"4","last_reported":1724432829,"current_range_meters":22000,"station_id":"ce4bhbh2rcd13ifvqeqg","pricing_plan_id":"cebpf4jnsgd1na2vs0mg"},{"bike_id":"c66b3424-4a29-4687-8802-5b1ea9d830dc","system_id":"levelo_inurba_marseille","lat":43.29254,"lon":5.37608,"is_reserved":false,"is_disabled":false,"rental_uris":{"android":"levelo://app?vid=c66b3424-4a29-4687-8802-5b1ea9d830dc","ios":"levelo://app?vid=c66b3424-4a29-4687-8802-5b1ea9d830dc"},"vehicle_type_id":"4","last_reported":1724432829,"current_range_meters":0,"station_id":"ce4bgi12rcd13ifvqb80","pricing_plan_id":"cebpf4jnsgd1na2vs0mg"},{"bike_id":"99efa775-0b36-4c18-ac10-63c2a72a90ff","system_id":"levelo_inurba_marseille","lat":43.298764,"lon":5.388973,"is_reserved":false,"is_disabled":false,"rental_uris":{"android":"levelo://app?vid=99efa775-0b36-4c18-ac10-63c2a72a90ff","ios":"levelo://app?vid=99efa775-0b36-4c18-ac10-63c2a72a90ff"},"vehicle_type_id":"4","last_reported":1724432829,"current_range_meters":3200,"station_id":"ce4bh392rcd13ifvqdl0","pricing_plan_id":"cebpf4jnsgd1na2vs0mg"},{"bike_id":"fdcee541-23f7-440f-9f51-6ea5d7c7b1f7","system_id":"levelo_inurba_marseille","lat":43.291671,"lon":5.371575,"is_reserved":false,"is_disabled":false,"rental_uris":{"android":"levelo://app?vid=fdcee541-23f7-440f-9f51-6ea5d7c7b1f7","ios":"levelo://app?vid=fdcee541-23f7-440f-9f51-6ea5d7c7b1f7"},"vehicle_type_id":"4","last_reported":1724432829,"current_range_meters":9600,"station_id":"ce4bha92rcd13ifvqeh0","pricing_plan_id":"cebpf4jnsgd1na2vs0mg"},{"bike_id":"bfb8fc8a-ee3b-49c8-bbd8-41b1ccce1512","system_id":"levelo_inurba_marseille","lat":43.291671,"lon":5.371575,"is_reserved":false,"is_disabled":false,"rental_uris":{"android":"levelo://app?vid=bfb8fc8a-ee3b-49c8-bbd8-41b1ccce1512","ios":"levelo://app?vid=bfb8fc8a-ee3b-49c8-bbd8-41b1ccce1512"},"vehicle_type_id":"4","last_reported":1724432829,"current_range_meters":5600,"station_id":"ce4bha92rcd13ifvqeh0","pricing_plan_id":"cebpf4jnsgd1na2vs0mg"},{"bike_id":"a55757b2-c625-4994-b7e3-3cd1c0e706f6","system_id":"levelo_inurba_marseille","lat":43.291675,"lon":5.371583,"is_reserved":false,"is_disabled":false,"rental_uris":{"android":"levelo://app?vid=a55757b2-c625-4994-b7e3-3cd1c0e706f6","ios":"levelo://app?vid=a55757b2-c625-4994-b7e3-3cd1c0e706f6"},"vehicle_type_id":"4","last_reported":1724432829,"current_range_meters":26000,"station_id":"ce4bha92rcd13ifvqeh0","pricing_plan_id":"cebpf4jnsgd1na2vs0mg"},{"bike_id":"3180ed9e-f289-4c1e-af96-fc71c3804d83","system_id":"levelo_inurba_marseille","lat":43.291675,"lon":5.371583,"is_reserved":false,"is_disabled":false,"rental_uris":{"android":"levelo://app?vid=3180ed9e-f289-4c1e-af96-fc71c3804d83","ios":"levelo://app?vid=3180ed9e-f289-4c1e-af96-fc71c3804d83"},"vehicle_type_id":"4","last_reported":1724432829,"current_range_meters":0,"station_id":"ce4bha92rcd13ifvqeh0","pricing_plan_id":"cebpf4jnsgd1na2vs0mg"},{"bike_id":"b01f06d9-d155-4b9c-84e1-91e2c1dbdcc7","system_id":"levelo_inurba_marseille","lat":43.292005,"lon":5.357875,"is_reserved":false,"is_disabled":false,"rental_uris":{"android":"levelo://app?vid=b01f06d9-d155-4b9c-84e1-91e2c1dbdcc7","ios":"levelo://app?vid=b01f06d9-d155-4b9c-84e1-91e2c1dbdcc7"},"vehicle_type_id":"4","last_reported":1724432829,"current_range_meters":16400,"station_id":"ce4bhb12rcd13ifvqel0","pricing_plan_id":"cebpf4jnsgd1na2vs0mg"},{"bike_id":"6fef744f-7785-4abf-8186-eecabadb63ab","system_id":"levelo_inurba_marseille","lat":43.292005,"lon":5.357875,"is_reserved":false,"is_disabled":false,"rental_uris":{"android":"levelo://app?vid=6fef744f-7785-4abf-8186-eecabadb63ab","ios":"levelo://app?vid=6fef744f-7785-4abf-8186-eecabadb63ab"},"vehicle_type_id":"4","last_reported":1724432829,"current_range_meters":16000,"station_id":"ce4bhb12rcd13ifvqel0","pricing_plan_id":"cebpf4jnsgd1na2vs0mg"},{"bike_id":"5262bca2-6143-4825-96b6-43aa64ce1166","system_id":"levelo_inurba_marseille","lat":43.313291,"lon":5.396838,"is_reserved":false,"is_disabled":false,"rental_uris":{"android":"levelo://app?vid=5262bca2-6143-4825-96b6-43aa64ce1166","ios":"levelo://app?vid=5262bca2-6143-4825-96b6-43aa64ce1166"},"vehicle_type_id":"4","last_reported":1724432829,"current_range_meters":0,"station_id":"ce4bgvp2rcd13ifvqcu0","pricing_plan_id":"cebpf4jnsgd1na2vs0mg"},{"bike_id":"f7863693-2044-4919-b183-ecce02f717dd","system_id":"levelo_inurba_marseille","lat":43.313291,"lon":5.396838,"is_reserved":false,"is_disabled":false,"rental_uris":{"android":"levelo://app?vid=f7863693-2044-4919-b183-ecce02f717dd","ios":"levelo://app?vid=f7863693-2044-4919-b183-ecce02f717dd"},"vehicle_type_id":"4","last_reported":1724432829,"current_range_meters":22000,"station_id":"ce4bgvp2rcd13ifvqcu0","pricing_plan_id":"cebpf4jnsgd1na2vs0mg"},{"bike_id":"02942e18-1753-4f23-af04-03a354468272","system_id":"levelo_inurba_marseille","lat":43.313291,"lon":5.396838,"is_reserved":false,"is_disabled":false,"rental_uris":{"android":"levelo://app?vid=02942e18-1753-4f23-af04-03a354468272","ios":"levelo://app?vid=02942e18-1753-4f23-af04-03a354468272"},"vehicle_type_id":"4","last_reported":1724432829,"current_range_meters":0,"station_id":"ce4bgvp2rcd13ifvqcu0","pricing_plan_id":"cebpf4jnsgd1na2vs0mg"},{"bike_id":"027163cd-c6c9-4fbf-9498-e80dbccc3288","system_id":"levelo_inurba_marseille","lat":43.313291,"lon":5.396838,"is_reserved":false,"is_disabled":false,"rental_uris":{"android":"levelo://app?vid=027163cd-c6c9-4fbf-9498-e80dbccc3288","ios":"levelo://app?vid=027163cd-c6c9-4fbf-9498-e80dbccc3288"},"vehicle_type_id":"4","last_reported":1724432829,"current_range_meters":4400,"station_id":"ce4bgvp2rcd13ifvqcu0","pricing_plan_id":"cebpf4jnsgd1na2vs0mg"},{"bike_id":"ff1060f0-e014-4ba9-95d6-0c458f4d4dd0","system_id":"levelo_inurba_marseille","lat":43.313291,"lon":5.396838,"is_reserved":false,"is_disabled":false,"rental_uris":{"android":"levelo://app?vid=ff1060f0-e014-4ba9-95d6-0c458f4d4dd0","ios":"levelo://app?vid=ff1060f0-e014-4ba9-95d6-0c458f4d4dd0"},"vehicle_type_id":"4","last_reported":1724432829,"current_range_meters":400,"station_id":"ce4bgvp2rcd13ifvqcu0","pricing_plan_id":"cebpf4jnsgd1na2vs0mg"},{"bike_id":"411bd110-0f5e-4d15-b772-4d6bfc2e4801","system_id":"levelo_inurba_marseille","lat":43.313291,"lon":5.396838,"is_reserved":false,"is_disabled":false,"rental_uris":{"android":"levelo://app?vid=411bd110-0f5e-4d15-b772-4d6bfc2e4801","ios":"levelo://app?vid=411bd110-0f5e-4d15-b772-4d6bfc2e4801"},"vehicle_type_id":"4","last_reported":1724432829,"current_range_meters":28000,"station_id":"ce4bgvp2rcd13ifvqcu0","pricing_plan_id":"cebpf4jnsgd1na2vs0mg"},{"bike_id":"f0f02818-b5e7-4c1d-81a5-4bbb21cc4f5b","system_id":"levelo_inurba_marseille","lat":43.313291,"lon":5.396838,"is_reserved":false,"is_disabled":false,"rental_uris":{"android":"levelo://app?vid=f0f02818-b5e7-4c1d-81a5-4bbb21cc4f5b","ios":"levelo://app?vid=f0f02818-b5e7-4c1d-81a5-4bbb21cc4f5b"},"vehicle_type_id":"4","last_reported":1724432829,"current_range_meters":5200,"station_id":"ce4bgvp2rcd13ifvqcu0","pricing_plan_id":"cebpf4jnsgd1na2vs0mg"},{"bike_id":"15e57503-101e-47b6-8757-fd7757f4c422","system_id":"levelo_inurba_marseille","lat":43.313291,"lon":5.396838,"is_reserved":false,"is_disabled":false,"rental_uris":{"android":"levelo://app?vid=15e57503-101e-47b6-8757-fd7757f4c422","ios":"levelo://app?vid=15e57503-101e-47b6-8757-fd7757f4c422"},"vehicle_type_id":"4","last_reported":1724432829,"current_range_meters":0,"station_id":"ce4bgvp2rcd13ifvqcu0","pricing_plan_id":"cebpf4jnsgd1na2vs0mg"},{"bike_id":"49c17802-8b82-4906-ae24-fdbac0f201cb","system_id":"levelo_inurba_marseille","lat":43.313291,"lon":5.396838,"is_reserved":false,"is_disabled":false,"rental_uris":{"android":"levelo://app?vid=49c17802-8b82-4906-ae24-fdbac0f201cb","ios":"levelo://app?vid=49c17802-8b82-4906-ae24-fdbac0f201cb"},"vehicle_type_id":"4","last_reported":1724432829,"current_range_meters":0,"station_id":"ce4bgvp2rcd13ifvqcu0","pricing_plan_id":"cebpf4jnsgd1na2vs0mg"},{"bike_id":"4b04bd9a-59d4-4d76-a92e-e611f2d876e7","system_id":"levelo_inurba_marseille","lat":43.313291,"lon":5.396838,"is_reserved":false,"is_disabled":false,"rental_uris":{"android":"levelo://app?vid=4b04bd9a-59d4-4d76-a92e-e611f2d876e7","ios":"levelo://app?vid=4b04bd9a-59d4-4d76-a92e-e611f2d876e7"},"vehicle_type_id":"4","last_reported":1724432829,"current_range_meters":1600,"station_id":"ce4bgvp2rcd13ifvqcu0","pricing_plan_id":"cebpf4jnsgd1na2vs0mg"},{"bike_id":"078e9822-5a31-4e34-b055-b7c9265f8a3e","system_id":"levelo_inurba_marseille","lat":43.309038,"lon":5.396546,"is_reserved":false,"is_disabled":false,"rental_uris":{"android":"levelo://app?vid=078e9822-5a31-4e34-b055-b7c9265f8a3e","ios":"levelo://app?vid=078e9822-5a31-4e34-b055-b7c9265f8a3e"},"vehicle_type_id":"4","last_reported":1724432829,"current_range_meters":15600,"station_id":"ce4bh012rcd13ifvqcv0","pricing_plan_id":"cebpf4jnsgd1na2vs0mg"},{"bike_id":"2f0ac195-cff0-4960-8fd0-0ba9f3ebdf14","system_id":"levelo_inurba_marseille","lat":43.30894,"lon":5.39663,"is_reserved":false,"is_disabled":false,"rental_uris":{"android":"levelo://app?vid=2f0ac195-cff0-4960-8fd0-0ba9f3ebdf14","ios":"levelo://app?vid=2f0ac195-cff0-4960-8fd0-0ba9f3ebdf14"},"vehicle_type_id":"4","last_reported":1724432829,"current_range_meters":0,"station_id":"ce4bh012rcd13ifvqcv0","pricing_plan_id":"cebpf4jnsgd1na2vs0mg"},{"bike_id":"a9f76362-9a7e-4201-9a4f-1bf8326d5a96","system_id":"levelo_inurba_marseille","lat":43.29529,"lon":5.385581,"is_reserved":false,"is_disabled":false,"rental_uris":{"android":"levelo://app?vid=a9f76362-9a7e-4201-9a4f-1bf8326d5a96","ios":"levelo://app?vid=a9f76362-9a7e-4201-9a4f-1bf8326d5a96"},"vehicle_type_id":"4","last_reported":1724432829,"current_range_meters":18400,"station_id":"ce4bgih2rcd13ifvqba0","pricing_plan_id":"cebpf4jnsgd1na2vs0mg"},{"bike_id":"f6962a52-9138-4da5-9a53-e6b9af171b34","system_id":"levelo_inurba_marseille","lat":43.290779,"lon":5.371482,"is_reserved":false,"is_disabled":false,"rental_uris":{"android":"levelo://app?vid=f6962a52-9138-4da5-9a53-e6b9af171b34","ios":"levelo://app?vid=f6962a52-9138-4da5-9a53-e6b9af171b34"},"vehicle_type_id":"4","last_reported":1724432829,"current_range_meters":3200,"station_id":"ce4bh5p2rcd13ifvqe4g","pricing_plan_id":"cebpf4jnsgd1na2vs0mg"},{"bike_id":"54ddba8e-d6bc-4dcd-8fa0-05ba5efbf60d","system_id":"levelo_inurba_marseille","lat":43.290779,"lon":5.371482,"is_reserved":false,"is_disabled":false,"rental_uris":{"android":"levelo://app?vid=54ddba8e-d6bc-4dcd-8fa0-05ba5efbf60d","ios":"levelo://app?vid=54ddba8e-d6bc-4dcd-8fa0-05ba5efbf60d"},"vehicle_type_id":"4","last_reported":1724432829,"current_range_meters":19600,"station_id":"ce4bh5p2rcd13ifvqe4g","pricing_plan_id":"cebpf4jnsgd1na2vs0mg"},{"bike_id":"cd3f67bd-f77e-487c-bc5d-93644a28f198","system_id":"levelo_inurba_marseille","lat":43.289184,"lon":5.366408,"is_reserved":false,"is_disabled":false,"rental_uris":{"android":"levelo://app?vid=cd3f67bd-f77e-487c-bc5d-93644a28f198","ios":"levelo://app?vid=cd3f67bd-f77e-487c-bc5d-93644a28f198"},"vehicle_type_id":"4","last_reported":1724432829,"current_range_meters":26800,"station_id":"ce4bhap2rcd13ifvqek0","pricing_plan_id":"cebpf4jnsgd1na2vs0mg"},{"bike_id":"7f151a6b-2eb4-4010-97bb-cedaa0312e83","system_id":"levelo_inurba_marseille","lat":43.302008,"lon":5.394694,"is_reserved":false,"is_disabled":false,"rental_uris":{"android":"levelo://app?vid=7f151a6b-2eb4-4010-97bb-cedaa0312e83","ios":"levelo://app?vid=7f151a6b-2eb4-4010-97bb-cedaa0312e83"},"vehicle_type_id":"4","last_reported":1724432829,"current_range_meters":12400,"station_id":"ce4bh0p2rcd13ifvqd70","pricing_plan_id":"cebpf4jnsgd1na2vs0mg"},{"bike_id":"51ff8533-df6e-4cc2-b8e8-a0056ce3358a","system_id":"levelo_inurba_marseille","lat":43.2905,"lon":5.35913,"is_reserved":false,"is_disabled":false,"rental_uris":{"android":"levelo://app?vid=51ff8533-df6e-4cc2-b8e8-a0056ce3358a","ios":"levelo://app?vid=51ff8533-df6e-4cc2-b8e8-a0056ce3358a"},"vehicle_type_id":"4","last_reported":1724432829,"current_range_meters":30000,"station_id":"ce4bha92rcd13ifvqeg0","pricing_plan_id":"cebpf4jnsgd1na2vs0mg"},{"bike_id":"7b9a8d35-b15f-44b0-82e9-fc5f4e7f012a","system_id":"levelo_inurba_marseille","lat":43.29049,"lon":5.35914,"is_reserved":false,"is_disabled":false,"rental_uris":{"android":"levelo://app?vid=7b9a8d35-b15f-44b0-82e9-fc5f4e7f012a","ios":"levelo://app?vid=7b9a8d35-b15f-44b0-82e9-fc5f4e7f012a"},"vehicle_type_id":"4","last_reported":1724432829,"current_range_meters":17200,"station_id":"ce4bha92rcd13ifvqeg0","pricing_plan_id":"cebpf4jnsgd1na2vs0mg"},{"bike_id":"7608a603-4b2e-40fe-83f4-3986e28bd148","system_id":"levelo_inurba_marseille","lat":43.290471,"lon":5.359078,"is_reserved":false,"is_disabled":false,"rental_uris":{"android":"levelo://app?vid=7608a603-4b2e-40fe-83f4-3986e28bd148","ios":"levelo://app?vid=7608a603-4b2e-40fe-83f4-3986e28bd148"},"vehicle_type_id":"4","last_reported":1724432829,"current_range_meters":26800,"station_id":"ce4bha92rcd13ifvqeg0","pricing_plan_id":"cebpf4jnsgd1na2vs0mg"},{"bike_id":"370b4f12-f1cb-4a69-8058-46125183fd46","system_id":"levelo_inurba_marseille","lat":43.290327,"lon":5.375711,"is_reserved":false,"is_disabled":false,"rental_uris":{"android":"levelo://app?vid=370b4f12-f1cb-4a69-8058-46125183fd46","ios":"levelo://app?vid=370b4f12-f1cb-4a69-8058-46125183fd46"},"vehicle_type_id":"4","last_reported":1724432829,"current_range_meters":27200,"station_id":"ce4bh692rcd13ifvqe90","pricing_plan_id":"cebpf4jnsgd1na2vs0mg"},{"bike_id":"5d432c42-329e-4fb7-a0cc-c297ddc9d315","system_id":"levelo_inurba_marseille","lat":43.29036,"lon":5.37557,"is_reserved":false,"is_disabled":false,"rental_uris":{"android":"levelo://app?vid=5d432c42-329e-4fb7-a0cc-c297ddc9d315","ios":"levelo://app?vid=5d432c42-329e-4fb7-a0cc-c297ddc9d315"},"vehicle_type_id":"4","last_reported":1724432829,"current_range_meters":0,"station_id":"ce4bh692rcd13ifvqe90","pricing_plan_id":"cebpf4jnsgd1na2vs0mg"},{"bike_id":"730a6c50-337b-4f11-9db7-40bea7dc8d2d","system_id":"levelo_inurba_marseille","lat":43.289184,"lon":5.366408,"is_reserved":false,"is_disabled":false,"rental_uris":{"android":"levelo://app?vid=730a6c50-337b-4f11-9db7-40bea7dc8d2d","ios":"levelo://app?vid=730a6c50-337b-4f11-9db7-40bea7dc8d2d"},"vehicle_type_id":"4","last_reported":1724432829,"current_range_meters":14000,"station_id":"ce4bhap2rcd13ifvqek0","pricing_plan_id":"cebpf4jnsgd1na2vs0mg"},{"bike_id":"fbb75c8c-1ce8-422e-bf76-1c502d264fd0","system_id":"levelo_inurba_marseille","lat":43.29416,"lon":5.38621,"is_reserved":false,"is_disabled":false,"rental_uris":{"android":"levelo://app?vid=fbb75c8c-1ce8-422e-bf76-1c502d264fd0","ios":"levelo://app?vid=fbb75c8c-1ce8-422e-bf76-1c502d264fd0"},"vehicle_type_id":"4","last_reported":1724432829,"current_range_meters":0,"station_id":"ce4bh2h2rcd13ifvqdh0","pricing_plan_id":"cebpf4jnsgd1na2vs0mg"},{"bike_id":"253a135f-3bfc-4c0c-a039-0c6cbe830474","system_id":"levelo_inurba_marseille","lat":43.294153,"lon":5.386305,"is_reserved":false,"is_disabled":false,"rental_uris":{"android":"levelo://app?vid=253a135f-3bfc-4c0c-a039-0c6cbe830474","ios":"levelo://app?vid=253a135f-3bfc-4c0c-a039-0c6cbe830474"},"vehicle_type_id":"4","last_reported":1724432829,"current_range_meters":21200,"station_id":"ce4bh2h2rcd13ifvqdh0","pricing_plan_id":"cebpf4jnsgd1na2vs0mg"},{"bike_id":"656cab7f-67ee-49c2-8e1d-0ad4696255ce","system_id":"levelo_inurba_marseille","lat":43.294153,"lon":5.386305,"is_reserved":false,"is_disabled":false,"rental_uris":{"android":"levelo://app?vid=656cab7f-67ee-49c2-8e1d-0ad4696255ce","ios":"levelo://app?vid=656cab7f-67ee-49c2-8e1d-0ad4696255ce"},"vehicle_type_id":"4","last_reported":1724432829,"current_range_meters":26400,"station_id":"ce4bh2h2rcd13ifvqdh0","pricing_plan_id":"cebpf4jnsgd1na2vs0mg"},{"bike_id":"05419b1f-7e1b-4639-9f19-b76446a183cc","system_id":"levelo_inurba_marseille","lat":43.29418,"lon":5.3863,"is_reserved":false,"is_disabled":false,"rental_uris":{"android":"levelo://app?vid=05419b1f-7e1b-4639-9f19-b76446a183cc","ios":"levelo://app?vid=05419b1f-7e1b-4639-9f19-b76446a183cc"},"vehicle_type_id":"4","last_reported":1724432829,"current_range_meters":25200,"station_id":"ce4bh2h2rcd13ifvqdh0","pricing_plan_id":"cebpf4jnsgd1na2vs0mg"},{"bike_id":"a8f3e1b0-9e4e-45c1-928e-8b7cf20acc6b","system_id":"levelo_inurba_marseille","lat":43.29415,"lon":5.38625,"is_reserved":false,"is_disabled":false,"rental_uris":{"android":"levelo://app?vid=a8f3e1b0-9e4e-45c1-928e-8b7cf20acc6b","ios":"levelo://app?vid=a8f3e1b0-9e4e-45c1-928e-8b7cf20acc6b"},"vehicle_type_id":"4","last_reported":1724432829,"current_range_meters":30800,"station_id":"ce4bh2h2rcd13ifvqdh0","pricing_plan_id":"cebpf4jnsgd1na2vs0mg"},{"bike_id":"a0bf53ea-d117-4065-898b-f5392cc611cb","system_id":"levelo_inurba_marseille","lat":43.2894,"lon":5.366409,"is_reserved":false,"is_disabled":false,"rental_uris":{"android":"levelo://app?vid=a0bf53ea-d117-4065-898b-f5392cc611cb","ios":"levelo://app?vid=a0bf53ea-d117-4065-898b-f5392cc611cb"},"vehicle_type_id":"4","last_reported":1724432829,"current_range_meters":2000,"station_id":"","pricing_plan_id":"cebpf4jnsgd1na2vs0mg"},{"bike_id":"6318ce3f-f15b-4580-9fee-27c561a13742","system_id":"levelo_inurba_marseille","lat":43.29169,"lon":5.38083,"is_reserved":false,"is_disabled":false,"rental_uris":{"android":"levelo://app?vid=6318ce3f-f15b-4580-9fee-27c561a13742","ios":"levelo://app?vid=6318ce3f-f15b-4580-9fee-27c561a13742"},"vehicle_type_id":"4","last_reported":1724432829,"current_range_meters":18400,"station_id":"","pricing_plan_id":"cebpf4jnsgd1na2vs0mg"},{"bike_id":"42248f7b-9493-4223-863b-03ab5c93adb3","system_id":"levelo_inurba_marseille","lat":43.28938,"lon":5.36643,"is_reserved":false,"is_disabled":false,"rental_uris":{"android":"levelo://app?vid=42248f7b-9493-4223-863b-03ab5c93adb3","ios":"levelo://app?vid=42248f7b-9493-4223-863b-03ab5c93adb3"},"vehicle_type_id":"4","last_reported":1724432829,"current_range_meters":0,"station_id":"ce4bhap2rcd13ifvqek0","pricing_plan_id":"cebpf4jnsgd1na2vs0mg"},{"bike_id":"d04d6409-dc8e-4a46-8ed2-e43f69a02ba1","system_id":"levelo_inurba_marseille","lat":43.28937,"lon":5.36625,"is_reserved":false,"is_disabled":false,"rental_uris":{"android":"levelo://app?vid=d04d6409-dc8e-4a46-8ed2-e43f69a02ba1","ios":"levelo://app?vid=d04d6409-dc8e-4a46-8ed2-e43f69a02ba1"},"vehicle_type_id":"4","last_reported":1724432829,"current_range_meters":19200,"station_id":"ce4bhap2rcd13ifvqek0","pricing_plan_id":"cebpf4jnsgd1na2vs0mg"},{"bike_id":"0d390742-6ff7-4df3-a391-560d0a621a34","system_id":"levelo_inurba_marseille","lat":43.289468,"lon":5.363719,"is_reserved":false,"is_disabled":false,"rental_uris":{"android":"levelo://app?vid=0d390742-6ff7-4df3-a391-560d0a621a34","ios":"levelo://app?vid=0d390742-6ff7-4df3-a391-560d0a621a34"},"vehicle_type_id":"4","last_reported":1724432829,"current_range_meters":0,"station_id":"ce4bhc92rcd13ifvqetg","pricing_plan_id":"cebpf4jnsgd1na2vs0mg"},{"bike_id":"37de0e93-2eb9-4a37-897a-738684eb4a3f","system_id":"levelo_inurba_marseille","lat":43.289184,"lon":5.366408,"is_reserved":false,"is_disabled":false,"rental_uris":{"android":"levelo://app?vid=37de0e93-2eb9-4a37-897a-738684eb4a3f","ios":"levelo://app?vid=37de0e93-2eb9-4a37-897a-738684eb4a3f"},"vehicle_type_id":"4","last_reported":1724432829,"current_range_meters":1200,"station_id":"ce4bhap2rcd13ifvqek0","pricing_plan_id":"cebpf4jnsgd1na2vs0mg"},{"bike_id":"7cd1ffe8-d0c5-4672-8168-0d8240b12af5","system_id":"levelo_inurba_marseille","lat":43.289184,"lon":5.366408,"is_reserved":false,"is_disabled":false,"rental_uris":{"android":"levelo://app?vid=7cd1ffe8-d0c5-4672-8168-0d8240b12af5","ios":"levelo://app?vid=7cd1ffe8-d0c5-4672-8168-0d8240b12af5"},"vehicle_type_id":"4","last_reported":1724432829,"current_range_meters":24400,"station_id":"ce4bhap2rcd13ifvqek0","pricing_plan_id":"cebpf4jnsgd1na2vs0mg"},{"bike_id":"59d00cee-539e-4951-b048-e1ebe98c997b","system_id":"levelo_inurba_marseille","lat":43.289468,"lon":5.363719,"is_reserved":false,"is_disabled":false,"rental_uris":{"android":"levelo://app?vid=59d00cee-539e-4951-b048-e1ebe98c997b","ios":"levelo://app?vid=59d00cee-539e-4951-b048-e1ebe98c997b"},"vehicle_type_id":"4","last_reported":1724432829,"current_range_meters":22400,"station_id":"ce4bhc92rcd13ifvqetg","pricing_plan_id":"cebpf4jnsgd1na2vs0mg"},{"bike_id":"06220a62-053e-4891-ac16-2a6eee6bbdaf","system_id":"levelo_inurba_marseille","lat":43.28932,"lon":5.36632,"is_reserved":false,"is_disabled":false,"rental_uris":{"android":"levelo://app?vid=06220a62-053e-4891-ac16-2a6eee6bbdaf","ios":"levelo://app?vid=06220a62-053e-4891-ac16-2a6eee6bbdaf"},"vehicle_type_id":"4","last_reported":1724432829,"current_range_meters":2800,"station_id":"ce4bhap2rcd13ifvqek0","pricing_plan_id":"cebpf4jnsgd1na2vs0mg"},{"bike_id":"fcfca196-f572-43a1-bea5-c1f9d96fa502","system_id":"levelo_inurba_marseille","lat":43.289184,"lon":5.366408,"is_reserved":false,"is_disabled":false,"rental_uris":{"android":"levelo://app?vid=fcfca196-f572-43a1-bea5-c1f9d96fa502","ios":"levelo://app?vid=fcfca196-f572-43a1-bea5-c1f9d96fa502"},"vehicle_type_id":"4","last_reported":1724432829,"current_range_meters":0,"station_id":"ce4bhap2rcd13ifvqek0","pricing_plan_id":"cebpf4jnsgd1na2vs0mg"},{"bike_id":"a81c431e-1246-4fc4-a9a9-1842df5c5602","system_id":"levelo_inurba_marseille","lat":43.289313,"lon":5.363918,"is_reserved":false,"is_disabled":false,"rental_uris":{"android":"levelo://app?vid=a81c431e-1246-4fc4-a9a9-1842df5c5602","ios":"levelo://app?vid=a81c431e-1246-4fc4-a9a9-1842df5c5602"},"vehicle_type_id":"4","last_reported":1724432829,"current_range_meters":0,"station_id":"ce4bhc92rcd13ifvqetg","pricing_plan_id":"cebpf4jnsgd1na2vs0mg"},{"bike_id":"f88e2ac6-163d-4952-a4f0-17e426f53671","system_id":"levelo_inurba_marseille","lat":43.304274,"lon":5.397513,"is_reserved":false,"is_disabled":false,"rental_uris":{"android":"levelo://app?vid=f88e2ac6-163d-4952-a4f0-17e426f53671","ios":"levelo://app?vid=f88e2ac6-163d-4952-a4f0-17e426f53671"},"vehicle_type_id":"4","last_reported":1724432829,"current_range_meters":27600,"station_id":"ce4bh092rcd13ifvqd20","pricing_plan_id":"cebpf4jnsgd1na2vs0mg"},{"bike_id":"9acca7a0-8339-4aec-bf55-05a440bce0c1","system_id":"levelo_inurba_marseille","lat":43.304296,"lon":5.397513,"is_reserved":false,"is_disabled":false,"rental_uris":{"android":"levelo://app?vid=9acca7a0-8339-4aec-bf55-05a440bce0c1","ios":"levelo://app?vid=9acca7a0-8339-4aec-bf55-05a440bce0c1"},"vehicle_type_id":"4","last_reported":1724432829,"current_range_meters":14400,"station_id":"ce4bh092rcd13ifvqd20","pricing_plan_id":"cebpf4jnsgd1na2vs0mg"},{"bike_id":"7963d2d4-09e1-4fe4-bbab-b154359d1900","system_id":"levelo_inurba_marseille","lat":43.304296,"lon":5.397513,"is_reserved":false,"is_disabled":false,"rental_uris":{"android":"levelo://app?vid=7963d2d4-09e1-4fe4-bbab-b154359d1900","ios":"levelo://app?vid=7963d2d4-09e1-4fe4-bbab-b154359d1900"},"vehicle_type_id":"4","last_reported":1724432829,"current_range_meters":1600,"station_id":"ce4bh092rcd13ifvqd20","pricing_plan_id":"cebpf4jnsgd1na2vs0mg"},{"bike_id":"8fb3dfea-0901-4093-8bcf-1919c6292e2d","system_id":"levelo_inurba_marseille","lat":43.304296,"lon":5.397513,"is_reserved":false,"is_disabled":false,"rental_uris":{"android":"levelo://app?vid=8fb3dfea-0901-4093-8bcf-1919c6292e2d","ios":"levelo://app?vid=8fb3dfea-0901-4093-8bcf-1919c6292e2d"},"vehicle_type_id":"4","last_reported":1724432829,"current_range_meters":4000,"station_id":"ce4bh092rcd13ifvqd20","pricing_plan_id":"cebpf4jnsgd1na2vs0mg"},{"bike_id":"1535761d-1069-4071-be46-eccbb29bd493","system_id":"levelo_inurba_marseille","lat":43.29262,"lon":5.38431,"is_reserved":false,"is_disabled":false,"rental_uris":{"android":"levelo://app?vid=1535761d-1069-4071-be46-eccbb29bd493","ios":"levelo://app?vid=1535761d-1069-4071-be46-eccbb29bd493"},"vehicle_type_id":"4","last_reported":1724432829,"current_range_meters":0,"station_id":"ce4bh692rcd13ifvqea0","pricing_plan_id":"cebpf4jnsgd1na2vs0mg"},{"bike_id":"08e1327d-3570-4454-8fb5-3a57ef22939f","system_id":"levelo_inurba_marseille","lat":43.292669,"lon":5.384428,"is_reserved":false,"is_disabled":false,"rental_uris":{"android":"levelo://app?vid=08e1327d-3570-4454-8fb5-3a57ef22939f","ios":"levelo://app?vid=08e1327d-3570-4454-8fb5-3a57ef22939f"},"vehicle_type_id":"4","last_reported":1724432829,"current_range_meters":8000,"station_id":"","pricing_plan_id":"cebpf4jnsgd1na2vs0mg"},{"bike_id":"a931a2ab-8657-4c37-ac2f-3953b2bb6e11","system_id":"levelo_inurba_marseille","lat":43.304296,"lon":5.397513,"is_reserved":false,"is_disabled":false,"rental_uris":{"android":"levelo://app?vid=a931a2ab-8657-4c37-ac2f-3953b2bb6e11","ios":"levelo://app?vid=a931a2ab-8657-4c37-ac2f-3953b2bb6e11"},"vehicle_type_id":"4","last_reported":1724432829,"current_range_meters":2400,"station_id":"ce4bh092rcd13ifvqd20","pricing_plan_id":"cebpf4jnsgd1na2vs0mg"},{"bike_id":"cb6d0558-9ec1-4113-81dc-7979f228ba0e","system_id":"levelo_inurba_marseille","lat":43.292642,"lon":5.384254,"is_reserved":false,"is_disabled":false,"rental_uris":{"android":"levelo://app?vid=cb6d0558-9ec1-4113-81dc-7979f228ba0e","ios":"levelo://app?vid=cb6d0558-9ec1-4113-81dc-7979f228ba0e"},"vehicle_type_id":"4","last_reported":1724432829,"current_range_meters":11200,"station_id":"ce4bh692rcd13ifvqea0","pricing_plan_id":"cebpf4jnsgd1na2vs0mg"},{"bike_id":"ad4be8ae-5468-4d3c-a0a5-e7186407859b","system_id":"levelo_inurba_marseille","lat":43.292644,"lon":5.384257,"is_reserved":false,"is_disabled":false,"rental_uris":{"android":"levelo://app?vid=ad4be8ae-5468-4d3c-a0a5-e7186407859b","ios":"levelo://app?vid=ad4be8ae-5468-4d3c-a0a5-e7186407859b"},"vehicle_type_id":"4","last_reported":1724432829,"current_range_meters":0,"station_id":"ce4bh692rcd13ifvqea0","pricing_plan_id":"cebpf4jnsgd1na2vs0mg"},{"bike_id":"b3b5c19f-b892-449f-8f43-9ae62ad6a044","system_id":"levelo_inurba_marseille","lat":43.30421,"lon":5.39755,"is_reserved":false,"is_disabled":false,"rental_uris":{"android":"levelo://app?vid=b3b5c19f-b892-449f-8f43-9ae62ad6a044","ios":"levelo://app?vid=b3b5c19f-b892-449f-8f43-9ae62ad6a044"},"vehicle_type_id":"4","last_reported":1724432829,"current_range_meters":1600,"station_id":"ce4bh092rcd13ifvqd20","pricing_plan_id":"cebpf4jnsgd1na2vs0mg"},{"bike_id":"380954cb-c495-400b-a97f-a5d28b1c133e","system_id":"levelo_inurba_marseille","lat":43.29009,"lon":5.35618,"is_reserved":false,"is_disabled":false,"rental_uris":{"android":"levelo://app?vid=380954cb-c495-400b-a97f-a5d28b1c133e","ios":"levelo://app?vid=380954cb-c495-400b-a97f-a5d28b1c133e"},"vehicle_type_id":"4","last_reported":1724432829,"current_range_meters":9600,"station_id":"ce4bhb92rcd13ifvqen0","pricing_plan_id":"cebpf4jnsgd1na2vs0mg"},{"bike_id":"7440a397-6f3f-44a8-bd69-0e76e21bd4d2","system_id":"levelo_inurba_marseille","lat":43.290103,"lon":5.356114,"is_reserved":false,"is_disabled":false,"rental_uris":{"android":"levelo://app?vid=7440a397-6f3f-44a8-bd69-0e76e21bd4d2","ios":"levelo://app?vid=7440a397-6f3f-44a8-bd69-0e76e21bd4d2"},"vehicle_type_id":"4","last_reported":1724432829,"current_range_meters":9600,"station_id":"ce4bhb92rcd13ifvqen0","pricing_plan_id":"cebpf4jnsgd1na2vs0mg"},{"bike_id":"94c8019c-2f1d-4912-9de7-a84bd8c87712","system_id":"levelo_inurba_marseille","lat":43.290104,"lon":5.356111,"is_reserved":false,"is_disabled":false,"rental_uris":{"android":"levelo://app?vid=94c8019c-2f1d-4912-9de7-a84bd8c87712","ios":"levelo://app?vid=94c8019c-2f1d-4912-9de7-a84bd8c87712"},"vehicle_type_id":"4","last_reported":1724432829,"current_range_meters":31200,"station_id":"ce4bhb92rcd13ifvqen0","pricing_plan_id":"cebpf4jnsgd1na2vs0mg"},{"bike_id":"29535196-9336-4c11-9023-11642da1a2d4","system_id":"levelo_inurba_marseille","lat":43.290103,"lon":5.356114,"is_reserved":false,"is_disabled":false,"rental_uris":{"android":"levelo://app?vid=29535196-9336-4c11-9023-11642da1a2d4","ios":"levelo://app?vid=29535196-9336-4c11-9023-11642da1a2d4"},"vehicle_type_id":"4","last_reported":1724432829,"current_range_meters":28400,"station_id":"ce4bhb92rcd13ifvqen0","pricing_plan_id":"cebpf4jnsgd1na2vs0mg"},{"bike_id":"a8474594-c6a6-45dc-a9d6-46caaf0de296","system_id":"levelo_inurba_marseille","lat":43.290104,"lon":5.356111,"is_reserved":false,"is_disabled":false,"rental_uris":{"android":"levelo://app?vid=a8474594-c6a6-45dc-a9d6-46caaf0de296","ios":"levelo://app?vid=a8474594-c6a6-45dc-a9d6-46caaf0de296"},"vehicle_type_id":"4","last_reported":1724432829,"current_range_meters":1200,"station_id":"ce4bhb92rcd13ifvqen0","pricing_plan_id":"cebpf4jnsgd1na2vs0mg"},{"bike_id":"4ffe0cd0-7d47-4edf-aa14-c3ea341b1ca9","system_id":"levelo_inurba_marseille","lat":43.295169,"lon":5.390426,"is_reserved":false,"is_disabled":false,"rental_uris":{"android":"levelo://app?vid=4ffe0cd0-7d47-4edf-aa14-c3ea341b1ca9","ios":"levelo://app?vid=4ffe0cd0-7d47-4edf-aa14-c3ea341b1ca9"},"vehicle_type_id":"4","last_reported":1724432829,"current_range_meters":23600,"station_id":"ce4bh3p2rcd13ifvqdp0","pricing_plan_id":"cebpf4jnsgd1na2vs0mg"},{"bike_id":"163a5628-7698-4266-88dc-b680f0b353d6","system_id":"levelo_inurba_marseille","lat":43.33024,"lon":5.3903,"is_reserved":false,"is_disabled":false,"rental_uris":{"android":"levelo://app?vid=163a5628-7698-4266-88dc-b680f0b353d6","ios":"levelo://app?vid=163a5628-7698-4266-88dc-b680f0b353d6"},"vehicle_type_id":"4","last_reported":1724432829,"current_range_meters":4800,"station_id":"ce4bhr92rcd13ifvqhrg","pricing_plan_id":"cebpf4jnsgd1na2vs0mg"},{"bike_id":"29686362-dbef-496c-9ff8-92e5febc8f3c","system_id":"levelo_inurba_marseille","lat":43.289741,"lon":5.378306,"is_reserved":false,"is_disabled":false,"rental_uris":{"android":"levelo://app?vid=29686362-dbef-496c-9ff8-92e5febc8f3c","ios":"levelo://app?vid=29686362-dbef-496c-9ff8-92e5febc8f3c"},"vehicle_type_id":"4","last_reported":1724432829,"current_range_meters":5600,"station_id":"ce4bh9p2rcd13ifvqed0","pricing_plan_id":"cebpf4jnsgd1na2vs0mg"},{"bike_id":"047486e7-f863-4515-9ef9-1ec1226da197","system_id":"levelo_inurba_marseille","lat":43.33021,"lon":5.39035,"is_reserved":false,"is_disabled":false,"rental_uris":{"android":"levelo://app?vid=047486e7-f863-4515-9ef9-1ec1226da197","ios":"levelo://app?vid=047486e7-f863-4515-9ef9-1ec1226da197"},"vehicle_type_id":"4","last_reported":1724432829,"current_range_meters":4000,"station_id":"ce4bhr92rcd13ifvqhrg","pricing_plan_id":"cebpf4jnsgd1na2vs0mg"},{"bike_id":"ad22c068-26c0-496a-99fc-fb7046354588","system_id":"levelo_inurba_marseille","lat":43.289741,"lon":5.378306,"is_reserved":false,"is_disabled":false,"rental_uris":{"android":"levelo://app?vid=ad22c068-26c0-496a-99fc-fb7046354588","ios":"levelo://app?vid=ad22c068-26c0-496a-99fc-fb7046354588"},"vehicle_type_id":"4","last_reported":1724432829,"current_range_meters":3600,"station_id":"ce4bh9p2rcd13ifvqed0","pricing_plan_id":"cebpf4jnsgd1na2vs0mg"},{"bike_id":"266aa2b6-2f72-4e0b-ac81-a4acd1c19428","system_id":"levelo_inurba_marseille","lat":43.289741,"lon":5.378306,"is_reserved":false,"is_disabled":false,"rental_uris":{"android":"levelo://app?vid=266aa2b6-2f72-4e0b-ac81-a4acd1c19428","ios":"levelo://app?vid=266aa2b6-2f72-4e0b-ac81-a4acd1c19428"},"vehicle_type_id":"4","last_reported":1724432829,"current_range_meters":7600,"station_id":"ce4bh9p2rcd13ifvqed0","pricing_plan_id":"cebpf4jnsgd1na2vs0mg"},{"bike_id":"d0205d13-52ae-4dad-ad88-f7cd247d6142","system_id":"levelo_inurba_marseille","lat":43.3302,"lon":5.39041,"is_reserved":false,"is_disabled":false,"rental_uris":{"android":"levelo://app?vid=d0205d13-52ae-4dad-ad88-f7cd247d6142","ios":"levelo://app?vid=d0205d13-52ae-4dad-ad88-f7cd247d6142"},"vehicle_type_id":"4","last_reported":1724432829,"current_range_meters":3200,"station_id":"ce4bhr92rcd13ifvqhrg","pricing_plan_id":"cebpf4jnsgd1na2vs0mg"},{"bike_id":"fe75f38d-74b4-44cb-93d4-c81bc98c02fb","system_id":"levelo_inurba_marseille","lat":43.295169,"lon":5.390426,"is_reserved":false,"is_disabled":false,"rental_uris":{"android":"levelo://app?vid=fe75f38d-74b4-44cb-93d4-c81bc98c02fb","ios":"levelo://app?vid=fe75f38d-74b4-44cb-93d4-c81bc98c02fb"},"vehicle_type_id":"4","last_reported":1724432829,"current_range_meters":4800,"station_id":"ce4bh3p2rcd13ifvqdp0","pricing_plan_id":"cebpf4jnsgd1na2vs0mg"},{"bike_id":"5f322704-a9ed-46d7-81b9-0d114e0aad9b","system_id":"levelo_inurba_marseille","lat":43.330442,"lon":5.389148,"is_reserved":false,"is_disabled":false,"rental_uris":{"android":"levelo://app?vid=5f322704-a9ed-46d7-81b9-0d114e0aad9b","ios":"levelo://app?vid=5f322704-a9ed-46d7-81b9-0d114e0aad9b"},"vehicle_type_id":"4","last_reported":1724432829,"current_range_meters":2400,"station_id":"ce4bhr92rcd13ifvqhrg","pricing_plan_id":"cebpf4jnsgd1na2vs0mg"},{"bike_id":"dd729602-e498-4ef5-9ad3-494726ee8927","system_id":"levelo_inurba_marseille","lat":43.330442,"lon":5.389148,"is_reserved":false,"is_disabled":false,"rental_uris":{"android":"levelo://app?vid=dd729602-e498-4ef5-9ad3-494726ee8927","ios":"levelo://app?vid=dd729602-e498-4ef5-9ad3-494726ee8927"},"vehicle_type_id":"4","last_reported":1724432829,"current_range_meters":7600,"station_id":"ce4bhr92rcd13ifvqhrg","pricing_plan_id":"cebpf4jnsgd1na2vs0mg"},{"bike_id":"16599b01-9c3e-40b7-8df5-1fde10e51612","system_id":"levelo_inurba_marseille","lat":43.295169,"lon":5.390426,"is_reserved":false,"is_disabled":false,"rental_uris":{"android":"levelo://app?vid=16599b01-9c3e-40b7-8df5-1fde10e51612","ios":"levelo://app?vid=16599b01-9c3e-40b7-8df5-1fde10e51612"},"vehicle_type_id":"4","last_reported":1724432829,"current_range_meters":8400,"station_id":"ce4bh3p2rcd13ifvqdp0","pricing_plan_id":"cebpf4jnsgd1na2vs0mg"},{"bike_id":"78f36ff1-07f8-4276-8bb1-c5e87c613009","system_id":"levelo_inurba_marseille","lat":43.330442,"lon":5.389148,"is_reserved":false,"is_disabled":false,"rental_uris":{"android":"levelo://app?vid=78f36ff1-07f8-4276-8bb1-c5e87c613009","ios":"levelo://app?vid=78f36ff1-07f8-4276-8bb1-c5e87c613009"},"vehicle_type_id":"4","last_reported":1724432829,"current_range_meters":9600,"station_id":"ce4bhr92rcd13ifvqhrg","pricing_plan_id":"cebpf4jnsgd1na2vs0mg"},{"bike_id":"67a67ad9-ab46-492c-a07a-a0a37a97e57d","system_id":"levelo_inurba_marseille","lat":43.330442,"lon":5.389148,"is_reserved":false,"is_disabled":false,"rental_uris":{"android":"levelo://app?vid=67a67ad9-ab46-492c-a07a-a0a37a97e57d","ios":"levelo://app?vid=67a67ad9-ab46-492c-a07a-a0a37a97e57d"},"vehicle_type_id":"4","last_reported":1724432829,"current_range_meters":20800,"station_id":"ce4bhr92rcd13ifvqhrg","pricing_plan_id":"cebpf4jnsgd1na2vs0mg"},{"bike_id":"caa5b81f-e13e-411a-b6dc-6e3f70ee5764","system_id":"levelo_inurba_marseille","lat":43.330442,"lon":5.389148,"is_reserved":false,"is_disabled":false,"rental_uris":{"android":"levelo://app?vid=caa5b81f-e13e-411a-b6dc-6e3f70ee5764","ios":"levelo://app?vid=caa5b81f-e13e-411a-b6dc-6e3f70ee5764"},"vehicle_type_id":"4","last_reported":1724432829,"current_range_meters":28800,"station_id":"ce4bhr92rcd13ifvqhrg","pricing_plan_id":"cebpf4jnsgd1na2vs0mg"},{"bike_id":"3efa0ecd-3b3f-4da0-b0cc-0be15648bf3e","system_id":"levelo_inurba_marseille","lat":43.330442,"lon":5.389148,"is_reserved":false,"is_disabled":false,"rental_uris":{"android":"levelo://app?vid=3efa0ecd-3b3f-4da0-b0cc-0be15648bf3e","ios":"levelo://app?vid=3efa0ecd-3b3f-4da0-b0cc-0be15648bf3e"},"vehicle_type_id":"4","last_reported":1724432829,"current_range_meters":23600,"station_id":"ce4bhr92rcd13ifvqhrg","pricing_plan_id":"cebpf4jnsgd1na2vs0mg"},{"bike_id":"39330e51-0cbc-458f-b565-4f3dc7fed4e3","system_id":"levelo_inurba_marseille","lat":43.330442,"lon":5.389148,"is_reserved":false,"is_disabled":false,"rental_uris":{"android":"levelo://app?vid=39330e51-0cbc-458f-b565-4f3dc7fed4e3","ios":"levelo://app?vid=39330e51-0cbc-458f-b565-4f3dc7fed4e3"},"vehicle_type_id":"4","last_reported":1724432829,"current_range_meters":6000,"station_id":"ce4bhr92rcd13ifvqhrg","pricing_plan_id":"cebpf4jnsgd1na2vs0mg"},{"bike_id":"c505f7dd-1dbd-48f4-9812-c530d3de1b77","system_id":"levelo_inurba_marseille","lat":43.295169,"lon":5.390426,"is_reserved":false,"is_disabled":false,"rental_uris":{"android":"levelo://app?vid=c505f7dd-1dbd-48f4-9812-c530d3de1b77","ios":"levelo://app?vid=c505f7dd-1dbd-48f4-9812-c530d3de1b77"},"vehicle_type_id":"4","last_reported":1724432829,"current_range_meters":8400,"station_id":"ce4bh3p2rcd13ifvqdp0","pricing_plan_id":"cebpf4jnsgd1na2vs0mg"},{"bike_id":"54d3c805-6b99-4f7e-b267-c5df8b8fb1b0","system_id":"levelo_inurba_marseille","lat":43.295169,"lon":5.390426,"is_reserved":false,"is_disabled":false,"rental_uris":{"android":"levelo://app?vid=54d3c805-6b99-4f7e-b267-c5df8b8fb1b0","ios":"levelo://app?vid=54d3c805-6b99-4f7e-b267-c5df8b8fb1b0"},"vehicle_type_id":"4","last_reported":1724432829,"current_range_meters":14800,"station_id":"ce4bh3p2rcd13ifvqdp0","pricing_plan_id":"cebpf4jnsgd1na2vs0mg"},{"bike_id":"ebb4f092-d8fd-4e30-8f05-5ed8ff878852","system_id":"levelo_inurba_marseille","lat":43.295169,"lon":5.390426,"is_reserved":false,"is_disabled":false,"rental_uris":{"android":"levelo://app?vid=ebb4f092-d8fd-4e30-8f05-5ed8ff878852","ios":"levelo://app?vid=ebb4f092-d8fd-4e30-8f05-5ed8ff878852"},"vehicle_type_id":"4","last_reported":1724432829,"current_range_meters":0,"station_id":"ce4bh3p2rcd13ifvqdp0","pricing_plan_id":"cebpf4jnsgd1na2vs0mg"},{"bike_id":"9a10b4bb-3201-4198-91fe-c742de8bb5f0","system_id":"levelo_inurba_marseille","lat":43.295169,"lon":5.390426,"is_reserved":false,"is_disabled":false,"rental_uris":{"android":"levelo://app?vid=9a10b4bb-3201-4198-91fe-c742de8bb5f0","ios":"levelo://app?vid=9a10b4bb-3201-4198-91fe-c742de8bb5f0"},"vehicle_type_id":"4","last_reported":1724432829,"current_range_meters":0,"station_id":"ce4bh3p2rcd13ifvqdp0","pricing_plan_id":"cebpf4jnsgd1na2vs0mg"},{"bike_id":"fcae240a-6c8d-4893-a080-3c7ff6311dab","system_id":"levelo_inurba_marseille","lat":43.28854,"lon":5.35856,"is_reserved":false,"is_disabled":false,"rental_uris":{"android":"levelo://app?vid=fcae240a-6c8d-4893-a080-3c7ff6311dab","ios":"levelo://app?vid=fcae240a-6c8d-4893-a080-3c7ff6311dab"},"vehicle_type_id":"4","last_reported":1724432829,"current_range_meters":15600,"station_id":"ce4bhb12rcd13ifvqem0","pricing_plan_id":"cebpf4jnsgd1na2vs0mg"},{"bike_id":"c05bd619-c686-49bc-97a7-b21de06ded95","system_id":"levelo_inurba_marseille","lat":43.28856,"lon":5.358371,"is_reserved":false,"is_disabled":false,"rental_uris":{"android":"levelo://app?vid=c05bd619-c686-49bc-97a7-b21de06ded95","ios":"levelo://app?vid=c05bd619-c686-49bc-97a7-b21de06ded95"},"vehicle_type_id":"4","last_reported":1724432829,"current_range_meters":27600,"station_id":"ce4bhb12rcd13ifvqem0","pricing_plan_id":"cebpf4jnsgd1na2vs0mg"},{"bike_id":"29b5c6ef-b3b7-49ca-9cc7-04756cd55dd5","system_id":"levelo_inurba_marseille","lat":43.28852,"lon":5.35858,"is_reserved":false,"is_disabled":false,"rental_uris":{"android":"levelo://app?vid=29b5c6ef-b3b7-49ca-9cc7-04756cd55dd5","ios":"levelo://app?vid=29b5c6ef-b3b7-49ca-9cc7-04756cd55dd5"},"vehicle_type_id":"4","last_reported":1724432829,"current_range_meters":11200,"station_id":"ce4bhb12rcd13ifvqem0","pricing_plan_id":"cebpf4jnsgd1na2vs0mg"},{"bike_id":"dae28ddf-ea5f-495b-bd42-02159760c28c","system_id":"levelo_inurba_marseille","lat":43.2885,"lon":5.358663,"is_reserved":false,"is_disabled":false,"rental_uris":{"android":"levelo://app?vid=dae28ddf-ea5f-495b-bd42-02159760c28c","ios":"levelo://app?vid=dae28ddf-ea5f-495b-bd42-02159760c28c"},"vehicle_type_id":"4","last_reported":1724432829,"current_range_meters":28400,"station_id":"ce4bhb12rcd13ifvqem0","pricing_plan_id":"cebpf4jnsgd1na2vs0mg"},{"bike_id":"2a58f2d1-6b4f-4288-9eda-8124e1ce65d9","system_id":"levelo_inurba_marseille","lat":43.28856,"lon":5.358371,"is_reserved":false,"is_disabled":false,"rental_uris":{"android":"levelo://app?vid=2a58f2d1-6b4f-4288-9eda-8124e1ce65d9","ios":"levelo://app?vid=2a58f2d1-6b4f-4288-9eda-8124e1ce65d9"},"vehicle_type_id":"4","last_reported":1724432829,"current_range_meters":4800,"station_id":"ce4bhb12rcd13ifvqem0","pricing_plan_id":"cebpf4jnsgd1na2vs0mg"},{"bike_id":"aa0aa1fd-3575-4e3b-be0a-e05e0de673ec","system_id":"levelo_inurba_marseille","lat":43.28851,"lon":5.35846,"is_reserved":false,"is_disabled":false,"rental_uris":{"android":"levelo://app?vid=aa0aa1fd-3575-4e3b-be0a-e05e0de673ec","ios":"levelo://app?vid=aa0aa1fd-3575-4e3b-be0a-e05e0de673ec"},"vehicle_type_id":"4","last_reported":1724432829,"current_range_meters":6400,"station_id":"ce4bhb12rcd13ifvqem0","pricing_plan_id":"cebpf4jnsgd1na2vs0mg"},{"bike_id":"a5dc86d1-6db6-4a18-9a26-19f23cd073a1","system_id":"levelo_inurba_marseille","lat":43.288434,"lon":5.358542,"is_reserved":false,"is_disabled":false,"rental_uris":{"android":"levelo://app?vid=a5dc86d1-6db6-4a18-9a26-19f23cd073a1","ios":"levelo://app?vid=a5dc86d1-6db6-4a18-9a26-19f23cd073a1"},"vehicle_type_id":"4","last_reported":1724432829,"current_range_meters":2400,"station_id":"ce4bhb12rcd13ifvqem0","pricing_plan_id":"cebpf4jnsgd1na2vs0mg"},{"bike_id":"63702aef-f353-48a1-8a72-f0f066426197","system_id":"levelo_inurba_marseille","lat":43.28856,"lon":5.358371,"is_reserved":false,"is_disabled":false,"rental_uris":{"android":"levelo://app?vid=63702aef-f353-48a1-8a72-f0f066426197","ios":"levelo://app?vid=63702aef-f353-48a1-8a72-f0f066426197"},"vehicle_type_id":"4","last_reported":1724432829,"current_range_meters":6400,"station_id":"ce4bhb12rcd13ifvqem0","pricing_plan_id":"cebpf4jnsgd1na2vs0mg"},{"bike_id":"a5de2053-f286-4bb0-b289-d30b4329041c","system_id":"levelo_inurba_marseille","lat":43.312609,"lon":5.401662,"is_reserved":false,"is_disabled":false,"rental_uris":{"android":"levelo://app?vid=a5de2053-f286-4bb0-b289-d30b4329041c","ios":"levelo://app?vid=a5de2053-f286-4bb0-b289-d30b4329041c"},"vehicle_type_id":"4","last_reported":1724432829,"current_range_meters":29200,"station_id":"ce4bh092rcd13ifvqd30","pricing_plan_id":"cebpf4jnsgd1na2vs0mg"},{"bike_id":"cdc35d34-57e9-43e1-ac36-c0218dd5a9e1","system_id":"levelo_inurba_marseille","lat":43.33738,"lon":5.37465,"is_reserved":false,"is_disabled":false,"rental_uris":{"android":"levelo://app?vid=cdc35d34-57e9-43e1-ac36-c0218dd5a9e1","ios":"levelo://app?vid=cdc35d34-57e9-43e1-ac36-c0218dd5a9e1"},"vehicle_type_id":"4","last_reported":1724432829,"current_range_meters":23600,"station_id":"","pricing_plan_id":"cebpf4jnsgd1na2vs0mg"},{"bike_id":"c0895c9c-737d-4071-b33d-1448934bd884","system_id":"levelo_inurba_marseille","lat":43.312609,"lon":5.401662,"is_reserved":false,"is_disabled":false,"rental_uris":{"android":"levelo://app?vid=c0895c9c-737d-4071-b33d-1448934bd884","ios":"levelo://app?vid=c0895c9c-737d-4071-b33d-1448934bd884"},"vehicle_type_id":"4","last_reported":1724432829,"current_range_meters":20800,"station_id":"ce4bh092rcd13ifvqd30","pricing_plan_id":"cebpf4jnsgd1na2vs0mg"},{"bike_id":"660e9432-0344-4cb5-9933-430cb837fd0c","system_id":"levelo_inurba_marseille","lat":43.337448,"lon":5.374616,"is_reserved":false,"is_disabled":false,"rental_uris":{"android":"levelo://app?vid=660e9432-0344-4cb5-9933-430cb837fd0c","ios":"levelo://app?vid=660e9432-0344-4cb5-9933-430cb837fd0c"},"vehicle_type_id":"4","last_reported":1724432829,"current_range_meters":20800,"station_id":"","pricing_plan_id":"cebpf4jnsgd1na2vs0mg"},{"bike_id":"bbc718b4-d60b-46a4-9125-3a6a70faaff5","system_id":"levelo_inurba_marseille","lat":43.33756,"lon":5.37452,"is_reserved":false,"is_disabled":false,"rental_uris":{"android":"levelo://app?vid=bbc718b4-d60b-46a4-9125-3a6a70faaff5","ios":"levelo://app?vid=bbc718b4-d60b-46a4-9125-3a6a70faaff5"},"vehicle_type_id":"4","last_reported":1724432829,"current_range_meters":25600,"station_id":"","pricing_plan_id":"cebpf4jnsgd1na2vs0mg"},{"bike_id":"29ea26cc-0680-4164-abf4-870e2d146ccf","system_id":"levelo_inurba_marseille","lat":43.337558,"lon":5.374577,"is_reserved":false,"is_disabled":false,"rental_uris":{"android":"levelo://app?vid=29ea26cc-0680-4164-abf4-870e2d146ccf","ios":"levelo://app?vid=29ea26cc-0680-4164-abf4-870e2d146ccf"},"vehicle_type_id":"4","last_reported":1724432829,"current_range_meters":20400,"station_id":"","pricing_plan_id":"cebpf4jnsgd1na2vs0mg"},{"bike_id":"4e16afe9-03e1-456e-a501-6cebd7c11192","system_id":"levelo_inurba_marseille","lat":43.33764,"lon":5.3743,"is_reserved":false,"is_disabled":false,"rental_uris":{"android":"levelo://app?vid=4e16afe9-03e1-456e-a501-6cebd7c11192","ios":"levelo://app?vid=4e16afe9-03e1-456e-a501-6cebd7c11192"},"vehicle_type_id":"4","last_reported":1724432829,"current_range_meters":25200,"station_id":"","pricing_plan_id":"cebpf4jnsgd1na2vs0mg"},{"bike_id":"918cb1a9-6210-4e52-bb66-383836a14f2f","system_id":"levelo_inurba_marseille","lat":43.337621,"lon":5.374623,"is_reserved":false,"is_disabled":false,"rental_uris":{"android":"levelo://app?vid=918cb1a9-6210-4e52-bb66-383836a14f2f","ios":"levelo://app?vid=918cb1a9-6210-4e52-bb66-383836a14f2f"},"vehicle_type_id":"4","last_reported":1724432829,"current_range_meters":3200,"station_id":"","pricing_plan_id":"cebpf4jnsgd1na2vs0mg"},