{"last_updated":1700679953,"ttl":30,"version":"2.2","data":{"bikes":[{"bike_id":"eeef4dbc-7602-4f26-b2c1-c3771c9b5dae","system_id":"levelo_inurba_marseille","lat":43.31159,"lon":5.36883,"is_reserved":false,"is_disabled":false,"rental_uris":{"android":"levelo://app?vid=eeef4dbc-7602-4f26-b2c1-c3771c9b5dae","ios":"levelo://app?vid=eeef4dbc-7602-4f26-b2c1-c3771c9b5dae"},"vehicle_type_id":"4","last_reported":1700679953,"current_range_meters":0,"station_id":"","pricing_plan_id":"free"},{"bike_id":"cb163ece-198e-4859-9bec-5ebd12fc783a","system_id":"levelo_inurba_marseille","lat":43.309076,"lon":5.368465,"is_reserved":false,"is_disabled":false,"rental_uris":{"android":"levelo://app?vid=cb163ece-198e-4859-9bec-5ebd12fc783a","ios":"levelo://app?vid=cb163ece-198e-4859-9bec-5ebd12fc783a"},"vehicle_type_id":"4","last_reported":1700679953,"current_range_meters":15200,"station_id":"ce4bgn92rcd13ifvqbvg","pricing_plan_id":"free"},{"bike_id":"7c876341-9ad9-4f41-b9d4-8ea1a41968e8","system_id":"levelo_inurba_marseille","lat":43.314811,"lon":5.373103,"is_reserved":false,"is_disabled":false,"rental_uris":{"android":"levelo://app?vid=7c876341-9ad9-4f41-b9d4-8ea1a41968e8","ios":"levelo://app?vid=7c876341-9ad9-4f41-b9d4-8ea1a41968e8"},"vehicle_type_id":"4","last_reported":1700679953,"current_range_meters":3600,"station_id":"ce4bgt12rcd13ifvqcd0","pricing_plan_id":"free"},{"bike_id":"2bc311dc-da0b-403e-8cae-84f8764bc67c","system_id":"levelo_inurba_marseille","lat":43.30679,"lon":5.3679,"is_reserved":false,"is_disabled":false,"rental_uris":{"android":"levelo://app?vid=2bc311dc-da0b-403e-8cae-84f8764bc67c","ios":"levelo://app?vid=2bc311dc-da0b-403e-8cae-84f8764bc67c"},"vehicle_type_id":"4","last_reported":1700679953,"current_range_meters":0,"station_id":"","pricing_plan_id":"free"},{"bike_id":"95583d67-b9fc-4ff1-93fd-5e2fbf3996b7","system_id":"levelo_inurba_marseille","lat":43.31961,"lon":5.3706,"is_reserved":false,"is_disabled":false,"rental_uris":{"android":"levelo://app?vid=95583d67-b9fc-4ff1-93fd-5e2fbf3996b7","ios":"levelo://app?vid=95583d67-b9fc-4ff1-93fd-5e2fbf3996b7"},"vehicle_type_id":"4","last_reported":1700679953,"current_range_meters":0,"station_id":"","pricing_plan_id":"free"},{"bike_id":"853bf5bc-665e-47e1-8f3c-f3019f1b71f8","system_id":"levelo_inurba_marseille","lat":43.305706,"lon":5.365654,"is_reserved":false,"is_disabled":false,"rental_uris":{"android":"levelo://app?vid=853bf5bc-665e-47e1-8f3c-f3019f1b71f8","ios":"levelo://app?vid=853bf5bc-665e-47e1-8f3c-f3019f1b71f8"},"vehicle_type_id":"4","last_reported":1700679953,"current_range_meters":12000,"station_id":"ce4bgs12rcd13ifvqcag","pricing_plan_id":"free"},{"bike_id":"647dedfb-b5c8-49f4-96f4-d1564326d5e0","system_id":"levelo_inurba_marseille","lat":43.305989,"lon":5.37225,"is_reserved":false,"is_disabled":false,"rental_uris":{"android":"levelo://app?vid=647dedfb-b5c8-49f4-96f4-d1564326d5e0","ios":"levelo://app?vid=647dedfb-b5c8-49f4-96f4-d1564326d5e0"},"vehicle_type_id":"4","last_reported":1700679953,"current_range_meters":12800,"station_id":"ce4bgqh2rcd13ifvqc4g","pricing_plan_id":"free"},{"bike_id":"4c1e0277-ce6e-4d4c-a4b0-c0645b9210da","system_id":"levelo_inurba_marseille","lat":43.311197,"lon":5.377743,"is_reserved":false,"is_disabled":false,"rental_uris":{"android":"levelo://app?vid=4c1e0277-ce6e-4d4c-a4b0-c0645b9210da","ios":"levelo://app?vid=4c1e0277-ce6e-4d4c-a4b0-c0645b9210da"},"vehicle_type_id":"4","last_reported":1700679953,"current_range_meters":0,"station_id":"ce4bgt92rcd13ifvqcg0","pricing_plan_id":"free"},{"bike_id":"e09d0bd4-96ac-44ba-96a7-8298f55b5927","system_id":"levelo_inurba_marseille","lat":43.31078,"lon":5.37778,"is_reserved":false,"is_disabled":false,"rental_uris":{"android":"levelo://app?vid=e09d0bd4-96ac-44ba-96a7-8298f55b5927","ios":"levelo://app?vid=e09d0bd4-96ac-44ba-96a7-8298f55b5927"},"vehicle_type_id":"4","last_reported":1700679953,"current_range_meters":3600,"station_id":"","pricing_plan_id":"free"},{"bike_id":"003de3f6-f360-4a55-9470-fdcc06fefde2","system_id":"levelo_inurba_marseille","lat":43.317075,"lon":5.377367,"is_reserved":false,"is_disabled":false,"rental_uris":{"android":"levelo://app?vid=003de3f6-f360-4a55-9470-fdcc06fefde2","ios":"levelo://app?vid=003de3f6-f360-4a55-9470-fdcc06fefde2"},"vehicle_type_id":"4","last_reported":1700679953,"current_range_meters":23200,"station_id":"ce4bgth2rcd13ifvqch0","pricing_plan_id":"free"},{"bike_id":"dc8eed7b-f83a-4f39-a50e-6b8f478a13d1","system_id":"levelo_inurba_marseille","lat":43.304783,"lon":5.37259,"is_reserved":false,"is_disabled":false,"rental_uris":{"android":"levelo://app?vid=dc8eed7b-f83a-4f39-a50e-6b8f478a13d1","ios":"levelo://app?vid=dc8eed7b-f83a-4f39-a50e-6b8f478a13d1"},"vehicle_type_id":"4","last_reported":1700679953,"current_range_meters":6000,"station_id":"","pricing_plan_id":"free"},{"bike_id":"a01947ce-d3f1-4178-a24b-0cddef23cdbe","system_id":"levelo_inurba_marseille","lat":43.303228,"lon":5.366248,"is_reserved":false,"is_disabled":false,"rental_uris":{"android":"levelo://app?vid=a01947ce-d3f1-4178-a24b-0cddef23cdbe","ios":"levelo://app?vid=a01947ce-d3f1-4178-a24b-0cddef23cdbe"},"vehicle_type_id":"4","last_reported":1700679953,"current_range_meters":0,"station_id":"","pricing_plan_id":"free"},{"bike_id":"6120b841-73b1-4f62-99ba-e39b4ee56af6","system_id":"levelo_inurba_marseille","lat":43.303046,"lon":5.368981,"is_reserved":false,"is_disabled":false,"rental_uris":{"android":"levelo://app?vid=6120b841-73b1-4f62-99ba-e39b4ee56af6","ios":"levelo://app?vid=6120b841-73b1-4f62-99ba-e39b4ee56af6"},"vehicle_type_id":"4","last_reported":1700679953,"current_range_meters":20800,"station_id":"ce4bgqh2rcd13ifvqc5g","pricing_plan_id":"free"},{"bike_id":"ad7d1056-3855-412f-b2a8-df6a0f112327","system_id":"levelo_inurba_marseille","lat":43.30197,"lon":5.3662,"is_reserved":false,"is_disabled":false,"rental_uris":{"android":"levelo://app?vid=ad7d1056-3855-412f-b2a8-df6a0f112327","ios":"levelo://app?vid=ad7d1056-3855-412f-b2a8-df6a0f112327"},"vehicle_type_id":"4","last_reported":1700679953,"current_range_meters":0,"station_id":"ce4bgrh2rcd13ifvqc8g","pricing_plan_id":"free"},{"bike_id":"1f5f3460-46f0-498c-9b67-5d90a59a532f","system_id":"levelo_inurba_marseille","lat":43.291994,"lon":5.357886,"is_reserved":false,"is_disabled":false,"rental_uris":{"android":"levelo://app?vid=1f5f3460-46f0-498c-9b67-5d90a59a532f","ios":"levelo://app?vid=1f5f3460-46f0-498c-9b67-5d90a59a532f"},"vehicle_type_id":"4","last_reported":1700679953,"current_range_meters":0,"station_id":"ce4bhb12rcd13ifvqel0","pricing_plan_id":"free"},{"bike_id":"036a5a2a-11a7-4f26-9fa6-edf85d38a155","system_id":"levelo_inurba_marseille","lat":43.301939,"lon":5.366286,"is_reserved":false,"is_disabled":false,"rental_uris":{"android":"levelo://app?vid=036a5a2a-11a7-4f26-9fa6-edf85d38a155","ios":"levelo://app?vid=036a5a2a-11a7-4f26-9fa6-edf85d38a155"},"vehicle_type_id":"4","last_reported":1700679953,"current_range_meters":28800,"station_id":"ce4bgrh2rcd13ifvqc8g","pricing_plan_id":"free"},{"bike_id":"0327687b-f51e-4077-bf49-2ec73a6de092","system_id":"levelo_inurba_marseille","lat":43.32243,"lon":5.37554,"is_reserved":false,"is_disabled":false,"rental_uris":{"android":"levelo://app?vid=0327687b-f51e-4077-bf49-2ec73a6de092","ios":"levelo://app?vid=0327687b-f51e-4077-bf49-2ec73a6de092"},"vehicle_type_id":"4","last_reported":1700679953,"current_range_meters":15200,"station_id":"","pricing_plan_id":"free"},{"bike_id":"4ddb000b-a93d-4f7a-a081-b771c0e05ee0","system_id":"levelo_inurba_marseille","lat":43.31353,"lon":5.38492,"is_reserved":false,"is_disabled":false,"rental_uris":{"android":"levelo://app?vid=4ddb000b-a93d-4f7a-a081-b771c0e05ee0","ios":"levelo://app?vid=4ddb000b-a93d-4f7a-a081-b771c0e05ee0"},"vehicle_type_id":"4","last_reported":1700679953,"current_range_meters":30000,"station_id":"ce4bgt92rcd13ifvqcf0","pricing_plan_id":"free"},{"bike_id":"c9a43a87-4d67-4fef-a7da-eab0efd6b916","system_id":"levelo_inurba_marseille","lat":43.32241,"lon":5.37914,"is_reserved":false,"is_disabled":false,"rental_uris":{"android":"levelo://app?vid=c9a43a87-4d67-4fef-a7da-eab0efd6b916","ios":"levelo://app?vid=c9a43a87-4d67-4fef-a7da-eab0efd6b916"},"vehicle_type_id":"4","last_reported":1700679953,"current_range_meters":4000,"station_id":"","pricing_plan_id":"free"},{"bike_id":"e057d546-5c04-4576-bc80-e5c0c6da47f6","system_id":"levelo_inurba_marseille","lat":43.29939,"lon":5.36547,"is_reserved":false,"is_disabled":false,"rental_uris":{"android":"levelo://app?vid=e057d546-5c04-4576-bc80-e5c0c6da47f6","ios":"levelo://app?vid=e057d546-5c04-4576-bc80-e5c0c6da47f6"},"vehicle_type_id":"4","last_reported":1700679953,"current_range_meters":28400,"station_id":"ce4bgm92rcd13ifvqbr0","pricing_plan_id":"free"},{"bike_id":"6489bf96-0c3a-42d5-b886-9195f725084d","system_id":"levelo_inurba_marseille","lat":43.299222,"lon":5.365554,"is_reserved":false,"is_disabled":false,"rental_uris":{"android":"levelo://app?vid=6489bf96-0c3a-42d5-b886-9195f725084d","ios":"levelo://app?vid=6489bf96-0c3a-42d5-b886-9195f725084d"},"vehicle_type_id":"4","last_reported":1700679953,"current_range_meters":400,"station_id":"ce4bgm92rcd13ifvqbr0","pricing_plan_id":"free"},{"bike_id":"bd603cde-8aa9-4632-a06f-653f19ebd7e8","system_id":"levelo_inurba_marseille","lat":43.298433,"lon":5.362774,"is_reserved":false,"is_disabled":false,"rental_uris":{"android":"levelo://app?vid=bd603cde-8aa9-4632-a06f-653f19ebd7e8","ios":"levelo://app?vid=bd603cde-8aa9-4632-a06f-653f19ebd7e8"},"vehicle_type_id":"4","last_reported":1700679953,"current_range_meters":400,"station_id":"ce4bgpp2rcd13ifvqc3g","pricing_plan_id":"free"},{"bike_id":"b62f1bf9-df74-49f6-af5c-3a2fcecbdb97","system_id":"levelo_inurba_marseille","lat":43.311722,"lon":5.387247,"is_reserved":false,"is_disabled":false,"rental_uris":{"android":"levelo://app?vid=b62f1bf9-df74-49f6-af5c-3a2fcecbdb97","ios":"levelo://app?vid=b62f1bf9-df74-49f6-af5c-3a2fcecbdb97"},"vehicle_type_id":"4","last_reported":1700679953,"current_range_meters":8000,"station_id":"ce4bgv12rcd13ifvqcp0","pricing_plan_id":"free"},{"bike_id":"77f87e4f-2d15-42d2-b04c-7fc136a4fabe","system_id":"levelo_inurba_marseille","lat":43.311815,"lon":5.387141,"is_reserved":false,"is_disabled":false,"rental_uris":{"android":"levelo://app?vid=77f87e4f-2d15-42d2-b04c-7fc136a4fabe","ios":"levelo://app?vid=77f87e4f-2d15-42d2-b04c-7fc136a4fabe"},"vehicle_type_id":"4","last_reported":1700679953,"current_range_meters":30000,"station_id":"ce4bgv12rcd13ifvqcp0","pricing_plan_id":"free"},{"bike_id":"039bc6f5-d625-418d-bc82-738f0da37802","system_id":"levelo_inurba_marseille","lat":43.311722,"lon":5.387247,"is_reserved":false,"is_disabled":false,"rental_uris":{"android":"levelo://app?vid=039bc6f5-d625-418d-bc82-738f0da37802","ios":"levelo://app?vid=039bc6f5-d625-418d-bc82-738f0da37802"},"vehicle_type_id":"4","last_reported":1700679953,"current_range_meters":10800,"station_id":"ce4bgv12rcd13ifvqcp0","pricing_plan_id":"free"},{"bike_id":"38e8d2ce-d0d7-434e-8eaa-c161f91a8b62","system_id":"levelo_inurba_marseille","lat":43.311722,"lon":5.387247,"is_reserved":false,"is_disabled":false,"rental_uris":{"android":"levelo://app?vid=38e8d2ce-d0d7-434e-8eaa-c161f91a8b62","ios":"levelo://app?vid=38e8d2ce-d0d7-434e-8eaa-c161f91a8b62"},"vehicle_type_id":"4","last_reported":1700679953,"current_range_meters":5600,"station_id":"ce4bgv12rcd13ifvqcp0","pricing_plan_id":"free"},{"bike_id":"6b64ffb3-5882-4c04-ac6b-c6a9baa631c2","system_id":"levelo_inurba_marseille","lat":43.311722,"lon":5.387247,"is_reserved":false,"is_disabled":false,"rental_uris":{"android":"levelo://app?vid=6b64ffb3-5882-4c04-ac6b-c6a9baa631c2","ios":"levelo://app?vid=6b64ffb3-5882-4c04-ac6b-c6a9baa631c2"},"vehicle_type_id":"4","last_reported":1700679953,"current_range_meters":24400,"station_id":"ce4bgv12rcd13ifvqcp0","pricing_plan_id":"free"},{"bike_id":"dc441c2a-3f74-4e20-80f6-967cf7467ab4","system_id":"levelo_inurba_marseille","lat":43.311832,"lon":5.387248,"is_reserved":false,"is_disabled":false,"rental_uris":{"android":"levelo://app?vid=dc441c2a-3f74-4e20-80f6-967cf7467ab4","ios":"levelo://app?vid=dc441c2a-3f74-4e20-80f6-967cf7467ab4"},"vehicle_type_id":"4","last_reported":1700679953,"current_range_meters":31200,"station_id":"ce4bgv12rcd13ifvqcp0","pricing_plan_id":"free"},{"bike_id":"a23c7ac0-c4d1-4400-84d9-889a388cc2b0","system_id":"levelo_inurba_marseille","lat":43.322872,"lon":5.382756,"is_reserved":false,"is_disabled":false,"rental_uris":{"android":"levelo://app?vid=a23c7ac0-c4d1-4400-84d9-889a388cc2b0","ios":"levelo://app?vid=a23c7ac0-c4d1-4400-84d9-889a388cc2b0"},"vehicle_type_id":"4","last_reported":1700679953,"current_range_meters":20400,"station_id":"ce4bhr12rcd13ifvqhqg","pricing_plan_id":"free"},{"bike_id":"6721af4b-9b69-42e6-b350-f62968a3d0df","system_id":"levelo_inurba_marseille","lat":43.322872,"lon":5.382756,"is_reserved":false,"is_disabled":false,"rental_uris":{"android":"levelo://app?vid=6721af4b-9b69-42e6-b350-f62968a3d0df","ios":"levelo://app?vid=6721af4b-9b69-42e6-b350-f62968a3d0df"},"vehicle_type_id":"4","last_reported":1700679953,"current_range_meters":0,"station_id":"ce4bhr12rcd13ifvqhqg","pricing_plan_id":"free"},{"bike_id":"dae1bdda-7fb1-4e55-99ca-c47c67199878","system_id":"levelo_inurba_marseille","lat":43.322872,"lon":5.382756,"is_reserved":false,"is_disabled":false,"rental_uris":{"android":"levelo://app?vid=dae1bdda-7fb1-4e55-99ca-c47c67199878","ios":"levelo://app?vid=dae1bdda-7fb1-4e55-99ca-c47c67199878"},"vehicle_type_id":"4","last_reported":1700679953,"current_range_meters":10800,"station_id":"ce4bhr12rcd13ifvqhqg","pricing_plan_id":"free"},{"bike_id":"5e7825dd-8e15-4a6c-8fe8-8f5235e6bc54","system_id":"levelo_inurba_marseille","lat":43.297774,"lon":5.370875,"is_reserved":false,"is_disabled":false,"rental_uris":{"android":"levelo://app?vid=5e7825dd-8e15-4a6c-8fe8-8f5235e6bc54","ios":"levelo://app?vid=5e7825dd-8e15-4a6c-8fe8-8f5235e6bc54"},"vehicle_type_id":"4","last_reported":1700679953,"current_range_meters":30800,"station_id":"ce4bgop2rcd13ifvqc1g","pricing_plan_id":"free"},{"bike_id":"83ddb481-a269-484d-bb6c-2b6551d09a24","system_id":"levelo_inurba_marseille","lat":43.322872,"lon":5.382756,"is_reserved":false,"is_disabled":false,"rental_uris":{"android":"levelo://app?vid=83ddb481-a269-484d-bb6c-2b6551d09a24","ios":"levelo://app?vid=83ddb481-a269-484d-bb6c-2b6551d09a24"},"vehicle_type_id":"4","last_reported":1700679953,"current_range_meters":15600,"station_id":"ce4bhr12rcd13ifvqhqg","pricing_plan_id":"free"},{"bike_id":"7f3b0f74-ec8d-430c-9db3-dadf1a213a41","system_id":"levelo_inurba_marseille","lat":43.328371,"lon":5.366909,"is_reserved":false,"is_disabled":false,"rental_uris":{"android":"levelo://app?vid=7f3b0f74-ec8d-430c-9db3-dadf1a213a41","ios":"levelo://app?vid=7f3b0f74-ec8d-430c-9db3-dadf1a213a41"},"vehicle_type_id":"4","last_reported":1700679953,"current_range_meters":1600,"station_id":"ce4bhs92rcd13ifvqi0g","pricing_plan_id":"free"},{"bike_id":"56b47f40-9d98-4151-86b3-059196e2557c","system_id":"levelo_inurba_marseille","lat":43.297163,"lon":5.365866,"is_reserved":false,"is_disabled":false,"rental_uris":{"android":"levelo://app?vid=56b47f40-9d98-4151-86b3-059196e2557c","ios":"levelo://app?vid=56b47f40-9d98-4151-86b3-059196e2557c"},"vehicle_type_id":"4","last_reported":1700679953,"current_range_meters":18400,"station_id":"ce4bgn12rcd13ifvqbt0","pricing_plan_id":"free"},{"bike_id":"ea173a70-82c1-44a5-b4f7-a5a39d6de882","system_id":"levelo_inurba_marseille","lat":43.297163,"lon":5.365866,"is_reserved":false,"is_disabled":false,"rental_uris":{"android":"levelo://app?vid=ea173a70-82c1-44a5-b4f7-a5a39d6de882","ios":"levelo://app?vid=ea173a70-82c1-44a5-b4f7-a5a39d6de882"},"vehicle_type_id":"4","last_reported":1700679953,"current_range_meters":5200,"station_id":"ce4bgn12rcd13ifvqbt0","pricing_plan_id":"free"},{"bike_id":"4d7509f5-9559-42ca-a60d-bef9e80f0981","system_id":"levelo_inurba_marseille","lat":43.29965,"lon":5.379198,"is_reserved":false,"is_disabled":false,"rental_uris":{"android":"levelo://app?vid=4d7509f5-9559-42ca-a60d-bef9e80f0981","ios":"levelo://app?vid=4d7509f5-9559-42ca-a60d-bef9e80f0981"},"vehicle_type_id":"4","last_reported":1700679953,"current_range_meters":0,"station_id":"","pricing_plan_id":"free"},{"bike_id":"86222635-9da2-4fdb-80a1-b8ba16550ac5","system_id":"levelo_inurba_marseille","lat":43.2968,"lon":5.37291,"is_reserved":false,"is_disabled":false,"rental_uris":{"android":"levelo://app?vid=86222635-9da2-4fdb-80a1-b8ba16550ac5","ios":"levelo://app?vid=86222635-9da2-4fdb-80a1-b8ba16550ac5"},"vehicle_type_id":"4","last_reported":1700679953,"current_range_meters":7200,"station_id":"ce4bgk12rcd13ifvqbj0","pricing_plan_id":"free"},{"bike_id":"f2e29894-d678-42aa-87e5-1b70dec5c0b1","system_id":"levelo_inurba_marseille","lat":43.29613,"lon":5.36195,"is_reserved":false,"is_disabled":false,"rental_uris":{"android":"levelo://app?vid=f2e29894-d678-42aa-87e5-1b70dec5c0b1","ios":"levelo://app?vid=f2e29894-d678-42aa-87e5-1b70dec5c0b1"},"vehicle_type_id":"4","last_reported":1700679953,"current_range_meters":2000,"station_id":"","pricing_plan_id":"free"},{"bike_id":"cbe2f919-f1ff-4ce7-9b06-28e49273b272","system_id":"levelo_inurba_marseille","lat":43.297165,"lon":5.377008,"is_reserved":false,"is_disabled":false,"rental_uris":{"android":"levelo://app?vid=cbe2f919-f1ff-4ce7-9b06-28e49273b272","ios":"levelo://app?vid=cbe2f919-f1ff-4ce7-9b06-28e49273b272"},"vehicle_type_id":"4","last_reported":1700679953,"current_range_meters":22000,"station_id":"","pricing_plan_id":"free"},{"bike_id":"20b02bc0-8bdc-4133-adb9-79f867cdce7f","system_id":"levelo_inurba_marseille","lat":43.309589,"lon":5.390258,"is_reserved":false,"is_disabled":false,"rental_uris":{"android":"levelo://app?vid=20b02bc0-8bdc-4133-adb9-79f867cdce7f","ios":"levelo://app?vid=20b02bc0-8bdc-4133-adb9-79f867cdce7f"},"vehicle_type_id":"4","last_reported":1700679953,"current_range_meters":4000,"station_id":"ce4bgup2rcd13ifvqco0","pricing_plan_id":"free"},{"bike_id":"8729fa68-33ab-468d-9065-f930f124487f","system_id":"levelo_inurba_marseille","lat":43.309589,"lon":5.390258,"is_reserved":false,"is_disabled":false,"rental_uris":{"android":"levelo://app?vid=8729fa68-33ab-468d-9065-f930f124487f","ios":"levelo://app?vid=8729fa68-33ab-468d-9065-f930f124487f"},"vehicle_type_id":"4","last_reported":1700679953,"current_range_meters":0,"station_id":"ce4bgup2rcd13ifvqco0","pricing_plan_id":"free"},{"bike_id":"4b43fe11-7b4a-45ed-b57f-384310fb12fb","system_id":"levelo_inurba_marseille","lat":43.296921,"lon":5.376579,"is_reserved":false,"is_disabled":false,"rental_uris":{"android":"levelo://app?vid=4b43fe11-7b4a-45ed-b57f-384310fb12fb","ios":"levelo://app?vid=4b43fe11-7b4a-45ed-b57f-384310fb12fb"},"vehicle_type_id":"4","last_reported":1700679953,"current_range_meters":3200,"station_id":"ce4bgkh2rcd13ifvqbl0","pricing_plan_id":"free"},{"bike_id":"66f85502-2583-46be-ae7b-98cf19db37c3","system_id":"levelo_inurba_marseille","lat":43.309589,"lon":5.390258,"is_reserved":false,"is_disabled":false,"rental_uris":{"android":"levelo://app?vid=66f85502-2583-46be-ae7b-98cf19db37c3","ios":"levelo://app?vid=66f85502-2583-46be-ae7b-98cf19db37c3"},"vehicle_type_id":"4","last_reported":1700679953,"current_range_meters":26800,"station_id":"ce4bgup2rcd13ifvqco0","pricing_plan_id":"free"},{"bike_id":"9fb402a7-7a41-4473-81d2-1fec663a6035","system_id":"levelo_inurba_marseille","lat":43.305571,"lon":5.388747,"is_reserved":false,"is_disabled":false,"rental_uris":{"android":"levelo://app?vid=9fb402a7-7a41-4473-81d2-1fec663a6035","ios":"levelo://app?vid=9fb402a7-7a41-4473-81d2-1fec663a6035"},"vehicle_type_id":"4","last_reported":1700679953,"current_range_meters":24000,"station_id":"","pricing_plan_id":"free"},{"bike_id":"ef4a2081-9b32-4d19-a4e6-0914657b5886","system_id":"levelo_inurba_marseille","lat":43.295748,"lon":5.37522,"is_reserved":false,"is_disabled":false,"rental_uris":{"android":"levelo://app?vid=ef4a2081-9b32-4d19-a4e6-0914657b5886","ios":"levelo://app?vid=ef4a2081-9b32-4d19-a4e6-0914657b5886"},"vehicle_type_id":"4","last_reported":1700679953,"current_range_meters":1200,"station_id":"ce4bgh92rcd13ifvqb50","pricing_plan_id":"free"},{"bike_id":"3059d4c1-3d42-4321-a339-0fea9a03ef82","system_id":"levelo_inurba_marseille","lat":43.328154,"lon":5.380034,"is_reserved":false,"is_disabled":false,"rental_uris":{"android":"levelo://app?vid=3059d4c1-3d42-4321-a339-0fea9a03ef82","ios":"levelo://app?vid=3059d4c1-3d42-4321-a339-0fea9a03ef82"},"vehicle_type_id":"4","last_reported":1700679953,"current_range_meters":0,"station_id":"","pricing_plan_id":"free"},{"bike_id":"573e70d6-01d1-4ce2-8931-e06a704875a2","system_id":"levelo_inurba_marseille","lat":43.296263,"lon":5.377094,"is_reserved":false,"is_disabled":false,"rental_uris":{"android":"levelo://app?vid=573e70d6-01d1-4ce2-8931-e06a704875a2","ios":"levelo://app?vid=573e70d6-01d1-4ce2-8931-e06a704875a2"},"vehicle_type_id":"4","last_reported":1700679953,"current_range_meters":0,"station_id":"ce4bgi92rcd13ifvqb90","pricing_plan_id":"free"},{"bike_id":"0aab37c3-f8cd-4e82-9337-67e201c8fdf0","system_id":"levelo_inurba_marseille","lat":43.299707,"lon":5.384859,"is_reserved":false,"is_disabled":false,"rental_uris":{"android":"levelo://app?vid=0aab37c3-f8cd-4e82-9337-67e201c8fdf0","ios":"levelo://app?vid=0aab37c3-f8cd-4e82-9337-67e201c8fdf0"},"vehicle_type_id":"4","last_reported":1700679953,"current_range_meters":28400,"station_id":"ce4bgj92rcd13ifvqbd0","pricing_plan_id":"free"},{"bike_id":"6b621983-5e9e-42f7-990d-ad5a093820d2","system_id":"levelo_inurba_marseille","lat":43.293801,"lon":5.363066,"is_reserved":false,"is_disabled":false,"rental_uris":{"android":"levelo://app?vid=6b621983-5e9e-42f7-990d-ad5a093820d2","ios":"levelo://app?vid=6b621983-5e9e-42f7-990d-ad5a093820d2"},"vehicle_type_id":"4","last_reported":1700679953,"current_range_meters":11200,"station_id":"","pricing_plan_id":"free"},{"bike_id":"d08f04bf-d1cb-49fb-9aa7-04e7f7676b3c","system_id":"levelo_inurba_marseille","lat":43.323405,"lon":5.389588,"is_reserved":false,"is_disabled":false,"rental_uris":{"android":"levelo://app?vid=d08f04bf-d1cb-49fb-9aa7-04e7f7676b3c","ios":"levelo://app?vid=d08f04bf-d1cb-49fb-9aa7-04e7f7676b3c"},"vehicle_type_id":"4","last_reported":1700679953,"current_range_meters":0,"station_id":"","pricing_plan_id":"free"},{"bike_id":"3dcf3825-aff0-4bc7-86e3-8fa83d7c8bf4","system_id":"levelo_inurba_marseille","lat":43.29601,"lon":5.381084,"is_reserved":false,"is_disabled":false,"rental_uris":{"android":"levelo://app?vid=3dcf3825-aff0-4bc7-86e3-8fa83d7c8bf4","ios":"levelo://app?vid=3dcf3825-aff0-4bc7-86e3-8fa83d7c8bf4"},"vehicle_type_id":"4","last_reported":1700679953,"current_range_meters":0,"station_id":"ce4bgl12rcd13ifvqbo0","pricing_plan_id":"free"},{"bike_id":"0417b4f5-e93b-4766-b506-c15d5b9a11d6","system_id":"levelo_inurba_marseille","lat":43.2936,"lon":5.37835,"is_reserved":false,"is_disabled":false,"rental_uris":{"android":"levelo://app?vid=0417b4f5-e93b-4766-b506-c15d5b9a11d6","ios":"levelo://app?vid=0417b4f5-e93b-4766-b506-c15d5b9a11d6"},"vehicle_type_id":"4","last_reported":1700679953,"current_range_meters":12800,"station_id":"ce4bgjh2rcd13ifvqbf0","pricing_plan_id":"free"},{"bike_id":"7d02049e-99de-4a5c-90fa-68192ea0f63d","system_id":"levelo_inurba_marseille","lat":43.29262,"lon":5.37621,"is_reserved":false,"is_disabled":false,"rental_uris":{"android":"levelo://app?vid=7d02049e-99de-4a5c-90fa-68192ea0f63d","ios":"levelo://app?vid=7d02049e-99de-4a5c-90fa-68192ea0f63d"},"vehicle_type_id":"4","last_reported":1700679953,"current_range_meters":12000,"station_id":"ce4bgi12rcd13ifvqb80","pricing_plan_id":"free"},{"bike_id":"966dab73-18fd-4895-8c54-79d6bd099b2d","system_id":"levelo_inurba_marseille","lat":43.2925,"lon":5.37634,"is_reserved":false,"is_disabled":false,"rental_uris":{"android":"levelo://app?vid=966dab73-18fd-4895-8c54-79d6bd099b2d","ios":"levelo://app?vid=966dab73-18fd-4895-8c54-79d6bd099b2d"},"vehicle_type_id":"4","last_reported":1700679953,"current_range_meters":26400,"station_id":"","pricing_plan_id":"free"},{"bike_id":"fb0f03b8-ca5e-44a1-86e0-a67f860190db","system_id":"levelo_inurba_marseille","lat":43.290631,"lon":5.359244,"is_reserved":false,"is_disabled":false,"rental_uris":{"android":"levelo://app?vid=fb0f03b8-ca5e-44a1-86e0-a67f860190db","ios":"levelo://app?vid=fb0f03b8-ca5e-44a1-86e0-a67f860190db"},"vehicle_type_id":"4","last_reported":1700679953,"current_range_meters":2000,"station_id":"ce4bha92rcd13ifvqeg0","pricing_plan_id":"free"},{"bike_id":"884ccb19-0981-4be9-a4f8-e224f0e92ef0","system_id":"levelo_inurba_marseille","lat":43.309047,"lon":5.396551,"is_reserved":false,"is_disabled":false,"rental_uris":{"android":"levelo://app?vid=884ccb19-0981-4be9-a4f8-e224f0e92ef0","ios":"levelo://app?vid=884ccb19-0981-4be9-a4f8-e224f0e92ef0"},"vehicle_type_id":"4","last_reported":1700679953,"current_range_meters":30800,"station_id":"ce4bh012rcd13ifvqcv0","pricing_plan_id":"free"},{"bike_id":"51a7f504-8310-4973-bad9-a538a932adb2","system_id":"levelo_inurba_marseille","lat":43.31333,"lon":5.39692,"is_reserved":false,"is_disabled":false,"rental_uris":{"android":"levelo://app?vid=51a7f504-8310-4973-bad9-a538a932adb2","ios":"levelo://app?vid=51a7f504-8310-4973-bad9-a538a932adb2"},"vehicle_type_id":"4","last_reported":1700679953,"current_range_meters":16800,"station_id":"ce4bgvp2rcd13ifvqcu0","pricing_plan_id":"free"},{"bike_id":"68216e3e-776b-4384-8d1c-e21abbc6e86a","system_id":"levelo_inurba_marseille","lat":43.31329,"lon":5.39695,"is_reserved":false,"is_disabled":false,"rental_uris":{"android":"levelo://app?vid=68216e3e-776b-4384-8d1c-e21abbc6e86a","ios":"levelo://app?vid=68216e3e-776b-4384-8d1c-e21abbc6e86a"},"vehicle_type_id":"4","last_reported":1700679953,"current_range_meters":0,"station_id":"ce4bgvp2rcd13ifvqcu0","pricing_plan_id":"free"},{"bike_id":"8dcbbd7a-b0c5-4401-940a-938faca87430","system_id":"levelo_inurba_marseille","lat":43.309038,"lon":5.396546,"is_reserved":false,"is_disabled":false,"rental_uris":{"android":"levelo://app?vid=8dcbbd7a-b0c5-4401-940a-938faca87430","ios":"levelo://app?vid=8dcbbd7a-b0c5-4401-940a-938faca87430"},"vehicle_type_id":"4","last_reported":1700679953,"current_range_meters":29200,"station_id":"ce4bh012rcd13ifvqcv0","pricing_plan_id":"free"},{"bike_id":"fc1e9122-6c23-4c30-9b26-faa93f52a3ce","system_id":"levelo_inurba_marseille","lat":43.309038,"lon":5.396546,"is_reserved":false,"is_disabled":false,"rental_uris":{"android":"levelo://app?vid=fc1e9122-6c23-4c30-9b26-faa93f52a3ce","ios":"levelo://app?vid=fc1e9122-6c23-4c30-9b26-faa93f52a3ce"},"vehicle_type_id":"4","last_reported":1700679953,"current_range_meters":20000,"station_id":"ce4bh012rcd13ifvqcv0","pricing_plan_id":"free"},{"bike_id":"9c6a217b-ef8f-4a08-b82c-b37ef2318616","system_id":"levelo_inurba_marseille","lat":43.309038,"lon":5.396546,"is_reserved":false,"is_disabled":false,"rental_uris":{"android":"levelo://app?vid=9c6a217b-ef8f-4a08-b82c-b37ef2318616","ios":"levelo://app?vid=9c6a217b-ef8f-4a08-b82c-b37ef2318616"},"vehicle_type_id":"4","last_reported":1700679953,"current_range_meters":8400,"station_id":"ce4bh012rcd13ifvqcv0","pricing_plan_id":"free"},{"bike_id":"ceda2171-3d7a-441b-80be-556839646e1b","system_id":"levelo_inurba_marseille","lat":43.31326,"lon":5.397073,"is_reserved":false,"is_disabled":false,"rental_uris":{"android":"levelo://app?vid=ceda2171-3d7a-441b-80be-556839646e1b","ios":"levelo://app?vid=ceda2171-3d7a-441b-80be-556839646e1b"},"vehicle_type_id":"4","last_reported":1700679953,"current_range_meters":13200,"station_id":"ce4bgvp2rcd13ifvqcu0","pricing_plan_id":"free"},{"bike_id":"1d10a1b1-d55f-4279-928a-9c6858f32ca9","system_id":"levelo_inurba_marseille","lat":43.33211,"lon":5.38112,"is_reserved":false,"is_disabled":false,"rental_uris":{"android":"levelo://app?vid=1d10a1b1-d55f-4279-928a-9c6858f32ca9","ios":"levelo://app?vid=1d10a1b1-d55f-4279-928a-9c6858f32ca9"},"vehicle_type_id":"4","last_reported":1700679953,"current_range_meters":2800,"station_id":"","pricing_plan_id":"free"},{"bike_id":"927a8b5b-aa1a-4c86-9d2c-40552679abcf","system_id":"levelo_inurba_marseille","lat":43.290779,"lon":5.371482,"is_reserved":false,"is_disabled":false,"rental_uris":{"android":"levelo://app?vid=927a8b5b-aa1a-4c86-9d2c-40552679abcf","ios":"levelo://app?vid=927a8b5b-aa1a-4c86-9d2c-40552679abcf"},"vehicle_type_id":"4","last_reported":1700679953,"current_range_meters":13600,"station_id":"ce4bh5p2rcd13ifvqe4g","pricing_plan_id":"free"},{"bike_id":"4f5dd9e3-6bbc-437a-9f17-f6a26b86dad6","system_id":"levelo_inurba_marseille","lat":43.3152,"lon":5.39805,"is_reserved":false,"is_disabled":false,"rental_uris":{"android":"levelo://app?vid=4f5dd9e3-6bbc-437a-9f17-f6a26b86dad6","ios":"levelo://app?vid=4f5dd9e3-6bbc-437a-9f17-f6a26b86dad6"},"vehicle_type_id":"4","last_reported":1700679953,"current_range_meters":10400,"station_id":"","pricing_plan_id":"free"},{"bike_id":"bf0406ea-e4e6-4c57-abeb-53e1c1936d3a","system_id":"levelo_inurba_marseille","lat":43.29422,"lon":5.38622,"is_reserved":false,"is_disabled":false,"rental_uris":{"android":"levelo://app?vid=bf0406ea-e4e6-4c57-abeb-53e1c1936d3a","ios":"levelo://app?vid=bf0406ea-e4e6-4c57-abeb-53e1c1936d3a"},"vehicle_type_id":"4","last_reported":1700679953,"current_range_meters":0,"station_id":"ce4bh2h2rcd13ifvqdh0","pricing_plan_id":"free"},{"bike_id":"5a11715b-ca52-4164-bbcb-9e9d7bab7341","system_id":"levelo_inurba_marseille","lat":43.294162,"lon":5.386292,"is_reserved":false,"is_disabled":false,"rental_uris":{"android":"levelo://app?vid=5a11715b-ca52-4164-bbcb-9e9d7bab7341","ios":"levelo://app?vid=5a11715b-ca52-4164-bbcb-9e9d7bab7341"},"vehicle_type_id":"4","last_reported":1700679953,"current_range_meters":31200,"station_id":"ce4bh2h2rcd13ifvqdh0","pricing_plan_id":"free"},{"bike_id":"6a643e45-2d6d-4f7d-8c66-9f3c24649d78","system_id":"levelo_inurba_marseille","lat":43.294162,"lon":5.386292,"is_reserved":false,"is_disabled":false,"rental_uris":{"android":"levelo://app?vid=6a643e45-2d6d-4f7d-8c66-9f3c24649d78","ios":"levelo://app?vid=6a643e45-2d6d-4f7d-8c66-9f3c24649d78"},"vehicle_type_id":"4","last_reported":1700679953,"current_range_meters":800,"station_id":"ce4bh2h2rcd13ifvqdh0","pricing_plan_id":"free"},{"bike_id":"6dd3ba8f-ef06-489d-aa52-6f7fb589a979","system_id":"levelo_inurba_marseille","lat":43.294162,"lon":5.386292,"is_reserved":false,"is_disabled":false,"rental_uris":{"android":"levelo://app?vid=6dd3ba8f-ef06-489d-aa52-6f7fb589a979","ios":"levelo://app?vid=6dd3ba8f-ef06-489d-aa52-6f7fb589a979"},"vehicle_type_id":"4","last_reported":1700679953,"current_range_meters":9200,"station_id":"ce4bh2h2rcd13ifvqdh0","pricing_plan_id":"free"},{"bike_id":"321bf99e-6e62-4af1-8b96-6bd33b86f0e1","system_id":"levelo_inurba_marseille","lat":43.294162,"lon":5.386292,"is_reserved":false,"is_disabled":false,"rental_uris":{"android":"levelo://app?vid=321bf99e-6e62-4af1-8b96-6bd33b86f0e1","ios":"levelo://app?vid=321bf99e-6e62-4af1-8b96-6bd33b86f0e1"},"vehicle_type_id":"4","last_reported":1700679953,"current_range_meters":24800,"station_id":"ce4bh2h2rcd13ifvqdh0","pricing_plan_id":"free"},{"bike_id":"d0731e11-8250-4eda-9908-12a78daeb620","system_id":"levelo_inurba_marseille","lat":43.28943,"lon":5.36404,"is_reserved":false,"is_disabled":false,"rental_uris":{"android":"levelo://app?vid=d0731e11-8250-4eda-9908-12a78daeb620","ios":"levelo://app?vid=d0731e11-8250-4eda-9908-12a78daeb620"},"vehicle_type_id":"4","last_reported":1700679953,"current_range_meters":4400,"station_id":"ce4bhc92rcd13ifvqetg","pricing_plan_id":"free"},{"bike_id":"db0161aa-9d98-4c62-8457-bfc152239e11","system_id":"levelo_inurba_marseille","lat":43.289468,"lon":5.363719,"is_reserved":false,"is_disabled":false,"rental_uris":{"android":"levelo://app?vid=db0161aa-9d98-4c62-8457-bfc152239e11","ios":"levelo://app?vid=db0161aa-9d98-4c62-8457-bfc152239e11"},"vehicle_type_id":"4","last_reported":1700679953,"current_range_meters":28000,"station_id":"ce4bhc92rcd13ifvqetg","pricing_plan_id":"free"},{"bike_id":"1506e4b7-554e-4e57-a2e1-027921ba9959","system_id":"levelo_inurba_marseille","lat":43.292644,"lon":5.384257,"is_reserved":false,"is_disabled":false,"rental_uris":{"android":"levelo://app?vid=1506e4b7-554e-4e57-a2e1-027921ba9959","ios":"levelo://app?vid=1506e4b7-554e-4e57-a2e1-027921ba9959"},"vehicle_type_id":"4","last_reported":1700679953,"current_range_meters":7600,"station_id":"ce4bh692rcd13ifvqea0","pricing_plan_id":"free"},{"bike_id":"49fd0925-a777-4172-88ad-5cfb0416c7c9","system_id":"levelo_inurba_marseille","lat":43.292642,"lon":5.384254,"is_reserved":false,"is_disabled":false,"rental_uris":{"android":"levelo://app?vid=49fd0925-a777-4172-88ad-5cfb0416c7c9","ios":"levelo://app?vid=49fd0925-a777-4172-88ad-5cfb0416c7c9"},"vehicle_type_id":"4","last_reported":1700679953,"current_range_meters":8000,"station_id":"ce4bh692rcd13ifvqea0","pricing_plan_id":"free"},{"bike_id":"da38e1b9-1cca-41cd-b628-32024698e5dd","system_id":"levelo_inurba_marseille","lat":43.292644,"lon":5.384257,"is_reserved":false,"is_disabled":false,"rental_uris":{"android":"levelo://app?vid=da38e1b9-1cca-41cd-b628-32024698e5dd","ios":"levelo://app?vid=da38e1b9-1cca-41cd-b628-32024698e5dd"},"vehicle_type_id":"4","last_reported":1700679953,"current_range_meters":0,"station_id":"ce4bh692rcd13ifvqea0","pricing_plan_id":"free"},{"bike_id":"4f612498-1be7-4e05-8054-591e64082b0a","system_id":"levelo_inurba_marseille","lat":43.29265,"lon":5.38446,"is_reserved":false,"is_disabled":false,"rental_uris":{"android":"levelo://app?vid=4f612498-1be7-4e05-8054-591e64082b0a","ios":"levelo://app?vid=4f612498-1be7-4e05-8054-591e64082b0a"},"vehicle_type_id":"4","last_reported":1700679953,"current_range_meters":0,"station_id":"ce4bh692rcd13ifvqea0","pricing_plan_id":"free"},{"bike_id":"9d06ae7d-a11b-43dc-83b9-f3387878e019","system_id":"levelo_inurba_marseille","lat":43.292642,"lon":5.384254,"is_reserved":false,"is_disabled":false,"rental_uris":{"android":"levelo://app?vid=9d06ae7d-a11b-43dc-83b9-f3387878e019","ios":"levelo://app?vid=9d06ae7d-a11b-43dc-83b9-f3387878e019"},"vehicle_type_id":"4","last_reported":1700679953,"current_range_meters":28400,"station_id":"ce4bh692rcd13ifvqea0","pricing_plan_id":"free"},{"bike_id":"ae7ad41b-9079-42bc-91fe-da773dc64ff9","system_id":"levelo_inurba_marseille","lat":43.29257,"lon":5.38447,"is_reserved":false,"is_disabled":false,"rental_uris":{"android":"levelo://app?vid=ae7ad41b-9079-42bc-91fe-da773dc64ff9","ios":"levelo://app?vid=ae7ad41b-9079-42bc-91fe-da773dc64ff9"},"vehicle_type_id":"4","last_reported":1700679953,"current_range_meters":0,"station_id":"ce4bh692rcd13ifvqea0","pricing_plan_id":"free"},{"bike_id":"99bba90a-0e44-438c-a8c5-c3b07eb9d188","system_id":"levelo_inurba_marseille","lat":43.33046,"lon":5.38918,"is_reserved":false,"is_disabled":false,"rental_uris":{"android":"levelo://app?vid=99bba90a-0e44-438c-a8c5-c3b07eb9d188","ios":"levelo://app?vid=99bba90a-0e44-438c-a8c5-c3b07eb9d188"},"vehicle_type_id":"4","last_reported":1700679953,"current_range_meters":12400,"station_id":"ce4bhr92rcd13ifvqhrg","pricing_plan_id":"free"},{"bike_id":"c40ec309-6c60-4a06-9a0f-d19dd53c2205","system_id":"levelo_inurba_marseille","lat":43.29787,"lon":5.39339,"is_reserved":false,"is_disabled":false,"rental_uris":{"android":"levelo://app?vid=c40ec309-6c60-4a06-9a0f-d19dd53c2205","ios":"levelo://app?vid=c40ec309-6c60-4a06-9a0f-d19dd53c2205"},"vehicle_type_id":"4","last_reported":1700679953,"current_range_meters":0,"station_id":"chh1huq6cuj3fo74tm60","pricing_plan_id":"free"},{"bike_id":"4c159796-b676-4796-8ca9-5068d16b5d8c","system_id":"levelo_inurba_marseille","lat":43.289727,"lon":5.378263,"is_reserved":false,"is_disabled":false,"rental_uris":{"android":"levelo://app?vid=4c159796-b676-4796-8ca9-5068d16b5d8c","ios":"levelo://app?vid=4c159796-b676-4796-8ca9-5068d16b5d8c"},"vehicle_type_id":"4","last_reported":1700679953,"current_range_meters":19200,"station_id":"","pricing_plan_id":"free"},{"bike_id":"1c297119-262d-42f5-bc97-6fa6e6625b08","system_id":"levelo_inurba_marseille","lat":43.289741,"lon":5.378306,"is_reserved":false,"is_disabled":false,"rental_uris":{"android":"levelo://app?vid=1c297119-262d-42f5-bc97-6fa6e6625b08","ios":"levelo://app?vid=1c297119-262d-42f5-bc97-6fa6e6625b08"},"vehicle_type_id":"4","last_reported":1700679953,"current_range_meters":2400,"station_id":"ce4bh9p2rcd13ifvqed0","pricing_plan_id":"free"},{"bike_id":"a6e255b4-c1ae-4ac5-a5b9-f30eb6d3740d","system_id":"levelo_inurba_marseille","lat":43.28856,"lon":5.358371,"is_reserved":false,"is_disabled":false,"rental_uris":{"android":"levelo://app?vid=a6e255b4-c1ae-4ac5-a5b9-f30eb6d3740d","ios":"levelo://app?vid=a6e255b4-c1ae-4ac5-a5b9-f30eb6d3740d"},"vehicle_type_id":"4","last_reported":1700679953,"current_range_meters":28400,"station_id":"ce4bhb12rcd13ifvqem0","pricing_plan_id":"free"},{"bike_id":"aad9a792-6976-4183-919a-aef819ff2e25","system_id":"levelo_inurba_marseille","lat":43.31251,"lon":5.40162,"is_reserved":false,"is_disabled":false,"rental_uris":{"android":"levelo://app?vid=aad9a792-6976-4183-919a-aef819ff2e25","ios":"levelo://app?vid=aad9a792-6976-4183-919a-aef819ff2e25"},"vehicle_type_id":"4","last_reported":1700679953,"current_range_meters":0,"station_id":"","pricing_plan_id":"free"},{"bike_id":"64643d96-96bd-4fb1-843a-a510d2376739","system_id":"levelo_inurba_marseille","lat":43.309371,"lon":5.401449,"is_reserved":false,"is_disabled":false,"rental_uris":{"android":"levelo://app?vid=64643d96-96bd-4fb1-843a-a510d2376739","ios":"levelo://app?vid=64643d96-96bd-4fb1-843a-a510d2376739"},"vehicle_type_id":"4","last_reported":1700679953,"current_range_meters":9600,"station_id":"ce4bgvp2rcd13ifvqct0","pricing_plan_id":"free"},{"bike_id":"43e74dbc-ba23-4abc-9c65-2ed303dc3f37","system_id":"levelo_inurba_marseille","lat":43.31274,"lon":5.40169,"is_reserved":false,"is_disabled":false,"rental_uris":{"android":"levelo://app?vid=43e74dbc-ba23-4abc-9c65-2ed303dc3f37","ios":"levelo://app?vid=43e74dbc-ba23-4abc-9c65-2ed303dc3f37"},"vehicle_type_id":"4","last_reported":1700679953,"current_range_meters":0,"station_id":"ce4bh092rcd13ifvqd30","pricing_plan_id":"free"},{"bike_id":"20044df1-fad4-4e20-a2ba-60b71c9f7167","system_id":"levelo_inurba_marseille","lat":43.33751,"lon":5.37436,"is_reserved":false,"is_disabled":false,"rental_uris":{"android":"levelo://app?vid=20044df1-fad4-4e20-a2ba-60b71c9f7167","ios":"levelo://app?vid=20044df1-fad4-4e20-a2ba-60b71c9f7167"},"vehicle_type_id":"4","last_reported":1700679953,"current_range_meters":27200,"station_id":"","pricing_plan_id":"free"},{"bike_id":"17672ead-480c-464a-a9ed-1067ada06a6e","system_id":"levelo_inurba_marseille","lat":43.30934,"lon":5.4015,"is_reserved":false,"is_disabled":false,"rental_uris":{"android":"levelo://app?vid=17672ead-480c-464a-a9ed-1067ada06a6e","ios":"levelo://app?vid=17672ead-480c-464a-a9ed-1067ada06a6e"},"vehicle_type_id":"4","last_reported":1700679953,"current_range_meters":0,"station_id":"ce4bgvp2rcd13ifvqct0","pricing_plan_id":"free"},{"bike_id":"a5e23852-272e-4bf0-926f-90631096197d","system_id":"levelo_inurba_marseille","lat":43.33752,"lon":5.37468,"is_reserved":false,"is_disabled":false,"rental_uris":{"android":"levelo://app?vid=a5e23852-272e-4bf0-926f-90631096197d","ios":"levelo://app?vid=a5e23852-272e-4bf0-926f-90631096197d"},"vehicle_type_id":"4","last_reported":1700679953,"current_range_meters":21200,"station_id":"","pricing_plan_id":"free"},{"bike_id":"950e4fde-8e87-4eb1-9956-1d0987779329","system_id":"levelo_inurba_marseille","lat":43.337549,"lon":5.374585,"is_reserved":false,"is_disabled":false,"rental_uris":{"android":"levelo://app?vid=950e4fde-8e87-4eb1-9956-1d0987779329","ios":"levelo://app?vid=950e4fde-8e87-4eb1-9956-1d0987779329"},"vehicle_type_id":"4","last_reported":1700679953,"current_range_meters":0,"station_id":"","pricing_plan_id":"free"},{"bike_id":"25ee5b3a-cc3c-4fea-97c8-44c14f3b26e9","system_id":"levelo_inurba_marseille","lat":43.33751,"lon":5.37486,"is_reserved":false,"is_disabled":false,"rental_uris":{"android":"levelo://app?vid=25ee5b3a-cc3c-4fea-97c8-44c14f3b26e9","ios":"levelo://app?vid=25ee5b3a-cc3c-4fea-97c8-44c14f3b26e9"},"vehicle_type_id":"4","last_reported":1700679953,"current_range_meters":24400,"station_id":"","pricing_plan_id":"free"},{"bike_id":"55305c92-9c13-4dde-ad57-ab451e6146f6","system_id":"levelo_inurba_marseille","lat":43.337622,"lon":5.374404,"is_reserved":false,"is_disabled":false,"rental_uris":{"android":"levelo://app?vid=55305c92-9c13-4dde-ad57-ab451e6146f6","ios":"levelo://app?vid=55305c92-9c13-4dde-ad57-ab451e6146f6"},"vehicle_type_id":"4","last_reported":1700679953,"current_range_meters":31600,"station_id":"","pricing_plan_id":"free"},{"bike_id":"5ca1769b-9d48-478e-b544-da316599e94d","system_id":"levelo_inurba_marseille","lat":43.337635,"lon":5.374335,"is_reserved":false,"is_disabled":false,"rental_uris":{"android":"levelo://app?vid=5ca1769b-9d48-478e-b544-da316599e94d","ios":"levelo://app?vid=5ca1769b-9d48-478e-b544-da316599e94d"},"vehicle_type_id":"4","last_reported":1700679953,"current_range_meters":22000,"station_id":"","pricing_plan_id":"free"},{"bike_id":"45c50b00-798d-4d73-a32e-8aa52fed9e79","system_id":"levelo_inurba_marseille","lat":43.33755,"lon":5.374882,"is_reserved":false,"is_disabled":false,"rental_uris":{"android":"levelo://app?vid=45c50b00-798d-4d73-a32e-8aa52fed9e79","ios":"levelo://app?vid=45c50b00-798d-4d73-a32e-8aa52fed9e79"},"vehicle_type_id":"4","last_reported":1700679953,"current_range_meters":29600,"station_id":"","pricing_plan_id":"free"},{"bike_id":"1dc31cca-5f71-4a9e-a8f1-d3d67550d989","system_id":"levelo_inurba_marseille","lat":43.33765,"lon":5.37427,"is_reserved":false,"is_disabled":false,"rental_uris":{"android":"levelo://app?vid=1dc31cca-5f71-4a9e-a8f1-d3d67550d989","ios":"levelo://app?vid=1dc31cca-5f71-4a9e-a8f1-d3d67550d989"},"vehicle_type_id":"4","last_reported":1700679953,"current_range_meters":21200,"station_id":"","pricing_plan_id":"free"},{"bike_id":"09be5a93-39fc-4416-b827-ef0e3eae0e7d","system_id":"levelo_inurba_marseille","lat":43.337641,"lon":5.374351,"is_reserved":false,"is_disabled":false,"rental_uris":{"android":"levelo://app?vid=09be5a93-39fc-4416-b827-ef0e3eae0e7d","ios":"levelo://app?vid=09be5a93-39fc-4416-b827-ef0e3eae0e7d"},"vehicle_type_id":"4","last_reported":1700679953,"current_range_meters":30800,"station_id":"","pricing_plan_id":"free"},{"bike_id":"565184c7-4d4a-43d0-ac93-202563faf996","system_id":"levelo_inurba_marseille","lat":43.33767,"lon":5.37423,"is_reserved":false,"is_disabled":false,"rental_uris":{"android":"levelo://app?vid=565184c7-4d4a-43d0-ac93-202563faf996","ios":"levelo://app?vid=565184c7-4d4a-43d0-ac93-202563faf996"},"vehicle_type_id":"4","last_reported":1700679953,"current_range_meters":31200,"station_id":"","pricing_plan_id":"free"},{"bike_id":"d42732ee-3d1a-47b1-9598-db3afd7b4663","system_id":"levelo_inurba_marseille","lat":43.337681,"lon":5.3743,"is_reserved":false,"is_disabled":false,"rental_uris":{"android":"levelo://app?vid=d42732ee-3d1a-47b1-9598-db3afd7b4663","ios":"levelo://app?vid=d42732ee-3d1a-47b1-9598-db3afd7b4663"},"vehicle_type_id":"4","last_reported":1700679953,"current_range_meters":25600,"station_id":"","pricing_plan_id":"free"},{"bike_id":"a64e2e92-e9f4-47f5-a45e-85e68b98a86a","system_id":"levelo_inurba_marseille","lat":43.3377,"lon":5.374328,"is_reserved":false,"is_disabled":false,"rental_uris":{"android":"levelo://app?vid=a64e2e92-e9f4-47f5-a45e-85e68b98a86a","ios":"levelo://app?vid=a64e2e92-e9f4-47f5-a45e-85e68b98a86a"},"vehicle_type_id":"4","last_reported":1700679953,"current_range_meters":27600,"station_id":"","pricing_plan_id":"free"},{"bike_id":"59f380e2-3fad-41ca-819a-159561a0ca80","system_id":"levelo_inurba_marseille","lat":43.33771,"lon":5.374306,"is_reserved":false,"is_disabled":false,"rental_uris":{"android":"levelo://app?vid=59f380e2-3fad-41ca-819a-159561a0ca80","ios":"levelo://app?vid=59f380e2-3fad-41ca-819a-159561a0ca80"},"vehicle_type_id":"4","last_reported":1700679953,"current_range_meters":17600,"station_id":"","pricing_plan_id":"free"},{"bike_id":"d0469251-bd13-41e5-8440-38f7192a7550","system_id":"levelo_inurba_marseille","lat":43.337722,"lon":5.374388,"is_reserved":false,"is_disabled":false,"rental_uris":{"android":"levelo://app?vid=d0469251-bd13-41e5-8440-38f7192a7550","ios":"levelo://app?vid=d0469251-bd13-41e5-8440-38f7192a7550"},"vehicle_type_id":"4","last_reported":1700679953,"current_range_meters":28800,"station_id":"","pricing_plan_id":"free"},{"bike_id":"86958b31-2db6-4ad8-bb7b-d755eba13bbb","system_id":"levelo_inurba_marseille","lat":43.337748,"lon":5.374236,"is_reserved":false,"is_disabled":false,"rental_uris":{"android":"levelo://app?vid=86958b31-2db6-4ad8-bb7b-d755eba13bbb","ios":"levelo://app?vid=86958b31-2db6-4ad8-bb7b-d755eba13bbb"},"vehicle_type_id":"4","last_reported":1700679953,"current_range_meters":14400,"station_id":"","pricing_plan_id":"free"},{"bike_id":"ca5f450e-15ff-4f17-88ea-e68935cedb16","system_id":"levelo_inurba_marseille","lat":43.33785,"lon":5.374355,"is_reserved":false,"is_disabled":false,"rental_uris":{"android":"levelo://app?vid=ca5f450e-15ff-4f17-88ea-e68935cedb16","ios":"levelo://app?vid=ca5f450e-15ff-4f17-88ea-e68935cedb16"},"vehicle_type_id":"4","last_reported":1700679953,"current_range_meters":28800,"station_id":"","pricing_plan_id":"free"},{"bike_id":"90e76797-70f3-4b66-b233-ac432a05f699","system_id":"levelo_inurba_marseille","lat":43.301117,"lon":5.398795,"is_reserved":false,"is_disabled":false,"rental_uris":{"android":"levelo://app?vid=90e76797-70f3-4b66-b233-ac432a05f699","ios":"levelo://app?vid=90e76797-70f3-4b66-b233-ac432a05f699"},"vehicle_type_id":"4","last_reported":1700679953,"current_range_meters":0,"station_id":"ce4bh0h2rcd13ifvqd40","pricing_plan_id":"free"},{"bike_id":"0c774c4a-7699-4f68-b90e-3d1dfde41cef","system_id":"levelo_inurba_marseille","lat":43.301117,"lon":5.398795,"is_reserved":false,"is_disabled":false,"rental_uris":{"android":"levelo://app?vid=0c774c4a-7699-4f68-b90e-3d1dfde41cef","ios":"levelo://app?vid=0c774c4a-7699-4f68-b90e-3d1dfde41cef"},"vehicle_type_id":"4","last_reported":1700679953,"current_range_meters":3200,"station_id":"ce4bh0h2rcd13ifvqd40","pricing_plan_id":"free"},{"bike_id":"249234fe-28fa-454a-ada5-c7a269ecd31b","system_id":"levelo_inurba_marseille","lat":43.28727,"lon":5.36078,"is_reserved":false,"is_disabled":false,"rental_uris":{"android":"levelo://app?vid=249234fe-28fa-454a-ada5-c7a269ecd31b","ios":"levelo://app?vid=249234fe-28fa-454a-ada5-c7a269ecd31b"},"vehicle_type_id":"4","last_reported":1700679953,"current_range_meters":20400,"station_id":"cki0cbj6b192h4jlfktg","pricing_plan_id":"free"},{"bike_id":"27951505-f3e8-451d-b70e-23dd4a98c0e6","system_id":"levelo_inurba_marseille","lat":43.28727,"lon":5.36078,"is_reserved":false,"is_disabled":false,"rental_uris":{"android":"levelo://app?vid=27951505-f3e8-451d-b70e-23dd4a98c0e6","ios":"levelo://app?vid=27951505-f3e8-451d-b70e-23dd4a98c0e6"},"vehicle_type_id":"4","last_reported":1700679953,"current_range_meters":5200,"station_id":"cki0cbj6b192h4jlfktg","pricing_plan_id":"free"},{"bike_id":"6ff86665-98df-424c-912e-3e2ac3647837","system_id":"levelo_inurba_marseille","lat":43.302759,"lon":5.400793,"is_reserved":false,"is_disabled":false,"rental_uris":{"android":"levelo://app?vid=6ff86665-98df-424c-912e-3e2ac3647837","ios":"levelo://app?vid=6ff86665-98df-424c-912e-3e2ac3647837"},"vehicle_type_id":"4","last_reported":1700679953,"current_range_meters":4000,"station_id":"ce4bgvh2rcd13ifvqcs0","pricing_plan_id":"free"},{"bike_id":"4c691cd6-110d-4ce6-bd61-e48e68581c74","system_id":"levelo_inurba_marseille","lat":43.286961,"lon":5.373785,"is_reserved":false,"is_disabled":false,"rental_uris":{"android":"levelo://app?vid=4c691cd6-110d-4ce6-bd61-e48e68581c74","ios":"levelo://app?vid=4c691cd6-110d-4ce6-bd61-e48e68581c74"},"vehicle_type_id":"4","last_reported":1700679953,"current_range_meters":13200,"station_id":"ce4bh3p2rcd13ifvqdq0","pricing_plan_id":"free"},{"bike_id":"8eeeaeb4-9f22-409c-9d05-a3303c699890","system_id":"levelo_inurba_marseille","lat":43.29873,"lon":5.39729,"is_reserved":false,"is_disabled":false,"rental_uris":{"android":"levelo://app?vid=8eeeaeb4-9f22-409c-9d05-a3303c699890","ios":"levelo://app?vid=8eeeaeb4-9f22-409c-9d05-a3303c699890"},"vehicle_type_id":"4","last_reported":1700679953,"current_range_meters":16800,"station_id":"ce4bh0h2rcd13ifvqd50","pricing_plan_id":"free"},{"bike_id":"5fca4b11-864f-4906-8b97-f34b420d51d6","system_id":"levelo_inurba_marseille","lat":43.298681,"lon":5.397225,"is_reserved":false,"is_disabled":false,"rental_uris":{"android":"levelo://app?vid=5fca4b11-864f-4906-8b97-f34b420d51d6","ios":"levelo://app?vid=5fca4b11-864f-4906-8b97-f34b420d51d6"},"vehicle_type_id":"4","last_reported":1700679953,"current_range_meters":12800,"station_id":"ce4bh0h2rcd13ifvqd50","pricing_plan_id":"free"},{"bike_id":"6d11d68f-d078-470b-90f4-b451168a3ece","system_id":"levelo_inurba_marseille","lat":43.286593,"lon":5.363346,"is_reserved":false,"is_disabled":false,"rental_uris":{"android":"levelo://app?vid=6d11d68f-d078-470b-90f4-b451168a3ece","ios":"levelo://app?vid=6d11d68f-d078-470b-90f4-b451168a3ece"},"vehicle_type_id":"4","last_reported":1700679953,"current_range_meters":11600,"station_id":"ce4bhah2rcd13ifvqej0","pricing_plan_id":"free"},{"bike_id":"7d10fc39-36b8-430c-b9a6-0c4831fecf1d","system_id":"levelo_inurba_marseille","lat":43.286961,"lon":5.373785,"is_reserved":false,"is_disabled":false,"rental_uris":{"android":"levelo://app?vid=7d10fc39-36b8-430c-b9a6-0c4831fecf1d","ios":"levelo://app?vid=7d10fc39-36b8-430c-b9a6-0c4831fecf1d"},"vehicle_type_id":"4","last_reported":1700679953,"current_range_meters":15200,"station_id":"ce4bh3p2rcd13ifvqdq0","pricing_plan_id":"free"},{"bike_id":"fa8ce4ab-1997-4a66-9b7a-086a1a96c4e6","system_id":"levelo_inurba_marseille","lat":43.286961,"lon":5.373785,"is_reserved":false,"is_disabled":false,"rental_uris":{"android":"levelo://app?vid=fa8ce4ab-1997-4a66-9b7a-086a1a96c4e6","ios":"levelo://app?vid=fa8ce4ab-1997-4a66-9b7a-086a1a96c4e6"},"vehicle_type_id":"4","last_reported":1700679953,"current_range_meters":6800,"station_id":"ce4bh3p2rcd13ifvqdq0","pricing_plan_id":"free"},{"bike_id":"c894010b-e7c9-4e62-92bd-8934043cf5cc","system_id":"levelo_inurba_marseille","lat":43.28697,"lon":5.37378,"is_reserved":false,"is_disabled":false,"rental_uris":{"android":"levelo://app?vid=c894010b-e7c9-4e62-92bd-8934043cf5cc","ios":"levelo://app?vid=c894010b-e7c9-4e62-92bd-8934043cf5cc"},"vehicle_type_id":"4","last_reported":1700679953,"current_range_meters":6800,"station_id":"ce4bh3p2rcd13ifvqdq0","pricing_plan_id":"free"},{"bike_id":"156de043-ac79-41b0-8d4a-9a41079cb846","system_id":"levelo_inurba_marseille","lat":43.295194,"lon":5.39397,"is_reserved":false,"is_disabled":false,"rental_uris":{"android":"levelo://app?vid=156de043-ac79-41b0-8d4a-9a41079cb846","ios":"levelo://app?vid=156de043-ac79-41b0-8d4a-9a41079cb846"},"vehicle_type_id":"4","last_reported":1700679953,"current_range_meters":6400,"station_id":"ce4bh292rcd13ifvqdf0","pricing_plan_id":"free"},{"bike_id":"c250f602-5822-4311-a2cc-5ff9777de432","system_id":"levelo_inurba_marseille","lat":43.30242,"lon":5.40035,"is_reserved":false,"is_disabled":false,"rental_uris":{"android":"levelo://app?vid=c250f602-5822-4311-a2cc-5ff9777de432","ios":"levelo://app?vid=c250f602-5822-4311-a2cc-5ff9777de432"},"vehicle_type_id":"4","last_reported":1700679953,"current_range_meters":0,"station_id":"ce4bgvh2rcd13ifvqcs0","pricing_plan_id":"free"},{"bike_id":"642592e6-b2c6-4004-ad11-a43c92582112","system_id":"levelo_inurba_marseille","lat":43.2905,"lon":5.38668,"is_reserved":false,"is_disabled":false,"rental_uris":{"android":"levelo://app?vid=642592e6-b2c6-4004-ad11-a43c92582112","ios":"levelo://app?vid=642592e6-b2c6-4004-ad11-a43c92582112"},"vehicle_type_id":"4","last_reported":1700679953,"current_range_meters":1200,"station_id":"ce4bh4p2rcd13ifvqe0g","pricing_plan_id":"free"},{"bike_id":"a067d3c3-a55e-4f12-89f3-189d8e02a9d0","system_id":"levelo_inurba_marseille","lat":43.29029,"lon":5.38631,"is_reserved":false,"is_disabled":false,"rental_uris":{"android":"levelo://app?vid=a067d3c3-a55e-4f12-89f3-189d8e02a9d0","ios":"levelo://app?vid=a067d3c3-a55e-4f12-89f3-189d8e02a9d0"},"vehicle_type_id":"4","last_reported":1700679953,"current_range_meters":1600,"station_id":"ce4bh4p2rcd13ifvqe0g","pricing_plan_id":"free"},{"bike_id":"cf1f7f04-b4ee-4caa-82fb-381526253011","system_id":"levelo_inurba_marseille","lat":43.29029,"lon":5.38633,"is_reserved":false,"is_disabled":false,"rental_uris":{"android":"levelo://app?vid=cf1f7f04-b4ee-4caa-82fb-381526253011","ios":"levelo://app?vid=cf1f7f04-b4ee-4caa-82fb-381526253011"},"vehicle_type_id":"4","last_reported":1700679953,"current_range_meters":18800,"station_id":"ce4bh4p2rcd13ifvqe0g","pricing_plan_id":"free"},{"bike_id":"8a8f2da7-5a6d-4988-a158-6aee50f87a12","system_id":"levelo_inurba_marseille","lat":43.290267,"lon":5.386293,"is_reserved":false,"is_disabled":false,"rental_uris":{"android":"levelo://app?vid=8a8f2da7-5a6d-4988-a158-6aee50f87a12","ios":"levelo://app?vid=8a8f2da7-5a6d-4988-a158-6aee50f87a12"},"vehicle_type_id":"4","last_reported":1700679953,"current_range_meters":31200,"station_id":"ce4bh4p2rcd13ifvqe0g","pricing_plan_id":"free"},{"bike_id":"ded4d183-1813-4d7a-a874-6f93de7f277e","system_id":"levelo_inurba_marseille","lat":43.29026,"lon":5.38643,"is_reserved":false,"is_disabled":false,"rental_uris":{"android":"levelo://app?vid=ded4d183-1813-4d7a-a874-6f93de7f277e","ios":"levelo://app?vid=ded4d183-1813-4d7a-a874-6f93de7f277e"},"vehicle_type_id":"4","last_reported":1700679953,"current_range_meters":10800,"station_id":"","pricing_plan_id":"free"},{"bike_id":"65546452-2c70-4ec6-bb34-a246e2f164d0","system_id":"levelo_inurba_marseille","lat":43.286039,"lon":5.370679,"is_reserved":false,"is_disabled":false,"rental_uris":{"android":"levelo://app?vid=65546452-2c70-4ec6-bb34-a246e2f164d0","ios":"levelo://app?vid=65546452-2c70-4ec6-bb34-a246e2f164d0"},"vehicle_type_id":"4","last_reported":1700679953,"current_range_meters":19600,"station_id":"ce4bht12rcd13ifvqi60","pricing_plan_id":"free"},{"bike_id":"b970b005-213c-4863-85c8-7a2abdbb5049","system_id":"levelo_inurba_marseille","lat":43.287184,"lon":5.37937,"is_reserved":false,"is_disabled":false,"rental_uris":{"android":"levelo://app?vid=b970b005-213c-4863-85c8-7a2abdbb5049","ios":"levelo://app?vid=b970b005-213c-4863-85c8-7a2abdbb5049"},"vehicle_type_id":"4","last_reported":1700679953,"current_range_meters":2400,"station_id":"ce4bh9p2rcd13ifvqec0","pricing_plan_id":"free"},{"bike_id":"52e7a038-5200-4ced-bdda-a2778f71efa3","system_id":"levelo_inurba_marseille","lat":43.29204,"lon":5.39323,"is_reserved":false,"is_disabled":false,"rental_uris":{"android":"levelo://app?vid=52e7a038-5200-4ced-bdda-a2778f71efa3","ios":"levelo://app?vid=52e7a038-5200-4ced-bdda-a2778f71efa3"},"vehicle_type_id":"4","last_reported":1700679953,"current_range_meters":9600,"station_id":"ce4bh192rcd13ifvqdd0","pricing_plan_id":"free"},{"bike_id":"2dc42ff3-4c7c-4f6f-85b3-d23e07229c2b","system_id":"levelo_inurba_marseille","lat":43.291994,"lon":5.392907,"is_reserved":false,"is_disabled":false,"rental_uris":{"android":"levelo://app?vid=2dc42ff3-4c7c-4f6f-85b3-d23e07229c2b","ios":"levelo://app?vid=2dc42ff3-4c7c-4f6f-85b3-d23e07229c2b"},"vehicle_type_id":"4","last_reported":1700679953,"current_range_meters":5200,"station_id":"ce4bh192rcd13ifvqdd0","pricing_plan_id":"free"},{"bike_id":"8c4d2160-240a-47d3-928a-56e9092f08bd","system_id":"levelo_inurba_marseille","lat":43.288726,"lon":5.387828,"is_reserved":false,"is_disabled":false,"rental_uris":{"android":"levelo://app?vid=8c4d2160-240a-47d3-928a-56e9092f08bd","ios":"levelo://app?vid=8c4d2160-240a-47d3-928a-56e9092f08bd"},"vehicle_type_id":"4","last_reported":1700679953,"current_range_meters":0,"station_id":"","pricing_plan_id":"free"},{"bike_id":"2a0cfbcd-c06a-458e-aee9-b1170c30b910","system_id":"levelo_inurba_marseille","lat":43.28465,"lon":5.35878,"is_reserved":false,"is_disabled":false,"rental_uris":{"android":"levelo://app?vid=2a0cfbcd-c06a-458e-aee9-b1170c30b910","ios":"levelo://app?vid=2a0cfbcd-c06a-458e-aee9-b1170c30b910"},"vehicle_type_id":"4","last_reported":1700679953,"current_range_meters":0,"station_id":"ce4bhah2rcd13ifvqei0","pricing_plan_id":"free"},{"bike_id":"adbd441f-44c4-4168-877a-9278b4bd7ceb","system_id":"levelo_inurba_marseille","lat":43.33107,"lon":5.3973,"is_reserved":false,"is_disabled":false,"rental_uris":{"android":"levelo://app?vid=adbd441f-44c4-4168-877a-9278b4bd7ceb","ios":"levelo://app?vid=adbd441f-44c4-4168-877a-9278b4bd7ceb"},"vehicle_type_id":"4","last_reported":1700679953,"current_range_meters":18000,"station_id":"","pricing_plan_id":"free"},{"bike_id":"371fb8b7-e5f8-4148-a81e-c9f7068b780c","system_id":"levelo_inurba_marseille","lat":43.284538,"lon":5.358657,"is_reserved":false,"is_disabled":false,"rental_uris":{"android":"levelo://app?vid=371fb8b7-e5f8-4148-a81e-c9f7068b780c","ios":"levelo://app?vid=371fb8b7-e5f8-4148-a81e-c9f7068b780c"},"vehicle_type_id":"4","last_reported":1700679953,"current_range_meters":10000,"station_id":"ce4bhah2rcd13ifvqei0","pricing_plan_id":"free"},{"bike_id":"895e882a-29c1-4da1-b95f-34cd08eb9516","system_id":"levelo_inurba_marseille","lat":43.284538,"lon":5.358657,"is_reserved":false,"is_disabled":false,"rental_uris":{"android":"levelo://app?vid=895e882a-29c1-4da1-b95f-34cd08eb9516","ios":"levelo://app?vid=895e882a-29c1-4da1-b95f-34cd08eb9516"},"vehicle_type_id":"4","last_reported":1700679953,"current_range_meters":7200,"station_id":"ce4bhah2rcd13ifvqei0","pricing_plan_id":"free"},{"bike_id":"d2604030-81b2-431c-ab42-4a9c0c2e1bb8","system_id":"levelo_inurba_marseille","lat":43.28459,"lon":5.35885,"is_reserved":false,"is_disabled":false,"rental_uris":{"android":"levelo://app?vid=d2604030-81b2-431c-ab42-4a9c0c2e1bb8","ios":"levelo://app?vid=d2604030-81b2-431c-ab42-4a9c0c2e1bb8"},"vehicle_type_id":"4","last_reported":1700679953,"current_range_meters":20000,"station_id":"ce4bhah2rcd13ifvqei0","pricing_plan_id":"free"},{"bike_id":"56d6debf-811c-4307-85e9-47f4393ae7fd","system_id":"levelo_inurba_marseille","lat":43.28458,"lon":5.35883,"is_reserved":false,"is_disabled":false,"rental_uris":{"android":"levelo://app?vid=56d6debf-811c-4307-85e9-47f4393ae7fd","ios":"levelo://app?vid=56d6debf-811c-4307-85e9-47f4393ae7fd"},"vehicle_type_id":"4","last_reported":1700679953,"current_range_meters":3200,"station_id":"ce4bhah2rcd13ifvqei0","pricing_plan_id":"free"},{"bike_id":"c5c09a91-d33b-4c9a-9721-d9be13c4d5f2","system_id":"levelo_inurba_marseille","lat":43.284538,"lon":5.358657,"is_reserved":false,"is_disabled":false,"rental_uris":{"android":"levelo://app?vid=c5c09a91-d33b-4c9a-9721-d9be13c4d5f2","ios":"levelo://app?vid=c5c09a91-d33b-4c9a-9721-d9be13c4d5f2"},"vehicle_type_id":"4","last_reported":1700679953,"current_range_meters":23200,"station_id":"ce4bhah2rcd13ifvqei0","pricing_plan_id":"free"},{"bike_id":"f8665ee8-6f05-4532-aab2-1a115767b5c2","system_id":"levelo_inurba_marseille","lat":43.28457,"lon":5.35886,"is_reserved":false,"is_disabled":false,"rental_uris":{"android":"levelo://app?vid=f8665ee8-6f05-4532-aab2-1a115767b5c2","ios":"levelo://app?vid=f8665ee8-6f05-4532-aab2-1a115767b5c2"},"vehicle_type_id":"4","last_reported":1700679953,"current_range_meters":18400,"station_id":"ce4bhah2rcd13ifvqei0","pricing_plan_id":"free"},{"bike_id":"5f8e9bae-ac57-4e1a-a8fc-5ef92cd7dcbe","system_id":"levelo_inurba_marseille","lat":43.294314,"lon":5.397498,"is_reserved":false,"is_disabled":false,"rental_uris":{"android":"levelo://app?vid=5f8e9bae-ac57-4e1a-a8fc-5ef92cd7dcbe","ios":"levelo://app?vid=5f8e9bae-ac57-4e1a-a8fc-5ef92cd7dcbe"},"vehicle_type_id":"4","last_reported":1700679953,"current_range_meters":800,"station_id":"ce4bh3h2rcd13ifvqdo0","pricing_plan_id":"free"},{"bike_id":"06a4b634-1eb0-4471-8438-fc445e4cac5e","system_id":"levelo_inurba_marseille","lat":43.28455,"lon":5.35886,"is_reserved":false,"is_disabled":false,"rental_uris":{"android":"levelo://app?vid=06a4b634-1eb0-4471-8438-fc445e4cac5e","ios":"levelo://app?vid=06a4b634-1eb0-4471-8438-fc445e4cac5e"},"vehicle_type_id":"4","last_reported":1700679953,"current_range_meters":10800,"station_id":"ce4bhah2rcd13ifvqei0","pricing_plan_id":"free"},{"bike_id":"6806a58a-5a16-45a3-867e-0d4eda75005f","system_id":"levelo_inurba_marseille","lat":43.285848,"lon":5.350787,"is_reserved":false,"is_disabled":false,"rental_uris":{"android":"levelo://app?vid=6806a58a-5a16-45a3-867e-0d4eda75005f","ios":"levelo://app?vid=6806a58a-5a16-45a3-867e-0d4eda75005f"},"vehicle_type_id":"4","last_reported":1700679953,"current_range_meters":0,"station_id":"ce4bhch2rcd13ifvqeug","pricing_plan_id":"free"},{"bike_id":"30c5a8f0-2d73-444d-be65-776ebd8122a8","system_id":"levelo_inurba_marseille","lat":43.315716,"lon":5.406631,"is_reserved":false,"is_disabled":false,"rental_uris":{"android":"levelo://app?vid=30c5a8f0-2d73-444d-be65-776ebd8122a8","ios":"levelo://app?vid=30c5a8f0-2d73-444d-be65-776ebd8122a8"},"vehicle_type_id":"4","last_reported":1700679953,"current_range_meters":6000,"station_id":"","pricing_plan_id":"free"},{"bike_id":"1ed0edd0-8c29-4625-bedc-c41650955f5a","system_id":"levelo_inurba_marseille","lat":43.28481,"lon":5.377987,"is_reserved":false,"is_disabled":false,"rental_uris":{"android":"levelo://app?vid=1ed0edd0-8c29-4625-bedc-c41650955f5a","ios":"levelo://app?vid=1ed0edd0-8c29-4625-bedc-c41650955f5a"},"vehicle_type_id":"4","last_reported":1700679953,"current_range_meters":25200,"station_id":"","pricing_plan_id":"free"},{"bike_id":"63b532a2-28dc-4ea0-9455-99fd004a9924","system_id":"levelo_inurba_marseille","lat":43.283998,"lon":5.375062,"is_reserved":false,"is_disabled":false,"rental_uris":{"android":"levelo://app?vid=63b532a2-28dc-4ea0-9455-99fd004a9924","ios":"levelo://app?vid=63b532a2-28dc-4ea0-9455-99fd004a9924"},"vehicle_type_id":"4","last_reported":1700679953,"current_range_meters":2000,"station_id":"ce4bh412rcd13ifvqds0","pricing_plan_id":"free"},{"bike_id":"2ba53029-0682-4299-905f-eb31543f32d9","system_id":"levelo_inurba_marseille","lat":43.283998,"lon":5.375062,"is_reserved":false,"is_disabled":false,"rental_uris":{"android":"levelo://app?vid=2ba53029-0682-4299-905f-eb31543f32d9","ios":"levelo://app?vid=2ba53029-0682-4299-905f-eb31543f32d9"},"vehicle_type_id":"4","last_reported":1700679953,"current_range_meters":6800,"station_id":"ce4bh412rcd13ifvqds0","pricing_plan_id":"free"},{"bike_id":"76688d86-909b-41a5-bfcb-c81260f06331","system_id":"levelo_inurba_marseille","lat":43.28415,"lon":5.37515,"is_reserved":false,"is_disabled":false,"rental_uris":{"android":"levelo://app?vid=76688d86-909b-41a5-bfcb-c81260f06331","ios":"levelo://app?vid=76688d86-909b-41a5-bfcb-c81260f06331"},"vehicle_type_id":"4","last_reported":1700679953,"current_range_meters":0,"station_id":"ce4bh412rcd13ifvqds0","pricing_plan_id":"free"},{"bike_id":"9834877d-303e-4669-b0da-cbcfd3d0db0c","system_id":"levelo_inurba_marseille","lat":43.319179,"lon":5.407725,"is_reserved":false,"is_disabled":false,"rental_uris":{"android":"levelo://app?vid=9834877d-303e-4669-b0da-cbcfd3d0db0c","ios":"levelo://app?vid=9834877d-303e-4669-b0da-cbcfd3d0db0c"},"vehicle_type_id":"4","last_reported":1700679953,"current_range_meters":18400,"station_id":"ce4bhq12rcd13ifvqhig","pricing_plan_id":"free"},{"bike_id":"038d2dc0-b92e-4a9d-a159-7d447f682fa3","system_id":"levelo_inurba_marseille","lat":43.319179,"lon":5.407725,"is_reserved":false,"is_disabled":false,"rental_uris":{"android":"levelo://app?vid=038d2dc0-b92e-4a9d-a159-7d447f682fa3","ios":"levelo://app?vid=038d2dc0-b92e-4a9d-a159-7d447f682fa3"},"vehicle_type_id":"4","last_reported":1700679953,"current_range_meters":10000,"station_id":"ce4bhq12rcd13ifvqhig","pricing_plan_id":"free"},{"bike_id":"17bc1805-71cf-40cb-864b-fdf370f2073f","system_id":"levelo_inurba_marseille","lat":43.33717,"lon":5.391857,"is_reserved":false,"is_disabled":false,"rental_uris":{"android":"levelo://app?vid=17bc1805-71cf-40cb-864b-fdf370f2073f","ios":"levelo://app?vid=17bc1805-71cf-40cb-864b-fdf370f2073f"},"vehicle_type_id":"4","last_reported":1700679953,"current_range_meters":29200,"station_id":"ce4bhr92rcd13ifvqhsg","pricing_plan_id":"free"},{"bike_id":"adc07d78-c7cb-40c9-9793-76250f57cddb","system_id":"levelo_inurba_marseille","lat":43.28467,"lon":5.38409,"is_reserved":false,"is_disabled":false,"rental_uris":{"android":"levelo://app?vid=adc07d78-c7cb-40c9-9793-76250f57cddb","ios":"levelo://app?vid=adc07d78-c7cb-40c9-9793-76250f57cddb"},"vehicle_type_id":"4","last_reported":1700679953,"current_range_meters":1200,"station_id":"ce4bh512rcd13ifvqe3g","pricing_plan_id":"free"},{"bike_id":"7d33d422-46e1-4790-a7ba-964ee946ec60","system_id":"levelo_inurba_marseille","lat":43.297946,"lon":5.404063,"is_reserved":false,"is_disabled":false,"rental_uris":{"android":"levelo://app?vid=7d33d422-46e1-4790-a7ba-964ee946ec60","ios":"levelo://app?vid=7d33d422-46e1-4790-a7ba-964ee946ec60"},"vehicle_type_id":"4","last_reported":1700679953,"current_range_meters":15200,"station_id":"ce4bh112rcd13ifvqd90","pricing_plan_id":"free"},{"bike_id":"09da8fdb-6cc6-45c6-af96-0a4be75fe5a4","system_id":"levelo_inurba_marseille","lat":43.288501,"lon":5.393087,"is_reserved":false,"is_disabled":false,"rental_uris":{"android":"levelo://app?vid=09da8fdb-6cc6-45c6-af96-0a4be75fe5a4","ios":"levelo://app?vid=09da8fdb-6cc6-45c6-af96-0a4be75fe5a4"},"vehicle_type_id":"4","last_reported":1700679953,"current_range_meters":4800,"station_id":"ce4bh2p2rcd13ifvqdi0","pricing_plan_id":"free"},{"bike_id":"d9f73309-a7f2-4626-a441-71e6e75102a5","system_id":"levelo_inurba_marseille","lat":43.283498,"lon":5.380948,"is_reserved":false,"is_disabled":false,"rental_uris":{"android":"levelo://app?vid=d9f73309-a7f2-4626-a441-71e6e75102a5","ios":"levelo://app?vid=d9f73309-a7f2-4626-a441-71e6e75102a5"},"vehicle_type_id":"4","last_reported":1700679953,"current_range_meters":27200,"station_id":"ce4bh412rcd13ifvqdr0","pricing_plan_id":"free"},{"bike_id":"06fd65d2-68d8-40ad-8501-da2eb76942be","system_id":"levelo_inurba_marseille","lat":43.283494,"lon":5.380945,"is_reserved":false,"is_disabled":false,"rental_uris":{"android":"levelo://app?vid=06fd65d2-68d8-40ad-8501-da2eb76942be","ios":"levelo://app?vid=06fd65d2-68d8-40ad-8501-da2eb76942be"},"vehicle_type_id":"4","last_reported":1700679953,"current_range_meters":5600,"station_id":"ce4bh412rcd13ifvqdr0","pricing_plan_id":"free"},{"bike_id":"18348b1e-7b2a-4999-abc3-75c57dc5db89","system_id":"levelo_inurba_marseille","lat":43.283494,"lon":5.380945,"is_reserved":false,"is_disabled":false,"rental_uris":{"android":"levelo://app?vid=18348b1e-7b2a-4999-abc3-75c57dc5db89","ios":"levelo://app?vid=18348b1e-7b2a-4999-abc3-75c57dc5db89"},"vehicle_type_id":"4","last_reported":1700679953,"current_range_meters":28800,"station_id":"ce4bh412rcd13ifvqdr0","pricing_plan_id":"free"},{"bike_id":"640ae025-72cc-4685-b689-f16560527ea3","system_id":"levelo_inurba_marseille","lat":43.28341,"lon":5.38106,"is_reserved":false,"is_disabled":false,"rental_uris":{"android":"levelo://app?vid=640ae025-72cc-4685-b689-f16560527ea3","ios":"levelo://app?vid=640ae025-72cc-4685-b689-f16560527ea3"},"vehicle_type_id":"4","last_reported":1700679953,"current_range_meters":0,"station_id":"ce4bh412rcd13ifvqdr0","pricing_plan_id":"free"},{"bike_id":"e2284003-4e46-4e0a-93e7-73d05c3666d9","system_id":"levelo_inurba_marseille","lat":43.33495,"lon":5.398,"is_reserved":false,"is_disabled":false,"rental_uris":{"android":"levelo://app?vid=e2284003-4e46-4e0a-93e7-73d05c3666d9","ios":"levelo://app?vid=e2284003-4e46-4e0a-93e7-73d05c3666d9"},"vehicle_type_id":"4","last_reported":1700679953,"current_range_meters":26400,"station_id":"","pricing_plan_id":"free"},{"bike_id":"8d578348-7ff3-430c-b1c6-cdeb5b967d7f","system_id":"levelo_inurba_marseille","lat":43.282744,"lon":5.350533,"is_reserved":false,"is_disabled":false,"rental_uris":{"android":"levelo://app?vid=8d578348-7ff3-430c-b1c6-cdeb5b967d7f","ios":"levelo://app?vid=8d578348-7ff3-430c-b1c6-cdeb5b967d7f"},"vehicle_type_id":"4","last_reported":1700679953,"current_range_meters":5200,"station_id":"ce4bhbp2rcd13ifvqerg","pricing_plan_id":"free"},{"bike_id":"5398ddc5-5686-4ec8-8aca-70dc0677e901","system_id":"levelo_inurba_marseille","lat":43.280382,"lon":5.369291,"is_reserved":false,"is_disabled":false,"rental_uris":{"android":"levelo://app?vid=5398ddc5-5686-4ec8-8aca-70dc0677e901","ios":"levelo://app?vid=5398ddc5-5686-4ec8-8aca-70dc0677e901"},"vehicle_type_id":"4","last_reported":1700679953,"current_range_meters":2800,"station_id":"ce4bha12rcd13ifvqef0","pricing_plan_id":"free"},{"bike_id":"58dd8b7f-c3b6-4fdc-a59d-27ee3c08ad1b","system_id":"levelo_inurba_marseille","lat":43.290412,"lon":5.399633,"is_reserved":false,"is_disabled":false,"rental_uris":{"android":"levelo://app?vid=58dd8b7f-c3b6-4fdc-a59d-27ee3c08ad1b","ios":"levelo://app?vid=58dd8b7f-c3b6-4fdc-a59d-27ee3c08ad1b"},"vehicle_type_id":"4","last_reported":1700679953,"current_range_meters":6800,"station_id":"ce4bh392rcd13ifvqdm0","pricing_plan_id":"free"},{"bike_id":"db7c3cc4-2f62-402f-8cd8-1c434b626476","system_id":"levelo_inurba_marseille","lat":43.28099,"lon":5.37835,"is_reserved":false,"is_disabled":false,"rental_uris":{"android":"levelo://app?vid=db7c3cc4-2f62-402f-8cd8-1c434b626476","ios":"levelo://app?vid=db7c3cc4-2f62-402f-8cd8-1c434b626476"},"vehicle_type_id":"4","last_reported":1700679953,"current_range_meters":0,"station_id":"ce4bha12rcd13ifvqee0","pricing_plan_id":"free"},{"bike_id":"18f480b3-39f9-4a4d-a3b6-ec3e6247d326","system_id":"levelo_inurba_marseille","lat":43.296263,"lon":5.40601,"is_reserved":false,"is_disabled":false,"rental_uris":{"android":"levelo://app?vid=18f480b3-39f9-4a4d-a3b6-ec3e6247d326","ios":"levelo://app?vid=18f480b3-39f9-4a4d-a3b6-ec3e6247d326"},"vehicle_type_id":"4","last_reported":1700679953,"current_range_meters":26800,"station_id":"ce4bh0h2rcd13ifvqd60","pricing_plan_id":"free"},{"bike_id":"0bc0313d-f3bc-43cd-8258-c55a30e4b52e","system_id":"levelo_inurba_marseille","lat":43.284462,"lon":5.392121,"is_reserved":false,"is_disabled":false,"rental_uris":{"android":"levelo://app?vid=0bc0313d-f3bc-43cd-8258-c55a30e4b52e","ios":"levelo://app?vid=0bc0313d-f3bc-43cd-8258-c55a30e4b52e"},"vehicle_type_id":"4","last_reported":1700679953,"current_range_meters":6800,"station_id":"ce4bhoh2rcd13ifvqh5g","pricing_plan_id":"free"},{"bike_id":"6e2c2465-4e40-4aae-912b-ca1fbcdf1978","system_id":"levelo_inurba_marseille","lat":43.325029,"lon":5.41114,"is_reserved":false,"is_disabled":false,"rental_uris":{"android":"levelo://app?vid=6e2c2465-4e40-4aae-912b-ca1fbcdf1978","ios":"levelo://app?vid=6e2c2465-4e40-4aae-912b-ca1fbcdf1978"},"vehicle_type_id":"4","last_reported":1700679953,"current_range_meters":0,"station_id":"","pricing_plan_id":"free"},{"bike_id":"516abf31-b8d8-44ad-8812-55812f70ae63","system_id":"levelo_inurba_marseille","lat":43.304188,"lon":5.412904,"is_reserved":false,"is_disabled":false,"rental_uris":{"android":"levelo://app?vid=516abf31-b8d8-44ad-8812-55812f70ae63","ios":"levelo://app?vid=516abf31-b8d8-44ad-8812-55812f70ae63"},"vehicle_type_id":"4","last_reported":1700679953,"current_range_meters":26800,"station_id":"ce4bhop2rcd13ifvqh8g","pricing_plan_id":"free"},{"bike_id":"6b323a5c-e6c0-4ae8-90a7-fca3b91425ae","system_id":"levelo_inurba_marseille","lat":43.30414,"lon":5.41285,"is_reserved":false,"is_disabled":false,"rental_uris":{"android":"levelo://app?vid=6b323a5c-e6c0-4ae8-90a7-fca3b91425ae","ios":"levelo://app?vid=6b323a5c-e6c0-4ae8-90a7-fca3b91425ae"},"vehicle_type_id":"4","last_reported":1700679953,"current_range_meters":27600,"station_id":"","pricing_plan_id":"free"},{"bike_id":"e3f8cea7-1d3e-4cf2-8d2f-344b87933d01","system_id":"levelo_inurba_marseille","lat":43.28699,"lon":5.39981,"is_reserved":false,"is_disabled":false,"rental_uris":{"android":"levelo://app?vid=e3f8cea7-1d3e-4cf2-8d2f-344b87933d01","ios":"levelo://app?vid=e3f8cea7-1d3e-4cf2-8d2f-344b87933d01"},"vehicle_type_id":"4","last_reported":1700679953,"current_range_meters":18400,"station_id":"ce4bho92rcd13ifvqh3g","pricing_plan_id":"free"},{"bike_id":"298a1381-7144-4c18-992c-5a0cdd8d2e34","system_id":"levelo_inurba_marseille","lat":43.299579,"lon":5.413255,"is_reserved":false,"is_disabled":false,"rental_uris":{"android":"levelo://app?vid=298a1381-7144-4c18-992c-5a0cdd8d2e34","ios":"levelo://app?vid=298a1381-7144-4c18-992c-5a0cdd8d2e34"},"vehicle_type_id":"4","last_reported":1700679953,"current_range_meters":26800,"station_id":"ce4bhp12rcd13ifvqh9g","pricing_plan_id":"free"},{"bike_id":"c27e8796-c3d3-4534-a76f-73c53b9539f5","system_id":"levelo_inurba_marseille","lat":43.27968,"lon":5.38729,"is_reserved":false,"is_disabled":false,"rental_uris":{"android":"levelo://app?vid=c27e8796-c3d3-4534-a76f-73c53b9539f5","ios":"levelo://app?vid=c27e8796-c3d3-4534-a76f-73c53b9539f5"},"vehicle_type_id":"4","last_reported":1700679953,"current_range_meters":0,"station_id":"","pricing_plan_id":"free"},{"bike_id":"cf7c6503-d761-4e4a-b826-f55f74848caf","system_id":"levelo_inurba_marseille","lat":43.34879,"lon":5.3751,"is_reserved":false,"is_disabled":false,"rental_uris":{"android":"levelo://app?vid=cf7c6503-d761-4e4a-b826-f55f74848caf","ios":"levelo://app?vid=cf7c6503-d761-4e4a-b826-f55f74848caf"},"vehicle_type_id":"4","last_reported":1700679953,"current_range_meters":4800,"station_id":"","pricing_plan_id":"free"},{"bike_id":"d6f9ea39-1d05-424a-860c-36284656e070","system_id":"levelo_inurba_marseille","lat":43.292571,"lon":5.409107,"is_reserved":false,"is_disabled":false,"rental_uris":{"android":"levelo://app?vid=d6f9ea39-1d05-424a-860c-36284656e070","ios":"levelo://app?vid=d6f9ea39-1d05-424a-860c-36284656e070"},"vehicle_type_id":"4","last_reported":1700679953,"current_range_meters":0,"station_id":"ce4bh192rcd13ifvqdc0","pricing_plan_id":"free"},{"bike_id":"29da3a8e-216f-45a7-bf0f-519bf135cd87","system_id":"levelo_inurba_marseille","lat":43.292571,"lon":5.409107,"is_reserved":false,"is_disabled":false,"rental_uris":{"android":"levelo://app?vid=29da3a8e-216f-45a7-bf0f-519bf135cd87","ios":"levelo://app?vid=29da3a8e-216f-45a7-bf0f-519bf135cd87"},"vehicle_type_id":"4","last_reported":1700679953,"current_range_meters":12800,"station_id":"ce4bh192rcd13ifvqdc0","pricing_plan_id":"free"},{"bike_id":"006cff8e-71f8-4b40-9b23-256bb65e79b2","system_id":"levelo_inurba_marseille","lat":43.292571,"lon":5.409107,"is_reserved":false,"is_disabled":false,"rental_uris":{"android":"levelo://app?vid=006cff8e-71f8-4b40-9b23-256bb65e79b2","ios":"levelo://app?vid=006cff8e-71f8-4b40-9b23-256bb65e79b2"},"vehicle_type_id":"4","last_reported":1700679953,"current_range_meters":22800,"station_id":"ce4bh192rcd13ifvqdc0","pricing_plan_id":"free"},{"bike_id":"707a9357-d820-4f04-abee-3f37a2c89415","system_id":"levelo_inurba_marseille","lat":43.29256,"lon":5.40917,"is_reserved":false,"is_disabled":false,"rental_uris":{"android":"levelo://app?vid=707a9357-d820-4f04-abee-3f37a2c89415","ios":"levelo://app?vid=707a9357-d820-4f04-abee-3f37a2c89415"},"vehicle_type_id":"4","last_reported":1700679953,"current_range_meters":6800,"station_id":"ce4bh192rcd13ifvqdc0","pricing_plan_id":"free"},{"bike_id":"47f86c16-40e7-4b1f-b4e9-8e9ba5d52b48","system_id":"levelo_inurba_marseille","lat":43.27618,"lon":5.361009,"is_reserved":false,"is_disabled":false,"rental_uris":{"android":"levelo://app?vid=47f86c16-40e7-4b1f-b4e9-8e9ba5d52b48","ios":"levelo://app?vid=47f86c16-40e7-4b1f-b4e9-8e9ba5d52b48"},"vehicle_type_id":"4","last_reported":1700679953,"current_range_meters":0,"station_id":"ce4bgj92rcd13ifvqbe0","pricing_plan_id":"free"},{"bike_id":"9f459f72-5dee-4f82-ad6f-d6b5514faa2e","system_id":"levelo_inurba_marseille","lat":43.27618,"lon":5.361009,"is_reserved":false,"is_disabled":false,"rental_uris":{"android":"levelo://app?vid=9f459f72-5dee-4f82-ad6f-d6b5514faa2e","ios":"levelo://app?vid=9f459f72-5dee-4f82-ad6f-d6b5514faa2e"},"vehicle_type_id":"4","last_reported":1700679953,"current_range_meters":5200,"station_id":"ce4bgj92rcd13ifvqbe0","pricing_plan_id":"free"},{"bike_id":"99b7b3e2-fb47-4e03-b5b8-5bf5b8fd0d6c","system_id":"levelo_inurba_marseille","lat":43.293672,"lon":5.412641,"is_reserved":false,"is_disabled":false,"rental_uris":{"android":"levelo://app?vid=99b7b3e2-fb47-4e03-b5b8-5bf5b8fd0d6c","ios":"levelo://app?vid=99b7b3e2-fb47-4e03-b5b8-5bf5b8fd0d6c"},"vehicle_type_id":"4","last_reported":1700679953,"current_range_meters":0,"station_id":"","pricing_plan_id":"free"},{"bike_id":"2b5452c0-e2c9-4b71-a050-277746131afc","system_id":"levelo_inurba_marseille","lat":43.280905,"lon":5.396593,"is_reserved":false,"is_disabled":false,"rental_uris":{"android":"levelo://app?vid=2b5452c0-e2c9-4b71-a050-277746131afc","ios":"levelo://app?vid=2b5452c0-e2c9-4b71-a050-277746131afc"},"vehicle_type_id":"4","last_reported":1700679953,"current_range_meters":3600,"station_id":"ce4bho12rcd13ifvqh2g","pricing_plan_id":"free"},{"bike_id":"05ccb1b2-1ef6-479b-bd90-643a0164d87e","system_id":"levelo_inurba_marseille","lat":43.280784,"lon":5.396622,"is_reserved":false,"is_disabled":false,"rental_uris":{"android":"levelo://app?vid=05ccb1b2-1ef6-479b-bd90-643a0164d87e","ios":"levelo://app?vid=05ccb1b2-1ef6-479b-bd90-643a0164d87e"},"vehicle_type_id":"4","last_reported":1700679953,"current_range_meters":11200,"station_id":"ce4bho12rcd13ifvqh2g","pricing_plan_id":"free"},{"bike_id":"178db833-8ac2-4bcd-887b-29fbb0fcefbf","system_id":"levelo_inurba_marseille","lat":43.280784,"lon":5.396622,"is_reserved":false,"is_disabled":false,"rental_uris":{"android":"levelo://app?vid=178db833-8ac2-4bcd-887b-29fbb0fcefbf","ios":"levelo://app?vid=178db833-8ac2-4bcd-887b-29fbb0fcefbf"},"vehicle_type_id":"4","last_reported":1700679953,"current_range_meters":15200,"station_id":"ce4bho12rcd13ifvqh2g","pricing_plan_id":"free"},{"bike_id":"a18fdb5b-e208-4bb6-bcb4-76f22bac93fc","system_id":"levelo_inurba_marseille","lat":43.280784,"lon":5.396622,"is_reserved":false,"is_disabled":false,"rental_uris":{"android":"levelo://app?vid=a18fdb5b-e208-4bb6-bcb4-76f22bac93fc","ios":"levelo://app?vid=a18fdb5b-e208-4bb6-bcb4-76f22bac93fc"},"vehicle_type_id":"4","last_reported":1700679953,"current_range_meters":30800,"station_id":"ce4bho12rcd13ifvqh2g","pricing_plan_id":"free"},{"bike_id":"2de9d346-2d13-4886-9cf0-981f50b568a6","system_id":"levelo_inurba_marseille","lat":43.280784,"lon":5.396622,"is_reserved":false,"is_disabled":false,"rental_uris":{"android":"levelo://app?vid=2de9d346-2d13-4886-9cf0-981f50b568a6","ios":"levelo://app?vid=2de9d346-2d13-4886-9cf0-981f50b568a6"},"vehicle_type_id":"4","last_reported":1700679953,"current_range_meters":0,"station_id":"ce4bho12rcd13ifvqh2g","pricing_plan_id":"free"},{"bike_id":"0f5b72d9-5a11-408a-be96-166bc70e6018","system_id":"levelo_inurba_marseille","lat":43.280784,"lon":5.396622,"is_reserved":false,"is_disabled":false,"rental_uris":{"android":"levelo://app?vid=0f5b72d9-5a11-408a-be96-166bc70e6018","ios":"levelo://app?vid=0f5b72d9-5a11-408a-be96-166bc70e6018"},"vehicle_type_id":"4","last_reported":1700679953,"current_range_meters":20400,"station_id":"ce4bho12rcd13ifvqh2g","pricing_plan_id":"free"},{"bike_id":"c53273b3-7c87-46ec-8caf-e1784a65ad47","system_id":"levelo_inurba_marseille","lat":43.278401,"lon":5.392152,"is_reserved":false,"is_disabled":false,"rental_uris":{"android":"levelo://app?vid=c53273b3-7c87-46ec-8caf-e1784a65ad47","ios":"levelo://app?vid=c53273b3-7c87-46ec-8caf-e1784a65ad47"},"vehicle_type_id":"4","last_reported":1700679953,"current_range_meters":19600,"station_id":"ce4bhjp2rcd13ifvqga0","pricing_plan_id":"free"},{"bike_id":"7a554c0f-259f-423e-b5de-62c11a2e1e47","system_id":"levelo_inurba_marseille","lat":43.278401,"lon":5.392152,"is_reserved":false,"is_disabled":false,"rental_uris":{"android":"levelo://app?vid=7a554c0f-259f-423e-b5de-62c11a2e1e47","ios":"levelo://app?vid=7a554c0f-259f-423e-b5de-62c11a2e1e47"},"vehicle_type_id":"4","last_reported":1700679953,"current_range_meters":24400,"station_id":"ce4bhjp2rcd13ifvqga0","pricing_plan_id":"free"},{"bike_id":"a06346aa-4e6d-41a4-9dd0-74d13d1ecc2f","system_id":"levelo_inurba_marseille","lat":43.278392,"lon":5.392026,"is_reserved":false,"is_disabled":false,"rental_uris":{"android":"levelo://app?vid=a06346aa-4e6d-41a4-9dd0-74d13d1ecc2f","ios":"levelo://app?vid=a06346aa-4e6d-41a4-9dd0-74d13d1ecc2f"},"vehicle_type_id":"4","last_reported":1700679953,"current_range_meters":0,"station_id":"ce4bhjp2rcd13ifvqga0","pricing_plan_id":"free"},{"bike_id":"44b0fa31-0056-401c-963d-cdf4dcbada0f","system_id":"levelo_inurba_marseille","lat":43.27373,"lon":5.36256,"is_reserved":false,"is_disabled":false,"rental_uris":{"android":"levelo://app?vid=44b0fa31-0056-401c-963d-cdf4dcbada0f","ios":"levelo://app?vid=44b0fa31-0056-401c-963d-cdf4dcbada0f"},"vehicle_type_id":"4","last_reported":1700679953,"current_range_meters":0,"station_id":"ce4bhbh2rcd13ifvqeo0","pricing_plan_id":"free"},{"bike_id":"938d416e-f60f-4f33-9921-a142aa74a8f0","system_id":"levelo_inurba_marseille","lat":43.276769,"lon":5.388787,"is_reserved":false,"is_disabled":false,"rental_uris":{"android":"levelo://app?vid=938d416e-f60f-4f33-9921-a142aa74a8f0","ios":"levelo://app?vid=938d416e-f60f-4f33-9921-a142aa74a8f0"},"vehicle_type_id":"4","last_reported":1700679953,"current_range_meters":1200,"station_id":"ce4bhi12rcd13ifvqfo0","pricing_plan_id":"free"},{"bike_id":"8325d95a-ead6-428a-9e21-337134c1debd","system_id":"levelo_inurba_marseille","lat":43.276771,"lon":5.388799,"is_reserved":false,"is_disabled":false,"rental_uris":{"android":"levelo://app?vid=8325d95a-ead6-428a-9e21-337134c1debd","ios":"levelo://app?vid=8325d95a-ead6-428a-9e21-337134c1debd"},"vehicle_type_id":"4","last_reported":1700679953,"current_range_meters":26400,"station_id":"ce4bhi12rcd13ifvqfo0","pricing_plan_id":"free"},{"bike_id":"7aa0b987-2515-47e9-ab94-c9c1ebf36079","system_id":"levelo_inurba_marseille","lat":43.276653,"lon":5.389105,"is_reserved":false,"is_disabled":false,"rental_uris":{"android":"levelo://app?vid=7aa0b987-2515-47e9-ab94-c9c1ebf36079","ios":"levelo://app?vid=7aa0b987-2515-47e9-ab94-c9c1ebf36079"},"vehicle_type_id":"4","last_reported":1700679953,"current_range_meters":0,"station_id":"ce4bhi12rcd13ifvqfo0","pricing_plan_id":"free"},{"bike_id":"2996f450-c884-4ae7-9100-5bab1939f4ee","system_id":"levelo_inurba_marseille","lat":43.279952,"lon":5.400085,"is_reserved":false,"is_disabled":false,"rental_uris":{"android":"levelo://app?vid=2996f450-c884-4ae7-9100-5bab1939f4ee","ios":"levelo://app?vid=2996f450-c884-4ae7-9100-5bab1939f4ee"},"vehicle_type_id":"4","last_reported":1700679953,"current_range_meters":28800,"station_id":"ce4bho92rcd13ifvqh4g","pricing_plan_id":"free"},{"bike_id":"5bedefa6-344b-4f09-a320-d2084bba1f60","system_id":"levelo_inurba_marseille","lat":43.279952,"lon":5.400085,"is_reserved":false,"is_disabled":false,"rental_uris":{"android":"levelo://app?vid=5bedefa6-344b-4f09-a320-d2084bba1f60","ios":"levelo://app?vid=5bedefa6-344b-4f09-a320-d2084bba1f60"},"vehicle_type_id":"4","last_reported":1700679953,"current_range_meters":20000,"station_id":"ce4bho92rcd13ifvqh4g","pricing_plan_id":"free"},{"bike_id":"db8ea03a-9c40-4e29-afd6-c4237a63743a","system_id":"levelo_inurba_marseille","lat":43.317121,"lon":5.423936,"is_reserved":false,"is_disabled":false,"rental_uris":{"android":"levelo://app?vid=db8ea03a-9c40-4e29-afd6-c4237a63743a","ios":"levelo://app?vid=db8ea03a-9c40-4e29-afd6-c4237a63743a"},"vehicle_type_id":"4","last_reported":1700679953,"current_range_meters":26000,"station_id":"ce4bhp92rcd13ifvqhbg","pricing_plan_id":"free"},{"bike_id":"5f321a1b-d08c-4907-b690-043f1f6ff135","system_id":"levelo_inurba_marseille","lat":43.310785,"lon":5.424305,"is_reserved":false,"is_disabled":false,"rental_uris":{"android":"levelo://app?vid=5f321a1b-d08c-4907-b690-043f1f6ff135","ios":"levelo://app?vid=5f321a1b-d08c-4907-b690-043f1f6ff135"},"vehicle_type_id":"4","last_reported":1700679953,"current_range_meters":16800,"station_id":"ce4bhp92rcd13ifvqhag","pricing_plan_id":"free"},{"bike_id":"792985c1-457d-4713-afea-1214f2f84b8c","system_id":"levelo_inurba_marseille","lat":43.317121,"lon":5.423936,"is_reserved":false,"is_disabled":false,"rental_uris":{"android":"levelo://app?vid=792985c1-457d-4713-afea-1214f2f84b8c","ios":"levelo://app?vid=792985c1-457d-4713-afea-1214f2f84b8c"},"vehicle_type_id":"4","last_reported":1700679953,"current_range_meters":28400,"station_id":"ce4bhp92rcd13ifvqhbg","pricing_plan_id":"free"},{"bike_id":"6bf62a48-9b20-4504-889b-bab0f4a54171","system_id":"levelo_inurba_marseille","lat":43.274103,"lon":5.394016,"is_reserved":false,"is_disabled":false,"rental_uris":{"android":"levelo://app?vid=6bf62a48-9b20-4504-889b-bab0f4a54171","ios":"levelo://app?vid=6bf62a48-9b20-4504-889b-bab0f4a54171"},"vehicle_type_id":"4","last_reported":1700679953,"current_range_meters":10800,"station_id":"ce4bhdp2rcd13ifvqf20","pricing_plan_id":"free"},{"bike_id":"01517334-9445-4bce-b2bb-1b28cc850ef0","system_id":"levelo_inurba_marseille","lat":43.30414,"lon":5.42537,"is_reserved":false,"is_disabled":false,"rental_uris":{"android":"levelo://app?vid=01517334-9445-4bce-b2bb-1b28cc850ef0","ios":"levelo://app?vid=01517334-9445-4bce-b2bb-1b28cc850ef0"},"vehicle_type_id":"4","last_reported":1700679953,"current_range_meters":22000,"station_id":"ce4bhoh2rcd13ifvqh6g","pricing_plan_id":"free"},{"bike_id":"d0bb53f7-f1b8-4609-a668-27efdac67f66","system_id":"levelo_inurba_marseille","lat":43.27194,"lon":5.39243,"is_reserved":false,"is_disabled":false,"rental_uris":{"android":"levelo://app?vid=d0bb53f7-f1b8-4609-a668-27efdac67f66","ios":"levelo://app?vid=d0bb53f7-f1b8-4609-a668-27efdac67f66"},"vehicle_type_id":"4","last_reported":1700679953,"current_range_meters":0,"station_id":"","pricing_plan_id":"free"},{"bike_id":"6aae887c-ce73-443e-b98f-3433c1c2f2bd","system_id":"levelo_inurba_marseille","lat":43.270267,"lon":5.38808,"is_reserved":false,"is_disabled":false,"rental_uris":{"android":"levelo://app?vid=6aae887c-ce73-443e-b98f-3433c1c2f2bd","ios":"levelo://app?vid=6aae887c-ce73-443e-b98f-3433c1c2f2bd"},"vehicle_type_id":"4","last_reported":1700679953,"current_range_meters":0,"station_id":"","pricing_plan_id":"free"},{"bike_id":"e069526a-5383-4fc6-bdb3-9ee6376daeb9","system_id":"levelo_inurba_marseille","lat":43.270008,"lon":5.387705,"is_reserved":false,"is_disabled":false,"rental_uris":{"android":"levelo://app?vid=e069526a-5383-4fc6-bdb3-9ee6376daeb9","ios":"levelo://app?vid=e069526a-5383-4fc6-bdb3-9ee6376daeb9"},"vehicle_type_id":"4","last_reported":1700679953,"current_range_meters":0,"station_id":"","pricing_plan_id":"free"},{"bike_id":"12f6a6f3-da8f-4060-8557-e19545e67531","system_id":"levelo_inurba_marseille","lat":43.278075,"lon":5.407093,"is_reserved":false,"is_disabled":false,"rental_uris":{"android":"levelo://app?vid=12f6a6f3-da8f-4060-8557-e19545e67531","ios":"levelo://app?vid=12f6a6f3-da8f-4060-8557-e19545e67531"},"vehicle_type_id":"4","last_reported":1700679953,"current_range_meters":4000,"station_id":"","pricing_plan_id":"free"},{"bike_id":"0a7dc8c0-3adb-469a-ab48-486c1ff88964","system_id":"levelo_inurba_marseille","lat":43.269467,"lon":5.386439,"is_reserved":false,"is_disabled":false,"rental_uris":{"android":"levelo://app?vid=0a7dc8c0-3adb-469a-ab48-486c1ff88964","ios":"levelo://app?vid=0a7dc8c0-3adb-469a-ab48-486c1ff88964"},"vehicle_type_id":"4","last_reported":1700679953,"current_range_meters":11200,"station_id":"ce4bhh92rcd13ifvqfh0","pricing_plan_id":"free"},{"bike_id":"28e8ce00-6b21-4e06-9930-c7c4408cc650","system_id":"levelo_inurba_marseille","lat":43.326174,"lon":5.430584,"is_reserved":false,"is_disabled":false,"rental_uris":{"android":"levelo://app?vid=28e8ce00-6b21-4e06-9930-c7c4408cc650","ios":"levelo://app?vid=28e8ce00-6b21-4e06-9930-c7c4408cc650"},"vehicle_type_id":"4","last_reported":1700679953,"current_range_meters":5600,"station_id":"","pricing_plan_id":"free"},{"bike_id":"06fc4a47-ea3f-44a7-ab98-f7c809829350","system_id":"levelo_inurba_marseille","lat":43.27996,"lon":5.416624,"is_reserved":false,"is_disabled":false,"rental_uris":{"android":"levelo://app?vid=06fc4a47-ea3f-44a7-ab98-f7c809829350","ios":"levelo://app?vid=06fc4a47-ea3f-44a7-ab98-f7c809829350"},"vehicle_type_id":"4","last_reported":1700679953,"current_range_meters":800,"station_id":"ce4bho12rcd13ifvqh1g","pricing_plan_id":"free"},{"bike_id":"505a342a-e2c5-49f3-8a5b-871f4671d552","system_id":"levelo_inurba_marseille","lat":43.27996,"lon":5.416624,"is_reserved":false,"is_disabled":false,"rental_uris":{"android":"levelo://app?vid=505a342a-e2c5-49f3-8a5b-871f4671d552","ios":"levelo://app?vid=505a342a-e2c5-49f3-8a5b-871f4671d552"},"vehicle_type_id":"4","last_reported":1700679953,"current_range_meters":6000,"station_id":"ce4bho12rcd13ifvqh1g","pricing_plan_id":"free"},{"bike_id":"b97e0c6c-3676-4265-adc9-a4d74aa82215","system_id":"levelo_inurba_marseille","lat":43.265714,"lon":5.372891,"is_reserved":false,"is_disabled":false,"rental_uris":{"android":"levelo://app?vid=b97e0c6c-3676-4265-adc9-a4d74aa82215","ios":"levelo://app?vid=b97e0c6c-3676-4265-adc9-a4d74aa82215"},"vehicle_type_id":"4","last_reported":1700679953,"current_range_meters":3200,"station_id":"ce4bhg12rcd13ifvqf70","pricing_plan_id":"free"},{"bike_id":"2b5f0b27-ae58-4e9e-bd76-c585f78e8a73","system_id":"levelo_inurba_marseille","lat":43.26386,"lon":5.37454,"is_reserved":false,"is_disabled":false,"rental_uris":{"android":"levelo://app?vid=2b5f0b27-ae58-4e9e-bd76-c585f78e8a73","ios":"levelo://app?vid=2b5f0b27-ae58-4e9e-bd76-c585f78e8a73"},"vehicle_type_id":"4","last_reported":1700679953,"current_range_meters":21200,"station_id":"","pricing_plan_id":"free"},{"bike_id":"a81cb412-ddcc-42f7-9a97-ae7c79f5f305","system_id":"levelo_inurba_marseille","lat":43.26579,"lon":5.38981,"is_reserved":false,"is_disabled":false,"rental_uris":{"android":"levelo://app?vid=a81cb412-ddcc-42f7-9a97-ae7c79f5f305","ios":"levelo://app?vid=a81cb412-ddcc-42f7-9a97-ae7c79f5f305"},"vehicle_type_id":"4","last_reported":1700679953,"current_range_meters":0,"station_id":"ce4bhe12rcd13ifvqf30","pricing_plan_id":"free"},{"bike_id":"6aedb149-d3d4-474b-9c4a-6ec6a06e9250","system_id":"levelo_inurba_marseille","lat":43.30806,"lon":5.4353,"is_reserved":false,"is_disabled":false,"rental_uris":{"android":"levelo://app?vid=6aedb149-d3d4-474b-9c4a-6ec6a06e9250","ios":"levelo://app?vid=6aedb149-d3d4-474b-9c4a-6ec6a06e9250"},"vehicle_type_id":"4","last_reported":1700679953,"current_range_meters":0,"station_id":"ce4bhph2rcd13ifvqheg","pricing_plan_id":"free"},{"bike_id":"b4b3a5a5-4931-42ea-8a89-7d0795a1dcf4","system_id":"levelo_inurba_marseille","lat":43.26565,"lon":5.39,"is_reserved":false,"is_disabled":false,"rental_uris":{"android":"levelo://app?vid=b4b3a5a5-4931-42ea-8a89-7d0795a1dcf4","ios":"levelo://app?vid=b4b3a5a5-4931-42ea-8a89-7d0795a1dcf4"},"vehicle_type_id":"4","last_reported":1700679953,"current_range_meters":0,"station_id":"","pricing_plan_id":"free"},{"bike_id":"f390263b-ae7a-4e24-a823-85f77e8dc74e","system_id":"levelo_inurba_marseille","lat":43.265571,"lon":5.390032,"is_reserved":false,"is_disabled":false,"rental_uris":{"android":"levelo://app?vid=f390263b-ae7a-4e24-a823-85f77e8dc74e","ios":"levelo://app?vid=f390263b-ae7a-4e24-a823-85f77e8dc74e"},"vehicle_type_id":"4","last_reported":1700679953,"current_range_meters":30000,"station_id":"ce4bhe12rcd13ifvqf30","pricing_plan_id":"free"},{"bike_id":"5a647630-9d46-4948-8eb7-d34938842c87","system_id":"levelo_inurba_marseille","lat":43.261782,"lon":5.374515,"is_reserved":false,"is_disabled":false,"rental_uris":{"android":"levelo://app?vid=5a647630-9d46-4948-8eb7-d34938842c87","ios":"levelo://app?vid=5a647630-9d46-4948-8eb7-d34938842c87"},"vehicle_type_id":"4","last_reported":1700679953,"current_range_meters":0,"station_id":"ce4bhgp2rcd13ifvqfc0","pricing_plan_id":"free"},{"bike_id":"93f8aea7-4f55-43d8-a0c8-fdd0c7d1d042","system_id":"levelo_inurba_marseille","lat":43.317104,"lon":5.436818,"is_reserved":false,"is_disabled":false,"rental_uris":{"android":"levelo://app?vid=93f8aea7-4f55-43d8-a0c8-fdd0c7d1d042","ios":"levelo://app?vid=93f8aea7-4f55-43d8-a0c8-fdd0c7d1d042"},"vehicle_type_id":"4","last_reported":1700679953,"current_range_meters":3200,"station_id":"ce4bhp92rcd13ifvqhcg","pricing_plan_id":"free"},{"bike_id":"0c1ccddf-9be0-4743-8da5-6d7e78fc22ad","system_id":"levelo_inurba_marseille","lat":43.317104,"lon":5.436818,"is_reserved":false,"is_disabled":false,"rental_uris":{"android":"levelo://app?vid=0c1ccddf-9be0-4743-8da5-6d7e78fc22ad","ios":"levelo://app?vid=0c1ccddf-9be0-4743-8da5-6d7e78fc22ad"},"vehicle_type_id":"4","last_reported":1700679953,"current_range_meters":13600,"station_id":"ce4bhp92rcd13ifvqhcg","pricing_plan_id":"free"},{"bike_id":"71ffa7d3-d620-45b8-9dbb-33e536b5d410","system_id":"levelo_inurba_marseille","lat":43.271929,"lon":5.409978,"is_reserved":false,"is_disabled":false,"rental_uris":{"android":"levelo://app?vid=71ffa7d3-d620-45b8-9dbb-33e536b5d410","ios":"levelo://app?vid=71ffa7d3-d620-45b8-9dbb-33e536b5d410"},"vehicle_type_id":"4","last_reported":1700679953,"current_range_meters":12800,"station_id":"ce4bhl12rcd13ifvqgf0","pricing_plan_id":"free"},{"bike_id":"860103e4-b3a2-49bf-a852-14e4f54ff085","system_id":"levelo_inurba_marseille","lat":43.27178,"lon":5.40992,"is_reserved":false,"is_disabled":false,"rental_uris":{"android":"levelo://app?vid=860103e4-b3a2-49bf-a852-14e4f54ff085","ios":"levelo://app?vid=860103e4-b3a2-49bf-a852-14e4f54ff085"},"vehicle_type_id":"4","last_reported":1700679953,"current_range_meters":30000,"station_id":"ce4bhl12rcd13ifvqgf0","pricing_plan_id":"free"},{"bike_id":"706494c2-bff6-4d40-b9c6-00fc1282f490","system_id":"levelo_inurba_marseille","lat":43.26202,"lon":5.379299,"is_reserved":false,"is_disabled":false,"rental_uris":{"android":"levelo://app?vid=706494c2-bff6-4d40-b9c6-00fc1282f490","ios":"levelo://app?vid=706494c2-bff6-4d40-b9c6-00fc1282f490"},"vehicle_type_id":"4","last_reported":1700679953,"current_range_meters":14000,"station_id":"ce4bhjp2rcd13ifvqg90","pricing_plan_id":"free"},{"bike_id":"cb16d7ee-4d8d-44c4-bc7a-142b1234ab63","system_id":"levelo_inurba_marseille","lat":43.31725,"lon":5.43786,"is_reserved":false,"is_disabled":false,"rental_uris":{"android":"levelo://app?vid=cb16d7ee-4d8d-44c4-bc7a-142b1234ab63","ios":"levelo://app?vid=cb16d7ee-4d8d-44c4-bc7a-142b1234ab63"},"vehicle_type_id":"4","last_reported":1700679953,"current_range_meters":2000,"station_id":"","pricing_plan_id":"free"},{"bike_id":"cb70a0a7-a3ba-40be-8f5b-54253a525851","system_id":"levelo_inurba_marseille","lat":43.29901,"lon":5.436851,"is_reserved":false,"is_disabled":false,"rental_uris":{"android":"levelo://app?vid=cb70a0a7-a3ba-40be-8f5b-54253a525851","ios":"levelo://app?vid=cb70a0a7-a3ba-40be-8f5b-54253a525851"},"vehicle_type_id":"4","last_reported":1700679953,"current_range_meters":0,"station_id":"ce4bhpp2rcd13ifvqhfg","pricing_plan_id":"free"},{"bike_id":"a93721f0-0280-461d-bf5f-442b4a772902","system_id":"levelo_inurba_marseille","lat":43.281548,"lon":5.42643,"is_reserved":false,"is_disabled":false,"rental_uris":{"android":"levelo://app?vid=a93721f0-0280-461d-bf5f-442b4a772902","ios":"levelo://app?vid=a93721f0-0280-461d-bf5f-442b4a772902"},"vehicle_type_id":"4","last_reported":1700679953,"current_range_meters":3600,"station_id":"ce4bhnh2rcd13ifvqgug","pricing_plan_id":"free"},{"bike_id":"7802e522-7703-4531-b97b-21c53d0fb0f6","system_id":"levelo_inurba_marseille","lat":43.281548,"lon":5.42643,"is_reserved":false,"is_disabled":false,"rental_uris":{"android":"levelo://app?vid=7802e522-7703-4531-b97b-21c53d0fb0f6","ios":"levelo://app?vid=7802e522-7703-4531-b97b-21c53d0fb0f6"},"vehicle_type_id":"4","last_reported":1700679953,"current_range_meters":25600,"station_id":"ce4bhnh2rcd13ifvqgug","pricing_plan_id":"free"},{"bike_id":"32c305fb-49cd-4def-8098-02867fc1ff4f","system_id":"levelo_inurba_marseille","lat":43.28154,"lon":5.42641,"is_reserved":false,"is_disabled":false,"rental_uris":{"android":"levelo://app?vid=32c305fb-49cd-4def-8098-02867fc1ff4f","ios":"levelo://app?vid=32c305fb-49cd-4def-8098-02867fc1ff4f"},"vehicle_type_id":"4","last_reported":1700679953,"current_range_meters":27200,"station_id":"ce4bhnh2rcd13ifvqgug","pricing_plan_id":"free"},{"bike_id":"79407e75-2cf7-4446-a5b2-1c5fe1d8373c","system_id":"levelo_inurba_marseille","lat":43.281499,"lon":5.426396,"is_reserved":false,"is_disabled":false,"rental_uris":{"android":"levelo://app?vid=79407e75-2cf7-4446-a5b2-1c5fe1d8373c","ios":"levelo://app?vid=79407e75-2cf7-4446-a5b2-1c5fe1d8373c"},"vehicle_type_id":"4","last_reported":1700679953,"current_range_meters":24400,"station_id":"ce4bhnh2rcd13ifvqgug","pricing_plan_id":"free"},{"bike_id":"47eb7c73-b791-4d0b-bd3a-a2fa1b5b2b80","system_id":"levelo_inurba_marseille","lat":43.28155,"lon":5.42645,"is_reserved":false,"is_disabled":false,"rental_uris":{"android":"levelo://app?vid=47eb7c73-b791-4d0b-bd3a-a2fa1b5b2b80","ios":"levelo://app?vid=47eb7c73-b791-4d0b-bd3a-a2fa1b5b2b80"},"vehicle_type_id":"4","last_reported":1700679953,"current_range_meters":31200,"station_id":"ce4bhnh2rcd13ifvqgug","pricing_plan_id":"free"},{"bike_id":"56cfcdad-7deb-457c-aa73-c91fd9caf8e3","system_id":"levelo_inurba_marseille","lat":43.281548,"lon":5.42643,"is_reserved":false,"is_disabled":false,"rental_uris":{"android":"levelo://app?vid=56cfcdad-7deb-457c-aa73-c91fd9caf8e3","ios":"levelo://app?vid=56cfcdad-7deb-457c-aa73-c91fd9caf8e3"},"vehicle_type_id":"4","last_reported":1700679953,"current_range_meters":30800,"station_id":"ce4bhnh2rcd13ifvqgug","pricing_plan_id":"free"},{"bike_id":"0aab375a-bfa6-427b-86a2-3121451cf33a","system_id":"levelo_inurba_marseille","lat":43.275028,"lon":5.424534,"is_reserved":false,"is_disabled":false,"rental_uris":{"android":"levelo://app?vid=0aab375a-bfa6-427b-86a2-3121451cf33a","ios":"levelo://app?vid=0aab375a-bfa6-427b-86a2-3121451cf33a"},"vehicle_type_id":"4","last_reported":1700679953,"current_range_meters":3600,"station_id":"ce4bhn92rcd13ifvqgrg","pricing_plan_id":"free"},{"bike_id":"6b188708-9907-4cc6-a7fa-bcdecbd5a74b","system_id":"levelo_inurba_marseille","lat":43.27495,"lon":5.42454,"is_reserved":false,"is_disabled":false,"rental_uris":{"android":"levelo://app?vid=6b188708-9907-4cc6-a7fa-bcdecbd5a74b","ios":"levelo://app?vid=6b188708-9907-4cc6-a7fa-bcdecbd5a74b"},"vehicle_type_id":"4","last_reported":1700679953,"current_range_meters":800,"station_id":"ce4bhn92rcd13ifvqgrg","pricing_plan_id":"free"},{"bike_id":"5462ba5f-e285-41cb-a0db-1828d1a25c9a","system_id":"levelo_inurba_marseille","lat":43.254947,"lon":5.376454,"is_reserved":false,"is_disabled":false,"rental_uris":{"android":"levelo://app?vid=5462ba5f-e285-41cb-a0db-1828d1a25c9a","ios":"levelo://app?vid=5462ba5f-e285-41cb-a0db-1828d1a25c9a"},"vehicle_type_id":"4","last_reported":1700679953,"current_range_meters":12000,"station_id":"ce4bhh12rcd13ifvqff0","pricing_plan_id":"free"},{"bike_id":"e0d5f712-d1ea-41ab-9399-f7b5540a36f7","system_id":"levelo_inurba_marseille","lat":43.270721,"lon":5.422764,"is_reserved":false,"is_disabled":false,"rental_uris":{"android":"levelo://app?vid=e0d5f712-d1ea-41ab-9399-f7b5540a36f7","ios":"levelo://app?vid=e0d5f712-d1ea-41ab-9399-f7b5540a36f7"},"vehicle_type_id":"4","last_reported":1700679953,"current_range_meters":17200,"station_id":"ce4bhk92rcd13ifvqgb0","pricing_plan_id":"free"},{"bike_id":"12b6c1ae-a347-40b3-b49d-85b21e02c808","system_id":"levelo_inurba_marseille","lat":43.258658,"lon":5.398935,"is_reserved":false,"is_disabled":false,"rental_uris":{"android":"levelo://app?vid=12b6c1ae-a347-40b3-b49d-85b21e02c808","ios":"levelo://app?vid=12b6c1ae-a347-40b3-b49d-85b21e02c808"},"vehicle_type_id":"4","last_reported":1700679953,"current_range_meters":14800,"station_id":"ce4bhl92rcd13ifvqghg","pricing_plan_id":"free"},{"bike_id":"3a12ad93-bf9a-4d7a-8bc8-e7dcf1ba61ed","system_id":"levelo_inurba_marseille","lat":43.25931,"lon":5.40903,"is_reserved":false,"is_disabled":false,"rental_uris":{"android":"levelo://app?vid=3a12ad93-bf9a-4d7a-8bc8-e7dcf1ba61ed","ios":"levelo://app?vid=3a12ad93-bf9a-4d7a-8bc8-e7dcf1ba61ed"},"vehicle_type_id":"4","last_reported":1700679953,"current_range_meters":0,"station_id":"","pricing_plan_id":"free"},