{"last_updated":1728267276,"ttl":60,"version":"2.2","data":{"bikes":[{"bike_id":"4851563d-75f6-4f0f-bb7a-1e64b020fa8b","system_id":"levelo_inurba_marseille","lat":43.31997,"lon":5.38148,"is_reserved":false,"is_disabled":false,"rental_uris":{"android":"levelo://app?vid=4851563d-75f6-4f0f-bb7a-1e64b020fa8b","ios":"levelo://app?vid=4851563d-75f6-4f0f-bb7a-1e64b020fa8b"},"vehicle_type_id":"4","last_reported":1728267276,"current_range_meters":31200,"station_id":"ce4bhr12rcd13ifvqhpg","pricing_plan_id":"cebpf4jnsgd1na2vs0mg"},{"bike_id":"0bb1b7be-27ac-47fe-9c35-aa6dd770786b","system_id":"levelo_inurba_marseille","lat":43.28855,"lon":5.39316,"is_reserved":false,"is_disabled":false,"rental_uris":{"android":"levelo://app?vid=0bb1b7be-27ac-47fe-9c35-aa6dd770786b","ios":"levelo://app?vid=0bb1b7be-27ac-47fe-9c35-aa6dd770786b"},"vehicle_type_id":"4","last_reported":1728267276,"current_range_meters":38800,"station_id":"ce4bh2p2rcd13ifvqdi0","pricing_plan_id":"cebpf4jnsgd1na2vs0mg"},{"bike_id":"1683a247-7daa-4167-ac82-a263e4f3cd5b","system_id":"levelo_inurba_marseille","lat":43.25076,"lon":5.39506,"is_reserved":false,"is_disabled":false,"rental_uris":{"android":"levelo://app?vid=1683a247-7daa-4167-ac82-a263e4f3cd5b","ios":"levelo://app?vid=1683a247-7daa-4167-ac82-a263e4f3cd5b"},"vehicle_type_id":"4","last_reported":1728267276,"current_range_meters":38000,"station_id":"ce4bhm12rcd13ifvqgkg","pricing_plan_id":"cebpf4jnsgd1na2vs0mg"},{"bike_id":"ffb50058-5078-4c2d-89a8-70983b69fe9b","system_id":"levelo_inurba_marseille","lat":43.28422,"lon":5.37534,"is_reserved":false,"is_disabled":false,"rental_uris":{"android":"levelo://app?vid=ffb50058-5078-4c2d-89a8-70983b69fe9b","ios":"levelo://app?vid=ffb50058-5078-4c2d-89a8-70983b69fe9b"},"vehicle_type_id":"4","last_reported":1728267276,"current_range_meters":27600,"station_id":"ce4bh412rcd13ifvqds0","pricing_plan_id":"cebpf4jnsgd1na2vs0mg"},{"bike_id":"4b6ab9d2-cd7a-41b6-ba66-a560a9ee836a","system_id":"levelo_inurba_marseille","lat":43.31351,"lon":5.36735,"is_reserved":false,"is_disabled":false,"rental_uris":{"android":"levelo://app?vid=4b6ab9d2-cd7a-41b6-ba66-a560a9ee836a","ios":"levelo://app?vid=4b6ab9d2-cd7a-41b6-ba66-a560a9ee836a"},"vehicle_type_id":"4","last_reported":1728267276,"current_range_meters":38000,"station_id":"ce4bgr92rcd13ifvqc6g","pricing_plan_id":"cebpf4jnsgd1na2vs0mg"},{"bike_id":"07d432b9-404b-43e5-8aed-9265d6827336","system_id":"levelo_inurba_marseille","lat":43.24392,"lon":5.37054,"is_reserved":false,"is_disabled":false,"rental_uris":{"android":"levelo://app?vid=07d432b9-404b-43e5-8aed-9265d6827336","ios":"levelo://app?vid=07d432b9-404b-43e5-8aed-9265d6827336"},"vehicle_type_id":"4","last_reported":1728267276,"current_range_meters":30400,"station_id":"ce4bhhh2rcd13ifvqfk0","pricing_plan_id":"cebpf4jnsgd1na2vs0mg"},{"bike_id":"3edccbad-c604-40df-acb2-6e9d91b67298","system_id":"levelo_inurba_marseille","lat":43.23054,"lon":5.35501,"is_reserved":false,"is_disabled":false,"rental_uris":{"android":"levelo://app?vid=3edccbad-c604-40df-acb2-6e9d91b67298","ios":"levelo://app?vid=3edccbad-c604-40df-acb2-6e9d91b67298"},"vehicle_type_id":"4","last_reported":1728267276,"current_range_meters":23200,"station_id":"cpo3342slgdg3j2ifvpg","pricing_plan_id":"cebpf4jnsgd1na2vs0mg"},{"bike_id":"5c05045a-75f7-4086-9f51-f646714515ec","system_id":"levelo_inurba_marseille","lat":43.28575,"lon":5.39493,"is_reserved":false,"is_disabled":false,"rental_uris":{"android":"levelo://app?vid=5c05045a-75f7-4086-9f51-f646714515ec","ios":"levelo://app?vid=5c05045a-75f7-4086-9f51-f646714515ec"},"vehicle_type_id":"4","last_reported":1728267276,"current_range_meters":34000,"station_id":"ce4bh292rcd13ifvqdg0","pricing_plan_id":"cebpf4jnsgd1na2vs0mg"},{"bike_id":"bd51cbc1-b86e-43de-8c25-b3efdf845fe1","system_id":"levelo_inurba_marseille","lat":43.28574,"lon":5.39507,"is_reserved":false,"is_disabled":false,"rental_uris":{"android":"levelo://app?vid=bd51cbc1-b86e-43de-8c25-b3efdf845fe1","ios":"levelo://app?vid=bd51cbc1-b86e-43de-8c25-b3efdf845fe1"},"vehicle_type_id":"4","last_reported":1728267276,"current_range_meters":38800,"station_id":"ce4bh292rcd13ifvqdg0","pricing_plan_id":"cebpf4jnsgd1na2vs0mg"},{"bike_id":"6e39b554-957d-41b1-9b50-f6e7bbcd6957","system_id":"levelo_inurba_marseille","lat":43.24068,"lon":5.3777,"is_reserved":false,"is_disabled":false,"rental_uris":{"android":"levelo://app?vid=6e39b554-957d-41b1-9b50-f6e7bbcd6957","ios":"levelo://app?vid=6e39b554-957d-41b1-9b50-f6e7bbcd6957"},"vehicle_type_id":"4","last_reported":1728267276,"current_range_meters":38800,"station_id":"ce4bhnp2rcd13ifvqgvg","pricing_plan_id":"cebpf4jnsgd1na2vs0mg"},{"bike_id":"6d464f1e-6634-46b9-890e-2eec510b50de","system_id":"levelo_inurba_marseille","lat":43.29255,"lon":5.40156,"is_reserved":false,"is_disabled":false,"rental_uris":{"android":"levelo://app?vid=6d464f1e-6634-46b9-890e-2eec510b50de","ios":"levelo://app?vid=6d464f1e-6634-46b9-890e-2eec510b50de"},"vehicle_type_id":"4","last_reported":1728267276,"current_range_meters":38800,"station_id":"ce4bh312rcd13ifvqdk0","pricing_plan_id":"cebpf4jnsgd1na2vs0mg"},{"bike_id":"ea2a72cf-6a3a-401b-b11b-fc346b058f6a","system_id":"levelo_inurba_marseille","lat":43.31371,"lon":5.38505,"is_reserved":false,"is_disabled":false,"rental_uris":{"android":"levelo://app?vid=ea2a72cf-6a3a-401b-b11b-fc346b058f6a","ios":"levelo://app?vid=ea2a72cf-6a3a-401b-b11b-fc346b058f6a"},"vehicle_type_id":"4","last_reported":1728267276,"current_range_meters":12400,"station_id":"ce4bgt92rcd13ifvqcf0","pricing_plan_id":"cebpf4jnsgd1na2vs0mg"},{"bike_id":"23666f67-d4a8-455a-9d68-aa3dda4887dc","system_id":"levelo_inurba_marseille","lat":43.30589,"lon":5.3719,"is_reserved":false,"is_disabled":false,"rental_uris":{"android":"levelo://app?vid=23666f67-d4a8-455a-9d68-aa3dda4887dc","ios":"levelo://app?vid=23666f67-d4a8-455a-9d68-aa3dda4887dc"},"vehicle_type_id":"4","last_reported":1728267276,"current_range_meters":11600,"station_id":"ce4bgqh2rcd13ifvqc4g","pricing_plan_id":"cebpf4jnsgd1na2vs0mg"},{"bike_id":"ebfe71af-e67f-4e51-a841-4c63eda8f629","system_id":"levelo_inurba_marseille","lat":43.2893,"lon":5.36634,"is_reserved":false,"is_disabled":false,"rental_uris":{"android":"levelo://app?vid=ebfe71af-e67f-4e51-a841-4c63eda8f629","ios":"levelo://app?vid=ebfe71af-e67f-4e51-a841-4c63eda8f629"},"vehicle_type_id":"4","last_reported":1728267276,"current_range_meters":38400,"station_id":"ce4bhap2rcd13ifvqek0","pricing_plan_id":"cebpf4jnsgd1na2vs0mg"},{"bike_id":"a546c1b1-6869-4585-aae9-29005d2eb82e","system_id":"levelo_inurba_marseille","lat":43.31176,"lon":5.38715,"is_reserved":false,"is_disabled":false,"rental_uris":{"android":"levelo://app?vid=a546c1b1-6869-4585-aae9-29005d2eb82e","ios":"levelo://app?vid=a546c1b1-6869-4585-aae9-29005d2eb82e"},"vehicle_type_id":"4","last_reported":1728267276,"current_range_meters":32400,"station_id":"ce4bgv12rcd13ifvqcp0","pricing_plan_id":"cebpf4jnsgd1na2vs0mg"},{"bike_id":"1ad003a9-be67-4652-b1c6-a0312551fb2c","system_id":"levelo_inurba_marseille","lat":43.28665,"lon":5.36358,"is_reserved":false,"is_disabled":false,"rental_uris":{"android":"levelo://app?vid=1ad003a9-be67-4652-b1c6-a0312551fb2c","ios":"levelo://app?vid=1ad003a9-be67-4652-b1c6-a0312551fb2c"},"vehicle_type_id":"4","last_reported":1728267276,"current_range_meters":38800,"station_id":"ce4bhah2rcd13ifvqej0","pricing_plan_id":"cebpf4jnsgd1na2vs0mg"},{"bike_id":"3d3e93be-8a67-4628-9af2-2661c9a0daa4","system_id":"levelo_inurba_marseille","lat":43.22933,"lon":5.35386,"is_reserved":false,"is_disabled":false,"rental_uris":{"android":"levelo://app?vid=3d3e93be-8a67-4628-9af2-2661c9a0daa4","ios":"levelo://app?vid=3d3e93be-8a67-4628-9af2-2661c9a0daa4"},"vehicle_type_id":"4","last_reported":1728267276,"current_range_meters":33600,"station_id":"cpo3532slgdg3j2ikp40","pricing_plan_id":"cebpf4jnsgd1na2vs0mg"},{"bike_id":"83bd8e08-648e-4fc6-8901-05219804adac","system_id":"levelo_inurba_marseille","lat":43.22934,"lon":5.35379,"is_reserved":false,"is_disabled":false,"rental_uris":{"android":"levelo://app?vid=83bd8e08-648e-4fc6-8901-05219804adac","ios":"levelo://app?vid=83bd8e08-648e-4fc6-8901-05219804adac"},"vehicle_type_id":"4","last_reported":1728267276,"current_range_meters":27600,"station_id":"cpo3532slgdg3j2ikp40","pricing_plan_id":"cebpf4jnsgd1na2vs0mg"},{"bike_id":"ba1b3c02-e4c1-4a58-b229-cf59f4f91c13","system_id":"levelo_inurba_marseille","lat":43.30388,"lon":5.41292,"is_reserved":false,"is_disabled":false,"rental_uris":{"android":"levelo://app?vid=ba1b3c02-e4c1-4a58-b229-cf59f4f91c13","ios":"levelo://app?vid=ba1b3c02-e4c1-4a58-b229-cf59f4f91c13"},"vehicle_type_id":"4","last_reported":1728267276,"current_range_meters":6400,"station_id":"ce4bhop2rcd13ifvqh8g","pricing_plan_id":"cebpf4jnsgd1na2vs0mg"},{"bike_id":"1b183f6f-c373-4934-87ad-52ad2e80dde3","system_id":"levelo_inurba_marseille","lat":43.33729,"lon":5.392,"is_reserved":false,"is_disabled":false,"rental_uris":{"android":"levelo://app?vid=1b183f6f-c373-4934-87ad-52ad2e80dde3","ios":"levelo://app?vid=1b183f6f-c373-4934-87ad-52ad2e80dde3"},"vehicle_type_id":"4","last_reported":1728267276,"current_range_meters":28400,"station_id":"ce4bhr92rcd13ifvqhsg","pricing_plan_id":"cebpf4jnsgd1na2vs0mg"},{"bike_id":"81b07a05-4c57-4e76-99d6-5f6e3acbb201","system_id":"levelo_inurba_marseille","lat":43.23055,"lon":5.35499,"is_reserved":false,"is_disabled":false,"rental_uris":{"android":"levelo://app?vid=81b07a05-4c57-4e76-99d6-5f6e3acbb201","ios":"levelo://app?vid=81b07a05-4c57-4e76-99d6-5f6e3acbb201"},"vehicle_type_id":"4","last_reported":1728267276,"current_range_meters":15200,"station_id":"cpo3342slgdg3j2ifvpg","pricing_plan_id":"cebpf4jnsgd1na2vs0mg"},{"bike_id":"3a99c055-67e4-4a33-8788-b3e630857fba","system_id":"levelo_inurba_marseille","lat":43.3123,"lon":5.36853,"is_reserved":false,"is_disabled":false,"rental_uris":{"android":"levelo://app?vid=3a99c055-67e4-4a33-8788-b3e630857fba","ios":"levelo://app?vid=3a99c055-67e4-4a33-8788-b3e630857fba"},"vehicle_type_id":"4","last_reported":1728267276,"current_range_meters":37600,"station_id":"ce4bgl92rcd13ifvqbq0","pricing_plan_id":"cebpf4jnsgd1na2vs0mg"},{"bike_id":"4c2c600a-5a86-4f81-9696-31774e0292f8","system_id":"levelo_inurba_marseille","lat":43.28155,"lon":5.42646,"is_reserved":false,"is_disabled":false,"rental_uris":{"android":"levelo://app?vid=4c2c600a-5a86-4f81-9696-31774e0292f8","ios":"levelo://app?vid=4c2c600a-5a86-4f81-9696-31774e0292f8"},"vehicle_type_id":"4","last_reported":1728267276,"current_range_meters":38800,"station_id":"ce4bhnh2rcd13ifvqgug","pricing_plan_id":"cebpf4jnsgd1na2vs0mg"},{"bike_id":"7b5acb30-7728-4d2f-b8de-cc88114cf385","system_id":"levelo_inurba_marseille","lat":43.23158,"lon":5.43713,"is_reserved":false,"is_disabled":false,"rental_uris":{"android":"levelo://app?vid=7b5acb30-7728-4d2f-b8de-cc88114cf385","ios":"levelo://app?vid=7b5acb30-7728-4d2f-b8de-cc88114cf385"},"vehicle_type_id":"4","last_reported":1728267276,"current_range_meters":38800,"station_id":"ce4bhmp2rcd13ifvqgog","pricing_plan_id":"cebpf4jnsgd1na2vs0mg"},{"bike_id":"9f567c8d-a712-4380-9484-ef3c7ecb9609","system_id":"levelo_inurba_marseille","lat":43.30578,"lon":5.39326,"is_reserved":false,"is_disabled":false,"rental_uris":{"android":"levelo://app?vid=9f567c8d-a712-4380-9484-ef3c7ecb9609","ios":"levelo://app?vid=9f567c8d-a712-4380-9484-ef3c7ecb9609"},"vehicle_type_id":"4","last_reported":1728267276,"current_range_meters":38800,"station_id":"ce4bh0p2rcd13ifvqd80","pricing_plan_id":"cebpf4jnsgd1na2vs0mg"},{"bike_id":"d685cdd8-2cc7-41fe-ac8f-064af163f6fd","system_id":"levelo_inurba_marseille","lat":43.27562,"lon":5.38418,"is_reserved":false,"is_disabled":false,"rental_uris":{"android":"levelo://app?vid=d685cdd8-2cc7-41fe-ac8f-064af163f6fd","ios":"levelo://app?vid=d685cdd8-2cc7-41fe-ac8f-064af163f6fd"},"vehicle_type_id":"4","last_reported":1728267276,"current_range_meters":39200,"station_id":"ce4bhh92rcd13ifvqfi0","pricing_plan_id":"cebpf4jnsgd1na2vs0mg"},{"bike_id":"4d9c0f2f-ec87-45dc-b4e8-9be9be397a90","system_id":"levelo_inurba_marseille","lat":43.30367,"lon":5.41885,"is_reserved":false,"is_disabled":false,"rental_uris":{"android":"levelo://app?vid=4d9c0f2f-ec87-45dc-b4e8-9be9be397a90","ios":"levelo://app?vid=4d9c0f2f-ec87-45dc-b4e8-9be9be397a90"},"vehicle_type_id":"4","last_reported":1728267276,"current_range_meters":32000,"station_id":"ce4bhop2rcd13ifvqh7g","pricing_plan_id":"cebpf4jnsgd1na2vs0mg"},{"bike_id":"249ba857-c21a-4cf9-b612-6eace3a3311f","system_id":"levelo_inurba_marseille","lat":43.27063,"lon":5.42253,"is_reserved":false,"is_disabled":false,"rental_uris":{"android":"levelo://app?vid=249ba857-c21a-4cf9-b612-6eace3a3311f","ios":"levelo://app?vid=249ba857-c21a-4cf9-b612-6eace3a3311f"},"vehicle_type_id":"4","last_reported":1728267276,"current_range_meters":23200,"station_id":"ce4bhk92rcd13ifvqgb0","pricing_plan_id":"cebpf4jnsgd1na2vs0mg"},{"bike_id":"32ab325a-0e98-4bb3-809c-c26d46577549","system_id":"levelo_inurba_marseille","lat":43.22933,"lon":5.35382,"is_reserved":false,"is_disabled":false,"rental_uris":{"android":"levelo://app?vid=32ab325a-0e98-4bb3-809c-c26d46577549","ios":"levelo://app?vid=32ab325a-0e98-4bb3-809c-c26d46577549"},"vehicle_type_id":"4","last_reported":1728267276,"current_range_meters":24400,"station_id":"cpo3532slgdg3j2ikp40","pricing_plan_id":"cebpf4jnsgd1na2vs0mg"},{"bike_id":"21814611-01da-4a56-bde2-76253f0cdaa1","system_id":"levelo_inurba_marseille","lat":43.27072,"lon":5.42286,"is_reserved":false,"is_disabled":false,"rental_uris":{"android":"levelo://app?vid=21814611-01da-4a56-bde2-76253f0cdaa1","ios":"levelo://app?vid=21814611-01da-4a56-bde2-76253f0cdaa1"},"vehicle_type_id":"4","last_reported":1728267276,"current_range_meters":38000,"station_id":"ce4bhk92rcd13ifvqgb0","pricing_plan_id":"cebpf4jnsgd1na2vs0mg"},{"bike_id":"2617a4eb-f153-4c7e-b1d6-ce61b849d29c","system_id":"levelo_inurba_marseille","lat":43.28947,"lon":5.3964,"is_reserved":false,"is_disabled":false,"rental_uris":{"android":"levelo://app?vid=2617a4eb-f153-4c7e-b1d6-ce61b849d29c","ios":"levelo://app?vid=2617a4eb-f153-4c7e-b1d6-ce61b849d29c"},"vehicle_type_id":"4","last_reported":1728267276,"current_range_meters":20800,"station_id":"ce4bh3h2rcd13ifvqdn0","pricing_plan_id":"cebpf4jnsgd1na2vs0mg"},{"bike_id":"03ebdfef-60b9-4383-b780-f6e10ef5dff9","system_id":"levelo_inurba_marseille","lat":43.33762,"lon":5.37447,"is_reserved":false,"is_disabled":false,"rental_uris":{"android":"levelo://app?vid=03ebdfef-60b9-4383-b780-f6e10ef5dff9","ios":"levelo://app?vid=03ebdfef-60b9-4383-b780-f6e10ef5dff9"},"vehicle_type_id":"4","last_reported":1728267276,"current_range_meters":23200,"station_id":"","pricing_plan_id":"cebpf4jnsgd1na2vs0mg"},{"bike_id":"1c8c4e08-14e7-4f47-b28c-32909fec0bf7","system_id":"levelo_inurba_marseille","lat":43.3062,"lon":5.40084,"is_reserved":false,"is_disabled":false,"rental_uris":{"android":"levelo://app?vid=1c8c4e08-14e7-4f47-b28c-32909fec0bf7","ios":"levelo://app?vid=1c8c4e08-14e7-4f47-b28c-32909fec0bf7"},"vehicle_type_id":"4","last_reported":1728267276,"current_range_meters":8000,"station_id":"ce4bh112rcd13ifvqda0","pricing_plan_id":"cebpf4jnsgd1na2vs0mg"},{"bike_id":"2345fb5f-209d-4ace-ba8e-e17ce21fb05b","system_id":"levelo_inurba_marseille","lat":43.30091,"lon":5.39083,"is_reserved":false,"is_disabled":false,"rental_uris":{"android":"levelo://app?vid=2345fb5f-209d-4ace-ba8e-e17ce21fb05b","ios":"levelo://app?vid=2345fb5f-209d-4ace-ba8e-e17ce21fb05b"},"vehicle_type_id":"4","last_reported":1728267276,"current_range_meters":27600,"station_id":"ce4bh192rcd13ifvqdb0","pricing_plan_id":"cebpf4jnsgd1na2vs0mg"},{"bike_id":"2ed09b24-5cf5-4792-b0ec-361338817188","system_id":"levelo_inurba_marseille","lat":43.25932,"lon":5.40904,"is_reserved":false,"is_disabled":false,"rental_uris":{"android":"levelo://app?vid=2ed09b24-5cf5-4792-b0ec-361338817188","ios":"levelo://app?vid=2ed09b24-5cf5-4792-b0ec-361338817188"},"vehicle_type_id":"4","last_reported":1728267276,"current_range_meters":38800,"station_id":"ce4bhm92rcd13ifvqglg","pricing_plan_id":"cebpf4jnsgd1na2vs0mg"},{"bike_id":"8cf23727-fc4e-4c93-882a-71dd981736a7","system_id":"levelo_inurba_marseille","lat":43.30883,"lon":5.39653,"is_reserved":false,"is_disabled":false,"rental_uris":{"android":"levelo://app?vid=8cf23727-fc4e-4c93-882a-71dd981736a7","ios":"levelo://app?vid=8cf23727-fc4e-4c93-882a-71dd981736a7"},"vehicle_type_id":"4","last_reported":1728267276,"current_range_meters":22400,"station_id":"ce4bh012rcd13ifvqcv0","pricing_plan_id":"cebpf4jnsgd1na2vs0mg"},{"bike_id":"8c4ede2a-8479-4951-912b-e9104b176599","system_id":"levelo_inurba_marseille","lat":43.3375,"lon":5.39182,"is_reserved":false,"is_disabled":false,"rental_uris":{"android":"levelo://app?vid=8c4ede2a-8479-4951-912b-e9104b176599","ios":"levelo://app?vid=8c4ede2a-8479-4951-912b-e9104b176599"},"vehicle_type_id":"4","last_reported":1728267276,"current_range_meters":4400,"station_id":"ce4bhr92rcd13ifvqhsg","pricing_plan_id":"cebpf4jnsgd1na2vs0mg"},{"bike_id":"5af4be8f-9e9c-491e-a64b-e706a69bc035","system_id":"levelo_inurba_marseille","lat":43.29838,"lon":5.40544,"is_reserved":false,"is_disabled":false,"rental_uris":{"android":"levelo://app?vid=5af4be8f-9e9c-491e-a64b-e706a69bc035","ios":"levelo://app?vid=5af4be8f-9e9c-491e-a64b-e706a69bc035"},"vehicle_type_id":"4","last_reported":1728267276,"current_range_meters":12400,"station_id":"","pricing_plan_id":"cebpf4jnsgd1na2vs0mg"},{"bike_id":"dde5a1c3-072e-489b-8ecd-fcf0ca5f51cd","system_id":"levelo_inurba_marseille","lat":43.28728,"lon":5.39989,"is_reserved":false,"is_disabled":false,"rental_uris":{"android":"levelo://app?vid=dde5a1c3-072e-489b-8ecd-fcf0ca5f51cd","ios":"levelo://app?vid=dde5a1c3-072e-489b-8ecd-fcf0ca5f51cd"},"vehicle_type_id":"4","last_reported":1728267276,"current_range_meters":35600,"station_id":"ce4bho92rcd13ifvqh3g","pricing_plan_id":"cebpf4jnsgd1na2vs0mg"},{"bike_id":"86eeea58-2039-4141-a427-be58987e3711","system_id":"levelo_inurba_marseille","lat":43.29195,"lon":5.39327,"is_reserved":false,"is_disabled":false,"rental_uris":{"android":"levelo://app?vid=86eeea58-2039-4141-a427-be58987e3711","ios":"levelo://app?vid=86eeea58-2039-4141-a427-be58987e3711"},"vehicle_type_id":"4","last_reported":1728267276,"current_range_meters":38400,"station_id":"ce4bh192rcd13ifvqdd0","pricing_plan_id":"cebpf4jnsgd1na2vs0mg"},{"bike_id":"4018fa26-9a2a-4214-af21-76b3667a940b","system_id":"levelo_inurba_marseille","lat":43.337698,"lon":5.374348,"is_reserved":false,"is_disabled":false,"rental_uris":{"android":"levelo://app?vid=4018fa26-9a2a-4214-af21-76b3667a940b","ios":"levelo://app?vid=4018fa26-9a2a-4214-af21-76b3667a940b"},"vehicle_type_id":"4","last_reported":1728267276,"current_range_meters":25200,"station_id":"","pricing_plan_id":"cebpf4jnsgd1na2vs0mg"},{"bike_id":"1c171f7c-ff3e-4912-9b7b-48ee5d0e2652","system_id":"levelo_inurba_marseille","lat":43.30592,"lon":5.39335,"is_reserved":false,"is_disabled":false,"rental_uris":{"android":"levelo://app?vid=1c171f7c-ff3e-4912-9b7b-48ee5d0e2652","ios":"levelo://app?vid=1c171f7c-ff3e-4912-9b7b-48ee5d0e2652"},"vehicle_type_id":"4","last_reported":1728267276,"current_range_meters":38800,"station_id":"ce4bh0p2rcd13ifvqd80","pricing_plan_id":"cebpf4jnsgd1na2vs0mg"},{"bike_id":"47eac1fe-2ca6-4418-8b2f-3564461491d6","system_id":"levelo_inurba_marseille","lat":43.279177,"lon":5.395815,"is_reserved":false,"is_disabled":false,"rental_uris":{"android":"levelo://app?vid=47eac1fe-2ca6-4418-8b2f-3564461491d6","ios":"levelo://app?vid=47eac1fe-2ca6-4418-8b2f-3564461491d6"},"vehicle_type_id":"4","last_reported":1728267276,"current_range_meters":27600,"station_id":"ce4bhf92rcd13ifvqf40","pricing_plan_id":"cebpf4jnsgd1na2vs0mg"},{"bike_id":"35db5aab-a536-4286-87d7-90ec43783f24","system_id":"levelo_inurba_marseille","lat":43.23194,"lon":5.35551,"is_reserved":false,"is_disabled":false,"rental_uris":{"android":"levelo://app?vid=35db5aab-a536-4286-87d7-90ec43783f24","ios":"levelo://app?vid=35db5aab-a536-4286-87d7-90ec43783f24"},"vehicle_type_id":"4","last_reported":1728267276,"current_range_meters":37600,"station_id":"ce4bhu92rcd13ifvqi70","pricing_plan_id":"cebpf4jnsgd1na2vs0mg"},{"bike_id":"ac7477e2-647f-4698-b2f1-05ac6bd7ca79","system_id":"levelo_inurba_marseille","lat":43.27364,"lon":5.36251,"is_reserved":false,"is_disabled":false,"rental_uris":{"android":"levelo://app?vid=ac7477e2-647f-4698-b2f1-05ac6bd7ca79","ios":"levelo://app?vid=ac7477e2-647f-4698-b2f1-05ac6bd7ca79"},"vehicle_type_id":"4","last_reported":1728267276,"current_range_meters":30000,"station_id":"ce4bhbh2rcd13ifvqeo0","pricing_plan_id":"cebpf4jnsgd1na2vs0mg"},{"bike_id":"deb52e0a-dbad-4c1f-9e31-d9d5b1b30f27","system_id":"levelo_inurba_marseille","lat":43.31487,"lon":5.37286,"is_reserved":false,"is_disabled":false,"rental_uris":{"android":"levelo://app?vid=deb52e0a-dbad-4c1f-9e31-d9d5b1b30f27","ios":"levelo://app?vid=deb52e0a-dbad-4c1f-9e31-d9d5b1b30f27"},"vehicle_type_id":"4","last_reported":1728267276,"current_range_meters":38800,"station_id":"ce4bgt12rcd13ifvqcd0","pricing_plan_id":"cebpf4jnsgd1na2vs0mg"},{"bike_id":"392202a5-2bdb-4383-9480-8c094c4b27e0","system_id":"levelo_inurba_marseille","lat":43.31125,"lon":5.37766,"is_reserved":false,"is_disabled":false,"rental_uris":{"android":"levelo://app?vid=392202a5-2bdb-4383-9480-8c094c4b27e0","ios":"levelo://app?vid=392202a5-2bdb-4383-9480-8c094c4b27e0"},"vehicle_type_id":"4","last_reported":1728267276,"current_range_meters":38800,"station_id":"ce4bgt92rcd13ifvqcg0","pricing_plan_id":"cebpf4jnsgd1na2vs0mg"},{"bike_id":"62dfd99c-f976-4937-b2d0-5b50f5ae699f","system_id":"levelo_inurba_marseille","lat":43.24163,"lon":5.36412,"is_reserved":false,"is_disabled":false,"rental_uris":{"android":"levelo://app?vid=62dfd99c-f976-4937-b2d0-5b50f5ae699f","ios":"levelo://app?vid=62dfd99c-f976-4937-b2d0-5b50f5ae699f"},"vehicle_type_id":"4","last_reported":1728267276,"current_range_meters":12400,"station_id":"cpo36qri1sfpv3e86is0","pricing_plan_id":"cebpf4jnsgd1na2vs0mg"},{"bike_id":"351d3363-0a06-4060-aeee-e427d82299c8","system_id":"levelo_inurba_marseille","lat":43.26194,"lon":5.37452,"is_reserved":false,"is_disabled":false,"rental_uris":{"android":"levelo://app?vid=351d3363-0a06-4060-aeee-e427d82299c8","ios":"levelo://app?vid=351d3363-0a06-4060-aeee-e427d82299c8"},"vehicle_type_id":"4","last_reported":1728267276,"current_range_meters":36800,"station_id":"ce4bhgp2rcd13ifvqfc0","pricing_plan_id":"cebpf4jnsgd1na2vs0mg"},{"bike_id":"39f34bbe-4113-4187-87c3-7aa3b4c7636d","system_id":"levelo_inurba_marseille","lat":43.28343,"lon":5.38109,"is_reserved":false,"is_disabled":false,"rental_uris":{"android":"levelo://app?vid=39f34bbe-4113-4187-87c3-7aa3b4c7636d","ios":"levelo://app?vid=39f34bbe-4113-4187-87c3-7aa3b4c7636d"},"vehicle_type_id":"4","last_reported":1728267276,"current_range_meters":38800,"station_id":"ce4bh412rcd13ifvqdr0","pricing_plan_id":"cebpf4jnsgd1na2vs0mg"},{"bike_id":"491813ec-5bcd-4eda-acb2-c01ccb4e9894","system_id":"levelo_inurba_marseille","lat":43.33753,"lon":5.37435,"is_reserved":false,"is_disabled":false,"rental_uris":{"android":"levelo://app?vid=491813ec-5bcd-4eda-acb2-c01ccb4e9894","ios":"levelo://app?vid=491813ec-5bcd-4eda-acb2-c01ccb4e9894"},"vehicle_type_id":"4","last_reported":1728267276,"current_range_meters":24400,"station_id":"","pricing_plan_id":"cebpf4jnsgd1na2vs0mg"},{"bike_id":"23c14b3c-a751-4109-bb74-0ad6b39787af","system_id":"levelo_inurba_marseille","lat":43.24071,"lon":5.37757,"is_reserved":false,"is_disabled":false,"rental_uris":{"android":"levelo://app?vid=23c14b3c-a751-4109-bb74-0ad6b39787af","ios":"levelo://app?vid=23c14b3c-a751-4109-bb74-0ad6b39787af"},"vehicle_type_id":"4","last_reported":1728267276,"current_range_meters":38800,"station_id":"ce4bhnp2rcd13ifvqgvg","pricing_plan_id":"cebpf4jnsgd1na2vs0mg"},{"bike_id":"88c45316-35a4-4b2d-a8d9-570b6514ce08","system_id":"levelo_inurba_marseille","lat":43.31128,"lon":5.37777,"is_reserved":false,"is_disabled":false,"rental_uris":{"android":"levelo://app?vid=88c45316-35a4-4b2d-a8d9-570b6514ce08","ios":"levelo://app?vid=88c45316-35a4-4b2d-a8d9-570b6514ce08"},"vehicle_type_id":"4","last_reported":1728267276,"current_range_meters":33600,"station_id":"ce4bgt92rcd13ifvqcg0","pricing_plan_id":"cebpf4jnsgd1na2vs0mg"},{"bike_id":"8066cbd9-6f5f-4c8b-82e0-670217342883","system_id":"levelo_inurba_marseille","lat":43.24537,"lon":5.39521,"is_reserved":false,"is_disabled":false,"rental_uris":{"android":"levelo://app?vid=8066cbd9-6f5f-4c8b-82e0-670217342883","ios":"levelo://app?vid=8066cbd9-6f5f-4c8b-82e0-670217342883"},"vehicle_type_id":"4","last_reported":1728267276,"current_range_meters":29600,"station_id":"ce4bhlp2rcd13ifvqgjg","pricing_plan_id":"cebpf4jnsgd1na2vs0mg"},{"bike_id":"870ecdbf-3528-4277-82a5-269de3374c1c","system_id":"levelo_inurba_marseille","lat":43.27061,"lon":5.42264,"is_reserved":false,"is_disabled":false,"rental_uris":{"android":"levelo://app?vid=870ecdbf-3528-4277-82a5-269de3374c1c","ios":"levelo://app?vid=870ecdbf-3528-4277-82a5-269de3374c1c"},"vehicle_type_id":"4","last_reported":1728267276,"current_range_meters":38400,"station_id":"ce4bhk92rcd13ifvqgb0","pricing_plan_id":"cebpf4jnsgd1na2vs0mg"},{"bike_id":"a7c8a6a7-5a32-4a07-be5d-f4b583728d14","system_id":"levelo_inurba_marseille","lat":43.27558,"lon":5.38405,"is_reserved":false,"is_disabled":false,"rental_uris":{"android":"levelo://app?vid=a7c8a6a7-5a32-4a07-be5d-f4b583728d14","ios":"levelo://app?vid=a7c8a6a7-5a32-4a07-be5d-f4b583728d14"},"vehicle_type_id":"4","last_reported":1728267276,"current_range_meters":38800,"station_id":"ce4bhh92rcd13ifvqfi0","pricing_plan_id":"cebpf4jnsgd1na2vs0mg"},{"bike_id":"baba7691-81ff-4c7d-90d9-c89eba9696cb","system_id":"levelo_inurba_marseille","lat":43.25911,"lon":5.40885,"is_reserved":false,"is_disabled":false,"rental_uris":{"android":"levelo://app?vid=baba7691-81ff-4c7d-90d9-c89eba9696cb","ios":"levelo://app?vid=baba7691-81ff-4c7d-90d9-c89eba9696cb"},"vehicle_type_id":"4","last_reported":1728267276,"current_range_meters":28400,"station_id":"ce4bhm92rcd13ifvqglg","pricing_plan_id":"cebpf4jnsgd1na2vs0mg"},{"bike_id":"00548726-27c5-4faf-9bb3-764c91ffaba8","system_id":"levelo_inurba_marseille","lat":43.30666,"lon":5.40069,"is_reserved":false,"is_disabled":false,"rental_uris":{"android":"levelo://app?vid=00548726-27c5-4faf-9bb3-764c91ffaba8","ios":"levelo://app?vid=00548726-27c5-4faf-9bb3-764c91ffaba8"},"vehicle_type_id":"4","last_reported":1728267276,"current_range_meters":9200,"station_id":"ce4bh112rcd13ifvqda0","pricing_plan_id":"cebpf4jnsgd1na2vs0mg"},{"bike_id":"ee5a2003-1fbb-4b27-884a-acd217a98149","system_id":"levelo_inurba_marseille","lat":43.29033,"lon":5.39978,"is_reserved":false,"is_disabled":false,"rental_uris":{"android":"levelo://app?vid=ee5a2003-1fbb-4b27-884a-acd217a98149","ios":"levelo://app?vid=ee5a2003-1fbb-4b27-884a-acd217a98149"},"vehicle_type_id":"4","last_reported":1728267276,"current_range_meters":38000,"station_id":"ce4bh392rcd13ifvqdm0","pricing_plan_id":"cebpf4jnsgd1na2vs0mg"},{"bike_id":"c619e285-38ac-4c34-bcad-92900c7ea1b1","system_id":"levelo_inurba_marseille","lat":43.30801,"lon":5.38143,"is_reserved":false,"is_disabled":false,"rental_uris":{"android":"levelo://app?vid=c619e285-38ac-4c34-bcad-92900c7ea1b1","ios":"levelo://app?vid=c619e285-38ac-4c34-bcad-92900c7ea1b1"},"vehicle_type_id":"4","last_reported":1728267276,"current_range_meters":30800,"station_id":"ce4bgt12rcd13ifvqce0","pricing_plan_id":"cebpf4jnsgd1na2vs0mg"},{"bike_id":"c906ace6-02e9-4f80-ad21-12688e141ebb","system_id":"levelo_inurba_marseille","lat":43.3095,"lon":5.39048,"is_reserved":false,"is_disabled":false,"rental_uris":{"android":"levelo://app?vid=c906ace6-02e9-4f80-ad21-12688e141ebb","ios":"levelo://app?vid=c906ace6-02e9-4f80-ad21-12688e141ebb"},"vehicle_type_id":"4","last_reported":1728267276,"current_range_meters":38800,"station_id":"ce4bgup2rcd13ifvqco0","pricing_plan_id":"cebpf4jnsgd1na2vs0mg"},{"bike_id":"fd025d2e-d101-4284-a3b0-657004d2d19a","system_id":"levelo_inurba_marseille","lat":43.30778,"lon":5.37647,"is_reserved":false,"is_disabled":false,"rental_uris":{"android":"levelo://app?vid=fd025d2e-d101-4284-a3b0-657004d2d19a","ios":"levelo://app?vid=fd025d2e-d101-4284-a3b0-657004d2d19a"},"vehicle_type_id":"4","last_reported":1728267276,"current_range_meters":38800,"station_id":"ce4bgv92rcd13ifvqcq0","pricing_plan_id":"cebpf4jnsgd1na2vs0mg"},{"bike_id":"6ae7d0e0-1623-4439-8d68-fec3c5db110c","system_id":"levelo_inurba_marseille","lat":43.22935,"lon":5.35382,"is_reserved":false,"is_disabled":false,"rental_uris":{"android":"levelo://app?vid=6ae7d0e0-1623-4439-8d68-fec3c5db110c","ios":"levelo://app?vid=6ae7d0e0-1623-4439-8d68-fec3c5db110c"},"vehicle_type_id":"4","last_reported":1728267276,"current_range_meters":34800,"station_id":"cpo3532slgdg3j2ikp40","pricing_plan_id":"cebpf4jnsgd1na2vs0mg"},{"bike_id":"38a57a83-437a-4e9d-b1f5-63cf0a6c3a6f","system_id":"levelo_inurba_marseille","lat":43.25862,"lon":5.39908,"is_reserved":false,"is_disabled":false,"rental_uris":{"android":"levelo://app?vid=38a57a83-437a-4e9d-b1f5-63cf0a6c3a6f","ios":"levelo://app?vid=38a57a83-437a-4e9d-b1f5-63cf0a6c3a6f"},"vehicle_type_id":"4","last_reported":1728267276,"current_range_meters":38800,"station_id":"ce4bhl92rcd13ifvqghg","pricing_plan_id":"cebpf4jnsgd1na2vs0mg"},{"bike_id":"4af55307-045f-4c66-a045-a91d88bb4c16","system_id":"levelo_inurba_marseille","lat":43.22929,"lon":5.35379,"is_reserved":false,"is_disabled":false,"rental_uris":{"android":"levelo://app?vid=4af55307-045f-4c66-a045-a91d88bb4c16","ios":"levelo://app?vid=4af55307-045f-4c66-a045-a91d88bb4c16"},"vehicle_type_id":"4","last_reported":1728267276,"current_range_meters":28000,"station_id":"cpo3532slgdg3j2ikp40","pricing_plan_id":"cebpf4jnsgd1na2vs0mg"},{"bike_id":"e1b524e6-03eb-4607-981b-c6c2b07008ab","system_id":"levelo_inurba_marseille","lat":43.24674,"lon":5.38163,"is_reserved":false,"is_disabled":false,"rental_uris":{"android":"levelo://app?vid=e1b524e6-03eb-4607-981b-c6c2b07008ab","ios":"levelo://app?vid=e1b524e6-03eb-4607-981b-c6c2b07008ab"},"vehicle_type_id":"4","last_reported":1728267276,"current_range_meters":38800,"station_id":"ce4bhih2rcd13ifvqfr0","pricing_plan_id":"cebpf4jnsgd1na2vs0mg"},{"bike_id":"92ac950a-8e1b-4f8b-baee-0ef65bc2473a","system_id":"levelo_inurba_marseille","lat":43.28699,"lon":5.39997,"is_reserved":false,"is_disabled":false,"rental_uris":{"android":"levelo://app?vid=92ac950a-8e1b-4f8b-baee-0ef65bc2473a","ios":"levelo://app?vid=92ac950a-8e1b-4f8b-baee-0ef65bc2473a"},"vehicle_type_id":"4","last_reported":1728267276,"current_range_meters":12800,"station_id":"ce4bho92rcd13ifvqh3g","pricing_plan_id":"cebpf4jnsgd1na2vs0mg"},{"bike_id":"13a35d1a-1c21-4cdd-9282-17040c700716","system_id":"levelo_inurba_marseille","lat":43.32553,"lon":5.41475,"is_reserved":false,"is_disabled":false,"rental_uris":{"android":"levelo://app?vid=13a35d1a-1c21-4cdd-9282-17040c700716","ios":"levelo://app?vid=13a35d1a-1c21-4cdd-9282-17040c700716"},"vehicle_type_id":"4","last_reported":1728267276,"current_range_meters":31200,"station_id":"ce4bhq12rcd13ifvqhhg","pricing_plan_id":"cebpf4jnsgd1na2vs0mg"},{"bike_id":"6482b1fb-67cb-4384-a7c9-6c0a7b56e3b4","system_id":"levelo_inurba_marseille","lat":43.28858,"lon":5.43336,"is_reserved":false,"is_disabled":false,"rental_uris":{"android":"levelo://app?vid=6482b1fb-67cb-4384-a7c9-6c0a7b56e3b4","ios":"levelo://app?vid=6482b1fb-67cb-4384-a7c9-6c0a7b56e3b4"},"vehicle_type_id":"4","last_reported":1728267276,"current_range_meters":7200,"station_id":"","pricing_plan_id":"cebpf4jnsgd1na2vs0mg"},{"bike_id":"50406f60-0d84-42f0-94b7-a1203815bff7","system_id":"levelo_inurba_marseille","lat":43.30781,"lon":5.37664,"is_reserved":false,"is_disabled":false,"rental_uris":{"android":"levelo://app?vid=50406f60-0d84-42f0-94b7-a1203815bff7","ios":"levelo://app?vid=50406f60-0d84-42f0-94b7-a1203815bff7"},"vehicle_type_id":"4","last_reported":1728267276,"current_range_meters":22400,"station_id":"ce4bgv92rcd13ifvqcq0","pricing_plan_id":"cebpf4jnsgd1na2vs0mg"},{"bike_id":"265b6257-cac5-4700-be81-5022c39ebf02","system_id":"levelo_inurba_marseille","lat":43.24543,"lon":5.39521,"is_reserved":false,"is_disabled":false,"rental_uris":{"android":"levelo://app?vid=265b6257-cac5-4700-be81-5022c39ebf02","ios":"levelo://app?vid=265b6257-cac5-4700-be81-5022c39ebf02"},"vehicle_type_id":"4","last_reported":1728267276,"current_range_meters":28800,"station_id":"ce4bhlp2rcd13ifvqgjg","pricing_plan_id":"cebpf4jnsgd1na2vs0mg"},{"bike_id":"fd814ad2-288d-477b-ac17-45ebc511da82","system_id":"levelo_inurba_marseille","lat":43.32363,"lon":5.38881,"is_reserved":false,"is_disabled":false,"rental_uris":{"android":"levelo://app?vid=fd814ad2-288d-477b-ac17-45ebc511da82","ios":"levelo://app?vid=fd814ad2-288d-477b-ac17-45ebc511da82"},"vehicle_type_id":"4","last_reported":1728267276,"current_range_meters":38000,"station_id":"ce4bhqp2rcd13ifvqhog","pricing_plan_id":"cebpf4jnsgd1na2vs0mg"},{"bike_id":"458f5828-3d56-4435-88db-2bbc4971abb9","system_id":"levelo_inurba_marseille","lat":43.23192,"lon":5.39993,"is_reserved":false,"is_disabled":false,"rental_uris":{"android":"levelo://app?vid=458f5828-3d56-4435-88db-2bbc4971abb9","ios":"levelo://app?vid=458f5828-3d56-4435-88db-2bbc4971abb9"},"vehicle_type_id":"4","last_reported":1728267276,"current_range_meters":38800,"station_id":"ce4bhn12rcd13ifvqgqg","pricing_plan_id":"cebpf4jnsgd1na2vs0mg"},{"bike_id":"3ceb3c2a-e042-4cd8-828b-da5f34d85772","system_id":"levelo_inurba_marseille","lat":43.301361,"lon":5.389577,"is_reserved":false,"is_disabled":false,"rental_uris":{"android":"levelo://app?vid=3ceb3c2a-e042-4cd8-828b-da5f34d85772","ios":"levelo://app?vid=3ceb3c2a-e042-4cd8-828b-da5f34d85772"},"vehicle_type_id":"4","last_reported":1728267276,"current_range_meters":18000,"station_id":"ce4bh192rcd13ifvqdb0","pricing_plan_id":"cebpf4jnsgd1na2vs0mg"},{"bike_id":"97ef281f-c717-429c-a078-d6a368902950","system_id":"levelo_inurba_marseille","lat":43.24157,"lon":5.36403,"is_reserved":false,"is_disabled":false,"rental_uris":{"android":"levelo://app?vid=97ef281f-c717-429c-a078-d6a368902950","ios":"levelo://app?vid=97ef281f-c717-429c-a078-d6a368902950"},"vehicle_type_id":"4","last_reported":1728267276,"current_range_meters":22000,"station_id":"cpo36qri1sfpv3e86is0","pricing_plan_id":"cebpf4jnsgd1na2vs0mg"},{"bike_id":"a7bfd1cb-5231-41aa-9b35-15039466acfd","system_id":"levelo_inurba_marseille","lat":43.3095,"lon":5.39047,"is_reserved":false,"is_disabled":false,"rental_uris":{"android":"levelo://app?vid=a7bfd1cb-5231-41aa-9b35-15039466acfd","ios":"levelo://app?vid=a7bfd1cb-5231-41aa-9b35-15039466acfd"},"vehicle_type_id":"4","last_reported":1728267276,"current_range_meters":32400,"station_id":"ce4bgup2rcd13ifvqco0","pricing_plan_id":"cebpf4jnsgd1na2vs0mg"},{"bike_id":"36d89f8b-d020-4141-9059-6531b6d3d4ea","system_id":"levelo_inurba_marseille","lat":43.28454,"lon":5.3589,"is_reserved":false,"is_disabled":false,"rental_uris":{"android":"levelo://app?vid=36d89f8b-d020-4141-9059-6531b6d3d4ea","ios":"levelo://app?vid=36d89f8b-d020-4141-9059-6531b6d3d4ea"},"vehicle_type_id":"4","last_reported":1728267276,"current_range_meters":38800,"station_id":"ce4bhah2rcd13ifvqei0","pricing_plan_id":"cebpf4jnsgd1na2vs0mg"},{"bike_id":"5fc71de8-51c6-4977-ab35-bac20c38e473","system_id":"levelo_inurba_marseille","lat":43.3066,"lon":5.40085,"is_reserved":false,"is_disabled":false,"rental_uris":{"android":"levelo://app?vid=5fc71de8-51c6-4977-ab35-bac20c38e473","ios":"levelo://app?vid=5fc71de8-51c6-4977-ab35-bac20c38e473"},"vehicle_type_id":"4","last_reported":1728267276,"current_range_meters":38800,"station_id":"ce4bh112rcd13ifvqda0","pricing_plan_id":"cebpf4jnsgd1na2vs0mg"},{"bike_id":"9b510305-dbb5-455a-afea-ea62ba2f8d36","system_id":"levelo_inurba_marseille","lat":43.23199,"lon":5.39998,"is_reserved":false,"is_disabled":false,"rental_uris":{"android":"levelo://app?vid=9b510305-dbb5-455a-afea-ea62ba2f8d36","ios":"levelo://app?vid=9b510305-dbb5-455a-afea-ea62ba2f8d36"},"vehicle_type_id":"4","last_reported":1728267276,"current_range_meters":7200,"station_id":"ce4bhn12rcd13ifvqgqg","pricing_plan_id":"cebpf4jnsgd1na2vs0mg"},{"bike_id":"511e2553-c346-4039-a913-af4a7c85005d","system_id":"levelo_inurba_marseille","lat":43.31523,"lon":5.38021,"is_reserved":false,"is_disabled":false,"rental_uris":{"android":"levelo://app?vid=511e2553-c346-4039-a913-af4a7c85005d","ios":"levelo://app?vid=511e2553-c346-4039-a913-af4a7c85005d"},"vehicle_type_id":"4","last_reported":1728267276,"current_range_meters":10000,"station_id":"ce4bhsp2rcd13ifvqi50","pricing_plan_id":"cebpf4jnsgd1na2vs0mg"},{"bike_id":"190548a0-05d5-4bdb-bc1f-d4a1ad9e157a","system_id":"levelo_inurba_marseille","lat":43.27995,"lon":5.41658,"is_reserved":false,"is_disabled":false,"rental_uris":{"android":"levelo://app?vid=190548a0-05d5-4bdb-bc1f-d4a1ad9e157a","ios":"levelo://app?vid=190548a0-05d5-4bdb-bc1f-d4a1ad9e157a"},"vehicle_type_id":"4","last_reported":1728267276,"current_range_meters":11600,"station_id":"ce4bho12rcd13ifvqh1g","pricing_plan_id":"cebpf4jnsgd1na2vs0mg"},{"bike_id":"85a8b07e-682b-4725-800e-b0749654fba5","system_id":"levelo_inurba_marseille","lat":43.2417,"lon":5.36391,"is_reserved":false,"is_disabled":false,"rental_uris":{"android":"levelo://app?vid=85a8b07e-682b-4725-800e-b0749654fba5","ios":"levelo://app?vid=85a8b07e-682b-4725-800e-b0749654fba5"},"vehicle_type_id":"4","last_reported":1728267276,"current_range_meters":25600,"station_id":"cpo36qri1sfpv3e86is0","pricing_plan_id":"cebpf4jnsgd1na2vs0mg"},{"bike_id":"742b0a39-2ee6-4a7f-970b-979e89ae43ed","system_id":"levelo_inurba_marseille","lat":43.30901,"lon":5.37447,"is_reserved":false,"is_disabled":false,"rental_uris":{"android":"levelo://app?vid=742b0a39-2ee6-4a7f-970b-979e89ae43ed","ios":"levelo://app?vid=742b0a39-2ee6-4a7f-970b-979e89ae43ed"},"vehicle_type_id":"4","last_reported":1728267276,"current_range_meters":18800,"station_id":"","pricing_plan_id":"cebpf4jnsgd1na2vs0mg"},{"bike_id":"304f0f46-778c-4448-8270-d4d4de7ea60c","system_id":"levelo_inurba_marseille","lat":43.27907,"lon":5.39606,"is_reserved":false,"is_disabled":false,"rental_uris":{"android":"levelo://app?vid=304f0f46-778c-4448-8270-d4d4de7ea60c","ios":"levelo://app?vid=304f0f46-778c-4448-8270-d4d4de7ea60c"},"vehicle_type_id":"4","last_reported":1728267276,"current_range_meters":10800,"station_id":"ce4bhf92rcd13ifvqf40","pricing_plan_id":"cebpf4jnsgd1na2vs0mg"},{"bike_id":"8ab34a30-55c6-4dd9-8378-d3c7bd7c01ef","system_id":"levelo_inurba_marseille","lat":43.28157,"lon":5.42653,"is_reserved":false,"is_disabled":false,"rental_uris":{"android":"levelo://app?vid=8ab34a30-55c6-4dd9-8378-d3c7bd7c01ef","ios":"levelo://app?vid=8ab34a30-55c6-4dd9-8378-d3c7bd7c01ef"},"vehicle_type_id":"4","last_reported":1728267276,"current_range_meters":30800,"station_id":"ce4bhnh2rcd13ifvqgug","pricing_plan_id":"cebpf4jnsgd1na2vs0mg"},{"bike_id":"b2ee7e2f-43a2-4a7e-a754-77d0f53ad9a9","system_id":"levelo_inurba_marseille","lat":43.24544,"lon":5.39534,"is_reserved":false,"is_disabled":false,"rental_uris":{"android":"levelo://app?vid=b2ee7e2f-43a2-4a7e-a754-77d0f53ad9a9","ios":"levelo://app?vid=b2ee7e2f-43a2-4a7e-a754-77d0f53ad9a9"},"vehicle_type_id":"4","last_reported":1728267276,"current_range_meters":9600,"station_id":"ce4bhlp2rcd13ifvqgjg","pricing_plan_id":"cebpf4jnsgd1na2vs0mg"},{"bike_id":"05ddab4b-2219-453e-b9f6-9211ae63c830","system_id":"levelo_inurba_marseille","lat":43.24156,"lon":5.36403,"is_reserved":false,"is_disabled":false,"rental_uris":{"android":"levelo://app?vid=05ddab4b-2219-453e-b9f6-9211ae63c830","ios":"levelo://app?vid=05ddab4b-2219-453e-b9f6-9211ae63c830"},"vehicle_type_id":"4","last_reported":1728267276,"current_range_meters":29600,"station_id":"cpo36qri1sfpv3e86is0","pricing_plan_id":"cebpf4jnsgd1na2vs0mg"},{"bike_id":"e60bb475-3382-4c05-98aa-d0e35c325a0f","system_id":"levelo_inurba_marseille","lat":43.29801,"lon":5.39338,"is_reserved":false,"is_disabled":false,"rental_uris":{"android":"levelo://app?vid=e60bb475-3382-4c05-98aa-d0e35c325a0f","ios":"levelo://app?vid=e60bb475-3382-4c05-98aa-d0e35c325a0f"},"vehicle_type_id":"4","last_reported":1728267276,"current_range_meters":17600,"station_id":"chh1huq6cuj3fo74tm60","pricing_plan_id":"cebpf4jnsgd1na2vs0mg"},{"bike_id":"fe06016f-aa42-48a4-b798-24a47cf3ce1a","system_id":"levelo_inurba_marseille","lat":43.32657,"lon":5.40989,"is_reserved":false,"is_disabled":false,"rental_uris":{"android":"levelo://app?vid=fe06016f-aa42-48a4-b798-24a47cf3ce1a","ios":"levelo://app?vid=fe06016f-aa42-48a4-b798-24a47cf3ce1a"},"vehicle_type_id":"4","last_reported":1728267276,"current_range_meters":38800,"station_id":"ce4bhpp2rcd13ifvqhgg","pricing_plan_id":"cebpf4jnsgd1na2vs0mg"},{"bike_id":"5b5a4382-3222-43c1-8f07-381d1baf8a3c","system_id":"levelo_inurba_marseille","lat":43.2792,"lon":5.39576,"is_reserved":false,"is_disabled":false,"rental_uris":{"android":"levelo://app?vid=5b5a4382-3222-43c1-8f07-381d1baf8a3c","ios":"levelo://app?vid=5b5a4382-3222-43c1-8f07-381d1baf8a3c"},"vehicle_type_id":"4","last_reported":1728267276,"current_range_meters":38400,"station_id":"ce4bhf92rcd13ifvqf40","pricing_plan_id":"cebpf4jnsgd1na2vs0mg"},{"bike_id":"9e155c1d-a6c7-4593-b478-b1c0102df606","system_id":"levelo_inurba_marseille","lat":43.23148,"lon":5.43723,"is_reserved":false,"is_disabled":false,"rental_uris":{"android":"levelo://app?vid=9e155c1d-a6c7-4593-b478-b1c0102df606","ios":"levelo://app?vid=9e155c1d-a6c7-4593-b478-b1c0102df606"},"vehicle_type_id":"4","last_reported":1728267276,"current_range_meters":8800,"station_id":"ce4bhmp2rcd13ifvqgog","pricing_plan_id":"cebpf4jnsgd1na2vs0mg"},{"bike_id":"d0ca1193-12e8-4ac2-9a60-4ae6e0040151","system_id":"levelo_inurba_marseille","lat":43.22929,"lon":5.35397,"is_reserved":false,"is_disabled":false,"rental_uris":{"android":"levelo://app?vid=d0ca1193-12e8-4ac2-9a60-4ae6e0040151","ios":"levelo://app?vid=d0ca1193-12e8-4ac2-9a60-4ae6e0040151"},"vehicle_type_id":"4","last_reported":1728267276,"current_range_meters":25600,"station_id":"cpo3532slgdg3j2ikp40","pricing_plan_id":"cebpf4jnsgd1na2vs0mg"},{"bike_id":"74d22274-d407-43eb-8c4e-11be6b62673c","system_id":"levelo_inurba_marseille","lat":43.2843,"lon":5.39184,"is_reserved":false,"is_disabled":false,"rental_uris":{"android":"levelo://app?vid=74d22274-d407-43eb-8c4e-11be6b62673c","ios":"levelo://app?vid=74d22274-d407-43eb-8c4e-11be6b62673c"},"vehicle_type_id":"4","last_reported":1728267276,"current_range_meters":38800,"station_id":"ce4bhoh2rcd13ifvqh5g","pricing_plan_id":"cebpf4jnsgd1na2vs0mg"},{"bike_id":"8f4eafe1-078a-4bf4-a45e-41e7742caedb","system_id":"levelo_inurba_marseille","lat":43.30893,"lon":5.3965,"is_reserved":false,"is_disabled":false,"rental_uris":{"android":"levelo://app?vid=8f4eafe1-078a-4bf4-a45e-41e7742caedb","ios":"levelo://app?vid=8f4eafe1-078a-4bf4-a45e-41e7742caedb"},"vehicle_type_id":"4","last_reported":1728267276,"current_range_meters":6800,"station_id":"ce4bh012rcd13ifvqcv0","pricing_plan_id":"cebpf4jnsgd1na2vs0mg"},{"bike_id":"5f757817-8585-4a6e-bc43-dc195daaa659","system_id":"levelo_inurba_marseille","lat":43.29871,"lon":5.39744,"is_reserved":false,"is_disabled":false,"rental_uris":{"android":"levelo://app?vid=5f757817-8585-4a6e-bc43-dc195daaa659","ios":"levelo://app?vid=5f757817-8585-4a6e-bc43-dc195daaa659"},"vehicle_type_id":"4","last_reported":1728267276,"current_range_meters":38800,"station_id":"ce4bh0h2rcd13ifvqd50","pricing_plan_id":"cebpf4jnsgd1na2vs0mg"},{"bike_id":"606e6cb9-3877-458a-948c-a0f0f2fbcaf6","system_id":"levelo_inurba_marseille","lat":43.29635,"lon":5.40596,"is_reserved":false,"is_disabled":false,"rental_uris":{"android":"levelo://app?vid=606e6cb9-3877-458a-948c-a0f0f2fbcaf6","ios":"levelo://app?vid=606e6cb9-3877-458a-948c-a0f0f2fbcaf6"},"vehicle_type_id":"4","last_reported":1728267276,"current_range_meters":22400,"station_id":"ce4bh0h2rcd13ifvqd60","pricing_plan_id":"cebpf4jnsgd1na2vs0mg"},{"bike_id":"a508ecab-9b0f-43b5-a3e7-90edd58951ec","system_id":"levelo_inurba_marseille","lat":43.24534,"lon":5.39531,"is_reserved":false,"is_disabled":false,"rental_uris":{"android":"levelo://app?vid=a508ecab-9b0f-43b5-a3e7-90edd58951ec","ios":"levelo://app?vid=a508ecab-9b0f-43b5-a3e7-90edd58951ec"},"vehicle_type_id":"4","last_reported":1728267276,"current_range_meters":36800,"station_id":"ce4bhlp2rcd13ifvqgjg","pricing_plan_id":"cebpf4jnsgd1na2vs0mg"},{"bike_id":"5a7d4a0d-8267-4059-a46d-baa1695a994d","system_id":"levelo_inurba_marseille","lat":43.28429,"lon":5.37509,"is_reserved":false,"is_disabled":false,"rental_uris":{"android":"levelo://app?vid=5a7d4a0d-8267-4059-a46d-baa1695a994d","ios":"levelo://app?vid=5a7d4a0d-8267-4059-a46d-baa1695a994d"},"vehicle_type_id":"4","last_reported":1728267276,"current_range_meters":38800,"station_id":"ce4bh412rcd13ifvqds0","pricing_plan_id":"cebpf4jnsgd1na2vs0mg"},{"bike_id":"536882d3-2db8-4d80-af23-598a7e4b3db3","system_id":"levelo_inurba_marseille","lat":43.29256,"lon":5.38435,"is_reserved":false,"is_disabled":false,"rental_uris":{"android":"levelo://app?vid=536882d3-2db8-4d80-af23-598a7e4b3db3","ios":"levelo://app?vid=536882d3-2db8-4d80-af23-598a7e4b3db3"},"vehicle_type_id":"4","last_reported":1728267276,"current_range_meters":33600,"station_id":"ce4bh692rcd13ifvqea0","pricing_plan_id":"cebpf4jnsgd1na2vs0mg"},{"bike_id":"e7a69364-48ff-4b91-9e71-f63fc5cb8eca","system_id":"levelo_inurba_marseille","lat":43.28594,"lon":5.39456,"is_reserved":false,"is_disabled":false,"rental_uris":{"android":"levelo://app?vid=e7a69364-48ff-4b91-9e71-f63fc5cb8eca","ios":"levelo://app?vid=e7a69364-48ff-4b91-9e71-f63fc5cb8eca"},"vehicle_type_id":"4","last_reported":1728267276,"current_range_meters":38800,"station_id":"ce4bh292rcd13ifvqdg0","pricing_plan_id":"cebpf4jnsgd1na2vs0mg"},{"bike_id":"18cab30f-71a4-424c-a58a-1028931912e7","system_id":"levelo_inurba_marseille","lat":43.27812,"lon":5.40702,"is_reserved":false,"is_disabled":false,"rental_uris":{"android":"levelo://app?vid=18cab30f-71a4-424c-a58a-1028931912e7","ios":"levelo://app?vid=18cab30f-71a4-424c-a58a-1028931912e7"},"vehicle_type_id":"4","last_reported":1728267276,"current_range_meters":28000,"station_id":"ce4bhnh2rcd13ifvqgtg","pricing_plan_id":"cebpf4jnsgd1na2vs0mg"},{"bike_id":"0f883a22-8e08-490c-97ec-787ea6e859de","system_id":"levelo_inurba_marseille","lat":43.23188,"lon":5.39987,"is_reserved":false,"is_disabled":false,"rental_uris":{"android":"levelo://app?vid=0f883a22-8e08-490c-97ec-787ea6e859de","ios":"levelo://app?vid=0f883a22-8e08-490c-97ec-787ea6e859de"},"vehicle_type_id":"4","last_reported":1728267276,"current_range_meters":38800,"station_id":"ce4bhn12rcd13ifvqgqg","pricing_plan_id":"cebpf4jnsgd1na2vs0mg"},{"bike_id":"e2aa43d6-93dc-40b2-8642-d2251992f807","system_id":"levelo_inurba_marseille","lat":43.30199,"lon":5.39466,"is_reserved":false,"is_disabled":false,"rental_uris":{"android":"levelo://app?vid=e2aa43d6-93dc-40b2-8642-d2251992f807","ios":"levelo://app?vid=e2aa43d6-93dc-40b2-8642-d2251992f807"},"vehicle_type_id":"4","last_reported":1728267276,"current_range_meters":16800,"station_id":"ce4bh0p2rcd13ifvqd70","pricing_plan_id":"cebpf4jnsgd1na2vs0mg"},{"bike_id":"e8f38f77-6572-42be-9296-0cbe6e7cb972","system_id":"levelo_inurba_marseille","lat":43.23058,"lon":5.35489,"is_reserved":false,"is_disabled":false,"rental_uris":{"android":"levelo://app?vid=e8f38f77-6572-42be-9296-0cbe6e7cb972","ios":"levelo://app?vid=e8f38f77-6572-42be-9296-0cbe6e7cb972"},"vehicle_type_id":"4","last_reported":1728267276,"current_range_meters":37600,"station_id":"cpo3342slgdg3j2ifvpg","pricing_plan_id":"cebpf4jnsgd1na2vs0mg"},{"bike_id":"86a091f1-881c-48f1-83ba-f6771df7238d","system_id":"levelo_inurba_marseille","lat":43.28472,"lon":5.38521,"is_reserved":false,"is_disabled":false,"rental_uris":{"android":"levelo://app?vid=86a091f1-881c-48f1-83ba-f6771df7238d","ios":"levelo://app?vid=86a091f1-881c-48f1-83ba-f6771df7238d"},"vehicle_type_id":"4","last_reported":1728267276,"current_range_meters":38800,"station_id":"ce4bh8p2rcd13ifvqeb0","pricing_plan_id":"cebpf4jnsgd1na2vs0mg"},{"bike_id":"ef15c91f-4313-494f-b2d3-2a03e76a6e39","system_id":"levelo_inurba_marseille","lat":43.28436,"lon":5.39194,"is_reserved":false,"is_disabled":false,"rental_uris":{"android":"levelo://app?vid=ef15c91f-4313-494f-b2d3-2a03e76a6e39","ios":"levelo://app?vid=ef15c91f-4313-494f-b2d3-2a03e76a6e39"},"vehicle_type_id":"4","last_reported":1728267276,"current_range_meters":19600,"station_id":"ce4bhoh2rcd13ifvqh5g","pricing_plan_id":"cebpf4jnsgd1na2vs0mg"},{"bike_id":"6e6af65e-29e7-4906-a118-0f7d164f38e5","system_id":"levelo_inurba_marseille","lat":43.31167,"lon":5.38721,"is_reserved":false,"is_disabled":false,"rental_uris":{"android":"levelo://app?vid=6e6af65e-29e7-4906-a118-0f7d164f38e5","ios":"levelo://app?vid=6e6af65e-29e7-4906-a118-0f7d164f38e5"},"vehicle_type_id":"4","last_reported":1728267276,"current_range_meters":38000,"station_id":"ce4bgv12rcd13ifvqcp0","pricing_plan_id":"cebpf4jnsgd1na2vs0mg"},{"bike_id":"ac85bbc4-642e-4858-b238-bc55e135d5f3","system_id":"levelo_inurba_marseille","lat":43.25723,"lon":5.4109,"is_reserved":false,"is_disabled":false,"rental_uris":{"android":"levelo://app?vid=ac85bbc4-642e-4858-b238-bc55e135d5f3","ios":"levelo://app?vid=ac85bbc4-642e-4858-b238-bc55e135d5f3"},"vehicle_type_id":"4","last_reported":1728267276,"current_range_meters":27600,"station_id":"ce4bhkp2rcd13ifvqgd0","pricing_plan_id":"cebpf4jnsgd1na2vs0mg"},{"bike_id":"83dd449b-a5cb-4612-904e-d2cc1915568e","system_id":"levelo_inurba_marseille","lat":43.29117,"lon":5.38123,"is_reserved":false,"is_disabled":false,"rental_uris":{"android":"levelo://app?vid=83dd449b-a5cb-4612-904e-d2cc1915568e","ios":"levelo://app?vid=83dd449b-a5cb-4612-904e-d2cc1915568e"},"vehicle_type_id":"4","last_reported":1728267276,"current_range_meters":32400,"station_id":"ce4bh512rcd13ifvqe2g","pricing_plan_id":"cebpf4jnsgd1na2vs0mg"},{"bike_id":"968ce0d7-8d90-4bf1-b885-ba5ef3030517","system_id":"levelo_inurba_marseille","lat":43.2842,"lon":5.37531,"is_reserved":false,"is_disabled":false,"rental_uris":{"android":"levelo://app?vid=968ce0d7-8d90-4bf1-b885-ba5ef3030517","ios":"levelo://app?vid=968ce0d7-8d90-4bf1-b885-ba5ef3030517"},"vehicle_type_id":"4","last_reported":1728267276,"current_range_meters":37600,"station_id":"ce4bh412rcd13ifvqds0","pricing_plan_id":"cebpf4jnsgd1na2vs0mg"},{"bike_id":"fbe2db3f-9b7b-451a-ad48-131ae931cad3","system_id":"levelo_inurba_marseille","lat":43.25719,"lon":5.411,"is_reserved":false,"is_disabled":false,"rental_uris":{"android":"levelo://app?vid=fbe2db3f-9b7b-451a-ad48-131ae931cad3","ios":"levelo://app?vid=fbe2db3f-9b7b-451a-ad48-131ae931cad3"},"vehicle_type_id":"4","last_reported":1728267276,"current_range_meters":38800,"station_id":"ce4bhkp2rcd13ifvqgd0","pricing_plan_id":"cebpf4jnsgd1na2vs0mg"},{"bike_id":"c91f7103-63c0-4e88-ad9d-c5194f82620f","system_id":"levelo_inurba_marseille","lat":43.28433,"lon":5.41089,"is_reserved":false,"is_disabled":false,"rental_uris":{"android":"levelo://app?vid=c91f7103-63c0-4e88-ad9d-c5194f82620f","ios":"levelo://app?vid=c91f7103-63c0-4e88-ad9d-c5194f82620f"},"vehicle_type_id":"4","last_reported":1728267276,"current_range_meters":38000,"station_id":"","pricing_plan_id":"cebpf4jnsgd1na2vs0mg"},{"bike_id":"490889b1-cee9-4892-9db5-299333956c90","system_id":"levelo_inurba_marseille","lat":43.3415,"lon":5.4091,"is_reserved":false,"is_disabled":false,"rental_uris":{"android":"levelo://app?vid=490889b1-cee9-4892-9db5-299333956c90","ios":"levelo://app?vid=490889b1-cee9-4892-9db5-299333956c90"},"vehicle_type_id":"4","last_reported":1728267276,"current_range_meters":38000,"station_id":"ce4bhqh2rcd13ifvqhlg","pricing_plan_id":"cebpf4jnsgd1na2vs0mg"},{"bike_id":"93ed656f-a77b-46a3-97bc-aba15536cfeb","system_id":"levelo_inurba_marseille","lat":43.29032,"lon":5.37565,"is_reserved":false,"is_disabled":false,"rental_uris":{"android":"levelo://app?vid=93ed656f-a77b-46a3-97bc-aba15536cfeb","ios":"levelo://app?vid=93ed656f-a77b-46a3-97bc-aba15536cfeb"},"vehicle_type_id":"4","last_reported":1728267276,"current_range_meters":38800,"station_id":"ce4bh692rcd13ifvqe90","pricing_plan_id":"cebpf4jnsgd1na2vs0mg"},{"bike_id":"ea30e775-8466-430d-96e1-a121d270f1bd","system_id":"levelo_inurba_marseille","lat":43.24646,"lon":5.3889,"is_reserved":false,"is_disabled":false,"rental_uris":{"android":"levelo://app?vid=ea30e775-8466-430d-96e1-a121d270f1bd","ios":"levelo://app?vid=ea30e775-8466-430d-96e1-a121d270f1bd"},"vehicle_type_id":"4","last_reported":1728267276,"current_range_meters":38000,"station_id":"ce4bhg12rcd13ifvqf60","pricing_plan_id":"cebpf4jnsgd1na2vs0mg"},{"bike_id":"fbfafa39-8e8e-43d0-ad01-3d738647c745","system_id":"levelo_inurba_marseille","lat":43.2869,"lon":5.3996,"is_reserved":false,"is_disabled":false,"rental_uris":{"android":"levelo://app?vid=fbfafa39-8e8e-43d0-ad01-3d738647c745","ios":"levelo://app?vid=fbfafa39-8e8e-43d0-ad01-3d738647c745"},"vehicle_type_id":"4","last_reported":1728267276,"current_range_meters":33600,"station_id":"ce4bho92rcd13ifvqh3g","pricing_plan_id":"cebpf4jnsgd1na2vs0mg"},{"bike_id":"4378a0dd-7ddd-4246-9294-1e2af02e0700","system_id":"levelo_inurba_marseille","lat":43.23199,"lon":5.35556,"is_reserved":false,"is_disabled":false,"rental_uris":{"android":"levelo://app?vid=4378a0dd-7ddd-4246-9294-1e2af02e0700","ios":"levelo://app?vid=4378a0dd-7ddd-4246-9294-1e2af02e0700"},"vehicle_type_id":"4","last_reported":1728267276,"current_range_meters":7200,"station_id":"ce4bhu92rcd13ifvqi70","pricing_plan_id":"cebpf4jnsgd1na2vs0mg"},{"bike_id":"c656545f-1946-4086-8c48-8ebfeeddee78","system_id":"levelo_inurba_marseille","lat":43.2982,"lon":5.40347,"is_reserved":false,"is_disabled":false,"rental_uris":{"android":"levelo://app?vid=c656545f-1946-4086-8c48-8ebfeeddee78","ios":"levelo://app?vid=c656545f-1946-4086-8c48-8ebfeeddee78"},"vehicle_type_id":"4","last_reported":1728267276,"current_range_meters":27600,"station_id":"","pricing_plan_id":"cebpf4jnsgd1na2vs0mg"},{"bike_id":"443871d8-edee-4b1c-87f4-b63d4937594f","system_id":"levelo_inurba_marseille","lat":43.27555,"lon":5.38418,"is_reserved":false,"is_disabled":false,"rental_uris":{"android":"levelo://app?vid=443871d8-edee-4b1c-87f4-b63d4937594f","ios":"levelo://app?vid=443871d8-edee-4b1c-87f4-b63d4937594f"},"vehicle_type_id":"4","last_reported":1728267276,"current_range_meters":18800,"station_id":"ce4bhh92rcd13ifvqfi0","pricing_plan_id":"cebpf4jnsgd1na2vs0mg"},{"bike_id":"23fc48c8-ca80-4830-81ff-9f99416697f3","system_id":"levelo_inurba_marseille","lat":43.28845,"lon":5.39356,"is_reserved":false,"is_disabled":false,"rental_uris":{"android":"levelo://app?vid=23fc48c8-ca80-4830-81ff-9f99416697f3","ios":"levelo://app?vid=23fc48c8-ca80-4830-81ff-9f99416697f3"},"vehicle_type_id":"4","last_reported":1728267276,"current_range_meters":16000,"station_id":"ce4bh2p2rcd13ifvqdi0","pricing_plan_id":"cebpf4jnsgd1na2vs0mg"},{"bike_id":"19657177-a128-445d-88b3-9f9f9bff6229","system_id":"levelo_inurba_marseille","lat":43.25109,"lon":5.40322,"is_reserved":false,"is_disabled":false,"rental_uris":{"android":"levelo://app?vid=19657177-a128-445d-88b3-9f9f9bff6229","ios":"levelo://app?vid=19657177-a128-445d-88b3-9f9f9bff6229"},"vehicle_type_id":"4","last_reported":1728267276,"current_range_meters":38800,"station_id":"ce4bhlh2rcd13ifvqgig","pricing_plan_id":"cebpf4jnsgd1na2vs0mg"},{"bike_id":"98fab8a1-a284-40da-8df2-14f71a37d57b","system_id":"levelo_inurba_marseille","lat":43.24548,"lon":5.3955,"is_reserved":false,"is_disabled":false,"rental_uris":{"android":"levelo://app?vid=98fab8a1-a284-40da-8df2-14f71a37d57b","ios":"levelo://app?vid=98fab8a1-a284-40da-8df2-14f71a37d57b"},"vehicle_type_id":"4","last_reported":1728267276,"current_range_meters":28800,"station_id":"ce4bhlp2rcd13ifvqgjg","pricing_plan_id":"cebpf4jnsgd1na2vs0mg"},{"bike_id":"7524762e-5f9e-47d6-b82d-2ed8cc3a380a","system_id":"levelo_inurba_marseille","lat":43.28838,"lon":5.3586,"is_reserved":false,"is_disabled":false,"rental_uris":{"android":"levelo://app?vid=7524762e-5f9e-47d6-b82d-2ed8cc3a380a","ios":"levelo://app?vid=7524762e-5f9e-47d6-b82d-2ed8cc3a380a"},"vehicle_type_id":"4","last_reported":1728267276,"current_range_meters":38800,"station_id":"ce4bhb12rcd13ifvqem0","pricing_plan_id":"cebpf4jnsgd1na2vs0mg"},{"bike_id":"ca497d73-ca95-45d5-92b1-f420a9b2ab33","system_id":"levelo_inurba_marseille","lat":43.3133,"lon":5.39714,"is_reserved":false,"is_disabled":false,"rental_uris":{"android":"levelo://app?vid=ca497d73-ca95-45d5-92b1-f420a9b2ab33","ios":"levelo://app?vid=ca497d73-ca95-45d5-92b1-f420a9b2ab33"},"vehicle_type_id":"4","last_reported":1728267276,"current_range_meters":6000,"station_id":"ce4bgvp2rcd13ifvqcu0","pricing_plan_id":"cebpf4jnsgd1na2vs0mg"},{"bike_id":"21288de7-f927-43a6-aeff-787f443177ba","system_id":"levelo_inurba_marseille","lat":43.27892,"lon":5.37992,"is_reserved":false,"is_disabled":false,"rental_uris":{"android":"levelo://app?vid=21288de7-f927-43a6-aeff-787f443177ba","ios":"levelo://app?vid=21288de7-f927-43a6-aeff-787f443177ba"},"vehicle_type_id":"4","last_reported":1728267276,"current_range_meters":37600,"station_id":"ce4bhf92rcd13ifvqf50","pricing_plan_id":"cebpf4jnsgd1na2vs0mg"},{"bike_id":"93d45870-2e1c-4ed1-9664-7b219a4ed443","system_id":"levelo_inurba_marseille","lat":43.22932,"lon":5.35405,"is_reserved":false,"is_disabled":false,"rental_uris":{"android":"levelo://app?vid=93d45870-2e1c-4ed1-9664-7b219a4ed443","ios":"levelo://app?vid=93d45870-2e1c-4ed1-9664-7b219a4ed443"},"vehicle_type_id":"4","last_reported":1728267276,"current_range_meters":37600,"station_id":"cpo3532slgdg3j2ikp40","pricing_plan_id":"cebpf4jnsgd1na2vs0mg"},{"bike_id":"1cdb9940-cc1d-4061-8b97-3a40dcc57816","system_id":"levelo_inurba_marseille","lat":43.2568,"lon":5.37669,"is_reserved":false,"is_disabled":false,"rental_uris":{"android":"levelo://app?vid=1cdb9940-cc1d-4061-8b97-3a40dcc57816","ios":"levelo://app?vid=1cdb9940-cc1d-4061-8b97-3a40dcc57816"},"vehicle_type_id":"4","last_reported":1728267276,"current_range_meters":32800,"station_id":"","pricing_plan_id":"cebpf4jnsgd1na2vs0mg"},{"bike_id":"2320b15e-2a70-41d2-95b9-fe8a1eb35e18","system_id":"levelo_inurba_marseille","lat":43.2928,"lon":5.36752,"is_reserved":false,"is_disabled":false,"rental_uris":{"android":"levelo://app?vid=2320b15e-2a70-41d2-95b9-fe8a1eb35e18","ios":"levelo://app?vid=2320b15e-2a70-41d2-95b9-fe8a1eb35e18"},"vehicle_type_id":"4","last_reported":1728267276,"current_range_meters":16000,"station_id":"","pricing_plan_id":"cebpf4jnsgd1na2vs0mg"},{"bike_id":"2ff6bac0-f386-428c-89aa-655b212c895e","system_id":"levelo_inurba_marseille","lat":43.32999,"lon":5.3904,"is_reserved":false,"is_disabled":false,"rental_uris":{"android":"levelo://app?vid=2ff6bac0-f386-428c-89aa-655b212c895e","ios":"levelo://app?vid=2ff6bac0-f386-428c-89aa-655b212c895e"},"vehicle_type_id":"4","last_reported":1728267276,"current_range_meters":9200,"station_id":"ce4bhr92rcd13ifvqhrg","pricing_plan_id":"cebpf4jnsgd1na2vs0mg"},{"bike_id":"f78376bc-a2b1-4867-8e0d-6af4d9668214","system_id":"levelo_inurba_marseille","lat":43.30597,"lon":5.37193,"is_reserved":false,"is_disabled":false,"rental_uris":{"android":"levelo://app?vid=f78376bc-a2b1-4867-8e0d-6af4d9668214","ios":"levelo://app?vid=f78376bc-a2b1-4867-8e0d-6af4d9668214"},"vehicle_type_id":"4","last_reported":1728267276,"current_range_meters":38800,"station_id":"ce4bgqh2rcd13ifvqc4g","pricing_plan_id":"cebpf4jnsgd1na2vs0mg"},{"bike_id":"6e512044-ef12-457b-bcca-26bd86c5618a","system_id":"levelo_inurba_marseille","lat":43.23058,"lon":5.35493,"is_reserved":false,"is_disabled":false,"rental_uris":{"android":"levelo://app?vid=6e512044-ef12-457b-bcca-26bd86c5618a","ios":"levelo://app?vid=6e512044-ef12-457b-bcca-26bd86c5618a"},"vehicle_type_id":"4","last_reported":1728267276,"current_range_meters":38000,"station_id":"cpo3342slgdg3j2ifvpg","pricing_plan_id":"cebpf4jnsgd1na2vs0mg"},{"bike_id":"d18846cc-861c-4232-b8a3-fe40eea38d70","system_id":"levelo_inurba_marseille","lat":43.29909,"lon":5.39735,"is_reserved":false,"is_disabled":false,"rental_uris":{"android":"levelo://app?vid=d18846cc-861c-4232-b8a3-fe40eea38d70","ios":"levelo://app?vid=d18846cc-861c-4232-b8a3-fe40eea38d70"},"vehicle_type_id":"4","last_reported":1728267276,"current_range_meters":25200,"station_id":"ce4bh0h2rcd13ifvqd50","pricing_plan_id":"cebpf4jnsgd1na2vs0mg"},{"bike_id":"9b51bc56-828e-463e-b515-d5fd3a04e660","system_id":"levelo_inurba_marseille","lat":43.26779,"lon":5.39428,"is_reserved":false,"is_disabled":false,"rental_uris":{"android":"levelo://app?vid=9b51bc56-828e-463e-b515-d5fd3a04e660","ios":"levelo://app?vid=9b51bc56-828e-463e-b515-d5fd3a04e660"},"vehicle_type_id":"4","last_reported":1728267276,"current_range_meters":38400,"station_id":"ce4bhh12rcd13ifvqfg0","pricing_plan_id":"cebpf4jnsgd1na2vs0mg"},{"bike_id":"5fc0ac48-73ba-4a5e-81b4-c78cd9dd600b","system_id":"levelo_inurba_marseille","lat":43.28419,"lon":5.34993,"is_reserved":false,"is_disabled":false,"rental_uris":{"android":"levelo://app?vid=5fc0ac48-73ba-4a5e-81b4-c78cd9dd600b","ios":"levelo://app?vid=5fc0ac48-73ba-4a5e-81b4-c78cd9dd600b"},"vehicle_type_id":"4","last_reported":1728267276,"current_range_meters":37600,"station_id":"ce4bhbh2rcd13ifvqepg","pricing_plan_id":"cebpf4jnsgd1na2vs0mg"},{"bike_id":"09533919-e196-4089-9f9c-66783c87f530","system_id":"levelo_inurba_marseille","lat":43.30894,"lon":5.3968,"is_reserved":false,"is_disabled":false,"rental_uris":{"android":"levelo://app?vid=09533919-e196-4089-9f9c-66783c87f530","ios":"levelo://app?vid=09533919-e196-4089-9f9c-66783c87f530"},"vehicle_type_id":"4","last_reported":1728267276,"current_range_meters":21600,"station_id":"ce4bh012rcd13ifvqcv0","pricing_plan_id":"cebpf4jnsgd1na2vs0mg"},{"bike_id":"ca11ad8e-2b8e-4f0f-ba6f-c0c17b818b37","system_id":"levelo_inurba_marseille","lat":43.25085,"lon":5.39516,"is_reserved":false,"is_disabled":false,"rental_uris":{"android":"levelo://app?vid=ca11ad8e-2b8e-4f0f-ba6f-c0c17b818b37","ios":"levelo://app?vid=ca11ad8e-2b8e-4f0f-ba6f-c0c17b818b37"},"vehicle_type_id":"4","last_reported":1728267276,"current_range_meters":38800,"station_id":"ce4bhm12rcd13ifvqgkg","pricing_plan_id":"cebpf4jnsgd1na2vs0mg"},{"bike_id":"270b90ca-7521-4165-af49-e1c727e5fa34","system_id":"levelo_inurba_marseille","lat":43.2416,"lon":5.36399,"is_reserved":false,"is_disabled":false,"rental_uris":{"android":"levelo://app?vid=270b90ca-7521-4165-af49-e1c727e5fa34","ios":"levelo://app?vid=270b90ca-7521-4165-af49-e1c727e5fa34"},"vehicle_type_id":"4","last_reported":1728267276,"current_range_meters":30400,"station_id":"cpo36qri1sfpv3e86is0","pricing_plan_id":"cebpf4jnsgd1na2vs0mg"},{"bike_id":"209ee47b-2fec-4318-b8c0-8089ade08057","system_id":"levelo_inurba_marseille","lat":43.30811,"lon":5.43524,"is_reserved":false,"is_disabled":false,"rental_uris":{"android":"levelo://app?vid=209ee47b-2fec-4318-b8c0-8089ade08057","ios":"levelo://app?vid=209ee47b-2fec-4318-b8c0-8089ade08057"},"vehicle_type_id":"4","last_reported":1728267276,"current_range_meters":38800,"station_id":"ce4bhph2rcd13ifvqheg","pricing_plan_id":"cebpf4jnsgd1na2vs0mg"},{"bike_id":"611d6115-26cb-4221-ba38-d0cfdcb796c1","system_id":"levelo_inurba_marseille","lat":43.28024,"lon":5.36942,"is_reserved":false,"is_disabled":false,"rental_uris":{"android":"levelo://app?vid=611d6115-26cb-4221-ba38-d0cfdcb796c1","ios":"levelo://app?vid=611d6115-26cb-4221-ba38-d0cfdcb796c1"},"vehicle_type_id":"4","last_reported":1728267276,"current_range_meters":37600,"station_id":"ce4bha12rcd13ifvqef0","pricing_plan_id":"cebpf4jnsgd1na2vs0mg"},{"bike_id":"a6e9d49a-4dd9-456d-ad6e-07a36ec96123","system_id":"levelo_inurba_marseille","lat":43.28995,"lon":5.35615,"is_reserved":false,"is_disabled":false,"rental_uris":{"android":"levelo://app?vid=a6e9d49a-4dd9-456d-ad6e-07a36ec96123","ios":"levelo://app?vid=a6e9d49a-4dd9-456d-ad6e-07a36ec96123"},"vehicle_type_id":"4","last_reported":1728267276,"current_range_meters":29600,"station_id":"ce4bhb92rcd13ifvqen0","pricing_plan_id":"cebpf4jnsgd1na2vs0mg"},{"bike_id":"5a4b67be-7590-4cf8-b42b-76b709519577","system_id":"levelo_inurba_marseille","lat":43.24392,"lon":5.37065,"is_reserved":false,"is_disabled":false,"rental_uris":{"android":"levelo://app?vid=5a4b67be-7590-4cf8-b42b-76b709519577","ios":"levelo://app?vid=5a4b67be-7590-4cf8-b42b-76b709519577"},"vehicle_type_id":"4","last_reported":1728267276,"current_range_meters":38800,"station_id":"ce4bhhh2rcd13ifvqfk0","pricing_plan_id":"cebpf4jnsgd1na2vs0mg"},{"bike_id":"8dffac73-c29e-4f5e-8d0f-7c698979d309","system_id":"levelo_inurba_marseille","lat":43.29278,"lon":5.40119,"is_reserved":false,"is_disabled":false,"rental_uris":{"android":"levelo://app?vid=8dffac73-c29e-4f5e-8d0f-7c698979d309","ios":"levelo://app?vid=8dffac73-c29e-4f5e-8d0f-7c698979d309"},"vehicle_type_id":"4","last_reported":1728267276,"current_range_meters":38800,"station_id":"ce4bh312rcd13ifvqdk0","pricing_plan_id":"cebpf4jnsgd1na2vs0mg"},{"bike_id":"7ee5e9ef-8ba7-417a-9f0f-b7bbd78d5fa9","system_id":"levelo_inurba_marseille","lat":43.30542,"lon":5.38428,"is_reserved":false,"is_disabled":false,"rental_uris":{"android":"levelo://app?vid=7ee5e9ef-8ba7-417a-9f0f-b7bbd78d5fa9","ios":"levelo://app?vid=7ee5e9ef-8ba7-417a-9f0f-b7bbd78d5fa9"},"vehicle_type_id":"4","last_reported":1728267276,"current_range_meters":37600,"station_id":"ce4bgg92rcd13ifvqb30","pricing_plan_id":"cebpf4jnsgd1na2vs0mg"},{"bike_id":"824e294a-c810-4688-b9ec-efc7382fd889","system_id":"levelo_inurba_marseille","lat":43.31084,"lon":5.42431,"is_reserved":false,"is_disabled":false,"rental_uris":{"android":"levelo://app?vid=824e294a-c810-4688-b9ec-efc7382fd889","ios":"levelo://app?vid=824e294a-c810-4688-b9ec-efc7382fd889"},"vehicle_type_id":"4","last_reported":1728267276,"current_range_meters":30800,"station_id":"ce4bhp92rcd13ifvqhag","pricing_plan_id":"cebpf4jnsgd1na2vs0mg"},{"bike_id":"caa7cbfa-b281-4470-bd68-a2cc70d4e3f4","system_id":"levelo_inurba_marseille","lat":43.30193,"lon":5.36596,"is_reserved":false,"is_disabled":false,"rental_uris":{"android":"levelo://app?vid=caa7cbfa-b281-4470-bd68-a2cc70d4e3f4","ios":"levelo://app?vid=caa7cbfa-b281-4470-bd68-a2cc70d4e3f4"},"vehicle_type_id":"4","last_reported":1728267276,"current_range_meters":21600,"station_id":"ce4bgrh2rcd13ifvqc8g","pricing_plan_id":"cebpf4jnsgd1na2vs0mg"},{"bike_id":"7e9e7fcf-e4ef-4ff0-9bf3-7a2ee0dde273","system_id":"levelo_inurba_marseille","lat":43.304473,"lon":5.389399,"is_reserved":false,"is_disabled":false,"rental_uris":{"android":"levelo://app?vid=7e9e7fcf-e4ef-4ff0-9bf3-7a2ee0dde273","ios":"levelo://app?vid=7e9e7fcf-e4ef-4ff0-9bf3-7a2ee0dde273"},"vehicle_type_id":"4","last_reported":1728267276,"current_range_meters":26800,"station_id":"ce4bgk12rcd13ifvqbi0","pricing_plan_id":"cebpf4jnsgd1na2vs0mg"},{"bike_id":"ca5f4c34-3469-41d3-9f12-b240f1be893e","system_id":"levelo_inurba_marseille","lat":43.22935,"lon":5.35379,"is_reserved":false,"is_disabled":false,"rental_uris":{"android":"levelo://app?vid=ca5f4c34-3469-41d3-9f12-b240f1be893e","ios":"levelo://app?vid=ca5f4c34-3469-41d3-9f12-b240f1be893e"},"vehicle_type_id":"4","last_reported":1728267276,"current_range_meters":17600,"station_id":"cpo3532slgdg3j2ikp40","pricing_plan_id":"cebpf4jnsgd1na2vs0mg"},{"bike_id":"0955aad5-ed7e-441f-9d87-8dcd85c01892","system_id":"levelo_inurba_marseille","lat":43.28433,"lon":5.39177,"is_reserved":false,"is_disabled":false,"rental_uris":{"android":"levelo://app?vid=0955aad5-ed7e-441f-9d87-8dcd85c01892","ios":"levelo://app?vid=0955aad5-ed7e-441f-9d87-8dcd85c01892"},"vehicle_type_id":"4","last_reported":1728267276,"current_range_meters":13600,"station_id":"ce4bhoh2rcd13ifvqh5g","pricing_plan_id":"cebpf4jnsgd1na2vs0mg"},{"bike_id":"56376cef-868a-4f3b-aa37-607a2ef36490","system_id":"levelo_inurba_marseille","lat":43.26538,"lon":5.39051,"is_reserved":false,"is_disabled":false,"rental_uris":{"android":"levelo://app?vid=56376cef-868a-4f3b-aa37-607a2ef36490","ios":"levelo://app?vid=56376cef-868a-4f3b-aa37-607a2ef36490"},"vehicle_type_id":"4","last_reported":1728267276,"current_range_meters":31200,"station_id":"ce4bhe12rcd13ifvqf30","pricing_plan_id":"cebpf4jnsgd1na2vs0mg"},{"bike_id":"d8a99f42-e569-442c-9ff5-86e714e6f437","system_id":"levelo_inurba_marseille","lat":43.31328,"lon":5.39718,"is_reserved":false,"is_disabled":false,"rental_uris":{"android":"levelo://app?vid=d8a99f42-e569-442c-9ff5-86e714e6f437","ios":"levelo://app?vid=d8a99f42-e569-442c-9ff5-86e714e6f437"},"vehicle_type_id":"4","last_reported":1728267276,"current_range_meters":28800,"station_id":"ce4bgvp2rcd13ifvqcu0","pricing_plan_id":"cebpf4jnsgd1na2vs0mg"},{"bike_id":"f055b8c8-78c8-4853-93b8-81296136d793","system_id":"levelo_inurba_marseille","lat":43.32641,"lon":5.41014,"is_reserved":false,"is_disabled":false,"rental_uris":{"android":"levelo://app?vid=f055b8c8-78c8-4853-93b8-81296136d793","ios":"levelo://app?vid=f055b8c8-78c8-4853-93b8-81296136d793"},"vehicle_type_id":"4","last_reported":1728267276,"current_range_meters":38800,"station_id":"ce4bhpp2rcd13ifvqhgg","pricing_plan_id":"cebpf4jnsgd1na2vs0mg"},{"bike_id":"85081b74-3c48-4b75-b6b6-b181683e784a","system_id":"levelo_inurba_marseille","lat":43.25721,"lon":5.41113,"is_reserved":false,"is_disabled":false,"rental_uris":{"android":"levelo://app?vid=85081b74-3c48-4b75-b6b6-b181683e784a","ios":"levelo://app?vid=85081b74-3c48-4b75-b6b6-b181683e784a"},"vehicle_type_id":"4","last_reported":1728267276,"current_range_meters":36800,"station_id":"ce4bhkp2rcd13ifvqgd0","pricing_plan_id":"cebpf4jnsgd1na2vs0mg"},{"bike_id":"ca150432-5632-417f-a220-d6e10e3598a2","system_id":"levelo_inurba_marseille","lat":43.2989,"lon":5.43654,"is_reserved":false,"is_disabled":false,"rental_uris":{"android":"levelo://app?vid=ca150432-5632-417f-a220-d6e10e3598a2","ios":"levelo://app?vid=ca150432-5632-417f-a220-d6e10e3598a2"},"vehicle_type_id":"4","last_reported":1728267276,"current_range_meters":38800,"station_id":"ce4bhpp2rcd13ifvqhfg","pricing_plan_id":"cebpf4jnsgd1na2vs0mg"},{"bike_id":"18f4ab43-24fa-435f-8a7b-72a8fa3a8ba9","system_id":"levelo_inurba_marseille","lat":43.2837,"lon":5.38613,"is_reserved":false,"is_disabled":false,"rental_uris":{"android":"levelo://app?vid=18f4ab43-24fa-435f-8a7b-72a8fa3a8ba9","ios":"levelo://app?vid=18f4ab43-24fa-435f-8a7b-72a8fa3a8ba9"},"vehicle_type_id":"4","last_reported":1728267276,"current_range_meters":38800,"station_id":"ce4bh492rcd13ifvqdvg","pricing_plan_id":"cebpf4jnsgd1na2vs0mg"},{"bike_id":"8791dffb-0fe7-4d2d-bb33-d23dba1351a1","system_id":"levelo_inurba_marseille","lat":43.29799,"lon":5.3933,"is_reserved":false,"is_disabled":false,"rental_uris":{"android":"levelo://app?vid=8791dffb-0fe7-4d2d-bb33-d23dba1351a1","ios":"levelo://app?vid=8791dffb-0fe7-4d2d-bb33-d23dba1351a1"},"vehicle_type_id":"4","last_reported":1728267276,"current_range_meters":27600,"station_id":"chh1huq6cuj3fo74tm60","pricing_plan_id":"cebpf4jnsgd1na2vs0mg"},{"bike_id":"78eec44f-edf7-4288-a02d-2e77152bcb64","system_id":"levelo_inurba_marseille","lat":43.28432,"lon":5.39175,"is_reserved":false,"is_disabled":false,"rental_uris":{"android":"levelo://app?vid=78eec44f-edf7-4288-a02d-2e77152bcb64","ios":"levelo://app?vid=78eec44f-edf7-4288-a02d-2e77152bcb64"},"vehicle_type_id":"4","last_reported":1728267276,"current_range_meters":21600,"station_id":"ce4bhoh2rcd13ifvqh5g","pricing_plan_id":"cebpf4jnsgd1na2vs0mg"},{"bike_id":"7cba0374-be77-4d49-8476-e0da3cccc891","system_id":"levelo_inurba_marseille","lat":43.24154,"lon":5.36399,"is_reserved":false,"is_disabled":false,"rental_uris":{"android":"levelo://app?vid=7cba0374-be77-4d49-8476-e0da3cccc891","ios":"levelo://app?vid=7cba0374-be77-4d49-8476-e0da3cccc891"},"vehicle_type_id":"4","last_reported":1728267276,"current_range_meters":28400,"station_id":"cpo36qri1sfpv3e86is0","pricing_plan_id":"cebpf4jnsgd1na2vs0mg"},{"bike_id":"de7b61ce-9a77-48b8-b281-c8a3b04be6be","system_id":"levelo_inurba_marseille","lat":43.30589,"lon":5.3656,"is_reserved":false,"is_disabled":false,"rental_uris":{"android":"levelo://app?vid=de7b61ce-9a77-48b8-b281-c8a3b04be6be","ios":"levelo://app?vid=de7b61ce-9a77-48b8-b281-c8a3b04be6be"},"vehicle_type_id":"4","last_reported":1728267276,"current_range_meters":24000,"station_id":"ce4bgs12rcd13ifvqcag","pricing_plan_id":"cebpf4jnsgd1na2vs0mg"},{"bike_id":"c2eafa11-ad6c-4f3b-b6e4-6e6fc5d9785c","system_id":"levelo_inurba_marseille","lat":43.29889,"lon":5.43661,"is_reserved":false,"is_disabled":false,"rental_uris":{"android":"levelo://app?vid=c2eafa11-ad6c-4f3b-b6e4-6e6fc5d9785c","ios":"levelo://app?vid=c2eafa11-ad6c-4f3b-b6e4-6e6fc5d9785c"},"vehicle_type_id":"4","last_reported":1728267276,"current_range_meters":37600,"station_id":"ce4bhpp2rcd13ifvqhfg","pricing_plan_id":"cebpf4jnsgd1na2vs0mg"},{"bike_id":"d0f999e2-85b5-4009-bc94-0921606f50d6","system_id":"levelo_inurba_marseille","lat":43.29197,"lon":5.39316,"is_reserved":false,"is_disabled":false,"rental_uris":{"android":"levelo://app?vid=d0f999e2-85b5-4009-bc94-0921606f50d6","ios":"levelo://app?vid=d0f999e2-85b5-4009-bc94-0921606f50d6"},"vehicle_type_id":"4","last_reported":1728267276,"current_range_meters":38800,"station_id":"ce4bh192rcd13ifvqdd0","pricing_plan_id":"cebpf4jnsgd1na2vs0mg"},{"bike_id":"a325764b-3e89-44ce-b7a8-b00d21009039","system_id":"levelo_inurba_marseille","lat":43.31328,"lon":5.39717,"is_reserved":false,"is_disabled":false,"rental_uris":{"android":"levelo://app?vid=a325764b-3e89-44ce-b7a8-b00d21009039","ios":"levelo://app?vid=a325764b-3e89-44ce-b7a8-b00d21009039"},"vehicle_type_id":"4","last_reported":1728267276,"current_range_meters":5600,"station_id":"ce4bgvp2rcd13ifvqcu0","pricing_plan_id":"cebpf4jnsgd1na2vs0mg"},{"bike_id":"2ff4817c-918e-43a1-9686-5fd0264db84e","system_id":"levelo_inurba_marseille","lat":43.31329,"lon":5.39716,"is_reserved":false,"is_disabled":false,"rental_uris":{"android":"levelo://app?vid=2ff4817c-918e-43a1-9686-5fd0264db84e","ios":"levelo://app?vid=2ff4817c-918e-43a1-9686-5fd0264db84e"},"vehicle_type_id":"4","last_reported":1728267276,"current_range_meters":8400,"station_id":"ce4bgvp2rcd13ifvqcu0","pricing_plan_id":"cebpf4jnsgd1na2vs0mg"},{"bike_id":"d6a904eb-96a5-4bea-a586-e8aaeedf5f4c","system_id":"levelo_inurba_marseille","lat":43.2572,"lon":5.41106,"is_reserved":false,"is_disabled":false,"rental_uris":{"android":"levelo://app?vid=d6a904eb-96a5-4bea-a586-e8aaeedf5f4c","ios":"levelo://app?vid=d6a904eb-96a5-4bea-a586-e8aaeedf5f4c"},"vehicle_type_id":"4","last_reported":1728267276,"current_range_meters":36800,"station_id":"ce4bhkp2rcd13ifvqgd0","pricing_plan_id":"cebpf4jnsgd1na2vs0mg"},{"bike_id":"09fb0b57-2324-4bd9-a741-e90822f89c25","system_id":"levelo_inurba_marseille","lat":43.24066,"lon":5.37763,"is_reserved":false,"is_disabled":false,"rental_uris":{"android":"levelo://app?vid=09fb0b57-2324-4bd9-a741-e90822f89c25","ios":"levelo://app?vid=09fb0b57-2324-4bd9-a741-e90822f89c25"},"vehicle_type_id":"4","last_reported":1728267276,"current_range_meters":38800,"station_id":"ce4bhnp2rcd13ifvqgvg","pricing_plan_id":"cebpf4jnsgd1na2vs0mg"},{"bike_id":"50849c11-3cff-4996-ab52-beb01f8836c7","system_id":"levelo_inurba_marseille","lat":43.26055,"lon":5.39381,"is_reserved":false,"is_disabled":false,"rental_uris":{"android":"levelo://app?vid=50849c11-3cff-4996-ab52-beb01f8836c7","ios":"levelo://app?vid=50849c11-3cff-4996-ab52-beb01f8836c7"},"vehicle_type_id":"4","last_reported":1728267276,"current_range_meters":8400,"station_id":"ce4bhh92rcd13ifvqfj0","pricing_plan_id":"cebpf4jnsgd1na2vs0mg"},{"bike_id":"b4da9d8b-9301-478c-9f01-3fa9f5b15d66","system_id":"levelo_inurba_marseille","lat":43.336,"lon":5.41025,"is_reserved":false,"is_disabled":false,"rental_uris":{"android":"levelo://app?vid=b4da9d8b-9301-478c-9f01-3fa9f5b15d66","ios":"levelo://app?vid=b4da9d8b-9301-478c-9f01-3fa9f5b15d66"},"vehicle_type_id":"4","last_reported":1728267276,"current_range_meters":38000,"station_id":"ce4bhqh2rcd13ifvqhmg","pricing_plan_id":"cebpf4jnsgd1na2vs0mg"},{"bike_id":"7dab7f56-8694-438f-aad3-658c33176dfe","system_id":"levelo_inurba_marseille","lat":43.31997,"lon":5.38149,"is_reserved":false,"is_disabled":false,"rental_uris":{"android":"levelo://app?vid=7dab7f56-8694-438f-aad3-658c33176dfe","ios":"levelo://app?vid=7dab7f56-8694-438f-aad3-658c33176dfe"},"vehicle_type_id":"4","last_reported":1728267276,"current_range_meters":38000,"station_id":"ce4bhr12rcd13ifvqhpg","pricing_plan_id":"cebpf4jnsgd1na2vs0mg"},{"bike_id":"7a348d21-f2e8-43e7-9c15-c14bb9bb72a2","system_id":"levelo_inurba_marseille","lat":43.29958,"lon":5.41317,"is_reserved":false,"is_disabled":false,"rental_uris":{"android":"levelo://app?vid=7a348d21-f2e8-43e7-9c15-c14bb9bb72a2","ios":"levelo://app?vid=7a348d21-f2e8-43e7-9c15-c14bb9bb72a2"},"vehicle_type_id":"4","last_reported":1728267276,"current_range_meters":20000,"station_id":"ce4bhp12rcd13ifvqh9g","pricing_plan_id":"cebpf4jnsgd1na2vs0mg"},{"bike_id":"fed13582-cc1d-459b-8b44-3590075050e0","system_id":"levelo_inurba_marseille","lat":43.25577,"lon":5.3824,"is_reserved":false,"is_disabled":false,"rental_uris":{"android":"levelo://app?vid=fed13582-cc1d-459b-8b44-3590075050e0","ios":"levelo://app?vid=fed13582-cc1d-459b-8b44-3590075050e0"},"vehicle_type_id":"4","last_reported":1728267276,"current_range_meters":38000,"station_id":"ce4bhih2rcd13ifvqfs0","pricing_plan_id":"cebpf4jnsgd1na2vs0mg"},{"bike_id":"6b85f1aa-8089-48ad-94d4-250fceea6bae","system_id":"levelo_inurba_marseille","lat":43.28034,"lon":5.36949,"is_reserved":false,"is_disabled":false,"rental_uris":{"android":"levelo://app?vid=6b85f1aa-8089-48ad-94d4-250fceea6bae","ios":"levelo://app?vid=6b85f1aa-8089-48ad-94d4-250fceea6bae"},"vehicle_type_id":"4","last_reported":1728267276,"current_range_meters":38000,"station_id":"ce4bha12rcd13ifvqef0","pricing_plan_id":"cebpf4jnsgd1na2vs0mg"},{"bike_id":"8bd16631-5fed-4070-bcdf-51a0bee6bb63","system_id":"levelo_inurba_marseille","lat":43.27941,"lon":5.41043,"is_reserved":false,"is_disabled":false,"rental_uris":{"android":"levelo://app?vid=8bd16631-5fed-4070-bcdf-51a0bee6bb63","ios":"levelo://app?vid=8bd16631-5fed-4070-bcdf-51a0bee6bb63"},"vehicle_type_id":"4","last_reported":1728267276,"current_range_meters":24400,"station_id":"ce4bhnp2rcd13ifvqh0g","pricing_plan_id":"cebpf4jnsgd1na2vs0mg"},{"bike_id":"6f9298d0-5f53-433b-9c4a-49e3bb21c6ea","system_id":"levelo_inurba_marseille","lat":43.28345,"lon":5.38107,"is_reserved":false,"is_disabled":false,"rental_uris":{"android":"levelo://app?vid=6f9298d0-5f53-433b-9c4a-49e3bb21c6ea","ios":"levelo://app?vid=6f9298d0-5f53-433b-9c4a-49e3bb21c6ea"},"vehicle_type_id":"4","last_reported":1728267276,"current_range_meters":38800,"station_id":"ce4bh412rcd13ifvqdr0","pricing_plan_id":"cebpf4jnsgd1na2vs0mg"},{"bike_id":"66a81085-1a96-4f65-934a-3195a2059afa","system_id":"levelo_inurba_marseille","lat":43.24654,"lon":5.389,"is_reserved":false,"is_disabled":false,"rental_uris":{"android":"levelo://app?vid=66a81085-1a96-4f65-934a-3195a2059afa","ios":"levelo://app?vid=66a81085-1a96-4f65-934a-3195a2059afa"},"vehicle_type_id":"4","last_reported":1728267276,"current_range_meters":38800,"station_id":"ce4bhg12rcd13ifvqf60","pricing_plan_id":"cebpf4jnsgd1na2vs0mg"},{"bike_id":"715d1bd0-266d-4db7-a413-7ed1a3b02ac3","system_id":"levelo_inurba_marseille","lat":43.2841,"lon":5.37518,"is_reserved":false,"is_disabled":false,"rental_uris":{"android":"levelo://app?vid=715d1bd0-266d-4db7-a413-7ed1a3b02ac3","ios":"levelo://app?vid=715d1bd0-266d-4db7-a413-7ed1a3b02ac3"},"vehicle_type_id":"4","last_reported":1728267276,"current_range_meters":38800,"station_id":"ce4bh412rcd13ifvqds0","pricing_plan_id":"cebpf4jnsgd1na2vs0mg"},{"bike_id":"de418b94-658a-4cf4-80c0-81d87cf7e675","system_id":"levelo_inurba_marseille","lat":43.29251,"lon":5.40904,"is_reserved":false,"is_disabled":false,"rental_uris":{"android":"levelo://app?vid=de418b94-658a-4cf4-80c0-81d87cf7e675","ios":"levelo://app?vid=de418b94-658a-4cf4-80c0-81d87cf7e675"},"vehicle_type_id":"4","last_reported":1728267276,"current_range_meters":39200,"station_id":"ce4bh192rcd13ifvqdc0","pricing_plan_id":"cebpf4jnsgd1na2vs0mg"},{"bike_id":"d8d2b8d4-8e5e-4fce-87f8-a108055250b0","system_id":"levelo_inurba_marseille","lat":43.28664,"lon":5.38661,"is_reserved":false,"is_disabled":false,"rental_uris":{"android":"levelo://app?vid=d8d2b8d4-8e5e-4fce-87f8-a108055250b0","ios":"levelo://app?vid=d8d2b8d4-8e5e-4fce-87f8-a108055250b0"},"vehicle_type_id":"4","last_reported":1728267276,"current_range_meters":38800,"station_id":"ce4bh492rcd13ifvqdug","pricing_plan_id":"cebpf4jnsgd1na2vs0mg"},{"bike_id":"61bec512-5c79-4055-a048-77e59c5d1c57","system_id":"levelo_inurba_marseille","lat":43.28462,"lon":5.35885,"is_reserved":false,"is_disabled":false,"rental_uris":{"android":"levelo://app?vid=61bec512-5c79-4055-a048-77e59c5d1c57","ios":"levelo://app?vid=61bec512-5c79-4055-a048-77e59c5d1c57"},"vehicle_type_id":"4","last_reported":1728267276,"current_range_meters":39200,"station_id":"ce4bhah2rcd13ifvqei0","pricing_plan_id":"cebpf4jnsgd1na2vs0mg"},{"bike_id":"b15507aa-9663-460a-acd3-1d919ec55220","system_id":"levelo_inurba_marseille","lat":43.23194,"lon":5.39987,"is_reserved":false,"is_disabled":false,"rental_uris":{"android":"levelo://app?vid=b15507aa-9663-460a-acd3-1d919ec55220","ios":"levelo://app?vid=b15507aa-9663-460a-acd3-1d919ec55220"},"vehicle_type_id":"4","last_reported":1728267276,"current_range_meters":39200,"station_id":"ce4bhn12rcd13ifvqgqg","pricing_plan_id":"cebpf4jnsgd1na2vs0mg"},{"bike_id":"1c6ced08-6c65-4e22-a8e3-0734c3156234","system_id":"levelo_inurba_marseille","lat":43.25716,"lon":5.41105,"is_reserved":false,"is_disabled":false,"rental_uris":{"android":"levelo://app?vid=1c6ced08-6c65-4e22-a8e3-0734c3156234","ios":"levelo://app?vid=1c6ced08-6c65-4e22-a8e3-0734c3156234"},"vehicle_type_id":"4","last_reported":1728267276,"current_range_meters":36800,"station_id":"ce4bhkp2rcd13ifvqgd0","pricing_plan_id":"cebpf4jnsgd1na2vs0mg"},{"bike_id":"4509ac5c-b041-4320-8642-49e1714e26fe","system_id":"levelo_inurba_marseille","lat":43.29101,"lon":5.3816,"is_reserved":false,"is_disabled":false,"rental_uris":{"android":"levelo://app?vid=4509ac5c-b041-4320-8642-49e1714e26fe","ios":"levelo://app?vid=4509ac5c-b041-4320-8642-49e1714e26fe"},"vehicle_type_id":"4","last_reported":1728267276,"current_range_meters":38800,"station_id":"ce4bh512rcd13ifvqe2g","pricing_plan_id":"cebpf4jnsgd1na2vs0mg"},{"bike_id":"9f68f468-7a15-4186-8431-b6fa6057d7a9","system_id":"levelo_inurba_marseille","lat":43.32289,"lon":5.38269,"is_reserved":false,"is_disabled":false,"rental_uris":{"android":"levelo://app?vid=9f68f468-7a15-4186-8431-b6fa6057d7a9","ios":"levelo://app?vid=9f68f468-7a15-4186-8431-b6fa6057d7a9"},"vehicle_type_id":"4","last_reported":1728267276,"current_range_meters":7200,"station_id":"ce4bhr12rcd13ifvqhqg","pricing_plan_id":"cebpf4jnsgd1na2vs0mg"},{"bike_id":"d2ad82e5-8cd8-4067-a9a7-9d8d40086b85","system_id":"levelo_inurba_marseille","lat":43.27524,"lon":5.39591,"is_reserved":false,"is_disabled":false,"rental_uris":{"android":"levelo://app?vid=d2ad82e5-8cd8-4067-a9a7-9d8d40086b85","ios":"levelo://app?vid=d2ad82e5-8cd8-4067-a9a7-9d8d40086b85"},"vehicle_type_id":"4","last_reported":1728267276,"current_range_meters":22800,"station_id":"","pricing_plan_id":"cebpf4jnsgd1na2vs0mg"},{"bike_id":"c7ff2338-f3bf-4d67-8895-3331eb055bbe","system_id":"levelo_inurba_marseille","lat":43.29029,"lon":5.39959,"is_reserved":false,"is_disabled":false,"rental_uris":{"android":"levelo://app?vid=c7ff2338-f3bf-4d67-8895-3331eb055bbe","ios":"levelo://app?vid=c7ff2338-f3bf-4d67-8895-3331eb055bbe"},"vehicle_type_id":"4","last_reported":1728267276,"current_range_meters":27600,"station_id":"ce4bh392rcd13ifvqdm0","pricing_plan_id":"cebpf4jnsgd1na2vs0mg"},{"bike_id":"89384bcf-17d9-4f3c-86c5-813ba8c61aaa","system_id":"levelo_inurba_marseille","lat":43.28475,"lon":5.384,"is_reserved":false,"is_disabled":false,"rental_uris":{"android":"levelo://app?vid=89384bcf-17d9-4f3c-86c5-813ba8c61aaa","ios":"levelo://app?vid=89384bcf-17d9-4f3c-86c5-813ba8c61aaa"},"vehicle_type_id":"4","last_reported":1728267276,"current_range_meters":38400,"station_id":"ce4bh512rcd13ifvqe3g","pricing_plan_id":"cebpf4jnsgd1na2vs0mg"},{"bike_id":"68b77a88-2067-422a-ab7b-e29094a40dcc","system_id":"levelo_inurba_marseille","lat":43.25119,"lon":5.40323,"is_reserved":false,"is_disabled":false,"rental_uris":{"android":"levelo://app?vid=68b77a88-2067-422a-ab7b-e29094a40dcc","ios":"levelo://app?vid=68b77a88-2067-422a-ab7b-e29094a40dcc"},"vehicle_type_id":"4","last_reported":1728267276,"current_range_meters":39200,"station_id":"ce4bhlh2rcd13ifvqgig","pricing_plan_id":"cebpf4jnsgd1na2vs0mg"},{"bike_id":"83d54d4a-a708-4af4-953c-a1569f745ffe","system_id":"levelo_inurba_marseille","lat":43.31691,"lon":5.37737,"is_reserved":false,"is_disabled":false,"rental_uris":{"android":"levelo://app?vid=83d54d4a-a708-4af4-953c-a1569f745ffe","ios":"levelo://app?vid=83d54d4a-a708-4af4-953c-a1569f745ffe"},"vehicle_type_id":"4","last_reported":1728267276,"current_range_meters":37600,"station_id":"ce4bgth2rcd13ifvqch0","pricing_plan_id":"cebpf4jnsgd1na2vs0mg"},{"bike_id":"8b5d7733-b439-4eff-8c2f-be6f7c9f03aa","system_id":"levelo_inurba_marseille","lat":43.28936,"lon":5.36383,"is_reserved":false,"is_disabled":false,"rental_uris":{"android":"levelo://app?vid=8b5d7733-b439-4eff-8c2f-be6f7c9f03aa","ios":"levelo://app?vid=8b5d7733-b439-4eff-8c2f-be6f7c9f03aa"},"vehicle_type_id":"4","last_reported":1728267276,"current_range_meters":38800,"station_id":"ce4bhc92rcd13ifvqetg","pricing_plan_id":"cebpf4jnsgd1na2vs0mg"},{"bike_id":"c0b8ebee-27ae-4c0f-a6ac-85e96575653e","system_id":"levelo_inurba_marseille","lat":43.28451,"lon":5.35895,"is_reserved":false,"is_disabled":false,"rental_uris":{"android":"levelo://app?vid=c0b8ebee-27ae-4c0f-a6ac-85e96575653e","ios":"levelo://app?vid=c0b8ebee-27ae-4c0f-a6ac-85e96575653e"},"vehicle_type_id":"4","last_reported":1728267276,"current_range_meters":38800,"station_id":"ce4bhah2rcd13ifvqei0","pricing_plan_id":"cebpf4jnsgd1na2vs0mg"},{"bike_id":"48ac0eb0-9551-44df-9a63-f2b5fd15046b","system_id":"levelo_inurba_marseille","lat":43.28374,"lon":5.38648,"is_reserved":false,"is_disabled":false,"rental_uris":{"android":"levelo://app?vid=48ac0eb0-9551-44df-9a63-f2b5fd15046b","ios":"levelo://app?vid=48ac0eb0-9551-44df-9a63-f2b5fd15046b"},"vehicle_type_id":"4","last_reported":1728267276,"current_range_meters":37600,"station_id":"ce4bh492rcd13ifvqdvg","pricing_plan_id":"cebpf4jnsgd1na2vs0mg"},{"bike_id":"31dbe0be-b207-4d36-94f8-f90ff582d615","system_id":"levelo_inurba_marseille","lat":43.28624,"lon":5.35109,"is_reserved":false,"is_disabled":false,"rental_uris":{"android":"levelo://app?vid=31dbe0be-b207-4d36-94f8-f90ff582d615","ios":"levelo://app?vid=31dbe0be-b207-4d36-94f8-f90ff582d615"},"vehicle_type_id":"4","last_reported":1728267276,"current_range_meters":16800,"station_id":"ce4bhch2rcd13ifvqeug","pricing_plan_id":"cebpf4jnsgd1na2vs0mg"},{"bike_id":"80ba6692-36a2-471f-b8b5-0e783b8c298c","system_id":"levelo_inurba_marseille","lat":43.30762,"lon":5.37623,"is_reserved":false,"is_disabled":false,"rental_uris":{"android":"levelo://app?vid=80ba6692-36a2-471f-b8b5-0e783b8c298c","ios":"levelo://app?vid=80ba6692-36a2-471f-b8b5-0e783b8c298c"},"vehicle_type_id":"4","last_reported":1728267276,"current_range_meters":29600,"station_id":"ce4bgv92rcd13ifvqcq0","pricing_plan_id":"cebpf4jnsgd1na2vs0mg"},{"bike_id":"c06432f7-425c-41e6-b185-0d2b53e94168","system_id":"levelo_inurba_marseille","lat":43.29257,"lon":5.40139,"is_reserved":false,"is_disabled":false,"rental_uris":{"android":"levelo://app?vid=c06432f7-425c-41e6-b185-0d2b53e94168","ios":"levelo://app?vid=c06432f7-425c-41e6-b185-0d2b53e94168"},"vehicle_type_id":"4","last_reported":1728267276,"current_range_meters":26800,"station_id":"ce4bh312rcd13ifvqdk0","pricing_plan_id":"cebpf4jnsgd1na2vs0mg"},{"bike_id":"ad8b4a48-8d2c-4456-93da-970dbca9306e","system_id":"levelo_inurba_marseille","lat":43.3112,"lon":5.37773,"is_reserved":false,"is_disabled":false,"rental_uris":{"android":"levelo://app?vid=ad8b4a48-8d2c-4456-93da-970dbca9306e","ios":"levelo://app?vid=ad8b4a48-8d2c-4456-93da-970dbca9306e"},"vehicle_type_id":"4","last_reported":1728267276,"current_range_meters":38800,"station_id":"ce4bgt92rcd13ifvqcg0","pricing_plan_id":"cebpf4jnsgd1na2vs0mg"},{"bike_id":"a285724e-d8b9-484f-a9d0-bf71614174b2","system_id":"levelo_inurba_marseille","lat":43.29551,"lon":5.42283,"is_reserved":false,"is_disabled":false,"rental_uris":{"android":"levelo://app?vid=a285724e-d8b9-484f-a9d0-bf71614174b2","ios":"levelo://app?vid=a285724e-d8b9-484f-a9d0-bf71614174b2"},"vehicle_type_id":"4","last_reported":1728267276,"current_range_meters":38800,"station_id":"ce4bhph2rcd13ifvqhdg","pricing_plan_id":"cebpf4jnsgd1na2vs0mg"},{"bike_id":"5c95c647-d3eb-4ba6-881d-3b353c9a2f59","system_id":"levelo_inurba_marseille","lat":43.28096,"lon":5.3784,"is_reserved":false,"is_disabled":false,"rental_uris":{"android":"levelo://app?vid=5c95c647-d3eb-4ba6-881d-3b353c9a2f59","ios":"levelo://app?vid=5c95c647-d3eb-4ba6-881d-3b353c9a2f59"},"vehicle_type_id":"4","last_reported":1728267276,"current_range_meters":39200,"station_id":"ce4bha12rcd13ifvqee0","pricing_plan_id":"cebpf4jnsgd1na2vs0mg"},{"bike_id":"a6545200-7e06-433e-a45c-f920533c53d7","system_id":"levelo_inurba_marseille","lat":43.28108,"lon":5.37835,"is_reserved":false,"is_disabled":false,"rental_uris":{"android":"levelo://app?vid=a6545200-7e06-433e-a45c-f920533c53d7","ios":"levelo://app?vid=a6545200-7e06-433e-a45c-f920533c53d7"},"vehicle_type_id":"4","last_reported":1728267276,"current_range_meters":28800,"station_id":"ce4bha12rcd13ifvqee0","pricing_plan_id":"cebpf4jnsgd1na2vs0mg"},{"bike_id":"86170d0b-8729-45dd-81c8-b82867ed835e","system_id":"levelo_inurba_marseille","lat":43.30864,"lon":5.37166,"is_reserved":false,"is_disabled":false,"rental_uris":{"android":"levelo://app?vid=86170d0b-8729-45dd-81c8-b82867ed835e","ios":"levelo://app?vid=86170d0b-8729-45dd-81c8-b82867ed835e"},"vehicle_type_id":"4","last_reported":1728267276,"current_range_meters":35200,"station_id":"ce4bguh2rcd13ifvqckg","pricing_plan_id":"cebpf4jnsgd1na2vs0mg"},{"bike_id":"a0acfbc6-4c52-45ea-8a0f-0cf6ff27475b","system_id":"levelo_inurba_marseille","lat":43.26805,"lon":5.40254,"is_reserved":false,"is_disabled":false,"rental_uris":{"android":"levelo://app?vid=a0acfbc6-4c52-45ea-8a0f-0cf6ff27475b","ios":"levelo://app?vid=a0acfbc6-4c52-45ea-8a0f-0cf6ff27475b"},"vehicle_type_id":"4","last_reported":1728267276,"current_range_meters":38800,"station_id":"ce501612rcd8frsf0b60","pricing_plan_id":"cebpf4jnsgd1na2vs0mg"},{"bike_id":"27c5f2a9-8158-45c6-b742-4db159c5f60d","system_id":"levelo_inurba_marseille","lat":43.31314,"lon":5.39699,"is_reserved":false,"is_disabled":false,"rental_uris":{"android":"levelo://app?vid=27c5f2a9-8158-45c6-b742-4db159c5f60d","ios":"levelo://app?vid=27c5f2a9-8158-45c6-b742-4db159c5f60d"},"vehicle_type_id":"4","last_reported":1728267276,"current_range_meters":38800,"station_id":"ce4bgvp2rcd13ifvqcu0","pricing_plan_id":"cebpf4jnsgd1na2vs0mg"},{"bike_id":"7b370d99-5247-45ef-a303-548109cf04e4","system_id":"levelo_inurba_marseille","lat":43.25734,"lon":5.41106,"is_reserved":false,"is_disabled":false,"rental_uris":{"android":"levelo://app?vid=7b370d99-5247-45ef-a303-548109cf04e4","ios":"levelo://app?vid=7b370d99-5247-45ef-a303-548109cf04e4"},"vehicle_type_id":"4","last_reported":1728267276,"current_range_meters":4400,"station_id":"ce4bhkp2rcd13ifvqgd0","pricing_plan_id":"cebpf4jnsgd1na2vs0mg"},{"bike_id":"f7452467-f43b-421e-891e-59c26efa3cb6","system_id":"levelo_inurba_marseille","lat":43.32495,"lon":5.36543,"is_reserved":false,"is_disabled":false,"rental_uris":{"android":"levelo://app?vid=f7452467-f43b-421e-891e-59c26efa3cb6","ios":"levelo://app?vid=f7452467-f43b-421e-891e-59c26efa3cb6"},"vehicle_type_id":"4","last_reported":1728267276,"current_range_meters":38000,"station_id":"ce4bhs12rcd13ifvqhvg","pricing_plan_id":"cebpf4jnsgd1na2vs0mg"},{"bike_id":"46111dd5-309e-46c2-94a5-fd1026f78ab1","system_id":"levelo_inurba_marseille","lat":43.31128,"lon":5.37784,"is_reserved":false,"is_disabled":false,"rental_uris":{"android":"levelo://app?vid=46111dd5-309e-46c2-94a5-fd1026f78ab1","ios":"levelo://app?vid=46111dd5-309e-46c2-94a5-fd1026f78ab1"},"vehicle_type_id":"4","last_reported":1728267276,"current_range_meters":16000,"station_id":"ce4bgt92rcd13ifvqcg0","pricing_plan_id":"cebpf4jnsgd1na2vs0mg"},{"bike_id":"a6efd440-64c2-4bc6-9a2b-c6f1c2b5dae0","system_id":"levelo_inurba_marseille","lat":43.31076,"lon":5.383539,"is_reserved":false,"is_disabled":false,"rental_uris":{"android":"levelo://app?vid=a6efd440-64c2-4bc6-9a2b-c6f1c2b5dae0","ios":"levelo://app?vid=a6efd440-64c2-4bc6-9a2b-c6f1c2b5dae0"},"vehicle_type_id":"4","last_reported":1728267276,"current_range_meters":24800,"station_id":"ce4bgv92rcd13ifvqcr0","pricing_plan_id":"cebpf4jnsgd1na2vs0mg"},{"bike_id":"3af48eb3-1d1f-4a32-a948-7cc05add2405","system_id":"levelo_inurba_marseille","lat":43.24543,"lon":5.3953,"is_reserved":false,"is_disabled":false,"rental_uris":{"android":"levelo://app?vid=3af48eb3-1d1f-4a32-a948-7cc05add2405","ios":"levelo://app?vid=3af48eb3-1d1f-4a32-a948-7cc05add2405"},"vehicle_type_id":"4","last_reported":1728267276,"current_range_meters":28000,"station_id":"ce4bhlp2rcd13ifvqgjg","pricing_plan_id":"cebpf4jnsgd1na2vs0mg"},{"bike_id":"0310fd20-d962-41d3-867a-dcb14ee1af85","system_id":"levelo_inurba_marseille","lat":43.27048,"lon":5.38798,"is_reserved":false,"is_disabled":false,"rental_uris":{"android":"levelo://app?vid=0310fd20-d962-41d3-867a-dcb14ee1af85","ios":"levelo://app?vid=0310fd20-d962-41d3-867a-dcb14ee1af85"},"vehicle_type_id":"4","last_reported":1728267276,"current_range_meters":33200,"station_id":"","pricing_plan_id":"cebpf4jnsgd1na2vs0mg"},{"bike_id":"e483c2df-b264-469a-9770-b5566865794c","system_id":"levelo_inurba_marseille","lat":43.28686,"lon":5.39991,"is_reserved":false,"is_disabled":false,"rental_uris":{"android":"levelo://app?vid=e483c2df-b264-469a-9770-b5566865794c","ios":"levelo://app?vid=e483c2df-b264-469a-9770-b5566865794c"},"vehicle_type_id":"4","last_reported":1728267276,"current_range_meters":36800,"station_id":"ce4bho92rcd13ifvqh3g","pricing_plan_id":"cebpf4jnsgd1na2vs0mg"},{"bike_id":"67c4d9dd-ea85-4b87-a82f-9d128e46f7d4","system_id":"levelo_inurba_marseille","lat":43.24548,"lon":5.39529,"is_reserved":false,"is_disabled":false,"rental_uris":{"android":"levelo://app?vid=67c4d9dd-ea85-4b87-a82f-9d128e46f7d4","ios":"levelo://app?vid=67c4d9dd-ea85-4b87-a82f-9d128e46f7d4"},"vehicle_type_id":"4","last_reported":1728267276,"current_range_meters":38000,"station_id":"ce4bhlp2rcd13ifvqgjg","pricing_plan_id":"cebpf4jnsgd1na2vs0mg"},{"bike_id":"44cb9723-f094-45c7-9c71-6d82e25886a7","system_id":"levelo_inurba_marseille","lat":43.23047,"lon":5.355,"is_reserved":false,"is_disabled":false,"rental_uris":{"android":"levelo://app?vid=44cb9723-f094-45c7-9c71-6d82e25886a7","ios":"levelo://app?vid=44cb9723-f094-45c7-9c71-6d82e25886a7"},"vehicle_type_id":"4","last_reported":1728267276,"current_range_meters":38400,"station_id":"cpo3342slgdg3j2ifvpg","pricing_plan_id":"cebpf4jnsgd1na2vs0mg"},{"bike_id":"b51ee6d2-4574-4587-a7f0-3852397ae634","system_id":"levelo_inurba_marseille","lat":43.22929,"lon":5.35385,"is_reserved":false,"is_disabled":false,"rental_uris":{"android":"levelo://app?vid=b51ee6d2-4574-4587-a7f0-3852397ae634","ios":"levelo://app?vid=b51ee6d2-4574-4587-a7f0-3852397ae634"},"vehicle_type_id":"4","last_reported":1728267276,"current_range_meters":33200,"station_id":"cpo3532slgdg3j2ikp40","pricing_plan_id":"cebpf4jnsgd1na2vs0mg"},{"bike_id":"0459e68c-52af-498e-88db-d1a26f9994fd","system_id":"levelo_inurba_marseille","lat":43.27367,"lon":5.36245,"is_reserved":false,"is_disabled":false,"rental_uris":{"android":"levelo://app?vid=0459e68c-52af-498e-88db-d1a26f9994fd","ios":"levelo://app?vid=0459e68c-52af-498e-88db-d1a26f9994fd"},"vehicle_type_id":"4","last_reported":1728267276,"current_range_meters":38000,"station_id":"ce4bhbh2rcd13ifvqeo0","pricing_plan_id":"cebpf4jnsgd1na2vs0mg"},{"bike_id":"2f1e8879-e0af-4267-beb2-826f07f9adbd","system_id":"levelo_inurba_marseille","lat":43.28466,"lon":5.38539,"is_reserved":false,"is_disabled":false,"rental_uris":{"android":"levelo://app?vid=2f1e8879-e0af-4267-beb2-826f07f9adbd","ios":"levelo://app?vid=2f1e8879-e0af-4267-beb2-826f07f9adbd"},"vehicle_type_id":"4","last_reported":1728267276,"current_range_meters":38800,"station_id":"ce4bh8p2rcd13ifvqeb0","pricing_plan_id":"cebpf4jnsgd1na2vs0mg"},{"bike_id":"6a217875-cf24-470c-9d34-0fd8beb4dfb1","system_id":"levelo_inurba_marseille","lat":43.33606,"lon":5.41027,"is_reserved":false,"is_disabled":false,"rental_uris":{"android":"levelo://app?vid=6a217875-cf24-470c-9d34-0fd8beb4dfb1","ios":"levelo://app?vid=6a217875-cf24-470c-9d34-0fd8beb4dfb1"},"vehicle_type_id":"4","last_reported":1728267276,"current_range_meters":36800,"station_id":"ce4bhqh2rcd13ifvqhmg","pricing_plan_id":"cebpf4jnsgd1na2vs0mg"},{"bike_id":"5f60c541-6cd8-440c-af1b-186c8381e736","system_id":"levelo_inurba_marseille","lat":43.28429,"lon":5.3918,"is_reserved":false,"is_disabled":false,"rental_uris":{"android":"levelo://app?vid=5f60c541-6cd8-440c-af1b-186c8381e736","ios":"levelo://app?vid=5f60c541-6cd8-440c-af1b-186c8381e736"},"vehicle_type_id":"4","last_reported":1728267276,"current_range_meters":16000,"station_id":"ce4bhoh2rcd13ifvqh5g","pricing_plan_id":"cebpf4jnsgd1na2vs0mg"},{"bike_id":"f2acd239-ccb9-48cf-834c-23b38c9062b9","system_id":"levelo_inurba_marseille","lat":43.26194,"lon":5.37456,"is_reserved":false,"is_disabled":false,"rental_uris":{"android":"levelo://app?vid=f2acd239-ccb9-48cf-834c-23b38c9062b9","ios":"levelo://app?vid=f2acd239-ccb9-48cf-834c-23b38c9062b9"},"vehicle_type_id":"4","last_reported":1728267276,"current_range_meters":38800,"station_id":"ce4bhgp2rcd13ifvqfc0","pricing_plan_id":"cebpf4jnsgd1na2vs0mg"},{"bike_id":"4e0c83a2-b0c3-4894-8559-e509681998d3","system_id":"levelo_inurba_marseille","lat":43.31124,"lon":5.38339,"is_reserved":false,"is_disabled":false,"rental_uris":{"android":"levelo://app?vid=4e0c83a2-b0c3-4894-8559-e509681998d3","ios":"levelo://app?vid=4e0c83a2-b0c3-4894-8559-e509681998d3"},"vehicle_type_id":"4","last_reported":1728267276,"current_range_meters":6000,"station_id":"","pricing_plan_id":"cebpf4jnsgd1na2vs0mg"},{"bike_id":"a76ee3fd-363a-4d57-9618-b37ded534ce5","system_id":"levelo_inurba_marseille","lat":43.24391,"lon":5.37069,"is_reserved":false,"is_disabled":false,"rental_uris":{"android":"levelo://app?vid=a76ee3fd-363a-4d57-9618-b37ded534ce5","ios":"levelo://app?vid=a76ee3fd-363a-4d57-9618-b37ded534ce5"},"vehicle_type_id":"4","last_reported":1728267276,"current_range_meters":36400,"station_id":"ce4bhhh2rcd13ifvqfk0","pricing_plan_id":"cebpf4jnsgd1na2vs0mg"},{"bike_id":"79f4b86c-d8a8-4ba8-8d92-b98b5173d09a","system_id":"levelo_inurba_marseille","lat":43.28568,"lon":5.39476,"is_reserved":false,"is_disabled":false,"rental_uris":{"android":"levelo://app?vid=79f4b86c-d8a8-4ba8-8d92-b98b5173d09a","ios":"levelo://app?vid=79f4b86c-d8a8-4ba8-8d92-b98b5173d09a"},"vehicle_type_id":"4","last_reported":1728267276,"current_range_meters":27600,"station_id":"ce4bh292rcd13ifvqdg0","pricing_plan_id":"cebpf4jnsgd1na2vs0mg"},{"bike_id":"ae53a9d1-01ac-447b-a4c7-269e1c5ac403","system_id":"levelo_inurba_marseille","lat":43.31822,"lon":5.40632,"is_reserved":false,"is_disabled":false,"rental_uris":{"android":"levelo://app?vid=ae53a9d1-01ac-447b-a4c7-269e1c5ac403","ios":"levelo://app?vid=ae53a9d1-01ac-447b-a4c7-269e1c5ac403"},"vehicle_type_id":"4","last_reported":1728267276,"current_range_meters":9200,"station_id":"","pricing_plan_id":"cebpf4jnsgd1na2vs0mg"},{"bike_id":"583707f1-0e79-4991-97d9-91493229adea","system_id":"levelo_inurba_marseille","lat":43.32654,"lon":5.40987,"is_reserved":false,"is_disabled":false,"rental_uris":{"android":"levelo://app?vid=583707f1-0e79-4991-97d9-91493229adea","ios":"levelo://app?vid=583707f1-0e79-4991-97d9-91493229adea"},"vehicle_type_id":"4","last_reported":1728267276,"current_range_meters":38800,"station_id":"ce4bhpp2rcd13ifvqhgg","pricing_plan_id":"cebpf4jnsgd1na2vs0mg"},