{"last_updated":1745500926,"ttl":60,"version":"2.2","data":{"bikes":[{"bike_id":"b2604650-471c-4c6a-8f33-b6d730592d55","system_id":"levelo_inurba_marseille","lat":43.30618,"lon":5.39887,"is_reserved":false,"is_disabled":false,"rental_uris":{"android":"levelo://app?vid=b2604650-471c-4c6a-8f33-b6d730592d55","ios":"levelo://app?vid=b2604650-471c-4c6a-8f33-b6d730592d55"},"vehicle_type_id":"4","last_reported":1745500926,"current_range_meters":3200,"station_id":"","pricing_plan_id":"cebpf4jnsgd1na2vs0mg"},{"bike_id":"b76c9851-2c76-42d0-a114-3b8676f03ab3","system_id":"levelo_inurba_marseille","lat":43.29272,"lon":5.4011,"is_reserved":false,"is_disabled":false,"rental_uris":{"android":"levelo://app?vid=b76c9851-2c76-42d0-a114-3b8676f03ab3","ios":"levelo://app?vid=b76c9851-2c76-42d0-a114-3b8676f03ab3"},"vehicle_type_id":"4","last_reported":1745500926,"current_range_meters":3200,"station_id":"ce4bh312rcd13ifvqdk0","pricing_plan_id":"cebpf4jnsgd1na2vs0mg"},{"bike_id":"63776a79-b60e-4a02-9505-2d6ee291d3f0","system_id":"levelo_inurba_marseille","lat":43.21754,"lon":5.3459,"is_reserved":false,"is_disabled":false,"rental_uris":{"android":"levelo://app?vid=63776a79-b60e-4a02-9505-2d6ee291d3f0","ios":"levelo://app?vid=63776a79-b60e-4a02-9505-2d6ee291d3f0"},"vehicle_type_id":"4","last_reported":1745500926,"current_range_meters":3200,"station_id":"st_cvj6r9ubvosntc0bgbag","pricing_plan_id":"cebpf4jnsgd1na2vs0mg"},{"bike_id":"10170729-50a8-4ed5-84dd-0265207f9016","system_id":"levelo_inurba_marseille","lat":43.29887,"lon":5.43646,"is_reserved":false,"is_disabled":false,"rental_uris":{"android":"levelo://app?vid=10170729-50a8-4ed5-84dd-0265207f9016","ios":"levelo://app?vid=10170729-50a8-4ed5-84dd-0265207f9016"},"vehicle_type_id":"4","last_reported":1745500926,"current_range_meters":3600,"station_id":"ce4bhpp2rcd13ifvqhfg","pricing_plan_id":"cebpf4jnsgd1na2vs0mg"},{"bike_id":"cbbc2111-0db3-48ca-97f7-6d32bab61bd3","system_id":"levelo_inurba_marseille","lat":43.23177,"lon":5.3999,"is_reserved":false,"is_disabled":false,"rental_uris":{"android":"levelo://app?vid=cbbc2111-0db3-48ca-97f7-6d32bab61bd3","ios":"levelo://app?vid=cbbc2111-0db3-48ca-97f7-6d32bab61bd3"},"vehicle_type_id":"4","last_reported":1745500926,"current_range_meters":3600,"station_id":"ce4bhn12rcd13ifvqgqg","pricing_plan_id":"cebpf4jnsgd1na2vs0mg"},{"bike_id":"ae8bd45d-d083-4d1e-b232-b2e7d09d162c","system_id":"levelo_inurba_marseille","lat":43.31751,"lon":5.39015,"is_reserved":false,"is_disabled":false,"rental_uris":{"android":"levelo://app?vid=ae8bd45d-d083-4d1e-b232-b2e7d09d162c","ios":"levelo://app?vid=ae8bd45d-d083-4d1e-b232-b2e7d09d162c"},"vehicle_type_id":"4","last_reported":1745500926,"current_range_meters":3200,"station_id":"ce4bhqp2rcd13ifvqhng","pricing_plan_id":"cebpf4jnsgd1na2vs0mg"},{"bike_id":"57d3fc05-a893-4b4f-9408-cc3dcc80e436","system_id":"levelo_inurba_marseille","lat":43.31355,"lon":5.39716,"is_reserved":false,"is_disabled":false,"rental_uris":{"android":"levelo://app?vid=57d3fc05-a893-4b4f-9408-cc3dcc80e436","ios":"levelo://app?vid=57d3fc05-a893-4b4f-9408-cc3dcc80e436"},"vehicle_type_id":"4","last_reported":1745500926,"current_range_meters":3600,"station_id":"ce4bgvp2rcd13ifvqcu0","pricing_plan_id":"cebpf4jnsgd1na2vs0mg"},{"bike_id":"82d56c71-d72b-4bf8-a39c-bcf8518c1c5b","system_id":"levelo_inurba_marseille","lat":43.30457,"lon":5.38879,"is_reserved":false,"is_disabled":false,"rental_uris":{"android":"levelo://app?vid=82d56c71-d72b-4bf8-a39c-bcf8518c1c5b","ios":"levelo://app?vid=82d56c71-d72b-4bf8-a39c-bcf8518c1c5b"},"vehicle_type_id":"4","last_reported":1745500926,"current_range_meters":1200,"station_id":"ce4bgk12rcd13ifvqbi0","pricing_plan_id":"cebpf4jnsgd1na2vs0mg"},{"bike_id":"bd546d99-5c1e-4f87-ba8d-b528a361eea0","system_id":"levelo_inurba_marseille","lat":43.30432,"lon":5.39749,"is_reserved":false,"is_disabled":false,"rental_uris":{"android":"levelo://app?vid=bd546d99-5c1e-4f87-ba8d-b528a361eea0","ios":"levelo://app?vid=bd546d99-5c1e-4f87-ba8d-b528a361eea0"},"vehicle_type_id":"4","last_reported":1745500926,"current_range_meters":4400,"station_id":"ce4bh092rcd13ifvqd20","pricing_plan_id":"cebpf4jnsgd1na2vs0mg"},{"bike_id":"4c8c8820-b2dd-4b87-9276-dbf5a4455029","system_id":"levelo_inurba_marseille","lat":43.287292,"lon":5.379384,"is_reserved":false,"is_disabled":false,"rental_uris":{"android":"levelo://app?vid=4c8c8820-b2dd-4b87-9276-dbf5a4455029","ios":"levelo://app?vid=4c8c8820-b2dd-4b87-9276-dbf5a4455029"},"vehicle_type_id":"4","last_reported":1745500926,"current_range_meters":4400,"station_id":"ce4bgup2rcd13ifvqcn0","pricing_plan_id":"cebpf4jnsgd1na2vs0mg"},{"bike_id":"3ee10399-286a-41bd-9812-a0d2067b5430","system_id":"levelo_inurba_marseille","lat":43.28693,"lon":5.39989,"is_reserved":false,"is_disabled":false,"rental_uris":{"android":"levelo://app?vid=3ee10399-286a-41bd-9812-a0d2067b5430","ios":"levelo://app?vid=3ee10399-286a-41bd-9812-a0d2067b5430"},"vehicle_type_id":"4","last_reported":1745500926,"current_range_meters":4400,"station_id":"ce4bho92rcd13ifvqh3g","pricing_plan_id":"cebpf4jnsgd1na2vs0mg"},{"bike_id":"a0c73a71-2c13-4e2c-8b18-763fc28ae118","system_id":"levelo_inurba_marseille","lat":43.29933,"lon":5.36561,"is_reserved":false,"is_disabled":false,"rental_uris":{"android":"levelo://app?vid=a0c73a71-2c13-4e2c-8b18-763fc28ae118","ios":"levelo://app?vid=a0c73a71-2c13-4e2c-8b18-763fc28ae118"},"vehicle_type_id":"4","last_reported":1745500926,"current_range_meters":4400,"station_id":"ce4bgm92rcd13ifvqbr0","pricing_plan_id":"cebpf4jnsgd1na2vs0mg"},{"bike_id":"1b521def-b4ba-4740-8c9a-ebd77efdce70","system_id":"levelo_inurba_marseille","lat":43.29189,"lon":5.39325,"is_reserved":false,"is_disabled":false,"rental_uris":{"android":"levelo://app?vid=1b521def-b4ba-4740-8c9a-ebd77efdce70","ios":"levelo://app?vid=1b521def-b4ba-4740-8c9a-ebd77efdce70"},"vehicle_type_id":"4","last_reported":1745500926,"current_range_meters":4800,"station_id":"ce4bh192rcd13ifvqdd0","pricing_plan_id":"cebpf4jnsgd1na2vs0mg"},{"bike_id":"e6c58b51-27dc-4912-87e9-5c614602d6f7","system_id":"levelo_inurba_marseille","lat":43.29621,"lon":5.37165,"is_reserved":false,"is_disabled":false,"rental_uris":{"android":"levelo://app?vid=e6c58b51-27dc-4912-87e9-5c614602d6f7","ios":"levelo://app?vid=e6c58b51-27dc-4912-87e9-5c614602d6f7"},"vehicle_type_id":"4","last_reported":1745500926,"current_range_meters":4400,"station_id":"ce4bgnh2rcd13ifvqc0g","pricing_plan_id":"cebpf4jnsgd1na2vs0mg"},{"bike_id":"8fa49ed4-5935-41d8-b071-ed4a0aa0fb99","system_id":"levelo_inurba_marseille","lat":43.29628,"lon":5.40593,"is_reserved":false,"is_disabled":false,"rental_uris":{"android":"levelo://app?vid=8fa49ed4-5935-41d8-b071-ed4a0aa0fb99","ios":"levelo://app?vid=8fa49ed4-5935-41d8-b071-ed4a0aa0fb99"},"vehicle_type_id":"4","last_reported":1745500926,"current_range_meters":4800,"station_id":"ce4bh0h2rcd13ifvqd60","pricing_plan_id":"cebpf4jnsgd1na2vs0mg"},{"bike_id":"c39e32fc-cc8e-42ce-ba6b-4cd8da7e1876","system_id":"levelo_inurba_marseille","lat":43.29622,"lon":5.37727,"is_reserved":false,"is_disabled":false,"rental_uris":{"android":"levelo://app?vid=c39e32fc-cc8e-42ce-ba6b-4cd8da7e1876","ios":"levelo://app?vid=c39e32fc-cc8e-42ce-ba6b-4cd8da7e1876"},"vehicle_type_id":"4","last_reported":1745500926,"current_range_meters":5600,"station_id":"ce4bgi92rcd13ifvqb90","pricing_plan_id":"cebpf4jnsgd1na2vs0mg"},{"bike_id":"d94f0576-c42f-4487-b9a3-b624bd0ff858","system_id":"levelo_inurba_marseille","lat":43.26209,"lon":5.37442,"is_reserved":false,"is_disabled":false,"rental_uris":{"android":"levelo://app?vid=d94f0576-c42f-4487-b9a3-b624bd0ff858","ios":"levelo://app?vid=d94f0576-c42f-4487-b9a3-b624bd0ff858"},"vehicle_type_id":"4","last_reported":1745500926,"current_range_meters":5600,"station_id":"ce4bhgp2rcd13ifvqfc0","pricing_plan_id":"cebpf4jnsgd1na2vs0mg"},{"bike_id":"49c0f902-eac7-4a79-adf0-d142aff51e11","system_id":"levelo_inurba_marseille","lat":43.241605,"lon":5.363952,"is_reserved":false,"is_disabled":false,"rental_uris":{"android":"levelo://app?vid=49c0f902-eac7-4a79-adf0-d142aff51e11","ios":"levelo://app?vid=49c0f902-eac7-4a79-adf0-d142aff51e11"},"vehicle_type_id":"4","last_reported":1745500926,"current_range_meters":5600,"station_id":"cpo36qri1sfpv3e86is0","pricing_plan_id":"cebpf4jnsgd1na2vs0mg"},{"bike_id":"390202fb-ed94-4066-9df6-fb80390e94c0","system_id":"levelo_inurba_marseille","lat":43.302189,"lon":5.394713,"is_reserved":false,"is_disabled":false,"rental_uris":{"android":"levelo://app?vid=390202fb-ed94-4066-9df6-fb80390e94c0","ios":"levelo://app?vid=390202fb-ed94-4066-9df6-fb80390e94c0"},"vehicle_type_id":"4","last_reported":1745500926,"current_range_meters":5600,"station_id":"ce4bh0p2rcd13ifvqd70","pricing_plan_id":"cebpf4jnsgd1na2vs0mg"},{"bike_id":"50deb5ee-ea49-49b7-930d-8030628185ff","system_id":"levelo_inurba_marseille","lat":43.2762,"lon":5.36121,"is_reserved":false,"is_disabled":false,"rental_uris":{"android":"levelo://app?vid=50deb5ee-ea49-49b7-930d-8030628185ff","ios":"levelo://app?vid=50deb5ee-ea49-49b7-930d-8030628185ff"},"vehicle_type_id":"4","last_reported":1745500926,"current_range_meters":6000,"station_id":"ce4bgj92rcd13ifvqbe0","pricing_plan_id":"cebpf4jnsgd1na2vs0mg"},{"bike_id":"d51c8099-d05c-4f78-9f75-05fa54aace70","system_id":"levelo_inurba_marseille","lat":43.33718,"lon":5.39199,"is_reserved":false,"is_disabled":false,"rental_uris":{"android":"levelo://app?vid=d51c8099-d05c-4f78-9f75-05fa54aace70","ios":"levelo://app?vid=d51c8099-d05c-4f78-9f75-05fa54aace70"},"vehicle_type_id":"4","last_reported":1745500926,"current_range_meters":6000,"station_id":"ce4bhr92rcd13ifvqhsg","pricing_plan_id":"cebpf4jnsgd1na2vs0mg"},{"bike_id":"2323f4c9-51e1-4550-aeff-51df9d29d532","system_id":"levelo_inurba_marseille","lat":43.267808,"lon":5.394169,"is_reserved":false,"is_disabled":false,"rental_uris":{"android":"levelo://app?vid=2323f4c9-51e1-4550-aeff-51df9d29d532","ios":"levelo://app?vid=2323f4c9-51e1-4550-aeff-51df9d29d532"},"vehicle_type_id":"4","last_reported":1745500926,"current_range_meters":8400,"station_id":"ce4bhh12rcd13ifvqfg0","pricing_plan_id":"cebpf4jnsgd1na2vs0mg"},{"bike_id":"a780ef0c-c2a8-4441-bbb2-e9e417239541","system_id":"levelo_inurba_marseille","lat":43.28864,"lon":5.35841,"is_reserved":false,"is_disabled":false,"rental_uris":{"android":"levelo://app?vid=a780ef0c-c2a8-4441-bbb2-e9e417239541","ios":"levelo://app?vid=a780ef0c-c2a8-4441-bbb2-e9e417239541"},"vehicle_type_id":"4","last_reported":1745500926,"current_range_meters":6400,"station_id":"ce4bhb12rcd13ifvqem0","pricing_plan_id":"cebpf4jnsgd1na2vs0mg"},{"bike_id":"bebb93a1-eeaa-4b14-8418-6f177eac97c3","system_id":"levelo_inurba_marseille","lat":43.2989,"lon":5.38896,"is_reserved":false,"is_disabled":false,"rental_uris":{"android":"levelo://app?vid=bebb93a1-eeaa-4b14-8418-6f177eac97c3","ios":"levelo://app?vid=bebb93a1-eeaa-4b14-8418-6f177eac97c3"},"vehicle_type_id":"4","last_reported":1745500926,"current_range_meters":6400,"station_id":"ce4bh392rcd13ifvqdl0","pricing_plan_id":"cebpf4jnsgd1na2vs0mg"},{"bike_id":"1cfb9a2a-dea1-4c06-800f-9f98efe56d5c","system_id":"levelo_inurba_marseille","lat":43.32543,"lon":5.41416,"is_reserved":false,"is_disabled":false,"rental_uris":{"android":"levelo://app?vid=1cfb9a2a-dea1-4c06-800f-9f98efe56d5c","ios":"levelo://app?vid=1cfb9a2a-dea1-4c06-800f-9f98efe56d5c"},"vehicle_type_id":"4","last_reported":1745500926,"current_range_meters":6800,"station_id":"ce4bhq12rcd13ifvqhhg","pricing_plan_id":"cebpf4jnsgd1na2vs0mg"},{"bike_id":"fd30ebb1-ea40-469b-819a-f0f9ceaff26a","system_id":"levelo_inurba_marseille","lat":43.28853,"lon":5.35835,"is_reserved":false,"is_disabled":false,"rental_uris":{"android":"levelo://app?vid=fd30ebb1-ea40-469b-819a-f0f9ceaff26a","ios":"levelo://app?vid=fd30ebb1-ea40-469b-819a-f0f9ceaff26a"},"vehicle_type_id":"4","last_reported":1745500926,"current_range_meters":6800,"station_id":"ce4bhb12rcd13ifvqem0","pricing_plan_id":"cebpf4jnsgd1na2vs0mg"},{"bike_id":"625a46d9-cd18-4763-b06d-c11d6c817c8c","system_id":"levelo_inurba_marseille","lat":43.28405,"lon":5.37512,"is_reserved":false,"is_disabled":false,"rental_uris":{"android":"levelo://app?vid=625a46d9-cd18-4763-b06d-c11d6c817c8c","ios":"levelo://app?vid=625a46d9-cd18-4763-b06d-c11d6c817c8c"},"vehicle_type_id":"4","last_reported":1745500926,"current_range_meters":6800,"station_id":"ce4bh412rcd13ifvqds0","pricing_plan_id":"cebpf4jnsgd1na2vs0mg"},{"bike_id":"f209584d-ce55-4cac-a3ac-37345aa4ccbe","system_id":"levelo_inurba_marseille","lat":43.29256,"lon":5.37615,"is_reserved":false,"is_disabled":false,"rental_uris":{"android":"levelo://app?vid=f209584d-ce55-4cac-a3ac-37345aa4ccbe","ios":"levelo://app?vid=f209584d-ce55-4cac-a3ac-37345aa4ccbe"},"vehicle_type_id":"4","last_reported":1745500926,"current_range_meters":6800,"station_id":"ce4bgi12rcd13ifvqb80","pricing_plan_id":"cebpf4jnsgd1na2vs0mg"},{"bike_id":"17b2f195-0a35-4093-b5c5-c63edfd01644","system_id":"levelo_inurba_marseille","lat":43.26484,"lon":5.39551,"is_reserved":false,"is_disabled":false,"rental_uris":{"android":"levelo://app?vid=17b2f195-0a35-4093-b5c5-c63edfd01644","ios":"levelo://app?vid=17b2f195-0a35-4093-b5c5-c63edfd01644"},"vehicle_type_id":"4","last_reported":1745500926,"current_range_meters":7200,"station_id":"ce4bhi12rcd13ifvqfq0","pricing_plan_id":"cebpf4jnsgd1na2vs0mg"},{"bike_id":"48ea826f-8dc4-488c-af92-6e28e62ec1e3","system_id":"levelo_inurba_marseille","lat":43.28719,"lon":5.3794,"is_reserved":false,"is_disabled":false,"rental_uris":{"android":"levelo://app?vid=48ea826f-8dc4-488c-af92-6e28e62ec1e3","ios":"levelo://app?vid=48ea826f-8dc4-488c-af92-6e28e62ec1e3"},"vehicle_type_id":"4","last_reported":1745500926,"current_range_meters":7200,"station_id":"ce4bh9p2rcd13ifvqec0","pricing_plan_id":"cebpf4jnsgd1na2vs0mg"},{"bike_id":"7e9d26b8-b748-4e10-b3e2-977d9fd05087","system_id":"levelo_inurba_marseille","lat":43.32644,"lon":5.36233,"is_reserved":false,"is_disabled":false,"rental_uris":{"android":"levelo://app?vid=7e9d26b8-b748-4e10-b3e2-977d9fd05087","ios":"levelo://app?vid=7e9d26b8-b748-4e10-b3e2-977d9fd05087"},"vehicle_type_id":"4","last_reported":1745500926,"current_range_meters":7200,"station_id":"","pricing_plan_id":"cebpf4jnsgd1na2vs0mg"},{"bike_id":"daadced1-f9f8-4c71-8bcc-724f186028b0","system_id":"levelo_inurba_marseille","lat":43.30079,"lon":5.39073,"is_reserved":false,"is_disabled":false,"rental_uris":{"android":"levelo://app?vid=daadced1-f9f8-4c71-8bcc-724f186028b0","ios":"levelo://app?vid=daadced1-f9f8-4c71-8bcc-724f186028b0"},"vehicle_type_id":"4","last_reported":1745500926,"current_range_meters":7200,"station_id":"ce4bh192rcd13ifvqdb0","pricing_plan_id":"cebpf4jnsgd1na2vs0mg"},{"bike_id":"3f94f85f-9b73-47d0-9a98-64dfef4b3090","system_id":"levelo_inurba_marseille","lat":43.28608,"lon":5.37054,"is_reserved":false,"is_disabled":false,"rental_uris":{"android":"levelo://app?vid=3f94f85f-9b73-47d0-9a98-64dfef4b3090","ios":"levelo://app?vid=3f94f85f-9b73-47d0-9a98-64dfef4b3090"},"vehicle_type_id":"4","last_reported":1745500926,"current_range_meters":7200,"station_id":"ce4bht12rcd13ifvqi60","pricing_plan_id":"cebpf4jnsgd1na2vs0mg"},{"bike_id":"30704823-7a9c-4b12-af5d-93db18bfd3b9","system_id":"levelo_inurba_marseille","lat":43.28821,"lon":5.39933,"is_reserved":false,"is_disabled":false,"rental_uris":{"android":"levelo://app?vid=30704823-7a9c-4b12-af5d-93db18bfd3b9","ios":"levelo://app?vid=30704823-7a9c-4b12-af5d-93db18bfd3b9"},"vehicle_type_id":"4","last_reported":1745500926,"current_range_meters":7200,"station_id":"","pricing_plan_id":"cebpf4jnsgd1na2vs0mg"},{"bike_id":"92c3b340-d069-4f1c-b55b-44c52f19597b","system_id":"levelo_inurba_marseille","lat":43.28239,"lon":5.3776,"is_reserved":false,"is_disabled":false,"rental_uris":{"android":"levelo://app?vid=92c3b340-d069-4f1c-b55b-44c52f19597b","ios":"levelo://app?vid=92c3b340-d069-4f1c-b55b-44c52f19597b"},"vehicle_type_id":"4","last_reported":1745500926,"current_range_meters":8000,"station_id":"","pricing_plan_id":"cebpf4jnsgd1na2vs0mg"},{"bike_id":"9edc0443-3649-4742-82df-4dcd21c91d24","system_id":"levelo_inurba_marseille","lat":43.29787,"lon":5.381,"is_reserved":false,"is_disabled":false,"rental_uris":{"android":"levelo://app?vid=9edc0443-3649-4742-82df-4dcd21c91d24","ios":"levelo://app?vid=9edc0443-3649-4742-82df-4dcd21c91d24"},"vehicle_type_id":"4","last_reported":1745500926,"current_range_meters":8000,"station_id":"ce4bgip2rcd13ifvqbb0","pricing_plan_id":"cebpf4jnsgd1na2vs0mg"},{"bike_id":"4272e66c-b06c-41e9-9707-c24d63b2bec5","system_id":"levelo_inurba_marseille","lat":43.29762,"lon":5.38122,"is_reserved":false,"is_disabled":false,"rental_uris":{"android":"levelo://app?vid=4272e66c-b06c-41e9-9707-c24d63b2bec5","ios":"levelo://app?vid=4272e66c-b06c-41e9-9707-c24d63b2bec5"},"vehicle_type_id":"4","last_reported":1745500926,"current_range_meters":8000,"station_id":"ce4bgip2rcd13ifvqbb0","pricing_plan_id":"cebpf4jnsgd1na2vs0mg"},{"bike_id":"488c63a6-8375-48df-90e4-8b35b313eba9","system_id":"levelo_inurba_marseille","lat":43.309235,"lon":5.401588,"is_reserved":false,"is_disabled":false,"rental_uris":{"android":"levelo://app?vid=488c63a6-8375-48df-90e4-8b35b313eba9","ios":"levelo://app?vid=488c63a6-8375-48df-90e4-8b35b313eba9"},"vehicle_type_id":"4","last_reported":1745500926,"current_range_meters":8000,"station_id":"ce4bgvp2rcd13ifvqct0","pricing_plan_id":"cebpf4jnsgd1na2vs0mg"},{"bike_id":"e53821b1-d8fa-4388-9008-bd138414220b","system_id":"levelo_inurba_marseille","lat":43.30908,"lon":5.36845,"is_reserved":false,"is_disabled":false,"rental_uris":{"android":"levelo://app?vid=e53821b1-d8fa-4388-9008-bd138414220b","ios":"levelo://app?vid=e53821b1-d8fa-4388-9008-bd138414220b"},"vehicle_type_id":"4","last_reported":1745500926,"current_range_meters":8000,"station_id":"ce4bgn92rcd13ifvqbvg","pricing_plan_id":"cebpf4jnsgd1na2vs0mg"},{"bike_id":"dbbfdbca-fd64-4336-8408-7e4d49d3e9af","system_id":"levelo_inurba_marseille","lat":43.25118,"lon":5.40313,"is_reserved":false,"is_disabled":false,"rental_uris":{"android":"levelo://app?vid=dbbfdbca-fd64-4336-8408-7e4d49d3e9af","ios":"levelo://app?vid=dbbfdbca-fd64-4336-8408-7e4d49d3e9af"},"vehicle_type_id":"4","last_reported":1745500926,"current_range_meters":8000,"station_id":"ce4bhlh2rcd13ifvqgig","pricing_plan_id":"cebpf4jnsgd1na2vs0mg"},{"bike_id":"6517f2db-179b-4ade-b1f4-a7c9db3341aa","system_id":"levelo_inurba_marseille","lat":43.31346,"lon":5.36718,"is_reserved":false,"is_disabled":false,"rental_uris":{"android":"levelo://app?vid=6517f2db-179b-4ade-b1f4-a7c9db3341aa","ios":"levelo://app?vid=6517f2db-179b-4ade-b1f4-a7c9db3341aa"},"vehicle_type_id":"4","last_reported":1745500926,"current_range_meters":8000,"station_id":"ce4bgr92rcd13ifvqc6g","pricing_plan_id":"cebpf4jnsgd1na2vs0mg"},{"bike_id":"9bec9b2a-2978-4339-96df-f9305f71819a","system_id":"levelo_inurba_marseille","lat":43.27167,"lon":5.40991,"is_reserved":false,"is_disabled":false,"rental_uris":{"android":"levelo://app?vid=9bec9b2a-2978-4339-96df-f9305f71819a","ios":"levelo://app?vid=9bec9b2a-2978-4339-96df-f9305f71819a"},"vehicle_type_id":"4","last_reported":1745500926,"current_range_meters":8000,"station_id":"ce4bhl12rcd13ifvqgf0","pricing_plan_id":"cebpf4jnsgd1na2vs0mg"},{"bike_id":"67272912-3924-4dcc-85ba-981503741e30","system_id":"levelo_inurba_marseille","lat":43.27617,"lon":5.36112,"is_reserved":false,"is_disabled":false,"rental_uris":{"android":"levelo://app?vid=67272912-3924-4dcc-85ba-981503741e30","ios":"levelo://app?vid=67272912-3924-4dcc-85ba-981503741e30"},"vehicle_type_id":"4","last_reported":1745500926,"current_range_meters":8400,"station_id":"ce4bgj92rcd13ifvqbe0","pricing_plan_id":"cebpf4jnsgd1na2vs0mg"},{"bike_id":"c7d8eb5c-3939-44c3-808b-7b87d2aed25f","system_id":"levelo_inurba_marseille","lat":43.28699,"lon":5.39965,"is_reserved":false,"is_disabled":false,"rental_uris":{"android":"levelo://app?vid=c7d8eb5c-3939-44c3-808b-7b87d2aed25f","ios":"levelo://app?vid=c7d8eb5c-3939-44c3-808b-7b87d2aed25f"},"vehicle_type_id":"4","last_reported":1745500926,"current_range_meters":8400,"station_id":"ce4bho92rcd13ifvqh3g","pricing_plan_id":"cebpf4jnsgd1na2vs0mg"},{"bike_id":"ba101c25-07b2-4c81-a7a5-68cae9e5ff43","system_id":"levelo_inurba_marseille","lat":43.29838,"lon":5.36269,"is_reserved":false,"is_disabled":false,"rental_uris":{"android":"levelo://app?vid=ba101c25-07b2-4c81-a7a5-68cae9e5ff43","ios":"levelo://app?vid=ba101c25-07b2-4c81-a7a5-68cae9e5ff43"},"vehicle_type_id":"4","last_reported":1745500926,"current_range_meters":8000,"station_id":"ce4bgpp2rcd13ifvqc3g","pricing_plan_id":"cebpf4jnsgd1na2vs0mg"},{"bike_id":"bad3ac07-3371-4cc2-b0de-a90ae47ecbf6","system_id":"levelo_inurba_marseille","lat":43.26214,"lon":5.37443,"is_reserved":false,"is_disabled":false,"rental_uris":{"android":"levelo://app?vid=bad3ac07-3371-4cc2-b0de-a90ae47ecbf6","ios":"levelo://app?vid=bad3ac07-3371-4cc2-b0de-a90ae47ecbf6"},"vehicle_type_id":"4","last_reported":1745500926,"current_range_meters":8400,"station_id":"ce4bhgp2rcd13ifvqfc0","pricing_plan_id":"cebpf4jnsgd1na2vs0mg"},{"bike_id":"9ccaa298-5bdd-42d3-ba3e-00f7335c0c72","system_id":"levelo_inurba_marseille","lat":43.29787,"lon":5.38088,"is_reserved":false,"is_disabled":false,"rental_uris":{"android":"levelo://app?vid=9ccaa298-5bdd-42d3-ba3e-00f7335c0c72","ios":"levelo://app?vid=9ccaa298-5bdd-42d3-ba3e-00f7335c0c72"},"vehicle_type_id":"4","last_reported":1745500926,"current_range_meters":8400,"station_id":"ce4bgip2rcd13ifvqbb0","pricing_plan_id":"cebpf4jnsgd1na2vs0mg"},{"bike_id":"920bf113-b774-4a9f-9115-fb994586a61f","system_id":"levelo_inurba_marseille","lat":43.32646,"lon":5.40965,"is_reserved":false,"is_disabled":false,"rental_uris":{"android":"levelo://app?vid=920bf113-b774-4a9f-9115-fb994586a61f","ios":"levelo://app?vid=920bf113-b774-4a9f-9115-fb994586a61f"},"vehicle_type_id":"4","last_reported":1745500926,"current_range_meters":8400,"station_id":"ce4bhpp2rcd13ifvqhgg","pricing_plan_id":"cebpf4jnsgd1na2vs0mg"},{"bike_id":"3a44d133-c225-4eb3-bfcc-6fdb16d637f2","system_id":"levelo_inurba_marseille","lat":43.2991,"lon":5.37533,"is_reserved":false,"is_disabled":false,"rental_uris":{"android":"levelo://app?vid=3a44d133-c225-4eb3-bfcc-6fdb16d637f2","ios":"levelo://app?vid=3a44d133-c225-4eb3-bfcc-6fdb16d637f2"},"vehicle_type_id":"4","last_reported":1745500926,"current_range_meters":8400,"station_id":"ce4bgjh2rcd13ifvqbg0","pricing_plan_id":"cebpf4jnsgd1na2vs0mg"},{"bike_id":"fe203fe9-43a6-4eb0-8aa5-99088dd429c0","system_id":"levelo_inurba_marseille","lat":43.23961,"lon":5.36632,"is_reserved":false,"is_disabled":false,"rental_uris":{"android":"levelo://app?vid=fe203fe9-43a6-4eb0-8aa5-99088dd429c0","ios":"levelo://app?vid=fe203fe9-43a6-4eb0-8aa5-99088dd429c0"},"vehicle_type_id":"4","last_reported":1745500926,"current_range_meters":8800,"station_id":"ce4bhi12rcd13ifvqfp0","pricing_plan_id":"cebpf4jnsgd1na2vs0mg"},{"bike_id":"858a7eb0-d712-412c-a317-100600e95a1e","system_id":"levelo_inurba_marseille","lat":43.25827,"lon":5.3944,"is_reserved":false,"is_disabled":false,"rental_uris":{"android":"levelo://app?vid=858a7eb0-d712-412c-a317-100600e95a1e","ios":"levelo://app?vid=858a7eb0-d712-412c-a317-100600e95a1e"},"vehicle_type_id":"4","last_reported":1745500926,"current_range_meters":8800,"station_id":"ce4bhip2rcd13ifvqft0","pricing_plan_id":"cebpf4jnsgd1na2vs0mg"},{"bike_id":"95d1ad44-144a-4e7e-b4b6-a407e2594e6a","system_id":"levelo_inurba_marseille","lat":43.25113,"lon":5.40317,"is_reserved":false,"is_disabled":false,"rental_uris":{"android":"levelo://app?vid=95d1ad44-144a-4e7e-b4b6-a407e2594e6a","ios":"levelo://app?vid=95d1ad44-144a-4e7e-b4b6-a407e2594e6a"},"vehicle_type_id":"4","last_reported":1745500926,"current_range_meters":8400,"station_id":"ce4bhlh2rcd13ifvqgig","pricing_plan_id":"cebpf4jnsgd1na2vs0mg"},{"bike_id":"c554bc28-1fe5-4f07-ae28-7dfb566c52e7","system_id":"levelo_inurba_marseille","lat":43.30957,"lon":5.39043,"is_reserved":false,"is_disabled":false,"rental_uris":{"android":"levelo://app?vid=c554bc28-1fe5-4f07-ae28-7dfb566c52e7","ios":"levelo://app?vid=c554bc28-1fe5-4f07-ae28-7dfb566c52e7"},"vehicle_type_id":"4","last_reported":1745500926,"current_range_meters":8800,"station_id":"ce4bgup2rcd13ifvqco0","pricing_plan_id":"cebpf4jnsgd1na2vs0mg"},{"bike_id":"2d347537-8809-4a75-9c2a-35fcb7a90a32","system_id":"levelo_inurba_marseille","lat":43.27189,"lon":5.392076,"is_reserved":false,"is_disabled":false,"rental_uris":{"android":"levelo://app?vid=2d347537-8809-4a75-9c2a-35fcb7a90a32","ios":"levelo://app?vid=2d347537-8809-4a75-9c2a-35fcb7a90a32"},"vehicle_type_id":"4","last_reported":1745500926,"current_range_meters":8800,"station_id":"","pricing_plan_id":"cebpf4jnsgd1na2vs0mg"},{"bike_id":"723328de-7521-4b25-9f89-375df0692075","system_id":"levelo_inurba_marseille","lat":43.31351,"lon":5.36728,"is_reserved":false,"is_disabled":false,"rental_uris":{"android":"levelo://app?vid=723328de-7521-4b25-9f89-375df0692075","ios":"levelo://app?vid=723328de-7521-4b25-9f89-375df0692075"},"vehicle_type_id":"4","last_reported":1745500926,"current_range_meters":8800,"station_id":"ce4bgr92rcd13ifvqc6g","pricing_plan_id":"cebpf4jnsgd1na2vs0mg"},{"bike_id":"3f980d5a-7b16-4eca-9fe1-a41899bc0f40","system_id":"levelo_inurba_marseille","lat":43.29004,"lon":5.35609,"is_reserved":false,"is_disabled":false,"rental_uris":{"android":"levelo://app?vid=3f980d5a-7b16-4eca-9fe1-a41899bc0f40","ios":"levelo://app?vid=3f980d5a-7b16-4eca-9fe1-a41899bc0f40"},"vehicle_type_id":"4","last_reported":1745500926,"current_range_meters":8400,"station_id":"ce4bhb92rcd13ifvqen0","pricing_plan_id":"cebpf4jnsgd1na2vs0mg"},{"bike_id":"621f1da9-b574-462b-9b75-6da645cfd07b","system_id":"levelo_inurba_marseille","lat":43.28665,"lon":5.38661,"is_reserved":false,"is_disabled":false,"rental_uris":{"android":"levelo://app?vid=621f1da9-b574-462b-9b75-6da645cfd07b","ios":"levelo://app?vid=621f1da9-b574-462b-9b75-6da645cfd07b"},"vehicle_type_id":"4","last_reported":1745500926,"current_range_meters":8800,"station_id":"ce4bh492rcd13ifvqdug","pricing_plan_id":"cebpf4jnsgd1na2vs0mg"},{"bike_id":"a2ef30bd-9b80-4b76-b7cc-6e2428e17427","system_id":"levelo_inurba_marseille","lat":43.2942,"lon":5.38616,"is_reserved":false,"is_disabled":false,"rental_uris":{"android":"levelo://app?vid=a2ef30bd-9b80-4b76-b7cc-6e2428e17427","ios":"levelo://app?vid=a2ef30bd-9b80-4b76-b7cc-6e2428e17427"},"vehicle_type_id":"4","last_reported":1745500926,"current_range_meters":8800,"station_id":"ce4bh2h2rcd13ifvqdh0","pricing_plan_id":"cebpf4jnsgd1na2vs0mg"},{"bike_id":"f7204dbe-aaf9-4564-8c1a-52cfb9b35b31","system_id":"levelo_inurba_marseille","lat":43.29872,"lon":5.36216,"is_reserved":false,"is_disabled":false,"rental_uris":{"android":"levelo://app?vid=f7204dbe-aaf9-4564-8c1a-52cfb9b35b31","ios":"levelo://app?vid=f7204dbe-aaf9-4564-8c1a-52cfb9b35b31"},"vehicle_type_id":"4","last_reported":1745500926,"current_range_meters":8800,"station_id":"ce4bgpp2rcd13ifvqc3g","pricing_plan_id":"cebpf4jnsgd1na2vs0mg"},{"bike_id":"0fcda528-fe2b-4793-b6ac-ce16fbdf6f82","system_id":"levelo_inurba_marseille","lat":43.25577,"lon":5.382515,"is_reserved":false,"is_disabled":false,"rental_uris":{"android":"levelo://app?vid=0fcda528-fe2b-4793-b6ac-ce16fbdf6f82","ios":"levelo://app?vid=0fcda528-fe2b-4793-b6ac-ce16fbdf6f82"},"vehicle_type_id":"4","last_reported":1745500926,"current_range_meters":8800,"station_id":"ce4bhih2rcd13ifvqfs0","pricing_plan_id":"cebpf4jnsgd1na2vs0mg"},{"bike_id":"05ee691a-de52-4d2c-bc94-9c17a7d4449b","system_id":"levelo_inurba_marseille","lat":43.24653,"lon":5.38897,"is_reserved":false,"is_disabled":false,"rental_uris":{"android":"levelo://app?vid=05ee691a-de52-4d2c-bc94-9c17a7d4449b","ios":"levelo://app?vid=05ee691a-de52-4d2c-bc94-9c17a7d4449b"},"vehicle_type_id":"4","last_reported":1745500926,"current_range_meters":9200,"station_id":"ce4bhg12rcd13ifvqf60","pricing_plan_id":"cebpf4jnsgd1na2vs0mg"},{"bike_id":"2982ebd2-1ff6-4054-9701-ecd2906982ab","system_id":"levelo_inurba_marseille","lat":43.30881,"lon":5.39649,"is_reserved":false,"is_disabled":false,"rental_uris":{"android":"levelo://app?vid=2982ebd2-1ff6-4054-9701-ecd2906982ab","ios":"levelo://app?vid=2982ebd2-1ff6-4054-9701-ecd2906982ab"},"vehicle_type_id":"4","last_reported":1745500926,"current_range_meters":8800,"station_id":"ce4bh012rcd13ifvqcv0","pricing_plan_id":"cebpf4jnsgd1na2vs0mg"},{"bike_id":"17735294-3d7e-43b1-8a66-2885426421db","system_id":"levelo_inurba_marseille","lat":43.23152,"lon":5.43721,"is_reserved":false,"is_disabled":false,"rental_uris":{"android":"levelo://app?vid=17735294-3d7e-43b1-8a66-2885426421db","ios":"levelo://app?vid=17735294-3d7e-43b1-8a66-2885426421db"},"vehicle_type_id":"4","last_reported":1745500926,"current_range_meters":9200,"station_id":"ce4bhmp2rcd13ifvqgog","pricing_plan_id":"cebpf4jnsgd1na2vs0mg"},{"bike_id":"827a35bd-a96b-4704-8643-330a401308eb","system_id":"levelo_inurba_marseille","lat":43.28978,"lon":5.37826,"is_reserved":false,"is_disabled":false,"rental_uris":{"android":"levelo://app?vid=827a35bd-a96b-4704-8643-330a401308eb","ios":"levelo://app?vid=827a35bd-a96b-4704-8643-330a401308eb"},"vehicle_type_id":"4","last_reported":1745500926,"current_range_meters":8800,"station_id":"ce4bh9p2rcd13ifvqed0","pricing_plan_id":"cebpf4jnsgd1na2vs0mg"},{"bike_id":"15aae559-93f3-42c9-9820-7aa209e6c098","system_id":"levelo_inurba_marseille","lat":43.28931,"lon":5.36625,"is_reserved":false,"is_disabled":false,"rental_uris":{"android":"levelo://app?vid=15aae559-93f3-42c9-9820-7aa209e6c098","ios":"levelo://app?vid=15aae559-93f3-42c9-9820-7aa209e6c098"},"vehicle_type_id":"4","last_reported":1745500926,"current_range_meters":9600,"station_id":"ce4bhap2rcd13ifvqek0","pricing_plan_id":"cebpf4jnsgd1na2vs0mg"},{"bike_id":"6327ea70-511b-4552-8b43-7b537f956cda","system_id":"levelo_inurba_marseille","lat":43.31994,"lon":5.38146,"is_reserved":false,"is_disabled":false,"rental_uris":{"android":"levelo://app?vid=6327ea70-511b-4552-8b43-7b537f956cda","ios":"levelo://app?vid=6327ea70-511b-4552-8b43-7b537f956cda"},"vehicle_type_id":"4","last_reported":1745500926,"current_range_meters":9600,"station_id":"ce4bhr12rcd13ifvqhpg","pricing_plan_id":"cebpf4jnsgd1na2vs0mg"},{"bike_id":"5619e18e-1619-4dd2-ac7f-6607b4205237","system_id":"levelo_inurba_marseille","lat":43.28714,"lon":5.37939,"is_reserved":false,"is_disabled":false,"rental_uris":{"android":"levelo://app?vid=5619e18e-1619-4dd2-ac7f-6607b4205237","ios":"levelo://app?vid=5619e18e-1619-4dd2-ac7f-6607b4205237"},"vehicle_type_id":"4","last_reported":1745500926,"current_range_meters":9600,"station_id":"ce4bh9p2rcd13ifvqec0","pricing_plan_id":"cebpf4jnsgd1na2vs0mg"},{"bike_id":"67b9b70f-68e0-48b9-ab3a-83578fdc2060","system_id":"levelo_inurba_marseille","lat":43.33434,"lon":5.40042,"is_reserved":false,"is_disabled":false,"rental_uris":{"android":"levelo://app?vid=67b9b70f-68e0-48b9-ab3a-83578fdc2060","ios":"levelo://app?vid=67b9b70f-68e0-48b9-ab3a-83578fdc2060"},"vehicle_type_id":"4","last_reported":1745500926,"current_range_meters":10000,"station_id":"ce4bhr92rcd13ifvqhrg","pricing_plan_id":"cebpf4jnsgd1na2vs0mg"},{"bike_id":"48067728-59d1-4fbf-9df3-180572ad8cdd","system_id":"levelo_inurba_marseille","lat":43.31226,"lon":5.36866,"is_reserved":false,"is_disabled":false,"rental_uris":{"android":"levelo://app?vid=48067728-59d1-4fbf-9df3-180572ad8cdd","ios":"levelo://app?vid=48067728-59d1-4fbf-9df3-180572ad8cdd"},"vehicle_type_id":"4","last_reported":1745500926,"current_range_meters":10000,"station_id":"ce4bgl92rcd13ifvqbq0","pricing_plan_id":"cebpf4jnsgd1na2vs0mg"},{"bike_id":"9f95d46a-0977-4965-ba5e-33e037edd5b9","system_id":"levelo_inurba_marseille","lat":43.28842,"lon":5.35836,"is_reserved":false,"is_disabled":false,"rental_uris":{"android":"levelo://app?vid=9f95d46a-0977-4965-ba5e-33e037edd5b9","ios":"levelo://app?vid=9f95d46a-0977-4965-ba5e-33e037edd5b9"},"vehicle_type_id":"4","last_reported":1745500926,"current_range_meters":10000,"station_id":"ce4bhb12rcd13ifvqem0","pricing_plan_id":"cebpf4jnsgd1na2vs0mg"},{"bike_id":"dcc418ba-b01a-4f2f-9c70-59823d85d0f0","system_id":"levelo_inurba_marseille","lat":43.31228,"lon":5.36863,"is_reserved":false,"is_disabled":false,"rental_uris":{"android":"levelo://app?vid=dcc418ba-b01a-4f2f-9c70-59823d85d0f0","ios":"levelo://app?vid=dcc418ba-b01a-4f2f-9c70-59823d85d0f0"},"vehicle_type_id":"4","last_reported":1745500926,"current_range_meters":10800,"station_id":"ce4bgl92rcd13ifvqbq0","pricing_plan_id":"cebpf4jnsgd1na2vs0mg"},{"bike_id":"30e08c8c-a2b6-45d6-9704-9460af4f4d07","system_id":"levelo_inurba_marseille","lat":43.310796,"lon":5.424332,"is_reserved":false,"is_disabled":false,"rental_uris":{"android":"levelo://app?vid=30e08c8c-a2b6-45d6-9704-9460af4f4d07","ios":"levelo://app?vid=30e08c8c-a2b6-45d6-9704-9460af4f4d07"},"vehicle_type_id":"4","last_reported":1745500926,"current_range_meters":10800,"station_id":"ce4bhp92rcd13ifvqhag","pricing_plan_id":"cebpf4jnsgd1na2vs0mg"},{"bike_id":"35e786d8-bdff-4be1-a468-2e92ed6508b3","system_id":"levelo_inurba_marseille","lat":43.3089,"lon":5.39655,"is_reserved":false,"is_disabled":false,"rental_uris":{"android":"levelo://app?vid=35e786d8-bdff-4be1-a468-2e92ed6508b3","ios":"levelo://app?vid=35e786d8-bdff-4be1-a468-2e92ed6508b3"},"vehicle_type_id":"4","last_reported":1745500926,"current_range_meters":10800,"station_id":"ce4bh012rcd13ifvqcv0","pricing_plan_id":"cebpf4jnsgd1na2vs0mg"},{"bike_id":"11ce02ec-5de1-4d28-b35b-b9d2498a4135","system_id":"levelo_inurba_marseille","lat":43.23062,"lon":5.35491,"is_reserved":false,"is_disabled":false,"rental_uris":{"android":"levelo://app?vid=11ce02ec-5de1-4d28-b35b-b9d2498a4135","ios":"levelo://app?vid=11ce02ec-5de1-4d28-b35b-b9d2498a4135"},"vehicle_type_id":"4","last_reported":1745500926,"current_range_meters":11200,"station_id":"cpo3342slgdg3j2ifvpg","pricing_plan_id":"cebpf4jnsgd1na2vs0mg"},{"bike_id":"338c6b61-8fcf-4f46-b722-948adbfac0a5","system_id":"levelo_inurba_marseille","lat":43.30137,"lon":5.38794,"is_reserved":false,"is_disabled":false,"rental_uris":{"android":"levelo://app?vid=338c6b61-8fcf-4f46-b722-948adbfac0a5","ios":"levelo://app?vid=338c6b61-8fcf-4f46-b722-948adbfac0a5"},"vehicle_type_id":"4","last_reported":1745500926,"current_range_meters":11200,"station_id":"ce4bghh2rcd13ifvqb60","pricing_plan_id":"cebpf4jnsgd1na2vs0mg"},{"bike_id":"9473a7e5-675f-4a4b-8c17-4cf3d6ab370e","system_id":"levelo_inurba_marseille","lat":43.32349,"lon":5.42057,"is_reserved":false,"is_disabled":false,"rental_uris":{"android":"levelo://app?vid=9473a7e5-675f-4a4b-8c17-4cf3d6ab370e","ios":"levelo://app?vid=9473a7e5-675f-4a4b-8c17-4cf3d6ab370e"},"vehicle_type_id":"4","last_reported":1745500926,"current_range_meters":11200,"station_id":"","pricing_plan_id":"cebpf4jnsgd1na2vs0mg"},{"bike_id":"47b971a6-cf3c-4610-a577-772c42f8cb46","system_id":"levelo_inurba_marseille","lat":43.25829,"lon":5.39441,"is_reserved":false,"is_disabled":false,"rental_uris":{"android":"levelo://app?vid=47b971a6-cf3c-4610-a577-772c42f8cb46","ios":"levelo://app?vid=47b971a6-cf3c-4610-a577-772c42f8cb46"},"vehicle_type_id":"4","last_reported":1745500926,"current_range_meters":11200,"station_id":"ce4bhip2rcd13ifvqft0","pricing_plan_id":"cebpf4jnsgd1na2vs0mg"},{"bike_id":"9d72dc00-6980-47df-9f3a-cb2ae2545859","system_id":"levelo_inurba_marseille","lat":43.31881,"lon":5.40736,"is_reserved":false,"is_disabled":false,"rental_uris":{"android":"levelo://app?vid=9d72dc00-6980-47df-9f3a-cb2ae2545859","ios":"levelo://app?vid=9d72dc00-6980-47df-9f3a-cb2ae2545859"},"vehicle_type_id":"4","last_reported":1745500926,"current_range_meters":11200,"station_id":"ce4bhq12rcd13ifvqhig","pricing_plan_id":"cebpf4jnsgd1na2vs0mg"},{"bike_id":"46374c49-3adc-4c5a-8966-e00f056c0d57","system_id":"levelo_inurba_marseille","lat":43.27846,"lon":5.35442,"is_reserved":false,"is_disabled":false,"rental_uris":{"android":"levelo://app?vid=46374c49-3adc-4c5a-8966-e00f056c0d57","ios":"levelo://app?vid=46374c49-3adc-4c5a-8966-e00f056c0d57"},"vehicle_type_id":"4","last_reported":1745500926,"current_range_meters":11600,"station_id":"","pricing_plan_id":"cebpf4jnsgd1na2vs0mg"},{"bike_id":"97f8610b-214a-4cfe-9441-07b6b5d209d3","system_id":"levelo_inurba_marseille","lat":43.28367,"lon":5.38636,"is_reserved":false,"is_disabled":false,"rental_uris":{"android":"levelo://app?vid=97f8610b-214a-4cfe-9441-07b6b5d209d3","ios":"levelo://app?vid=97f8610b-214a-4cfe-9441-07b6b5d209d3"},"vehicle_type_id":"4","last_reported":1745500926,"current_range_meters":11600,"station_id":"ce4bh492rcd13ifvqdvg","pricing_plan_id":"cebpf4jnsgd1na2vs0mg"},{"bike_id":"0a4aab9f-8a71-4fe1-9d7a-a1171198a2d7","system_id":"levelo_inurba_marseille","lat":43.231555,"lon":5.43718,"is_reserved":false,"is_disabled":false,"rental_uris":{"android":"levelo://app?vid=0a4aab9f-8a71-4fe1-9d7a-a1171198a2d7","ios":"levelo://app?vid=0a4aab9f-8a71-4fe1-9d7a-a1171198a2d7"},"vehicle_type_id":"4","last_reported":1745500926,"current_range_meters":11600,"station_id":"ce4bhmp2rcd13ifvqgog","pricing_plan_id":"cebpf4jnsgd1na2vs0mg"},{"bike_id":"df11b469-c9ef-41ef-a3ff-e21b4cfee7c7","system_id":"levelo_inurba_marseille","lat":43.31675,"lon":5.36521,"is_reserved":false,"is_disabled":false,"rental_uris":{"android":"levelo://app?vid=df11b469-c9ef-41ef-a3ff-e21b4cfee7c7","ios":"levelo://app?vid=df11b469-c9ef-41ef-a3ff-e21b4cfee7c7"},"vehicle_type_id":"4","last_reported":1745500926,"current_range_meters":12000,"station_id":"ce4bhsh2rcd13ifvqi2g","pricing_plan_id":"cebpf4jnsgd1na2vs0mg"},{"bike_id":"be5e58a9-7f56-4b08-b6be-fbd16fd90ace","system_id":"levelo_inurba_marseille","lat":43.26557,"lon":5.37284,"is_reserved":false,"is_disabled":false,"rental_uris":{"android":"levelo://app?vid=be5e58a9-7f56-4b08-b6be-fbd16fd90ace","ios":"levelo://app?vid=be5e58a9-7f56-4b08-b6be-fbd16fd90ace"},"vehicle_type_id":"4","last_reported":1745500926,"current_range_meters":12000,"station_id":"ce4bhg12rcd13ifvqf70","pricing_plan_id":"cebpf4jnsgd1na2vs0mg"},{"bike_id":"3d9d03b9-533a-4be1-b534-f576b935dd77","system_id":"levelo_inurba_marseille","lat":43.30432,"lon":5.39742,"is_reserved":false,"is_disabled":false,"rental_uris":{"android":"levelo://app?vid=3d9d03b9-533a-4be1-b534-f576b935dd77","ios":"levelo://app?vid=3d9d03b9-533a-4be1-b534-f576b935dd77"},"vehicle_type_id":"4","last_reported":1745500926,"current_range_meters":12000,"station_id":"ce4bh092rcd13ifvqd20","pricing_plan_id":"cebpf4jnsgd1na2vs0mg"},{"bike_id":"7f654538-8166-4a99-8138-0df949e14937","system_id":"levelo_inurba_marseille","lat":43.23152,"lon":5.43714,"is_reserved":false,"is_disabled":false,"rental_uris":{"android":"levelo://app?vid=7f654538-8166-4a99-8138-0df949e14937","ios":"levelo://app?vid=7f654538-8166-4a99-8138-0df949e14937"},"vehicle_type_id":"4","last_reported":1745500926,"current_range_meters":12400,"station_id":"ce4bhmp2rcd13ifvqgog","pricing_plan_id":"cebpf4jnsgd1na2vs0mg"},{"bike_id":"09d2c752-9a74-40fe-82d6-7b682260b252","system_id":"levelo_inurba_marseille","lat":43.32551,"lon":5.41436,"is_reserved":false,"is_disabled":false,"rental_uris":{"android":"levelo://app?vid=09d2c752-9a74-40fe-82d6-7b682260b252","ios":"levelo://app?vid=09d2c752-9a74-40fe-82d6-7b682260b252"},"vehicle_type_id":"4","last_reported":1745500926,"current_range_meters":12000,"station_id":"ce4bhq12rcd13ifvqhhg","pricing_plan_id":"cebpf4jnsgd1na2vs0mg"},{"bike_id":"94c08bd6-3cbb-4fe9-9140-632bddf45486","system_id":"levelo_inurba_marseille","lat":43.21194,"lon":5.3507,"is_reserved":false,"is_disabled":false,"rental_uris":{"android":"levelo://app?vid=94c08bd6-3cbb-4fe9-9140-632bddf45486","ios":"levelo://app?vid=94c08bd6-3cbb-4fe9-9140-632bddf45486"},"vehicle_type_id":"4","last_reported":1745500926,"current_range_meters":12800,"station_id":"st_cvj6sg6p6f1abm77japg","pricing_plan_id":"cebpf4jnsgd1na2vs0mg"},{"bike_id":"33001a9a-8a30-431e-81cc-00fd265de2f4","system_id":"levelo_inurba_marseille","lat":43.29969,"lon":5.38512,"is_reserved":false,"is_disabled":false,"rental_uris":{"android":"levelo://app?vid=33001a9a-8a30-431e-81cc-00fd265de2f4","ios":"levelo://app?vid=33001a9a-8a30-431e-81cc-00fd265de2f4"},"vehicle_type_id":"4","last_reported":1745500926,"current_range_meters":12800,"station_id":"ce4bgj92rcd13ifvqbd0","pricing_plan_id":"cebpf4jnsgd1na2vs0mg"},{"bike_id":"159ea944-1d46-41f2-8f4f-3fe434d0475c","system_id":"levelo_inurba_marseille","lat":43.28404,"lon":5.37515,"is_reserved":false,"is_disabled":false,"rental_uris":{"android":"levelo://app?vid=159ea944-1d46-41f2-8f4f-3fe434d0475c","ios":"levelo://app?vid=159ea944-1d46-41f2-8f4f-3fe434d0475c"},"vehicle_type_id":"4","last_reported":1745500926,"current_range_meters":12800,"station_id":"ce4bh412rcd13ifvqds0","pricing_plan_id":"cebpf4jnsgd1na2vs0mg"},{"bike_id":"d4a8fafa-88a7-48bf-b5a7-839e5bc03db8","system_id":"levelo_inurba_marseille","lat":43.24994,"lon":5.38913,"is_reserved":false,"is_disabled":true,"rental_uris":{"android":"levelo://app?vid=d4a8fafa-88a7-48bf-b5a7-839e5bc03db8","ios":"levelo://app?vid=d4a8fafa-88a7-48bf-b5a7-839e5bc03db8"},"vehicle_type_id":"4","last_reported":1745500926,"current_range_meters":12800,"station_id":"ce4bhgp2rcd13ifvqfd0","pricing_plan_id":"cebpf4jnsgd1na2vs0mg"},{"bike_id":"8c3e3e84-1537-487c-99c5-0b6a1ea26888","system_id":"levelo_inurba_marseille","lat":43.27053,"lon":5.40258,"is_reserved":false,"is_disabled":false,"rental_uris":{"android":"levelo://app?vid=8c3e3e84-1537-487c-99c5-0b6a1ea26888","ios":"levelo://app?vid=8c3e3e84-1537-487c-99c5-0b6a1ea26888"},"vehicle_type_id":"4","last_reported":1745500926,"current_range_meters":12800,"station_id":"ce4bhk92rcd13ifvqgc0","pricing_plan_id":"cebpf4jnsgd1na2vs0mg"},{"bike_id":"21d6dfda-1f1e-40b5-a34f-4655caea0f83","system_id":"levelo_inurba_marseille","lat":43.23152,"lon":5.43714,"is_reserved":false,"is_disabled":false,"rental_uris":{"android":"levelo://app?vid=21d6dfda-1f1e-40b5-a34f-4655caea0f83","ios":"levelo://app?vid=21d6dfda-1f1e-40b5-a34f-4655caea0f83"},"vehicle_type_id":"4","last_reported":1745500926,"current_range_meters":12800,"station_id":"ce4bhmp2rcd13ifvqgog","pricing_plan_id":"cebpf4jnsgd1na2vs0mg"},{"bike_id":"2ebf9959-c424-4ce3-befb-35395e4400f6","system_id":"levelo_inurba_marseille","lat":43.287206,"lon":5.379299,"is_reserved":false,"is_disabled":false,"rental_uris":{"android":"levelo://app?vid=2ebf9959-c424-4ce3-befb-35395e4400f6","ios":"levelo://app?vid=2ebf9959-c424-4ce3-befb-35395e4400f6"},"vehicle_type_id":"4","last_reported":1745500926,"current_range_meters":13600,"station_id":"","pricing_plan_id":"cebpf4jnsgd1na2vs0mg"},{"bike_id":"26afe374-d7a8-47fa-8407-1cf535192f82","system_id":"levelo_inurba_marseille","lat":43.23153,"lon":5.43711,"is_reserved":false,"is_disabled":false,"rental_uris":{"android":"levelo://app?vid=26afe374-d7a8-47fa-8407-1cf535192f82","ios":"levelo://app?vid=26afe374-d7a8-47fa-8407-1cf535192f82"},"vehicle_type_id":"4","last_reported":1745500926,"current_range_meters":13600,"station_id":"ce4bhmp2rcd13ifvqgog","pricing_plan_id":"cebpf4jnsgd1na2vs0mg"},{"bike_id":"153ebb9e-d354-4669-be0b-b739e7ec01a3","system_id":"levelo_inurba_marseille","lat":43.28987,"lon":5.37816,"is_reserved":false,"is_disabled":false,"rental_uris":{"android":"levelo://app?vid=153ebb9e-d354-4669-be0b-b739e7ec01a3","ios":"levelo://app?vid=153ebb9e-d354-4669-be0b-b739e7ec01a3"},"vehicle_type_id":"4","last_reported":1745500926,"current_range_meters":13600,"station_id":"ce4bh9p2rcd13ifvqed0","pricing_plan_id":"cebpf4jnsgd1na2vs0mg"},{"bike_id":"9f6ba85a-2d50-493f-b560-1614fbc392b0","system_id":"levelo_inurba_marseille","lat":43.29004,"lon":5.35602,"is_reserved":false,"is_disabled":false,"rental_uris":{"android":"levelo://app?vid=9f6ba85a-2d50-493f-b560-1614fbc392b0","ios":"levelo://app?vid=9f6ba85a-2d50-493f-b560-1614fbc392b0"},"vehicle_type_id":"4","last_reported":1745500926,"current_range_meters":13600,"station_id":"ce4bhb92rcd13ifvqen0","pricing_plan_id":"cebpf4jnsgd1na2vs0mg"},{"bike_id":"7269da80-93c7-401d-b3cc-bd5d3ba0c7ed","system_id":"levelo_inurba_marseille","lat":43.27374,"lon":5.36246,"is_reserved":false,"is_disabled":false,"rental_uris":{"android":"levelo://app?vid=7269da80-93c7-401d-b3cc-bd5d3ba0c7ed","ios":"levelo://app?vid=7269da80-93c7-401d-b3cc-bd5d3ba0c7ed"},"vehicle_type_id":"4","last_reported":1745500926,"current_range_meters":13600,"station_id":"ce4bhbh2rcd13ifvqeo0","pricing_plan_id":"cebpf4jnsgd1na2vs0mg"},{"bike_id":"7e238795-87f7-4ba9-940e-c1d3293ecfe1","system_id":"levelo_inurba_marseille","lat":43.32036,"lon":5.41553,"is_reserved":false,"is_disabled":false,"rental_uris":{"android":"levelo://app?vid=7e238795-87f7-4ba9-940e-c1d3293ecfe1","ios":"levelo://app?vid=7e238795-87f7-4ba9-940e-c1d3293ecfe1"},"vehicle_type_id":"4","last_reported":1745500926,"current_range_meters":13600,"station_id":"ce4bhq92rcd13ifvqhkg","pricing_plan_id":"cebpf4jnsgd1na2vs0mg"},{"bike_id":"723a2376-2b30-450f-a9ec-b42d052a747a","system_id":"levelo_inurba_marseille","lat":43.29777,"lon":5.38114,"is_reserved":false,"is_disabled":false,"rental_uris":{"android":"levelo://app?vid=723a2376-2b30-450f-a9ec-b42d052a747a","ios":"levelo://app?vid=723a2376-2b30-450f-a9ec-b42d052a747a"},"vehicle_type_id":"4","last_reported":1745500926,"current_range_meters":14000,"station_id":"ce4bgip2rcd13ifvqbb0","pricing_plan_id":"cebpf4jnsgd1na2vs0mg"},{"bike_id":"382baf77-1a90-4a91-807e-68d00c31fc76","system_id":"levelo_inurba_marseille","lat":43.29847,"lon":5.36253,"is_reserved":false,"is_disabled":false,"rental_uris":{"android":"levelo://app?vid=382baf77-1a90-4a91-807e-68d00c31fc76","ios":"levelo://app?vid=382baf77-1a90-4a91-807e-68d00c31fc76"},"vehicle_type_id":"4","last_reported":1745500926,"current_range_meters":14400,"station_id":"ce4bgpp2rcd13ifvqc3g","pricing_plan_id":"cebpf4jnsgd1na2vs0mg"},{"bike_id":"4d245dce-18c4-4b92-b714-3999ba80a017","system_id":"levelo_inurba_marseille","lat":43.2678,"lon":5.39411,"is_reserved":false,"is_disabled":false,"rental_uris":{"android":"levelo://app?vid=4d245dce-18c4-4b92-b714-3999ba80a017","ios":"levelo://app?vid=4d245dce-18c4-4b92-b714-3999ba80a017"},"vehicle_type_id":"4","last_reported":1745500926,"current_range_meters":14400,"station_id":"ce4bhh12rcd13ifvqfg0","pricing_plan_id":"cebpf4jnsgd1na2vs0mg"},{"bike_id":"701bd3f1-3a61-4f73-bf88-77a8c53989c4","system_id":"levelo_inurba_marseille","lat":43.30321,"lon":5.40432,"is_reserved":false,"is_disabled":false,"rental_uris":{"android":"levelo://app?vid=701bd3f1-3a61-4f73-bf88-77a8c53989c4","ios":"levelo://app?vid=701bd3f1-3a61-4f73-bf88-77a8c53989c4"},"vehicle_type_id":"4","last_reported":1745500926,"current_range_meters":14400,"station_id":"ce4bh012rcd13ifvqd10","pricing_plan_id":"cebpf4jnsgd1na2vs0mg"},{"bike_id":"51a0cb13-a1be-471b-a49e-655dcd52084b","system_id":"levelo_inurba_marseille","lat":43.238786,"lon":5.36435,"is_reserved":false,"is_disabled":false,"rental_uris":{"android":"levelo://app?vid=51a0cb13-a1be-471b-a49e-655dcd52084b","ios":"levelo://app?vid=51a0cb13-a1be-471b-a49e-655dcd52084b"},"vehicle_type_id":"4","last_reported":1745500926,"current_range_meters":14400,"station_id":"ce4bhu92rcd13ifvqi70","pricing_plan_id":"cebpf4jnsgd1na2vs0mg"},{"bike_id":"fa8a552a-d2d3-4e8d-8d8e-02bdba037836","system_id":"levelo_inurba_marseille","lat":43.23068,"lon":5.35498,"is_reserved":false,"is_disabled":false,"rental_uris":{"android":"levelo://app?vid=fa8a552a-d2d3-4e8d-8d8e-02bdba037836","ios":"levelo://app?vid=fa8a552a-d2d3-4e8d-8d8e-02bdba037836"},"vehicle_type_id":"4","last_reported":1745500926,"current_range_meters":14400,"station_id":"cpo3342slgdg3j2ifvpg","pricing_plan_id":"cebpf4jnsgd1na2vs0mg"},{"bike_id":"ac6d15e4-2447-49a7-8c64-b2776c680d1b","system_id":"levelo_inurba_marseille","lat":43.27944,"lon":5.41044,"is_reserved":false,"is_disabled":false,"rental_uris":{"android":"levelo://app?vid=ac6d15e4-2447-49a7-8c64-b2776c680d1b","ios":"levelo://app?vid=ac6d15e4-2447-49a7-8c64-b2776c680d1b"},"vehicle_type_id":"4","last_reported":1745500926,"current_range_meters":14400,"station_id":"ce4bhnp2rcd13ifvqh0g","pricing_plan_id":"cebpf4jnsgd1na2vs0mg"},{"bike_id":"a5567f78-ff76-48b2-9d81-d55134bfa47d","system_id":"levelo_inurba_marseille","lat":43.284609,"lon":5.358808,"is_reserved":false,"is_disabled":false,"rental_uris":{"android":"levelo://app?vid=a5567f78-ff76-48b2-9d81-d55134bfa47d","ios":"levelo://app?vid=a5567f78-ff76-48b2-9d81-d55134bfa47d"},"vehicle_type_id":"4","last_reported":1745500926,"current_range_meters":14800,"station_id":"ce4bh192rcd13ifvqdd0","pricing_plan_id":"cebpf4jnsgd1na2vs0mg"},{"bike_id":"c5a8253b-240e-4f5a-b290-957f2523a725","system_id":"levelo_inurba_marseille","lat":43.29623,"lon":5.37167,"is_reserved":false,"is_disabled":false,"rental_uris":{"android":"levelo://app?vid=c5a8253b-240e-4f5a-b290-957f2523a725","ios":"levelo://app?vid=c5a8253b-240e-4f5a-b290-957f2523a725"},"vehicle_type_id":"4","last_reported":1745500926,"current_range_meters":14800,"station_id":"ce4bgnh2rcd13ifvqc0g","pricing_plan_id":"cebpf4jnsgd1na2vs0mg"},{"bike_id":"def8e2d8-9ee9-4bb7-a5bd-2cd5c9567aa3","system_id":"levelo_inurba_marseille","lat":43.27378,"lon":5.36262,"is_reserved":false,"is_disabled":false,"rental_uris":{"android":"levelo://app?vid=def8e2d8-9ee9-4bb7-a5bd-2cd5c9567aa3","ios":"levelo://app?vid=def8e2d8-9ee9-4bb7-a5bd-2cd5c9567aa3"},"vehicle_type_id":"4","last_reported":1745500926,"current_range_meters":14800,"station_id":"ce4bhbh2rcd13ifvqeo0","pricing_plan_id":"cebpf4jnsgd1na2vs0mg"},{"bike_id":"3efd02ce-7fc3-4bf0-8304-a73de373b271","system_id":"levelo_inurba_marseille","lat":43.30322,"lon":5.40439,"is_reserved":false,"is_disabled":false,"rental_uris":{"android":"levelo://app?vid=3efd02ce-7fc3-4bf0-8304-a73de373b271","ios":"levelo://app?vid=3efd02ce-7fc3-4bf0-8304-a73de373b271"},"vehicle_type_id":"4","last_reported":1745500926,"current_range_meters":14800,"station_id":"ce4bh012rcd13ifvqd10","pricing_plan_id":"cebpf4jnsgd1na2vs0mg"},{"bike_id":"1c1c2301-0af7-4888-a55f-b1acd72d002d","system_id":"levelo_inurba_marseille","lat":43.23174,"lon":5.39992,"is_reserved":false,"is_disabled":false,"rental_uris":{"android":"levelo://app?vid=1c1c2301-0af7-4888-a55f-b1acd72d002d","ios":"levelo://app?vid=1c1c2301-0af7-4888-a55f-b1acd72d002d"},"vehicle_type_id":"4","last_reported":1745500926,"current_range_meters":14400,"station_id":"ce4bhn12rcd13ifvqgqg","pricing_plan_id":"cebpf4jnsgd1na2vs0mg"},{"bike_id":"4dc988ed-8ee9-46eb-bdf9-99a0528c2b34","system_id":"levelo_inurba_marseille","lat":43.28276,"lon":5.35075,"is_reserved":false,"is_disabled":false,"rental_uris":{"android":"levelo://app?vid=4dc988ed-8ee9-46eb-bdf9-99a0528c2b34","ios":"levelo://app?vid=4dc988ed-8ee9-46eb-bdf9-99a0528c2b34"},"vehicle_type_id":"4","last_reported":1745500926,"current_range_meters":14800,"station_id":"ce4bhbp2rcd13ifvqerg","pricing_plan_id":"cebpf4jnsgd1na2vs0mg"},{"bike_id":"48126473-b37d-4886-a809-ad13518fecd1","system_id":"levelo_inurba_marseille","lat":43.28931,"lon":5.36636,"is_reserved":false,"is_disabled":false,"rental_uris":{"android":"levelo://app?vid=48126473-b37d-4886-a809-ad13518fecd1","ios":"levelo://app?vid=48126473-b37d-4886-a809-ad13518fecd1"},"vehicle_type_id":"4","last_reported":1745500926,"current_range_meters":14800,"station_id":"ce4bhap2rcd13ifvqek0","pricing_plan_id":"cebpf4jnsgd1na2vs0mg"},{"bike_id":"69b8c875-dc81-43b1-8620-51675d940dfe","system_id":"levelo_inurba_marseille","lat":43.26799,"lon":5.40271,"is_reserved":false,"is_disabled":false,"rental_uris":{"android":"levelo://app?vid=69b8c875-dc81-43b1-8620-51675d940dfe","ios":"levelo://app?vid=69b8c875-dc81-43b1-8620-51675d940dfe"},"vehicle_type_id":"4","last_reported":1745500926,"current_range_meters":14800,"station_id":"ce501612rcd8frsf0b60","pricing_plan_id":"cebpf4jnsgd1na2vs0mg"},{"bike_id":"6a12e3c8-9423-4362-855b-2f638963feb0","system_id":"levelo_inurba_marseille","lat":43.28362,"lon":5.38628,"is_reserved":false,"is_disabled":false,"rental_uris":{"android":"levelo://app?vid=6a12e3c8-9423-4362-855b-2f638963feb0","ios":"levelo://app?vid=6a12e3c8-9423-4362-855b-2f638963feb0"},"vehicle_type_id":"4","last_reported":1745500926,"current_range_meters":14800,"station_id":"ce4bh492rcd13ifvqdvg","pricing_plan_id":"cebpf4jnsgd1na2vs0mg"},{"bike_id":"8f11c6fe-b1b7-4a9c-af63-3ce61276d8c0","system_id":"levelo_inurba_marseille","lat":43.28269,"lon":5.3506,"is_reserved":false,"is_disabled":false,"rental_uris":{"android":"levelo://app?vid=8f11c6fe-b1b7-4a9c-af63-3ce61276d8c0","ios":"levelo://app?vid=8f11c6fe-b1b7-4a9c-af63-3ce61276d8c0"},"vehicle_type_id":"4","last_reported":1745500926,"current_range_meters":15200,"station_id":"ce4bhbp2rcd13ifvqerg","pricing_plan_id":"cebpf4jnsgd1na2vs0mg"},{"bike_id":"3ac7a256-bc93-444a-b034-fb7fdc853f81","system_id":"levelo_inurba_marseille","lat":43.2622,"lon":5.40445,"is_reserved":false,"is_disabled":false,"rental_uris":{"android":"levelo://app?vid=3ac7a256-bc93-444a-b034-fb7fdc853f81","ios":"levelo://app?vid=3ac7a256-bc93-444a-b034-fb7fdc853f81"},"vehicle_type_id":"4","last_reported":1745500926,"current_range_meters":15200,"station_id":"ce4bhmh2rcd13ifvqgmg","pricing_plan_id":"cebpf4jnsgd1na2vs0mg"},{"bike_id":"4def9142-93ac-4876-8481-762e25be2734","system_id":"levelo_inurba_marseille","lat":43.30453,"lon":5.37904,"is_reserved":false,"is_disabled":false,"rental_uris":{"android":"levelo://app?vid=4def9142-93ac-4876-8481-762e25be2734","ios":"levelo://app?vid=4def9142-93ac-4876-8481-762e25be2734"},"vehicle_type_id":"4","last_reported":1745500926,"current_range_meters":15200,"station_id":"ce4bgup2rcd13ifvqcn0","pricing_plan_id":"cebpf4jnsgd1na2vs0mg"},{"bike_id":"7412c111-bb77-442f-9a75-1a134515e251","system_id":"levelo_inurba_marseille","lat":43.24172,"lon":5.36394,"is_reserved":false,"is_disabled":false,"rental_uris":{"android":"levelo://app?vid=7412c111-bb77-442f-9a75-1a134515e251","ios":"levelo://app?vid=7412c111-bb77-442f-9a75-1a134515e251"},"vehicle_type_id":"4","last_reported":1745500926,"current_range_meters":16000,"station_id":"cpo36qri1sfpv3e86is0","pricing_plan_id":"cebpf4jnsgd1na2vs0mg"},{"bike_id":"5a6bc7f1-6093-4da2-acbf-d4c750efb49d","system_id":"levelo_inurba_marseille","lat":43.2316,"lon":5.4372,"is_reserved":false,"is_disabled":false,"rental_uris":{"android":"levelo://app?vid=5a6bc7f1-6093-4da2-acbf-d4c750efb49d","ios":"levelo://app?vid=5a6bc7f1-6093-4da2-acbf-d4c750efb49d"},"vehicle_type_id":"4","last_reported":1745500926,"current_range_meters":16000,"station_id":"ce4bhmp2rcd13ifvqgog","pricing_plan_id":"cebpf4jnsgd1na2vs0mg"},{"bike_id":"4e259911-67c1-4742-976c-ddc411ce90fd","system_id":"levelo_inurba_marseille","lat":43.24063,"lon":5.37707,"is_reserved":false,"is_disabled":false,"rental_uris":{"android":"levelo://app?vid=4e259911-67c1-4742-976c-ddc411ce90fd","ios":"levelo://app?vid=4e259911-67c1-4742-976c-ddc411ce90fd"},"vehicle_type_id":"4","last_reported":1745500926,"current_range_meters":16000,"station_id":"ce4bhnp2rcd13ifvqgvg","pricing_plan_id":"cebpf4jnsgd1na2vs0mg"},{"bike_id":"433b0866-cfe5-4bc4-93f9-c0038feff373","system_id":"levelo_inurba_marseille","lat":43.28421,"lon":5.37505,"is_reserved":false,"is_disabled":false,"rental_uris":{"android":"levelo://app?vid=433b0866-cfe5-4bc4-93f9-c0038feff373","ios":"levelo://app?vid=433b0866-cfe5-4bc4-93f9-c0038feff373"},"vehicle_type_id":"4","last_reported":1745500926,"current_range_meters":16000,"station_id":"ce4bh412rcd13ifvqds0","pricing_plan_id":"cebpf4jnsgd1na2vs0mg"},{"bike_id":"db201d1a-c647-4b1b-98d9-342a583fbb0d","system_id":"levelo_inurba_marseille","lat":43.33739,"lon":5.39186,"is_reserved":false,"is_disabled":false,"rental_uris":{"android":"levelo://app?vid=db201d1a-c647-4b1b-98d9-342a583fbb0d","ios":"levelo://app?vid=db201d1a-c647-4b1b-98d9-342a583fbb0d"},"vehicle_type_id":"4","last_reported":1745500926,"current_range_meters":16000,"station_id":"ce4bhr92rcd13ifvqhsg","pricing_plan_id":"cebpf4jnsgd1na2vs0mg"},{"bike_id":"cd906bce-52be-45be-8f08-cdeb623de131","system_id":"levelo_inurba_marseille","lat":43.28179,"lon":5.40379,"is_reserved":false,"is_disabled":false,"rental_uris":{"android":"levelo://app?vid=cd906bce-52be-45be-8f08-cdeb623de131","ios":"levelo://app?vid=cd906bce-52be-45be-8f08-cdeb623de131"},"vehicle_type_id":"4","last_reported":1745500926,"current_range_meters":16400,"station_id":"","pricing_plan_id":"cebpf4jnsgd1na2vs0mg"},{"bike_id":"bfec813c-7a10-4394-8849-d3c300d58a05","system_id":"levelo_inurba_marseille","lat":43.30539,"lon":5.36705,"is_reserved":false,"is_disabled":false,"rental_uris":{"android":"levelo://app?vid=bfec813c-7a10-4394-8849-d3c300d58a05","ios":"levelo://app?vid=bfec813c-7a10-4394-8849-d3c300d58a05"},"vehicle_type_id":"4","last_reported":1745500926,"current_range_meters":16400,"station_id":"ce4bgrp2rcd13ifvqc9g","pricing_plan_id":"cebpf4jnsgd1na2vs0mg"},{"bike_id":"d802d433-91f5-46da-9a5b-42a725289286","system_id":"levelo_inurba_marseille","lat":43.30907,"lon":5.36863,"is_reserved":false,"is_disabled":false,"rental_uris":{"android":"levelo://app?vid=d802d433-91f5-46da-9a5b-42a725289286","ios":"levelo://app?vid=d802d433-91f5-46da-9a5b-42a725289286"},"vehicle_type_id":"4","last_reported":1745500926,"current_range_meters":16400,"station_id":"ce4bgn92rcd13ifvqbvg","pricing_plan_id":"cebpf4jnsgd1na2vs0mg"},{"bike_id":"4a7b5749-e79b-494f-943d-ac805d505919","system_id":"levelo_inurba_marseille","lat":43.31373,"lon":5.38497,"is_reserved":false,"is_disabled":false,"rental_uris":{"android":"levelo://app?vid=4a7b5749-e79b-494f-943d-ac805d505919","ios":"levelo://app?vid=4a7b5749-e79b-494f-943d-ac805d505919"},"vehicle_type_id":"4","last_reported":1745500926,"current_range_meters":16400,"station_id":"ce4bgt92rcd13ifvqcf0","pricing_plan_id":"cebpf4jnsgd1na2vs0mg"},{"bike_id":"39cbd3f0-b163-4dac-8f0d-61361d13353f","system_id":"levelo_inurba_marseille","lat":43.278101,"lon":5.407128,"is_reserved":false,"is_disabled":false,"rental_uris":{"android":"levelo://app?vid=39cbd3f0-b163-4dac-8f0d-61361d13353f","ios":"levelo://app?vid=39cbd3f0-b163-4dac-8f0d-61361d13353f"},"vehicle_type_id":"4","last_reported":1745500926,"current_range_meters":16400,"station_id":"ce4bhnh2rcd13ifvqgtg","pricing_plan_id":"cebpf4jnsgd1na2vs0mg"},{"bike_id":"3264120f-fed9-45e7-b8fa-30569c07733b","system_id":"levelo_inurba_marseille","lat":43.296286,"lon":5.40596,"is_reserved":false,"is_disabled":false,"rental_uris":{"android":"levelo://app?vid=3264120f-fed9-45e7-b8fa-30569c07733b","ios":"levelo://app?vid=3264120f-fed9-45e7-b8fa-30569c07733b"},"vehicle_type_id":"4","last_reported":1745500926,"current_range_meters":16800,"station_id":"ce4bh0h2rcd13ifvqd60","pricing_plan_id":"cebpf4jnsgd1na2vs0mg"},{"bike_id":"97f00e91-4a81-4998-8f3d-60d5de3cea7c","system_id":"levelo_inurba_marseille","lat":43.30496,"lon":5.36713,"is_reserved":false,"is_disabled":false,"rental_uris":{"android":"levelo://app?vid=97f00e91-4a81-4998-8f3d-60d5de3cea7c","ios":"levelo://app?vid=97f00e91-4a81-4998-8f3d-60d5de3cea7c"},"vehicle_type_id":"4","last_reported":1745500926,"current_range_meters":16800,"station_id":"ce4bgrp2rcd13ifvqc9g","pricing_plan_id":"cebpf4jnsgd1na2vs0mg"},{"bike_id":"6a8ce0d7-44c9-4192-a61a-a9f45ca222d9","system_id":"levelo_inurba_marseille","lat":43.29792,"lon":5.40402,"is_reserved":false,"is_disabled":false,"rental_uris":{"android":"levelo://app?vid=6a8ce0d7-44c9-4192-a61a-a9f45ca222d9","ios":"levelo://app?vid=6a8ce0d7-44c9-4192-a61a-a9f45ca222d9"},"vehicle_type_id":"4","last_reported":1745500926,"current_range_meters":16800,"station_id":"ce4bh112rcd13ifvqd90","pricing_plan_id":"cebpf4jnsgd1na2vs0mg"},{"bike_id":"a76b3ded-e33d-46d9-a186-eddc8a066e72","system_id":"levelo_inurba_marseille","lat":43.29872,"lon":5.39739,"is_reserved":false,"is_disabled":false,"rental_uris":{"android":"levelo://app?vid=a76b3ded-e33d-46d9-a186-eddc8a066e72","ios":"levelo://app?vid=a76b3ded-e33d-46d9-a186-eddc8a066e72"},"vehicle_type_id":"4","last_reported":1745500926,"current_range_meters":16800,"station_id":"ce4bh0h2rcd13ifvqd50","pricing_plan_id":"cebpf4jnsgd1na2vs0mg"},{"bike_id":"d8c09e5d-f7a6-43c6-97cd-0e3563308452","system_id":"levelo_inurba_marseille","lat":43.30545,"lon":5.36536,"is_reserved":false,"is_disabled":false,"rental_uris":{"android":"levelo://app?vid=d8c09e5d-f7a6-43c6-97cd-0e3563308452","ios":"levelo://app?vid=d8c09e5d-f7a6-43c6-97cd-0e3563308452"},"vehicle_type_id":"4","last_reported":1745500926,"current_range_meters":16800,"station_id":"ce4bgs12rcd13ifvqcag","pricing_plan_id":"cebpf4jnsgd1na2vs0mg"},{"bike_id":"a5af58ad-62ce-4ff8-ba03-efe1820e9e23","system_id":"levelo_inurba_marseille","lat":43.30737,"lon":5.42435,"is_reserved":false,"is_disabled":false,"rental_uris":{"android":"levelo://app?vid=a5af58ad-62ce-4ff8-ba03-efe1820e9e23","ios":"levelo://app?vid=a5af58ad-62ce-4ff8-ba03-efe1820e9e23"},"vehicle_type_id":"4","last_reported":1745500926,"current_range_meters":17200,"station_id":"st_cvj6ca6bvosntc0bfgr0","pricing_plan_id":"cebpf4jnsgd1na2vs0mg"},{"bike_id":"8bd0d4b0-26d9-438f-a32b-5a8f97e21930","system_id":"levelo_inurba_marseille","lat":43.29864,"lon":5.39737,"is_reserved":false,"is_disabled":false,"rental_uris":{"android":"levelo://app?vid=8bd0d4b0-26d9-438f-a32b-5a8f97e21930","ios":"levelo://app?vid=8bd0d4b0-26d9-438f-a32b-5a8f97e21930"},"vehicle_type_id":"4","last_reported":1745500926,"current_range_meters":17200,"station_id":"ce4bh0h2rcd13ifvqd50","pricing_plan_id":"cebpf4jnsgd1na2vs0mg"},{"bike_id":"d2551370-740b-4767-bbbc-c02161e12ec3","system_id":"levelo_inurba_marseille","lat":43.32473,"lon":5.36555,"is_reserved":false,"is_disabled":false,"rental_uris":{"android":"levelo://app?vid=d2551370-740b-4767-bbbc-c02161e12ec3","ios":"levelo://app?vid=d2551370-740b-4767-bbbc-c02161e12ec3"},"vehicle_type_id":"4","last_reported":1745500926,"current_range_meters":17200,"station_id":"ce4bhs12rcd13ifvqhvg","pricing_plan_id":"cebpf4jnsgd1na2vs0mg"},{"bike_id":"4e407302-2a98-4d2a-b412-add2944065fc","system_id":"levelo_inurba_marseille","lat":43.29975,"lon":5.38487,"is_reserved":false,"is_disabled":false,"rental_uris":{"android":"levelo://app?vid=4e407302-2a98-4d2a-b412-add2944065fc","ios":"levelo://app?vid=4e407302-2a98-4d2a-b412-add2944065fc"},"vehicle_type_id":"4","last_reported":1745500926,"current_range_meters":17200,"station_id":"ce4bgj92rcd13ifvqbd0","pricing_plan_id":"cebpf4jnsgd1na2vs0mg"},{"bike_id":"093e8d67-6911-4a89-bc70-063c093f522e","system_id":"levelo_inurba_marseille","lat":43.29592,"lon":5.38104,"is_reserved":false,"is_disabled":false,"rental_uris":{"android":"levelo://app?vid=093e8d67-6911-4a89-bc70-063c093f522e","ios":"levelo://app?vid=093e8d67-6911-4a89-bc70-063c093f522e"},"vehicle_type_id":"4","last_reported":1745500926,"current_range_meters":17200,"station_id":"ce4bgl12rcd13ifvqbo0","pricing_plan_id":"cebpf4jnsgd1na2vs0mg"},{"bike_id":"c0525dd3-6761-46de-888f-ffa7b994ee85","system_id":"levelo_inurba_marseille","lat":43.23166,"lon":5.43693,"is_reserved":false,"is_disabled":false,"rental_uris":{"android":"levelo://app?vid=c0525dd3-6761-46de-888f-ffa7b994ee85","ios":"levelo://app?vid=c0525dd3-6761-46de-888f-ffa7b994ee85"},"vehicle_type_id":"4","last_reported":1745500926,"current_range_meters":17200,"station_id":"ce4bhmp2rcd13ifvqgog","pricing_plan_id":"cebpf4jnsgd1na2vs0mg"},{"bike_id":"5efb0c5c-88bc-4b99-8f7a-8b10625ea8f5","system_id":"levelo_inurba_marseille","lat":43.32484,"lon":5.36569,"is_reserved":false,"is_disabled":false,"rental_uris":{"android":"levelo://app?vid=5efb0c5c-88bc-4b99-8f7a-8b10625ea8f5","ios":"levelo://app?vid=5efb0c5c-88bc-4b99-8f7a-8b10625ea8f5"},"vehicle_type_id":"4","last_reported":1745500926,"current_range_meters":17200,"station_id":"ce4bhs12rcd13ifvqhvg","pricing_plan_id":"cebpf4jnsgd1na2vs0mg"},{"bike_id":"637f1876-aff6-4f7b-b3ff-a3e501ed3845","system_id":"levelo_inurba_marseille","lat":43.28438,"lon":5.39201,"is_reserved":false,"is_disabled":false,"rental_uris":{"android":"levelo://app?vid=637f1876-aff6-4f7b-b3ff-a3e501ed3845","ios":"levelo://app?vid=637f1876-aff6-4f7b-b3ff-a3e501ed3845"},"vehicle_type_id":"4","last_reported":1745500926,"current_range_meters":17200,"station_id":"ce4bhoh2rcd13ifvqh5g","pricing_plan_id":"cebpf4jnsgd1na2vs0mg"},{"bike_id":"5c8dde23-03af-4ec7-8c64-b6a7b95cfa5a","system_id":"levelo_inurba_marseille","lat":43.33722,"lon":5.39183,"is_reserved":false,"is_disabled":false,"rental_uris":{"android":"levelo://app?vid=5c8dde23-03af-4ec7-8c64-b6a7b95cfa5a","ios":"levelo://app?vid=5c8dde23-03af-4ec7-8c64-b6a7b95cfa5a"},"vehicle_type_id":"4","last_reported":1745500926,"current_range_meters":17200,"station_id":"ce4bhr92rcd13ifvqhsg","pricing_plan_id":"cebpf4jnsgd1na2vs0mg"},{"bike_id":"13a7604c-56fe-4a63-bbb5-3593f045db6f","system_id":"levelo_inurba_marseille","lat":43.31537,"lon":5.38038,"is_reserved":false,"is_disabled":false,"rental_uris":{"android":"levelo://app?vid=13a7604c-56fe-4a63-bbb5-3593f045db6f","ios":"levelo://app?vid=13a7604c-56fe-4a63-bbb5-3593f045db6f"},"vehicle_type_id":"4","last_reported":1745500926,"current_range_meters":17200,"station_id":"ce4bhsp2rcd13ifvqi50","pricing_plan_id":"cebpf4jnsgd1na2vs0mg"},{"bike_id":"46b36c30-6706-4bf2-959a-d019b8443085","system_id":"levelo_inurba_marseille","lat":43.292904,"lon":5.401387,"is_reserved":false,"is_disabled":false,"rental_uris":{"android":"levelo://app?vid=46b36c30-6706-4bf2-959a-d019b8443085","ios":"levelo://app?vid=46b36c30-6706-4bf2-959a-d019b8443085"},"vehicle_type_id":"4","last_reported":1745500926,"current_range_meters":17600,"station_id":"ce4bh312rcd13ifvqdk0","pricing_plan_id":"cebpf4jnsgd1na2vs0mg"},{"bike_id":"30da752e-5450-4da3-965e-773778ce5d7d","system_id":"levelo_inurba_marseille","lat":43.24178,"lon":5.36381,"is_reserved":false,"is_disabled":false,"rental_uris":{"android":"levelo://app?vid=30da752e-5450-4da3-965e-773778ce5d7d","ios":"levelo://app?vid=30da752e-5450-4da3-965e-773778ce5d7d"},"vehicle_type_id":"4","last_reported":1745500926,"current_range_meters":17600,"station_id":"cpo36qri1sfpv3e86is0","pricing_plan_id":"cebpf4jnsgd1na2vs0mg"},{"bike_id":"75c54774-60c3-4a5a-9d9a-e318535acfa8","system_id":"levelo_inurba_marseille","lat":43.28432,"lon":5.34975,"is_reserved":false,"is_disabled":false,"rental_uris":{"android":"levelo://app?vid=75c54774-60c3-4a5a-9d9a-e318535acfa8","ios":"levelo://app?vid=75c54774-60c3-4a5a-9d9a-e318535acfa8"},"vehicle_type_id":"4","last_reported":1745500926,"current_range_meters":17600,"station_id":"ce4bhbh2rcd13ifvqepg","pricing_plan_id":"cebpf4jnsgd1na2vs0mg"},{"bike_id":"8d053f54-8181-4367-a214-b0fb306bf8ed","system_id":"levelo_inurba_marseille","lat":43.2844,"lon":5.39185,"is_reserved":false,"is_disabled":false,"rental_uris":{"android":"levelo://app?vid=8d053f54-8181-4367-a214-b0fb306bf8ed","ios":"levelo://app?vid=8d053f54-8181-4367-a214-b0fb306bf8ed"},"vehicle_type_id":"4","last_reported":1745500926,"current_range_meters":17600,"station_id":"ce4bhoh2rcd13ifvqh5g","pricing_plan_id":"cebpf4jnsgd1na2vs0mg"},{"bike_id":"f164c425-8a09-48b4-9ff5-88ffcdd28407","system_id":"levelo_inurba_marseille","lat":43.26221,"lon":5.40459,"is_reserved":false,"is_disabled":false,"rental_uris":{"android":"levelo://app?vid=f164c425-8a09-48b4-9ff5-88ffcdd28407","ios":"levelo://app?vid=f164c425-8a09-48b4-9ff5-88ffcdd28407"},"vehicle_type_id":"4","last_reported":1745500926,"current_range_meters":17600,"station_id":"ce4bhmh2rcd13ifvqgmg","pricing_plan_id":"cebpf4jnsgd1na2vs0mg"},{"bike_id":"6267ef1d-28cd-43af-8556-05a0ce748888","system_id":"levelo_inurba_marseille","lat":43.284612,"lon":5.358778,"is_reserved":false,"is_disabled":false,"rental_uris":{"android":"levelo://app?vid=6267ef1d-28cd-43af-8556-05a0ce748888","ios":"levelo://app?vid=6267ef1d-28cd-43af-8556-05a0ce748888"},"vehicle_type_id":"4","last_reported":1745500926,"current_range_meters":18000,"station_id":"ce4bhah2rcd13ifvqei0","pricing_plan_id":"cebpf4jnsgd1na2vs0mg"},{"bike_id":"4f153c0a-7843-4dc7-8fc5-040693d722c9","system_id":"levelo_inurba_marseille","lat":43.29278,"lon":5.40114,"is_reserved":false,"is_disabled":false,"rental_uris":{"android":"levelo://app?vid=4f153c0a-7843-4dc7-8fc5-040693d722c9","ios":"levelo://app?vid=4f153c0a-7843-4dc7-8fc5-040693d722c9"},"vehicle_type_id":"4","last_reported":1745500926,"current_range_meters":18000,"station_id":"ce4bh312rcd13ifvqdk0","pricing_plan_id":"cebpf4jnsgd1na2vs0mg"},{"bike_id":"e2dcabcf-64d8-4394-bb9a-ff877bee611a","system_id":"levelo_inurba_marseille","lat":43.32041,"lon":5.4152,"is_reserved":false,"is_disabled":false,"rental_uris":{"android":"levelo://app?vid=e2dcabcf-64d8-4394-bb9a-ff877bee611a","ios":"levelo://app?vid=e2dcabcf-64d8-4394-bb9a-ff877bee611a"},"vehicle_type_id":"4","last_reported":1745500926,"current_range_meters":18000,"station_id":"ce4bhq92rcd13ifvqhkg","pricing_plan_id":"cebpf4jnsgd1na2vs0mg"},{"bike_id":"81c822d8-ebbe-4d24-aa97-095046fd1c36","system_id":"levelo_inurba_marseille","lat":43.23154,"lon":5.4372,"is_reserved":false,"is_disabled":false,"rental_uris":{"android":"levelo://app?vid=81c822d8-ebbe-4d24-aa97-095046fd1c36","ios":"levelo://app?vid=81c822d8-ebbe-4d24-aa97-095046fd1c36"},"vehicle_type_id":"4","last_reported":1745500926,"current_range_meters":18000,"station_id":"ce4bhmp2rcd13ifvqgog","pricing_plan_id":"cebpf4jnsgd1na2vs0mg"},{"bike_id":"e93a5d48-8225-4dba-b054-f06381b47cb3","system_id":"levelo_inurba_marseille","lat":43.28934,"lon":5.3637,"is_reserved":false,"is_disabled":false,"rental_uris":{"android":"levelo://app?vid=e93a5d48-8225-4dba-b054-f06381b47cb3","ios":"levelo://app?vid=e93a5d48-8225-4dba-b054-f06381b47cb3"},"vehicle_type_id":"4","last_reported":1745500926,"current_range_meters":18000,"station_id":"ce4bhc92rcd13ifvqetg","pricing_plan_id":"cebpf4jnsgd1na2vs0mg"},{"bike_id":"4d2beb57-71cc-463b-af16-d0ebe4be478b","system_id":"levelo_inurba_marseille","lat":43.2678,"lon":5.40359,"is_reserved":false,"is_disabled":false,"rental_uris":{"android":"levelo://app?vid=4d2beb57-71cc-463b-af16-d0ebe4be478b","ios":"levelo://app?vid=4d2beb57-71cc-463b-af16-d0ebe4be478b"},"vehicle_type_id":"4","last_reported":1745500926,"current_range_meters":18000,"station_id":"","pricing_plan_id":"cebpf4jnsgd1na2vs0mg"},{"bike_id":"77dc0c70-02e4-41d9-b683-d216f593e97a","system_id":"levelo_inurba_marseille","lat":43.269211,"lon":5.389075,"is_reserved":false,"is_disabled":false,"rental_uris":{"android":"levelo://app?vid=77dc0c70-02e4-41d9-b683-d216f593e97a","ios":"levelo://app?vid=77dc0c70-02e4-41d9-b683-d216f593e97a"},"vehicle_type_id":"4","last_reported":1745500926,"current_range_meters":18000,"station_id":"ce4bhhh2rcd13ifvqfl0","pricing_plan_id":"cebpf4jnsgd1na2vs0mg"},{"bike_id":"18b981a9-5033-4a8a-8475-fcedd9335702","system_id":"levelo_inurba_marseille","lat":43.30582,"lon":5.39348,"is_reserved":false,"is_disabled":false,"rental_uris":{"android":"levelo://app?vid=18b981a9-5033-4a8a-8475-fcedd9335702","ios":"levelo://app?vid=18b981a9-5033-4a8a-8475-fcedd9335702"},"vehicle_type_id":"4","last_reported":1745500926,"current_range_meters":18000,"station_id":"ce4bh0p2rcd13ifvqd80","pricing_plan_id":"cebpf4jnsgd1na2vs0mg"},{"bike_id":"5dcc6d51-b9bc-4ed1-a1b7-47429c217104","system_id":"levelo_inurba_marseille","lat":43.30536,"lon":5.36697,"is_reserved":false,"is_disabled":false,"rental_uris":{"android":"levelo://app?vid=5dcc6d51-b9bc-4ed1-a1b7-47429c217104","ios":"levelo://app?vid=5dcc6d51-b9bc-4ed1-a1b7-47429c217104"},"vehicle_type_id":"4","last_reported":1745500926,"current_range_meters":18000,"station_id":"ce4bgrp2rcd13ifvqc9g","pricing_plan_id":"cebpf4jnsgd1na2vs0mg"},{"bike_id":"013c5a0f-953a-416c-bf06-6da1fe97f1b3","system_id":"levelo_inurba_marseille","lat":43.2803,"lon":5.36942,"is_reserved":false,"is_disabled":false,"rental_uris":{"android":"levelo://app?vid=013c5a0f-953a-416c-bf06-6da1fe97f1b3","ios":"levelo://app?vid=013c5a0f-953a-416c-bf06-6da1fe97f1b3"},"vehicle_type_id":"4","last_reported":1745500926,"current_range_meters":18000,"station_id":"ce4bha12rcd13ifvqef0","pricing_plan_id":"cebpf4jnsgd1na2vs0mg"},{"bike_id":"d26691ad-eb04-46c6-ac7a-e471272f54e2","system_id":"levelo_inurba_marseille","lat":43.26236,"lon":5.40457,"is_reserved":false,"is_disabled":false,"rental_uris":{"android":"levelo://app?vid=d26691ad-eb04-46c6-ac7a-e471272f54e2","ios":"levelo://app?vid=d26691ad-eb04-46c6-ac7a-e471272f54e2"},"vehicle_type_id":"4","last_reported":1745500926,"current_range_meters":18800,"station_id":"ce4bhmh2rcd13ifvqgmg","pricing_plan_id":"cebpf4jnsgd1na2vs0mg"},{"bike_id":"f577c520-0907-4453-975b-4f68ddb3f606","system_id":"levelo_inurba_marseille","lat":43.284181,"lon":5.349855,"is_reserved":false,"is_disabled":false,"rental_uris":{"android":"levelo://app?vid=f577c520-0907-4453-975b-4f68ddb3f606","ios":"levelo://app?vid=f577c520-0907-4453-975b-4f68ddb3f606"},"vehicle_type_id":"4","last_reported":1745500926,"current_range_meters":18800,"station_id":"ce4bhbh2rcd13ifvqepg","pricing_plan_id":"cebpf4jnsgd1na2vs0mg"},{"bike_id":"5f9e7908-c30c-4bb0-98bf-2b35909fe7a2","system_id":"levelo_inurba_marseille","lat":43.29217,"lon":5.36028,"is_reserved":false,"is_disabled":false,"rental_uris":{"android":"levelo://app?vid=5f9e7908-c30c-4bb0-98bf-2b35909fe7a2","ios":"levelo://app?vid=5f9e7908-c30c-4bb0-98bf-2b35909fe7a2"},"vehicle_type_id":"4","last_reported":1745500926,"current_range_meters":19200,"station_id":"ce4bhbh2rcd13ifvqeqg","pricing_plan_id":"cebpf4jnsgd1na2vs0mg"},{"bike_id":"d517b521-37c1-4380-9600-6e69fd78877b","system_id":"levelo_inurba_marseille","lat":43.21194,"lon":5.35082,"is_reserved":false,"is_disabled":false,"rental_uris":{"android":"levelo://app?vid=d517b521-37c1-4380-9600-6e69fd78877b","ios":"levelo://app?vid=d517b521-37c1-4380-9600-6e69fd78877b"},"vehicle_type_id":"4","last_reported":1745500926,"current_range_meters":18800,"station_id":"st_cvj6sg6p6f1abm77japg","pricing_plan_id":"cebpf4jnsgd1na2vs0mg"},{"bike_id":"a9784e4d-72f3-45a0-bc5c-6a48517d28d6","system_id":"levelo_inurba_marseille","lat":43.33041,"lon":5.39048,"is_reserved":false,"is_disabled":false,"rental_uris":{"android":"levelo://app?vid=a9784e4d-72f3-45a0-bc5c-6a48517d28d6","ios":"levelo://app?vid=a9784e4d-72f3-45a0-bc5c-6a48517d28d6"},"vehicle_type_id":"4","last_reported":1745500926,"current_range_meters":18800,"station_id":"ce4bhr92rcd13ifvqhrg","pricing_plan_id":"cebpf4jnsgd1na2vs0mg"},{"bike_id":"81bd717f-78e4-4bbe-a32d-6b5884b6a673","system_id":"levelo_inurba_marseille","lat":43.28915,"lon":5.36377,"is_reserved":false,"is_disabled":false,"rental_uris":{"android":"levelo://app?vid=81bd717f-78e4-4bbe-a32d-6b5884b6a673","ios":"levelo://app?vid=81bd717f-78e4-4bbe-a32d-6b5884b6a673"},"vehicle_type_id":"4","last_reported":1745500926,"current_range_meters":18800,"station_id":"ce4bhc92rcd13ifvqetg","pricing_plan_id":"cebpf4jnsgd1na2vs0mg"},{"bike_id":"b060a5cb-7521-4f42-826a-df832facd15e","system_id":"levelo_inurba_marseille","lat":43.28434,"lon":5.34994,"is_reserved":false,"is_disabled":false,"rental_uris":{"android":"levelo://app?vid=b060a5cb-7521-4f42-826a-df832facd15e","ios":"levelo://app?vid=b060a5cb-7521-4f42-826a-df832facd15e"},"vehicle_type_id":"4","last_reported":1745500926,"current_range_meters":18800,"station_id":"ce4bhbh2rcd13ifvqepg","pricing_plan_id":"cebpf4jnsgd1na2vs0mg"},{"bike_id":"721c511b-deaf-4647-949b-40b2965da538","system_id":"levelo_inurba_marseille","lat":43.29941,"lon":5.36533,"is_reserved":false,"is_disabled":false,"rental_uris":{"android":"levelo://app?vid=721c511b-deaf-4647-949b-40b2965da538","ios":"levelo://app?vid=721c511b-deaf-4647-949b-40b2965da538"},"vehicle_type_id":"4","last_reported":1745500926,"current_range_meters":18800,"station_id":"ce4bgm92rcd13ifvqbr0","pricing_plan_id":"cebpf4jnsgd1na2vs0mg"},{"bike_id":"86d635d4-6f1e-4591-846d-264524747d0c","system_id":"levelo_inurba_marseille","lat":43.27372,"lon":5.36248,"is_reserved":false,"is_disabled":false,"rental_uris":{"android":"levelo://app?vid=86d635d4-6f1e-4591-846d-264524747d0c","ios":"levelo://app?vid=86d635d4-6f1e-4591-846d-264524747d0c"},"vehicle_type_id":"4","last_reported":1745500926,"current_range_meters":19200,"station_id":"ce4bhbh2rcd13ifvqeo0","pricing_plan_id":"cebpf4jnsgd1na2vs0mg"},{"bike_id":"aa906a89-ed79-40ed-85c9-eea09c6e910d","system_id":"levelo_inurba_marseille","lat":43.29418,"lon":5.38631,"is_reserved":false,"is_disabled":false,"rental_uris":{"android":"levelo://app?vid=aa906a89-ed79-40ed-85c9-eea09c6e910d","ios":"levelo://app?vid=aa906a89-ed79-40ed-85c9-eea09c6e910d"},"vehicle_type_id":"4","last_reported":1745500926,"current_range_meters":19200,"station_id":"ce4bh2h2rcd13ifvqdh0","pricing_plan_id":"cebpf4jnsgd1na2vs0mg"},{"bike_id":"8cd89945-3452-402d-b186-42ab94aa749d","system_id":"levelo_inurba_marseille","lat":43.29224,"lon":5.36054,"is_reserved":false,"is_disabled":true,"rental_uris":{"android":"levelo://app?vid=8cd89945-3452-402d-b186-42ab94aa749d","ios":"levelo://app?vid=8cd89945-3452-402d-b186-42ab94aa749d"},"vehicle_type_id":"4","last_reported":1745500926,"current_range_meters":19200,"station_id":"ce4bhbh2rcd13ifvqeqg","pricing_plan_id":"cebpf4jnsgd1na2vs0mg"},{"bike_id":"713e340d-4155-4de4-a5a1-7868887bc224","system_id":"levelo_inurba_marseille","lat":43.22923,"lon":5.35384,"is_reserved":false,"is_disabled":true,"rental_uris":{"android":"levelo://app?vid=713e340d-4155-4de4-a5a1-7868887bc224","ios":"levelo://app?vid=713e340d-4155-4de4-a5a1-7868887bc224"},"vehicle_type_id":"4","last_reported":1745500926,"current_range_meters":19200,"station_id":"cpo3532slgdg3j2ikp40","pricing_plan_id":"cebpf4jnsgd1na2vs0mg"},{"bike_id":"8c54707d-0394-48aa-b0b3-303fc5979d44","system_id":"levelo_inurba_marseille","lat":43.25006,"lon":5.38924,"is_reserved":false,"is_disabled":false,"rental_uris":{"android":"levelo://app?vid=8c54707d-0394-48aa-b0b3-303fc5979d44","ios":"levelo://app?vid=8c54707d-0394-48aa-b0b3-303fc5979d44"},"vehicle_type_id":"4","last_reported":1745500926,"current_range_meters":19200,"station_id":"ce4bhgp2rcd13ifvqfd0","pricing_plan_id":"cebpf4jnsgd1na2vs0mg"},{"bike_id":"5a1b6595-5053-487b-ab2d-ec221b20d277","system_id":"levelo_inurba_marseille","lat":43.28848,"lon":5.35828,"is_reserved":false,"is_disabled":false,"rental_uris":{"android":"levelo://app?vid=5a1b6595-5053-487b-ab2d-ec221b20d277","ios":"levelo://app?vid=5a1b6595-5053-487b-ab2d-ec221b20d277"},"vehicle_type_id":"4","last_reported":1745500926,"current_range_meters":19200,"station_id":"ce4bhb12rcd13ifvqem0","pricing_plan_id":"cebpf4jnsgd1na2vs0mg"},{"bike_id":"f8b93b96-ec09-4a28-8c5b-6cf63dd7ca66","system_id":"levelo_inurba_marseille","lat":43.2396,"lon":5.36624,"is_reserved":false,"is_disabled":false,"rental_uris":{"android":"levelo://app?vid=f8b93b96-ec09-4a28-8c5b-6cf63dd7ca66","ios":"levelo://app?vid=f8b93b96-ec09-4a28-8c5b-6cf63dd7ca66"},"vehicle_type_id":"4","last_reported":1745500926,"current_range_meters":19200,"station_id":"ce4bhi12rcd13ifvqfp0","pricing_plan_id":"cebpf4jnsgd1na2vs0mg"},{"bike_id":"1c1ab593-b3d5-4170-8dc9-d2588a8260e2","system_id":"levelo_inurba_marseille","lat":43.294158,"lon":5.386184,"is_reserved":false,"is_disabled":false,"rental_uris":{"android":"levelo://app?vid=1c1ab593-b3d5-4170-8dc9-d2588a8260e2","ios":"levelo://app?vid=1c1ab593-b3d5-4170-8dc9-d2588a8260e2"},"vehicle_type_id":"4","last_reported":1745500926,"current_range_meters":19200,"station_id":"ce4bh2h2rcd13ifvqdh0","pricing_plan_id":"cebpf4jnsgd1na2vs0mg"},{"bike_id":"7543cc59-73f7-4195-8cad-859fa973a17d","system_id":"levelo_inurba_marseille","lat":43.2621,"lon":5.37924,"is_reserved":false,"is_disabled":false,"rental_uris":{"android":"levelo://app?vid=7543cc59-73f7-4195-8cad-859fa973a17d","ios":"levelo://app?vid=7543cc59-73f7-4195-8cad-859fa973a17d"},"vehicle_type_id":"4","last_reported":1745500926,"current_range_meters":18800,"station_id":"ce4bhjp2rcd13ifvqg90","pricing_plan_id":"cebpf4jnsgd1na2vs0mg"},{"bike_id":"0bfff189-ec6a-4439-b345-e9dd168ab867","system_id":"levelo_inurba_marseille","lat":43.33716,"lon":5.39182,"is_reserved":false,"is_disabled":false,"rental_uris":{"android":"levelo://app?vid=0bfff189-ec6a-4439-b345-e9dd168ab867","ios":"levelo://app?vid=0bfff189-ec6a-4439-b345-e9dd168ab867"},"vehicle_type_id":"4","last_reported":1745500926,"current_range_meters":19200,"station_id":"ce4bhr92rcd13ifvqhsg","pricing_plan_id":"cebpf4jnsgd1na2vs0mg"},{"bike_id":"9a1c0be7-bd1a-4081-ab84-3ef05258b407","system_id":"levelo_inurba_marseille","lat":43.229321,"lon":5.353731,"is_reserved":false,"is_disabled":false,"rental_uris":{"android":"levelo://app?vid=9a1c0be7-bd1a-4081-ab84-3ef05258b407","ios":"levelo://app?vid=9a1c0be7-bd1a-4081-ab84-3ef05258b407"},"vehicle_type_id":"4","last_reported":1745500926,"current_range_meters":19600,"station_id":"cpo3532slgdg3j2ikp40","pricing_plan_id":"cebpf4jnsgd1na2vs0mg"},{"bike_id":"6ab6d7b2-3290-448f-84a4-8ebdbe70ab9b","system_id":"levelo_inurba_marseille","lat":43.26582,"lon":5.37315,"is_reserved":false,"is_disabled":false,"rental_uris":{"android":"levelo://app?vid=6ab6d7b2-3290-448f-84a4-8ebdbe70ab9b","ios":"levelo://app?vid=6ab6d7b2-3290-448f-84a4-8ebdbe70ab9b"},"vehicle_type_id":"4","last_reported":1745500926,"current_range_meters":19600,"station_id":"ce4bhg12rcd13ifvqf70","pricing_plan_id":"cebpf4jnsgd1na2vs0mg"},{"bike_id":"a9534af2-c56c-49eb-aabc-c55128336cd2","system_id":"levelo_inurba_marseille","lat":43.29846,"lon":5.36284,"is_reserved":false,"is_disabled":false,"rental_uris":{"android":"levelo://app?vid=a9534af2-c56c-49eb-aabc-c55128336cd2","ios":"levelo://app?vid=a9534af2-c56c-49eb-aabc-c55128336cd2"},"vehicle_type_id":"4","last_reported":1745500926,"current_range_meters":19600,"station_id":"ce4bgpp2rcd13ifvqc3g","pricing_plan_id":"cebpf4jnsgd1na2vs0mg"},{"bike_id":"3694eb2b-b977-4952-affb-2db2d69f62aa","system_id":"levelo_inurba_marseille","lat":43.24172,"lon":5.39717,"is_reserved":false,"is_disabled":false,"rental_uris":{"android":"levelo://app?vid=3694eb2b-b977-4952-affb-2db2d69f62aa","ios":"levelo://app?vid=3694eb2b-b977-4952-affb-2db2d69f62aa"},"vehicle_type_id":"4","last_reported":1745500926,"current_range_meters":20000,"station_id":"ce4bhn12rcd13ifvqgpg","pricing_plan_id":"cebpf4jnsgd1na2vs0mg"},{"bike_id":"9ebec2c2-e4e2-4e72-8800-6cc2a0c85f32","system_id":"levelo_inurba_marseille","lat":43.31794,"lon":5.39074,"is_reserved":false,"is_disabled":false,"rental_uris":{"android":"levelo://app?vid=9ebec2c2-e4e2-4e72-8800-6cc2a0c85f32","ios":"levelo://app?vid=9ebec2c2-e4e2-4e72-8800-6cc2a0c85f32"},"vehicle_type_id":"4","last_reported":1745500926,"current_range_meters":20000,"station_id":"","pricing_plan_id":"cebpf4jnsgd1na2vs0mg"},{"bike_id":"bc963475-aac3-45d8-8e2e-66f037386e54","system_id":"levelo_inurba_marseille","lat":43.23193,"lon":5.35558,"is_reserved":false,"is_disabled":false,"rental_uris":{"android":"levelo://app?vid=bc963475-aac3-45d8-8e2e-66f037386e54","ios":"levelo://app?vid=bc963475-aac3-45d8-8e2e-66f037386e54"},"vehicle_type_id":"4","last_reported":1745500926,"current_range_meters":20000,"station_id":"ce4bhu92rcd13ifvqi70","pricing_plan_id":"cebpf4jnsgd1na2vs0mg"},{"bike_id":"5582e915-18c1-45ef-9037-af7dd7e64427","system_id":"levelo_inurba_marseille","lat":43.21199,"lon":5.35058,"is_reserved":false,"is_disabled":false,"rental_uris":{"android":"levelo://app?vid=5582e915-18c1-45ef-9037-af7dd7e64427","ios":"levelo://app?vid=5582e915-18c1-45ef-9037-af7dd7e64427"},"vehicle_type_id":"4","last_reported":1745500926,"current_range_meters":20000,"station_id":"st_cvj6sg6p6f1abm77japg","pricing_plan_id":"cebpf4jnsgd1na2vs0mg"},{"bike_id":"d12d2088-aefb-4d46-a88f-8b202f12ca2c","system_id":"levelo_inurba_marseille","lat":43.25581,"lon":5.38227,"is_reserved":false,"is_disabled":false,"rental_uris":{"android":"levelo://app?vid=d12d2088-aefb-4d46-a88f-8b202f12ca2c","ios":"levelo://app?vid=d12d2088-aefb-4d46-a88f-8b202f12ca2c"},"vehicle_type_id":"4","last_reported":1745500926,"current_range_meters":20000,"station_id":"ce4bhih2rcd13ifvqfs0","pricing_plan_id":"cebpf4jnsgd1na2vs0mg"},{"bike_id":"21023ffa-cc31-4484-9f97-82609e00847f","system_id":"levelo_inurba_marseille","lat":43.28432,"lon":5.34987,"is_reserved":false,"is_disabled":false,"rental_uris":{"android":"levelo://app?vid=21023ffa-cc31-4484-9f97-82609e00847f","ios":"levelo://app?vid=21023ffa-cc31-4484-9f97-82609e00847f"},"vehicle_type_id":"4","last_reported":1745500926,"current_range_meters":20000,"station_id":"ce4bhbh2rcd13ifvqepg","pricing_plan_id":"cebpf4jnsgd1na2vs0mg"},{"bike_id":"28c655a4-6907-4d6b-b598-69019c264ec2","system_id":"levelo_inurba_marseille","lat":43.337444,"lon":5.374475,"is_reserved":false,"is_disabled":false,"rental_uris":{"android":"levelo://app?vid=28c655a4-6907-4d6b-b598-69019c264ec2","ios":"levelo://app?vid=28c655a4-6907-4d6b-b598-69019c264ec2"},"vehicle_type_id":"4","last_reported":1745500926,"current_range_meters":20400,"station_id":"","pricing_plan_id":"cebpf4jnsgd1na2vs0mg"},{"bike_id":"25c3e919-a227-4f46-9b6a-55bb7466da8a","system_id":"levelo_inurba_marseille","lat":43.25579,"lon":5.38249,"is_reserved":false,"is_disabled":false,"rental_uris":{"android":"levelo://app?vid=25c3e919-a227-4f46-9b6a-55bb7466da8a","ios":"levelo://app?vid=25c3e919-a227-4f46-9b6a-55bb7466da8a"},"vehicle_type_id":"4","last_reported":1745500926,"current_range_meters":20400,"station_id":"ce4bhih2rcd13ifvqfs0","pricing_plan_id":"cebpf4jnsgd1na2vs0mg"},{"bike_id":"cace3382-a466-428d-8150-1da3867c46b2","system_id":"levelo_inurba_marseille","lat":43.28606,"lon":5.37064,"is_reserved":false,"is_disabled":false,"rental_uris":{"android":"levelo://app?vid=cace3382-a466-428d-8150-1da3867c46b2","ios":"levelo://app?vid=cace3382-a466-428d-8150-1da3867c46b2"},"vehicle_type_id":"4","last_reported":1745500926,"current_range_meters":20400,"station_id":"ce4bht12rcd13ifvqi60","pricing_plan_id":"cebpf4jnsgd1na2vs0mg"},{"bike_id":"dc822d6e-5aec-4fa6-8b30-1ee1ae4d6fdb","system_id":"levelo_inurba_marseille","lat":43.29153,"lon":5.37155,"is_reserved":false,"is_disabled":false,"rental_uris":{"android":"levelo://app?vid=dc822d6e-5aec-4fa6-8b30-1ee1ae4d6fdb","ios":"levelo://app?vid=dc822d6e-5aec-4fa6-8b30-1ee1ae4d6fdb"},"vehicle_type_id":"4","last_reported":1745500926,"current_range_meters":20000,"station_id":"ce4bha92rcd13ifvqeh0","pricing_plan_id":"cebpf4jnsgd1na2vs0mg"},{"bike_id":"987d7900-bb2a-45cb-bed7-6d69f6fd4fa3","system_id":"levelo_inurba_marseille","lat":43.28481,"lon":5.38435,"is_reserved":false,"is_disabled":false,"rental_uris":{"android":"levelo://app?vid=987d7900-bb2a-45cb-bed7-6d69f6fd4fa3","ios":"levelo://app?vid=987d7900-bb2a-45cb-bed7-6d69f6fd4fa3"},"vehicle_type_id":"4","last_reported":1745500926,"current_range_meters":20400,"station_id":"ce4bh512rcd13ifvqe3g","pricing_plan_id":"cebpf4jnsgd1na2vs0mg"},{"bike_id":"b4543a36-eb59-4e5c-ae3e-e1993173fc16","system_id":"levelo_inurba_marseille","lat":43.29849,"lon":5.36289,"is_reserved":false,"is_disabled":false,"rental_uris":{"android":"levelo://app?vid=b4543a36-eb59-4e5c-ae3e-e1993173fc16","ios":"levelo://app?vid=b4543a36-eb59-4e5c-ae3e-e1993173fc16"},"vehicle_type_id":"4","last_reported":1745500926,"current_range_meters":20400,"station_id":"ce4bgpp2rcd13ifvqc3g","pricing_plan_id":"cebpf4jnsgd1na2vs0mg"},{"bike_id":"a4aec032-cd15-4ad9-8cef-dba52a578003","system_id":"levelo_inurba_marseille","lat":43.29045,"lon":5.39972,"is_reserved":false,"is_disabled":false,"rental_uris":{"android":"levelo://app?vid=a4aec032-cd15-4ad9-8cef-dba52a578003","ios":"levelo://app?vid=a4aec032-cd15-4ad9-8cef-dba52a578003"},"vehicle_type_id":"4","last_reported":1745500926,"current_range_meters":20400,"station_id":"ce4bh392rcd13ifvqdm0","pricing_plan_id":"cebpf4jnsgd1na2vs0mg"},{"bike_id":"829e6027-c98c-4052-9336-7fe801b0bc22","system_id":"levelo_inurba_marseille","lat":43.23151,"lon":5.43701,"is_reserved":false,"is_disabled":true,"rental_uris":{"android":"levelo://app?vid=829e6027-c98c-4052-9336-7fe801b0bc22","ios":"levelo://app?vid=829e6027-c98c-4052-9336-7fe801b0bc22"},"vehicle_type_id":"4","last_reported":1745500926,"current_range_meters":20800,"station_id":"ce4bhmp2rcd13ifvqgog","pricing_plan_id":"cebpf4jnsgd1na2vs0mg"},{"bike_id":"f5222fbb-aed5-4ae0-a798-77557f4cc313","system_id":"levelo_inurba_marseille","lat":43.29851,"lon":5.36279,"is_reserved":false,"is_disabled":false,"rental_uris":{"android":"levelo://app?vid=f5222fbb-aed5-4ae0-a798-77557f4cc313","ios":"levelo://app?vid=f5222fbb-aed5-4ae0-a798-77557f4cc313"},"vehicle_type_id":"4","last_reported":1745500926,"current_range_meters":20800,"station_id":"ce4bgpp2rcd13ifvqc3g","pricing_plan_id":"cebpf4jnsgd1na2vs0mg"},{"bike_id":"190b5a0a-eb29-4c3a-afbc-a9f3f1f0b5e3","system_id":"levelo_inurba_marseille","lat":43.2721,"lon":5.39185,"is_reserved":false,"is_disabled":false,"rental_uris":{"android":"levelo://app?vid=190b5a0a-eb29-4c3a-afbc-a9f3f1f0b5e3","ios":"levelo://app?vid=190b5a0a-eb29-4c3a-afbc-a9f3f1f0b5e3"},"vehicle_type_id":"4","last_reported":1745500926,"current_range_meters":20400,"station_id":"ce4bhhp2rcd13ifvqfm0","pricing_plan_id":"cebpf4jnsgd1na2vs0mg"},{"bike_id":"e6bd335f-2061-430a-a060-7778e4a1c8a4","system_id":"levelo_inurba_marseille","lat":43.26555,"lon":5.37279,"is_reserved":false,"is_disabled":false,"rental_uris":{"android":"levelo://app?vid=e6bd335f-2061-430a-a060-7778e4a1c8a4","ios":"levelo://app?vid=e6bd335f-2061-430a-a060-7778e4a1c8a4"},"vehicle_type_id":"4","last_reported":1745500926,"current_range_meters":20800,"station_id":"ce4bhg12rcd13ifvqf70","pricing_plan_id":"cebpf4jnsgd1na2vs0mg"},{"bike_id":"f2314f08-cf4a-4d8c-bd3d-b9b8baea6582","system_id":"levelo_inurba_marseille","lat":43.2594,"lon":5.40895,"is_reserved":false,"is_disabled":false,"rental_uris":{"android":"levelo://app?vid=f2314f08-cf4a-4d8c-bd3d-b9b8baea6582","ios":"levelo://app?vid=f2314f08-cf4a-4d8c-bd3d-b9b8baea6582"},"vehicle_type_id":"4","last_reported":1745500926,"current_range_meters":20800,"station_id":"ce4bhm92rcd13ifvqglg","pricing_plan_id":"cebpf4jnsgd1na2vs0mg"},{"bike_id":"291b1df9-2dc5-4b75-996c-43e2fb39fad5","system_id":"levelo_inurba_marseille","lat":43.26788,"lon":5.39406,"is_reserved":false,"is_disabled":false,"rental_uris":{"android":"levelo://app?vid=291b1df9-2dc5-4b75-996c-43e2fb39fad5","ios":"levelo://app?vid=291b1df9-2dc5-4b75-996c-43e2fb39fad5"},"vehicle_type_id":"4","last_reported":1745500926,"current_range_meters":21600,"station_id":"ce4bhh12rcd13ifvqfg0","pricing_plan_id":"cebpf4jnsgd1na2vs0mg"},{"bike_id":"75410687-dccf-4f8f-bb65-37510e94cecc","system_id":"levelo_inurba_marseille","lat":43.29909,"lon":5.37467,"is_reserved":false,"is_disabled":false,"rental_uris":{"android":"levelo://app?vid=75410687-dccf-4f8f-bb65-37510e94cecc","ios":"levelo://app?vid=75410687-dccf-4f8f-bb65-37510e94cecc"},"vehicle_type_id":"4","last_reported":1745500926,"current_range_meters":21600,"station_id":"ce4bgjh2rcd13ifvqbg0","pricing_plan_id":"cebpf4jnsgd1na2vs0mg"},{"bike_id":"6fe01d64-f5a9-48dc-9b12-c7a50e85298b","system_id":"levelo_inurba_marseille","lat":43.27941,"lon":5.4105,"is_reserved":false,"is_disabled":false,"rental_uris":{"android":"levelo://app?vid=6fe01d64-f5a9-48dc-9b12-c7a50e85298b","ios":"levelo://app?vid=6fe01d64-f5a9-48dc-9b12-c7a50e85298b"},"vehicle_type_id":"4","last_reported":1745500926,"current_range_meters":21600,"station_id":"ce4bhnp2rcd13ifvqh0g","pricing_plan_id":"cebpf4jnsgd1na2vs0mg"},{"bike_id":"7c9dd2be-b04b-4b7b-8d82-76eb73c4733d","system_id":"levelo_inurba_marseille","lat":43.298429,"lon":5.362637,"is_reserved":false,"is_disabled":false,"rental_uris":{"android":"levelo://app?vid=7c9dd2be-b04b-4b7b-8d82-76eb73c4733d","ios":"levelo://app?vid=7c9dd2be-b04b-4b7b-8d82-76eb73c4733d"},"vehicle_type_id":"4","last_reported":1745500926,"current_range_meters":21600,"station_id":"ce4bgpp2rcd13ifvqc3g","pricing_plan_id":"cebpf4jnsgd1na2vs0mg"},{"bike_id":"ef00c763-fdab-4d8e-9137-b2c64e8d28db","system_id":"levelo_inurba_marseille","lat":43.26553,"lon":5.37294,"is_reserved":false,"is_disabled":false,"rental_uris":{"android":"levelo://app?vid=ef00c763-fdab-4d8e-9137-b2c64e8d28db","ios":"levelo://app?vid=ef00c763-fdab-4d8e-9137-b2c64e8d28db"},"vehicle_type_id":"4","last_reported":1745500926,"current_range_meters":22000,"station_id":"ce4bhg12rcd13ifvqf70","pricing_plan_id":"cebpf4jnsgd1na2vs0mg"},{"bike_id":"b7b393f0-b786-42df-989c-4a6cb72210f4","system_id":"levelo_inurba_marseille","lat":43.32365,"lon":5.36755,"is_reserved":false,"is_disabled":false,"rental_uris":{"android":"levelo://app?vid=b7b393f0-b786-42df-989c-4a6cb72210f4","ios":"levelo://app?vid=b7b393f0-b786-42df-989c-4a6cb72210f4"},"vehicle_type_id":"4","last_reported":1745500926,"current_range_meters":22000,"station_id":"ce4bhsh2rcd13ifvqi2g","pricing_plan_id":"cebpf4jnsgd1na2vs0mg"},{"bike_id":"183bb44a-cd53-46d9-99be-6e047a2595e3","system_id":"levelo_inurba_marseille","lat":43.28422,"lon":5.34982,"is_reserved":false,"is_disabled":false,"rental_uris":{"android":"levelo://app?vid=183bb44a-cd53-46d9-99be-6e047a2595e3","ios":"levelo://app?vid=183bb44a-cd53-46d9-99be-6e047a2595e3"},"vehicle_type_id":"4","last_reported":1745500926,"current_range_meters":22000,"station_id":"ce4bhbh2rcd13ifvqepg","pricing_plan_id":"cebpf4jnsgd1na2vs0mg"},{"bike_id":"41cfdb08-6ff4-430c-a2b5-666dacea1190","system_id":"levelo_inurba_marseille","lat":43.29428,"lon":5.38622,"is_reserved":false,"is_disabled":false,"rental_uris":{"android":"levelo://app?vid=41cfdb08-6ff4-430c-a2b5-666dacea1190","ios":"levelo://app?vid=41cfdb08-6ff4-430c-a2b5-666dacea1190"},"vehicle_type_id":"4","last_reported":1745500926,"current_range_meters":22000,"station_id":"ce4bh2h2rcd13ifvqdh0","pricing_plan_id":"cebpf4jnsgd1na2vs0mg"},{"bike_id":"5c8001ef-c531-490f-b793-cd3ce7ffc3a8","system_id":"levelo_inurba_marseille","lat":43.33025,"lon":5.39039,"is_reserved":false,"is_disabled":false,"rental_uris":{"android":"levelo://app?vid=5c8001ef-c531-490f-b793-cd3ce7ffc3a8","ios":"levelo://app?vid=5c8001ef-c531-490f-b793-cd3ce7ffc3a8"},"vehicle_type_id":"4","last_reported":1745500926,"current_range_meters":22000,"station_id":"ce4bhr92rcd13ifvqhrg","pricing_plan_id":"cebpf4jnsgd1na2vs0mg"},{"bike_id":"9189000d-6ac8-4743-ba07-a1b4c32d40a9","system_id":"levelo_inurba_marseille","lat":43.295301,"lon":5.390389,"is_reserved":false,"is_disabled":false,"rental_uris":{"android":"levelo://app?vid=9189000d-6ac8-4743-ba07-a1b4c32d40a9","ios":"levelo://app?vid=9189000d-6ac8-4743-ba07-a1b4c32d40a9"},"vehicle_type_id":"4","last_reported":1745500926,"current_range_meters":22000,"station_id":"ce4bh3p2rcd13ifvqdp0","pricing_plan_id":"cebpf4jnsgd1na2vs0mg"},{"bike_id":"5309018e-5998-4df6-b294-706a1d31992a","system_id":"levelo_inurba_marseille","lat":43.294072,"lon":5.38626,"is_reserved":false,"is_disabled":false,"rental_uris":{"android":"levelo://app?vid=5309018e-5998-4df6-b294-706a1d31992a","ios":"levelo://app?vid=5309018e-5998-4df6-b294-706a1d31992a"},"vehicle_type_id":"4","last_reported":1745500926,"current_range_meters":22400,"station_id":"ce4bh2h2rcd13ifvqdh0","pricing_plan_id":"cebpf4jnsgd1na2vs0mg"},{"bike_id":"d812413a-0b58-410d-b5dd-59577d6b3b01","system_id":"levelo_inurba_marseille","lat":43.29006,"lon":5.35621,"is_reserved":false,"is_disabled":false,"rental_uris":{"android":"levelo://app?vid=d812413a-0b58-410d-b5dd-59577d6b3b01","ios":"levelo://app?vid=d812413a-0b58-410d-b5dd-59577d6b3b01"},"vehicle_type_id":"4","last_reported":1745500926,"current_range_meters":22400,"station_id":"ce4bhb92rcd13ifvqen0","pricing_plan_id":"cebpf4jnsgd1na2vs0mg"},{"bike_id":"cca02057-be85-4dbc-b033-ab10e8d969fc","system_id":"levelo_inurba_marseille","lat":43.21208,"lon":5.35038,"is_reserved":false,"is_disabled":false,"rental_uris":{"android":"levelo://app?vid=cca02057-be85-4dbc-b033-ab10e8d969fc","ios":"levelo://app?vid=cca02057-be85-4dbc-b033-ab10e8d969fc"},"vehicle_type_id":"4","last_reported":1745500926,"current_range_meters":22400,"station_id":"ce4bhap2rcd13ifvqek0","pricing_plan_id":"cebpf4jnsgd1na2vs0mg"},{"bike_id":"530dfa93-faa5-4010-8c00-fa566dabe2a2","system_id":"levelo_inurba_marseille","lat":43.23151,"lon":5.43716,"is_reserved":false,"is_disabled":false,"rental_uris":{"android":"levelo://app?vid=530dfa93-faa5-4010-8c00-fa566dabe2a2","ios":"levelo://app?vid=530dfa93-faa5-4010-8c00-fa566dabe2a2"},"vehicle_type_id":"4","last_reported":1745500926,"current_range_meters":22800,"station_id":"ce4bhmp2rcd13ifvqgog","pricing_plan_id":"cebpf4jnsgd1na2vs0mg"},{"bike_id":"e9b40b8c-aa8b-493b-9704-ac204b4fdb74","system_id":"levelo_inurba_marseille","lat":43.22506,"lon":5.34772,"is_reserved":false,"is_disabled":false,"rental_uris":{"android":"levelo://app?vid=e9b40b8c-aa8b-493b-9704-ac204b4fdb74","ios":"levelo://app?vid=e9b40b8c-aa8b-493b-9704-ac204b4fdb74"},"vehicle_type_id":"4","last_reported":1745500926,"current_range_meters":22800,"station_id":"st_cvj5dfep6f1abm77gieg","pricing_plan_id":"cebpf4jnsgd1na2vs0mg"},{"bike_id":"568de0b2-8a59-49db-8edb-58cc75ffa7ba","system_id":"levelo_inurba_marseille","lat":43.26941,"lon":5.40259,"is_reserved":false,"is_disabled":false,"rental_uris":{"android":"levelo://app?vid=568de0b2-8a59-49db-8edb-58cc75ffa7ba","ios":"levelo://app?vid=568de0b2-8a59-49db-8edb-58cc75ffa7ba"},"vehicle_type_id":"4","last_reported":1745500926,"current_range_meters":22800,"station_id":"cjm6bp8fraef2m0cb0m0","pricing_plan_id":"cebpf4jnsgd1na2vs0mg"},{"bike_id":"72141d36-9819-4f6f-bb79-ded5a65a704d","system_id":"levelo_inurba_marseille","lat":43.26191,"lon":5.37452,"is_reserved":false,"is_disabled":false,"rental_uris":{"android":"levelo://app?vid=72141d36-9819-4f6f-bb79-ded5a65a704d","ios":"levelo://app?vid=72141d36-9819-4f6f-bb79-ded5a65a704d"},"vehicle_type_id":"4","last_reported":1745500926,"current_range_meters":22800,"station_id":"ce4bhgp2rcd13ifvqfc0","pricing_plan_id":"cebpf4jnsgd1na2vs0mg"},{"bike_id":"3a700e24-bd45-4bf4-a930-7094173f3d2d","system_id":"levelo_inurba_marseille","lat":43.294179,"lon":5.386193,"is_reserved":false,"is_disabled":false,"rental_uris":{"android":"levelo://app?vid=3a700e24-bd45-4bf4-a930-7094173f3d2d","ios":"levelo://app?vid=3a700e24-bd45-4bf4-a930-7094173f3d2d"},"vehicle_type_id":"4","last_reported":1745500926,"current_range_meters":22800,"station_id":"ce4bh2h2rcd13ifvqdh0","pricing_plan_id":"cebpf4jnsgd1na2vs0mg"},{"bike_id":"8d02f36b-805a-459d-a6da-57ee334169ec","system_id":"levelo_inurba_marseille","lat":43.2314,"lon":5.43693,"is_reserved":false,"is_disabled":true,"rental_uris":{"android":"levelo://app?vid=8d02f36b-805a-459d-a6da-57ee334169ec","ios":"levelo://app?vid=8d02f36b-805a-459d-a6da-57ee334169ec"},"vehicle_type_id":"4","last_reported":1745500926,"current_range_meters":22800,"station_id":"ce4bhmp2rcd13ifvqgog","pricing_plan_id":"cebpf4jnsgd1na2vs0mg"},{"bike_id":"00ee8a98-c8f0-48d3-9825-782e3b819d96","system_id":"levelo_inurba_marseille","lat":43.29895,"lon":5.43651,"is_reserved":false,"is_disabled":false,"rental_uris":{"android":"levelo://app?vid=00ee8a98-c8f0-48d3-9825-782e3b819d96","ios":"levelo://app?vid=00ee8a98-c8f0-48d3-9825-782e3b819d96"},"vehicle_type_id":"4","last_reported":1745500926,"current_range_meters":22800,"station_id":"ce4bhpp2rcd13ifvqhfg","pricing_plan_id":"cebpf4jnsgd1na2vs0mg"},{"bike_id":"b8363335-e603-48bb-b66e-915d024f3ef2","system_id":"levelo_inurba_marseille","lat":43.237457,"lon":5.395039,"is_reserved":false,"is_disabled":false,"rental_uris":{"android":"levelo://app?vid=b8363335-e603-48bb-b66e-915d024f3ef2","ios":"levelo://app?vid=b8363335-e603-48bb-b66e-915d024f3ef2"},"vehicle_type_id":"4","last_reported":1745500926,"current_range_meters":22800,"station_id":"ce4bhn12rcd13ifvqgqg","pricing_plan_id":"cebpf4jnsgd1na2vs0mg"},{"bike_id":"2653d796-75b2-4d46-9810-1c8b9aac838a","system_id":"levelo_inurba_marseille","lat":43.25498,"lon":5.37651,"is_reserved":false,"is_disabled":false,"rental_uris":{"android":"levelo://app?vid=2653d796-75b2-4d46-9810-1c8b9aac838a","ios":"levelo://app?vid=2653d796-75b2-4d46-9810-1c8b9aac838a"},"vehicle_type_id":"4","last_reported":1745500926,"current_range_meters":22800,"station_id":"ce4bhh12rcd13ifvqff0","pricing_plan_id":"cebpf4jnsgd1na2vs0mg"},{"bike_id":"ab71bcdd-587e-4891-83d1-0d9662a2306a","system_id":"levelo_inurba_marseille","lat":43.31378,"lon":5.38503,"is_reserved":false,"is_disabled":false,"rental_uris":{"android":"levelo://app?vid=ab71bcdd-587e-4891-83d1-0d9662a2306a","ios":"levelo://app?vid=ab71bcdd-587e-4891-83d1-0d9662a2306a"},"vehicle_type_id":"4","last_reported":1745500926,"current_range_meters":22800,"station_id":"ce4bgt92rcd13ifvqcf0","pricing_plan_id":"cebpf4jnsgd1na2vs0mg"},