{"last_updated":1748038224,"ttl":60,"version":"2.2","data":{"bikes":[{"bike_id":"eff77c2f-b733-4ef2-87c2-2f70da4d311e","system_id":"levelo_inurba_marseille","lat":43.232,"lon":5.35538,"is_reserved":false,"is_disabled":false,"rental_uris":{"android":"levelo://app?vid=eff77c2f-b733-4ef2-87c2-2f70da4d311e","ios":"levelo://app?vid=eff77c2f-b733-4ef2-87c2-2f70da4d311e"},"vehicle_type_id":"4","last_reported":1748038224,"current_range_meters":2800,"station_id":"ce4bhu92rcd13ifvqi70","pricing_plan_id":"cebpf4jnsgd1na2vs0mg"},{"bike_id":"ce7b10a6-c720-403e-b54f-2c05b66c5cfb","system_id":"levelo_inurba_marseille","lat":43.278211,"lon":5.38332,"is_reserved":false,"is_disabled":false,"rental_uris":{"android":"levelo://app?vid=ce7b10a6-c720-403e-b54f-2c05b66c5cfb","ios":"levelo://app?vid=ce7b10a6-c720-403e-b54f-2c05b66c5cfb"},"vehicle_type_id":"4","last_reported":1748038224,"current_range_meters":2800,"station_id":"ce4bh4p2rcd13ifvqe1g","pricing_plan_id":"cebpf4jnsgd1na2vs0mg"},{"bike_id":"3415aee3-6742-4c89-b9c9-c3efc7069a2e","system_id":"levelo_inurba_marseille","lat":43.25495,"lon":5.3765,"is_reserved":false,"is_disabled":false,"rental_uris":{"android":"levelo://app?vid=3415aee3-6742-4c89-b9c9-c3efc7069a2e","ios":"levelo://app?vid=3415aee3-6742-4c89-b9c9-c3efc7069a2e"},"vehicle_type_id":"4","last_reported":1748038224,"current_range_meters":3200,"station_id":"ce4bhh12rcd13ifvqff0","pricing_plan_id":"cebpf4jnsgd1na2vs0mg"},{"bike_id":"80481db6-5092-4fdb-a834-5b16c330428d","system_id":"levelo_inurba_marseille","lat":43.28155,"lon":5.42649,"is_reserved":false,"is_disabled":false,"rental_uris":{"android":"levelo://app?vid=80481db6-5092-4fdb-a834-5b16c330428d","ios":"levelo://app?vid=80481db6-5092-4fdb-a834-5b16c330428d"},"vehicle_type_id":"4","last_reported":1748038224,"current_range_meters":3200,"station_id":"ce4bhnh2rcd13ifvqgug","pricing_plan_id":"cebpf4jnsgd1na2vs0mg"},{"bike_id":"3fe3d6c4-138a-47df-b6b4-e6f19e8f7d46","system_id":"levelo_inurba_marseille","lat":43.21404,"lon":5.34125,"is_reserved":false,"is_disabled":false,"rental_uris":{"android":"levelo://app?vid=3fe3d6c4-138a-47df-b6b4-e6f19e8f7d46","ios":"levelo://app?vid=3fe3d6c4-138a-47df-b6b4-e6f19e8f7d46"},"vehicle_type_id":"4","last_reported":1748038224,"current_range_meters":3200,"station_id":"","pricing_plan_id":"cebpf4jnsgd1na2vs0mg"},{"bike_id":"f770c3b2-26f8-4e02-ba04-2024b991c318","system_id":"levelo_inurba_marseille","lat":43.26778,"lon":5.39425,"is_reserved":false,"is_disabled":true,"rental_uris":{"android":"levelo://app?vid=f770c3b2-26f8-4e02-ba04-2024b991c318","ios":"levelo://app?vid=f770c3b2-26f8-4e02-ba04-2024b991c318"},"vehicle_type_id":"4","last_reported":1748038224,"current_range_meters":3200,"station_id":"ce4bhh12rcd13ifvqfg0","pricing_plan_id":"cebpf4jnsgd1na2vs0mg"},{"bike_id":"38f8ba64-1ae6-42da-af5b-ace66418b2db","system_id":"levelo_inurba_marseille","lat":43.27309,"lon":5.39079,"is_reserved":false,"is_disabled":false,"rental_uris":{"android":"levelo://app?vid=38f8ba64-1ae6-42da-af5b-ace66418b2db","ios":"levelo://app?vid=38f8ba64-1ae6-42da-af5b-ace66418b2db"},"vehicle_type_id":"4","last_reported":1748038224,"current_range_meters":3200,"station_id":"ce4bhgp2rcd13ifvqfe0","pricing_plan_id":"cebpf4jnsgd1na2vs0mg"},{"bike_id":"86b9650f-c73c-47a1-8ae0-bcd1247fa8eb","system_id":"levelo_inurba_marseille","lat":43.31141,"lon":5.37032,"is_reserved":false,"is_disabled":false,"rental_uris":{"android":"levelo://app?vid=86b9650f-c73c-47a1-8ae0-bcd1247fa8eb","ios":"levelo://app?vid=86b9650f-c73c-47a1-8ae0-bcd1247fa8eb"},"vehicle_type_id":"4","last_reported":1748038224,"current_range_meters":3200,"station_id":"","pricing_plan_id":"cebpf4jnsgd1na2vs0mg"},{"bike_id":"786ac359-66af-4572-ab1c-1b38467715a7","system_id":"levelo_inurba_marseille","lat":43.225052,"lon":5.347894,"is_reserved":false,"is_disabled":false,"rental_uris":{"android":"levelo://app?vid=786ac359-66af-4572-ab1c-1b38467715a7","ios":"levelo://app?vid=786ac359-66af-4572-ab1c-1b38467715a7"},"vehicle_type_id":"4","last_reported":1748038224,"current_range_meters":3600,"station_id":"","pricing_plan_id":"cebpf4jnsgd1na2vs0mg"},{"bike_id":"737f02b6-03e0-4957-95d0-0ed03d623948","system_id":"levelo_inurba_marseille","lat":43.26819,"lon":5.40251,"is_reserved":false,"is_disabled":false,"rental_uris":{"android":"levelo://app?vid=737f02b6-03e0-4957-95d0-0ed03d623948","ios":"levelo://app?vid=737f02b6-03e0-4957-95d0-0ed03d623948"},"vehicle_type_id":"4","last_reported":1748038224,"current_range_meters":3600,"station_id":"ce501612rcd8frsf0b60","pricing_plan_id":"cebpf4jnsgd1na2vs0mg"},{"bike_id":"0b87c7dc-910e-4da3-8911-d49d231bd399","system_id":"levelo_inurba_marseille","lat":43.30113,"lon":5.39111,"is_reserved":false,"is_disabled":false,"rental_uris":{"android":"levelo://app?vid=0b87c7dc-910e-4da3-8911-d49d231bd399","ios":"levelo://app?vid=0b87c7dc-910e-4da3-8911-d49d231bd399"},"vehicle_type_id":"4","last_reported":1748038224,"current_range_meters":3600,"station_id":"ce4bh192rcd13ifvqdb0","pricing_plan_id":"cebpf4jnsgd1na2vs0mg"},{"bike_id":"98afe115-3388-44c0-bfa2-ebfdd969777a","system_id":"levelo_inurba_marseille","lat":43.27947,"lon":5.41032,"is_reserved":false,"is_disabled":false,"rental_uris":{"android":"levelo://app?vid=98afe115-3388-44c0-bfa2-ebfdd969777a","ios":"levelo://app?vid=98afe115-3388-44c0-bfa2-ebfdd969777a"},"vehicle_type_id":"4","last_reported":1748038224,"current_range_meters":3600,"station_id":"ce4bhnp2rcd13ifvqh0g","pricing_plan_id":"cebpf4jnsgd1na2vs0mg"},{"bike_id":"663fc025-6fc1-4004-895e-f0f1709c8797","system_id":"levelo_inurba_marseille","lat":43.29675,"lon":5.36878,"is_reserved":false,"is_disabled":false,"rental_uris":{"android":"levelo://app?vid=663fc025-6fc1-4004-895e-f0f1709c8797","ios":"levelo://app?vid=663fc025-6fc1-4004-895e-f0f1709c8797"},"vehicle_type_id":"4","last_reported":1748038224,"current_range_meters":3600,"station_id":"","pricing_plan_id":"cebpf4jnsgd1na2vs0mg"},{"bike_id":"69e8d10d-47ef-47e2-b83b-85838377a4a2","system_id":"levelo_inurba_marseille","lat":43.30888,"lon":5.39655,"is_reserved":false,"is_disabled":false,"rental_uris":{"android":"levelo://app?vid=69e8d10d-47ef-47e2-b83b-85838377a4a2","ios":"levelo://app?vid=69e8d10d-47ef-47e2-b83b-85838377a4a2"},"vehicle_type_id":"4","last_reported":1748038224,"current_range_meters":3200,"station_id":"ce4bh012rcd13ifvqcv0","pricing_plan_id":"cebpf4jnsgd1na2vs0mg"},{"bike_id":"f9fb40c0-1fcd-48cb-8e26-3f2dc0fb2451","system_id":"levelo_inurba_marseille","lat":43.33751,"lon":5.37509,"is_reserved":false,"is_disabled":false,"rental_uris":{"android":"levelo://app?vid=f9fb40c0-1fcd-48cb-8e26-3f2dc0fb2451","ios":"levelo://app?vid=f9fb40c0-1fcd-48cb-8e26-3f2dc0fb2451"},"vehicle_type_id":"4","last_reported":1748038224,"current_range_meters":3600,"station_id":"","pricing_plan_id":"cebpf4jnsgd1na2vs0mg"},{"bike_id":"df9a372e-f360-4249-b510-21a29330ff54","system_id":"levelo_inurba_marseille","lat":43.27237,"lon":5.391553,"is_reserved":false,"is_disabled":true,"rental_uris":{"android":"levelo://app?vid=df9a372e-f360-4249-b510-21a29330ff54","ios":"levelo://app?vid=df9a372e-f360-4249-b510-21a29330ff54"},"vehicle_type_id":"4","last_reported":1748038224,"current_range_meters":4000,"station_id":"ce4bhhp2rcd13ifvqfm0","pricing_plan_id":"cebpf4jnsgd1na2vs0mg"},{"bike_id":"89c43c6c-1397-4426-ac17-5b13deabbd86","system_id":"levelo_inurba_marseille","lat":43.27073,"lon":5.42279,"is_reserved":false,"is_disabled":false,"rental_uris":{"android":"levelo://app?vid=89c43c6c-1397-4426-ac17-5b13deabbd86","ios":"levelo://app?vid=89c43c6c-1397-4426-ac17-5b13deabbd86"},"vehicle_type_id":"4","last_reported":1748038224,"current_range_meters":4000,"station_id":"ce4bhk92rcd13ifvqgb0","pricing_plan_id":"cebpf4jnsgd1na2vs0mg"},{"bike_id":"a06c5a18-165a-45b3-a612-2dbcfb0c6db4","system_id":"levelo_inurba_marseille","lat":43.26805,"lon":5.40257,"is_reserved":false,"is_disabled":false,"rental_uris":{"android":"levelo://app?vid=a06c5a18-165a-45b3-a612-2dbcfb0c6db4","ios":"levelo://app?vid=a06c5a18-165a-45b3-a612-2dbcfb0c6db4"},"vehicle_type_id":"4","last_reported":1748038224,"current_range_meters":4000,"station_id":"ce501612rcd8frsf0b60","pricing_plan_id":"cebpf4jnsgd1na2vs0mg"},{"bike_id":"1f0a7a9d-737d-4efd-9ff6-b79e38589c7a","system_id":"levelo_inurba_marseille","lat":43.273179,"lon":5.390819,"is_reserved":false,"is_disabled":false,"rental_uris":{"android":"levelo://app?vid=1f0a7a9d-737d-4efd-9ff6-b79e38589c7a","ios":"levelo://app?vid=1f0a7a9d-737d-4efd-9ff6-b79e38589c7a"},"vehicle_type_id":"4","last_reported":1748038224,"current_range_meters":4400,"station_id":"ce4bhgp2rcd13ifvqfe0","pricing_plan_id":"cebpf4jnsgd1na2vs0mg"},{"bike_id":"684ec4a6-c07a-4ca6-890c-46609eeb739c","system_id":"levelo_inurba_marseille","lat":43.25113,"lon":5.40332,"is_reserved":false,"is_disabled":false,"rental_uris":{"android":"levelo://app?vid=684ec4a6-c07a-4ca6-890c-46609eeb739c","ios":"levelo://app?vid=684ec4a6-c07a-4ca6-890c-46609eeb739c"},"vehicle_type_id":"4","last_reported":1748038224,"current_range_meters":4400,"station_id":"ce4bhlh2rcd13ifvqgig","pricing_plan_id":"cebpf4jnsgd1na2vs0mg"},{"bike_id":"512e5d5c-82f1-4473-bd11-fa57ab9568ef","system_id":"levelo_inurba_marseille","lat":43.28412,"lon":5.37499,"is_reserved":false,"is_disabled":false,"rental_uris":{"android":"levelo://app?vid=512e5d5c-82f1-4473-bd11-fa57ab9568ef","ios":"levelo://app?vid=512e5d5c-82f1-4473-bd11-fa57ab9568ef"},"vehicle_type_id":"4","last_reported":1748038224,"current_range_meters":4400,"station_id":"ce4bh412rcd13ifvqds0","pricing_plan_id":"cebpf4jnsgd1na2vs0mg"},{"bike_id":"27653dcd-dec9-4f13-b172-8968c20c1725","system_id":"levelo_inurba_marseille","lat":43.23854,"lon":5.43095,"is_reserved":false,"is_disabled":false,"rental_uris":{"android":"levelo://app?vid=27653dcd-dec9-4f13-b172-8968c20c1725","ios":"levelo://app?vid=27653dcd-dec9-4f13-b172-8968c20c1725"},"vehicle_type_id":"4","last_reported":1748038224,"current_range_meters":4400,"station_id":"","pricing_plan_id":"cebpf4jnsgd1na2vs0mg"},{"bike_id":"6412d133-7138-4a95-b3cd-5f184ec093dc","system_id":"levelo_inurba_marseille","lat":43.2816,"lon":5.42644,"is_reserved":false,"is_disabled":false,"rental_uris":{"android":"levelo://app?vid=6412d133-7138-4a95-b3cd-5f184ec093dc","ios":"levelo://app?vid=6412d133-7138-4a95-b3cd-5f184ec093dc"},"vehicle_type_id":"4","last_reported":1748038224,"current_range_meters":4800,"station_id":"ce4bhnh2rcd13ifvqgug","pricing_plan_id":"cebpf4jnsgd1na2vs0mg"},{"bike_id":"a7a20724-0c35-442a-8a45-f0265d7ac6b2","system_id":"levelo_inurba_marseille","lat":43.2293,"lon":5.353797,"is_reserved":false,"is_disabled":false,"rental_uris":{"android":"levelo://app?vid=a7a20724-0c35-442a-8a45-f0265d7ac6b2","ios":"levelo://app?vid=a7a20724-0c35-442a-8a45-f0265d7ac6b2"},"vehicle_type_id":"4","last_reported":1748038224,"current_range_meters":4800,"station_id":"cpo3532slgdg3j2ikp40","pricing_plan_id":"cebpf4jnsgd1na2vs0mg"},{"bike_id":"93a344e6-8243-4070-bf43-270634e364fe","system_id":"levelo_inurba_marseille","lat":43.28,"lon":5.40007,"is_reserved":false,"is_disabled":false,"rental_uris":{"android":"levelo://app?vid=93a344e6-8243-4070-bf43-270634e364fe","ios":"levelo://app?vid=93a344e6-8243-4070-bf43-270634e364fe"},"vehicle_type_id":"4","last_reported":1748038224,"current_range_meters":4800,"station_id":"ce4bho92rcd13ifvqh4g","pricing_plan_id":"cebpf4jnsgd1na2vs0mg"},{"bike_id":"2beacbd4-9ba8-4aa5-99c8-d3c30bd9fb89","system_id":"levelo_inurba_marseille","lat":43.28002,"lon":5.40003,"is_reserved":false,"is_disabled":false,"rental_uris":{"android":"levelo://app?vid=2beacbd4-9ba8-4aa5-99c8-d3c30bd9fb89","ios":"levelo://app?vid=2beacbd4-9ba8-4aa5-99c8-d3c30bd9fb89"},"vehicle_type_id":"4","last_reported":1748038224,"current_range_meters":4800,"station_id":"ce4bho92rcd13ifvqh4g","pricing_plan_id":"cebpf4jnsgd1na2vs0mg"},{"bike_id":"5ec14d0e-46b9-4858-a749-8034228116ef","system_id":"levelo_inurba_marseille","lat":43.25865,"lon":5.3989,"is_reserved":false,"is_disabled":false,"rental_uris":{"android":"levelo://app?vid=5ec14d0e-46b9-4858-a749-8034228116ef","ios":"levelo://app?vid=5ec14d0e-46b9-4858-a749-8034228116ef"},"vehicle_type_id":"4","last_reported":1748038224,"current_range_meters":4800,"station_id":"ce4bhl92rcd13ifvqghg","pricing_plan_id":"cebpf4jnsgd1na2vs0mg"},{"bike_id":"6df3ddc8-1018-416a-a929-9bf22a851a08","system_id":"levelo_inurba_marseille","lat":43.25503,"lon":5.37644,"is_reserved":false,"is_disabled":false,"rental_uris":{"android":"levelo://app?vid=6df3ddc8-1018-416a-a929-9bf22a851a08","ios":"levelo://app?vid=6df3ddc8-1018-416a-a929-9bf22a851a08"},"vehicle_type_id":"4","last_reported":1748038224,"current_range_meters":4800,"station_id":"ce4bhh12rcd13ifvqff0","pricing_plan_id":"cebpf4jnsgd1na2vs0mg"},{"bike_id":"b8a6fa01-4fa3-4d93-8ae9-b71b307140c3","system_id":"levelo_inurba_marseille","lat":43.28571,"lon":5.39496,"is_reserved":false,"is_disabled":false,"rental_uris":{"android":"levelo://app?vid=b8a6fa01-4fa3-4d93-8ae9-b71b307140c3","ios":"levelo://app?vid=b8a6fa01-4fa3-4d93-8ae9-b71b307140c3"},"vehicle_type_id":"4","last_reported":1748038224,"current_range_meters":4800,"station_id":"ce4bh292rcd13ifvqdg0","pricing_plan_id":"cebpf4jnsgd1na2vs0mg"},{"bike_id":"d256c6a4-d35b-4c32-b7db-2bac8ab63b70","system_id":"levelo_inurba_marseille","lat":43.231942,"lon":5.355493,"is_reserved":false,"is_disabled":false,"rental_uris":{"android":"levelo://app?vid=d256c6a4-d35b-4c32-b7db-2bac8ab63b70","ios":"levelo://app?vid=d256c6a4-d35b-4c32-b7db-2bac8ab63b70"},"vehicle_type_id":"4","last_reported":1748038224,"current_range_meters":5600,"station_id":"ce4bhu92rcd13ifvqi70","pricing_plan_id":"cebpf4jnsgd1na2vs0mg"},{"bike_id":"a45243e6-6f76-4dff-896d-7eecf98281c7","system_id":"levelo_inurba_marseille","lat":43.25097,"lon":5.40322,"is_reserved":false,"is_disabled":false,"rental_uris":{"android":"levelo://app?vid=a45243e6-6f76-4dff-896d-7eecf98281c7","ios":"levelo://app?vid=a45243e6-6f76-4dff-896d-7eecf98281c7"},"vehicle_type_id":"4","last_reported":1748038224,"current_range_meters":5600,"station_id":"ce4bhlh2rcd13ifvqgig","pricing_plan_id":"cebpf4jnsgd1na2vs0mg"},{"bike_id":"16217b52-ab1a-479e-8e2a-fcd30af3ddd9","system_id":"levelo_inurba_marseille","lat":43.28709,"lon":5.39985,"is_reserved":false,"is_disabled":false,"rental_uris":{"android":"levelo://app?vid=16217b52-ab1a-479e-8e2a-fcd30af3ddd9","ios":"levelo://app?vid=16217b52-ab1a-479e-8e2a-fcd30af3ddd9"},"vehicle_type_id":"4","last_reported":1748038224,"current_range_meters":5600,"station_id":"ce4bho92rcd13ifvqh3g","pricing_plan_id":"cebpf4jnsgd1na2vs0mg"},{"bike_id":"4c449f5b-bcc8-4efd-b5bc-37a5d6e451f9","system_id":"levelo_inurba_marseille","lat":43.24169,"lon":5.36386,"is_reserved":false,"is_disabled":false,"rental_uris":{"android":"levelo://app?vid=4c449f5b-bcc8-4efd-b5bc-37a5d6e451f9","ios":"levelo://app?vid=4c449f5b-bcc8-4efd-b5bc-37a5d6e451f9"},"vehicle_type_id":"4","last_reported":1748038224,"current_range_meters":5600,"station_id":"cpo36qri1sfpv3e86is0","pricing_plan_id":"cebpf4jnsgd1na2vs0mg"},{"bike_id":"0fab4dd0-c775-416c-a2e7-37b506af4af4","system_id":"levelo_inurba_marseille","lat":43.28562,"lon":5.39497,"is_reserved":false,"is_disabled":false,"rental_uris":{"android":"levelo://app?vid=0fab4dd0-c775-416c-a2e7-37b506af4af4","ios":"levelo://app?vid=0fab4dd0-c775-416c-a2e7-37b506af4af4"},"vehicle_type_id":"4","last_reported":1748038224,"current_range_meters":5600,"station_id":"ce4bh292rcd13ifvqdg0","pricing_plan_id":"cebpf4jnsgd1na2vs0mg"},{"bike_id":"31110881-d64f-45f8-9810-bbf84a002836","system_id":"levelo_inurba_marseille","lat":43.28324,"lon":5.46128,"is_reserved":false,"is_disabled":false,"rental_uris":{"android":"levelo://app?vid=31110881-d64f-45f8-9810-bbf84a002836","ios":"levelo://app?vid=31110881-d64f-45f8-9810-bbf84a002836"},"vehicle_type_id":"4","last_reported":1748038224,"current_range_meters":5600,"station_id":"","pricing_plan_id":"cebpf4jnsgd1na2vs0mg"},{"bike_id":"07904cb8-e7b3-4483-bdb4-041eedd1dd13","system_id":"levelo_inurba_marseille","lat":43.28101,"lon":5.37843,"is_reserved":false,"is_disabled":false,"rental_uris":{"android":"levelo://app?vid=07904cb8-e7b3-4483-bdb4-041eedd1dd13","ios":"levelo://app?vid=07904cb8-e7b3-4483-bdb4-041eedd1dd13"},"vehicle_type_id":"4","last_reported":1748038224,"current_range_meters":5600,"station_id":"ce4bha12rcd13ifvqee0","pricing_plan_id":"cebpf4jnsgd1na2vs0mg"},{"bike_id":"b467c801-3c96-4bf4-844a-0f59d968e4ee","system_id":"levelo_inurba_marseille","lat":43.21753,"lon":5.3459,"is_reserved":false,"is_disabled":false,"rental_uris":{"android":"levelo://app?vid=b467c801-3c96-4bf4-844a-0f59d968e4ee","ios":"levelo://app?vid=b467c801-3c96-4bf4-844a-0f59d968e4ee"},"vehicle_type_id":"4","last_reported":1748038224,"current_range_meters":5600,"station_id":"","pricing_plan_id":"cebpf4jnsgd1na2vs0mg"},{"bike_id":"04520f80-940f-42b8-ad02-172938a66d7a","system_id":"levelo_inurba_marseille","lat":43.27393,"lon":5.39385,"is_reserved":false,"is_disabled":false,"rental_uris":{"android":"levelo://app?vid=04520f80-940f-42b8-ad02-172938a66d7a","ios":"levelo://app?vid=04520f80-940f-42b8-ad02-172938a66d7a"},"vehicle_type_id":"4","last_reported":1748038224,"current_range_meters":6400,"station_id":"ce4bhdp2rcd13ifvqf20","pricing_plan_id":"cebpf4jnsgd1na2vs0mg"},{"bike_id":"019f2042-780f-4cdc-ab18-e0fc5885efad","system_id":"levelo_inurba_marseille","lat":43.24671,"lon":5.38151,"is_reserved":false,"is_disabled":false,"rental_uris":{"android":"levelo://app?vid=019f2042-780f-4cdc-ab18-e0fc5885efad","ios":"levelo://app?vid=019f2042-780f-4cdc-ab18-e0fc5885efad"},"vehicle_type_id":"4","last_reported":1748038224,"current_range_meters":6400,"station_id":"ce4bhih2rcd13ifvqfr0","pricing_plan_id":"cebpf4jnsgd1na2vs0mg"},{"bike_id":"c9a4a9e2-d809-4b35-a1d5-162402e1d0d4","system_id":"levelo_inurba_marseille","lat":43.28658,"lon":5.36344,"is_reserved":false,"is_disabled":false,"rental_uris":{"android":"levelo://app?vid=c9a4a9e2-d809-4b35-a1d5-162402e1d0d4","ios":"levelo://app?vid=c9a4a9e2-d809-4b35-a1d5-162402e1d0d4"},"vehicle_type_id":"4","last_reported":1748038224,"current_range_meters":6400,"station_id":"ce4bhah2rcd13ifvqej0","pricing_plan_id":"cebpf4jnsgd1na2vs0mg"},{"bike_id":"a2852010-6b96-4d22-ab7c-c7295b4907e6","system_id":"levelo_inurba_marseille","lat":43.28475,"lon":5.38561,"is_reserved":false,"is_disabled":false,"rental_uris":{"android":"levelo://app?vid=a2852010-6b96-4d22-ab7c-c7295b4907e6","ios":"levelo://app?vid=a2852010-6b96-4d22-ab7c-c7295b4907e6"},"vehicle_type_id":"4","last_reported":1748038224,"current_range_meters":6400,"station_id":"ce4bh8p2rcd13ifvqeb0","pricing_plan_id":"cebpf4jnsgd1na2vs0mg"},{"bike_id":"61fcbf49-2f5c-47ec-a06a-8642086023c3","system_id":"levelo_inurba_marseille","lat":43.27618,"lon":5.36109,"is_reserved":false,"is_disabled":false,"rental_uris":{"android":"levelo://app?vid=61fcbf49-2f5c-47ec-a06a-8642086023c3","ios":"levelo://app?vid=61fcbf49-2f5c-47ec-a06a-8642086023c3"},"vehicle_type_id":"4","last_reported":1748038224,"current_range_meters":6400,"station_id":"ce4bgj92rcd13ifvqbe0","pricing_plan_id":"cebpf4jnsgd1na2vs0mg"},{"bike_id":"a721cb37-0b5a-4516-b4ab-4400ff94d44f","system_id":"levelo_inurba_marseille","lat":43.25873,"lon":5.39891,"is_reserved":false,"is_disabled":false,"rental_uris":{"android":"levelo://app?vid=a721cb37-0b5a-4516-b4ab-4400ff94d44f","ios":"levelo://app?vid=a721cb37-0b5a-4516-b4ab-4400ff94d44f"},"vehicle_type_id":"4","last_reported":1748038224,"current_range_meters":6400,"station_id":"ce4bhl92rcd13ifvqghg","pricing_plan_id":"cebpf4jnsgd1na2vs0mg"},{"bike_id":"49d9dde0-a17b-40a2-b8a6-9e018c439e2a","system_id":"levelo_inurba_marseille","lat":43.286555,"lon":5.363523,"is_reserved":false,"is_disabled":true,"rental_uris":{"android":"levelo://app?vid=49d9dde0-a17b-40a2-b8a6-9e018c439e2a","ios":"levelo://app?vid=49d9dde0-a17b-40a2-b8a6-9e018c439e2a"},"vehicle_type_id":"4","last_reported":1748038224,"current_range_meters":6400,"station_id":"ce4bhah2rcd13ifvqej0","pricing_plan_id":"cebpf4jnsgd1na2vs0mg"},{"bike_id":"2ac58fa5-8197-4eff-a115-23fe49e74316","system_id":"levelo_inurba_marseille","lat":43.229311,"lon":5.353787,"is_reserved":false,"is_disabled":false,"rental_uris":{"android":"levelo://app?vid=2ac58fa5-8197-4eff-a115-23fe49e74316","ios":"levelo://app?vid=2ac58fa5-8197-4eff-a115-23fe49e74316"},"vehicle_type_id":"4","last_reported":1748038224,"current_range_meters":6400,"station_id":"cpo3532slgdg3j2ikp40","pricing_plan_id":"cebpf4jnsgd1na2vs0mg"},{"bike_id":"950cad50-4e47-43b4-ba8e-d97ac6386634","system_id":"levelo_inurba_marseille","lat":43.255774,"lon":5.382209,"is_reserved":false,"is_disabled":false,"rental_uris":{"android":"levelo://app?vid=950cad50-4e47-43b4-ba8e-d97ac6386634","ios":"levelo://app?vid=950cad50-4e47-43b4-ba8e-d97ac6386634"},"vehicle_type_id":"4","last_reported":1748038224,"current_range_meters":6400,"station_id":"","pricing_plan_id":"cebpf4jnsgd1na2vs0mg"},{"bike_id":"4e59ae72-b083-4788-93c1-a7e324b89ef1","system_id":"levelo_inurba_marseille","lat":43.337444,"lon":5.374475,"is_reserved":false,"is_disabled":true,"rental_uris":{"android":"levelo://app?vid=4e59ae72-b083-4788-93c1-a7e324b89ef1","ios":"levelo://app?vid=4e59ae72-b083-4788-93c1-a7e324b89ef1"},"vehicle_type_id":"4","last_reported":1748038224,"current_range_meters":6800,"station_id":"","pricing_plan_id":"cebpf4jnsgd1na2vs0mg"},{"bike_id":"8f2916e8-d10c-4a05-8b2b-ebe68ba16b36","system_id":"levelo_inurba_marseille","lat":43.266826,"lon":5.382556,"is_reserved":false,"is_disabled":false,"rental_uris":{"android":"levelo://app?vid=8f2916e8-d10c-4a05-8b2b-ebe68ba16b36","ios":"levelo://app?vid=8f2916e8-d10c-4a05-8b2b-ebe68ba16b36"},"vehicle_type_id":"4","last_reported":1748038224,"current_range_meters":6800,"station_id":"ce4bhg92rcd13ifvqf90","pricing_plan_id":"cebpf4jnsgd1na2vs0mg"},{"bike_id":"ae915b1b-107f-4f6c-b12f-50cc508d636f","system_id":"levelo_inurba_marseille","lat":43.248134,"lon":5.374549,"is_reserved":false,"is_disabled":false,"rental_uris":{"android":"levelo://app?vid=ae915b1b-107f-4f6c-b12f-50cc508d636f","ios":"levelo://app?vid=ae915b1b-107f-4f6c-b12f-50cc508d636f"},"vehicle_type_id":"4","last_reported":1748038224,"current_range_meters":6800,"station_id":"ce4bhgh2rcd13ifvqfb0","pricing_plan_id":"cebpf4jnsgd1na2vs0mg"},{"bike_id":"9f6688be-84d0-4f24-998d-3e16eabd05c6","system_id":"levelo_inurba_marseille","lat":43.23189,"lon":5.39987,"is_reserved":false,"is_disabled":false,"rental_uris":{"android":"levelo://app?vid=9f6688be-84d0-4f24-998d-3e16eabd05c6","ios":"levelo://app?vid=9f6688be-84d0-4f24-998d-3e16eabd05c6"},"vehicle_type_id":"4","last_reported":1748038224,"current_range_meters":6800,"station_id":"ce4bhn12rcd13ifvqgqg","pricing_plan_id":"cebpf4jnsgd1na2vs0mg"},{"bike_id":"ae5118b2-34b2-4d6c-8f2f-5ec3cd71528f","system_id":"levelo_inurba_marseille","lat":43.23187,"lon":5.35542,"is_reserved":false,"is_disabled":false,"rental_uris":{"android":"levelo://app?vid=ae5118b2-34b2-4d6c-8f2f-5ec3cd71528f","ios":"levelo://app?vid=ae5118b2-34b2-4d6c-8f2f-5ec3cd71528f"},"vehicle_type_id":"4","last_reported":1748038224,"current_range_meters":6800,"station_id":"ce4bhu92rcd13ifvqi70","pricing_plan_id":"cebpf4jnsgd1na2vs0mg"},{"bike_id":"7dfdfdc8-9c79-46b6-9a4b-924773b53f29","system_id":"levelo_inurba_marseille","lat":43.268533,"lon":5.391687,"is_reserved":false,"is_disabled":false,"rental_uris":{"android":"levelo://app?vid=7dfdfdc8-9c79-46b6-9a4b-924773b53f29","ios":"levelo://app?vid=7dfdfdc8-9c79-46b6-9a4b-924773b53f29"},"vehicle_type_id":"4","last_reported":1748038224,"current_range_meters":6800,"station_id":"","pricing_plan_id":"cebpf4jnsgd1na2vs0mg"},{"bike_id":"1b1d2416-8c31-4039-9731-c72eb5f6909f","system_id":"levelo_inurba_marseille","lat":43.26795,"lon":5.39401,"is_reserved":false,"is_disabled":true,"rental_uris":{"android":"levelo://app?vid=1b1d2416-8c31-4039-9731-c72eb5f6909f","ios":"levelo://app?vid=1b1d2416-8c31-4039-9731-c72eb5f6909f"},"vehicle_type_id":"4","last_reported":1748038224,"current_range_meters":6800,"station_id":"ce4bhh12rcd13ifvqfg0","pricing_plan_id":"cebpf4jnsgd1na2vs0mg"},{"bike_id":"c4fe9f84-88bc-4367-8f93-7e4b740bcd4b","system_id":"levelo_inurba_marseille","lat":43.310802,"lon":5.383422,"is_reserved":false,"is_disabled":true,"rental_uris":{"android":"levelo://app?vid=c4fe9f84-88bc-4367-8f93-7e4b740bcd4b","ios":"levelo://app?vid=c4fe9f84-88bc-4367-8f93-7e4b740bcd4b"},"vehicle_type_id":"4","last_reported":1748038224,"current_range_meters":6800,"station_id":"ce4bgv92rcd13ifvqcr0","pricing_plan_id":"cebpf4jnsgd1na2vs0mg"},{"bike_id":"d844e148-7f63-4a09-b445-ce32f40b69e6","system_id":"levelo_inurba_marseille","lat":43.28721,"lon":5.37941,"is_reserved":false,"is_disabled":false,"rental_uris":{"android":"levelo://app?vid=d844e148-7f63-4a09-b445-ce32f40b69e6","ios":"levelo://app?vid=d844e148-7f63-4a09-b445-ce32f40b69e6"},"vehicle_type_id":"4","last_reported":1748038224,"current_range_meters":6800,"station_id":"ce4bh9p2rcd13ifvqec0","pricing_plan_id":"cebpf4jnsgd1na2vs0mg"},{"bike_id":"6eac4826-6c71-4cd3-a404-229c1deee238","system_id":"levelo_inurba_marseille","lat":43.26942,"lon":5.40242,"is_reserved":false,"is_disabled":false,"rental_uris":{"android":"levelo://app?vid=6eac4826-6c71-4cd3-a404-229c1deee238","ios":"levelo://app?vid=6eac4826-6c71-4cd3-a404-229c1deee238"},"vehicle_type_id":"4","last_reported":1748038224,"current_range_meters":6800,"station_id":"cjm6bp8fraef2m0cb0m0","pricing_plan_id":"cebpf4jnsgd1na2vs0mg"},{"bike_id":"642cb7b7-e7c4-4185-b975-0e4bd47c9f56","system_id":"levelo_inurba_marseille","lat":43.255826,"lon":5.382317,"is_reserved":false,"is_disabled":false,"rental_uris":{"android":"levelo://app?vid=642cb7b7-e7c4-4185-b975-0e4bd47c9f56","ios":"levelo://app?vid=642cb7b7-e7c4-4185-b975-0e4bd47c9f56"},"vehicle_type_id":"4","last_reported":1748038224,"current_range_meters":6800,"station_id":"ce4bhih2rcd13ifvqfs0","pricing_plan_id":"cebpf4jnsgd1na2vs0mg"},{"bike_id":"4063109c-2f01-439e-b608-4e8f1e45cb8b","system_id":"levelo_inurba_marseille","lat":43.26801,"lon":5.40265,"is_reserved":false,"is_disabled":false,"rental_uris":{"android":"levelo://app?vid=4063109c-2f01-439e-b608-4e8f1e45cb8b","ios":"levelo://app?vid=4063109c-2f01-439e-b608-4e8f1e45cb8b"},"vehicle_type_id":"4","last_reported":1748038224,"current_range_meters":6800,"station_id":"ce501612rcd8frsf0b60","pricing_plan_id":"cebpf4jnsgd1na2vs0mg"},{"bike_id":"33d9cad1-2732-4f5f-abed-61efcc321a25","system_id":"levelo_inurba_marseille","lat":43.29273,"lon":5.36844,"is_reserved":false,"is_disabled":false,"rental_uris":{"android":"levelo://app?vid=33d9cad1-2732-4f5f-abed-61efcc321a25","ios":"levelo://app?vid=33d9cad1-2732-4f5f-abed-61efcc321a25"},"vehicle_type_id":"4","last_reported":1748038224,"current_range_meters":6800,"station_id":"ce4bhbp2rcd13ifvqesg","pricing_plan_id":"cebpf4jnsgd1na2vs0mg"},{"bike_id":"6a8ac0b8-794b-4618-aaaa-660270083ba0","system_id":"levelo_inurba_marseille","lat":43.28702,"lon":5.3738,"is_reserved":false,"is_disabled":false,"rental_uris":{"android":"levelo://app?vid=6a8ac0b8-794b-4618-aaaa-660270083ba0","ios":"levelo://app?vid=6a8ac0b8-794b-4618-aaaa-660270083ba0"},"vehicle_type_id":"4","last_reported":1748038224,"current_range_meters":7200,"station_id":"ce4bh3p2rcd13ifvqdq0","pricing_plan_id":"cebpf4jnsgd1na2vs0mg"},{"bike_id":"8c38ab61-8ea9-4e3e-9697-0822377b54c2","system_id":"levelo_inurba_marseille","lat":43.25863,"lon":5.39899,"is_reserved":false,"is_disabled":false,"rental_uris":{"android":"levelo://app?vid=8c38ab61-8ea9-4e3e-9697-0822377b54c2","ios":"levelo://app?vid=8c38ab61-8ea9-4e3e-9697-0822377b54c2"},"vehicle_type_id":"4","last_reported":1748038224,"current_range_meters":7200,"station_id":"ce4bhl92rcd13ifvqghg","pricing_plan_id":"cebpf4jnsgd1na2vs0mg"},{"bike_id":"ef3c4886-d9f4-4c03-81f9-f922060fbfdb","system_id":"levelo_inurba_marseille","lat":43.273019,"lon":5.3909,"is_reserved":false,"is_disabled":false,"rental_uris":{"android":"levelo://app?vid=ef3c4886-d9f4-4c03-81f9-f922060fbfdb","ios":"levelo://app?vid=ef3c4886-d9f4-4c03-81f9-f922060fbfdb"},"vehicle_type_id":"4","last_reported":1748038224,"current_range_meters":7200,"station_id":"ce4bhgp2rcd13ifvqfe0","pricing_plan_id":"cebpf4jnsgd1na2vs0mg"},{"bike_id":"e2d341e1-0789-46d1-be25-3abcb6af9d9e","system_id":"levelo_inurba_marseille","lat":43.22942,"lon":5.35368,"is_reserved":false,"is_disabled":false,"rental_uris":{"android":"levelo://app?vid=e2d341e1-0789-46d1-be25-3abcb6af9d9e","ios":"levelo://app?vid=e2d341e1-0789-46d1-be25-3abcb6af9d9e"},"vehicle_type_id":"4","last_reported":1748038224,"current_range_meters":7200,"station_id":"cpo3532slgdg3j2ikp40","pricing_plan_id":"cebpf4jnsgd1na2vs0mg"},{"bike_id":"43eb6316-954a-4907-8de9-db2e67437a42","system_id":"levelo_inurba_marseille","lat":43.28721,"lon":5.3793,"is_reserved":false,"is_disabled":false,"rental_uris":{"android":"levelo://app?vid=43eb6316-954a-4907-8de9-db2e67437a42","ios":"levelo://app?vid=43eb6316-954a-4907-8de9-db2e67437a42"},"vehicle_type_id":"4","last_reported":1748038224,"current_range_meters":7200,"station_id":"ce4bh9p2rcd13ifvqec0","pricing_plan_id":"cebpf4jnsgd1na2vs0mg"},{"bike_id":"45c79dd0-6988-4719-b980-df1f724c6e35","system_id":"levelo_inurba_marseille","lat":43.23966,"lon":5.36612,"is_reserved":false,"is_disabled":false,"rental_uris":{"android":"levelo://app?vid=45c79dd0-6988-4719-b980-df1f724c6e35","ios":"levelo://app?vid=45c79dd0-6988-4719-b980-df1f724c6e35"},"vehicle_type_id":"4","last_reported":1748038224,"current_range_meters":7200,"station_id":"ce4bhi12rcd13ifvqfp0","pricing_plan_id":"cebpf4jnsgd1na2vs0mg"},{"bike_id":"da06db9d-6be8-48e4-9e52-d0a1890e8daf","system_id":"levelo_inurba_marseille","lat":43.27048,"lon":5.40257,"is_reserved":false,"is_disabled":false,"rental_uris":{"android":"levelo://app?vid=da06db9d-6be8-48e4-9e52-d0a1890e8daf","ios":"levelo://app?vid=da06db9d-6be8-48e4-9e52-d0a1890e8daf"},"vehicle_type_id":"4","last_reported":1748038224,"current_range_meters":6800,"station_id":"ce4bhk92rcd13ifvqgc0","pricing_plan_id":"cebpf4jnsgd1na2vs0mg"},{"bike_id":"3c41c67a-7377-41cb-a17d-4bf98015b5b5","system_id":"levelo_inurba_marseille","lat":43.25572,"lon":5.38225,"is_reserved":false,"is_disabled":false,"rental_uris":{"android":"levelo://app?vid=3c41c67a-7377-41cb-a17d-4bf98015b5b5","ios":"levelo://app?vid=3c41c67a-7377-41cb-a17d-4bf98015b5b5"},"vehicle_type_id":"4","last_reported":1748038224,"current_range_meters":7200,"station_id":"ce4bhih2rcd13ifvqfs0","pricing_plan_id":"cebpf4jnsgd1na2vs0mg"},{"bike_id":"998c0364-fee0-44d0-8e73-195c667ec407","system_id":"levelo_inurba_marseille","lat":43.26784,"lon":5.40283,"is_reserved":false,"is_disabled":false,"rental_uris":{"android":"levelo://app?vid=998c0364-fee0-44d0-8e73-195c667ec407","ios":"levelo://app?vid=998c0364-fee0-44d0-8e73-195c667ec407"},"vehicle_type_id":"4","last_reported":1748038224,"current_range_meters":7200,"station_id":"ce501612rcd8frsf0b60","pricing_plan_id":"cebpf4jnsgd1na2vs0mg"},{"bike_id":"0bd8791c-d8d3-4096-a6ac-c36aa2f525b9","system_id":"levelo_inurba_marseille","lat":43.30596,"lon":5.37234,"is_reserved":false,"is_disabled":false,"rental_uris":{"android":"levelo://app?vid=0bd8791c-d8d3-4096-a6ac-c36aa2f525b9","ios":"levelo://app?vid=0bd8791c-d8d3-4096-a6ac-c36aa2f525b9"},"vehicle_type_id":"4","last_reported":1748038224,"current_range_meters":7200,"station_id":"ce4bgqh2rcd13ifvqc4g","pricing_plan_id":"cebpf4jnsgd1na2vs0mg"},{"bike_id":"900926bd-c178-4fb1-9ad6-ba459192fc5c","system_id":"levelo_inurba_marseille","lat":43.241705,"lon":5.363979,"is_reserved":false,"is_disabled":false,"rental_uris":{"android":"levelo://app?vid=900926bd-c178-4fb1-9ad6-ba459192fc5c","ios":"levelo://app?vid=900926bd-c178-4fb1-9ad6-ba459192fc5c"},"vehicle_type_id":"4","last_reported":1748038224,"current_range_meters":8000,"station_id":"cpo36qri1sfpv3e86is0","pricing_plan_id":"cebpf4jnsgd1na2vs0mg"},{"bike_id":"9397cffe-b358-4c9d-a220-1488951efd31","system_id":"levelo_inurba_marseille","lat":43.25119,"lon":5.40315,"is_reserved":false,"is_disabled":false,"rental_uris":{"android":"levelo://app?vid=9397cffe-b358-4c9d-a220-1488951efd31","ios":"levelo://app?vid=9397cffe-b358-4c9d-a220-1488951efd31"},"vehicle_type_id":"4","last_reported":1748038224,"current_range_meters":8000,"station_id":"ce4bhlh2rcd13ifvqgig","pricing_plan_id":"cebpf4jnsgd1na2vs0mg"},{"bike_id":"6fc3bf63-24e3-4fb1-8824-9b8edcf57f3d","system_id":"levelo_inurba_marseille","lat":43.26808,"lon":5.40267,"is_reserved":false,"is_disabled":false,"rental_uris":{"android":"levelo://app?vid=6fc3bf63-24e3-4fb1-8824-9b8edcf57f3d","ios":"levelo://app?vid=6fc3bf63-24e3-4fb1-8824-9b8edcf57f3d"},"vehicle_type_id":"4","last_reported":1748038224,"current_range_meters":8000,"station_id":"ce501612rcd8frsf0b60","pricing_plan_id":"cebpf4jnsgd1na2vs0mg"},{"bike_id":"18bfa700-1bd7-4d3e-a3d0-fe72ec298a47","system_id":"levelo_inurba_marseille","lat":43.30784,"lon":5.37642,"is_reserved":false,"is_disabled":false,"rental_uris":{"android":"levelo://app?vid=18bfa700-1bd7-4d3e-a3d0-fe72ec298a47","ios":"levelo://app?vid=18bfa700-1bd7-4d3e-a3d0-fe72ec298a47"},"vehicle_type_id":"4","last_reported":1748038224,"current_range_meters":8000,"station_id":"ce4bgv92rcd13ifvqcq0","pricing_plan_id":"cebpf4jnsgd1na2vs0mg"},{"bike_id":"85ca7053-ec0a-456d-bd76-1ad4fbf3b3cd","system_id":"levelo_inurba_marseille","lat":43.306,"lon":5.37225,"is_reserved":false,"is_disabled":false,"rental_uris":{"android":"levelo://app?vid=85ca7053-ec0a-456d-bd76-1ad4fbf3b3cd","ios":"levelo://app?vid=85ca7053-ec0a-456d-bd76-1ad4fbf3b3cd"},"vehicle_type_id":"4","last_reported":1748038224,"current_range_meters":8000,"station_id":"ce4bgqh2rcd13ifvqc4g","pricing_plan_id":"cebpf4jnsgd1na2vs0mg"},{"bike_id":"c139e568-30e4-4816-a4d0-47133acc2e30","system_id":"levelo_inurba_marseille","lat":43.31262,"lon":5.368573,"is_reserved":false,"is_disabled":false,"rental_uris":{"android":"levelo://app?vid=c139e568-30e4-4816-a4d0-47133acc2e30","ios":"levelo://app?vid=c139e568-30e4-4816-a4d0-47133acc2e30"},"vehicle_type_id":"4","last_reported":1748038224,"current_range_meters":8000,"station_id":"ce4bgl92rcd13ifvqbq0","pricing_plan_id":"cebpf4jnsgd1na2vs0mg"},{"bike_id":"478537a2-e92e-4aa8-9a5d-67139edf6f2f","system_id":"levelo_inurba_marseille","lat":43.28702,"lon":5.3998,"is_reserved":false,"is_disabled":false,"rental_uris":{"android":"levelo://app?vid=478537a2-e92e-4aa8-9a5d-67139edf6f2f","ios":"levelo://app?vid=478537a2-e92e-4aa8-9a5d-67139edf6f2f"},"vehicle_type_id":"4","last_reported":1748038224,"current_range_meters":8000,"station_id":"ce4bho92rcd13ifvqh3g","pricing_plan_id":"cebpf4jnsgd1na2vs0mg"},{"bike_id":"c761ee84-2d9d-4da3-a10d-38ed1074b620","system_id":"levelo_inurba_marseille","lat":43.31014,"lon":5.37541,"is_reserved":false,"is_disabled":false,"rental_uris":{"android":"levelo://app?vid=c761ee84-2d9d-4da3-a10d-38ed1074b620","ios":"levelo://app?vid=c761ee84-2d9d-4da3-a10d-38ed1074b620"},"vehicle_type_id":"4","last_reported":1748038224,"current_range_meters":8000,"station_id":"","pricing_plan_id":"cebpf4jnsgd1na2vs0mg"},{"bike_id":"8deee672-f7f4-4b7e-a09f-278726b984f1","system_id":"levelo_inurba_marseille","lat":43.27072,"lon":5.4005,"is_reserved":false,"is_disabled":false,"rental_uris":{"android":"levelo://app?vid=8deee672-f7f4-4b7e-a09f-278726b984f1","ios":"levelo://app?vid=8deee672-f7f4-4b7e-a09f-278726b984f1"},"vehicle_type_id":"4","last_reported":1748038224,"current_range_meters":8000,"station_id":"","pricing_plan_id":"cebpf4jnsgd1na2vs0mg"},{"bike_id":"8d3a43f5-8a67-4958-b343-62ce76ca253f","system_id":"levelo_inurba_marseille","lat":43.299195,"lon":5.374742,"is_reserved":false,"is_disabled":false,"rental_uris":{"android":"levelo://app?vid=8d3a43f5-8a67-4958-b343-62ce76ca253f","ios":"levelo://app?vid=8d3a43f5-8a67-4958-b343-62ce76ca253f"},"vehicle_type_id":"4","last_reported":1748038224,"current_range_meters":8000,"station_id":"ce4bgjh2rcd13ifvqbg0","pricing_plan_id":"cebpf4jnsgd1na2vs0mg"},{"bike_id":"01ddaa1a-eb5e-48a6-afd1-086e21b7bd9f","system_id":"levelo_inurba_marseille","lat":43.29323,"lon":5.41155,"is_reserved":false,"is_disabled":false,"rental_uris":{"android":"levelo://app?vid=01ddaa1a-eb5e-48a6-afd1-086e21b7bd9f","ios":"levelo://app?vid=01ddaa1a-eb5e-48a6-afd1-086e21b7bd9f"},"vehicle_type_id":"4","last_reported":1748038224,"current_range_meters":8000,"station_id":"","pricing_plan_id":"cebpf4jnsgd1na2vs0mg"},{"bike_id":"64896479-e35b-4249-996b-49280e89b5fd","system_id":"levelo_inurba_marseille","lat":43.26811,"lon":5.40258,"is_reserved":false,"is_disabled":false,"rental_uris":{"android":"levelo://app?vid=64896479-e35b-4249-996b-49280e89b5fd","ios":"levelo://app?vid=64896479-e35b-4249-996b-49280e89b5fd"},"vehicle_type_id":"4","last_reported":1748038224,"current_range_meters":8400,"station_id":"ce501612rcd8frsf0b60","pricing_plan_id":"cebpf4jnsgd1na2vs0mg"},{"bike_id":"b74f7927-a77c-4654-b5d0-543cf86491d7","system_id":"levelo_inurba_marseille","lat":43.28419,"lon":5.37526,"is_reserved":false,"is_disabled":false,"rental_uris":{"android":"levelo://app?vid=b74f7927-a77c-4654-b5d0-543cf86491d7","ios":"levelo://app?vid=b74f7927-a77c-4654-b5d0-543cf86491d7"},"vehicle_type_id":"4","last_reported":1748038224,"current_range_meters":8400,"station_id":"ce4bh412rcd13ifvqds0","pricing_plan_id":"cebpf4jnsgd1na2vs0mg"},{"bike_id":"bdf4d2ec-edf6-46c6-8005-e2c6e7401fa7","system_id":"levelo_inurba_marseille","lat":43.29516,"lon":5.37503,"is_reserved":false,"is_disabled":true,"rental_uris":{"android":"levelo://app?vid=bdf4d2ec-edf6-46c6-8005-e2c6e7401fa7","ios":"levelo://app?vid=bdf4d2ec-edf6-46c6-8005-e2c6e7401fa7"},"vehicle_type_id":"4","last_reported":1748038224,"current_range_meters":8400,"station_id":"ce4bgkp2rcd13ifvqbmg","pricing_plan_id":"cebpf4jnsgd1na2vs0mg"},{"bike_id":"41f67551-cf24-41a4-9125-c5852e36dce4","system_id":"levelo_inurba_marseille","lat":43.25101,"lon":5.40312,"is_reserved":false,"is_disabled":false,"rental_uris":{"android":"levelo://app?vid=41f67551-cf24-41a4-9125-c5852e36dce4","ios":"levelo://app?vid=41f67551-cf24-41a4-9125-c5852e36dce4"},"vehicle_type_id":"4","last_reported":1748038224,"current_range_meters":8400,"station_id":"ce4bhlh2rcd13ifvqgig","pricing_plan_id":"cebpf4jnsgd1na2vs0mg"},{"bike_id":"e3e19b90-9823-4b53-b8a7-4c599b3176c2","system_id":"levelo_inurba_marseille","lat":43.25118,"lon":5.40303,"is_reserved":false,"is_disabled":false,"rental_uris":{"android":"levelo://app?vid=e3e19b90-9823-4b53-b8a7-4c599b3176c2","ios":"levelo://app?vid=e3e19b90-9823-4b53-b8a7-4c599b3176c2"},"vehicle_type_id":"4","last_reported":1748038224,"current_range_meters":8400,"station_id":"ce4bhlh2rcd13ifvqgig","pricing_plan_id":"cebpf4jnsgd1na2vs0mg"},{"bike_id":"68bfc4cb-61ab-43c3-ab88-17645cafe6e7","system_id":"levelo_inurba_marseille","lat":43.31758,"lon":5.37578,"is_reserved":false,"is_disabled":false,"rental_uris":{"android":"levelo://app?vid=68bfc4cb-61ab-43c3-ab88-17645cafe6e7","ios":"levelo://app?vid=68bfc4cb-61ab-43c3-ab88-17645cafe6e7"},"vehicle_type_id":"4","last_reported":1748038224,"current_range_meters":8400,"station_id":"","pricing_plan_id":"cebpf4jnsgd1na2vs0mg"},{"bike_id":"ec6d3566-336a-4c41-bed0-449205be07d1","system_id":"levelo_inurba_marseille","lat":43.27912,"lon":5.39589,"is_reserved":false,"is_disabled":false,"rental_uris":{"android":"levelo://app?vid=ec6d3566-336a-4c41-bed0-449205be07d1","ios":"levelo://app?vid=ec6d3566-336a-4c41-bed0-449205be07d1"},"vehicle_type_id":"4","last_reported":1748038224,"current_range_meters":8400,"station_id":"ce4bhf92rcd13ifvqf40","pricing_plan_id":"cebpf4jnsgd1na2vs0mg"},{"bike_id":"12d33206-ea21-4880-921d-41fcfdf53726","system_id":"levelo_inurba_marseille","lat":43.25729,"lon":5.4111,"is_reserved":false,"is_disabled":false,"rental_uris":{"android":"levelo://app?vid=12d33206-ea21-4880-921d-41fcfdf53726","ios":"levelo://app?vid=12d33206-ea21-4880-921d-41fcfdf53726"},"vehicle_type_id":"4","last_reported":1748038224,"current_range_meters":8400,"station_id":"ce4bhkp2rcd13ifvqgd0","pricing_plan_id":"cebpf4jnsgd1na2vs0mg"},{"bike_id":"1dec390c-8a29-4eb0-a915-53fcf8aee9ec","system_id":"levelo_inurba_marseille","lat":43.25496,"lon":5.37645,"is_reserved":false,"is_disabled":false,"rental_uris":{"android":"levelo://app?vid=1dec390c-8a29-4eb0-a915-53fcf8aee9ec","ios":"levelo://app?vid=1dec390c-8a29-4eb0-a915-53fcf8aee9ec"},"vehicle_type_id":"4","last_reported":1748038224,"current_range_meters":8400,"station_id":"ce4bhh12rcd13ifvqff0","pricing_plan_id":"cebpf4jnsgd1na2vs0mg"},{"bike_id":"20250d57-d175-407f-821f-63a5806335a2","system_id":"levelo_inurba_marseille","lat":43.235247,"lon":5.402133,"is_reserved":false,"is_disabled":false,"rental_uris":{"android":"levelo://app?vid=20250d57-d175-407f-821f-63a5806335a2","ios":"levelo://app?vid=20250d57-d175-407f-821f-63a5806335a2"},"vehicle_type_id":"4","last_reported":1748038224,"current_range_meters":8400,"station_id":"","pricing_plan_id":"cebpf4jnsgd1na2vs0mg"},{"bike_id":"dd8986be-0d95-447a-8c39-0a2a20571d09","system_id":"levelo_inurba_marseille","lat":43.28679,"lon":5.39958,"is_reserved":false,"is_disabled":false,"rental_uris":{"android":"levelo://app?vid=dd8986be-0d95-447a-8c39-0a2a20571d09","ios":"levelo://app?vid=dd8986be-0d95-447a-8c39-0a2a20571d09"},"vehicle_type_id":"4","last_reported":1748038224,"current_range_meters":8400,"station_id":"","pricing_plan_id":"cebpf4jnsgd1na2vs0mg"},{"bike_id":"e71ba7ce-5eff-4f6a-b40a-60f16c2835ff","system_id":"levelo_inurba_marseille","lat":43.25114,"lon":5.40321,"is_reserved":false,"is_disabled":false,"rental_uris":{"android":"levelo://app?vid=e71ba7ce-5eff-4f6a-b40a-60f16c2835ff","ios":"levelo://app?vid=e71ba7ce-5eff-4f6a-b40a-60f16c2835ff"},"vehicle_type_id":"4","last_reported":1748038224,"current_range_meters":8800,"station_id":"ce4bhlh2rcd13ifvqgig","pricing_plan_id":"cebpf4jnsgd1na2vs0mg"},{"bike_id":"67368c92-a10f-425a-b987-ca1facceaef0","system_id":"levelo_inurba_marseille","lat":43.28719,"lon":5.39988,"is_reserved":false,"is_disabled":false,"rental_uris":{"android":"levelo://app?vid=67368c92-a10f-425a-b987-ca1facceaef0","ios":"levelo://app?vid=67368c92-a10f-425a-b987-ca1facceaef0"},"vehicle_type_id":"4","last_reported":1748038224,"current_range_meters":8800,"station_id":"ce4bho92rcd13ifvqh3g","pricing_plan_id":"cebpf4jnsgd1na2vs0mg"},{"bike_id":"9cd22fed-04c4-474a-9727-f7f9467c9f14","system_id":"levelo_inurba_marseille","lat":43.26027,"lon":5.37527,"is_reserved":false,"is_disabled":false,"rental_uris":{"android":"levelo://app?vid=9cd22fed-04c4-474a-9727-f7f9467c9f14","ios":"levelo://app?vid=9cd22fed-04c4-474a-9727-f7f9467c9f14"},"vehicle_type_id":"4","last_reported":1748038224,"current_range_meters":8800,"station_id":"ce4bhgh2rcd13ifvqfa0","pricing_plan_id":"cebpf4jnsgd1na2vs0mg"},{"bike_id":"89a5b22f-ad6c-47ed-9f9a-19b24027f8e6","system_id":"levelo_inurba_marseille","lat":43.28703,"lon":5.39991,"is_reserved":false,"is_disabled":false,"rental_uris":{"android":"levelo://app?vid=89a5b22f-ad6c-47ed-9f9a-19b24027f8e6","ios":"levelo://app?vid=89a5b22f-ad6c-47ed-9f9a-19b24027f8e6"},"vehicle_type_id":"4","last_reported":1748038224,"current_range_meters":8800,"station_id":"ce4bho92rcd13ifvqh3g","pricing_plan_id":"cebpf4jnsgd1na2vs0mg"},{"bike_id":"754679ea-0592-4aaa-a36a-757f44975cfa","system_id":"levelo_inurba_marseille","lat":43.29278,"lon":5.40115,"is_reserved":false,"is_disabled":false,"rental_uris":{"android":"levelo://app?vid=754679ea-0592-4aaa-a36a-757f44975cfa","ios":"levelo://app?vid=754679ea-0592-4aaa-a36a-757f44975cfa"},"vehicle_type_id":"4","last_reported":1748038224,"current_range_meters":8800,"station_id":"ce4bh312rcd13ifvqdk0","pricing_plan_id":"cebpf4jnsgd1na2vs0mg"},{"bike_id":"d96cb27b-0b14-462b-a0e0-4a3c6033b5f7","system_id":"levelo_inurba_marseille","lat":43.2792,"lon":5.39578,"is_reserved":false,"is_disabled":false,"rental_uris":{"android":"levelo://app?vid=d96cb27b-0b14-462b-a0e0-4a3c6033b5f7","ios":"levelo://app?vid=d96cb27b-0b14-462b-a0e0-4a3c6033b5f7"},"vehicle_type_id":"4","last_reported":1748038224,"current_range_meters":8800,"station_id":"ce4bhf92rcd13ifvqf40","pricing_plan_id":"cebpf4jnsgd1na2vs0mg"},{"bike_id":"560b75e8-dda9-4b4b-9745-40d79f055c2e","system_id":"levelo_inurba_marseille","lat":43.28369,"lon":5.4147,"is_reserved":false,"is_disabled":false,"rental_uris":{"android":"levelo://app?vid=560b75e8-dda9-4b4b-9745-40d79f055c2e","ios":"levelo://app?vid=560b75e8-dda9-4b4b-9745-40d79f055c2e"},"vehicle_type_id":"4","last_reported":1748038224,"current_range_meters":8800,"station_id":"","pricing_plan_id":"cebpf4jnsgd1na2vs0mg"},{"bike_id":"08ee356c-5e7f-411a-92fa-743c60587785","system_id":"levelo_inurba_marseille","lat":43.26026,"lon":5.37557,"is_reserved":false,"is_disabled":false,"rental_uris":{"android":"levelo://app?vid=08ee356c-5e7f-411a-92fa-743c60587785","ios":"levelo://app?vid=08ee356c-5e7f-411a-92fa-743c60587785"},"vehicle_type_id":"4","last_reported":1748038224,"current_range_meters":8800,"station_id":"ce4bhgh2rcd13ifvqfa0","pricing_plan_id":"cebpf4jnsgd1na2vs0mg"},{"bike_id":"7097370e-7a0d-4e71-be27-a879020555f9","system_id":"levelo_inurba_marseille","lat":43.28042,"lon":5.39718,"is_reserved":false,"is_disabled":false,"rental_uris":{"android":"levelo://app?vid=7097370e-7a0d-4e71-be27-a879020555f9","ios":"levelo://app?vid=7097370e-7a0d-4e71-be27-a879020555f9"},"vehicle_type_id":"4","last_reported":1748038224,"current_range_meters":9200,"station_id":"","pricing_plan_id":"cebpf4jnsgd1na2vs0mg"},{"bike_id":"045c67d9-0621-4ae8-9d04-41e2d3be8251","system_id":"levelo_inurba_marseille","lat":43.30924,"lon":5.40136,"is_reserved":false,"is_disabled":false,"rental_uris":{"android":"levelo://app?vid=045c67d9-0621-4ae8-9d04-41e2d3be8251","ios":"levelo://app?vid=045c67d9-0621-4ae8-9d04-41e2d3be8251"},"vehicle_type_id":"4","last_reported":1748038224,"current_range_meters":9200,"station_id":"ce4bgvp2rcd13ifvqct0","pricing_plan_id":"cebpf4jnsgd1na2vs0mg"},{"bike_id":"58925089-defe-4d40-acc5-1144e2f4dbed","system_id":"levelo_inurba_marseille","lat":43.307983,"lon":5.435223,"is_reserved":false,"is_disabled":false,"rental_uris":{"android":"levelo://app?vid=58925089-defe-4d40-acc5-1144e2f4dbed","ios":"levelo://app?vid=58925089-defe-4d40-acc5-1144e2f4dbed"},"vehicle_type_id":"4","last_reported":1748038224,"current_range_meters":9200,"station_id":"ce4bhph2rcd13ifvqheg","pricing_plan_id":"cebpf4jnsgd1na2vs0mg"},{"bike_id":"710e07f2-87bc-469b-8ec8-f43651ae2580","system_id":"levelo_inurba_marseille","lat":43.29788,"lon":5.39332,"is_reserved":false,"is_disabled":false,"rental_uris":{"android":"levelo://app?vid=710e07f2-87bc-469b-8ec8-f43651ae2580","ios":"levelo://app?vid=710e07f2-87bc-469b-8ec8-f43651ae2580"},"vehicle_type_id":"4","last_reported":1748038224,"current_range_meters":9200,"station_id":"chh1huq6cuj3fo74tm60","pricing_plan_id":"cebpf4jnsgd1na2vs0mg"},{"bike_id":"2472d2f7-01e3-4531-8c5b-07e1e239c932","system_id":"levelo_inurba_marseille","lat":43.31356,"lon":5.38494,"is_reserved":false,"is_disabled":false,"rental_uris":{"android":"levelo://app?vid=2472d2f7-01e3-4531-8c5b-07e1e239c932","ios":"levelo://app?vid=2472d2f7-01e3-4531-8c5b-07e1e239c932"},"vehicle_type_id":"4","last_reported":1748038224,"current_range_meters":9200,"station_id":"ce4bgt92rcd13ifvqcf0","pricing_plan_id":"cebpf4jnsgd1na2vs0mg"},{"bike_id":"2f398421-1a07-4c1c-870c-a0a25c5f48e8","system_id":"levelo_inurba_marseille","lat":43.21746,"lon":5.34601,"is_reserved":false,"is_disabled":false,"rental_uris":{"android":"levelo://app?vid=2f398421-1a07-4c1c-870c-a0a25c5f48e8","ios":"levelo://app?vid=2f398421-1a07-4c1c-870c-a0a25c5f48e8"},"vehicle_type_id":"4","last_reported":1748038224,"current_range_meters":9200,"station_id":"","pricing_plan_id":"cebpf4jnsgd1na2vs0mg"},{"bike_id":"e236bf1f-d332-43c3-81b4-ef81085e1db5","system_id":"levelo_inurba_marseille","lat":43.31173,"lon":5.38698,"is_reserved":false,"is_disabled":false,"rental_uris":{"android":"levelo://app?vid=e236bf1f-d332-43c3-81b4-ef81085e1db5","ios":"levelo://app?vid=e236bf1f-d332-43c3-81b4-ef81085e1db5"},"vehicle_type_id":"4","last_reported":1748038224,"current_range_meters":9200,"station_id":"ce4bgv12rcd13ifvqcp0","pricing_plan_id":"cebpf4jnsgd1na2vs0mg"},{"bike_id":"e738a4e4-91f0-4000-960c-7019cf587860","system_id":"levelo_inurba_marseille","lat":43.31549,"lon":5.38743,"is_reserved":false,"is_disabled":false,"rental_uris":{"android":"levelo://app?vid=e738a4e4-91f0-4000-960c-7019cf587860","ios":"levelo://app?vid=e738a4e4-91f0-4000-960c-7019cf587860"},"vehicle_type_id":"4","last_reported":1748038224,"current_range_meters":9600,"station_id":"","pricing_plan_id":"cebpf4jnsgd1na2vs0mg"},{"bike_id":"7e96e79f-22b3-46b7-b9db-d823af2be78c","system_id":"levelo_inurba_marseille","lat":43.28466,"lon":5.35882,"is_reserved":false,"is_disabled":false,"rental_uris":{"android":"levelo://app?vid=7e96e79f-22b3-46b7-b9db-d823af2be78c","ios":"levelo://app?vid=7e96e79f-22b3-46b7-b9db-d823af2be78c"},"vehicle_type_id":"4","last_reported":1748038224,"current_range_meters":9600,"station_id":"ce4bhah2rcd13ifvqei0","pricing_plan_id":"cebpf4jnsgd1na2vs0mg"},{"bike_id":"562ae05d-c841-4132-a045-c5a106d28ff1","system_id":"levelo_inurba_marseille","lat":43.2791,"lon":5.39617,"is_reserved":false,"is_disabled":false,"rental_uris":{"android":"levelo://app?vid=562ae05d-c841-4132-a045-c5a106d28ff1","ios":"levelo://app?vid=562ae05d-c841-4132-a045-c5a106d28ff1"},"vehicle_type_id":"4","last_reported":1748038224,"current_range_meters":9600,"station_id":"ce4bhf92rcd13ifvqf40","pricing_plan_id":"cebpf4jnsgd1na2vs0mg"},{"bike_id":"5450b2de-1d40-4e34-b002-65fe72b49a58","system_id":"levelo_inurba_marseille","lat":43.29035,"lon":5.39957,"is_reserved":false,"is_disabled":false,"rental_uris":{"android":"levelo://app?vid=5450b2de-1d40-4e34-b002-65fe72b49a58","ios":"levelo://app?vid=5450b2de-1d40-4e34-b002-65fe72b49a58"},"vehicle_type_id":"4","last_reported":1748038224,"current_range_meters":9600,"station_id":"ce4bh392rcd13ifvqdm0","pricing_plan_id":"cebpf4jnsgd1na2vs0mg"},{"bike_id":"89568f23-763c-4ebb-9b77-1ebd39d76c7c","system_id":"levelo_inurba_marseille","lat":43.28699,"lon":5.39972,"is_reserved":false,"is_disabled":false,"rental_uris":{"android":"levelo://app?vid=89568f23-763c-4ebb-9b77-1ebd39d76c7c","ios":"levelo://app?vid=89568f23-763c-4ebb-9b77-1ebd39d76c7c"},"vehicle_type_id":"4","last_reported":1748038224,"current_range_meters":9600,"station_id":"ce4bho92rcd13ifvqh3g","pricing_plan_id":"cebpf4jnsgd1na2vs0mg"},{"bike_id":"b4baac40-ec59-445a-9fc9-cd4356edf61e","system_id":"levelo_inurba_marseille","lat":43.26205,"lon":5.40444,"is_reserved":false,"is_disabled":false,"rental_uris":{"android":"levelo://app?vid=b4baac40-ec59-445a-9fc9-cd4356edf61e","ios":"levelo://app?vid=b4baac40-ec59-445a-9fc9-cd4356edf61e"},"vehicle_type_id":"4","last_reported":1748038224,"current_range_meters":9600,"station_id":"ce4bhmh2rcd13ifvqgmg","pricing_plan_id":"cebpf4jnsgd1na2vs0mg"},{"bike_id":"e542b33f-1156-448c-8e4e-b9cc49cde793","system_id":"levelo_inurba_marseille","lat":43.27333,"lon":5.3912,"is_reserved":false,"is_disabled":false,"rental_uris":{"android":"levelo://app?vid=e542b33f-1156-448c-8e4e-b9cc49cde793","ios":"levelo://app?vid=e542b33f-1156-448c-8e4e-b9cc49cde793"},"vehicle_type_id":"4","last_reported":1748038224,"current_range_meters":9600,"station_id":"ce4bhgp2rcd13ifvqfe0","pricing_plan_id":"cebpf4jnsgd1na2vs0mg"},{"bike_id":"92a8e454-3c73-49aa-9fc9-e12f9e7d1d6e","system_id":"levelo_inurba_marseille","lat":43.28962,"lon":5.36399,"is_reserved":false,"is_disabled":false,"rental_uris":{"android":"levelo://app?vid=92a8e454-3c73-49aa-9fc9-e12f9e7d1d6e","ios":"levelo://app?vid=92a8e454-3c73-49aa-9fc9-e12f9e7d1d6e"},"vehicle_type_id":"4","last_reported":1748038224,"current_range_meters":9600,"station_id":"ce4bhc92rcd13ifvqetg","pricing_plan_id":"cebpf4jnsgd1na2vs0mg"},{"bike_id":"6c97fffd-bd2d-4ac1-bd38-d3d1094439a7","system_id":"levelo_inurba_marseille","lat":43.30281,"lon":5.37332,"is_reserved":false,"is_disabled":false,"rental_uris":{"android":"levelo://app?vid=6c97fffd-bd2d-4ac1-bd38-d3d1094439a7","ios":"levelo://app?vid=6c97fffd-bd2d-4ac1-bd38-d3d1094439a7"},"vehicle_type_id":"4","last_reported":1748038224,"current_range_meters":9600,"station_id":"","pricing_plan_id":"cebpf4jnsgd1na2vs0mg"},{"bike_id":"1558526f-5739-49db-a8cb-43d331957259","system_id":"levelo_inurba_marseille","lat":43.323507,"lon":5.367497,"is_reserved":false,"is_disabled":false,"rental_uris":{"android":"levelo://app?vid=1558526f-5739-49db-a8cb-43d331957259","ios":"levelo://app?vid=1558526f-5739-49db-a8cb-43d331957259"},"vehicle_type_id":"4","last_reported":1748038224,"current_range_meters":9600,"station_id":"ce4bhsh2rcd13ifvqi2g","pricing_plan_id":"cebpf4jnsgd1na2vs0mg"},{"bike_id":"03047dc6-2818-4330-94ad-15faca1c545c","system_id":"levelo_inurba_marseille","lat":43.32996,"lon":5.43857,"is_reserved":false,"is_disabled":false,"rental_uris":{"android":"levelo://app?vid=03047dc6-2818-4330-94ad-15faca1c545c","ios":"levelo://app?vid=03047dc6-2818-4330-94ad-15faca1c545c"},"vehicle_type_id":"4","last_reported":1748038224,"current_range_meters":9600,"station_id":"","pricing_plan_id":"cebpf4jnsgd1na2vs0mg"},{"bike_id":"2954c321-77db-454b-ab80-3fc4d55583d6","system_id":"levelo_inurba_marseille","lat":43.31341,"lon":5.39719,"is_reserved":false,"is_disabled":false,"rental_uris":{"android":"levelo://app?vid=2954c321-77db-454b-ab80-3fc4d55583d6","ios":"levelo://app?vid=2954c321-77db-454b-ab80-3fc4d55583d6"},"vehicle_type_id":"4","last_reported":1748038224,"current_range_meters":9600,"station_id":"ce4bgvp2rcd13ifvqcu0","pricing_plan_id":"cebpf4jnsgd1na2vs0mg"},{"bike_id":"9829b3db-03e4-4a20-9596-a7cf6f2c34f4","system_id":"levelo_inurba_marseille","lat":43.31068,"lon":5.38347,"is_reserved":false,"is_disabled":false,"rental_uris":{"android":"levelo://app?vid=9829b3db-03e4-4a20-9596-a7cf6f2c34f4","ios":"levelo://app?vid=9829b3db-03e4-4a20-9596-a7cf6f2c34f4"},"vehicle_type_id":"4","last_reported":1748038224,"current_range_meters":9600,"station_id":"ce4bgv92rcd13ifvqcr0","pricing_plan_id":"cebpf4jnsgd1na2vs0mg"},{"bike_id":"39fc12e9-6bea-485e-a12a-5bd6b7f2c109","system_id":"levelo_inurba_marseille","lat":43.25105,"lon":5.40334,"is_reserved":false,"is_disabled":false,"rental_uris":{"android":"levelo://app?vid=39fc12e9-6bea-485e-a12a-5bd6b7f2c109","ios":"levelo://app?vid=39fc12e9-6bea-485e-a12a-5bd6b7f2c109"},"vehicle_type_id":"4","last_reported":1748038224,"current_range_meters":9600,"station_id":"ce4bhlh2rcd13ifvqgig","pricing_plan_id":"cebpf4jnsgd1na2vs0mg"},{"bike_id":"2dd84353-a1c1-4356-9faa-427d5707b66c","system_id":"levelo_inurba_marseille","lat":43.31081,"lon":5.38348,"is_reserved":false,"is_disabled":false,"rental_uris":{"android":"levelo://app?vid=2dd84353-a1c1-4356-9faa-427d5707b66c","ios":"levelo://app?vid=2dd84353-a1c1-4356-9faa-427d5707b66c"},"vehicle_type_id":"4","last_reported":1748038224,"current_range_meters":10000,"station_id":"ce4bgv92rcd13ifvqcr0","pricing_plan_id":"cebpf4jnsgd1na2vs0mg"},{"bike_id":"f6b3b099-ab25-481f-9586-62d397aaedc0","system_id":"levelo_inurba_marseille","lat":43.31411,"lon":5.38965,"is_reserved":false,"is_disabled":false,"rental_uris":{"android":"levelo://app?vid=f6b3b099-ab25-481f-9586-62d397aaedc0","ios":"levelo://app?vid=f6b3b099-ab25-481f-9586-62d397aaedc0"},"vehicle_type_id":"4","last_reported":1748038224,"current_range_meters":10000,"station_id":"","pricing_plan_id":"cebpf4jnsgd1na2vs0mg"},{"bike_id":"4b7712ac-4fb7-4b0e-b672-26dc6e0a8a85","system_id":"levelo_inurba_marseille","lat":43.25496,"lon":5.37644,"is_reserved":false,"is_disabled":false,"rental_uris":{"android":"levelo://app?vid=4b7712ac-4fb7-4b0e-b672-26dc6e0a8a85","ios":"levelo://app?vid=4b7712ac-4fb7-4b0e-b672-26dc6e0a8a85"},"vehicle_type_id":"4","last_reported":1748038224,"current_range_meters":10000,"station_id":"ce4bhh12rcd13ifvqff0","pricing_plan_id":"cebpf4jnsgd1na2vs0mg"},{"bike_id":"1e164eaf-2ffb-4814-9442-b43f6b5c9f80","system_id":"levelo_inurba_marseille","lat":43.24165,"lon":5.36391,"is_reserved":false,"is_disabled":false,"rental_uris":{"android":"levelo://app?vid=1e164eaf-2ffb-4814-9442-b43f6b5c9f80","ios":"levelo://app?vid=1e164eaf-2ffb-4814-9442-b43f6b5c9f80"},"vehicle_type_id":"4","last_reported":1748038224,"current_range_meters":10000,"station_id":"cpo36qri1sfpv3e86is0","pricing_plan_id":"cebpf4jnsgd1na2vs0mg"},{"bike_id":"81dc790e-c915-48fc-9047-041ca5c7178c","system_id":"levelo_inurba_marseille","lat":43.28407,"lon":5.37504,"is_reserved":false,"is_disabled":false,"rental_uris":{"android":"levelo://app?vid=81dc790e-c915-48fc-9047-041ca5c7178c","ios":"levelo://app?vid=81dc790e-c915-48fc-9047-041ca5c7178c"},"vehicle_type_id":"4","last_reported":1748038224,"current_range_meters":10000,"station_id":"ce4bh412rcd13ifvqds0","pricing_plan_id":"cebpf4jnsgd1na2vs0mg"},{"bike_id":"bf662ae0-26e4-4bb7-9f9e-d0df53c116b8","system_id":"levelo_inurba_marseille","lat":43.23199,"lon":5.35504,"is_reserved":false,"is_disabled":false,"rental_uris":{"android":"levelo://app?vid=bf662ae0-26e4-4bb7-9f9e-d0df53c116b8","ios":"levelo://app?vid=bf662ae0-26e4-4bb7-9f9e-d0df53c116b8"},"vehicle_type_id":"4","last_reported":1748038224,"current_range_meters":10000,"station_id":"ce4bhu92rcd13ifvqi70","pricing_plan_id":"cebpf4jnsgd1na2vs0mg"},{"bike_id":"1a4ee0fd-83d1-4ffe-9f86-6e48ea2279d9","system_id":"levelo_inurba_marseille","lat":43.28443,"lon":5.39165,"is_reserved":false,"is_disabled":false,"rental_uris":{"android":"levelo://app?vid=1a4ee0fd-83d1-4ffe-9f86-6e48ea2279d9","ios":"levelo://app?vid=1a4ee0fd-83d1-4ffe-9f86-6e48ea2279d9"},"vehicle_type_id":"4","last_reported":1748038224,"current_range_meters":10000,"station_id":"ce4bhoh2rcd13ifvqh5g","pricing_plan_id":"cebpf4jnsgd1na2vs0mg"},{"bike_id":"c9c5bef1-5303-4536-9374-ac0aef114419","system_id":"levelo_inurba_marseille","lat":43.24542,"lon":5.3952,"is_reserved":false,"is_disabled":false,"rental_uris":{"android":"levelo://app?vid=c9c5bef1-5303-4536-9374-ac0aef114419","ios":"levelo://app?vid=c9c5bef1-5303-4536-9374-ac0aef114419"},"vehicle_type_id":"4","last_reported":1748038224,"current_range_meters":10800,"station_id":"ce4bhlp2rcd13ifvqgjg","pricing_plan_id":"cebpf4jnsgd1na2vs0mg"},{"bike_id":"630a4786-da3c-40b4-854b-c232bc2f54c0","system_id":"levelo_inurba_marseille","lat":43.24662,"lon":5.38174,"is_reserved":false,"is_disabled":false,"rental_uris":{"android":"levelo://app?vid=630a4786-da3c-40b4-854b-c232bc2f54c0","ios":"levelo://app?vid=630a4786-da3c-40b4-854b-c232bc2f54c0"},"vehicle_type_id":"4","last_reported":1748038224,"current_range_meters":10800,"station_id":"ce4bhih2rcd13ifvqfr0","pricing_plan_id":"cebpf4jnsgd1na2vs0mg"},{"bike_id":"48ef4c03-3c8e-4153-80d8-6757ad1df721","system_id":"levelo_inurba_marseille","lat":43.28931,"lon":5.3839,"is_reserved":false,"is_disabled":false,"rental_uris":{"android":"levelo://app?vid=48ef4c03-3c8e-4153-80d8-6757ad1df721","ios":"levelo://app?vid=48ef4c03-3c8e-4153-80d8-6757ad1df721"},"vehicle_type_id":"4","last_reported":1748038224,"current_range_meters":10800,"station_id":"ce4bh612rcd13ifvqe6g","pricing_plan_id":"cebpf4jnsgd1na2vs0mg"},{"bike_id":"4525f9a3-55f1-43a7-ae74-1a1c22f30cac","system_id":"levelo_inurba_marseille","lat":43.3211,"lon":5.36773,"is_reserved":false,"is_disabled":false,"rental_uris":{"android":"levelo://app?vid=4525f9a3-55f1-43a7-ae74-1a1c22f30cac","ios":"levelo://app?vid=4525f9a3-55f1-43a7-ae74-1a1c22f30cac"},"vehicle_type_id":"4","last_reported":1748038224,"current_range_meters":10800,"station_id":"ce4bhrh2rcd13ifvqhug","pricing_plan_id":"cebpf4jnsgd1na2vs0mg"},{"bike_id":"2ea50577-1176-467c-8d1f-ce07d6571fb8","system_id":"levelo_inurba_marseille","lat":43.231928,"lon":5.355501,"is_reserved":false,"is_disabled":false,"rental_uris":{"android":"levelo://app?vid=2ea50577-1176-467c-8d1f-ce07d6571fb8","ios":"levelo://app?vid=2ea50577-1176-467c-8d1f-ce07d6571fb8"},"vehicle_type_id":"4","last_reported":1748038224,"current_range_meters":10800,"station_id":"ce4bhu92rcd13ifvqi70","pricing_plan_id":"cebpf4jnsgd1na2vs0mg"},{"bike_id":"2eade79b-0917-4c66-8514-04249621d42b","system_id":"levelo_inurba_marseille","lat":43.25583,"lon":5.38241,"is_reserved":false,"is_disabled":false,"rental_uris":{"android":"levelo://app?vid=2eade79b-0917-4c66-8514-04249621d42b","ios":"levelo://app?vid=2eade79b-0917-4c66-8514-04249621d42b"},"vehicle_type_id":"4","last_reported":1748038224,"current_range_meters":10800,"station_id":"ce4bhih2rcd13ifvqfs0","pricing_plan_id":"cebpf4jnsgd1na2vs0mg"},{"bike_id":"fa529a29-8d21-4f13-9783-e1708a99c344","system_id":"levelo_inurba_marseille","lat":43.246516,"lon":5.388955,"is_reserved":false,"is_disabled":false,"rental_uris":{"android":"levelo://app?vid=fa529a29-8d21-4f13-9783-e1708a99c344","ios":"levelo://app?vid=fa529a29-8d21-4f13-9783-e1708a99c344"},"vehicle_type_id":"4","last_reported":1748038224,"current_range_meters":11200,"station_id":"ce4bhlh2rcd13ifvqgig","pricing_plan_id":"cebpf4jnsgd1na2vs0mg"},{"bike_id":"9ecdc04a-9bb3-4f09-aab1-1d6c3e4b305c","system_id":"levelo_inurba_marseille","lat":43.26795,"lon":5.39401,"is_reserved":false,"is_disabled":false,"rental_uris":{"android":"levelo://app?vid=9ecdc04a-9bb3-4f09-aab1-1d6c3e4b305c","ios":"levelo://app?vid=9ecdc04a-9bb3-4f09-aab1-1d6c3e4b305c"},"vehicle_type_id":"4","last_reported":1748038224,"current_range_meters":11200,"station_id":"ce4bhh12rcd13ifvqfg0","pricing_plan_id":"cebpf4jnsgd1na2vs0mg"},{"bike_id":"caadbde8-2ae7-4199-8bed-2b2abfb8667b","system_id":"levelo_inurba_marseille","lat":43.23192,"lon":5.399834,"is_reserved":false,"is_disabled":false,"rental_uris":{"android":"levelo://app?vid=caadbde8-2ae7-4199-8bed-2b2abfb8667b","ios":"levelo://app?vid=caadbde8-2ae7-4199-8bed-2b2abfb8667b"},"vehicle_type_id":"4","last_reported":1748038224,"current_range_meters":11200,"station_id":"ce4bhn12rcd13ifvqgqg","pricing_plan_id":"cebpf4jnsgd1na2vs0mg"},{"bike_id":"3af1902c-c1d0-49b2-ab59-6dd7ff411dd2","system_id":"levelo_inurba_marseille","lat":43.25861,"lon":5.39873,"is_reserved":false,"is_disabled":false,"rental_uris":{"android":"levelo://app?vid=3af1902c-c1d0-49b2-ab59-6dd7ff411dd2","ios":"levelo://app?vid=3af1902c-c1d0-49b2-ab59-6dd7ff411dd2"},"vehicle_type_id":"4","last_reported":1748038224,"current_range_meters":11200,"station_id":"ce4bhl92rcd13ifvqghg","pricing_plan_id":"cebpf4jnsgd1na2vs0mg"},{"bike_id":"36c64be1-0257-4365-af9b-51a8cc38f9f0","system_id":"levelo_inurba_marseille","lat":43.24803,"lon":5.37453,"is_reserved":false,"is_disabled":false,"rental_uris":{"android":"levelo://app?vid=36c64be1-0257-4365-af9b-51a8cc38f9f0","ios":"levelo://app?vid=36c64be1-0257-4365-af9b-51a8cc38f9f0"},"vehicle_type_id":"4","last_reported":1748038224,"current_range_meters":11200,"station_id":"ce4bhgh2rcd13ifvqfb0","pricing_plan_id":"cebpf4jnsgd1na2vs0mg"},{"bike_id":"c7dd26e8-0cc7-474e-a6c8-832c41430aa0","system_id":"levelo_inurba_marseille","lat":43.31176,"lon":5.38697,"is_reserved":false,"is_disabled":false,"rental_uris":{"android":"levelo://app?vid=c7dd26e8-0cc7-474e-a6c8-832c41430aa0","ios":"levelo://app?vid=c7dd26e8-0cc7-474e-a6c8-832c41430aa0"},"vehicle_type_id":"4","last_reported":1748038224,"current_range_meters":11200,"station_id":"ce4bgv12rcd13ifvqcp0","pricing_plan_id":"cebpf4jnsgd1na2vs0mg"},{"bike_id":"fe52ecaf-13a9-441d-964f-7ad11d212a0f","system_id":"levelo_inurba_marseille","lat":43.27414,"lon":5.39363,"is_reserved":false,"is_disabled":false,"rental_uris":{"android":"levelo://app?vid=fe52ecaf-13a9-441d-964f-7ad11d212a0f","ios":"levelo://app?vid=fe52ecaf-13a9-441d-964f-7ad11d212a0f"},"vehicle_type_id":"4","last_reported":1748038224,"current_range_meters":11200,"station_id":"ce4bhdp2rcd13ifvqf20","pricing_plan_id":"cebpf4jnsgd1na2vs0mg"},{"bike_id":"338aaf30-7fbd-41a4-aa7b-77d8e865b5d3","system_id":"levelo_inurba_marseille","lat":43.24546,"lon":5.39521,"is_reserved":false,"is_disabled":false,"rental_uris":{"android":"levelo://app?vid=338aaf30-7fbd-41a4-aa7b-77d8e865b5d3","ios":"levelo://app?vid=338aaf30-7fbd-41a4-aa7b-77d8e865b5d3"},"vehicle_type_id":"4","last_reported":1748038224,"current_range_meters":11200,"station_id":"ce4bhlp2rcd13ifvqgjg","pricing_plan_id":"cebpf4jnsgd1na2vs0mg"},{"bike_id":"effc16e6-3cfa-4461-b0f9-d24e0aa8184f","system_id":"levelo_inurba_marseille","lat":43.26024,"lon":5.37558,"is_reserved":false,"is_disabled":false,"rental_uris":{"android":"levelo://app?vid=effc16e6-3cfa-4461-b0f9-d24e0aa8184f","ios":"levelo://app?vid=effc16e6-3cfa-4461-b0f9-d24e0aa8184f"},"vehicle_type_id":"4","last_reported":1748038224,"current_range_meters":11200,"station_id":"ce4bhgh2rcd13ifvqfa0","pricing_plan_id":"cebpf4jnsgd1na2vs0mg"},{"bike_id":"86ff5301-03c4-485b-b922-524bfaa95407","system_id":"levelo_inurba_marseille","lat":43.25116,"lon":5.40317,"is_reserved":false,"is_disabled":false,"rental_uris":{"android":"levelo://app?vid=86ff5301-03c4-485b-b922-524bfaa95407","ios":"levelo://app?vid=86ff5301-03c4-485b-b922-524bfaa95407"},"vehicle_type_id":"4","last_reported":1748038224,"current_range_meters":11600,"station_id":"ce4bhlh2rcd13ifvqgig","pricing_plan_id":"cebpf4jnsgd1na2vs0mg"},{"bike_id":"8129022a-099f-47b6-9072-0bf649363fc3","system_id":"levelo_inurba_marseille","lat":43.29257,"lon":5.40914,"is_reserved":false,"is_disabled":false,"rental_uris":{"android":"levelo://app?vid=8129022a-099f-47b6-9072-0bf649363fc3","ios":"levelo://app?vid=8129022a-099f-47b6-9072-0bf649363fc3"},"vehicle_type_id":"4","last_reported":1748038224,"current_range_meters":11200,"station_id":"ce4bh192rcd13ifvqdc0","pricing_plan_id":"cebpf4jnsgd1na2vs0mg"},{"bike_id":"559c9094-deec-489a-be0a-e929f3c0b5d4","system_id":"levelo_inurba_marseille","lat":43.31065,"lon":5.38344,"is_reserved":false,"is_disabled":false,"rental_uris":{"android":"levelo://app?vid=559c9094-deec-489a-be0a-e929f3c0b5d4","ios":"levelo://app?vid=559c9094-deec-489a-be0a-e929f3c0b5d4"},"vehicle_type_id":"4","last_reported":1748038224,"current_range_meters":11600,"station_id":"ce4bgv92rcd13ifvqcr0","pricing_plan_id":"cebpf4jnsgd1na2vs0mg"},{"bike_id":"15fea974-608a-45da-8e41-06f7aaf5bd47","system_id":"levelo_inurba_marseille","lat":43.31075,"lon":5.38349,"is_reserved":false,"is_disabled":false,"rental_uris":{"android":"levelo://app?vid=15fea974-608a-45da-8e41-06f7aaf5bd47","ios":"levelo://app?vid=15fea974-608a-45da-8e41-06f7aaf5bd47"},"vehicle_type_id":"4","last_reported":1748038224,"current_range_meters":11600,"station_id":"ce4bgv92rcd13ifvqcr0","pricing_plan_id":"cebpf4jnsgd1na2vs0mg"},{"bike_id":"5a28c96e-e93f-404f-9635-0bff11d9e872","system_id":"levelo_inurba_marseille","lat":43.25508,"lon":5.37638,"is_reserved":false,"is_disabled":false,"rental_uris":{"android":"levelo://app?vid=5a28c96e-e93f-404f-9635-0bff11d9e872","ios":"levelo://app?vid=5a28c96e-e93f-404f-9635-0bff11d9e872"},"vehicle_type_id":"4","last_reported":1748038224,"current_range_meters":11600,"station_id":"ce4bhh12rcd13ifvqff0","pricing_plan_id":"cebpf4jnsgd1na2vs0mg"},{"bike_id":"bee1e79c-7807-4a69-a4ba-89323d1d852e","system_id":"levelo_inurba_marseille","lat":43.27964,"lon":5.38742,"is_reserved":false,"is_disabled":false,"rental_uris":{"android":"levelo://app?vid=bee1e79c-7807-4a69-a4ba-89323d1d852e","ios":"levelo://app?vid=bee1e79c-7807-4a69-a4ba-89323d1d852e"},"vehicle_type_id":"4","last_reported":1748038224,"current_range_meters":11600,"station_id":"ce4bhg12rcd13ifvqf80","pricing_plan_id":"cebpf4jnsgd1na2vs0mg"},{"bike_id":"f5d2bc6d-eea7-4b0b-9f91-92e94c7ea14d","system_id":"levelo_inurba_marseille","lat":43.29043,"lon":5.3996,"is_reserved":false,"is_disabled":false,"rental_uris":{"android":"levelo://app?vid=f5d2bc6d-eea7-4b0b-9f91-92e94c7ea14d","ios":"levelo://app?vid=f5d2bc6d-eea7-4b0b-9f91-92e94c7ea14d"},"vehicle_type_id":"4","last_reported":1748038224,"current_range_meters":11600,"station_id":"ce4bh392rcd13ifvqdm0","pricing_plan_id":"cebpf4jnsgd1na2vs0mg"},{"bike_id":"39b3f530-0d35-4cde-8401-af0fe51a8342","system_id":"levelo_inurba_marseille","lat":43.30923,"lon":5.40133,"is_reserved":false,"is_disabled":false,"rental_uris":{"android":"levelo://app?vid=39b3f530-0d35-4cde-8401-af0fe51a8342","ios":"levelo://app?vid=39b3f530-0d35-4cde-8401-af0fe51a8342"},"vehicle_type_id":"4","last_reported":1748038224,"current_range_meters":11600,"station_id":"ce4bgvp2rcd13ifvqct0","pricing_plan_id":"cebpf4jnsgd1na2vs0mg"},{"bike_id":"675ebf7d-14a4-471a-884f-002bc7482612","system_id":"levelo_inurba_marseille","lat":43.29635,"lon":5.40598,"is_reserved":false,"is_disabled":false,"rental_uris":{"android":"levelo://app?vid=675ebf7d-14a4-471a-884f-002bc7482612","ios":"levelo://app?vid=675ebf7d-14a4-471a-884f-002bc7482612"},"vehicle_type_id":"4","last_reported":1748038224,"current_range_meters":11600,"station_id":"ce4bh0h2rcd13ifvqd60","pricing_plan_id":"cebpf4jnsgd1na2vs0mg"},{"bike_id":"6240fd2e-b211-48d5-b234-c3bc1d09ebe7","system_id":"levelo_inurba_marseille","lat":43.31338,"lon":5.39691,"is_reserved":false,"is_disabled":false,"rental_uris":{"android":"levelo://app?vid=6240fd2e-b211-48d5-b234-c3bc1d09ebe7","ios":"levelo://app?vid=6240fd2e-b211-48d5-b234-c3bc1d09ebe7"},"vehicle_type_id":"4","last_reported":1748038224,"current_range_meters":11600,"station_id":"ce4bgvp2rcd13ifvqcu0","pricing_plan_id":"cebpf4jnsgd1na2vs0mg"},{"bike_id":"40fd4ac4-7584-4fb9-8ff3-5482e00d2cd6","system_id":"levelo_inurba_marseille","lat":43.29522,"lon":5.39401,"is_reserved":false,"is_disabled":false,"rental_uris":{"android":"levelo://app?vid=40fd4ac4-7584-4fb9-8ff3-5482e00d2cd6","ios":"levelo://app?vid=40fd4ac4-7584-4fb9-8ff3-5482e00d2cd6"},"vehicle_type_id":"4","last_reported":1748038224,"current_range_meters":12000,"station_id":"ce4bh292rcd13ifvqdf0","pricing_plan_id":"cebpf4jnsgd1na2vs0mg"},{"bike_id":"ff795cc9-e30c-4b05-87b5-d12e280dae8e","system_id":"levelo_inurba_marseille","lat":43.27951,"lon":5.38751,"is_reserved":false,"is_disabled":false,"rental_uris":{"android":"levelo://app?vid=ff795cc9-e30c-4b05-87b5-d12e280dae8e","ios":"levelo://app?vid=ff795cc9-e30c-4b05-87b5-d12e280dae8e"},"vehicle_type_id":"4","last_reported":1748038224,"current_range_meters":12000,"station_id":"ce4bhg12rcd13ifvqf80","pricing_plan_id":"cebpf4jnsgd1na2vs0mg"},{"bike_id":"4fc507ed-2861-429b-899c-9490e6de6456","system_id":"levelo_inurba_marseille","lat":43.28841,"lon":5.35845,"is_reserved":false,"is_disabled":true,"rental_uris":{"android":"levelo://app?vid=4fc507ed-2861-429b-899c-9490e6de6456","ios":"levelo://app?vid=4fc507ed-2861-429b-899c-9490e6de6456"},"vehicle_type_id":"4","last_reported":1748038224,"current_range_meters":12000,"station_id":"ce4bhb12rcd13ifvqem0","pricing_plan_id":"cebpf4jnsgd1na2vs0mg"},{"bike_id":"b5a1c3d4-973a-4aeb-974e-bc55dee22b0f","system_id":"levelo_inurba_marseille","lat":43.296301,"lon":5.406019,"is_reserved":false,"is_disabled":false,"rental_uris":{"android":"levelo://app?vid=b5a1c3d4-973a-4aeb-974e-bc55dee22b0f","ios":"levelo://app?vid=b5a1c3d4-973a-4aeb-974e-bc55dee22b0f"},"vehicle_type_id":"4","last_reported":1748038224,"current_range_meters":12000,"station_id":"ce4bh0h2rcd13ifvqd60","pricing_plan_id":"cebpf4jnsgd1na2vs0mg"},{"bike_id":"46ad83b4-3733-47bd-85c5-0bd80bc84c3a","system_id":"levelo_inurba_marseille","lat":43.311758,"lon":5.387154,"is_reserved":false,"is_disabled":false,"rental_uris":{"android":"levelo://app?vid=46ad83b4-3733-47bd-85c5-0bd80bc84c3a","ios":"levelo://app?vid=46ad83b4-3733-47bd-85c5-0bd80bc84c3a"},"vehicle_type_id":"4","last_reported":1748038224,"current_range_meters":12000,"station_id":"","pricing_plan_id":"cebpf4jnsgd1na2vs0mg"},{"bike_id":"4e6d2487-4a9a-4fb1-90d7-a56be6fcf674","system_id":"levelo_inurba_marseille","lat":43.26501,"lon":5.39539,"is_reserved":false,"is_disabled":false,"rental_uris":{"android":"levelo://app?vid=4e6d2487-4a9a-4fb1-90d7-a56be6fcf674","ios":"levelo://app?vid=4e6d2487-4a9a-4fb1-90d7-a56be6fcf674"},"vehicle_type_id":"4","last_reported":1748038224,"current_range_meters":11600,"station_id":"ce4bhi12rcd13ifvqfq0","pricing_plan_id":"cebpf4jnsgd1na2vs0mg"},{"bike_id":"26a26ae3-ce78-4fa5-bc70-366fdbe3e551","system_id":"levelo_inurba_marseille","lat":43.24815,"lon":5.37428,"is_reserved":false,"is_disabled":false,"rental_uris":{"android":"levelo://app?vid=26a26ae3-ce78-4fa5-bc70-366fdbe3e551","ios":"levelo://app?vid=26a26ae3-ce78-4fa5-bc70-366fdbe3e551"},"vehicle_type_id":"4","last_reported":1748038224,"current_range_meters":12000,"station_id":"ce4bhgh2rcd13ifvqfb0","pricing_plan_id":"cebpf4jnsgd1na2vs0mg"},{"bike_id":"b8e68d8c-d31d-4c4b-9391-7e651eb661d4","system_id":"levelo_inurba_marseille","lat":43.3015,"lon":5.38082,"is_reserved":false,"is_disabled":false,"rental_uris":{"android":"levelo://app?vid=b8e68d8c-d31d-4c4b-9391-7e651eb661d4","ios":"levelo://app?vid=b8e68d8c-d31d-4c4b-9391-7e651eb661d4"},"vehicle_type_id":"4","last_reported":1748038224,"current_range_meters":12400,"station_id":"ce4bgjp2rcd13ifvqbh0","pricing_plan_id":"cebpf4jnsgd1na2vs0mg"},{"bike_id":"36d82d9b-de90-4f5e-b069-8c76a416ca3a","system_id":"levelo_inurba_marseille","lat":43.31078,"lon":5.38345,"is_reserved":false,"is_disabled":false,"rental_uris":{"android":"levelo://app?vid=36d82d9b-de90-4f5e-b069-8c76a416ca3a","ios":"levelo://app?vid=36d82d9b-de90-4f5e-b069-8c76a416ca3a"},"vehicle_type_id":"4","last_reported":1748038224,"current_range_meters":12400,"station_id":"ce4bgv92rcd13ifvqcr0","pricing_plan_id":"cebpf4jnsgd1na2vs0mg"},{"bike_id":"f12a3e24-0016-442a-b65e-5b171e9248bb","system_id":"levelo_inurba_marseille","lat":43.28924,"lon":5.38393,"is_reserved":false,"is_disabled":false,"rental_uris":{"android":"levelo://app?vid=f12a3e24-0016-442a-b65e-5b171e9248bb","ios":"levelo://app?vid=f12a3e24-0016-442a-b65e-5b171e9248bb"},"vehicle_type_id":"4","last_reported":1748038224,"current_range_meters":12400,"station_id":"ce4bh612rcd13ifvqe6g","pricing_plan_id":"cebpf4jnsgd1na2vs0mg"},{"bike_id":"994141d8-8bad-410f-8c68-5aba0da2d08a","system_id":"levelo_inurba_marseille","lat":43.27614,"lon":5.36113,"is_reserved":false,"is_disabled":false,"rental_uris":{"android":"levelo://app?vid=994141d8-8bad-410f-8c68-5aba0da2d08a","ios":"levelo://app?vid=994141d8-8bad-410f-8c68-5aba0da2d08a"},"vehicle_type_id":"4","last_reported":1748038224,"current_range_meters":12000,"station_id":"ce4bgj92rcd13ifvqbe0","pricing_plan_id":"cebpf4jnsgd1na2vs0mg"},{"bike_id":"3da04a3a-16dd-46bd-a906-a6561bf763a8","system_id":"levelo_inurba_marseille","lat":43.32975,"lon":5.3938,"is_reserved":false,"is_disabled":false,"rental_uris":{"android":"levelo://app?vid=3da04a3a-16dd-46bd-a906-a6561bf763a8","ios":"levelo://app?vid=3da04a3a-16dd-46bd-a906-a6561bf763a8"},"vehicle_type_id":"4","last_reported":1748038224,"current_range_meters":12400,"station_id":"","pricing_plan_id":"cebpf4jnsgd1na2vs0mg"},{"bike_id":"ffc2f77a-2dcd-4558-a4f9-a712896a8ef1","system_id":"levelo_inurba_marseille","lat":43.290955,"lon":5.381131,"is_reserved":false,"is_disabled":false,"rental_uris":{"android":"levelo://app?vid=ffc2f77a-2dcd-4558-a4f9-a712896a8ef1","ios":"levelo://app?vid=ffc2f77a-2dcd-4558-a4f9-a712896a8ef1"},"vehicle_type_id":"4","last_reported":1748038224,"current_range_meters":12400,"station_id":"ce4bh512rcd13ifvqe2g","pricing_plan_id":"cebpf4jnsgd1na2vs0mg"},{"bike_id":"d2a7544b-c51d-41e2-b69e-7af2a9e19831","system_id":"levelo_inurba_marseille","lat":43.23961,"lon":5.36631,"is_reserved":false,"is_disabled":false,"rental_uris":{"android":"levelo://app?vid=d2a7544b-c51d-41e2-b69e-7af2a9e19831","ios":"levelo://app?vid=d2a7544b-c51d-41e2-b69e-7af2a9e19831"},"vehicle_type_id":"4","last_reported":1748038224,"current_range_meters":12000,"station_id":"ce4bhi12rcd13ifvqfp0","pricing_plan_id":"cebpf4jnsgd1na2vs0mg"},{"bike_id":"cb6210e8-29cf-49d5-b6fc-13bb7e185c3a","system_id":"levelo_inurba_marseille","lat":43.29578,"lon":5.39962,"is_reserved":false,"is_disabled":false,"rental_uris":{"android":"levelo://app?vid=cb6210e8-29cf-49d5-b6fc-13bb7e185c3a","ios":"levelo://app?vid=cb6210e8-29cf-49d5-b6fc-13bb7e185c3a"},"vehicle_type_id":"4","last_reported":1748038224,"current_range_meters":12000,"station_id":"ce4bh312rcd13ifvqdj0","pricing_plan_id":"cebpf4jnsgd1na2vs0mg"},{"bike_id":"652b761d-9daf-4a8e-bc6f-fac86aa4ee4d","system_id":"levelo_inurba_marseille","lat":43.31168,"lon":5.38711,"is_reserved":false,"is_disabled":false,"rental_uris":{"android":"levelo://app?vid=652b761d-9daf-4a8e-bc6f-fac86aa4ee4d","ios":"levelo://app?vid=652b761d-9daf-4a8e-bc6f-fac86aa4ee4d"},"vehicle_type_id":"4","last_reported":1748038224,"current_range_meters":12800,"station_id":"ce4bgv12rcd13ifvqcp0","pricing_plan_id":"cebpf4jnsgd1na2vs0mg"},{"bike_id":"210769d1-9ae0-4026-89c7-782ca711d39d","system_id":"levelo_inurba_marseille","lat":43.32329,"lon":5.40607,"is_reserved":false,"is_disabled":false,"rental_uris":{"android":"levelo://app?vid=210769d1-9ae0-4026-89c7-782ca711d39d","ios":"levelo://app?vid=210769d1-9ae0-4026-89c7-782ca711d39d"},"vehicle_type_id":"4","last_reported":1748038224,"current_range_meters":12800,"station_id":"ce4bhq92rcd13ifvqhjg","pricing_plan_id":"cebpf4jnsgd1na2vs0mg"},{"bike_id":"3e3aa565-59ae-42e9-967b-13c2da97469f","system_id":"levelo_inurba_marseille","lat":43.28947,"lon":5.36403,"is_reserved":false,"is_disabled":true,"rental_uris":{"android":"levelo://app?vid=3e3aa565-59ae-42e9-967b-13c2da97469f","ios":"levelo://app?vid=3e3aa565-59ae-42e9-967b-13c2da97469f"},"vehicle_type_id":"4","last_reported":1748038224,"current_range_meters":12800,"station_id":"ce4bhc92rcd13ifvqetg","pricing_plan_id":"cebpf4jnsgd1na2vs0mg"},{"bike_id":"5094758c-8617-40c9-bbd4-c4239a320a75","system_id":"levelo_inurba_marseille","lat":43.31071,"lon":5.38347,"is_reserved":false,"is_disabled":false,"rental_uris":{"android":"levelo://app?vid=5094758c-8617-40c9-bbd4-c4239a320a75","ios":"levelo://app?vid=5094758c-8617-40c9-bbd4-c4239a320a75"},"vehicle_type_id":"4","last_reported":1748038224,"current_range_meters":12800,"station_id":"ce4bgv92rcd13ifvqcr0","pricing_plan_id":"cebpf4jnsgd1na2vs0mg"},{"bike_id":"8bf531c8-63c9-4599-a836-ffb8cfe6db01","system_id":"levelo_inurba_marseille","lat":43.24167,"lon":5.36389,"is_reserved":false,"is_disabled":false,"rental_uris":{"android":"levelo://app?vid=8bf531c8-63c9-4599-a836-ffb8cfe6db01","ios":"levelo://app?vid=8bf531c8-63c9-4599-a836-ffb8cfe6db01"},"vehicle_type_id":"4","last_reported":1748038224,"current_range_meters":12800,"station_id":"cpo36qri1sfpv3e86is0","pricing_plan_id":"cebpf4jnsgd1na2vs0mg"},{"bike_id":"ccf93036-6b1e-49c8-bfce-020f147415d5","system_id":"levelo_inurba_marseille","lat":43.31175,"lon":5.38699,"is_reserved":false,"is_disabled":false,"rental_uris":{"android":"levelo://app?vid=ccf93036-6b1e-49c8-bfce-020f147415d5","ios":"levelo://app?vid=ccf93036-6b1e-49c8-bfce-020f147415d5"},"vehicle_type_id":"4","last_reported":1748038224,"current_range_meters":12800,"station_id":"ce4bgv12rcd13ifvqcp0","pricing_plan_id":"cebpf4jnsgd1na2vs0mg"},{"bike_id":"b959a865-fc01-4964-9b1d-7e25b047370d","system_id":"levelo_inurba_marseille","lat":43.2321,"lon":5.35566,"is_reserved":false,"is_disabled":false,"rental_uris":{"android":"levelo://app?vid=b959a865-fc01-4964-9b1d-7e25b047370d","ios":"levelo://app?vid=b959a865-fc01-4964-9b1d-7e25b047370d"},"vehicle_type_id":"4","last_reported":1748038224,"current_range_meters":12800,"station_id":"ce4bhu92rcd13ifvqi70","pricing_plan_id":"cebpf4jnsgd1na2vs0mg"},{"bike_id":"c67777b7-00c2-4186-931d-4ffb84a20dd7","system_id":"levelo_inurba_marseille","lat":43.26553,"lon":5.37285,"is_reserved":false,"is_disabled":false,"rental_uris":{"android":"levelo://app?vid=c67777b7-00c2-4186-931d-4ffb84a20dd7","ios":"levelo://app?vid=c67777b7-00c2-4186-931d-4ffb84a20dd7"},"vehicle_type_id":"4","last_reported":1748038224,"current_range_meters":12800,"station_id":"ce4bhg12rcd13ifvqf70","pricing_plan_id":"cebpf4jnsgd1na2vs0mg"},{"bike_id":"78f9e2a4-1704-46bc-9793-011c42943b29","system_id":"levelo_inurba_marseille","lat":43.30945,"lon":5.39026,"is_reserved":false,"is_disabled":false,"rental_uris":{"android":"levelo://app?vid=78f9e2a4-1704-46bc-9793-011c42943b29","ios":"levelo://app?vid=78f9e2a4-1704-46bc-9793-011c42943b29"},"vehicle_type_id":"4","last_reported":1748038224,"current_range_meters":13600,"station_id":"ce4bgup2rcd13ifvqco0","pricing_plan_id":"cebpf4jnsgd1na2vs0mg"},{"bike_id":"d611a9c9-77d3-428f-b6dd-f104217f3cd7","system_id":"levelo_inurba_marseille","lat":43.32069,"lon":5.36839,"is_reserved":false,"is_disabled":false,"rental_uris":{"android":"levelo://app?vid=d611a9c9-77d3-428f-b6dd-f104217f3cd7","ios":"levelo://app?vid=d611a9c9-77d3-428f-b6dd-f104217f3cd7"},"vehicle_type_id":"4","last_reported":1748038224,"current_range_meters":13600,"station_id":"ce4bhrh2rcd13ifvqhug","pricing_plan_id":"cebpf4jnsgd1na2vs0mg"},{"bike_id":"52269cbf-94f1-4b3a-a7ea-52e773ac04c5","system_id":"levelo_inurba_marseille","lat":43.25539,"lon":5.38243,"is_reserved":false,"is_disabled":false,"rental_uris":{"android":"levelo://app?vid=52269cbf-94f1-4b3a-a7ea-52e773ac04c5","ios":"levelo://app?vid=52269cbf-94f1-4b3a-a7ea-52e773ac04c5"},"vehicle_type_id":"4","last_reported":1748038224,"current_range_meters":13600,"station_id":"ce4bhih2rcd13ifvqfs0","pricing_plan_id":"cebpf4jnsgd1na2vs0mg"},{"bike_id":"04b3a370-3dca-4d7f-95d6-a32ffe976d6e","system_id":"levelo_inurba_marseille","lat":43.28844,"lon":5.35832,"is_reserved":false,"is_disabled":true,"rental_uris":{"android":"levelo://app?vid=04b3a370-3dca-4d7f-95d6-a32ffe976d6e","ios":"levelo://app?vid=04b3a370-3dca-4d7f-95d6-a32ffe976d6e"},"vehicle_type_id":"4","last_reported":1748038224,"current_range_meters":13600,"station_id":"ce4bhb12rcd13ifvqem0","pricing_plan_id":"cebpf4jnsgd1na2vs0mg"},{"bike_id":"fc8c72ad-ca61-42c6-ae90-f61b57e45328","system_id":"levelo_inurba_marseille","lat":43.27895,"lon":5.41855,"is_reserved":false,"is_disabled":false,"rental_uris":{"android":"levelo://app?vid=fc8c72ad-ca61-42c6-ae90-f61b57e45328","ios":"levelo://app?vid=fc8c72ad-ca61-42c6-ae90-f61b57e45328"},"vehicle_type_id":"4","last_reported":1748038224,"current_range_meters":13600,"station_id":"","pricing_plan_id":"cebpf4jnsgd1na2vs0mg"},{"bike_id":"75e91607-f093-41b1-947a-69b62fe724b6","system_id":"levelo_inurba_marseille","lat":43.34732,"lon":5.34448,"is_reserved":false,"is_disabled":false,"rental_uris":{"android":"levelo://app?vid=75e91607-f093-41b1-947a-69b62fe724b6","ios":"levelo://app?vid=75e91607-f093-41b1-947a-69b62fe724b6"},"vehicle_type_id":"4","last_reported":1748038224,"current_range_meters":13600,"station_id":"","pricing_plan_id":"cebpf4jnsgd1na2vs0mg"},{"bike_id":"167d5e3c-faae-41b7-be91-280e1b7f6fb7","system_id":"levelo_inurba_marseille","lat":43.25113,"lon":5.40352,"is_reserved":false,"is_disabled":false,"rental_uris":{"android":"levelo://app?vid=167d5e3c-faae-41b7-be91-280e1b7f6fb7","ios":"levelo://app?vid=167d5e3c-faae-41b7-be91-280e1b7f6fb7"},"vehicle_type_id":"4","last_reported":1748038224,"current_range_meters":13600,"station_id":"ce4bhlh2rcd13ifvqgig","pricing_plan_id":"cebpf4jnsgd1na2vs0mg"},{"bike_id":"7c919a99-4deb-48de-b39e-c2ab92830dc2","system_id":"levelo_inurba_marseille","lat":43.30883,"lon":5.37201,"is_reserved":false,"is_disabled":false,"rental_uris":{"android":"levelo://app?vid=7c919a99-4deb-48de-b39e-c2ab92830dc2","ios":"levelo://app?vid=7c919a99-4deb-48de-b39e-c2ab92830dc2"},"vehicle_type_id":"4","last_reported":1748038224,"current_range_meters":13600,"station_id":"ce4bguh2rcd13ifvqckg","pricing_plan_id":"cebpf4jnsgd1na2vs0mg"},{"bike_id":"7d42cd4f-b64a-4ecc-9335-e0fa750c0960","system_id":"levelo_inurba_marseille","lat":43.30889,"lon":5.3965,"is_reserved":false,"is_disabled":false,"rental_uris":{"android":"levelo://app?vid=7d42cd4f-b64a-4ecc-9335-e0fa750c0960","ios":"levelo://app?vid=7d42cd4f-b64a-4ecc-9335-e0fa750c0960"},"vehicle_type_id":"4","last_reported":1748038224,"current_range_meters":13600,"station_id":"ce4bh012rcd13ifvqcv0","pricing_plan_id":"cebpf4jnsgd1na2vs0mg"},{"bike_id":"95a4d9d5-3351-4fde-aa4e-53ccfc263ba1","system_id":"levelo_inurba_marseille","lat":43.29417,"lon":5.38629,"is_reserved":false,"is_disabled":false,"rental_uris":{"android":"levelo://app?vid=95a4d9d5-3351-4fde-aa4e-53ccfc263ba1","ios":"levelo://app?vid=95a4d9d5-3351-4fde-aa4e-53ccfc263ba1"},"vehicle_type_id":"4","last_reported":1748038224,"current_range_meters":13600,"station_id":"ce4bh2h2rcd13ifvqdh0","pricing_plan_id":"cebpf4jnsgd1na2vs0mg"},{"bike_id":"56f286dd-03ca-45ee-bfe6-d46e5288bf58","system_id":"levelo_inurba_marseille","lat":43.290367,"lon":5.39954,"is_reserved":false,"is_disabled":false,"rental_uris":{"android":"levelo://app?vid=56f286dd-03ca-45ee-bfe6-d46e5288bf58","ios":"levelo://app?vid=56f286dd-03ca-45ee-bfe6-d46e5288bf58"},"vehicle_type_id":"4","last_reported":1748038224,"current_range_meters":12800,"station_id":"ce4bh392rcd13ifvqdm0","pricing_plan_id":"cebpf4jnsgd1na2vs0mg"},{"bike_id":"796d74ca-8842-43d5-8571-d46a9e0612c2","system_id":"levelo_inurba_marseille","lat":43.251088,"lon":5.403249,"is_reserved":false,"is_disabled":false,"rental_uris":{"android":"levelo://app?vid=796d74ca-8842-43d5-8571-d46a9e0612c2","ios":"levelo://app?vid=796d74ca-8842-43d5-8571-d46a9e0612c2"},"vehicle_type_id":"4","last_reported":1748038224,"current_range_meters":13600,"station_id":"","pricing_plan_id":"cebpf4jnsgd1na2vs0mg"},{"bike_id":"5c8ccf60-7ee1-434f-ab21-f75a582fe893","system_id":"levelo_inurba_marseille","lat":43.29928,"lon":5.36535,"is_reserved":false,"is_disabled":false,"rental_uris":{"android":"levelo://app?vid=5c8ccf60-7ee1-434f-ab21-f75a582fe893","ios":"levelo://app?vid=5c8ccf60-7ee1-434f-ab21-f75a582fe893"},"vehicle_type_id":"4","last_reported":1748038224,"current_range_meters":13600,"station_id":"ce4bgm92rcd13ifvqbr0","pricing_plan_id":"cebpf4jnsgd1na2vs0mg"},{"bike_id":"8e3af7f6-512d-492d-bbbf-b4f62915fbaa","system_id":"levelo_inurba_marseille","lat":43.26849,"lon":5.39186,"is_reserved":false,"is_disabled":false,"rental_uris":{"android":"levelo://app?vid=8e3af7f6-512d-492d-bbbf-b4f62915fbaa","ios":"levelo://app?vid=8e3af7f6-512d-492d-bbbf-b4f62915fbaa"},"vehicle_type_id":"4","last_reported":1748038224,"current_range_meters":13600,"station_id":"","pricing_plan_id":"cebpf4jnsgd1na2vs0mg"},{"bike_id":"bf615c7f-df75-43c8-b130-e8e87c0d0e8e","system_id":"levelo_inurba_marseille","lat":43.28483,"lon":5.38551,"is_reserved":false,"is_disabled":false,"rental_uris":{"android":"levelo://app?vid=bf615c7f-df75-43c8-b130-e8e87c0d0e8e","ios":"levelo://app?vid=bf615c7f-df75-43c8-b130-e8e87c0d0e8e"},"vehicle_type_id":"4","last_reported":1748038224,"current_range_meters":13600,"station_id":"ce4bh8p2rcd13ifvqeb0","pricing_plan_id":"cebpf4jnsgd1na2vs0mg"},{"bike_id":"8dada047-4ad7-4f7d-9120-c9486d72aafe","system_id":"levelo_inurba_marseille","lat":43.27375,"lon":5.36257,"is_reserved":false,"is_disabled":false,"rental_uris":{"android":"levelo://app?vid=8dada047-4ad7-4f7d-9120-c9486d72aafe","ios":"levelo://app?vid=8dada047-4ad7-4f7d-9120-c9486d72aafe"},"vehicle_type_id":"4","last_reported":1748038224,"current_range_meters":14000,"station_id":"ce4bhbh2rcd13ifvqeo0","pricing_plan_id":"cebpf4jnsgd1na2vs0mg"},{"bike_id":"29d23aa8-549b-4e0a-84f1-5154882d2f1a","system_id":"levelo_inurba_marseille","lat":43.27312,"lon":5.39062,"is_reserved":false,"is_disabled":false,"rental_uris":{"android":"levelo://app?vid=29d23aa8-549b-4e0a-84f1-5154882d2f1a","ios":"levelo://app?vid=29d23aa8-549b-4e0a-84f1-5154882d2f1a"},"vehicle_type_id":"4","last_reported":1748038224,"current_range_meters":14000,"station_id":"ce4bhgp2rcd13ifvqfe0","pricing_plan_id":"cebpf4jnsgd1na2vs0mg"},{"bike_id":"71c515d3-c7fd-4bc7-b6c5-776cef3fe5f6","system_id":"levelo_inurba_marseille","lat":43.26932,"lon":5.4026,"is_reserved":false,"is_disabled":false,"rental_uris":{"android":"levelo://app?vid=71c515d3-c7fd-4bc7-b6c5-776cef3fe5f6","ios":"levelo://app?vid=71c515d3-c7fd-4bc7-b6c5-776cef3fe5f6"},"vehicle_type_id":"4","last_reported":1748038224,"current_range_meters":14000,"station_id":"cjm6bp8fraef2m0cb0m0","pricing_plan_id":"cebpf4jnsgd1na2vs0mg"},{"bike_id":"ab15e5ca-ef20-43c9-aaee-438febf4cabf","system_id":"levelo_inurba_marseille","lat":43.29092,"lon":5.38144,"is_reserved":false,"is_disabled":false,"rental_uris":{"android":"levelo://app?vid=ab15e5ca-ef20-43c9-aaee-438febf4cabf","ios":"levelo://app?vid=ab15e5ca-ef20-43c9-aaee-438febf4cabf"},"vehicle_type_id":"4","last_reported":1748038224,"current_range_meters":14000,"station_id":"ce4bh512rcd13ifvqe2g","pricing_plan_id":"cebpf4jnsgd1na2vs0mg"},{"bike_id":"e9ed0d18-3aa2-414d-a847-8602b08abfdf","system_id":"levelo_inurba_marseille","lat":43.29429,"lon":5.38586,"is_reserved":false,"is_disabled":false,"rental_uris":{"android":"levelo://app?vid=e9ed0d18-3aa2-414d-a847-8602b08abfdf","ios":"levelo://app?vid=e9ed0d18-3aa2-414d-a847-8602b08abfdf"},"vehicle_type_id":"4","last_reported":1748038224,"current_range_meters":14000,"station_id":"ce4bh2h2rcd13ifvqdh0","pricing_plan_id":"cebpf4jnsgd1na2vs0mg"},{"bike_id":"90327239-e7a4-4a17-987d-ff3804092da9","system_id":"levelo_inurba_marseille","lat":43.2901,"lon":5.35659,"is_reserved":false,"is_disabled":true,"rental_uris":{"android":"levelo://app?vid=90327239-e7a4-4a17-987d-ff3804092da9","ios":"levelo://app?vid=90327239-e7a4-4a17-987d-ff3804092da9"},"vehicle_type_id":"4","last_reported":1748038224,"current_range_meters":14000,"station_id":"ce4bhb92rcd13ifvqen0","pricing_plan_id":"cebpf4jnsgd1na2vs0mg"},{"bike_id":"334bfb8f-bb85-4231-9e6f-cda6df8d36c6","system_id":"levelo_inurba_marseille","lat":43.28349,"lon":5.38106,"is_reserved":false,"is_disabled":false,"rental_uris":{"android":"levelo://app?vid=334bfb8f-bb85-4231-9e6f-cda6df8d36c6","ios":"levelo://app?vid=334bfb8f-bb85-4231-9e6f-cda6df8d36c6"},"vehicle_type_id":"4","last_reported":1748038224,"current_range_meters":14000,"station_id":"ce4bh412rcd13ifvqdr0","pricing_plan_id":"cebpf4jnsgd1na2vs0mg"},{"bike_id":"b3e84fd6-3ff5-4e9e-abfc-dbea079ffcad","system_id":"levelo_inurba_marseille","lat":43.29277,"lon":5.40115,"is_reserved":false,"is_disabled":false,"rental_uris":{"android":"levelo://app?vid=b3e84fd6-3ff5-4e9e-abfc-dbea079ffcad","ios":"levelo://app?vid=b3e84fd6-3ff5-4e9e-abfc-dbea079ffcad"},"vehicle_type_id":"4","last_reported":1748038224,"current_range_meters":14000,"station_id":"ce4bh312rcd13ifvqdk0","pricing_plan_id":"cebpf4jnsgd1na2vs0mg"},{"bike_id":"d572eec5-088d-453f-9154-72f64f38938f","system_id":"levelo_inurba_marseille","lat":43.29897,"lon":5.380846,"is_reserved":false,"is_disabled":false,"rental_uris":{"android":"levelo://app?vid=d572eec5-088d-453f-9154-72f64f38938f","ios":"levelo://app?vid=d572eec5-088d-453f-9154-72f64f38938f"},"vehicle_type_id":"4","last_reported":1748038224,"current_range_meters":14000,"station_id":"","pricing_plan_id":"cebpf4jnsgd1na2vs0mg"},{"bike_id":"6fae3307-b4c8-428f-b5c9-508b79f6fc05","system_id":"levelo_inurba_marseille","lat":43.27946,"lon":5.410505,"is_reserved":false,"is_disabled":false,"rental_uris":{"android":"levelo://app?vid=6fae3307-b4c8-428f-b5c9-508b79f6fc05","ios":"levelo://app?vid=6fae3307-b4c8-428f-b5c9-508b79f6fc05"},"vehicle_type_id":"4","last_reported":1748038224,"current_range_meters":14000,"station_id":"ce4bhnp2rcd13ifvqh0g","pricing_plan_id":"cebpf4jnsgd1na2vs0mg"},{"bike_id":"808f67c6-4568-42a6-b3e0-e164c459e6bf","system_id":"levelo_inurba_marseille","lat":43.287177,"lon":5.399797,"is_reserved":false,"is_disabled":false,"rental_uris":{"android":"levelo://app?vid=808f67c6-4568-42a6-b3e0-e164c459e6bf","ios":"levelo://app?vid=808f67c6-4568-42a6-b3e0-e164c459e6bf"},"vehicle_type_id":"4","last_reported":1748038224,"current_range_meters":14000,"station_id":"ce4bho92rcd13ifvqh3g","pricing_plan_id":"cebpf4jnsgd1na2vs0mg"},{"bike_id":"a8b3781e-bd5a-417c-b704-cebe0d097221","system_id":"levelo_inurba_marseille","lat":43.28936,"lon":5.36636,"is_reserved":false,"is_disabled":false,"rental_uris":{"android":"levelo://app?vid=a8b3781e-bd5a-417c-b704-cebe0d097221","ios":"levelo://app?vid=a8b3781e-bd5a-417c-b704-cebe0d097221"},"vehicle_type_id":"4","last_reported":1748038224,"current_range_meters":14000,"station_id":"ce4bhap2rcd13ifvqek0","pricing_plan_id":"cebpf4jnsgd1na2vs0mg"},{"bike_id":"ae7cbc34-ce7d-482e-a796-55a2fca31dce","system_id":"levelo_inurba_marseille","lat":43.27306,"lon":5.39086,"is_reserved":false,"is_disabled":false,"rental_uris":{"android":"levelo://app?vid=ae7cbc34-ce7d-482e-a796-55a2fca31dce","ios":"levelo://app?vid=ae7cbc34-ce7d-482e-a796-55a2fca31dce"},"vehicle_type_id":"4","last_reported":1748038224,"current_range_meters":14000,"station_id":"ce4bhgp2rcd13ifvqfe0","pricing_plan_id":"cebpf4jnsgd1na2vs0mg"},{"bike_id":"a68bdcde-4b6f-4c5d-bebd-6a2f9311b618","system_id":"levelo_inurba_marseille","lat":43.28,"lon":5.40015,"is_reserved":false,"is_disabled":false,"rental_uris":{"android":"levelo://app?vid=a68bdcde-4b6f-4c5d-bebd-6a2f9311b618","ios":"levelo://app?vid=a68bdcde-4b6f-4c5d-bebd-6a2f9311b618"},"vehicle_type_id":"4","last_reported":1748038224,"current_range_meters":14000,"station_id":"ce4bho92rcd13ifvqh4g","pricing_plan_id":"cebpf4jnsgd1na2vs0mg"},{"bike_id":"c0b1ba3b-5a5f-4006-92f2-e0b5fde61a71","system_id":"levelo_inurba_marseille","lat":43.269421,"lon":5.402471,"is_reserved":false,"is_disabled":false,"rental_uris":{"android":"levelo://app?vid=c0b1ba3b-5a5f-4006-92f2-e0b5fde61a71","ios":"levelo://app?vid=c0b1ba3b-5a5f-4006-92f2-e0b5fde61a71"},"vehicle_type_id":"4","last_reported":1748038224,"current_range_meters":14000,"station_id":"cjm6bp8fraef2m0cb0m0","pricing_plan_id":"cebpf4jnsgd1na2vs0mg"},{"bike_id":"ed2a2e29-a5bd-41a5-bf3d-07403626c2b7","system_id":"levelo_inurba_marseille","lat":43.31075,"lon":5.38344,"is_reserved":false,"is_disabled":false,"rental_uris":{"android":"levelo://app?vid=ed2a2e29-a5bd-41a5-bf3d-07403626c2b7","ios":"levelo://app?vid=ed2a2e29-a5bd-41a5-bf3d-07403626c2b7"},"vehicle_type_id":"4","last_reported":1748038224,"current_range_meters":14000,"station_id":"ce4bgv92rcd13ifvqcr0","pricing_plan_id":"cebpf4jnsgd1na2vs0mg"},{"bike_id":"3a682c28-a162-4620-933d-7e933746fecf","system_id":"levelo_inurba_marseille","lat":43.22498,"lon":5.34777,"is_reserved":false,"is_disabled":false,"rental_uris":{"android":"levelo://app?vid=3a682c28-a162-4620-933d-7e933746fecf","ios":"levelo://app?vid=3a682c28-a162-4620-933d-7e933746fecf"},"vehicle_type_id":"4","last_reported":1748038224,"current_range_meters":14400,"station_id":"st_cvj5dfep6f1abm77gieg","pricing_plan_id":"cebpf4jnsgd1na2vs0mg"},{"bike_id":"b73593c9-1203-40d1-9fff-a5f1a7704115","system_id":"levelo_inurba_marseille","lat":43.26918,"lon":5.39354,"is_reserved":false,"is_disabled":false,"rental_uris":{"android":"levelo://app?vid=b73593c9-1203-40d1-9fff-a5f1a7704115","ios":"levelo://app?vid=b73593c9-1203-40d1-9fff-a5f1a7704115"},"vehicle_type_id":"4","last_reported":1748038224,"current_range_meters":14400,"station_id":"","pricing_plan_id":"cebpf4jnsgd1na2vs0mg"},{"bike_id":"edf1e5f6-466d-418c-ae20-43a94b385e4e","system_id":"levelo_inurba_marseille","lat":43.2481,"lon":5.37456,"is_reserved":false,"is_disabled":false,"rental_uris":{"android":"levelo://app?vid=edf1e5f6-466d-418c-ae20-43a94b385e4e","ios":"levelo://app?vid=edf1e5f6-466d-418c-ae20-43a94b385e4e"},"vehicle_type_id":"4","last_reported":1748038224,"current_range_meters":14400,"station_id":"ce4bhgh2rcd13ifvqfb0","pricing_plan_id":"cebpf4jnsgd1na2vs0mg"},{"bike_id":"37697a75-9b30-44ff-ad71-f0690e655233","system_id":"levelo_inurba_marseille","lat":43.30134,"lon":5.3877,"is_reserved":false,"is_disabled":true,"rental_uris":{"android":"levelo://app?vid=37697a75-9b30-44ff-ad71-f0690e655233","ios":"levelo://app?vid=37697a75-9b30-44ff-ad71-f0690e655233"},"vehicle_type_id":"4","last_reported":1748038224,"current_range_meters":14400,"station_id":"ce4bghh2rcd13ifvqb60","pricing_plan_id":"cebpf4jnsgd1na2vs0mg"},{"bike_id":"30f69e75-5381-4aa0-a638-db3441567877","system_id":"levelo_inurba_marseille","lat":43.24173,"lon":5.39728,"is_reserved":false,"is_disabled":false,"rental_uris":{"android":"levelo://app?vid=30f69e75-5381-4aa0-a638-db3441567877","ios":"levelo://app?vid=30f69e75-5381-4aa0-a638-db3441567877"},"vehicle_type_id":"4","last_reported":1748038224,"current_range_meters":14400,"station_id":"ce4bhn12rcd13ifvqgpg","pricing_plan_id":"cebpf4jnsgd1na2vs0mg"},{"bike_id":"87b66e56-8135-47d0-8c6c-cae2f742b3d7","system_id":"levelo_inurba_marseille","lat":43.29276,"lon":5.36846,"is_reserved":false,"is_disabled":false,"rental_uris":{"android":"levelo://app?vid=87b66e56-8135-47d0-8c6c-cae2f742b3d7","ios":"levelo://app?vid=87b66e56-8135-47d0-8c6c-cae2f742b3d7"},"vehicle_type_id":"4","last_reported":1748038224,"current_range_meters":14400,"station_id":"ce4bhbp2rcd13ifvqesg","pricing_plan_id":"cebpf4jnsgd1na2vs0mg"},{"bike_id":"d82ba205-9a78-4f40-beb7-1fafcc367a47","system_id":"levelo_inurba_marseille","lat":43.24809,"lon":5.37451,"is_reserved":false,"is_disabled":true,"rental_uris":{"android":"levelo://app?vid=d82ba205-9a78-4f40-beb7-1fafcc367a47","ios":"levelo://app?vid=d82ba205-9a78-4f40-beb7-1fafcc367a47"},"vehicle_type_id":"4","last_reported":1748038224,"current_range_meters":14400,"station_id":"ce4bhgh2rcd13ifvqfb0","pricing_plan_id":"cebpf4jnsgd1na2vs0mg"},{"bike_id":"abf05b27-22c9-4d32-8ae6-dab692deb70d","system_id":"levelo_inurba_marseille","lat":43.30373,"lon":5.42486,"is_reserved":false,"is_disabled":false,"rental_uris":{"android":"levelo://app?vid=abf05b27-22c9-4d32-8ae6-dab692deb70d","ios":"levelo://app?vid=abf05b27-22c9-4d32-8ae6-dab692deb70d"},"vehicle_type_id":"4","last_reported":1748038224,"current_range_meters":14800,"station_id":"ce4bhoh2rcd13ifvqh6g","pricing_plan_id":"cebpf4jnsgd1na2vs0mg"},{"bike_id":"580d8f30-b636-486f-9ab8-15a019f534fa","system_id":"levelo_inurba_marseille","lat":43.31168,"lon":5.38711,"is_reserved":false,"is_disabled":false,"rental_uris":{"android":"levelo://app?vid=580d8f30-b636-486f-9ab8-15a019f534fa","ios":"levelo://app?vid=580d8f30-b636-486f-9ab8-15a019f534fa"},"vehicle_type_id":"4","last_reported":1748038224,"current_range_meters":14800,"station_id":"ce4bgv12rcd13ifvqcp0","pricing_plan_id":"cebpf4jnsgd1na2vs0mg"},{"bike_id":"e2c8027c-3393-4d09-8d6c-99f851335842","system_id":"levelo_inurba_marseille","lat":43.30888,"lon":5.3719,"is_reserved":false,"is_disabled":false,"rental_uris":{"android":"levelo://app?vid=e2c8027c-3393-4d09-8d6c-99f851335842","ios":"levelo://app?vid=e2c8027c-3393-4d09-8d6c-99f851335842"},"vehicle_type_id":"4","last_reported":1748038224,"current_range_meters":14800,"station_id":"ce4bguh2rcd13ifvqckg","pricing_plan_id":"cebpf4jnsgd1na2vs0mg"},{"bike_id":"43444a48-58d2-4c5c-9fb2-96b444465a43","system_id":"levelo_inurba_marseille","lat":43.25113,"lon":5.40325,"is_reserved":false,"is_disabled":false,"rental_uris":{"android":"levelo://app?vid=43444a48-58d2-4c5c-9fb2-96b444465a43","ios":"levelo://app?vid=43444a48-58d2-4c5c-9fb2-96b444465a43"},"vehicle_type_id":"4","last_reported":1748038224,"current_range_meters":14800,"station_id":"ce4bhlh2rcd13ifvqgig","pricing_plan_id":"cebpf4jnsgd1na2vs0mg"},{"bike_id":"67a80ec8-3cb6-4da0-a07e-9c1e58a5c773","system_id":"levelo_inurba_marseille","lat":43.28622,"lon":5.37039,"is_reserved":false,"is_disabled":false,"rental_uris":{"android":"levelo://app?vid=67a80ec8-3cb6-4da0-a07e-9c1e58a5c773","ios":"levelo://app?vid=67a80ec8-3cb6-4da0-a07e-9c1e58a5c773"},"vehicle_type_id":"4","last_reported":1748038224,"current_range_meters":14800,"station_id":"ce4bht12rcd13ifvqi60","pricing_plan_id":"cebpf4jnsgd1na2vs0mg"},{"bike_id":"24760e48-1b8d-4afa-a3c4-e2db899fc070","system_id":"levelo_inurba_marseille","lat":43.28401,"lon":5.37519,"is_reserved":false,"is_disabled":false,"rental_uris":{"android":"levelo://app?vid=24760e48-1b8d-4afa-a3c4-e2db899fc070","ios":"levelo://app?vid=24760e48-1b8d-4afa-a3c4-e2db899fc070"},"vehicle_type_id":"4","last_reported":1748038224,"current_range_meters":14800,"station_id":"ce4bh412rcd13ifvqds0","pricing_plan_id":"cebpf4jnsgd1na2vs0mg"},{"bike_id":"a6718577-5215-4290-945f-384dcbbff7f3","system_id":"levelo_inurba_marseille","lat":43.25492,"lon":5.37658,"is_reserved":false,"is_disabled":false,"rental_uris":{"android":"levelo://app?vid=a6718577-5215-4290-945f-384dcbbff7f3","ios":"levelo://app?vid=a6718577-5215-4290-945f-384dcbbff7f3"},"vehicle_type_id":"4","last_reported":1748038224,"current_range_meters":14800,"station_id":"ce4bhh12rcd13ifvqff0","pricing_plan_id":"cebpf4jnsgd1na2vs0mg"},