{"last_updated":1722701347,"ttl":30,"version":"2.2","data":{"bikes":[{"bike_id":"4bb8f976-d44f-4e2a-823a-fe2929401e8c","system_id":"levelo_inurba_marseille","lat":43.312239,"lon":5.368562,"is_reserved":false,"is_disabled":false,"rental_uris":{"android":"levelo://app?vid=4bb8f976-d44f-4e2a-823a-fe2929401e8c","ios":"levelo://app?vid=4bb8f976-d44f-4e2a-823a-fe2929401e8c"},"vehicle_type_id":"4","last_reported":1722701348,"current_range_meters":31200,"station_id":"ce4bgl92rcd13ifvqbq0","pricing_plan_id":"cebpf4jnsgd1na2vs0mg"},{"bike_id":"0541581b-db8c-4fec-9e9e-a8b2e0a1e126","system_id":"levelo_inurba_marseille","lat":43.309034,"lon":5.371783,"is_reserved":false,"is_disabled":false,"rental_uris":{"android":"levelo://app?vid=0541581b-db8c-4fec-9e9e-a8b2e0a1e126","ios":"levelo://app?vid=0541581b-db8c-4fec-9e9e-a8b2e0a1e126"},"vehicle_type_id":"4","last_reported":1722701348,"current_range_meters":19200,"station_id":"ce4bguh2rcd13ifvqckg","pricing_plan_id":"cebpf4jnsgd1na2vs0mg"},{"bike_id":"15de6da9-004f-440f-9ca0-2f48b64adfcc","system_id":"levelo_inurba_marseille","lat":43.30636,"lon":5.36578,"is_reserved":false,"is_disabled":false,"rental_uris":{"android":"levelo://app?vid=15de6da9-004f-440f-9ca0-2f48b64adfcc","ios":"levelo://app?vid=15de6da9-004f-440f-9ca0-2f48b64adfcc"},"vehicle_type_id":"4","last_reported":1722701348,"current_range_meters":3200,"station_id":"","pricing_plan_id":"cebpf4jnsgd1na2vs0mg"},{"bike_id":"beb29842-ed55-4b2d-8381-0e77c72ff93f","system_id":"levelo_inurba_marseille","lat":43.30937,"lon":5.374823,"is_reserved":false,"is_disabled":false,"rental_uris":{"android":"levelo://app?vid=beb29842-ed55-4b2d-8381-0e77c72ff93f","ios":"levelo://app?vid=beb29842-ed55-4b2d-8381-0e77c72ff93f"},"vehicle_type_id":"4","last_reported":1722701348,"current_range_meters":16800,"station_id":"","pricing_plan_id":"cebpf4jnsgd1na2vs0mg"},{"bike_id":"cdc115a1-b3cd-46f0-8b79-c79e96523c11","system_id":"levelo_inurba_marseille","lat":43.311125,"lon":5.377624,"is_reserved":false,"is_disabled":false,"rental_uris":{"android":"levelo://app?vid=cdc115a1-b3cd-46f0-8b79-c79e96523c11","ios":"levelo://app?vid=cdc115a1-b3cd-46f0-8b79-c79e96523c11"},"vehicle_type_id":"4","last_reported":1722701348,"current_range_meters":14800,"station_id":"ce4bgt92rcd13ifvqcg0","pricing_plan_id":"cebpf4jnsgd1na2vs0mg"},{"bike_id":"4b5ec013-18b3-4788-94b6-a6c2d52eee54","system_id":"levelo_inurba_marseille","lat":43.311125,"lon":5.377624,"is_reserved":false,"is_disabled":false,"rental_uris":{"android":"levelo://app?vid=4b5ec013-18b3-4788-94b6-a6c2d52eee54","ios":"levelo://app?vid=4b5ec013-18b3-4788-94b6-a6c2d52eee54"},"vehicle_type_id":"4","last_reported":1722701348,"current_range_meters":19200,"station_id":"ce4bgt92rcd13ifvqcg0","pricing_plan_id":"cebpf4jnsgd1na2vs0mg"},{"bike_id":"2cc2171b-a01c-47ae-af59-46becf10a792","system_id":"levelo_inurba_marseille","lat":43.317075,"lon":5.377367,"is_reserved":false,"is_disabled":false,"rental_uris":{"android":"levelo://app?vid=2cc2171b-a01c-47ae-af59-46becf10a792","ios":"levelo://app?vid=2cc2171b-a01c-47ae-af59-46becf10a792"},"vehicle_type_id":"4","last_reported":1722701348,"current_range_meters":29600,"station_id":"ce4bgth2rcd13ifvqch0","pricing_plan_id":"cebpf4jnsgd1na2vs0mg"},{"bike_id":"d91b8f31-3821-4fcf-8e9c-d16c57611421","system_id":"levelo_inurba_marseille","lat":43.30924,"lon":5.37871,"is_reserved":false,"is_disabled":false,"rental_uris":{"android":"levelo://app?vid=d91b8f31-3821-4fcf-8e9c-d16c57611421","ios":"levelo://app?vid=d91b8f31-3821-4fcf-8e9c-d16c57611421"},"vehicle_type_id":"4","last_reported":1722701348,"current_range_meters":23200,"station_id":"","pricing_plan_id":"cebpf4jnsgd1na2vs0mg"},{"bike_id":"de98d718-5257-4b9a-8f84-964e169cb359","system_id":"levelo_inurba_marseille","lat":43.3115,"lon":5.379931,"is_reserved":false,"is_disabled":false,"rental_uris":{"android":"levelo://app?vid=de98d718-5257-4b9a-8f84-964e169cb359","ios":"levelo://app?vid=de98d718-5257-4b9a-8f84-964e169cb359"},"vehicle_type_id":"4","last_reported":1722701348,"current_range_meters":0,"station_id":"","pricing_plan_id":"cebpf4jnsgd1na2vs0mg"},{"bike_id":"746cd1d4-ddbc-43ad-bccc-6b9669e9fdd6","system_id":"levelo_inurba_marseille","lat":43.318859,"lon":5.377139,"is_reserved":false,"is_disabled":false,"rental_uris":{"android":"levelo://app?vid=746cd1d4-ddbc-43ad-bccc-6b9669e9fdd6","ios":"levelo://app?vid=746cd1d4-ddbc-43ad-bccc-6b9669e9fdd6"},"vehicle_type_id":"4","last_reported":1722701348,"current_range_meters":11600,"station_id":"","pricing_plan_id":"cebpf4jnsgd1na2vs0mg"},{"bike_id":"cc992b77-052c-4066-b261-50914f46e4e6","system_id":"levelo_inurba_marseille","lat":43.303046,"lon":5.368981,"is_reserved":false,"is_disabled":false,"rental_uris":{"android":"levelo://app?vid=cc992b77-052c-4066-b261-50914f46e4e6","ios":"levelo://app?vid=cc992b77-052c-4066-b261-50914f46e4e6"},"vehicle_type_id":"4","last_reported":1722701348,"current_range_meters":800,"station_id":"ce4bgqh2rcd13ifvqc5g","pricing_plan_id":"cebpf4jnsgd1na2vs0mg"},{"bike_id":"7d26f442-7c92-4f3d-8240-0ca62ad96ee4","system_id":"levelo_inurba_marseille","lat":43.323382,"lon":5.364837,"is_reserved":false,"is_disabled":false,"rental_uris":{"android":"levelo://app?vid=7d26f442-7c92-4f3d-8240-0ca62ad96ee4","ios":"levelo://app?vid=7d26f442-7c92-4f3d-8240-0ca62ad96ee4"},"vehicle_type_id":"4","last_reported":1722701348,"current_range_meters":25200,"station_id":"","pricing_plan_id":"cebpf4jnsgd1na2vs0mg"},{"bike_id":"234b603d-9bb7-4b4d-9c27-29faff2fd368","system_id":"levelo_inurba_marseille","lat":43.308012,"lon":5.381511,"is_reserved":false,"is_disabled":false,"rental_uris":{"android":"levelo://app?vid=234b603d-9bb7-4b4d-9c27-29faff2fd368","ios":"levelo://app?vid=234b603d-9bb7-4b4d-9c27-29faff2fd368"},"vehicle_type_id":"4","last_reported":1722701348,"current_range_meters":22400,"station_id":"ce4bgt12rcd13ifvqce0","pricing_plan_id":"cebpf4jnsgd1na2vs0mg"},{"bike_id":"1a829339-1adf-4e50-8855-42ac20180449","system_id":"levelo_inurba_marseille","lat":43.30803,"lon":5.38146,"is_reserved":false,"is_disabled":false,"rental_uris":{"android":"levelo://app?vid=1a829339-1adf-4e50-8855-42ac20180449","ios":"levelo://app?vid=1a829339-1adf-4e50-8855-42ac20180449"},"vehicle_type_id":"4","last_reported":1722701348,"current_range_meters":0,"station_id":"ce4bgt12rcd13ifvqce0","pricing_plan_id":"cebpf4jnsgd1na2vs0mg"},{"bike_id":"b70bf1a6-8732-4c9a-9412-bd7e5d9daf1b","system_id":"levelo_inurba_marseille","lat":43.308012,"lon":5.381511,"is_reserved":false,"is_disabled":false,"rental_uris":{"android":"levelo://app?vid=b70bf1a6-8732-4c9a-9412-bd7e5d9daf1b","ios":"levelo://app?vid=b70bf1a6-8732-4c9a-9412-bd7e5d9daf1b"},"vehicle_type_id":"4","last_reported":1722701348,"current_range_meters":4400,"station_id":"ce4bgt12rcd13ifvqce0","pricing_plan_id":"cebpf4jnsgd1na2vs0mg"},{"bike_id":"b9dfc6d6-f0c8-416c-ae0b-ba96624adc23","system_id":"levelo_inurba_marseille","lat":43.304606,"lon":5.379026,"is_reserved":false,"is_disabled":false,"rental_uris":{"android":"levelo://app?vid=b9dfc6d6-f0c8-416c-ae0b-ba96624adc23","ios":"levelo://app?vid=b9dfc6d6-f0c8-416c-ae0b-ba96624adc23"},"vehicle_type_id":"4","last_reported":1722701348,"current_range_meters":27200,"station_id":"ce4bgup2rcd13ifvqcn0","pricing_plan_id":"cebpf4jnsgd1na2vs0mg"},{"bike_id":"aa6c3caa-a399-40fe-9908-325748fc4085","system_id":"levelo_inurba_marseille","lat":43.324771,"lon":5.36557,"is_reserved":false,"is_disabled":false,"rental_uris":{"android":"levelo://app?vid=aa6c3caa-a399-40fe-9908-325748fc4085","ios":"levelo://app?vid=aa6c3caa-a399-40fe-9908-325748fc4085"},"vehicle_type_id":"4","last_reported":1722701348,"current_range_meters":13600,"station_id":"ce4bhs12rcd13ifvqhvg","pricing_plan_id":"cebpf4jnsgd1na2vs0mg"},{"bike_id":"0d2c7343-d408-4f1e-b972-d2fd833b381e","system_id":"levelo_inurba_marseille","lat":43.324771,"lon":5.36557,"is_reserved":false,"is_disabled":false,"rental_uris":{"android":"levelo://app?vid=0d2c7343-d408-4f1e-b972-d2fd833b381e","ios":"levelo://app?vid=0d2c7343-d408-4f1e-b972-d2fd833b381e"},"vehicle_type_id":"4","last_reported":1722701348,"current_range_meters":7200,"station_id":"ce4bhs12rcd13ifvqhvg","pricing_plan_id":"cebpf4jnsgd1na2vs0mg"},{"bike_id":"2d103344-4df1-429f-84ee-77a076d3693b","system_id":"levelo_inurba_marseille","lat":43.324771,"lon":5.36557,"is_reserved":false,"is_disabled":false,"rental_uris":{"android":"levelo://app?vid=2d103344-4df1-429f-84ee-77a076d3693b","ios":"levelo://app?vid=2d103344-4df1-429f-84ee-77a076d3693b"},"vehicle_type_id":"4","last_reported":1722701348,"current_range_meters":31200,"station_id":"ce4bhs12rcd13ifvqhvg","pricing_plan_id":"cebpf4jnsgd1na2vs0mg"},{"bike_id":"c5eafbde-38cc-415e-bdbe-642750cf2fc4","system_id":"levelo_inurba_marseille","lat":43.324771,"lon":5.36557,"is_reserved":false,"is_disabled":false,"rental_uris":{"android":"levelo://app?vid=c5eafbde-38cc-415e-bdbe-642750cf2fc4","ios":"levelo://app?vid=c5eafbde-38cc-415e-bdbe-642750cf2fc4"},"vehicle_type_id":"4","last_reported":1722701348,"current_range_meters":16800,"station_id":"ce4bhs12rcd13ifvqhvg","pricing_plan_id":"cebpf4jnsgd1na2vs0mg"},{"bike_id":"cfbb5f88-214f-4b9d-a4eb-4496dbd9322a","system_id":"levelo_inurba_marseille","lat":43.324771,"lon":5.36557,"is_reserved":false,"is_disabled":false,"rental_uris":{"android":"levelo://app?vid=cfbb5f88-214f-4b9d-a4eb-4496dbd9322a","ios":"levelo://app?vid=cfbb5f88-214f-4b9d-a4eb-4496dbd9322a"},"vehicle_type_id":"4","last_reported":1722701348,"current_range_meters":31600,"station_id":"ce4bhs12rcd13ifvqhvg","pricing_plan_id":"cebpf4jnsgd1na2vs0mg"},{"bike_id":"39c3d13d-fef7-48cf-9300-21353a1419e2","system_id":"levelo_inurba_marseille","lat":43.32483,"lon":5.3657,"is_reserved":false,"is_disabled":false,"rental_uris":{"android":"levelo://app?vid=39c3d13d-fef7-48cf-9300-21353a1419e2","ios":"levelo://app?vid=39c3d13d-fef7-48cf-9300-21353a1419e2"},"vehicle_type_id":"4","last_reported":1722701348,"current_range_meters":29600,"station_id":"ce4bhs12rcd13ifvqhvg","pricing_plan_id":"cebpf4jnsgd1na2vs0mg"},{"bike_id":"81148f0e-b8c3-4d4b-a8c5-f0cd922d0ca2","system_id":"levelo_inurba_marseille","lat":43.324771,"lon":5.36557,"is_reserved":false,"is_disabled":false,"rental_uris":{"android":"levelo://app?vid=81148f0e-b8c3-4d4b-a8c5-f0cd922d0ca2","ios":"levelo://app?vid=81148f0e-b8c3-4d4b-a8c5-f0cd922d0ca2"},"vehicle_type_id":"4","last_reported":1722701348,"current_range_meters":31600,"station_id":"ce4bhs12rcd13ifvqhvg","pricing_plan_id":"cebpf4jnsgd1na2vs0mg"},{"bike_id":"41980ad8-51a2-43e4-bb99-3124a61598b8","system_id":"levelo_inurba_marseille","lat":43.324771,"lon":5.36557,"is_reserved":false,"is_disabled":false,"rental_uris":{"android":"levelo://app?vid=41980ad8-51a2-43e4-bb99-3124a61598b8","ios":"levelo://app?vid=41980ad8-51a2-43e4-bb99-3124a61598b8"},"vehicle_type_id":"4","last_reported":1722701348,"current_range_meters":23200,"station_id":"ce4bhs12rcd13ifvqhvg","pricing_plan_id":"cebpf4jnsgd1na2vs0mg"},{"bike_id":"f0d49e54-ec42-4f72-b2eb-18866236d5f3","system_id":"levelo_inurba_marseille","lat":43.302784,"lon":5.377158,"is_reserved":false,"is_disabled":false,"rental_uris":{"android":"levelo://app?vid=f0d49e54-ec42-4f72-b2eb-18866236d5f3","ios":"levelo://app?vid=f0d49e54-ec42-4f72-b2eb-18866236d5f3"},"vehicle_type_id":"4","last_reported":1722701348,"current_range_meters":13600,"station_id":"ce4bguh2rcd13ifvqcj0","pricing_plan_id":"cebpf4jnsgd1na2vs0mg"},{"bike_id":"4dc12a89-c294-4a49-ab6d-b2dc5df447b5","system_id":"levelo_inurba_marseille","lat":43.324771,"lon":5.36557,"is_reserved":false,"is_disabled":false,"rental_uris":{"android":"levelo://app?vid=4dc12a89-c294-4a49-ab6d-b2dc5df447b5","ios":"levelo://app?vid=4dc12a89-c294-4a49-ab6d-b2dc5df447b5"},"vehicle_type_id":"4","last_reported":1722701348,"current_range_meters":31200,"station_id":"ce4bhs12rcd13ifvqhvg","pricing_plan_id":"cebpf4jnsgd1na2vs0mg"},{"bike_id":"df017f18-829e-4b6f-9fc6-1d47ad592712","system_id":"levelo_inurba_marseille","lat":43.30143,"lon":5.37413,"is_reserved":false,"is_disabled":false,"rental_uris":{"android":"levelo://app?vid=df017f18-829e-4b6f-9fc6-1d47ad592712","ios":"levelo://app?vid=df017f18-829e-4b6f-9fc6-1d47ad592712"},"vehicle_type_id":"4","last_reported":1722701348,"current_range_meters":9200,"station_id":"ce4bgs92rcd13ifvqcc0","pricing_plan_id":"cebpf4jnsgd1na2vs0mg"},{"bike_id":"052d6fa4-35ff-4f5e-b480-01424dadafc1","system_id":"levelo_inurba_marseille","lat":43.319935,"lon":5.381699,"is_reserved":false,"is_disabled":false,"rental_uris":{"android":"levelo://app?vid=052d6fa4-35ff-4f5e-b480-01424dadafc1","ios":"levelo://app?vid=052d6fa4-35ff-4f5e-b480-01424dadafc1"},"vehicle_type_id":"4","last_reported":1722701348,"current_range_meters":10000,"station_id":"ce4bhr12rcd13ifvqhpg","pricing_plan_id":"cebpf4jnsgd1na2vs0mg"},{"bike_id":"faf849ef-8eec-4c6c-a9b1-840cf6c50464","system_id":"levelo_inurba_marseille","lat":43.313571,"lon":5.384829,"is_reserved":false,"is_disabled":false,"rental_uris":{"android":"levelo://app?vid=faf849ef-8eec-4c6c-a9b1-840cf6c50464","ios":"levelo://app?vid=faf849ef-8eec-4c6c-a9b1-840cf6c50464"},"vehicle_type_id":"4","last_reported":1722701348,"current_range_meters":27200,"station_id":"ce4bgt92rcd13ifvqcf0","pricing_plan_id":"cebpf4jnsgd1na2vs0mg"},{"bike_id":"e38d50b2-c3a1-4e6b-86b8-e3b5034f32fe","system_id":"levelo_inurba_marseille","lat":43.313571,"lon":5.384829,"is_reserved":false,"is_disabled":false,"rental_uris":{"android":"levelo://app?vid=e38d50b2-c3a1-4e6b-86b8-e3b5034f32fe","ios":"levelo://app?vid=e38d50b2-c3a1-4e6b-86b8-e3b5034f32fe"},"vehicle_type_id":"4","last_reported":1722701348,"current_range_meters":30000,"station_id":"ce4bgt92rcd13ifvqcf0","pricing_plan_id":"cebpf4jnsgd1na2vs0mg"},{"bike_id":"bb20698e-c065-42a1-b879-9a41dd72540f","system_id":"levelo_inurba_marseille","lat":43.299222,"lon":5.365554,"is_reserved":false,"is_disabled":false,"rental_uris":{"android":"levelo://app?vid=bb20698e-c065-42a1-b879-9a41dd72540f","ios":"levelo://app?vid=bb20698e-c065-42a1-b879-9a41dd72540f"},"vehicle_type_id":"4","last_reported":1722701348,"current_range_meters":22000,"station_id":"ce4bgm92rcd13ifvqbr0","pricing_plan_id":"cebpf4jnsgd1na2vs0mg"},{"bike_id":"e6699d5e-25d2-4e5d-a442-c8c3a7060a99","system_id":"levelo_inurba_marseille","lat":43.299755,"lon":5.371715,"is_reserved":false,"is_disabled":false,"rental_uris":{"android":"levelo://app?vid=e6699d5e-25d2-4e5d-a442-c8c3a7060a99","ios":"levelo://app?vid=e6699d5e-25d2-4e5d-a442-c8c3a7060a99"},"vehicle_type_id":"4","last_reported":1722701348,"current_range_meters":0,"station_id":"ce4bgr92rcd13ifvqc7g","pricing_plan_id":"cebpf4jnsgd1na2vs0mg"},{"bike_id":"4c306cd9-ac09-4afa-b2ea-321bc317bfed","system_id":"levelo_inurba_marseille","lat":43.319935,"lon":5.381699,"is_reserved":false,"is_disabled":false,"rental_uris":{"android":"levelo://app?vid=4c306cd9-ac09-4afa-b2ea-321bc317bfed","ios":"levelo://app?vid=4c306cd9-ac09-4afa-b2ea-321bc317bfed"},"vehicle_type_id":"4","last_reported":1722701348,"current_range_meters":25200,"station_id":"ce4bhr12rcd13ifvqhpg","pricing_plan_id":"cebpf4jnsgd1na2vs0mg"},{"bike_id":"09ef751c-0a9f-4898-8f1a-6de254f93805","system_id":"levelo_inurba_marseille","lat":43.298433,"lon":5.362774,"is_reserved":false,"is_disabled":false,"rental_uris":{"android":"levelo://app?vid=09ef751c-0a9f-4898-8f1a-6de254f93805","ios":"levelo://app?vid=09ef751c-0a9f-4898-8f1a-6de254f93805"},"vehicle_type_id":"4","last_reported":1722701348,"current_range_meters":27200,"station_id":"ce4bgpp2rcd13ifvqc3g","pricing_plan_id":"cebpf4jnsgd1na2vs0mg"},{"bike_id":"45e7bd4d-829e-4894-89ed-0dfa13cd3d4f","system_id":"levelo_inurba_marseille","lat":43.29781,"lon":5.37107,"is_reserved":false,"is_disabled":false,"rental_uris":{"android":"levelo://app?vid=45e7bd4d-829e-4894-89ed-0dfa13cd3d4f","ios":"levelo://app?vid=45e7bd4d-829e-4894-89ed-0dfa13cd3d4f"},"vehicle_type_id":"4","last_reported":1722701348,"current_range_meters":400,"station_id":"ce4bgop2rcd13ifvqc1g","pricing_plan_id":"cebpf4jnsgd1na2vs0mg"},{"bike_id":"cac5c10b-b5c8-4cd1-9b89-57594189f83e","system_id":"levelo_inurba_marseille","lat":43.322872,"lon":5.382756,"is_reserved":false,"is_disabled":false,"rental_uris":{"android":"levelo://app?vid=cac5c10b-b5c8-4cd1-9b89-57594189f83e","ios":"levelo://app?vid=cac5c10b-b5c8-4cd1-9b89-57594189f83e"},"vehicle_type_id":"4","last_reported":1722701348,"current_range_meters":24400,"station_id":"ce4bhr12rcd13ifvqhqg","pricing_plan_id":"cebpf4jnsgd1na2vs0mg"},{"bike_id":"694aa667-6a9c-4ba1-9f9f-636d49894d24","system_id":"levelo_inurba_marseille","lat":43.32286,"lon":5.38273,"is_reserved":false,"is_disabled":false,"rental_uris":{"android":"levelo://app?vid=694aa667-6a9c-4ba1-9f9f-636d49894d24","ios":"levelo://app?vid=694aa667-6a9c-4ba1-9f9f-636d49894d24"},"vehicle_type_id":"4","last_reported":1722701348,"current_range_meters":29200,"station_id":"ce4bhr12rcd13ifvqhqg","pricing_plan_id":"cebpf4jnsgd1na2vs0mg"},{"bike_id":"248b7ab9-e0f5-4f1b-9987-39aeada94139","system_id":"levelo_inurba_marseille","lat":43.297794,"lon":5.370888,"is_reserved":false,"is_disabled":false,"rental_uris":{"android":"levelo://app?vid=248b7ab9-e0f5-4f1b-9987-39aeada94139","ios":"levelo://app?vid=248b7ab9-e0f5-4f1b-9987-39aeada94139"},"vehicle_type_id":"4","last_reported":1722701348,"current_range_meters":2800,"station_id":"ce4bgop2rcd13ifvqc1g","pricing_plan_id":"cebpf4jnsgd1na2vs0mg"},{"bike_id":"f4f01933-09ef-4c02-867a-082e621eba71","system_id":"levelo_inurba_marseille","lat":43.322872,"lon":5.382756,"is_reserved":false,"is_disabled":false,"rental_uris":{"android":"levelo://app?vid=f4f01933-09ef-4c02-867a-082e621eba71","ios":"levelo://app?vid=f4f01933-09ef-4c02-867a-082e621eba71"},"vehicle_type_id":"4","last_reported":1722701348,"current_range_meters":12000,"station_id":"ce4bhr12rcd13ifvqhqg","pricing_plan_id":"cebpf4jnsgd1na2vs0mg"},{"bike_id":"ca8a5bd0-77f7-42db-9849-8a963cccbc84","system_id":"levelo_inurba_marseille","lat":43.322872,"lon":5.382756,"is_reserved":false,"is_disabled":false,"rental_uris":{"android":"levelo://app?vid=ca8a5bd0-77f7-42db-9849-8a963cccbc84","ios":"levelo://app?vid=ca8a5bd0-77f7-42db-9849-8a963cccbc84"},"vehicle_type_id":"4","last_reported":1722701348,"current_range_meters":31600,"station_id":"ce4bhr12rcd13ifvqhqg","pricing_plan_id":"cebpf4jnsgd1na2vs0mg"},{"bike_id":"43953dd9-8818-4702-8652-88cf50050965","system_id":"levelo_inurba_marseille","lat":43.297163,"lon":5.365866,"is_reserved":false,"is_disabled":false,"rental_uris":{"android":"levelo://app?vid=43953dd9-8818-4702-8652-88cf50050965","ios":"levelo://app?vid=43953dd9-8818-4702-8652-88cf50050965"},"vehicle_type_id":"4","last_reported":1722701348,"current_range_meters":14000,"station_id":"ce4bgn12rcd13ifvqbt0","pricing_plan_id":"cebpf4jnsgd1na2vs0mg"},{"bike_id":"59b0389a-4d47-4b9c-860c-91503ec76eae","system_id":"levelo_inurba_marseille","lat":43.297163,"lon":5.365866,"is_reserved":false,"is_disabled":false,"rental_uris":{"android":"levelo://app?vid=59b0389a-4d47-4b9c-860c-91503ec76eae","ios":"levelo://app?vid=59b0389a-4d47-4b9c-860c-91503ec76eae"},"vehicle_type_id":"4","last_reported":1722701348,"current_range_meters":2000,"station_id":"ce4bgn12rcd13ifvqbt0","pricing_plan_id":"cebpf4jnsgd1na2vs0mg"},{"bike_id":"8f02f922-416a-4fcc-8682-182d584eb765","system_id":"levelo_inurba_marseille","lat":43.2968,"lon":5.37291,"is_reserved":false,"is_disabled":false,"rental_uris":{"android":"levelo://app?vid=8f02f922-416a-4fcc-8682-182d584eb765","ios":"levelo://app?vid=8f02f922-416a-4fcc-8682-182d584eb765"},"vehicle_type_id":"4","last_reported":1722701348,"current_range_meters":2400,"station_id":"ce4bgk12rcd13ifvqbj0","pricing_plan_id":"cebpf4jnsgd1na2vs0mg"},{"bike_id":"2914a6ce-7a25-4971-bc58-7eb345d80670","system_id":"levelo_inurba_marseille","lat":43.32931,"lon":5.36596,"is_reserved":false,"is_disabled":false,"rental_uris":{"android":"levelo://app?vid=2914a6ce-7a25-4971-bc58-7eb345d80670","ios":"levelo://app?vid=2914a6ce-7a25-4971-bc58-7eb345d80670"},"vehicle_type_id":"4","last_reported":1722701348,"current_range_meters":27600,"station_id":"","pricing_plan_id":"cebpf4jnsgd1na2vs0mg"},{"bike_id":"abb9ce0a-6b4b-442c-a769-b1c08daa6106","system_id":"levelo_inurba_marseille","lat":43.316199,"lon":5.389296,"is_reserved":false,"is_disabled":false,"rental_uris":{"android":"levelo://app?vid=abb9ce0a-6b4b-442c-a769-b1c08daa6106","ios":"levelo://app?vid=abb9ce0a-6b4b-442c-a769-b1c08daa6106"},"vehicle_type_id":"4","last_reported":1722701348,"current_range_meters":6400,"station_id":"","pricing_plan_id":"cebpf4jnsgd1na2vs0mg"},{"bike_id":"413aa340-86ad-463b-84df-c2a98f98313c","system_id":"levelo_inurba_marseille","lat":43.296131,"lon":5.370791,"is_reserved":false,"is_disabled":false,"rental_uris":{"android":"levelo://app?vid=413aa340-86ad-463b-84df-c2a98f98313c","ios":"levelo://app?vid=413aa340-86ad-463b-84df-c2a98f98313c"},"vehicle_type_id":"4","last_reported":1722701348,"current_range_meters":22800,"station_id":"ce4bgnh2rcd13ifvqc0g","pricing_plan_id":"cebpf4jnsgd1na2vs0mg"},{"bike_id":"031af426-63ba-4977-b2a3-604caaaa0347","system_id":"levelo_inurba_marseille","lat":43.29573,"lon":5.367355,"is_reserved":false,"is_disabled":false,"rental_uris":{"android":"levelo://app?vid=031af426-63ba-4977-b2a3-604caaaa0347","ios":"levelo://app?vid=031af426-63ba-4977-b2a3-604caaaa0347"},"vehicle_type_id":"4","last_reported":1722701348,"current_range_meters":2400,"station_id":"ce4bgph2rcd13ifvqc2g","pricing_plan_id":"cebpf4jnsgd1na2vs0mg"},{"bike_id":"49fd14fd-507d-424d-97e1-ac64d0bfba8f","system_id":"levelo_inurba_marseille","lat":43.29573,"lon":5.367355,"is_reserved":false,"is_disabled":false,"rental_uris":{"android":"levelo://app?vid=49fd14fd-507d-424d-97e1-ac64d0bfba8f","ios":"levelo://app?vid=49fd14fd-507d-424d-97e1-ac64d0bfba8f"},"vehicle_type_id":"4","last_reported":1722701348,"current_range_meters":800,"station_id":"ce4bgph2rcd13ifvqc2g","pricing_plan_id":"cebpf4jnsgd1na2vs0mg"},{"bike_id":"6029bd32-497c-45d5-83b3-ff553932f2a5","system_id":"levelo_inurba_marseille","lat":43.296921,"lon":5.376579,"is_reserved":false,"is_disabled":false,"rental_uris":{"android":"levelo://app?vid=6029bd32-497c-45d5-83b3-ff553932f2a5","ios":"levelo://app?vid=6029bd32-497c-45d5-83b3-ff553932f2a5"},"vehicle_type_id":"4","last_reported":1722701348,"current_range_meters":25600,"station_id":"ce4bgkh2rcd13ifvqbl0","pricing_plan_id":"cebpf4jnsgd1na2vs0mg"},{"bike_id":"7fe8c86a-9bbb-4a10-b4ad-227b4b7128bd","system_id":"levelo_inurba_marseille","lat":43.290104,"lon":5.356111,"is_reserved":false,"is_disabled":false,"rental_uris":{"android":"levelo://app?vid=7fe8c86a-9bbb-4a10-b4ad-227b4b7128bd","ios":"levelo://app?vid=7fe8c86a-9bbb-4a10-b4ad-227b4b7128bd"},"vehicle_type_id":"4","last_reported":1722701348,"current_range_meters":14400,"station_id":"ce4bhb92rcd13ifvqen0","pricing_plan_id":"cebpf4jnsgd1na2vs0mg"},{"bike_id":"33121724-ad9c-4879-9790-7f9ad0a41fac","system_id":"levelo_inurba_marseille","lat":43.295983,"lon":5.37666,"is_reserved":false,"is_disabled":false,"rental_uris":{"android":"levelo://app?vid=33121724-ad9c-4879-9790-7f9ad0a41fac","ios":"levelo://app?vid=33121724-ad9c-4879-9790-7f9ad0a41fac"},"vehicle_type_id":"4","last_reported":1722701348,"current_range_meters":5200,"station_id":"","pricing_plan_id":"cebpf4jnsgd1na2vs0mg"},{"bike_id":"7f89d859-9707-4039-8882-d0ced17e35f4","system_id":"levelo_inurba_marseille","lat":43.29984,"lon":5.38479,"is_reserved":false,"is_disabled":false,"rental_uris":{"android":"levelo://app?vid=7f89d859-9707-4039-8882-d0ced17e35f4","ios":"levelo://app?vid=7f89d859-9707-4039-8882-d0ced17e35f4"},"vehicle_type_id":"4","last_reported":1722701348,"current_range_meters":2800,"station_id":"ce4bgj92rcd13ifvqbd0","pricing_plan_id":"cebpf4jnsgd1na2vs0mg"},{"bike_id":"234692b4-fe00-44f6-b2c1-6b2143eca585","system_id":"levelo_inurba_marseille","lat":43.2958,"lon":5.376577,"is_reserved":false,"is_disabled":false,"rental_uris":{"android":"levelo://app?vid=234692b4-fe00-44f6-b2c1-6b2143eca585","ios":"levelo://app?vid=234692b4-fe00-44f6-b2c1-6b2143eca585"},"vehicle_type_id":"4","last_reported":1722701348,"current_range_meters":14400,"station_id":"","pricing_plan_id":"cebpf4jnsgd1na2vs0mg"},{"bike_id":"26a949cf-6c45-4503-b9eb-0561497b5d97","system_id":"levelo_inurba_marseille","lat":43.29977,"lon":5.38485,"is_reserved":false,"is_disabled":false,"rental_uris":{"android":"levelo://app?vid=26a949cf-6c45-4503-b9eb-0561497b5d97","ios":"levelo://app?vid=26a949cf-6c45-4503-b9eb-0561497b5d97"},"vehicle_type_id":"4","last_reported":1722701348,"current_range_meters":14800,"station_id":"ce4bgj92rcd13ifvqbd0","pricing_plan_id":"cebpf4jnsgd1na2vs0mg"},{"bike_id":"8d41f63b-07da-4e13-b25d-b3ea42f0abba","system_id":"levelo_inurba_marseille","lat":43.295279,"lon":5.375048,"is_reserved":false,"is_disabled":false,"rental_uris":{"android":"levelo://app?vid=8d41f63b-07da-4e13-b25d-b3ea42f0abba","ios":"levelo://app?vid=8d41f63b-07da-4e13-b25d-b3ea42f0abba"},"vehicle_type_id":"4","last_reported":1722701348,"current_range_meters":2400,"station_id":"ce4bgkp2rcd13ifvqbmg","pricing_plan_id":"cebpf4jnsgd1na2vs0mg"},{"bike_id":"00d46d32-054c-42cb-b4a3-27b0da08a934","system_id":"levelo_inurba_marseille","lat":43.32486,"lon":5.3863,"is_reserved":false,"is_disabled":false,"rental_uris":{"android":"levelo://app?vid=00d46d32-054c-42cb-b4a3-27b0da08a934","ios":"levelo://app?vid=00d46d32-054c-42cb-b4a3-27b0da08a934"},"vehicle_type_id":"4","last_reported":1722701348,"current_range_meters":7200,"station_id":"","pricing_plan_id":"cebpf4jnsgd1na2vs0mg"},{"bike_id":"73189b23-e502-40e6-a497-88a5355a0d2b","system_id":"levelo_inurba_marseille","lat":43.32367,"lon":5.388836,"is_reserved":false,"is_disabled":false,"rental_uris":{"android":"levelo://app?vid=73189b23-e502-40e6-a497-88a5355a0d2b","ios":"levelo://app?vid=73189b23-e502-40e6-a497-88a5355a0d2b"},"vehicle_type_id":"4","last_reported":1722701348,"current_range_meters":9200,"station_id":"ce4bhqp2rcd13ifvqhog","pricing_plan_id":"cebpf4jnsgd1na2vs0mg"},{"bike_id":"b3d0abb9-1e65-4eb4-a5eb-9cafb751e1b9","system_id":"levelo_inurba_marseille","lat":43.32367,"lon":5.388836,"is_reserved":false,"is_disabled":false,"rental_uris":{"android":"levelo://app?vid=b3d0abb9-1e65-4eb4-a5eb-9cafb751e1b9","ios":"levelo://app?vid=b3d0abb9-1e65-4eb4-a5eb-9cafb751e1b9"},"vehicle_type_id":"4","last_reported":1722701348,"current_range_meters":0,"station_id":"ce4bhqp2rcd13ifvqhog","pricing_plan_id":"cebpf4jnsgd1na2vs0mg"},{"bike_id":"21106823-58b2-4f90-a112-112b6c766bf7","system_id":"levelo_inurba_marseille","lat":43.32367,"lon":5.38885,"is_reserved":false,"is_disabled":false,"rental_uris":{"android":"levelo://app?vid=21106823-58b2-4f90-a112-112b6c766bf7","ios":"levelo://app?vid=21106823-58b2-4f90-a112-112b6c766bf7"},"vehicle_type_id":"4","last_reported":1722701348,"current_range_meters":12000,"station_id":"ce4bhqp2rcd13ifvqhog","pricing_plan_id":"cebpf4jnsgd1na2vs0mg"},{"bike_id":"b15e94c8-cfa3-4dc2-a474-84188ff4b48b","system_id":"levelo_inurba_marseille","lat":43.32367,"lon":5.38885,"is_reserved":false,"is_disabled":false,"rental_uris":{"android":"levelo://app?vid=b15e94c8-cfa3-4dc2-a474-84188ff4b48b","ios":"levelo://app?vid=b15e94c8-cfa3-4dc2-a474-84188ff4b48b"},"vehicle_type_id":"4","last_reported":1722701348,"current_range_meters":0,"station_id":"ce4bhqp2rcd13ifvqhog","pricing_plan_id":"cebpf4jnsgd1na2vs0mg"},{"bike_id":"209365fe-d047-417a-8921-c42ccbf7a286","system_id":"levelo_inurba_marseille","lat":43.32367,"lon":5.388836,"is_reserved":false,"is_disabled":false,"rental_uris":{"android":"levelo://app?vid=209365fe-d047-417a-8921-c42ccbf7a286","ios":"levelo://app?vid=209365fe-d047-417a-8921-c42ccbf7a286"},"vehicle_type_id":"4","last_reported":1722701348,"current_range_meters":26800,"station_id":"ce4bhqp2rcd13ifvqhog","pricing_plan_id":"cebpf4jnsgd1na2vs0mg"},{"bike_id":"49a089b9-6096-4568-8735-e222387a60e0","system_id":"levelo_inurba_marseille","lat":43.32367,"lon":5.388836,"is_reserved":false,"is_disabled":false,"rental_uris":{"android":"levelo://app?vid=49a089b9-6096-4568-8735-e222387a60e0","ios":"levelo://app?vid=49a089b9-6096-4568-8735-e222387a60e0"},"vehicle_type_id":"4","last_reported":1722701348,"current_range_meters":400,"station_id":"ce4bhqp2rcd13ifvqhog","pricing_plan_id":"cebpf4jnsgd1na2vs0mg"},{"bike_id":"4199ff62-d353-49f9-bdce-e365260c8104","system_id":"levelo_inurba_marseille","lat":43.29495,"lon":5.37774,"is_reserved":false,"is_disabled":false,"rental_uris":{"android":"levelo://app?vid=4199ff62-d353-49f9-bdce-e365260c8104","ios":"levelo://app?vid=4199ff62-d353-49f9-bdce-e365260c8104"},"vehicle_type_id":"4","last_reported":1722701348,"current_range_meters":30000,"station_id":"","pricing_plan_id":"cebpf4jnsgd1na2vs0mg"},{"bike_id":"bf83bea6-0435-42b4-9f41-51890ee4865a","system_id":"levelo_inurba_marseille","lat":43.29602,"lon":5.381084,"is_reserved":false,"is_disabled":false,"rental_uris":{"android":"levelo://app?vid=bf83bea6-0435-42b4-9f41-51890ee4865a","ios":"levelo://app?vid=bf83bea6-0435-42b4-9f41-51890ee4865a"},"vehicle_type_id":"4","last_reported":1722701348,"current_range_meters":12800,"station_id":"ce4bgl12rcd13ifvqbo0","pricing_plan_id":"cebpf4jnsgd1na2vs0mg"},{"bike_id":"9cec724c-6fb1-4cb1-af65-e8f9fc0d2bb6","system_id":"levelo_inurba_marseille","lat":43.293259,"lon":5.371586,"is_reserved":false,"is_disabled":false,"rental_uris":{"android":"levelo://app?vid=9cec724c-6fb1-4cb1-af65-e8f9fc0d2bb6","ios":"levelo://app?vid=9cec724c-6fb1-4cb1-af65-e8f9fc0d2bb6"},"vehicle_type_id":"4","last_reported":1722701348,"current_range_meters":0,"station_id":"ce4bgh92rcd13ifvqb40","pricing_plan_id":"cebpf4jnsgd1na2vs0mg"},{"bike_id":"d7f29b1c-6c61-4e6b-b941-59c3c687b8cf","system_id":"levelo_inurba_marseille","lat":43.29283,"lon":5.36366,"is_reserved":false,"is_disabled":false,"rental_uris":{"android":"levelo://app?vid=d7f29b1c-6c61-4e6b-b941-59c3c687b8cf","ios":"levelo://app?vid=d7f29b1c-6c61-4e6b-b941-59c3c687b8cf"},"vehicle_type_id":"4","last_reported":1722701348,"current_range_meters":0,"station_id":"","pricing_plan_id":"cebpf4jnsgd1na2vs0mg"},{"bike_id":"9c9fbe07-4ed3-473f-aca9-0717eb87ab91","system_id":"levelo_inurba_marseille","lat":43.2929,"lon":5.3746,"is_reserved":false,"is_disabled":false,"rental_uris":{"android":"levelo://app?vid=9c9fbe07-4ed3-473f-aca9-0717eb87ab91","ios":"levelo://app?vid=9c9fbe07-4ed3-473f-aca9-0717eb87ab91"},"vehicle_type_id":"4","last_reported":1722701348,"current_range_meters":10000,"station_id":"ce4bgi12rcd13ifvqb70","pricing_plan_id":"cebpf4jnsgd1na2vs0mg"},{"bike_id":"dc84f22e-fdf1-4e23-add5-0b15375c9899","system_id":"levelo_inurba_marseille","lat":43.293009,"lon":5.374584,"is_reserved":false,"is_disabled":false,"rental_uris":{"android":"levelo://app?vid=dc84f22e-fdf1-4e23-add5-0b15375c9899","ios":"levelo://app?vid=dc84f22e-fdf1-4e23-add5-0b15375c9899"},"vehicle_type_id":"4","last_reported":1722701348,"current_range_meters":1600,"station_id":"ce4bgi12rcd13ifvqb70","pricing_plan_id":"cebpf4jnsgd1na2vs0mg"},{"bike_id":"27493db1-d49e-4dc6-8a3d-a15531aa53bf","system_id":"levelo_inurba_marseille","lat":43.282754,"lon":5.350519,"is_reserved":false,"is_disabled":false,"rental_uris":{"android":"levelo://app?vid=27493db1-d49e-4dc6-8a3d-a15531aa53bf","ios":"levelo://app?vid=27493db1-d49e-4dc6-8a3d-a15531aa53bf"},"vehicle_type_id":"4","last_reported":1722701348,"current_range_meters":0,"station_id":"ce4bhbp2rcd13ifvqerg","pricing_plan_id":"cebpf4jnsgd1na2vs0mg"},{"bike_id":"c86d06c5-8b9a-4e03-a983-ff8027fb40ee","system_id":"levelo_inurba_marseille","lat":43.29535,"lon":5.38263,"is_reserved":false,"is_disabled":false,"rental_uris":{"android":"levelo://app?vid=c86d06c5-8b9a-4e03-a983-ff8027fb40ee","ios":"levelo://app?vid=c86d06c5-8b9a-4e03-a983-ff8027fb40ee"},"vehicle_type_id":"4","last_reported":1722701348,"current_range_meters":1600,"station_id":"","pricing_plan_id":"cebpf4jnsgd1na2vs0mg"},{"bike_id":"09a76d3d-8a06-41f7-bdc2-5461a3158d57","system_id":"levelo_inurba_marseille","lat":43.2923,"lon":5.36066,"is_reserved":false,"is_disabled":false,"rental_uris":{"android":"levelo://app?vid=09a76d3d-8a06-41f7-bdc2-5461a3158d57","ios":"levelo://app?vid=09a76d3d-8a06-41f7-bdc2-5461a3158d57"},"vehicle_type_id":"4","last_reported":1722701348,"current_range_meters":0,"station_id":"ce4bhbh2rcd13ifvqeqg","pricing_plan_id":"cebpf4jnsgd1na2vs0mg"},{"bike_id":"0c8ac1e1-5ce9-45fa-8a8b-dd2e3f0df358","system_id":"levelo_inurba_marseille","lat":43.292005,"lon":5.357875,"is_reserved":false,"is_disabled":false,"rental_uris":{"android":"levelo://app?vid=0c8ac1e1-5ce9-45fa-8a8b-dd2e3f0df358","ios":"levelo://app?vid=0c8ac1e1-5ce9-45fa-8a8b-dd2e3f0df358"},"vehicle_type_id":"4","last_reported":1722701348,"current_range_meters":0,"station_id":"ce4bhb12rcd13ifvqel0","pricing_plan_id":"cebpf4jnsgd1na2vs0mg"},{"bike_id":"d6b1a6bc-3368-4ec4-b8e4-07003c448fd8","system_id":"levelo_inurba_marseille","lat":43.292311,"lon":5.360731,"is_reserved":false,"is_disabled":false,"rental_uris":{"android":"levelo://app?vid=d6b1a6bc-3368-4ec4-b8e4-07003c448fd8","ios":"levelo://app?vid=d6b1a6bc-3368-4ec4-b8e4-07003c448fd8"},"vehicle_type_id":"4","last_reported":1722701348,"current_range_meters":800,"station_id":"ce4bhbh2rcd13ifvqeqg","pricing_plan_id":"cebpf4jnsgd1na2vs0mg"},{"bike_id":"0300658c-658b-4d03-9b4c-128258ebb93a","system_id":"levelo_inurba_marseille","lat":43.292311,"lon":5.360731,"is_reserved":false,"is_disabled":false,"rental_uris":{"android":"levelo://app?vid=0300658c-658b-4d03-9b4c-128258ebb93a","ios":"levelo://app?vid=0300658c-658b-4d03-9b4c-128258ebb93a"},"vehicle_type_id":"4","last_reported":1722701348,"current_range_meters":26800,"station_id":"ce4bhbh2rcd13ifvqeqg","pricing_plan_id":"cebpf4jnsgd1na2vs0mg"},{"bike_id":"cbe1cac1-dffb-48d9-b129-6c61733ddd7b","system_id":"levelo_inurba_marseille","lat":43.291994,"lon":5.357886,"is_reserved":false,"is_disabled":false,"rental_uris":{"android":"levelo://app?vid=cbe1cac1-dffb-48d9-b129-6c61733ddd7b","ios":"levelo://app?vid=cbe1cac1-dffb-48d9-b129-6c61733ddd7b"},"vehicle_type_id":"4","last_reported":1722701348,"current_range_meters":800,"station_id":"ce4bhb12rcd13ifvqel0","pricing_plan_id":"cebpf4jnsgd1na2vs0mg"},{"bike_id":"de4daf49-dfa1-4be7-a80d-3dd393ec5715","system_id":"levelo_inurba_marseille","lat":43.313291,"lon":5.396838,"is_reserved":false,"is_disabled":false,"rental_uris":{"android":"levelo://app?vid=de4daf49-dfa1-4be7-a80d-3dd393ec5715","ios":"levelo://app?vid=de4daf49-dfa1-4be7-a80d-3dd393ec5715"},"vehicle_type_id":"4","last_reported":1722701348,"current_range_meters":24000,"station_id":"ce4bgvp2rcd13ifvqcu0","pricing_plan_id":"cebpf4jnsgd1na2vs0mg"},{"bike_id":"4bab053f-3c39-42d6-9f95-fb191379fd5e","system_id":"levelo_inurba_marseille","lat":43.313291,"lon":5.396838,"is_reserved":false,"is_disabled":false,"rental_uris":{"android":"levelo://app?vid=4bab053f-3c39-42d6-9f95-fb191379fd5e","ios":"levelo://app?vid=4bab053f-3c39-42d6-9f95-fb191379fd5e"},"vehicle_type_id":"4","last_reported":1722701348,"current_range_meters":14400,"station_id":"ce4bgvp2rcd13ifvqcu0","pricing_plan_id":"cebpf4jnsgd1na2vs0mg"},{"bike_id":"e7a62b08-6beb-49e0-adb0-0646d0e4b2b5","system_id":"levelo_inurba_marseille","lat":43.313291,"lon":5.396838,"is_reserved":false,"is_disabled":false,"rental_uris":{"android":"levelo://app?vid=e7a62b08-6beb-49e0-adb0-0646d0e4b2b5","ios":"levelo://app?vid=e7a62b08-6beb-49e0-adb0-0646d0e4b2b5"},"vehicle_type_id":"4","last_reported":1722701348,"current_range_meters":30000,"station_id":"ce4bgvp2rcd13ifvqcu0","pricing_plan_id":"cebpf4jnsgd1na2vs0mg"},{"bike_id":"d6823751-b1cf-4369-a0cd-58043a0ce2c2","system_id":"levelo_inurba_marseille","lat":43.323622,"lon":5.394075,"is_reserved":false,"is_disabled":false,"rental_uris":{"android":"levelo://app?vid=d6823751-b1cf-4369-a0cd-58043a0ce2c2","ios":"levelo://app?vid=d6823751-b1cf-4369-a0cd-58043a0ce2c2"},"vehicle_type_id":"4","last_reported":1722701348,"current_range_meters":25200,"station_id":"","pricing_plan_id":"cebpf4jnsgd1na2vs0mg"},{"bike_id":"13518d3e-442c-48f6-b2ae-278043262bfa","system_id":"levelo_inurba_marseille","lat":43.290631,"lon":5.359244,"is_reserved":false,"is_disabled":false,"rental_uris":{"android":"levelo://app?vid=13518d3e-442c-48f6-b2ae-278043262bfa","ios":"levelo://app?vid=13518d3e-442c-48f6-b2ae-278043262bfa"},"vehicle_type_id":"4","last_reported":1722701348,"current_range_meters":24000,"station_id":"ce4bha92rcd13ifvqeg0","pricing_plan_id":"cebpf4jnsgd1na2vs0mg"},{"bike_id":"e1e68dd0-4e00-480c-b81d-cfd9876ea79c","system_id":"levelo_inurba_marseille","lat":43.290624,"lon":5.359245,"is_reserved":false,"is_disabled":false,"rental_uris":{"android":"levelo://app?vid=e1e68dd0-4e00-480c-b81d-cfd9876ea79c","ios":"levelo://app?vid=e1e68dd0-4e00-480c-b81d-cfd9876ea79c"},"vehicle_type_id":"4","last_reported":1722701348,"current_range_meters":19600,"station_id":"ce4bha92rcd13ifvqeg0","pricing_plan_id":"cebpf4jnsgd1na2vs0mg"},{"bike_id":"5355c60c-8ad2-462b-a557-bede737b74c3","system_id":"levelo_inurba_marseille","lat":43.290319,"lon":5.375732,"is_reserved":false,"is_disabled":false,"rental_uris":{"android":"levelo://app?vid=5355c60c-8ad2-462b-a557-bede737b74c3","ios":"levelo://app?vid=5355c60c-8ad2-462b-a557-bede737b74c3"},"vehicle_type_id":"4","last_reported":1722701348,"current_range_meters":0,"station_id":"ce4bh692rcd13ifvqe90","pricing_plan_id":"cebpf4jnsgd1na2vs0mg"},{"bike_id":"c2182816-8402-407f-a9e1-f50bbaf5ea8c","system_id":"levelo_inurba_marseille","lat":43.29428,"lon":5.38625,"is_reserved":false,"is_disabled":false,"rental_uris":{"android":"levelo://app?vid=c2182816-8402-407f-a9e1-f50bbaf5ea8c","ios":"levelo://app?vid=c2182816-8402-407f-a9e1-f50bbaf5ea8c"},"vehicle_type_id":"4","last_reported":1722701348,"current_range_meters":0,"station_id":"ce4bh2h2rcd13ifvqdh0","pricing_plan_id":"cebpf4jnsgd1na2vs0mg"},{"bike_id":"245b95f4-03bb-4093-a276-ca98d5b19d7b","system_id":"levelo_inurba_marseille","lat":43.290327,"lon":5.375711,"is_reserved":false,"is_disabled":false,"rental_uris":{"android":"levelo://app?vid=245b95f4-03bb-4093-a276-ca98d5b19d7b","ios":"levelo://app?vid=245b95f4-03bb-4093-a276-ca98d5b19d7b"},"vehicle_type_id":"4","last_reported":1722701348,"current_range_meters":6000,"station_id":"ce4bh692rcd13ifvqe90","pricing_plan_id":"cebpf4jnsgd1na2vs0mg"},{"bike_id":"7e24b6ad-2cad-4505-a9d4-69d2b9156170","system_id":"levelo_inurba_marseille","lat":43.290327,"lon":5.375711,"is_reserved":false,"is_disabled":false,"rental_uris":{"android":"levelo://app?vid=7e24b6ad-2cad-4505-a9d4-69d2b9156170","ios":"levelo://app?vid=7e24b6ad-2cad-4505-a9d4-69d2b9156170"},"vehicle_type_id":"4","last_reported":1722701348,"current_range_meters":2000,"station_id":"ce4bh692rcd13ifvqe90","pricing_plan_id":"cebpf4jnsgd1na2vs0mg"},{"bike_id":"a64e3220-f864-47b1-af74-d13699695c1f","system_id":"levelo_inurba_marseille","lat":43.290327,"lon":5.375711,"is_reserved":false,"is_disabled":false,"rental_uris":{"android":"levelo://app?vid=a64e3220-f864-47b1-af74-d13699695c1f","ios":"levelo://app?vid=a64e3220-f864-47b1-af74-d13699695c1f"},"vehicle_type_id":"4","last_reported":1722701348,"current_range_meters":0,"station_id":"ce4bh692rcd13ifvqe90","pricing_plan_id":"cebpf4jnsgd1na2vs0mg"},{"bike_id":"212ad77a-4738-4081-a87d-633cb91ce4f8","system_id":"levelo_inurba_marseille","lat":43.29032,"lon":5.3755,"is_reserved":false,"is_disabled":false,"rental_uris":{"android":"levelo://app?vid=212ad77a-4738-4081-a87d-633cb91ce4f8","ios":"levelo://app?vid=212ad77a-4738-4081-a87d-633cb91ce4f8"},"vehicle_type_id":"4","last_reported":1722701348,"current_range_meters":8000,"station_id":"ce4bh692rcd13ifvqe90","pricing_plan_id":"cebpf4jnsgd1na2vs0mg"},{"bike_id":"31b17498-5486-4301-b00f-e4229ad8b8fb","system_id":"levelo_inurba_marseille","lat":43.289468,"lon":5.363719,"is_reserved":false,"is_disabled":false,"rental_uris":{"android":"levelo://app?vid=31b17498-5486-4301-b00f-e4229ad8b8fb","ios":"levelo://app?vid=31b17498-5486-4301-b00f-e4229ad8b8fb"},"vehicle_type_id":"4","last_reported":1722701348,"current_range_meters":24400,"station_id":"ce4bhc92rcd13ifvqetg","pricing_plan_id":"cebpf4jnsgd1na2vs0mg"},{"bike_id":"f758d5c6-f894-4be3-97f0-6da388bd4a4d","system_id":"levelo_inurba_marseille","lat":43.29415,"lon":5.38629,"is_reserved":false,"is_disabled":false,"rental_uris":{"android":"levelo://app?vid=f758d5c6-f894-4be3-97f0-6da388bd4a4d","ios":"levelo://app?vid=f758d5c6-f894-4be3-97f0-6da388bd4a4d"},"vehicle_type_id":"4","last_reported":1722701348,"current_range_meters":0,"station_id":"ce4bh2h2rcd13ifvqdh0","pricing_plan_id":"cebpf4jnsgd1na2vs0mg"},{"bike_id":"6b612cc3-13d3-4589-ade1-640a7465741a","system_id":"levelo_inurba_marseille","lat":43.289468,"lon":5.363719,"is_reserved":false,"is_disabled":false,"rental_uris":{"android":"levelo://app?vid=6b612cc3-13d3-4589-ade1-640a7465741a","ios":"levelo://app?vid=6b612cc3-13d3-4589-ade1-640a7465741a"},"vehicle_type_id":"4","last_reported":1722701348,"current_range_meters":0,"station_id":"ce4bhc92rcd13ifvqetg","pricing_plan_id":"cebpf4jnsgd1na2vs0mg"},{"bike_id":"fe2785e6-3615-440c-a422-9af571f1b858","system_id":"levelo_inurba_marseille","lat":43.304274,"lon":5.397513,"is_reserved":false,"is_disabled":false,"rental_uris":{"android":"levelo://app?vid=fe2785e6-3615-440c-a422-9af571f1b858","ios":"levelo://app?vid=fe2785e6-3615-440c-a422-9af571f1b858"},"vehicle_type_id":"4","last_reported":1722701348,"current_range_meters":12000,"station_id":"ce4bh092rcd13ifvqd20","pricing_plan_id":"cebpf4jnsgd1na2vs0mg"},{"bike_id":"1b8761d7-44d7-4a20-9edc-762ad2a4db6b","system_id":"levelo_inurba_marseille","lat":43.292644,"lon":5.384257,"is_reserved":false,"is_disabled":false,"rental_uris":{"android":"levelo://app?vid=1b8761d7-44d7-4a20-9edc-762ad2a4db6b","ios":"levelo://app?vid=1b8761d7-44d7-4a20-9edc-762ad2a4db6b"},"vehicle_type_id":"4","last_reported":1722701348,"current_range_meters":0,"station_id":"ce4bh692rcd13ifvqea0","pricing_plan_id":"cebpf4jnsgd1na2vs0mg"},{"bike_id":"1569ff0b-5064-45c6-84fb-267045993217","system_id":"levelo_inurba_marseille","lat":43.292644,"lon":5.384257,"is_reserved":false,"is_disabled":false,"rental_uris":{"android":"levelo://app?vid=1569ff0b-5064-45c6-84fb-267045993217","ios":"levelo://app?vid=1569ff0b-5064-45c6-84fb-267045993217"},"vehicle_type_id":"4","last_reported":1722701348,"current_range_meters":17600,"station_id":"ce4bh692rcd13ifvqea0","pricing_plan_id":"cebpf4jnsgd1na2vs0mg"},{"bike_id":"0eca2b8b-36c5-4e3b-872a-b8e6e5582a24","system_id":"levelo_inurba_marseille","lat":43.292644,"lon":5.384257,"is_reserved":false,"is_disabled":false,"rental_uris":{"android":"levelo://app?vid=0eca2b8b-36c5-4e3b-872a-b8e6e5582a24","ios":"levelo://app?vid=0eca2b8b-36c5-4e3b-872a-b8e6e5582a24"},"vehicle_type_id":"4","last_reported":1722701348,"current_range_meters":12800,"station_id":"ce4bh692rcd13ifvqea0","pricing_plan_id":"cebpf4jnsgd1na2vs0mg"},{"bike_id":"4625df7f-34fd-416a-9f95-927df8213779","system_id":"levelo_inurba_marseille","lat":43.290103,"lon":5.356114,"is_reserved":false,"is_disabled":false,"rental_uris":{"android":"levelo://app?vid=4625df7f-34fd-416a-9f95-927df8213779","ios":"levelo://app?vid=4625df7f-34fd-416a-9f95-927df8213779"},"vehicle_type_id":"4","last_reported":1722701348,"current_range_meters":17600,"station_id":"ce4bhb92rcd13ifvqen0","pricing_plan_id":"cebpf4jnsgd1na2vs0mg"},{"bike_id":"c931c142-feea-477c-b553-6be34899dbb9","system_id":"levelo_inurba_marseille","lat":43.290104,"lon":5.356111,"is_reserved":false,"is_disabled":false,"rental_uris":{"android":"levelo://app?vid=c931c142-feea-477c-b553-6be34899dbb9","ios":"levelo://app?vid=c931c142-feea-477c-b553-6be34899dbb9"},"vehicle_type_id":"4","last_reported":1722701348,"current_range_meters":30800,"station_id":"ce4bhb92rcd13ifvqen0","pricing_plan_id":"cebpf4jnsgd1na2vs0mg"},{"bike_id":"72883222-0e83-4dc4-a0c2-0600effa489b","system_id":"levelo_inurba_marseille","lat":43.290103,"lon":5.356114,"is_reserved":false,"is_disabled":false,"rental_uris":{"android":"levelo://app?vid=72883222-0e83-4dc4-a0c2-0600effa489b","ios":"levelo://app?vid=72883222-0e83-4dc4-a0c2-0600effa489b"},"vehicle_type_id":"4","last_reported":1722701348,"current_range_meters":400,"station_id":"ce4bhb92rcd13ifvqen0","pricing_plan_id":"cebpf4jnsgd1na2vs0mg"},{"bike_id":"640bf608-12ae-4690-86b3-6e35ae5cdeeb","system_id":"levelo_inurba_marseille","lat":43.290104,"lon":5.356111,"is_reserved":false,"is_disabled":false,"rental_uris":{"android":"levelo://app?vid=640bf608-12ae-4690-86b3-6e35ae5cdeeb","ios":"levelo://app?vid=640bf608-12ae-4690-86b3-6e35ae5cdeeb"},"vehicle_type_id":"4","last_reported":1722701348,"current_range_meters":29600,"station_id":"ce4bhb92rcd13ifvqen0","pricing_plan_id":"cebpf4jnsgd1na2vs0mg"},{"bike_id":"aa00e7c2-1d5d-4070-9a1e-ca2524eb5b56","system_id":"levelo_inurba_marseille","lat":43.290995,"lon":5.381361,"is_reserved":false,"is_disabled":false,"rental_uris":{"android":"levelo://app?vid=aa00e7c2-1d5d-4070-9a1e-ca2524eb5b56","ios":"levelo://app?vid=aa00e7c2-1d5d-4070-9a1e-ca2524eb5b56"},"vehicle_type_id":"4","last_reported":1722701348,"current_range_meters":1600,"station_id":"ce4bh512rcd13ifvqe2g","pricing_plan_id":"cebpf4jnsgd1na2vs0mg"},{"bike_id":"46e96d6b-ae92-44ab-b375-8fdd0a64e14c","system_id":"levelo_inurba_marseille","lat":43.319179,"lon":5.407725,"is_reserved":false,"is_disabled":false,"rental_uris":{"android":"levelo://app?vid=46e96d6b-ae92-44ab-b375-8fdd0a64e14c","ios":"levelo://app?vid=46e96d6b-ae92-44ab-b375-8fdd0a64e14c"},"vehicle_type_id":"4","last_reported":1722701348,"current_range_meters":30800,"station_id":"ce4bhq12rcd13ifvqhig","pricing_plan_id":"cebpf4jnsgd1na2vs0mg"},{"bike_id":"29125260-ed74-44ae-a6ad-c4f7dc30e297","system_id":"levelo_inurba_marseille","lat":43.290995,"lon":5.381361,"is_reserved":false,"is_disabled":false,"rental_uris":{"android":"levelo://app?vid=29125260-ed74-44ae-a6ad-c4f7dc30e297","ios":"levelo://app?vid=29125260-ed74-44ae-a6ad-c4f7dc30e297"},"vehicle_type_id":"4","last_reported":1722701348,"current_range_meters":400,"station_id":"ce4bh512rcd13ifvqe2g","pricing_plan_id":"cebpf4jnsgd1na2vs0mg"},{"bike_id":"22a0484c-2f15-4146-b16c-89bd17d4935a","system_id":"levelo_inurba_marseille","lat":43.29023,"lon":5.35459,"is_reserved":false,"is_disabled":false,"rental_uris":{"android":"levelo://app?vid=22a0484c-2f15-4146-b16c-89bd17d4935a","ios":"levelo://app?vid=22a0484c-2f15-4146-b16c-89bd17d4935a"},"vehicle_type_id":"4","last_reported":1722701348,"current_range_meters":20800,"station_id":"","pricing_plan_id":"cebpf4jnsgd1na2vs0mg"},{"bike_id":"e6725fe6-58f0-4ceb-9016-bbdfbd1519c9","system_id":"levelo_inurba_marseille","lat":43.297815,"lon":5.393548,"is_reserved":false,"is_disabled":false,"rental_uris":{"android":"levelo://app?vid=e6725fe6-58f0-4ceb-9016-bbdfbd1519c9","ios":"levelo://app?vid=e6725fe6-58f0-4ceb-9016-bbdfbd1519c9"},"vehicle_type_id":"4","last_reported":1722701348,"current_range_meters":24400,"station_id":"chh1huq6cuj3fo74tm60","pricing_plan_id":"cebpf4jnsgd1na2vs0mg"},{"bike_id":"58f85b46-c85c-484a-bcd7-9de93a17eb32","system_id":"levelo_inurba_marseille","lat":43.330237,"lon":5.390377,"is_reserved":false,"is_disabled":false,"rental_uris":{"android":"levelo://app?vid=58f85b46-c85c-484a-bcd7-9de93a17eb32","ios":"levelo://app?vid=58f85b46-c85c-484a-bcd7-9de93a17eb32"},"vehicle_type_id":"4","last_reported":1722701348,"current_range_meters":1200,"station_id":"ce4bhr92rcd13ifvqhrg","pricing_plan_id":"cebpf4jnsgd1na2vs0mg"},{"bike_id":"ad82c658-0f98-4feb-9b38-99b881d4e006","system_id":"levelo_inurba_marseille","lat":43.330442,"lon":5.389148,"is_reserved":false,"is_disabled":false,"rental_uris":{"android":"levelo://app?vid=ad82c658-0f98-4feb-9b38-99b881d4e006","ios":"levelo://app?vid=ad82c658-0f98-4feb-9b38-99b881d4e006"},"vehicle_type_id":"4","last_reported":1722701348,"current_range_meters":26800,"station_id":"ce4bhr92rcd13ifvqhrg","pricing_plan_id":"cebpf4jnsgd1na2vs0mg"},{"bike_id":"541415d5-bf5f-4f71-aabc-9bb7d76b4cad","system_id":"levelo_inurba_marseille","lat":43.33026,"lon":5.39036,"is_reserved":false,"is_disabled":false,"rental_uris":{"android":"levelo://app?vid=541415d5-bf5f-4f71-aabc-9bb7d76b4cad","ios":"levelo://app?vid=541415d5-bf5f-4f71-aabc-9bb7d76b4cad"},"vehicle_type_id":"4","last_reported":1722701348,"current_range_meters":21200,"station_id":"ce4bhr92rcd13ifvqhrg","pricing_plan_id":"cebpf4jnsgd1na2vs0mg"},{"bike_id":"01dc9ef0-8006-488a-b649-944d1611ee61","system_id":"levelo_inurba_marseille","lat":43.33026,"lon":5.39036,"is_reserved":false,"is_disabled":false,"rental_uris":{"android":"levelo://app?vid=01dc9ef0-8006-488a-b649-944d1611ee61","ios":"levelo://app?vid=01dc9ef0-8006-488a-b649-944d1611ee61"},"vehicle_type_id":"4","last_reported":1722701348,"current_range_meters":14400,"station_id":"ce4bhr92rcd13ifvqhrg","pricing_plan_id":"cebpf4jnsgd1na2vs0mg"},{"bike_id":"4aa94772-9f58-4c7b-8caa-eb1e8a9fd227","system_id":"levelo_inurba_marseille","lat":43.330442,"lon":5.389148,"is_reserved":false,"is_disabled":false,"rental_uris":{"android":"levelo://app?vid=4aa94772-9f58-4c7b-8caa-eb1e8a9fd227","ios":"levelo://app?vid=4aa94772-9f58-4c7b-8caa-eb1e8a9fd227"},"vehicle_type_id":"4","last_reported":1722701348,"current_range_meters":28000,"station_id":"ce4bhr92rcd13ifvqhrg","pricing_plan_id":"cebpf4jnsgd1na2vs0mg"},{"bike_id":"39f6f3da-7fa4-4953-bdd5-8061c04cca21","system_id":"levelo_inurba_marseille","lat":43.330248,"lon":5.390382,"is_reserved":false,"is_disabled":false,"rental_uris":{"android":"levelo://app?vid=39f6f3da-7fa4-4953-bdd5-8061c04cca21","ios":"levelo://app?vid=39f6f3da-7fa4-4953-bdd5-8061c04cca21"},"vehicle_type_id":"4","last_reported":1722701348,"current_range_meters":7600,"station_id":"ce4bhr92rcd13ifvqhrg","pricing_plan_id":"cebpf4jnsgd1na2vs0mg"},{"bike_id":"2742ce8d-75d9-48a8-ad88-2063106ff6bb","system_id":"levelo_inurba_marseille","lat":43.330442,"lon":5.389148,"is_reserved":false,"is_disabled":false,"rental_uris":{"android":"levelo://app?vid=2742ce8d-75d9-48a8-ad88-2063106ff6bb","ios":"levelo://app?vid=2742ce8d-75d9-48a8-ad88-2063106ff6bb"},"vehicle_type_id":"4","last_reported":1722701348,"current_range_meters":8000,"station_id":"ce4bhr92rcd13ifvqhrg","pricing_plan_id":"cebpf4jnsgd1na2vs0mg"},{"bike_id":"5354c2c3-78b1-4b29-acf1-85848b84b1dd","system_id":"levelo_inurba_marseille","lat":43.33024,"lon":5.39041,"is_reserved":false,"is_disabled":false,"rental_uris":{"android":"levelo://app?vid=5354c2c3-78b1-4b29-acf1-85848b84b1dd","ios":"levelo://app?vid=5354c2c3-78b1-4b29-acf1-85848b84b1dd"},"vehicle_type_id":"4","last_reported":1722701348,"current_range_meters":17200,"station_id":"ce4bhr92rcd13ifvqhrg","pricing_plan_id":"cebpf4jnsgd1na2vs0mg"},{"bike_id":"27717b97-87d0-40ae-b3da-a00e007cfd4b","system_id":"levelo_inurba_marseille","lat":43.33028,"lon":5.39036,"is_reserved":false,"is_disabled":false,"rental_uris":{"android":"levelo://app?vid=27717b97-87d0-40ae-b3da-a00e007cfd4b","ios":"levelo://app?vid=27717b97-87d0-40ae-b3da-a00e007cfd4b"},"vehicle_type_id":"4","last_reported":1722701348,"current_range_meters":20400,"station_id":"ce4bhr92rcd13ifvqhrg","pricing_plan_id":"cebpf4jnsgd1na2vs0mg"},{"bike_id":"7a99bf43-7e6a-4de3-b51c-cb116b20eb0a","system_id":"levelo_inurba_marseille","lat":43.330442,"lon":5.389148,"is_reserved":false,"is_disabled":false,"rental_uris":{"android":"levelo://app?vid=7a99bf43-7e6a-4de3-b51c-cb116b20eb0a","ios":"levelo://app?vid=7a99bf43-7e6a-4de3-b51c-cb116b20eb0a"},"vehicle_type_id":"4","last_reported":1722701348,"current_range_meters":7200,"station_id":"ce4bhr92rcd13ifvqhrg","pricing_plan_id":"cebpf4jnsgd1na2vs0mg"},{"bike_id":"0c9be5e9-c83c-4e09-9645-cae1dc7ac240","system_id":"levelo_inurba_marseille","lat":43.33028,"lon":5.39041,"is_reserved":false,"is_disabled":false,"rental_uris":{"android":"levelo://app?vid=0c9be5e9-c83c-4e09-9645-cae1dc7ac240","ios":"levelo://app?vid=0c9be5e9-c83c-4e09-9645-cae1dc7ac240"},"vehicle_type_id":"4","last_reported":1722701348,"current_range_meters":30800,"station_id":"ce4bhr92rcd13ifvqhrg","pricing_plan_id":"cebpf4jnsgd1na2vs0mg"},{"bike_id":"ec8a4ec8-50d7-43eb-bff1-1ea251f8a0f4","system_id":"levelo_inurba_marseille","lat":43.330442,"lon":5.389148,"is_reserved":false,"is_disabled":false,"rental_uris":{"android":"levelo://app?vid=ec8a4ec8-50d7-43eb-bff1-1ea251f8a0f4","ios":"levelo://app?vid=ec8a4ec8-50d7-43eb-bff1-1ea251f8a0f4"},"vehicle_type_id":"4","last_reported":1722701348,"current_range_meters":30400,"station_id":"ce4bhr92rcd13ifvqhrg","pricing_plan_id":"cebpf4jnsgd1na2vs0mg"},{"bike_id":"f4cdf6f8-59cc-4926-bbd3-bf830cd7e7b6","system_id":"levelo_inurba_marseille","lat":43.2901,"lon":5.381269,"is_reserved":false,"is_disabled":false,"rental_uris":{"android":"levelo://app?vid=f4cdf6f8-59cc-4926-bbd3-bf830cd7e7b6","ios":"levelo://app?vid=f4cdf6f8-59cc-4926-bbd3-bf830cd7e7b6"},"vehicle_type_id":"4","last_reported":1722701348,"current_range_meters":29200,"station_id":"ce4bh4p2rcd13ifvqe1g","pricing_plan_id":"cebpf4jnsgd1na2vs0mg"},{"bike_id":"772f639f-0c52-41a9-adce-a688ab5327d1","system_id":"levelo_inurba_marseille","lat":43.28856,"lon":5.358371,"is_reserved":false,"is_disabled":false,"rental_uris":{"android":"levelo://app?vid=772f639f-0c52-41a9-adce-a688ab5327d1","ios":"levelo://app?vid=772f639f-0c52-41a9-adce-a688ab5327d1"},"vehicle_type_id":"4","last_reported":1722701348,"current_range_meters":4000,"station_id":"ce4bhb12rcd13ifvqem0","pricing_plan_id":"cebpf4jnsgd1na2vs0mg"},{"bike_id":"c03e0abf-30fa-4e27-8cd3-2e9510a8709f","system_id":"levelo_inurba_marseille","lat":43.28856,"lon":5.358371,"is_reserved":false,"is_disabled":false,"rental_uris":{"android":"levelo://app?vid=c03e0abf-30fa-4e27-8cd3-2e9510a8709f","ios":"levelo://app?vid=c03e0abf-30fa-4e27-8cd3-2e9510a8709f"},"vehicle_type_id":"4","last_reported":1722701348,"current_range_meters":3200,"station_id":"ce4bhb12rcd13ifvqem0","pricing_plan_id":"cebpf4jnsgd1na2vs0mg"},{"bike_id":"23c5b3b4-fc18-4d35-836b-32ad40b6f9fe","system_id":"levelo_inurba_marseille","lat":43.33085,"lon":5.3911,"is_reserved":false,"is_disabled":false,"rental_uris":{"android":"levelo://app?vid=23c5b3b4-fc18-4d35-836b-32ad40b6f9fe","ios":"levelo://app?vid=23c5b3b4-fc18-4d35-836b-32ad40b6f9fe"},"vehicle_type_id":"4","last_reported":1722701348,"current_range_meters":19200,"station_id":"","pricing_plan_id":"cebpf4jnsgd1na2vs0mg"},{"bike_id":"6f044633-3688-4e83-af67-cf3db97c1cc7","system_id":"levelo_inurba_marseille","lat":43.337444,"lon":5.374475,"is_reserved":false,"is_disabled":false,"rental_uris":{"android":"levelo://app?vid=6f044633-3688-4e83-af67-cf3db97c1cc7","ios":"levelo://app?vid=6f044633-3688-4e83-af67-cf3db97c1cc7"},"vehicle_type_id":"3","last_reported":1722701348,"current_range_meters":24800,"station_id":"","pricing_plan_id":"cebpf4jnsgd1na2vs0mg"},{"bike_id":"711bbdb7-4aae-43f7-98bc-a00f02c02487","system_id":"levelo_inurba_marseille","lat":43.33747,"lon":5.37448,"is_reserved":false,"is_disabled":false,"rental_uris":{"android":"levelo://app?vid=711bbdb7-4aae-43f7-98bc-a00f02c02487","ios":"levelo://app?vid=711bbdb7-4aae-43f7-98bc-a00f02c02487"},"vehicle_type_id":"4","last_reported":1722701348,"current_range_meters":24400,"station_id":"","pricing_plan_id":"cebpf4jnsgd1na2vs0mg"},{"bike_id":"fe41bbf1-53a8-4903-8a48-eaa539bb1e76","system_id":"levelo_inurba_marseille","lat":43.33768,"lon":5.37439,"is_reserved":false,"is_disabled":false,"rental_uris":{"android":"levelo://app?vid=fe41bbf1-53a8-4903-8a48-eaa539bb1e76","ios":"levelo://app?vid=fe41bbf1-53a8-4903-8a48-eaa539bb1e76"},"vehicle_type_id":"4","last_reported":1722701348,"current_range_meters":8000,"station_id":"","pricing_plan_id":"cebpf4jnsgd1na2vs0mg"},{"bike_id":"b2e46844-b882-4223-ba5c-87f904601b74","system_id":"levelo_inurba_marseille","lat":43.301117,"lon":5.398795,"is_reserved":false,"is_disabled":false,"rental_uris":{"android":"levelo://app?vid=b2e46844-b882-4223-ba5c-87f904601b74","ios":"levelo://app?vid=b2e46844-b882-4223-ba5c-87f904601b74"},"vehicle_type_id":"4","last_reported":1722701348,"current_range_meters":0,"station_id":"ce4bh0h2rcd13ifvqd40","pricing_plan_id":"cebpf4jnsgd1na2vs0mg"},{"bike_id":"6cd90b27-3d6d-4215-8aff-d8c6a6d0907a","system_id":"levelo_inurba_marseille","lat":43.301117,"lon":5.398795,"is_reserved":false,"is_disabled":false,"rental_uris":{"android":"levelo://app?vid=6cd90b27-3d6d-4215-8aff-d8c6a6d0907a","ios":"levelo://app?vid=6cd90b27-3d6d-4215-8aff-d8c6a6d0907a"},"vehicle_type_id":"4","last_reported":1722701348,"current_range_meters":9200,"station_id":"ce4bh0h2rcd13ifvqd40","pricing_plan_id":"cebpf4jnsgd1na2vs0mg"},{"bike_id":"8efbcf39-aa13-473a-8f4f-598fe1785569","system_id":"levelo_inurba_marseille","lat":43.301117,"lon":5.398795,"is_reserved":false,"is_disabled":false,"rental_uris":{"android":"levelo://app?vid=8efbcf39-aa13-473a-8f4f-598fe1785569","ios":"levelo://app?vid=8efbcf39-aa13-473a-8f4f-598fe1785569"},"vehicle_type_id":"4","last_reported":1722701348,"current_range_meters":1600,"station_id":"ce4bh0h2rcd13ifvqd40","pricing_plan_id":"cebpf4jnsgd1na2vs0mg"},{"bike_id":"6484bf66-c470-4502-bd01-502db0f032fa","system_id":"levelo_inurba_marseille","lat":43.286593,"lon":5.363346,"is_reserved":false,"is_disabled":false,"rental_uris":{"android":"levelo://app?vid=6484bf66-c470-4502-bd01-502db0f032fa","ios":"levelo://app?vid=6484bf66-c470-4502-bd01-502db0f032fa"},"vehicle_type_id":"4","last_reported":1722701348,"current_range_meters":2400,"station_id":"ce4bhah2rcd13ifvqej0","pricing_plan_id":"cebpf4jnsgd1na2vs0mg"},{"bike_id":"68e4589c-ad14-4c23-8fa3-ca5e9f1ac989","system_id":"levelo_inurba_marseille","lat":43.298681,"lon":5.397225,"is_reserved":false,"is_disabled":false,"rental_uris":{"android":"levelo://app?vid=68e4589c-ad14-4c23-8fa3-ca5e9f1ac989","ios":"levelo://app?vid=68e4589c-ad14-4c23-8fa3-ca5e9f1ac989"},"vehicle_type_id":"4","last_reported":1722701348,"current_range_meters":0,"station_id":"ce4bh0h2rcd13ifvqd50","pricing_plan_id":"cebpf4jnsgd1na2vs0mg"},{"bike_id":"b5cdc7ad-dbd9-4056-a86b-b44e08e5130d","system_id":"levelo_inurba_marseille","lat":43.298681,"lon":5.397225,"is_reserved":false,"is_disabled":false,"rental_uris":{"android":"levelo://app?vid=b5cdc7ad-dbd9-4056-a86b-b44e08e5130d","ios":"levelo://app?vid=b5cdc7ad-dbd9-4056-a86b-b44e08e5130d"},"vehicle_type_id":"4","last_reported":1722701348,"current_range_meters":17600,"station_id":"ce4bh0h2rcd13ifvqd50","pricing_plan_id":"cebpf4jnsgd1na2vs0mg"},{"bike_id":"262b72ae-0797-490d-b7fd-a58d95dde86f","system_id":"levelo_inurba_marseille","lat":43.290336,"lon":5.386425,"is_reserved":false,"is_disabled":false,"rental_uris":{"android":"levelo://app?vid=262b72ae-0797-490d-b7fd-a58d95dde86f","ios":"levelo://app?vid=262b72ae-0797-490d-b7fd-a58d95dde86f"},"vehicle_type_id":"4","last_reported":1722701348,"current_range_meters":1600,"station_id":"ce4bh4p2rcd13ifvqe0g","pricing_plan_id":"cebpf4jnsgd1na2vs0mg"},{"bike_id":"79b655a4-3e30-4fc7-8fad-791c7d17c95f","system_id":"levelo_inurba_marseille","lat":43.290336,"lon":5.386425,"is_reserved":false,"is_disabled":false,"rental_uris":{"android":"levelo://app?vid=79b655a4-3e30-4fc7-8fad-791c7d17c95f","ios":"levelo://app?vid=79b655a4-3e30-4fc7-8fad-791c7d17c95f"},"vehicle_type_id":"4","last_reported":1722701348,"current_range_meters":0,"station_id":"ce4bh4p2rcd13ifvqe0g","pricing_plan_id":"cebpf4jnsgd1na2vs0mg"},{"bike_id":"33bf69b6-6e49-4002-b3e9-47c622f335f4","system_id":"levelo_inurba_marseille","lat":43.290336,"lon":5.386425,"is_reserved":false,"is_disabled":false,"rental_uris":{"android":"levelo://app?vid=33bf69b6-6e49-4002-b3e9-47c622f335f4","ios":"levelo://app?vid=33bf69b6-6e49-4002-b3e9-47c622f335f4"},"vehicle_type_id":"4","last_reported":1722701348,"current_range_meters":0,"station_id":"ce4bh4p2rcd13ifvqe0g","pricing_plan_id":"cebpf4jnsgd1na2vs0mg"},{"bike_id":"8b716860-cbd0-4871-a32e-96cdbbb333c1","system_id":"levelo_inurba_marseille","lat":43.30262,"lon":5.40084,"is_reserved":false,"is_disabled":false,"rental_uris":{"android":"levelo://app?vid=8b716860-cbd0-4871-a32e-96cdbbb333c1","ios":"levelo://app?vid=8b716860-cbd0-4871-a32e-96cdbbb333c1"},"vehicle_type_id":"4","last_reported":1722701348,"current_range_meters":0,"station_id":"ce4bgvh2rcd13ifvqcs0","pricing_plan_id":"cebpf4jnsgd1na2vs0mg"},{"bike_id":"1a91a567-c0ab-4516-b639-88192e360457","system_id":"levelo_inurba_marseille","lat":43.289017,"lon":5.384254,"is_reserved":false,"is_disabled":false,"rental_uris":{"android":"levelo://app?vid=1a91a567-c0ab-4516-b639-88192e360457","ios":"levelo://app?vid=1a91a567-c0ab-4516-b639-88192e360457"},"vehicle_type_id":"4","last_reported":1722701348,"current_range_meters":30000,"station_id":"ce4bh612rcd13ifvqe6g","pricing_plan_id":"cebpf4jnsgd1na2vs0mg"},{"bike_id":"65f47568-5a77-4bde-bca6-df6fbe827cb9","system_id":"levelo_inurba_marseille","lat":43.287184,"lon":5.37937,"is_reserved":false,"is_disabled":false,"rental_uris":{"android":"levelo://app?vid=65f47568-5a77-4bde-bca6-df6fbe827cb9","ios":"levelo://app?vid=65f47568-5a77-4bde-bca6-df6fbe827cb9"},"vehicle_type_id":"4","last_reported":1722701348,"current_range_meters":20800,"station_id":"ce4bh9p2rcd13ifvqec0","pricing_plan_id":"cebpf4jnsgd1na2vs0mg"},{"bike_id":"d09689d7-a35c-4da0-a7b5-1b2fab489055","system_id":"levelo_inurba_marseille","lat":43.287184,"lon":5.37937,"is_reserved":false,"is_disabled":false,"rental_uris":{"android":"levelo://app?vid=d09689d7-a35c-4da0-a7b5-1b2fab489055","ios":"levelo://app?vid=d09689d7-a35c-4da0-a7b5-1b2fab489055"},"vehicle_type_id":"4","last_reported":1722701348,"current_range_meters":14800,"station_id":"ce4bh9p2rcd13ifvqec0","pricing_plan_id":"cebpf4jnsgd1na2vs0mg"},{"bike_id":"cdd33631-131d-40cb-992a-853914b439ae","system_id":"levelo_inurba_marseille","lat":43.316821,"lon":5.404737,"is_reserved":false,"is_disabled":false,"rental_uris":{"android":"levelo://app?vid=cdd33631-131d-40cb-992a-853914b439ae","ios":"levelo://app?vid=cdd33631-131d-40cb-992a-853914b439ae"},"vehicle_type_id":"4","last_reported":1722701348,"current_range_meters":28000,"station_id":"ce4bh012rcd13ifvqd00","pricing_plan_id":"cebpf4jnsgd1na2vs0mg"},{"bike_id":"e28bbef7-6e21-4e6a-8395-ec16f7c0c035","system_id":"levelo_inurba_marseille","lat":43.316828,"lon":5.404723,"is_reserved":false,"is_disabled":false,"rental_uris":{"android":"levelo://app?vid=e28bbef7-6e21-4e6a-8395-ec16f7c0c035","ios":"levelo://app?vid=e28bbef7-6e21-4e6a-8395-ec16f7c0c035"},"vehicle_type_id":"4","last_reported":1722701348,"current_range_meters":22000,"station_id":"ce4bh012rcd13ifvqd00","pricing_plan_id":"cebpf4jnsgd1na2vs0mg"},{"bike_id":"669a8a06-cde3-4a75-b22a-6caa89b10a58","system_id":"levelo_inurba_marseille","lat":43.294314,"lon":5.397498,"is_reserved":false,"is_disabled":false,"rental_uris":{"android":"levelo://app?vid=669a8a06-cde3-4a75-b22a-6caa89b10a58","ios":"levelo://app?vid=669a8a06-cde3-4a75-b22a-6caa89b10a58"},"vehicle_type_id":"4","last_reported":1722701348,"current_range_meters":10400,"station_id":"ce4bh3h2rcd13ifvqdo0","pricing_plan_id":"cebpf4jnsgd1na2vs0mg"},{"bike_id":"c049b7c0-c93a-4c87-8af1-b0c1570a8cb2","system_id":"levelo_inurba_marseille","lat":43.294314,"lon":5.397498,"is_reserved":false,"is_disabled":false,"rental_uris":{"android":"levelo://app?vid=c049b7c0-c93a-4c87-8af1-b0c1570a8cb2","ios":"levelo://app?vid=c049b7c0-c93a-4c87-8af1-b0c1570a8cb2"},"vehicle_type_id":"4","last_reported":1722701348,"current_range_meters":10400,"station_id":"ce4bh3h2rcd13ifvqdo0","pricing_plan_id":"cebpf4jnsgd1na2vs0mg"},{"bike_id":"eb4fb7c7-00e2-4199-a498-93f62d5738af","system_id":"levelo_inurba_marseille","lat":43.285856,"lon":5.350771,"is_reserved":false,"is_disabled":false,"rental_uris":{"android":"levelo://app?vid=eb4fb7c7-00e2-4199-a498-93f62d5738af","ios":"levelo://app?vid=eb4fb7c7-00e2-4199-a498-93f62d5738af"},"vehicle_type_id":"4","last_reported":1722701348,"current_range_meters":0,"station_id":"ce4bhch2rcd13ifvqeug","pricing_plan_id":"cebpf4jnsgd1na2vs0mg"},{"bike_id":"ec766dce-bc8d-4578-a5ea-5697da0312b5","system_id":"levelo_inurba_marseille","lat":43.283998,"lon":5.375062,"is_reserved":false,"is_disabled":false,"rental_uris":{"android":"levelo://app?vid=ec766dce-bc8d-4578-a5ea-5697da0312b5","ios":"levelo://app?vid=ec766dce-bc8d-4578-a5ea-5697da0312b5"},"vehicle_type_id":"4","last_reported":1722701348,"current_range_meters":0,"station_id":"ce4bh412rcd13ifvqds0","pricing_plan_id":"cebpf4jnsgd1na2vs0mg"},{"bike_id":"dbae723a-8d56-45fd-ac90-b13b214ec237","system_id":"levelo_inurba_marseille","lat":43.285848,"lon":5.350787,"is_reserved":false,"is_disabled":false,"rental_uris":{"android":"levelo://app?vid=dbae723a-8d56-45fd-ac90-b13b214ec237","ios":"levelo://app?vid=dbae723a-8d56-45fd-ac90-b13b214ec237"},"vehicle_type_id":"4","last_reported":1722701348,"current_range_meters":19600,"station_id":"ce4bhch2rcd13ifvqeug","pricing_plan_id":"cebpf4jnsgd1na2vs0mg"},{"bike_id":"f586456b-a8e1-4fc9-a710-4bf991a9af31","system_id":"levelo_inurba_marseille","lat":43.285848,"lon":5.350787,"is_reserved":false,"is_disabled":false,"rental_uris":{"android":"levelo://app?vid=f586456b-a8e1-4fc9-a710-4bf991a9af31","ios":"levelo://app?vid=f586456b-a8e1-4fc9-a710-4bf991a9af31"},"vehicle_type_id":"4","last_reported":1722701348,"current_range_meters":0,"station_id":"ce4bhch2rcd13ifvqeug","pricing_plan_id":"cebpf4jnsgd1na2vs0mg"},{"bike_id":"f2af5fcb-cd44-49fd-bb73-25b78da81f63","system_id":"levelo_inurba_marseille","lat":43.285856,"lon":5.350771,"is_reserved":false,"is_disabled":false,"rental_uris":{"android":"levelo://app?vid=f2af5fcb-cd44-49fd-bb73-25b78da81f63","ios":"levelo://app?vid=f2af5fcb-cd44-49fd-bb73-25b78da81f63"},"vehicle_type_id":"4","last_reported":1722701348,"current_range_meters":14400,"station_id":"ce4bhch2rcd13ifvqeug","pricing_plan_id":"cebpf4jnsgd1na2vs0mg"},{"bike_id":"857d43e4-fd01-42ad-b308-8ea0d3a8f2bc","system_id":"levelo_inurba_marseille","lat":43.285856,"lon":5.350771,"is_reserved":false,"is_disabled":false,"rental_uris":{"android":"levelo://app?vid=857d43e4-fd01-42ad-b308-8ea0d3a8f2bc","ios":"levelo://app?vid=857d43e4-fd01-42ad-b308-8ea0d3a8f2bc"},"vehicle_type_id":"4","last_reported":1722701348,"current_range_meters":13600,"station_id":"ce4bhch2rcd13ifvqeug","pricing_plan_id":"cebpf4jnsgd1na2vs0mg"},{"bike_id":"b24e882f-629b-4c49-b3d5-7dcc53df5480","system_id":"levelo_inurba_marseille","lat":43.285856,"lon":5.350771,"is_reserved":false,"is_disabled":false,"rental_uris":{"android":"levelo://app?vid=b24e882f-629b-4c49-b3d5-7dcc53df5480","ios":"levelo://app?vid=b24e882f-629b-4c49-b3d5-7dcc53df5480"},"vehicle_type_id":"4","last_reported":1722701348,"current_range_meters":800,"station_id":"ce4bhch2rcd13ifvqeug","pricing_plan_id":"cebpf4jnsgd1na2vs0mg"},{"bike_id":"7a1db433-1bcc-46c6-8985-2b53c1ca5399","system_id":"levelo_inurba_marseille","lat":43.285848,"lon":5.350787,"is_reserved":false,"is_disabled":false,"rental_uris":{"android":"levelo://app?vid=7a1db433-1bcc-46c6-8985-2b53c1ca5399","ios":"levelo://app?vid=7a1db433-1bcc-46c6-8985-2b53c1ca5399"},"vehicle_type_id":"4","last_reported":1722701348,"current_range_meters":6400,"station_id":"ce4bhch2rcd13ifvqeug","pricing_plan_id":"cebpf4jnsgd1na2vs0mg"},{"bike_id":"a3e41b1e-6067-4b8b-95db-fc8f825093e9","system_id":"levelo_inurba_marseille","lat":43.285856,"lon":5.350771,"is_reserved":false,"is_disabled":false,"rental_uris":{"android":"levelo://app?vid=a3e41b1e-6067-4b8b-95db-fc8f825093e9","ios":"levelo://app?vid=a3e41b1e-6067-4b8b-95db-fc8f825093e9"},"vehicle_type_id":"4","last_reported":1722701348,"current_range_meters":3600,"station_id":"ce4bhch2rcd13ifvqeug","pricing_plan_id":"cebpf4jnsgd1na2vs0mg"},{"bike_id":"94648da0-48a1-44de-a496-123b59868195","system_id":"levelo_inurba_marseille","lat":43.285856,"lon":5.350771,"is_reserved":false,"is_disabled":false,"rental_uris":{"android":"levelo://app?vid=94648da0-48a1-44de-a496-123b59868195","ios":"levelo://app?vid=94648da0-48a1-44de-a496-123b59868195"},"vehicle_type_id":"4","last_reported":1722701348,"current_range_meters":0,"station_id":"ce4bhch2rcd13ifvqeug","pricing_plan_id":"cebpf4jnsgd1na2vs0mg"},{"bike_id":"dd5a4a59-a6c9-4b79-b506-4b208625c9c1","system_id":"levelo_inurba_marseille","lat":43.285856,"lon":5.350771,"is_reserved":false,"is_disabled":false,"rental_uris":{"android":"levelo://app?vid=dd5a4a59-a6c9-4b79-b506-4b208625c9c1","ios":"levelo://app?vid=dd5a4a59-a6c9-4b79-b506-4b208625c9c1"},"vehicle_type_id":"4","last_reported":1722701348,"current_range_meters":2800,"station_id":"ce4bhch2rcd13ifvqeug","pricing_plan_id":"cebpf4jnsgd1na2vs0mg"},{"bike_id":"1e9ee663-7021-402f-87d1-810302358c9a","system_id":"levelo_inurba_marseille","lat":43.285856,"lon":5.350771,"is_reserved":false,"is_disabled":false,"rental_uris":{"android":"levelo://app?vid=1e9ee663-7021-402f-87d1-810302358c9a","ios":"levelo://app?vid=1e9ee663-7021-402f-87d1-810302358c9a"},"vehicle_type_id":"4","last_reported":1722701348,"current_range_meters":8000,"station_id":"ce4bhch2rcd13ifvqeug","pricing_plan_id":"cebpf4jnsgd1na2vs0mg"},{"bike_id":"71128bdb-c45b-4681-b73c-71a5f8051465","system_id":"levelo_inurba_marseille","lat":43.28614,"lon":5.35099,"is_reserved":false,"is_disabled":false,"rental_uris":{"android":"levelo://app?vid=71128bdb-c45b-4681-b73c-71a5f8051465","ios":"levelo://app?vid=71128bdb-c45b-4681-b73c-71a5f8051465"},"vehicle_type_id":"4","last_reported":1722701348,"current_range_meters":31200,"station_id":"ce4bhch2rcd13ifvqeug","pricing_plan_id":"cebpf4jnsgd1na2vs0mg"},{"bike_id":"f3f449cb-6584-45d9-9f16-2c09b8fcdad2","system_id":"levelo_inurba_marseille","lat":43.285848,"lon":5.350787,"is_reserved":false,"is_disabled":false,"rental_uris":{"android":"levelo://app?vid=f3f449cb-6584-45d9-9f16-2c09b8fcdad2","ios":"levelo://app?vid=f3f449cb-6584-45d9-9f16-2c09b8fcdad2"},"vehicle_type_id":"4","last_reported":1722701348,"current_range_meters":23200,"station_id":"ce4bhch2rcd13ifvqeug","pricing_plan_id":"cebpf4jnsgd1na2vs0mg"},{"bike_id":"0243c034-3613-465d-a880-5d9bc0e91955","system_id":"levelo_inurba_marseille","lat":43.283998,"lon":5.375062,"is_reserved":false,"is_disabled":false,"rental_uris":{"android":"levelo://app?vid=0243c034-3613-465d-a880-5d9bc0e91955","ios":"levelo://app?vid=0243c034-3613-465d-a880-5d9bc0e91955"},"vehicle_type_id":"4","last_reported":1722701348,"current_range_meters":16800,"station_id":"ce4bh412rcd13ifvqds0","pricing_plan_id":"cebpf4jnsgd1na2vs0mg"},{"bike_id":"025e4473-6c7d-4e4b-902c-62177e18d332","system_id":"levelo_inurba_marseille","lat":43.283998,"lon":5.375062,"is_reserved":false,"is_disabled":false,"rental_uris":{"android":"levelo://app?vid=025e4473-6c7d-4e4b-902c-62177e18d332","ios":"levelo://app?vid=025e4473-6c7d-4e4b-902c-62177e18d332"},"vehicle_type_id":"4","last_reported":1722701348,"current_range_meters":10800,"station_id":"ce4bh412rcd13ifvqds0","pricing_plan_id":"cebpf4jnsgd1na2vs0mg"},{"bike_id":"e41ad5ef-ded3-4f60-b4da-221685a0d5e4","system_id":"levelo_inurba_marseille","lat":43.28408,"lon":5.37511,"is_reserved":false,"is_disabled":false,"rental_uris":{"android":"levelo://app?vid=e41ad5ef-ded3-4f60-b4da-221685a0d5e4","ios":"levelo://app?vid=e41ad5ef-ded3-4f60-b4da-221685a0d5e4"},"vehicle_type_id":"4","last_reported":1722701348,"current_range_meters":0,"station_id":"ce4bh412rcd13ifvqds0","pricing_plan_id":"cebpf4jnsgd1na2vs0mg"},{"bike_id":"ebc9b70a-8ef1-4286-9476-031b62d0a2eb","system_id":"levelo_inurba_marseille","lat":43.29565,"lon":5.39964,"is_reserved":false,"is_disabled":false,"rental_uris":{"android":"levelo://app?vid=ebc9b70a-8ef1-4286-9476-031b62d0a2eb","ios":"levelo://app?vid=ebc9b70a-8ef1-4286-9476-031b62d0a2eb"},"vehicle_type_id":"4","last_reported":1722701348,"current_range_meters":0,"station_id":"ce4bh312rcd13ifvqdj0","pricing_plan_id":"cebpf4jnsgd1na2vs0mg"},{"bike_id":"97b435be-880a-4a01-9f02-b2b6890c4b8a","system_id":"levelo_inurba_marseille","lat":43.295723,"lon":5.39973,"is_reserved":false,"is_disabled":false,"rental_uris":{"android":"levelo://app?vid=97b435be-880a-4a01-9f02-b2b6890c4b8a","ios":"levelo://app?vid=97b435be-880a-4a01-9f02-b2b6890c4b8a"},"vehicle_type_id":"4","last_reported":1722701348,"current_range_meters":0,"station_id":"ce4bh312rcd13ifvqdj0","pricing_plan_id":"cebpf4jnsgd1na2vs0mg"},{"bike_id":"41fc47ca-c0cd-4d60-b444-13061cbbc366","system_id":"levelo_inurba_marseille","lat":43.283998,"lon":5.375062,"is_reserved":false,"is_disabled":false,"rental_uris":{"android":"levelo://app?vid=41fc47ca-c0cd-4d60-b444-13061cbbc366","ios":"levelo://app?vid=41fc47ca-c0cd-4d60-b444-13061cbbc366"},"vehicle_type_id":"4","last_reported":1722701348,"current_range_meters":2000,"station_id":"ce4bh412rcd13ifvqds0","pricing_plan_id":"cebpf4jnsgd1na2vs0mg"},{"bike_id":"5412b588-3528-469d-9c99-7aaac0587300","system_id":"levelo_inurba_marseille","lat":43.319179,"lon":5.407725,"is_reserved":false,"is_disabled":false,"rental_uris":{"android":"levelo://app?vid=5412b588-3528-469d-9c99-7aaac0587300","ios":"levelo://app?vid=5412b588-3528-469d-9c99-7aaac0587300"},"vehicle_type_id":"4","last_reported":1722701348,"current_range_meters":31600,"station_id":"ce4bhq12rcd13ifvqhig","pricing_plan_id":"cebpf4jnsgd1na2vs0mg"},{"bike_id":"755c7520-511f-4ddf-a0e1-fb71a8b5fc60","system_id":"levelo_inurba_marseille","lat":43.319179,"lon":5.407725,"is_reserved":false,"is_disabled":false,"rental_uris":{"android":"levelo://app?vid=755c7520-511f-4ddf-a0e1-fb71a8b5fc60","ios":"levelo://app?vid=755c7520-511f-4ddf-a0e1-fb71a8b5fc60"},"vehicle_type_id":"4","last_reported":1722701348,"current_range_meters":25600,"station_id":"ce4bhq12rcd13ifvqhig","pricing_plan_id":"cebpf4jnsgd1na2vs0mg"},{"bike_id":"0ccac908-f470-46a5-9dc3-292c70a883ab","system_id":"levelo_inurba_marseille","lat":43.319179,"lon":5.407725,"is_reserved":false,"is_disabled":false,"rental_uris":{"android":"levelo://app?vid=0ccac908-f470-46a5-9dc3-292c70a883ab","ios":"levelo://app?vid=0ccac908-f470-46a5-9dc3-292c70a883ab"},"vehicle_type_id":"4","last_reported":1722701348,"current_range_meters":31200,"station_id":"ce4bhq12rcd13ifvqhig","pricing_plan_id":"cebpf4jnsgd1na2vs0mg"},{"bike_id":"75e9a398-ea02-4ca4-b1f6-5de15438791c","system_id":"levelo_inurba_marseille","lat":43.319179,"lon":5.407725,"is_reserved":false,"is_disabled":false,"rental_uris":{"android":"levelo://app?vid=75e9a398-ea02-4ca4-b1f6-5de15438791c","ios":"levelo://app?vid=75e9a398-ea02-4ca4-b1f6-5de15438791c"},"vehicle_type_id":"4","last_reported":1722701348,"current_range_meters":6400,"station_id":"ce4bhq12rcd13ifvqhig","pricing_plan_id":"cebpf4jnsgd1na2vs0mg"},{"bike_id":"48bf1e98-0ef4-478b-8457-530b1f851393","system_id":"levelo_inurba_marseille","lat":43.33228,"lon":5.39841,"is_reserved":false,"is_disabled":false,"rental_uris":{"android":"levelo://app?vid=48bf1e98-0ef4-478b-8457-530b1f851393","ios":"levelo://app?vid=48bf1e98-0ef4-478b-8457-530b1f851393"},"vehicle_type_id":"4","last_reported":1722701348,"current_range_meters":22800,"station_id":"","pricing_plan_id":"cebpf4jnsgd1na2vs0mg"},{"bike_id":"87534628-aae9-4a1a-9f08-9c59a0fee064","system_id":"levelo_inurba_marseille","lat":43.33717,"lon":5.391857,"is_reserved":false,"is_disabled":false,"rental_uris":{"android":"levelo://app?vid=87534628-aae9-4a1a-9f08-9c59a0fee064","ios":"levelo://app?vid=87534628-aae9-4a1a-9f08-9c59a0fee064"},"vehicle_type_id":"4","last_reported":1722701348,"current_range_meters":2000,"station_id":"ce4bhr92rcd13ifvqhsg","pricing_plan_id":"cebpf4jnsgd1na2vs0mg"},{"bike_id":"2d38b7c3-b3ba-41d8-833e-4a63852a23db","system_id":"levelo_inurba_marseille","lat":43.33717,"lon":5.391857,"is_reserved":false,"is_disabled":false,"rental_uris":{"android":"levelo://app?vid=2d38b7c3-b3ba-41d8-833e-4a63852a23db","ios":"levelo://app?vid=2d38b7c3-b3ba-41d8-833e-4a63852a23db"},"vehicle_type_id":"4","last_reported":1722701348,"current_range_meters":7600,"station_id":"ce4bhr92rcd13ifvqhsg","pricing_plan_id":"cebpf4jnsgd1na2vs0mg"},{"bike_id":"12f46083-add6-4a12-ae1c-bc11339a8f7c","system_id":"levelo_inurba_marseille","lat":43.337168,"lon":5.391825,"is_reserved":false,"is_disabled":false,"rental_uris":{"android":"levelo://app?vid=12f46083-add6-4a12-ae1c-bc11339a8f7c","ios":"levelo://app?vid=12f46083-add6-4a12-ae1c-bc11339a8f7c"},"vehicle_type_id":"4","last_reported":1722701348,"current_range_meters":4800,"station_id":"ce4bhr92rcd13ifvqhsg","pricing_plan_id":"cebpf4jnsgd1na2vs0mg"},{"bike_id":"fcc95342-2a16-41f7-932f-3a14f9a57fb7","system_id":"levelo_inurba_marseille","lat":43.33717,"lon":5.391857,"is_reserved":false,"is_disabled":false,"rental_uris":{"android":"levelo://app?vid=fcc95342-2a16-41f7-932f-3a14f9a57fb7","ios":"levelo://app?vid=fcc95342-2a16-41f7-932f-3a14f9a57fb7"},"vehicle_type_id":"4","last_reported":1722701348,"current_range_meters":31200,"station_id":"ce4bhr92rcd13ifvqhsg","pricing_plan_id":"cebpf4jnsgd1na2vs0mg"},{"bike_id":"a3ecfcfa-8f47-4a7d-b333-50b2ad2aa4dd","system_id":"levelo_inurba_marseille","lat":43.337168,"lon":5.391825,"is_reserved":false,"is_disabled":false,"rental_uris":{"android":"levelo://app?vid=a3ecfcfa-8f47-4a7d-b333-50b2ad2aa4dd","ios":"levelo://app?vid=a3ecfcfa-8f47-4a7d-b333-50b2ad2aa4dd"},"vehicle_type_id":"4","last_reported":1722701348,"current_range_meters":13200,"station_id":"ce4bhr92rcd13ifvqhsg","pricing_plan_id":"cebpf4jnsgd1na2vs0mg"},{"bike_id":"a273af16-93bf-45bd-b82e-6d77c4cc99bd","system_id":"levelo_inurba_marseille","lat":43.33717,"lon":5.391857,"is_reserved":false,"is_disabled":false,"rental_uris":{"android":"levelo://app?vid=a273af16-93bf-45bd-b82e-6d77c4cc99bd","ios":"levelo://app?vid=a273af16-93bf-45bd-b82e-6d77c4cc99bd"},"vehicle_type_id":"4","last_reported":1722701348,"current_range_meters":14400,"station_id":"ce4bhr92rcd13ifvqhsg","pricing_plan_id":"cebpf4jnsgd1na2vs0mg"},{"bike_id":"32c25458-5fa7-4f79-b3e6-8d89134cb384","system_id":"levelo_inurba_marseille","lat":43.33717,"lon":5.391857,"is_reserved":false,"is_disabled":false,"rental_uris":{"android":"levelo://app?vid=32c25458-5fa7-4f79-b3e6-8d89134cb384","ios":"levelo://app?vid=32c25458-5fa7-4f79-b3e6-8d89134cb384"},"vehicle_type_id":"4","last_reported":1722701348,"current_range_meters":4800,"station_id":"ce4bhr92rcd13ifvqhsg","pricing_plan_id":"cebpf4jnsgd1na2vs0mg"},{"bike_id":"bd04e1a3-b184-4401-8a2f-fea3982f3f33","system_id":"levelo_inurba_marseille","lat":43.337168,"lon":5.391825,"is_reserved":false,"is_disabled":false,"rental_uris":{"android":"levelo://app?vid=bd04e1a3-b184-4401-8a2f-fea3982f3f33","ios":"levelo://app?vid=bd04e1a3-b184-4401-8a2f-fea3982f3f33"},"vehicle_type_id":"4","last_reported":1722701348,"current_range_meters":10000,"station_id":"ce4bhr92rcd13ifvqhsg","pricing_plan_id":"cebpf4jnsgd1na2vs0mg"},{"bike_id":"0501fed2-4580-49bc-b5d1-7a481a881322","system_id":"levelo_inurba_marseille","lat":43.3234,"lon":5.40627,"is_reserved":false,"is_disabled":false,"rental_uris":{"android":"levelo://app?vid=0501fed2-4580-49bc-b5d1-7a481a881322","ios":"levelo://app?vid=0501fed2-4580-49bc-b5d1-7a481a881322"},"vehicle_type_id":"4","last_reported":1722701348,"current_range_meters":0,"station_id":"ce4bhq92rcd13ifvqhjg","pricing_plan_id":"cebpf4jnsgd1na2vs0mg"},{"bike_id":"484a500b-9e00-49db-bd06-06531390b236","system_id":"levelo_inurba_marseille","lat":43.337168,"lon":5.391825,"is_reserved":false,"is_disabled":false,"rental_uris":{"android":"levelo://app?vid=484a500b-9e00-49db-bd06-06531390b236","ios":"levelo://app?vid=484a500b-9e00-49db-bd06-06531390b236"},"vehicle_type_id":"4","last_reported":1722701348,"current_range_meters":30800,"station_id":"ce4bhr92rcd13ifvqhsg","pricing_plan_id":"cebpf4jnsgd1na2vs0mg"},{"bike_id":"29624e92-dc76-4520-870e-178d3cdba0ba","system_id":"levelo_inurba_marseille","lat":43.297946,"lon":5.404063,"is_reserved":false,"is_disabled":false,"rental_uris":{"android":"levelo://app?vid=29624e92-dc76-4520-870e-178d3cdba0ba","ios":"levelo://app?vid=29624e92-dc76-4520-870e-178d3cdba0ba"},"vehicle_type_id":"4","last_reported":1722701348,"current_range_meters":8800,"station_id":"ce4bh112rcd13ifvqd90","pricing_plan_id":"cebpf4jnsgd1na2vs0mg"},{"bike_id":"ed709ae0-7401-4505-86f8-f77fb04ee0cb","system_id":"levelo_inurba_marseille","lat":43.288501,"lon":5.393087,"is_reserved":false,"is_disabled":false,"rental_uris":{"android":"levelo://app?vid=ed709ae0-7401-4505-86f8-f77fb04ee0cb","ios":"levelo://app?vid=ed709ae0-7401-4505-86f8-f77fb04ee0cb"},"vehicle_type_id":"4","last_reported":1722701348,"current_range_meters":0,"station_id":"ce4bh2p2rcd13ifvqdi0","pricing_plan_id":"cebpf4jnsgd1na2vs0mg"},{"bike_id":"99ad9827-171b-4d15-807d-268b29bffaf0","system_id":"levelo_inurba_marseille","lat":43.288497,"lon":5.393089,"is_reserved":false,"is_disabled":false,"rental_uris":{"android":"levelo://app?vid=99ad9827-171b-4d15-807d-268b29bffaf0","ios":"levelo://app?vid=99ad9827-171b-4d15-807d-268b29bffaf0"},"vehicle_type_id":"4","last_reported":1722701348,"current_range_meters":4000,"station_id":"ce4bh2p2rcd13ifvqdi0","pricing_plan_id":"cebpf4jnsgd1na2vs0mg"},{"bike_id":"0cdcaa6b-a352-4bc5-92a1-dc2509fb647e","system_id":"levelo_inurba_marseille","lat":43.284852,"lon":5.38544,"is_reserved":false,"is_disabled":false,"rental_uris":{"android":"levelo://app?vid=0cdcaa6b-a352-4bc5-92a1-dc2509fb647e","ios":"levelo://app?vid=0cdcaa6b-a352-4bc5-92a1-dc2509fb647e"},"vehicle_type_id":"4","last_reported":1722701348,"current_range_meters":15200,"station_id":"","pricing_plan_id":"cebpf4jnsgd1na2vs0mg"},{"bike_id":"1e88f1ca-bcb3-420b-8c8c-791756e3a1f6","system_id":"levelo_inurba_marseille","lat":43.284319,"lon":5.350007,"is_reserved":false,"is_disabled":false,"rental_uris":{"android":"levelo://app?vid=1e88f1ca-bcb3-420b-8c8c-791756e3a1f6","ios":"levelo://app?vid=1e88f1ca-bcb3-420b-8c8c-791756e3a1f6"},"vehicle_type_id":"4","last_reported":1722701348,"current_range_meters":21600,"station_id":"ce4bhbh2rcd13ifvqepg","pricing_plan_id":"cebpf4jnsgd1na2vs0mg"},{"bike_id":"7ab6991c-f5a4-4f16-befc-f886d686c755","system_id":"levelo_inurba_marseille","lat":43.28428,"lon":5.34992,"is_reserved":false,"is_disabled":false,"rental_uris":{"android":"levelo://app?vid=7ab6991c-f5a4-4f16-befc-f886d686c755","ios":"levelo://app?vid=7ab6991c-f5a4-4f16-befc-f886d686c755"},"vehicle_type_id":"4","last_reported":1722701348,"current_range_meters":7200,"station_id":"ce4bhbh2rcd13ifvqepg","pricing_plan_id":"cebpf4jnsgd1na2vs0mg"},{"bike_id":"134eb2a2-5800-4d3a-8a84-8a99ba79f271","system_id":"levelo_inurba_marseille","lat":43.28424,"lon":5.3499,"is_reserved":false,"is_disabled":false,"rental_uris":{"android":"levelo://app?vid=134eb2a2-5800-4d3a-8a84-8a99ba79f271","ios":"levelo://app?vid=134eb2a2-5800-4d3a-8a84-8a99ba79f271"},"vehicle_type_id":"4","last_reported":1722701348,"current_range_meters":28000,"station_id":"ce4bhbh2rcd13ifvqepg","pricing_plan_id":"cebpf4jnsgd1na2vs0mg"},{"bike_id":"97dd8212-17ed-4f5f-bf6f-32d1fbe09ad5","system_id":"levelo_inurba_marseille","lat":43.28424,"lon":5.3499,"is_reserved":false,"is_disabled":false,"rental_uris":{"android":"levelo://app?vid=97dd8212-17ed-4f5f-bf6f-32d1fbe09ad5","ios":"levelo://app?vid=97dd8212-17ed-4f5f-bf6f-32d1fbe09ad5"},"vehicle_type_id":"4","last_reported":1722701348,"current_range_meters":22000,"station_id":"ce4bhbh2rcd13ifvqepg","pricing_plan_id":"cebpf4jnsgd1na2vs0mg"},{"bike_id":"adf784b8-51f2-4784-896d-afb4d23e0e59","system_id":"levelo_inurba_marseille","lat":43.28423,"lon":5.34993,"is_reserved":false,"is_disabled":false,"rental_uris":{"android":"levelo://app?vid=adf784b8-51f2-4784-896d-afb4d23e0e59","ios":"levelo://app?vid=adf784b8-51f2-4784-896d-afb4d23e0e59"},"vehicle_type_id":"4","last_reported":1722701348,"current_range_meters":14000,"station_id":"ce4bhbh2rcd13ifvqepg","pricing_plan_id":"cebpf4jnsgd1na2vs0mg"},{"bike_id":"343a7dae-b659-485c-92b9-ff812542ea4a","system_id":"levelo_inurba_marseille","lat":43.28428,"lon":5.34977,"is_reserved":false,"is_disabled":false,"rental_uris":{"android":"levelo://app?vid=343a7dae-b659-485c-92b9-ff812542ea4a","ios":"levelo://app?vid=343a7dae-b659-485c-92b9-ff812542ea4a"},"vehicle_type_id":"4","last_reported":1722701348,"current_range_meters":31200,"station_id":"ce4bhbh2rcd13ifvqepg","pricing_plan_id":"cebpf4jnsgd1na2vs0mg"},{"bike_id":"e91be354-a0e6-40d7-a70d-29a7681030b8","system_id":"levelo_inurba_marseille","lat":43.284227,"lon":5.3499,"is_reserved":false,"is_disabled":false,"rental_uris":{"android":"levelo://app?vid=e91be354-a0e6-40d7-a70d-29a7681030b8","ios":"levelo://app?vid=e91be354-a0e6-40d7-a70d-29a7681030b8"},"vehicle_type_id":"4","last_reported":1722701348,"current_range_meters":20800,"station_id":"ce4bhbh2rcd13ifvqepg","pricing_plan_id":"cebpf4jnsgd1na2vs0mg"},{"bike_id":"5d302ed6-f9a6-481d-ac3f-06b288912ba7","system_id":"levelo_inurba_marseille","lat":43.28425,"lon":5.34981,"is_reserved":false,"is_disabled":false,"rental_uris":{"android":"levelo://app?vid=5d302ed6-f9a6-481d-ac3f-06b288912ba7","ios":"levelo://app?vid=5d302ed6-f9a6-481d-ac3f-06b288912ba7"},"vehicle_type_id":"4","last_reported":1722701348,"current_range_meters":9600,"station_id":"ce4bhbh2rcd13ifvqepg","pricing_plan_id":"cebpf4jnsgd1na2vs0mg"},{"bike_id":"0d5d4348-158c-4fc0-b27e-22e90732498d","system_id":"levelo_inurba_marseille","lat":43.28422,"lon":5.34983,"is_reserved":false,"is_disabled":false,"rental_uris":{"android":"levelo://app?vid=0d5d4348-158c-4fc0-b27e-22e90732498d","ios":"levelo://app?vid=0d5d4348-158c-4fc0-b27e-22e90732498d"},"vehicle_type_id":"4","last_reported":1722701348,"current_range_meters":29600,"station_id":"ce4bhbh2rcd13ifvqepg","pricing_plan_id":"cebpf4jnsgd1na2vs0mg"},{"bike_id":"be1deba4-8cb2-4bdb-9a07-1ea9e194bc59","system_id":"levelo_inurba_marseille","lat":43.284187,"lon":5.349921,"is_reserved":false,"is_disabled":false,"rental_uris":{"android":"levelo://app?vid=be1deba4-8cb2-4bdb-9a07-1ea9e194bc59","ios":"levelo://app?vid=be1deba4-8cb2-4bdb-9a07-1ea9e194bc59"},"vehicle_type_id":"4","last_reported":1722701348,"current_range_meters":20400,"station_id":"ce4bhbh2rcd13ifvqepg","pricing_plan_id":"cebpf4jnsgd1na2vs0mg"},{"bike_id":"a54cc2ab-5940-40ea-9839-291d6a177119","system_id":"levelo_inurba_marseille","lat":43.28423,"lon":5.34978,"is_reserved":false,"is_disabled":false,"rental_uris":{"android":"levelo://app?vid=a54cc2ab-5940-40ea-9839-291d6a177119","ios":"levelo://app?vid=a54cc2ab-5940-40ea-9839-291d6a177119"},"vehicle_type_id":"4","last_reported":1722701348,"current_range_meters":5600,"station_id":"ce4bhbh2rcd13ifvqepg","pricing_plan_id":"cebpf4jnsgd1na2vs0mg"},{"bike_id":"5303b79a-1338-4265-bc3c-e7185d81a718","system_id":"levelo_inurba_marseille","lat":43.284214,"lon":5.349706,"is_reserved":false,"is_disabled":false,"rental_uris":{"android":"levelo://app?vid=5303b79a-1338-4265-bc3c-e7185d81a718","ios":"levelo://app?vid=5303b79a-1338-4265-bc3c-e7185d81a718"},"vehicle_type_id":"4","last_reported":1722701348,"current_range_meters":20800,"station_id":"ce4bhbh2rcd13ifvqepg","pricing_plan_id":"cebpf4jnsgd1na2vs0mg"},{"bike_id":"ab491089-e7e2-4d20-a62f-24134beaf6d0","system_id":"levelo_inurba_marseille","lat":43.284163,"lon":5.349983,"is_reserved":false,"is_disabled":false,"rental_uris":{"android":"levelo://app?vid=ab491089-e7e2-4d20-a62f-24134beaf6d0","ios":"levelo://app?vid=ab491089-e7e2-4d20-a62f-24134beaf6d0"},"vehicle_type_id":"4","last_reported":1722701348,"current_range_meters":16800,"station_id":"ce4bhbh2rcd13ifvqepg","pricing_plan_id":"cebpf4jnsgd1na2vs0mg"},{"bike_id":"cd9c5fc7-70e2-4065-b777-08525a4b1cc5","system_id":"levelo_inurba_marseille","lat":43.284205,"lon":5.349847,"is_reserved":false,"is_disabled":false,"rental_uris":{"android":"levelo://app?vid=cd9c5fc7-70e2-4065-b777-08525a4b1cc5","ios":"levelo://app?vid=cd9c5fc7-70e2-4065-b777-08525a4b1cc5"},"vehicle_type_id":"4","last_reported":1722701348,"current_range_meters":24000,"station_id":"ce4bhbh2rcd13ifvqepg","pricing_plan_id":"cebpf4jnsgd1na2vs0mg"},{"bike_id":"71da5212-63af-43c9-b9ca-723ef1f8358a","system_id":"levelo_inurba_marseille","lat":43.284187,"lon":5.349903,"is_reserved":false,"is_disabled":false,"rental_uris":{"android":"levelo://app?vid=71da5212-63af-43c9-b9ca-723ef1f8358a","ios":"levelo://app?vid=71da5212-63af-43c9-b9ca-723ef1f8358a"},"vehicle_type_id":"4","last_reported":1722701348,"current_range_meters":13600,"station_id":"ce4bhbh2rcd13ifvqepg","pricing_plan_id":"cebpf4jnsgd1na2vs0mg"},{"bike_id":"ac8f8114-8d01-4947-9920-445d732f4362","system_id":"levelo_inurba_marseille","lat":43.28419,"lon":5.34989,"is_reserved":false,"is_disabled":false,"rental_uris":{"android":"levelo://app?vid=ac8f8114-8d01-4947-9920-445d732f4362","ios":"levelo://app?vid=ac8f8114-8d01-4947-9920-445d732f4362"},"vehicle_type_id":"4","last_reported":1722701348,"current_range_meters":22800,"station_id":"ce4bhbh2rcd13ifvqepg","pricing_plan_id":"cebpf4jnsgd1na2vs0mg"},{"bike_id":"0664e4a9-4947-4660-818d-2780fc946efc","system_id":"levelo_inurba_marseille","lat":43.28419,"lon":5.34989,"is_reserved":false,"is_disabled":false,"rental_uris":{"android":"levelo://app?vid=0664e4a9-4947-4660-818d-2780fc946efc","ios":"levelo://app?vid=0664e4a9-4947-4660-818d-2780fc946efc"},"vehicle_type_id":"4","last_reported":1722701348,"current_range_meters":31200,"station_id":"ce4bhbh2rcd13ifvqepg","pricing_plan_id":"cebpf4jnsgd1na2vs0mg"},{"bike_id":"f0f3202a-808b-4ab7-9f4d-b2ce50fdba32","system_id":"levelo_inurba_marseille","lat":43.28419,"lon":5.34986,"is_reserved":false,"is_disabled":false,"rental_uris":{"android":"levelo://app?vid=f0f3202a-808b-4ab7-9f4d-b2ce50fdba32","ios":"levelo://app?vid=f0f3202a-808b-4ab7-9f4d-b2ce50fdba32"},"vehicle_type_id":"4","last_reported":1722701348,"current_range_meters":19200,"station_id":"ce4bhbh2rcd13ifvqepg","pricing_plan_id":"cebpf4jnsgd1na2vs0mg"},{"bike_id":"6674d501-8105-41f7-9e85-a86afbb97272","system_id":"levelo_inurba_marseille","lat":43.28417,"lon":5.34992,"is_reserved":false,"is_disabled":false,"rental_uris":{"android":"levelo://app?vid=6674d501-8105-41f7-9e85-a86afbb97272","ios":"levelo://app?vid=6674d501-8105-41f7-9e85-a86afbb97272"},"vehicle_type_id":"4","last_reported":1722701348,"current_range_meters":31200,"station_id":"ce4bhbh2rcd13ifvqepg","pricing_plan_id":"cebpf4jnsgd1na2vs0mg"},{"bike_id":"12acb7fa-4bb2-4953-9b86-9e28b8678bcc","system_id":"levelo_inurba_marseille","lat":43.28422,"lon":5.34976,"is_reserved":false,"is_disabled":false,"rental_uris":{"android":"levelo://app?vid=12acb7fa-4bb2-4953-9b86-9e28b8678bcc","ios":"levelo://app?vid=12acb7fa-4bb2-4953-9b86-9e28b8678bcc"},"vehicle_type_id":"4","last_reported":1722701348,"current_range_meters":30400,"station_id":"ce4bhbh2rcd13ifvqepg","pricing_plan_id":"cebpf4jnsgd1na2vs0mg"},{"bike_id":"5dbb99bb-407b-4f24-8eb8-8fd159843d80","system_id":"levelo_inurba_marseille","lat":43.284184,"lon":5.349872,"is_reserved":false,"is_disabled":false,"rental_uris":{"android":"levelo://app?vid=5dbb99bb-407b-4f24-8eb8-8fd159843d80","ios":"levelo://app?vid=5dbb99bb-407b-4f24-8eb8-8fd159843d80"},"vehicle_type_id":"4","last_reported":1722701348,"current_range_meters":27600,"station_id":"ce4bhbh2rcd13ifvqepg","pricing_plan_id":"cebpf4jnsgd1na2vs0mg"},{"bike_id":"29b562e0-0b2f-4fc7-8ff9-0ee40cccf17f","system_id":"levelo_inurba_marseille","lat":43.284169,"lon":5.349911,"is_reserved":false,"is_disabled":false,"rental_uris":{"android":"levelo://app?vid=29b562e0-0b2f-4fc7-8ff9-0ee40cccf17f","ios":"levelo://app?vid=29b562e0-0b2f-4fc7-8ff9-0ee40cccf17f"},"vehicle_type_id":"4","last_reported":1722701348,"current_range_meters":31200,"station_id":"ce4bhbh2rcd13ifvqepg","pricing_plan_id":"cebpf4jnsgd1na2vs0mg"},{"bike_id":"8d6c5248-1398-4f99-ab7a-d301bd6dd72a","system_id":"levelo_inurba_marseille","lat":43.284163,"lon":5.349914,"is_reserved":false,"is_disabled":false,"rental_uris":{"android":"levelo://app?vid=8d6c5248-1398-4f99-ab7a-d301bd6dd72a","ios":"levelo://app?vid=8d6c5248-1398-4f99-ab7a-d301bd6dd72a"},"vehicle_type_id":"4","last_reported":1722701348,"current_range_meters":12400,"station_id":"ce4bhbh2rcd13ifvqepg","pricing_plan_id":"cebpf4jnsgd1na2vs0mg"},{"bike_id":"bd60d38c-d7f1-41bd-b654-b0841486609a","system_id":"levelo_inurba_marseille","lat":43.284151,"lon":5.349949,"is_reserved":false,"is_disabled":false,"rental_uris":{"android":"levelo://app?vid=bd60d38c-d7f1-41bd-b654-b0841486609a","ios":"levelo://app?vid=bd60d38c-d7f1-41bd-b654-b0841486609a"},"vehicle_type_id":"4","last_reported":1722701348,"current_range_meters":31200,"station_id":"ce4bhbh2rcd13ifvqepg","pricing_plan_id":"cebpf4jnsgd1na2vs0mg"},{"bike_id":"2a88a23b-330a-4f87-8928-95ede3291ae0","system_id":"levelo_inurba_marseille","lat":43.284176,"lon":5.349869,"is_reserved":false,"is_disabled":false,"rental_uris":{"android":"levelo://app?vid=2a88a23b-330a-4f87-8928-95ede3291ae0","ios":"levelo://app?vid=2a88a23b-330a-4f87-8928-95ede3291ae0"},"vehicle_type_id":"4","last_reported":1722701348,"current_range_meters":17200,"station_id":"ce4bhbh2rcd13ifvqepg","pricing_plan_id":"cebpf4jnsgd1na2vs0mg"},{"bike_id":"81cf3c87-b001-44a4-9fbb-b5842f8ea1eb","system_id":"levelo_inurba_marseille","lat":43.28416,"lon":5.34992,"is_reserved":false,"is_disabled":false,"rental_uris":{"android":"levelo://app?vid=81cf3c87-b001-44a4-9fbb-b5842f8ea1eb","ios":"levelo://app?vid=81cf3c87-b001-44a4-9fbb-b5842f8ea1eb"},"vehicle_type_id":"4","last_reported":1722701348,"current_range_meters":25600,"station_id":"ce4bhbh2rcd13ifvqepg","pricing_plan_id":"cebpf4jnsgd1na2vs0mg"},{"bike_id":"635d4a94-0d07-40cf-80a9-3742a4a6a000","system_id":"levelo_inurba_marseille","lat":43.28416,"lon":5.34991,"is_reserved":false,"is_disabled":false,"rental_uris":{"android":"levelo://app?vid=635d4a94-0d07-40cf-80a9-3742a4a6a000","ios":"levelo://app?vid=635d4a94-0d07-40cf-80a9-3742a4a6a000"},"vehicle_type_id":"4","last_reported":1722701348,"current_range_meters":800,"station_id":"ce4bhbh2rcd13ifvqepg","pricing_plan_id":"cebpf4jnsgd1na2vs0mg"},{"bike_id":"c544c12e-4874-4f16-bca7-1a6a2e0ad52d","system_id":"levelo_inurba_marseille","lat":43.28416,"lon":5.34991,"is_reserved":false,"is_disabled":false,"rental_uris":{"android":"levelo://app?vid=c544c12e-4874-4f16-bca7-1a6a2e0ad52d","ios":"levelo://app?vid=c544c12e-4874-4f16-bca7-1a6a2e0ad52d"},"vehicle_type_id":"4","last_reported":1722701348,"current_range_meters":29200,"station_id":"ce4bhbh2rcd13ifvqepg","pricing_plan_id":"cebpf4jnsgd1na2vs0mg"},{"bike_id":"0ba12f93-a7aa-4349-9cc8-8aeb027a276a","system_id":"levelo_inurba_marseille","lat":43.284176,"lon":5.349856,"is_reserved":false,"is_disabled":false,"rental_uris":{"android":"levelo://app?vid=0ba12f93-a7aa-4349-9cc8-8aeb027a276a","ios":"levelo://app?vid=0ba12f93-a7aa-4349-9cc8-8aeb027a276a"},"vehicle_type_id":"4","last_reported":1722701348,"current_range_meters":30400,"station_id":"ce4bhbh2rcd13ifvqepg","pricing_plan_id":"cebpf4jnsgd1na2vs0mg"},{"bike_id":"50d0c94f-e887-4ed8-82d0-1a96fa987547","system_id":"levelo_inurba_marseille","lat":43.284223,"lon":5.349705,"is_reserved":false,"is_disabled":false,"rental_uris":{"android":"levelo://app?vid=50d0c94f-e887-4ed8-82d0-1a96fa987547","ios":"levelo://app?vid=50d0c94f-e887-4ed8-82d0-1a96fa987547"},"vehicle_type_id":"4","last_reported":1722701348,"current_range_meters":5200,"station_id":"ce4bhbh2rcd13ifvqepg","pricing_plan_id":"cebpf4jnsgd1na2vs0mg"},{"bike_id":"0442f172-1dc1-4840-9d01-600346d88a4f","system_id":"levelo_inurba_marseille","lat":43.28417,"lon":5.34987,"is_reserved":false,"is_disabled":false,"rental_uris":{"android":"levelo://app?vid=0442f172-1dc1-4840-9d01-600346d88a4f","ios":"levelo://app?vid=0442f172-1dc1-4840-9d01-600346d88a4f"},"vehicle_type_id":"4","last_reported":1722701348,"current_range_meters":10400,"station_id":"ce4bhbh2rcd13ifvqepg","pricing_plan_id":"cebpf4jnsgd1na2vs0mg"},{"bike_id":"3648a3d9-304e-4b21-8c4f-689a57d5f756","system_id":"levelo_inurba_marseille","lat":43.284161,"lon":5.349894,"is_reserved":false,"is_disabled":false,"rental_uris":{"android":"levelo://app?vid=3648a3d9-304e-4b21-8c4f-689a57d5f756","ios":"levelo://app?vid=3648a3d9-304e-4b21-8c4f-689a57d5f756"},"vehicle_type_id":"4","last_reported":1722701348,"current_range_meters":31200,"station_id":"ce4bhbh2rcd13ifvqepg","pricing_plan_id":"cebpf4jnsgd1na2vs0mg"},{"bike_id":"a74f8a47-5b7e-4f2c-bc18-51598ff9a27e","system_id":"levelo_inurba_marseille","lat":43.28419,"lon":5.3498,"is_reserved":false,"is_disabled":false,"rental_uris":{"android":"levelo://app?vid=a74f8a47-5b7e-4f2c-bc18-51598ff9a27e","ios":"levelo://app?vid=a74f8a47-5b7e-4f2c-bc18-51598ff9a27e"},"vehicle_type_id":"4","last_reported":1722701348,"current_range_meters":11600,"station_id":"ce4bhbh2rcd13ifvqepg","pricing_plan_id":"cebpf4jnsgd1na2vs0mg"},{"bike_id":"4fa18870-c5f9-43bb-aa71-681c4fc43ace","system_id":"levelo_inurba_marseille","lat":43.284183,"lon":5.34981,"is_reserved":false,"is_disabled":false,"rental_uris":{"android":"levelo://app?vid=4fa18870-c5f9-43bb-aa71-681c4fc43ace","ios":"levelo://app?vid=4fa18870-c5f9-43bb-aa71-681c4fc43ace"},"vehicle_type_id":"4","last_reported":1722701348,"current_range_meters":8000,"station_id":"ce4bhbh2rcd13ifvqepg","pricing_plan_id":"cebpf4jnsgd1na2vs0mg"},{"bike_id":"104f2bf0-e49f-40b7-b81e-20471ef7bec3","system_id":"levelo_inurba_marseille","lat":43.28419,"lon":5.349787,"is_reserved":false,"is_disabled":false,"rental_uris":{"android":"levelo://app?vid=104f2bf0-e49f-40b7-b81e-20471ef7bec3","ios":"levelo://app?vid=104f2bf0-e49f-40b7-b81e-20471ef7bec3"},"vehicle_type_id":"4","last_reported":1722701348,"current_range_meters":8400,"station_id":"ce4bhbh2rcd13ifvqepg","pricing_plan_id":"cebpf4jnsgd1na2vs0mg"},{"bike_id":"8a443044-6804-44af-936e-5f5eb8db2a96","system_id":"levelo_inurba_marseille","lat":43.28418,"lon":5.34981,"is_reserved":false,"is_disabled":false,"rental_uris":{"android":"levelo://app?vid=8a443044-6804-44af-936e-5f5eb8db2a96","ios":"levelo://app?vid=8a443044-6804-44af-936e-5f5eb8db2a96"},"vehicle_type_id":"4","last_reported":1722701348,"current_range_meters":29200,"station_id":"ce4bhbh2rcd13ifvqepg","pricing_plan_id":"cebpf4jnsgd1na2vs0mg"},{"bike_id":"095b74d6-4e09-4197-9d47-3d4014372330","system_id":"levelo_inurba_marseille","lat":43.28415,"lon":5.3499,"is_reserved":false,"is_disabled":false,"rental_uris":{"android":"levelo://app?vid=095b74d6-4e09-4197-9d47-3d4014372330","ios":"levelo://app?vid=095b74d6-4e09-4197-9d47-3d4014372330"},"vehicle_type_id":"4","last_reported":1722701348,"current_range_meters":22400,"station_id":"ce4bhbh2rcd13ifvqepg","pricing_plan_id":"cebpf4jnsgd1na2vs0mg"},{"bike_id":"b6ddb9b9-90ad-411d-87f5-c9db3901f2aa","system_id":"levelo_inurba_marseille","lat":43.284173,"lon":5.349824,"is_reserved":false,"is_disabled":false,"rental_uris":{"android":"levelo://app?vid=b6ddb9b9-90ad-411d-87f5-c9db3901f2aa","ios":"levelo://app?vid=b6ddb9b9-90ad-411d-87f5-c9db3901f2aa"},"vehicle_type_id":"4","last_reported":1722701348,"current_range_meters":30000,"station_id":"ce4bhbh2rcd13ifvqepg","pricing_plan_id":"cebpf4jnsgd1na2vs0mg"},{"bike_id":"99d28ebe-15f0-46d9-8585-52368bec32a3","system_id":"levelo_inurba_marseille","lat":43.284199,"lon":5.349738,"is_reserved":false,"is_disabled":false,"rental_uris":{"android":"levelo://app?vid=99d28ebe-15f0-46d9-8585-52368bec32a3","ios":"levelo://app?vid=99d28ebe-15f0-46d9-8585-52368bec32a3"},"vehicle_type_id":"4","last_reported":1722701348,"current_range_meters":18000,"station_id":"ce4bhbh2rcd13ifvqepg","pricing_plan_id":"cebpf4jnsgd1na2vs0mg"},{"bike_id":"a3d3aab5-ee76-47ec-9339-004b1fce8dd5","system_id":"levelo_inurba_marseille","lat":43.28416,"lon":5.34984,"is_reserved":false,"is_disabled":false,"rental_uris":{"android":"levelo://app?vid=a3d3aab5-ee76-47ec-9339-004b1fce8dd5","ios":"levelo://app?vid=a3d3aab5-ee76-47ec-9339-004b1fce8dd5"},"vehicle_type_id":"4","last_reported":1722701348,"current_range_meters":31200,"station_id":"ce4bhbh2rcd13ifvqepg","pricing_plan_id":"cebpf4jnsgd1na2vs0mg"},{"bike_id":"ad434ca0-9a11-47cb-9983-42ca30fc8a34","system_id":"levelo_inurba_marseille","lat":43.28415,"lon":5.34985,"is_reserved":false,"is_disabled":false,"rental_uris":{"android":"levelo://app?vid=ad434ca0-9a11-47cb-9983-42ca30fc8a34","ios":"levelo://app?vid=ad434ca0-9a11-47cb-9983-42ca30fc8a34"},"vehicle_type_id":"4","last_reported":1722701348,"current_range_meters":8400,"station_id":"ce4bhbh2rcd13ifvqepg","pricing_plan_id":"cebpf4jnsgd1na2vs0mg"},