{"last_updated":1684080457,"ttl":30,"version":"2.2","data":{"bikes":[{"bike_id":"e6987441-362a-40f3-92bc-e5f9ecf6b8a9","system_id":"levelo_inurba_marseille","lat":43.31341,"lon":5.367098,"is_reserved":false,"is_disabled":false,"rental_uris":{"android":"levelo://app?vid=e6987441-362a-40f3-92bc-e5f9ecf6b8a9","ios":"levelo://app?vid=e6987441-362a-40f3-92bc-e5f9ecf6b8a9"},"vehicle_type_id":"4","last_reported":1684080457,"current_range_meters":31200,"station_id":"ce4bgr92rcd13ifvqc6g","pricing_plan_id":"free"},{"bike_id":"78639281-da9b-4878-980b-0e688644d586","system_id":"levelo_inurba_marseille","lat":43.31192,"lon":5.36759,"is_reserved":false,"is_disabled":false,"rental_uris":{"android":"levelo://app?vid=78639281-da9b-4878-980b-0e688644d586","ios":"levelo://app?vid=78639281-da9b-4878-980b-0e688644d586"},"vehicle_type_id":"4","last_reported":1684080457,"current_range_meters":31200,"station_id":"","pricing_plan_id":"free"},{"bike_id":"5cbcbd8b-7870-4a10-8bf0-99aa77341ab5","system_id":"levelo_inurba_marseille","lat":43.312239,"lon":5.368562,"is_reserved":false,"is_disabled":false,"rental_uris":{"android":"levelo://app?vid=5cbcbd8b-7870-4a10-8bf0-99aa77341ab5","ios":"levelo://app?vid=5cbcbd8b-7870-4a10-8bf0-99aa77341ab5"},"vehicle_type_id":"4","last_reported":1684080457,"current_range_meters":400,"station_id":"ce4bgl92rcd13ifvqbq0","pricing_plan_id":"free"},{"bike_id":"ef42665b-7a58-430a-a09b-24ad7325a98d","system_id":"levelo_inurba_marseille","lat":43.30588,"lon":5.36563,"is_reserved":false,"is_disabled":false,"rental_uris":{"android":"levelo://app?vid=ef42665b-7a58-430a-a09b-24ad7325a98d","ios":"levelo://app?vid=ef42665b-7a58-430a-a09b-24ad7325a98d"},"vehicle_type_id":"4","last_reported":1684080457,"current_range_meters":11600,"station_id":"","pricing_plan_id":"free"},{"bike_id":"dff8f60e-2589-4771-b1f4-fa1893563f27","system_id":"levelo_inurba_marseille","lat":43.31975,"lon":5.36744,"is_reserved":false,"is_disabled":false,"rental_uris":{"android":"levelo://app?vid=dff8f60e-2589-4771-b1f4-fa1893563f27","ios":"levelo://app?vid=dff8f60e-2589-4771-b1f4-fa1893563f27"},"vehicle_type_id":"4","last_reported":1684080457,"current_range_meters":4000,"station_id":"ce4bhs92rcd13ifvqi0g","pricing_plan_id":"free"},{"bike_id":"eb57caf1-abb9-4e10-9fea-02cd051328d5","system_id":"levelo_inurba_marseille","lat":43.305714,"lon":5.365633,"is_reserved":false,"is_disabled":false,"rental_uris":{"android":"levelo://app?vid=eb57caf1-abb9-4e10-9fea-02cd051328d5","ios":"levelo://app?vid=eb57caf1-abb9-4e10-9fea-02cd051328d5"},"vehicle_type_id":"4","last_reported":1684080457,"current_range_meters":0,"station_id":"ce4bgs12rcd13ifvqcag","pricing_plan_id":"free"},{"bike_id":"c171fe4b-e927-4ba3-9d6c-99c24fda4658","system_id":"levelo_inurba_marseille","lat":43.305989,"lon":5.37225,"is_reserved":false,"is_disabled":false,"rental_uris":{"android":"levelo://app?vid=c171fe4b-e927-4ba3-9d6c-99c24fda4658","ios":"levelo://app?vid=c171fe4b-e927-4ba3-9d6c-99c24fda4658"},"vehicle_type_id":"4","last_reported":1684080457,"current_range_meters":0,"station_id":"ce4bgqh2rcd13ifvqc4g","pricing_plan_id":"free"},{"bike_id":"de2774f6-bda1-4cc8-a27c-b98c75ef9e11","system_id":"levelo_inurba_marseille","lat":43.305989,"lon":5.37225,"is_reserved":false,"is_disabled":false,"rental_uris":{"android":"levelo://app?vid=de2774f6-bda1-4cc8-a27c-b98c75ef9e11","ios":"levelo://app?vid=de2774f6-bda1-4cc8-a27c-b98c75ef9e11"},"vehicle_type_id":"4","last_reported":1684080457,"current_range_meters":1600,"station_id":"ce4bgqh2rcd13ifvqc4g","pricing_plan_id":"free"},{"bike_id":"151d50bc-3aee-48d5-9527-783274464e00","system_id":"levelo_inurba_marseille","lat":43.31193,"lon":5.37774,"is_reserved":false,"is_disabled":false,"rental_uris":{"android":"levelo://app?vid=151d50bc-3aee-48d5-9527-783274464e00","ios":"levelo://app?vid=151d50bc-3aee-48d5-9527-783274464e00"},"vehicle_type_id":"4","last_reported":1684080457,"current_range_meters":8000,"station_id":"","pricing_plan_id":"free"},{"bike_id":"19e3c6d1-42cc-40fe-8a99-97d351ab9e1d","system_id":"levelo_inurba_marseille","lat":43.303046,"lon":5.368981,"is_reserved":false,"is_disabled":false,"rental_uris":{"android":"levelo://app?vid=19e3c6d1-42cc-40fe-8a99-97d351ab9e1d","ios":"levelo://app?vid=19e3c6d1-42cc-40fe-8a99-97d351ab9e1d"},"vehicle_type_id":"4","last_reported":1684080457,"current_range_meters":0,"station_id":"ce4bgqh2rcd13ifvqc5g","pricing_plan_id":"free"},{"bike_id":"5769f561-403a-45a2-96b4-27753a503ad3","system_id":"levelo_inurba_marseille","lat":43.304606,"lon":5.379026,"is_reserved":false,"is_disabled":false,"rental_uris":{"android":"levelo://app?vid=5769f561-403a-45a2-96b4-27753a503ad3","ios":"levelo://app?vid=5769f561-403a-45a2-96b4-27753a503ad3"},"vehicle_type_id":"4","last_reported":1684080457,"current_range_meters":30000,"station_id":"ce4bgup2rcd13ifvqcn0","pricing_plan_id":"free"},{"bike_id":"4844cafd-b874-48a1-9c53-b0dec0a83bbb","system_id":"levelo_inurba_marseille","lat":43.313571,"lon":5.384829,"is_reserved":false,"is_disabled":false,"rental_uris":{"android":"levelo://app?vid=4844cafd-b874-48a1-9c53-b0dec0a83bbb","ios":"levelo://app?vid=4844cafd-b874-48a1-9c53-b0dec0a83bbb"},"vehicle_type_id":"4","last_reported":1684080457,"current_range_meters":19200,"station_id":"ce4bgt92rcd13ifvqcf0","pricing_plan_id":"free"},{"bike_id":"16e4623c-0ec6-4265-85db-81166abbe87d","system_id":"levelo_inurba_marseille","lat":43.298433,"lon":5.362774,"is_reserved":false,"is_disabled":false,"rental_uris":{"android":"levelo://app?vid=16e4623c-0ec6-4265-85db-81166abbe87d","ios":"levelo://app?vid=16e4623c-0ec6-4265-85db-81166abbe87d"},"vehicle_type_id":"4","last_reported":1684080457,"current_range_meters":21600,"station_id":"ce4bgpp2rcd13ifvqc3g","pricing_plan_id":"free"},{"bike_id":"e42fd967-f8b6-4024-9f7e-6501991acf5a","system_id":"levelo_inurba_marseille","lat":43.298433,"lon":5.362774,"is_reserved":false,"is_disabled":false,"rental_uris":{"android":"levelo://app?vid=e42fd967-f8b6-4024-9f7e-6501991acf5a","ios":"levelo://app?vid=e42fd967-f8b6-4024-9f7e-6501991acf5a"},"vehicle_type_id":"4","last_reported":1684080457,"current_range_meters":29600,"station_id":"ce4bgpp2rcd13ifvqc3g","pricing_plan_id":"free"},{"bike_id":"b813a62b-530b-4c56-ab52-137eadc8da02","system_id":"levelo_inurba_marseille","lat":43.311722,"lon":5.387247,"is_reserved":false,"is_disabled":false,"rental_uris":{"android":"levelo://app?vid=b813a62b-530b-4c56-ab52-137eadc8da02","ios":"levelo://app?vid=b813a62b-530b-4c56-ab52-137eadc8da02"},"vehicle_type_id":"4","last_reported":1684080457,"current_range_meters":16400,"station_id":"ce4bgv12rcd13ifvqcp0","pricing_plan_id":"free"},{"bike_id":"a14c7cbc-aad1-41e7-b9a1-ca5f260af0f1","system_id":"levelo_inurba_marseille","lat":43.311722,"lon":5.387247,"is_reserved":false,"is_disabled":false,"rental_uris":{"android":"levelo://app?vid=a14c7cbc-aad1-41e7-b9a1-ca5f260af0f1","ios":"levelo://app?vid=a14c7cbc-aad1-41e7-b9a1-ca5f260af0f1"},"vehicle_type_id":"4","last_reported":1684080457,"current_range_meters":17600,"station_id":"ce4bgv12rcd13ifvqcp0","pricing_plan_id":"free"},{"bike_id":"0faca406-5358-4838-96af-b893891fa29c","system_id":"levelo_inurba_marseille","lat":43.311722,"lon":5.387247,"is_reserved":false,"is_disabled":false,"rental_uris":{"android":"levelo://app?vid=0faca406-5358-4838-96af-b893891fa29c","ios":"levelo://app?vid=0faca406-5358-4838-96af-b893891fa29c"},"vehicle_type_id":"4","last_reported":1684080457,"current_range_meters":30400,"station_id":"ce4bgv12rcd13ifvqcp0","pricing_plan_id":"free"},{"bike_id":"cc6c01f1-e208-478c-88c7-47329b851b86","system_id":"levelo_inurba_marseille","lat":43.311722,"lon":5.387247,"is_reserved":false,"is_disabled":false,"rental_uris":{"android":"levelo://app?vid=cc6c01f1-e208-478c-88c7-47329b851b86","ios":"levelo://app?vid=cc6c01f1-e208-478c-88c7-47329b851b86"},"vehicle_type_id":"4","last_reported":1684080457,"current_range_meters":16800,"station_id":"ce4bgv12rcd13ifvqcp0","pricing_plan_id":"free"},{"bike_id":"f7febe0e-d787-42c0-b7e2-70456ed30774","system_id":"levelo_inurba_marseille","lat":43.311722,"lon":5.387247,"is_reserved":false,"is_disabled":false,"rental_uris":{"android":"levelo://app?vid=f7febe0e-d787-42c0-b7e2-70456ed30774","ios":"levelo://app?vid=f7febe0e-d787-42c0-b7e2-70456ed30774"},"vehicle_type_id":"4","last_reported":1684080457,"current_range_meters":17600,"station_id":"ce4bgv12rcd13ifvqcp0","pricing_plan_id":"free"},{"bike_id":"2f96f4b7-d3f1-4b87-b98f-caf50ba6d13d","system_id":"levelo_inurba_marseille","lat":43.32762,"lon":5.36688,"is_reserved":false,"is_disabled":false,"rental_uris":{"android":"levelo://app?vid=2f96f4b7-d3f1-4b87-b98f-caf50ba6d13d","ios":"levelo://app?vid=2f96f4b7-d3f1-4b87-b98f-caf50ba6d13d"},"vehicle_type_id":"4","last_reported":1684080457,"current_range_meters":7200,"station_id":"","pricing_plan_id":"free"},{"bike_id":"5c18d86b-13c0-4f08-949f-8d2304a16e1a","system_id":"levelo_inurba_marseille","lat":43.297774,"lon":5.370875,"is_reserved":false,"is_disabled":false,"rental_uris":{"android":"levelo://app?vid=5c18d86b-13c0-4f08-949f-8d2304a16e1a","ios":"levelo://app?vid=5c18d86b-13c0-4f08-949f-8d2304a16e1a"},"vehicle_type_id":"4","last_reported":1684080457,"current_range_meters":6000,"station_id":"ce4bgop2rcd13ifvqc1g","pricing_plan_id":"free"},{"bike_id":"ad50fbdc-6818-49a3-976a-84468e8cc53b","system_id":"levelo_inurba_marseille","lat":43.328371,"lon":5.366912,"is_reserved":false,"is_disabled":false,"rental_uris":{"android":"levelo://app?vid=ad50fbdc-6818-49a3-976a-84468e8cc53b","ios":"levelo://app?vid=ad50fbdc-6818-49a3-976a-84468e8cc53b"},"vehicle_type_id":"4","last_reported":1684080457,"current_range_meters":31200,"station_id":"ce4bhs92rcd13ifvqi0g","pricing_plan_id":"free"},{"bike_id":"98fc616f-05d8-4d1d-9c58-d04644bf4fef","system_id":"levelo_inurba_marseille","lat":43.328371,"lon":5.366912,"is_reserved":false,"is_disabled":false,"rental_uris":{"android":"levelo://app?vid=98fc616f-05d8-4d1d-9c58-d04644bf4fef","ios":"levelo://app?vid=98fc616f-05d8-4d1d-9c58-d04644bf4fef"},"vehicle_type_id":"4","last_reported":1684080457,"current_range_meters":28400,"station_id":"ce4bhs92rcd13ifvqi0g","pricing_plan_id":"free"},{"bike_id":"ef619222-d86f-4984-a46f-cda033f9cc5b","system_id":"levelo_inurba_marseille","lat":43.328371,"lon":5.366912,"is_reserved":false,"is_disabled":false,"rental_uris":{"android":"levelo://app?vid=ef619222-d86f-4984-a46f-cda033f9cc5b","ios":"levelo://app?vid=ef619222-d86f-4984-a46f-cda033f9cc5b"},"vehicle_type_id":"4","last_reported":1684080457,"current_range_meters":29200,"station_id":"ce4bhs92rcd13ifvqi0g","pricing_plan_id":"free"},{"bike_id":"b449a4e4-2b40-420f-9a30-3bbbb718557f","system_id":"levelo_inurba_marseille","lat":43.328371,"lon":5.366912,"is_reserved":false,"is_disabled":false,"rental_uris":{"android":"levelo://app?vid=b449a4e4-2b40-420f-9a30-3bbbb718557f","ios":"levelo://app?vid=b449a4e4-2b40-420f-9a30-3bbbb718557f"},"vehicle_type_id":"4","last_reported":1684080457,"current_range_meters":16000,"station_id":"ce4bhs92rcd13ifvqi0g","pricing_plan_id":"free"},{"bike_id":"439e171b-885c-4b84-971d-3c43043903d7","system_id":"levelo_inurba_marseille","lat":43.328371,"lon":5.366912,"is_reserved":false,"is_disabled":false,"rental_uris":{"android":"levelo://app?vid=439e171b-885c-4b84-971d-3c43043903d7","ios":"levelo://app?vid=439e171b-885c-4b84-971d-3c43043903d7"},"vehicle_type_id":"4","last_reported":1684080457,"current_range_meters":23200,"station_id":"ce4bhs92rcd13ifvqi0g","pricing_plan_id":"free"},{"bike_id":"8b551262-3438-4831-9812-be7a47f77893","system_id":"levelo_inurba_marseille","lat":43.328371,"lon":5.366909,"is_reserved":false,"is_disabled":false,"rental_uris":{"android":"levelo://app?vid=8b551262-3438-4831-9812-be7a47f77893","ios":"levelo://app?vid=8b551262-3438-4831-9812-be7a47f77893"},"vehicle_type_id":"4","last_reported":1684080457,"current_range_meters":29600,"station_id":"ce4bhs92rcd13ifvqi0g","pricing_plan_id":"free"},{"bike_id":"acb3285f-1a59-4939-bacf-1321efdfa740","system_id":"levelo_inurba_marseille","lat":43.32827,"lon":5.36682,"is_reserved":false,"is_disabled":false,"rental_uris":{"android":"levelo://app?vid=acb3285f-1a59-4939-bacf-1321efdfa740","ios":"levelo://app?vid=acb3285f-1a59-4939-bacf-1321efdfa740"},"vehicle_type_id":"4","last_reported":1684080457,"current_range_meters":23600,"station_id":"ce4bhs92rcd13ifvqi0g","pricing_plan_id":"free"},{"bike_id":"3f1ee445-79dc-4a77-99ec-f861244bce43","system_id":"levelo_inurba_marseille","lat":43.32828,"lon":5.3669,"is_reserved":false,"is_disabled":false,"rental_uris":{"android":"levelo://app?vid=3f1ee445-79dc-4a77-99ec-f861244bce43","ios":"levelo://app?vid=3f1ee445-79dc-4a77-99ec-f861244bce43"},"vehicle_type_id":"4","last_reported":1684080457,"current_range_meters":20400,"station_id":"ce4bhs92rcd13ifvqi0g","pricing_plan_id":"free"},{"bike_id":"34c470f1-ed41-47d6-8d65-5c286939ee04","system_id":"levelo_inurba_marseille","lat":43.328371,"lon":5.366912,"is_reserved":false,"is_disabled":false,"rental_uris":{"android":"levelo://app?vid=34c470f1-ed41-47d6-8d65-5c286939ee04","ios":"levelo://app?vid=34c470f1-ed41-47d6-8d65-5c286939ee04"},"vehicle_type_id":"4","last_reported":1684080457,"current_range_meters":16000,"station_id":"ce4bhs92rcd13ifvqi0g","pricing_plan_id":"free"},{"bike_id":"5bc79a87-8c51-4256-972d-10ecdbdb6305","system_id":"levelo_inurba_marseille","lat":43.328371,"lon":5.366912,"is_reserved":false,"is_disabled":false,"rental_uris":{"android":"levelo://app?vid=5bc79a87-8c51-4256-972d-10ecdbdb6305","ios":"levelo://app?vid=5bc79a87-8c51-4256-972d-10ecdbdb6305"},"vehicle_type_id":"4","last_reported":1684080457,"current_range_meters":14800,"station_id":"ce4bhs92rcd13ifvqi0g","pricing_plan_id":"free"},{"bike_id":"216acc05-cd3c-4a35-b67b-82ab6e8e46bc","system_id":"levelo_inurba_marseille","lat":43.3283,"lon":5.36685,"is_reserved":false,"is_disabled":false,"rental_uris":{"android":"levelo://app?vid=216acc05-cd3c-4a35-b67b-82ab6e8e46bc","ios":"levelo://app?vid=216acc05-cd3c-4a35-b67b-82ab6e8e46bc"},"vehicle_type_id":"4","last_reported":1684080457,"current_range_meters":15200,"station_id":"ce4bhs92rcd13ifvqi0g","pricing_plan_id":"free"},{"bike_id":"f7e16b9b-dda5-4bba-9d80-00bc064f0f46","system_id":"levelo_inurba_marseille","lat":43.32831,"lon":5.36701,"is_reserved":false,"is_disabled":false,"rental_uris":{"android":"levelo://app?vid=f7e16b9b-dda5-4bba-9d80-00bc064f0f46","ios":"levelo://app?vid=f7e16b9b-dda5-4bba-9d80-00bc064f0f46"},"vehicle_type_id":"4","last_reported":1684080457,"current_range_meters":13600,"station_id":"ce4bhs92rcd13ifvqi0g","pricing_plan_id":"free"},{"bike_id":"c0f01c6e-fe4d-473c-9105-9d9e7e1d6ed4","system_id":"levelo_inurba_marseille","lat":43.328371,"lon":5.366909,"is_reserved":false,"is_disabled":false,"rental_uris":{"android":"levelo://app?vid=c0f01c6e-fe4d-473c-9105-9d9e7e1d6ed4","ios":"levelo://app?vid=c0f01c6e-fe4d-473c-9105-9d9e7e1d6ed4"},"vehicle_type_id":"4","last_reported":1684080457,"current_range_meters":20000,"station_id":"ce4bhs92rcd13ifvqi0g","pricing_plan_id":"free"},{"bike_id":"aaca5fdf-1dee-4b81-aa4f-2d7102ec2d0c","system_id":"levelo_inurba_marseille","lat":43.32836,"lon":5.36689,"is_reserved":false,"is_disabled":false,"rental_uris":{"android":"levelo://app?vid=aaca5fdf-1dee-4b81-aa4f-2d7102ec2d0c","ios":"levelo://app?vid=aaca5fdf-1dee-4b81-aa4f-2d7102ec2d0c"},"vehicle_type_id":"4","last_reported":1684080457,"current_range_meters":18400,"station_id":"ce4bhs92rcd13ifvqi0g","pricing_plan_id":"free"},{"bike_id":"6c1586c3-c48c-4a4c-bb7b-a999e4993e1d","system_id":"levelo_inurba_marseille","lat":43.29705,"lon":5.36602,"is_reserved":false,"is_disabled":false,"rental_uris":{"android":"levelo://app?vid=6c1586c3-c48c-4a4c-bb7b-a999e4993e1d","ios":"levelo://app?vid=6c1586c3-c48c-4a4c-bb7b-a999e4993e1d"},"vehicle_type_id":"4","last_reported":1684080457,"current_range_meters":22000,"station_id":"","pricing_plan_id":"free"},{"bike_id":"19dbfe5d-9e77-4915-8c62-a8b2b75c629f","system_id":"levelo_inurba_marseille","lat":43.29702,"lon":5.3662,"is_reserved":false,"is_disabled":false,"rental_uris":{"android":"levelo://app?vid=19dbfe5d-9e77-4915-8c62-a8b2b75c629f","ios":"levelo://app?vid=19dbfe5d-9e77-4915-8c62-a8b2b75c629f"},"vehicle_type_id":"4","last_reported":1684080457,"current_range_meters":3600,"station_id":"ce4bgn12rcd13ifvqbt0","pricing_plan_id":"free"},{"bike_id":"f9f94eab-7f7f-43a4-bdac-8fca39efbf3e","system_id":"levelo_inurba_marseille","lat":43.29573,"lon":5.367355,"is_reserved":false,"is_disabled":false,"rental_uris":{"android":"levelo://app?vid=f9f94eab-7f7f-43a4-bdac-8fca39efbf3e","ios":"levelo://app?vid=f9f94eab-7f7f-43a4-bdac-8fca39efbf3e"},"vehicle_type_id":"4","last_reported":1684080457,"current_range_meters":22800,"station_id":"ce4bgph2rcd13ifvqc2g","pricing_plan_id":"free"},{"bike_id":"d03fa776-e921-4400-aeee-3b67cbfa1b30","system_id":"levelo_inurba_marseille","lat":43.296921,"lon":5.376579,"is_reserved":false,"is_disabled":false,"rental_uris":{"android":"levelo://app?vid=d03fa776-e921-4400-aeee-3b67cbfa1b30","ios":"levelo://app?vid=d03fa776-e921-4400-aeee-3b67cbfa1b30"},"vehicle_type_id":"4","last_reported":1684080457,"current_range_meters":13200,"station_id":"ce4bgkh2rcd13ifvqbl0","pricing_plan_id":"free"},{"bike_id":"06046919-e756-4586-8a42-b08b921fe2c9","system_id":"levelo_inurba_marseille","lat":43.309589,"lon":5.390258,"is_reserved":false,"is_disabled":false,"rental_uris":{"android":"levelo://app?vid=06046919-e756-4586-8a42-b08b921fe2c9","ios":"levelo://app?vid=06046919-e756-4586-8a42-b08b921fe2c9"},"vehicle_type_id":"4","last_reported":1684080457,"current_range_meters":5600,"station_id":"ce4bgup2rcd13ifvqco0","pricing_plan_id":"free"},{"bike_id":"7e101d88-7926-4513-a08a-b2a6fdb92c65","system_id":"levelo_inurba_marseille","lat":43.31757,"lon":5.39015,"is_reserved":false,"is_disabled":false,"rental_uris":{"android":"levelo://app?vid=7e101d88-7926-4513-a08a-b2a6fdb92c65","ios":"levelo://app?vid=7e101d88-7926-4513-a08a-b2a6fdb92c65"},"vehicle_type_id":"4","last_reported":1684080457,"current_range_meters":24800,"station_id":"ce4bhqp2rcd13ifvqhng","pricing_plan_id":"free"},{"bike_id":"50b54e64-655a-48d1-a7cc-04966a5cff84","system_id":"levelo_inurba_marseille","lat":43.317557,"lon":5.390173,"is_reserved":false,"is_disabled":false,"rental_uris":{"android":"levelo://app?vid=50b54e64-655a-48d1-a7cc-04966a5cff84","ios":"levelo://app?vid=50b54e64-655a-48d1-a7cc-04966a5cff84"},"vehicle_type_id":"4","last_reported":1684080457,"current_range_meters":12000,"station_id":"ce4bhqp2rcd13ifvqhng","pricing_plan_id":"free"},{"bike_id":"4bca6dab-d89c-4659-af83-558644b096a0","system_id":"levelo_inurba_marseille","lat":43.3176,"lon":5.39018,"is_reserved":false,"is_disabled":false,"rental_uris":{"android":"levelo://app?vid=4bca6dab-d89c-4659-af83-558644b096a0","ios":"levelo://app?vid=4bca6dab-d89c-4659-af83-558644b096a0"},"vehicle_type_id":"4","last_reported":1684080457,"current_range_meters":24800,"station_id":"ce4bhqp2rcd13ifvqhng","pricing_plan_id":"free"},{"bike_id":"6b77c43c-960d-417c-8233-25f3afef3740","system_id":"levelo_inurba_marseille","lat":43.317557,"lon":5.390173,"is_reserved":false,"is_disabled":false,"rental_uris":{"android":"levelo://app?vid=6b77c43c-960d-417c-8233-25f3afef3740","ios":"levelo://app?vid=6b77c43c-960d-417c-8233-25f3afef3740"},"vehicle_type_id":"4","last_reported":1684080457,"current_range_meters":26400,"station_id":"ce4bhqp2rcd13ifvqhng","pricing_plan_id":"free"},{"bike_id":"9672fb35-7548-4585-a0b3-2ff7ae41772f","system_id":"levelo_inurba_marseille","lat":43.29616,"lon":5.37718,"is_reserved":false,"is_disabled":false,"rental_uris":{"android":"levelo://app?vid=9672fb35-7548-4585-a0b3-2ff7ae41772f","ios":"levelo://app?vid=9672fb35-7548-4585-a0b3-2ff7ae41772f"},"vehicle_type_id":"4","last_reported":1684080457,"current_range_meters":13600,"station_id":"ce4bgi92rcd13ifvqb90","pricing_plan_id":"free"},{"bike_id":"e3ddac95-d342-4ce0-8466-d721a083fc3b","system_id":"levelo_inurba_marseille","lat":43.299707,"lon":5.384859,"is_reserved":false,"is_disabled":false,"rental_uris":{"android":"levelo://app?vid=e3ddac95-d342-4ce0-8466-d721a083fc3b","ios":"levelo://app?vid=e3ddac95-d342-4ce0-8466-d721a083fc3b"},"vehicle_type_id":"4","last_reported":1684080457,"current_range_meters":28000,"station_id":"ce4bgj92rcd13ifvqbd0","pricing_plan_id":"free"},{"bike_id":"2e79717f-6870-4647-b189-9e8599a545e3","system_id":"levelo_inurba_marseille","lat":43.299707,"lon":5.384859,"is_reserved":false,"is_disabled":false,"rental_uris":{"android":"levelo://app?vid=2e79717f-6870-4647-b189-9e8599a545e3","ios":"levelo://app?vid=2e79717f-6870-4647-b189-9e8599a545e3"},"vehicle_type_id":"4","last_reported":1684080457,"current_range_meters":12000,"station_id":"ce4bgj92rcd13ifvqbd0","pricing_plan_id":"free"},{"bike_id":"69e0e44f-f761-4e8a-a9d9-da4cfa4d57e1","system_id":"levelo_inurba_marseille","lat":43.29967,"lon":5.38496,"is_reserved":false,"is_disabled":false,"rental_uris":{"android":"levelo://app?vid=69e0e44f-f761-4e8a-a9d9-da4cfa4d57e1","ios":"levelo://app?vid=69e0e44f-f761-4e8a-a9d9-da4cfa4d57e1"},"vehicle_type_id":"4","last_reported":1684080457,"current_range_meters":17200,"station_id":"ce4bgj92rcd13ifvqbd0","pricing_plan_id":"free"},{"bike_id":"98d43089-ff1e-40ee-a123-f18e174ce1c4","system_id":"levelo_inurba_marseille","lat":43.31455,"lon":5.39226,"is_reserved":false,"is_disabled":false,"rental_uris":{"android":"levelo://app?vid=98d43089-ff1e-40ee-a123-f18e174ce1c4","ios":"levelo://app?vid=98d43089-ff1e-40ee-a123-f18e174ce1c4"},"vehicle_type_id":"4","last_reported":1684080457,"current_range_meters":0,"station_id":"","pricing_plan_id":"free"},{"bike_id":"b81840fc-2eb8-4ae4-b3f1-3a8b9ec231c4","system_id":"levelo_inurba_marseille","lat":43.29967,"lon":5.38503,"is_reserved":false,"is_disabled":false,"rental_uris":{"android":"levelo://app?vid=b81840fc-2eb8-4ae4-b3f1-3a8b9ec231c4","ios":"levelo://app?vid=b81840fc-2eb8-4ae4-b3f1-3a8b9ec231c4"},"vehicle_type_id":"4","last_reported":1684080457,"current_range_meters":19200,"station_id":"ce4bgj92rcd13ifvqbd0","pricing_plan_id":"free"},{"bike_id":"f3ba59ce-5872-4f91-89d6-c84f6b900d3f","system_id":"levelo_inurba_marseille","lat":43.2996,"lon":5.38502,"is_reserved":false,"is_disabled":false,"rental_uris":{"android":"levelo://app?vid=f3ba59ce-5872-4f91-89d6-c84f6b900d3f","ios":"levelo://app?vid=f3ba59ce-5872-4f91-89d6-c84f6b900d3f"},"vehicle_type_id":"4","last_reported":1684080457,"current_range_meters":12800,"station_id":"ce4bgj92rcd13ifvqbd0","pricing_plan_id":"free"},{"bike_id":"59350e40-0742-4e3c-af8f-89c4d85f2706","system_id":"levelo_inurba_marseille","lat":43.299707,"lon":5.384859,"is_reserved":false,"is_disabled":false,"rental_uris":{"android":"levelo://app?vid=59350e40-0742-4e3c-af8f-89c4d85f2706","ios":"levelo://app?vid=59350e40-0742-4e3c-af8f-89c4d85f2706"},"vehicle_type_id":"4","last_reported":1684080457,"current_range_meters":4800,"station_id":"ce4bgj92rcd13ifvqbd0","pricing_plan_id":"free"},{"bike_id":"51b7e50e-2c0d-4898-ab30-382402010540","system_id":"levelo_inurba_marseille","lat":43.2996,"lon":5.38505,"is_reserved":false,"is_disabled":false,"rental_uris":{"android":"levelo://app?vid=51b7e50e-2c0d-4898-ab30-382402010540","ios":"levelo://app?vid=51b7e50e-2c0d-4898-ab30-382402010540"},"vehicle_type_id":"4","last_reported":1684080457,"current_range_meters":12000,"station_id":"ce4bgj92rcd13ifvqbd0","pricing_plan_id":"free"},{"bike_id":"6f6b02ce-a50b-443a-a31d-aed834771e7b","system_id":"levelo_inurba_marseille","lat":43.31441,"lon":5.39281,"is_reserved":false,"is_disabled":false,"rental_uris":{"android":"levelo://app?vid=6f6b02ce-a50b-443a-a31d-aed834771e7b","ios":"levelo://app?vid=6f6b02ce-a50b-443a-a31d-aed834771e7b"},"vehicle_type_id":"4","last_reported":1684080457,"current_range_meters":1600,"station_id":"","pricing_plan_id":"free"},{"bike_id":"a8ca4ce1-3ce1-49fb-bc69-9a0c9eaf7db7","system_id":"levelo_inurba_marseille","lat":43.293009,"lon":5.374584,"is_reserved":false,"is_disabled":false,"rental_uris":{"android":"levelo://app?vid=a8ca4ce1-3ce1-49fb-bc69-9a0c9eaf7db7","ios":"levelo://app?vid=a8ca4ce1-3ce1-49fb-bc69-9a0c9eaf7db7"},"vehicle_type_id":"4","last_reported":1684080457,"current_range_meters":400,"station_id":"ce4bgi12rcd13ifvqb70","pricing_plan_id":"free"},{"bike_id":"65a8fc54-44f2-480f-a414-e71b11a31b0a","system_id":"levelo_inurba_marseille","lat":43.30291,"lon":5.392006,"is_reserved":false,"is_disabled":false,"rental_uris":{"android":"levelo://app?vid=65a8fc54-44f2-480f-a414-e71b11a31b0a","ios":"levelo://app?vid=65a8fc54-44f2-480f-a414-e71b11a31b0a"},"vehicle_type_id":"4","last_reported":1684080457,"current_range_meters":0,"station_id":"ce4bh2h2rcd13ifvqdh0","pricing_plan_id":"free"},{"bike_id":"0c5960b1-3ae2-4f1c-808b-6bcf28d9f01e","system_id":"levelo_inurba_marseille","lat":43.292663,"lon":5.376389,"is_reserved":false,"is_disabled":false,"rental_uris":{"android":"levelo://app?vid=0c5960b1-3ae2-4f1c-808b-6bcf28d9f01e","ios":"levelo://app?vid=0c5960b1-3ae2-4f1c-808b-6bcf28d9f01e"},"vehicle_type_id":"4","last_reported":1684080457,"current_range_meters":1600,"station_id":"ce4bgi12rcd13ifvqb80","pricing_plan_id":"free"},{"bike_id":"3b78c159-5869-42fa-b6f8-9a3f1ff8d99e","system_id":"levelo_inurba_marseille","lat":43.291675,"lon":5.371583,"is_reserved":false,"is_disabled":false,"rental_uris":{"android":"levelo://app?vid=3b78c159-5869-42fa-b6f8-9a3f1ff8d99e","ios":"levelo://app?vid=3b78c159-5869-42fa-b6f8-9a3f1ff8d99e"},"vehicle_type_id":"4","last_reported":1684080457,"current_range_meters":20800,"station_id":"ce4bha92rcd13ifvqeh0","pricing_plan_id":"free"},{"bike_id":"c1805995-1433-439c-92a3-363681b31ea7","system_id":"levelo_inurba_marseille","lat":43.302008,"lon":5.394694,"is_reserved":false,"is_disabled":false,"rental_uris":{"android":"levelo://app?vid=c1805995-1433-439c-92a3-363681b31ea7","ios":"levelo://app?vid=c1805995-1433-439c-92a3-363681b31ea7"},"vehicle_type_id":"4","last_reported":1684080457,"current_range_meters":22000,"station_id":"ce4bh0p2rcd13ifvqd70","pricing_plan_id":"free"},{"bike_id":"9d67f3a5-40b1-4090-ae7d-a16df082fe8c","system_id":"levelo_inurba_marseille","lat":43.29417,"lon":5.38617,"is_reserved":false,"is_disabled":false,"rental_uris":{"android":"levelo://app?vid=9d67f3a5-40b1-4090-ae7d-a16df082fe8c","ios":"levelo://app?vid=9d67f3a5-40b1-4090-ae7d-a16df082fe8c"},"vehicle_type_id":"4","last_reported":1684080457,"current_range_meters":6400,"station_id":"ce4bh2h2rcd13ifvqdh0","pricing_plan_id":"free"},{"bike_id":"9f129774-36e1-42f1-8229-a7c2be11d89e","system_id":"levelo_inurba_marseille","lat":43.30487,"lon":5.39702,"is_reserved":false,"is_disabled":false,"rental_uris":{"android":"levelo://app?vid=9f129774-36e1-42f1-8229-a7c2be11d89e","ios":"levelo://app?vid=9f129774-36e1-42f1-8229-a7c2be11d89e"},"vehicle_type_id":"4","last_reported":1684080457,"current_range_meters":15200,"station_id":"","pricing_plan_id":"free"},{"bike_id":"00b32554-7459-4f9e-8f20-c875aa4a7992","system_id":"levelo_inurba_marseille","lat":43.294162,"lon":5.386292,"is_reserved":false,"is_disabled":false,"rental_uris":{"android":"levelo://app?vid=00b32554-7459-4f9e-8f20-c875aa4a7992","ios":"levelo://app?vid=00b32554-7459-4f9e-8f20-c875aa4a7992"},"vehicle_type_id":"4","last_reported":1684080457,"current_range_meters":13600,"station_id":"ce4bh2h2rcd13ifvqdh0","pricing_plan_id":"free"},{"bike_id":"7447ab57-9fbd-4eec-adc3-7c9bd4962fe8","system_id":"levelo_inurba_marseille","lat":43.289184,"lon":5.366408,"is_reserved":false,"is_disabled":false,"rental_uris":{"android":"levelo://app?vid=7447ab57-9fbd-4eec-adc3-7c9bd4962fe8","ios":"levelo://app?vid=7447ab57-9fbd-4eec-adc3-7c9bd4962fe8"},"vehicle_type_id":"4","last_reported":1684080457,"current_range_meters":10800,"station_id":"ce4bhap2rcd13ifvqek0","pricing_plan_id":"free"},{"bike_id":"91fdcd3d-65f2-4637-ad1b-797c5d0bb944","system_id":"levelo_inurba_marseille","lat":43.289184,"lon":5.366408,"is_reserved":false,"is_disabled":false,"rental_uris":{"android":"levelo://app?vid=91fdcd3d-65f2-4637-ad1b-797c5d0bb944","ios":"levelo://app?vid=91fdcd3d-65f2-4637-ad1b-797c5d0bb944"},"vehicle_type_id":"4","last_reported":1684080457,"current_range_meters":0,"station_id":"ce4bhap2rcd13ifvqek0","pricing_plan_id":"free"},{"bike_id":"ff29420d-f3c9-4e9a-b700-a62f21d39256","system_id":"levelo_inurba_marseille","lat":43.289468,"lon":5.363719,"is_reserved":false,"is_disabled":false,"rental_uris":{"android":"levelo://app?vid=ff29420d-f3c9-4e9a-b700-a62f21d39256","ios":"levelo://app?vid=ff29420d-f3c9-4e9a-b700-a62f21d39256"},"vehicle_type_id":"4","last_reported":1684080457,"current_range_meters":17200,"station_id":"ce4bhc92rcd13ifvqetg","pricing_plan_id":"free"},{"bike_id":"6d166ccf-3f94-4589-a661-8648ab230f6a","system_id":"levelo_inurba_marseille","lat":43.296921,"lon":5.376579,"is_reserved":false,"is_disabled":false,"rental_uris":{"android":"levelo://app?vid=6d166ccf-3f94-4589-a661-8648ab230f6a","ios":"levelo://app?vid=6d166ccf-3f94-4589-a661-8648ab230f6a"},"vehicle_type_id":"4","last_reported":1684080457,"current_range_meters":15200,"station_id":"ce4bgkh2rcd13ifvqbl0","pricing_plan_id":"free"},{"bike_id":"aaef4a14-558f-4720-a1cb-c865ad843714","system_id":"levelo_inurba_marseille","lat":43.304296,"lon":5.397513,"is_reserved":false,"is_disabled":false,"rental_uris":{"android":"levelo://app?vid=aaef4a14-558f-4720-a1cb-c865ad843714","ios":"levelo://app?vid=aaef4a14-558f-4720-a1cb-c865ad843714"},"vehicle_type_id":"4","last_reported":1684080457,"current_range_meters":9200,"station_id":"ce4bh092rcd13ifvqd20","pricing_plan_id":"free"},{"bike_id":"f26df279-b196-4b99-aab0-5755e5e38c5e","system_id":"levelo_inurba_marseille","lat":43.304296,"lon":5.397513,"is_reserved":false,"is_disabled":false,"rental_uris":{"android":"levelo://app?vid=f26df279-b196-4b99-aab0-5755e5e38c5e","ios":"levelo://app?vid=f26df279-b196-4b99-aab0-5755e5e38c5e"},"vehicle_type_id":"4","last_reported":1684080457,"current_range_meters":4800,"station_id":"ce4bh092rcd13ifvqd20","pricing_plan_id":"free"},{"bike_id":"65470f5b-5287-4d35-8b01-13b518c7b5d1","system_id":"levelo_inurba_marseille","lat":43.304296,"lon":5.397513,"is_reserved":false,"is_disabled":false,"rental_uris":{"android":"levelo://app?vid=65470f5b-5287-4d35-8b01-13b518c7b5d1","ios":"levelo://app?vid=65470f5b-5287-4d35-8b01-13b518c7b5d1"},"vehicle_type_id":"4","last_reported":1684080457,"current_range_meters":3600,"station_id":"ce4bh092rcd13ifvqd20","pricing_plan_id":"free"},{"bike_id":"a98ff5bd-e355-4be9-973d-4bb68d559ab4","system_id":"levelo_inurba_marseille","lat":43.33041,"lon":5.38919,"is_reserved":false,"is_disabled":false,"rental_uris":{"android":"levelo://app?vid=a98ff5bd-e355-4be9-973d-4bb68d559ab4","ios":"levelo://app?vid=a98ff5bd-e355-4be9-973d-4bb68d559ab4"},"vehicle_type_id":"4","last_reported":1684080457,"current_range_meters":8800,"station_id":"ce4bhr92rcd13ifvqhrg","pricing_plan_id":"free"},{"bike_id":"45267953-7b14-4eb9-9ce6-09c9bf50dfb4","system_id":"levelo_inurba_marseille","lat":43.33041,"lon":5.38919,"is_reserved":false,"is_disabled":false,"rental_uris":{"android":"levelo://app?vid=45267953-7b14-4eb9-9ce6-09c9bf50dfb4","ios":"levelo://app?vid=45267953-7b14-4eb9-9ce6-09c9bf50dfb4"},"vehicle_type_id":"4","last_reported":1684080457,"current_range_meters":25600,"station_id":"ce4bhr92rcd13ifvqhrg","pricing_plan_id":"free"},{"bike_id":"9b34a26f-1256-4b06-a2cd-2e6177e89d22","system_id":"levelo_inurba_marseille","lat":43.33042,"lon":5.38918,"is_reserved":false,"is_disabled":false,"rental_uris":{"android":"levelo://app?vid=9b34a26f-1256-4b06-a2cd-2e6177e89d22","ios":"levelo://app?vid=9b34a26f-1256-4b06-a2cd-2e6177e89d22"},"vehicle_type_id":"4","last_reported":1684080457,"current_range_meters":23200,"station_id":"ce4bhr92rcd13ifvqhrg","pricing_plan_id":"free"},{"bike_id":"f9f6f92b-729c-499f-903e-d9b2ef5b0843","system_id":"levelo_inurba_marseille","lat":43.29009,"lon":5.35613,"is_reserved":false,"is_disabled":false,"rental_uris":{"android":"levelo://app?vid=f9f6f92b-729c-499f-903e-d9b2ef5b0843","ios":"levelo://app?vid=f9f6f92b-729c-499f-903e-d9b2ef5b0843"},"vehicle_type_id":"4","last_reported":1684080457,"current_range_meters":20400,"station_id":"ce4bhb92rcd13ifvqen0","pricing_plan_id":"free"},{"bike_id":"f06c3db4-7889-4c18-99f8-d1db674ac9f6","system_id":"levelo_inurba_marseille","lat":43.33044,"lon":5.38916,"is_reserved":false,"is_disabled":false,"rental_uris":{"android":"levelo://app?vid=f06c3db4-7889-4c18-99f8-d1db674ac9f6","ios":"levelo://app?vid=f06c3db4-7889-4c18-99f8-d1db674ac9f6"},"vehicle_type_id":"4","last_reported":1684080457,"current_range_meters":4400,"station_id":"ce4bhr92rcd13ifvqhrg","pricing_plan_id":"free"},{"bike_id":"f3562043-b80d-45e3-967d-ba21f94bef01","system_id":"levelo_inurba_marseille","lat":43.33042,"lon":5.3892,"is_reserved":false,"is_disabled":false,"rental_uris":{"android":"levelo://app?vid=f3562043-b80d-45e3-967d-ba21f94bef01","ios":"levelo://app?vid=f3562043-b80d-45e3-967d-ba21f94bef01"},"vehicle_type_id":"4","last_reported":1684080457,"current_range_meters":30400,"station_id":"ce4bhr92rcd13ifvqhrg","pricing_plan_id":"free"},{"bike_id":"716f196f-bdac-4a6a-9628-97caa9d0581b","system_id":"levelo_inurba_marseille","lat":43.33043,"lon":5.38919,"is_reserved":false,"is_disabled":false,"rental_uris":{"android":"levelo://app?vid=716f196f-bdac-4a6a-9628-97caa9d0581b","ios":"levelo://app?vid=716f196f-bdac-4a6a-9628-97caa9d0581b"},"vehicle_type_id":"4","last_reported":1684080457,"current_range_meters":8800,"station_id":"ce4bhr92rcd13ifvqhrg","pricing_plan_id":"free"},{"bike_id":"d9c65fb5-b538-43a6-8b06-cce8ee9f5b2a","system_id":"levelo_inurba_marseille","lat":43.33042,"lon":5.38921,"is_reserved":false,"is_disabled":false,"rental_uris":{"android":"levelo://app?vid=d9c65fb5-b538-43a6-8b06-cce8ee9f5b2a","ios":"levelo://app?vid=d9c65fb5-b538-43a6-8b06-cce8ee9f5b2a"},"vehicle_type_id":"4","last_reported":1684080457,"current_range_meters":25200,"station_id":"ce4bhr92rcd13ifvqhrg","pricing_plan_id":"free"},{"bike_id":"b8d0a2d7-4443-405c-9e1e-71d351b2ac12","system_id":"levelo_inurba_marseille","lat":43.33041,"lon":5.38923,"is_reserved":false,"is_disabled":false,"rental_uris":{"android":"levelo://app?vid=b8d0a2d7-4443-405c-9e1e-71d351b2ac12","ios":"levelo://app?vid=b8d0a2d7-4443-405c-9e1e-71d351b2ac12"},"vehicle_type_id":"4","last_reported":1684080457,"current_range_meters":17200,"station_id":"ce4bhr92rcd13ifvqhrg","pricing_plan_id":"free"},{"bike_id":"99d11ff8-cd4f-4243-907c-822c17bc769b","system_id":"levelo_inurba_marseille","lat":43.33042,"lon":5.38922,"is_reserved":false,"is_disabled":false,"rental_uris":{"android":"levelo://app?vid=99d11ff8-cd4f-4243-907c-822c17bc769b","ios":"levelo://app?vid=99d11ff8-cd4f-4243-907c-822c17bc769b"},"vehicle_type_id":"4","last_reported":1684080457,"current_range_meters":16400,"station_id":"ce4bhr92rcd13ifvqhrg","pricing_plan_id":"free"},{"bike_id":"754ef565-0150-4f0d-8c0d-a8a5d6927613","system_id":"levelo_inurba_marseille","lat":43.33044,"lon":5.38922,"is_reserved":false,"is_disabled":false,"rental_uris":{"android":"levelo://app?vid=754ef565-0150-4f0d-8c0d-a8a5d6927613","ios":"levelo://app?vid=754ef565-0150-4f0d-8c0d-a8a5d6927613"},"vehicle_type_id":"4","last_reported":1684080457,"current_range_meters":14400,"station_id":"ce4bhr92rcd13ifvqhrg","pricing_plan_id":"free"},{"bike_id":"f6d8f679-e0ff-49da-a8ab-6bae6795f18b","system_id":"levelo_inurba_marseille","lat":43.33046,"lon":5.38921,"is_reserved":false,"is_disabled":false,"rental_uris":{"android":"levelo://app?vid=f6d8f679-e0ff-49da-a8ab-6bae6795f18b","ios":"levelo://app?vid=f6d8f679-e0ff-49da-a8ab-6bae6795f18b"},"vehicle_type_id":"4","last_reported":1684080457,"current_range_meters":400,"station_id":"ce4bhr92rcd13ifvqhrg","pricing_plan_id":"free"},{"bike_id":"39061273-e584-4602-87db-43fe8f5c87e7","system_id":"levelo_inurba_marseille","lat":43.290103,"lon":5.356114,"is_reserved":false,"is_disabled":false,"rental_uris":{"android":"levelo://app?vid=39061273-e584-4602-87db-43fe8f5c87e7","ios":"levelo://app?vid=39061273-e584-4602-87db-43fe8f5c87e7"},"vehicle_type_id":"4","last_reported":1684080457,"current_range_meters":3200,"station_id":"ce4bhb92rcd13ifvqen0","pricing_plan_id":"free"},{"bike_id":"b6f6d473-2b93-4cce-922a-d5bb7896a469","system_id":"levelo_inurba_marseille","lat":43.290103,"lon":5.356114,"is_reserved":false,"is_disabled":false,"rental_uris":{"android":"levelo://app?vid=b6f6d473-2b93-4cce-922a-d5bb7896a469","ios":"levelo://app?vid=b6f6d473-2b93-4cce-922a-d5bb7896a469"},"vehicle_type_id":"4","last_reported":1684080457,"current_range_meters":24000,"station_id":"ce4bhb92rcd13ifvqen0","pricing_plan_id":"free"},{"bike_id":"f858ed83-ee44-4a0a-a517-1d942b91ac51","system_id":"levelo_inurba_marseille","lat":43.290995,"lon":5.381361,"is_reserved":false,"is_disabled":false,"rental_uris":{"android":"levelo://app?vid=f858ed83-ee44-4a0a-a517-1d942b91ac51","ios":"levelo://app?vid=f858ed83-ee44-4a0a-a517-1d942b91ac51"},"vehicle_type_id":"4","last_reported":1684080457,"current_range_meters":16400,"station_id":"ce4bh512rcd13ifvqe2g","pricing_plan_id":"free"},{"bike_id":"876d2474-b51a-4f57-ab97-2fe6d9f68db7","system_id":"levelo_inurba_marseille","lat":43.290995,"lon":5.381361,"is_reserved":false,"is_disabled":false,"rental_uris":{"android":"levelo://app?vid=876d2474-b51a-4f57-ab97-2fe6d9f68db7","ios":"levelo://app?vid=876d2474-b51a-4f57-ab97-2fe6d9f68db7"},"vehicle_type_id":"4","last_reported":1684080457,"current_range_meters":0,"station_id":"ce4bh512rcd13ifvqe2g","pricing_plan_id":"free"},{"bike_id":"cad193f2-44f3-4b2a-bd83-5b224084ecef","system_id":"levelo_inurba_marseille","lat":43.29795,"lon":5.39351,"is_reserved":false,"is_disabled":false,"rental_uris":{"android":"levelo://app?vid=cad193f2-44f3-4b2a-bd83-5b224084ecef","ios":"levelo://app?vid=cad193f2-44f3-4b2a-bd83-5b224084ecef"},"vehicle_type_id":"4","last_reported":1684080457,"current_range_meters":25200,"station_id":"ce4bh212rcd13ifvqde0","pricing_plan_id":"free"},{"bike_id":"b13d97f6-54ac-473d-8d16-56984ad5c198","system_id":"levelo_inurba_marseille","lat":43.289743,"lon":5.378304,"is_reserved":false,"is_disabled":false,"rental_uris":{"android":"levelo://app?vid=b13d97f6-54ac-473d-8d16-56984ad5c198","ios":"levelo://app?vid=b13d97f6-54ac-473d-8d16-56984ad5c198"},"vehicle_type_id":"4","last_reported":1684080457,"current_range_meters":7600,"station_id":"ce4bh9p2rcd13ifvqed0","pricing_plan_id":"free"},{"bike_id":"235bfca5-3523-4573-9b75-a1fadb68ed6a","system_id":"levelo_inurba_marseille","lat":43.337328,"lon":5.374538,"is_reserved":false,"is_disabled":false,"rental_uris":{"android":"levelo://app?vid=235bfca5-3523-4573-9b75-a1fadb68ed6a","ios":"levelo://app?vid=235bfca5-3523-4573-9b75-a1fadb68ed6a"},"vehicle_type_id":"4","last_reported":1684080457,"current_range_meters":26800,"station_id":"ce4bhah2rcd13ifvqei0","pricing_plan_id":"free"},{"bike_id":"add5f874-e8d3-42d2-8dd5-3374246db2cf","system_id":"levelo_inurba_marseille","lat":43.33737,"lon":5.37445,"is_reserved":false,"is_disabled":false,"rental_uris":{"android":"levelo://app?vid=add5f874-e8d3-42d2-8dd5-3374246db2cf","ios":"levelo://app?vid=add5f874-e8d3-42d2-8dd5-3374246db2cf"},"vehicle_type_id":"4","last_reported":1684080457,"current_range_meters":30000,"station_id":"","pricing_plan_id":"free"},{"bike_id":"5b3ce0e7-ddde-4f08-9689-05c27b8dd4cc","system_id":"levelo_inurba_marseille","lat":43.337436,"lon":5.374627,"is_reserved":false,"is_disabled":false,"rental_uris":{"android":"levelo://app?vid=5b3ce0e7-ddde-4f08-9689-05c27b8dd4cc","ios":"levelo://app?vid=5b3ce0e7-ddde-4f08-9689-05c27b8dd4cc"},"vehicle_type_id":"4","last_reported":1684080457,"current_range_meters":27600,"station_id":"ce4bhnp2rcd13ifvqgvg","pricing_plan_id":"free"},{"bike_id":"ec040c88-9450-4208-ab6a-d862a6fb3220","system_id":"levelo_inurba_marseille","lat":43.30642,"lon":5.401031,"is_reserved":false,"is_disabled":false,"rental_uris":{"android":"levelo://app?vid=ec040c88-9450-4208-ab6a-d862a6fb3220","ios":"levelo://app?vid=ec040c88-9450-4208-ab6a-d862a6fb3220"},"vehicle_type_id":"4","last_reported":1684080457,"current_range_meters":20400,"station_id":"ce4bh112rcd13ifvqda0","pricing_plan_id":"free"},{"bike_id":"6a189226-a063-4950-b3ee-0c40718a3f3b","system_id":"levelo_inurba_marseille","lat":43.33768,"lon":5.37428,"is_reserved":false,"is_disabled":false,"rental_uris":{"android":"levelo://app?vid=6a189226-a063-4950-b3ee-0c40718a3f3b","ios":"levelo://app?vid=6a189226-a063-4950-b3ee-0c40718a3f3b"},"vehicle_type_id":"4","last_reported":1684080457,"current_range_meters":30800,"station_id":"","pricing_plan_id":"free"},{"bike_id":"cb666eed-c9ae-4470-b8df-feb5640e1354","system_id":"levelo_inurba_marseille","lat":43.30642,"lon":5.401031,"is_reserved":false,"is_disabled":false,"rental_uris":{"android":"levelo://app?vid=cb666eed-c9ae-4470-b8df-feb5640e1354","ios":"levelo://app?vid=cb666eed-c9ae-4470-b8df-feb5640e1354"},"vehicle_type_id":"4","last_reported":1684080457,"current_range_meters":21600,"station_id":"ce4bh112rcd13ifvqda0","pricing_plan_id":"free"},{"bike_id":"85ae9ceb-6525-4e24-867c-ba3c8d9f798f","system_id":"levelo_inurba_marseille","lat":43.30642,"lon":5.401031,"is_reserved":false,"is_disabled":false,"rental_uris":{"android":"levelo://app?vid=85ae9ceb-6525-4e24-867c-ba3c8d9f798f","ios":"levelo://app?vid=85ae9ceb-6525-4e24-867c-ba3c8d9f798f"},"vehicle_type_id":"4","last_reported":1684080457,"current_range_meters":18800,"station_id":"ce4bh112rcd13ifvqda0","pricing_plan_id":"free"},{"bike_id":"fc588677-6101-425d-853d-135a92e0fae4","system_id":"levelo_inurba_marseille","lat":43.30642,"lon":5.401031,"is_reserved":false,"is_disabled":false,"rental_uris":{"android":"levelo://app?vid=fc588677-6101-425d-853d-135a92e0fae4","ios":"levelo://app?vid=fc588677-6101-425d-853d-135a92e0fae4"},"vehicle_type_id":"4","last_reported":1684080457,"current_range_meters":28800,"station_id":"ce4bh112rcd13ifvqda0","pricing_plan_id":"free"},{"bike_id":"aa0e4cda-10dc-4355-8289-8dfb3afb1fc0","system_id":"levelo_inurba_marseille","lat":43.298854,"lon":5.397698,"is_reserved":false,"is_disabled":false,"rental_uris":{"android":"levelo://app?vid=aa0e4cda-10dc-4355-8289-8dfb3afb1fc0","ios":"levelo://app?vid=aa0e4cda-10dc-4355-8289-8dfb3afb1fc0"},"vehicle_type_id":"4","last_reported":1684080457,"current_range_meters":19200,"station_id":"","pricing_plan_id":"free"},{"bike_id":"927ecf3b-7a7b-4abb-a250-24b6c38bc06e","system_id":"levelo_inurba_marseille","lat":43.290345,"lon":5.38646,"is_reserved":false,"is_disabled":false,"rental_uris":{"android":"levelo://app?vid=927ecf3b-7a7b-4abb-a250-24b6c38bc06e","ios":"levelo://app?vid=927ecf3b-7a7b-4abb-a250-24b6c38bc06e"},"vehicle_type_id":"4","last_reported":1684080457,"current_range_meters":4000,"station_id":"ce4bh4p2rcd13ifvqe0g","pricing_plan_id":"free"},{"bike_id":"74c5433c-d551-4dc2-88d7-d1056d847314","system_id":"levelo_inurba_marseille","lat":43.290336,"lon":5.386425,"is_reserved":false,"is_disabled":false,"rental_uris":{"android":"levelo://app?vid=74c5433c-d551-4dc2-88d7-d1056d847314","ios":"levelo://app?vid=74c5433c-d551-4dc2-88d7-d1056d847314"},"vehicle_type_id":"4","last_reported":1684080457,"current_range_meters":3200,"station_id":"ce4bh4p2rcd13ifvqe0g","pricing_plan_id":"free"},{"bike_id":"54f557e5-fd78-4989-b9eb-8a47f3048d54","system_id":"levelo_inurba_marseille","lat":43.290336,"lon":5.386425,"is_reserved":false,"is_disabled":false,"rental_uris":{"android":"levelo://app?vid=54f557e5-fd78-4989-b9eb-8a47f3048d54","ios":"levelo://app?vid=54f557e5-fd78-4989-b9eb-8a47f3048d54"},"vehicle_type_id":"4","last_reported":1684080457,"current_range_meters":12400,"station_id":"ce4bh4p2rcd13ifvqe0g","pricing_plan_id":"free"},{"bike_id":"999a0128-4019-4cac-8c48-c68a52655cda","system_id":"levelo_inurba_marseille","lat":43.290336,"lon":5.386425,"is_reserved":false,"is_disabled":false,"rental_uris":{"android":"levelo://app?vid=999a0128-4019-4cac-8c48-c68a52655cda","ios":"levelo://app?vid=999a0128-4019-4cac-8c48-c68a52655cda"},"vehicle_type_id":"4","last_reported":1684080457,"current_range_meters":18800,"station_id":"ce4bh4p2rcd13ifvqe0g","pricing_plan_id":"free"},{"bike_id":"731f6b75-bcae-4764-aacf-969e14bd862a","system_id":"levelo_inurba_marseille","lat":43.290336,"lon":5.386425,"is_reserved":false,"is_disabled":false,"rental_uris":{"android":"levelo://app?vid=731f6b75-bcae-4764-aacf-969e14bd862a","ios":"levelo://app?vid=731f6b75-bcae-4764-aacf-969e14bd862a"},"vehicle_type_id":"4","last_reported":1684080457,"current_range_meters":23200,"station_id":"ce4bh4p2rcd13ifvqe0g","pricing_plan_id":"free"},{"bike_id":"26fdef11-aa70-42cf-8f06-9bdbcf224957","system_id":"levelo_inurba_marseille","lat":43.290336,"lon":5.386425,"is_reserved":false,"is_disabled":false,"rental_uris":{"android":"levelo://app?vid=26fdef11-aa70-42cf-8f06-9bdbcf224957","ios":"levelo://app?vid=26fdef11-aa70-42cf-8f06-9bdbcf224957"},"vehicle_type_id":"4","last_reported":1684080457,"current_range_meters":17200,"station_id":"ce4bh4p2rcd13ifvqe0g","pricing_plan_id":"free"},{"bike_id":"65577923-bf0a-4809-b486-3c309a4d940a","system_id":"levelo_inurba_marseille","lat":43.286039,"lon":5.370679,"is_reserved":false,"is_disabled":false,"rental_uris":{"android":"levelo://app?vid=65577923-bf0a-4809-b486-3c309a4d940a","ios":"levelo://app?vid=65577923-bf0a-4809-b486-3c309a4d940a"},"vehicle_type_id":"4","last_reported":1684080457,"current_range_meters":22000,"station_id":"ce4bht12rcd13ifvqi60","pricing_plan_id":"free"},{"bike_id":"1668ffd1-3672-4462-9ad7-f04c0b69b1b1","system_id":"levelo_inurba_marseille","lat":43.286039,"lon":5.370679,"is_reserved":false,"is_disabled":false,"rental_uris":{"android":"levelo://app?vid=1668ffd1-3672-4462-9ad7-f04c0b69b1b1","ios":"levelo://app?vid=1668ffd1-3672-4462-9ad7-f04c0b69b1b1"},"vehicle_type_id":"4","last_reported":1684080457,"current_range_meters":17200,"station_id":"ce4bht12rcd13ifvqi60","pricing_plan_id":"free"},{"bike_id":"06a92d6d-39de-4dbe-8b8c-ad0a1c49dbda","system_id":"levelo_inurba_marseille","lat":43.316517,"lon":5.404375,"is_reserved":false,"is_disabled":false,"rental_uris":{"android":"levelo://app?vid=06a92d6d-39de-4dbe-8b8c-ad0a1c49dbda","ios":"levelo://app?vid=06a92d6d-39de-4dbe-8b8c-ad0a1c49dbda"},"vehicle_type_id":"4","last_reported":1684080457,"current_range_meters":0,"station_id":"ce4bh012rcd13ifvqd00","pricing_plan_id":"free"},{"bike_id":"33dfb2e0-9864-4fe8-9af9-0b599953adc6","system_id":"levelo_inurba_marseille","lat":43.30294,"lon":5.4023,"is_reserved":false,"is_disabled":false,"rental_uris":{"android":"levelo://app?vid=33dfb2e0-9864-4fe8-9af9-0b599953adc6","ios":"levelo://app?vid=33dfb2e0-9864-4fe8-9af9-0b599953adc6"},"vehicle_type_id":"4","last_reported":1684080457,"current_range_meters":20400,"station_id":"","pricing_plan_id":"free"},{"bike_id":"9a0b402f-fc78-4450-8eb3-b9adf18e4e63","system_id":"levelo_inurba_marseille","lat":43.284538,"lon":5.358657,"is_reserved":false,"is_disabled":false,"rental_uris":{"android":"levelo://app?vid=9a0b402f-fc78-4450-8eb3-b9adf18e4e63","ios":"levelo://app?vid=9a0b402f-fc78-4450-8eb3-b9adf18e4e63"},"vehicle_type_id":"4","last_reported":1684080457,"current_range_meters":4800,"station_id":"ce4bhah2rcd13ifvqei0","pricing_plan_id":"free"},{"bike_id":"c471c8a2-edca-4be7-b191-cf3e66e369e5","system_id":"levelo_inurba_marseille","lat":43.284534,"lon":5.358662,"is_reserved":false,"is_disabled":false,"rental_uris":{"android":"levelo://app?vid=c471c8a2-edca-4be7-b191-cf3e66e369e5","ios":"levelo://app?vid=c471c8a2-edca-4be7-b191-cf3e66e369e5"},"vehicle_type_id":"4","last_reported":1684080457,"current_range_meters":2000,"station_id":"ce4bhah2rcd13ifvqei0","pricing_plan_id":"free"},{"bike_id":"f3ab2412-a434-4f99-81a1-dc58f472dee0","system_id":"levelo_inurba_marseille","lat":43.284534,"lon":5.358662,"is_reserved":false,"is_disabled":false,"rental_uris":{"android":"levelo://app?vid=f3ab2412-a434-4f99-81a1-dc58f472dee0","ios":"levelo://app?vid=f3ab2412-a434-4f99-81a1-dc58f472dee0"},"vehicle_type_id":"4","last_reported":1684080457,"current_range_meters":29200,"station_id":"ce4bhah2rcd13ifvqei0","pricing_plan_id":"free"},{"bike_id":"64ad4ec4-515d-4a11-931c-1116c62134f1","system_id":"levelo_inurba_marseille","lat":43.285848,"lon":5.350787,"is_reserved":false,"is_disabled":false,"rental_uris":{"android":"levelo://app?vid=64ad4ec4-515d-4a11-931c-1116c62134f1","ios":"levelo://app?vid=64ad4ec4-515d-4a11-931c-1116c62134f1"},"vehicle_type_id":"4","last_reported":1684080457,"current_range_meters":23600,"station_id":"ce4bhch2rcd13ifvqeug","pricing_plan_id":"free"},{"bike_id":"2bd45963-5306-46f5-bf2e-f850950dfc85","system_id":"levelo_inurba_marseille","lat":43.2862,"lon":5.35101,"is_reserved":false,"is_disabled":false,"rental_uris":{"android":"levelo://app?vid=2bd45963-5306-46f5-bf2e-f850950dfc85","ios":"levelo://app?vid=2bd45963-5306-46f5-bf2e-f850950dfc85"},"vehicle_type_id":"4","last_reported":1684080457,"current_range_meters":18800,"station_id":"","pricing_plan_id":"free"},{"bike_id":"05db418d-397f-4be1-99be-121d95a49d92","system_id":"levelo_inurba_marseille","lat":43.28618,"lon":5.35105,"is_reserved":false,"is_disabled":false,"rental_uris":{"android":"levelo://app?vid=05db418d-397f-4be1-99be-121d95a49d92","ios":"levelo://app?vid=05db418d-397f-4be1-99be-121d95a49d92"},"vehicle_type_id":"4","last_reported":1684080457,"current_range_meters":17600,"station_id":"","pricing_plan_id":"free"},{"bike_id":"e8b3347f-b54d-4622-b95b-8c6b458bdb10","system_id":"levelo_inurba_marseille","lat":43.285848,"lon":5.350787,"is_reserved":false,"is_disabled":false,"rental_uris":{"android":"levelo://app?vid=e8b3347f-b54d-4622-b95b-8c6b458bdb10","ios":"levelo://app?vid=e8b3347f-b54d-4622-b95b-8c6b458bdb10"},"vehicle_type_id":"4","last_reported":1684080457,"current_range_meters":17600,"station_id":"ce4bhch2rcd13ifvqeug","pricing_plan_id":"free"},{"bike_id":"557fb934-9e23-49d0-b13b-3524ef0e6730","system_id":"levelo_inurba_marseille","lat":43.28618,"lon":5.35096,"is_reserved":false,"is_disabled":false,"rental_uris":{"android":"levelo://app?vid=557fb934-9e23-49d0-b13b-3524ef0e6730","ios":"levelo://app?vid=557fb934-9e23-49d0-b13b-3524ef0e6730"},"vehicle_type_id":"4","last_reported":1684080457,"current_range_meters":16000,"station_id":"","pricing_plan_id":"free"},{"bike_id":"000d53d9-40f7-4622-9d87-84f3d939043b","system_id":"levelo_inurba_marseille","lat":43.285856,"lon":5.350771,"is_reserved":false,"is_disabled":false,"rental_uris":{"android":"levelo://app?vid=000d53d9-40f7-4622-9d87-84f3d939043b","ios":"levelo://app?vid=000d53d9-40f7-4622-9d87-84f3d939043b"},"vehicle_type_id":"4","last_reported":1684080457,"current_range_meters":25200,"station_id":"ce4bhch2rcd13ifvqeug","pricing_plan_id":"free"},{"bike_id":"492a81f2-83a5-4509-985c-49c8f39e5b65","system_id":"levelo_inurba_marseille","lat":43.28615,"lon":5.35099,"is_reserved":false,"is_disabled":false,"rental_uris":{"android":"levelo://app?vid=492a81f2-83a5-4509-985c-49c8f39e5b65","ios":"levelo://app?vid=492a81f2-83a5-4509-985c-49c8f39e5b65"},"vehicle_type_id":"4","last_reported":1684080457,"current_range_meters":9200,"station_id":"","pricing_plan_id":"free"},{"bike_id":"a7b93beb-52d4-49ad-b877-6819567f34a0","system_id":"levelo_inurba_marseille","lat":43.28614,"lon":5.35102,"is_reserved":false,"is_disabled":false,"rental_uris":{"android":"levelo://app?vid=a7b93beb-52d4-49ad-b877-6819567f34a0","ios":"levelo://app?vid=a7b93beb-52d4-49ad-b877-6819567f34a0"},"vehicle_type_id":"4","last_reported":1684080457,"current_range_meters":29600,"station_id":"","pricing_plan_id":"free"},{"bike_id":"f6969433-8df9-4b5a-ad01-44012df2a5de","system_id":"levelo_inurba_marseille","lat":43.286138,"lon":5.351017,"is_reserved":false,"is_disabled":false,"rental_uris":{"android":"levelo://app?vid=f6969433-8df9-4b5a-ad01-44012df2a5de","ios":"levelo://app?vid=f6969433-8df9-4b5a-ad01-44012df2a5de"},"vehicle_type_id":"4","last_reported":1684080457,"current_range_meters":14000,"station_id":"ce4bhbp2rcd13ifvqerg","pricing_plan_id":"free"},{"bike_id":"9b74fd4c-eba6-4a11-9701-0b48edc26835","system_id":"levelo_inurba_marseille","lat":43.28613,"lon":5.35103,"is_reserved":false,"is_disabled":false,"rental_uris":{"android":"levelo://app?vid=9b74fd4c-eba6-4a11-9701-0b48edc26835","ios":"levelo://app?vid=9b74fd4c-eba6-4a11-9701-0b48edc26835"},"vehicle_type_id":"4","last_reported":1684080457,"current_range_meters":4400,"station_id":"","pricing_plan_id":"free"},{"bike_id":"75f03dbf-01f5-4855-9158-4992b12adee1","system_id":"levelo_inurba_marseille","lat":43.28613,"lon":5.35101,"is_reserved":false,"is_disabled":false,"rental_uris":{"android":"levelo://app?vid=75f03dbf-01f5-4855-9158-4992b12adee1","ios":"levelo://app?vid=75f03dbf-01f5-4855-9158-4992b12adee1"},"vehicle_type_id":"4","last_reported":1684080457,"current_range_meters":3200,"station_id":"","pricing_plan_id":"free"},{"bike_id":"a28d3398-8a3c-4e41-8ca1-917cc399cd22","system_id":"levelo_inurba_marseille","lat":43.285848,"lon":5.350787,"is_reserved":false,"is_disabled":false,"rental_uris":{"android":"levelo://app?vid=a28d3398-8a3c-4e41-8ca1-917cc399cd22","ios":"levelo://app?vid=a28d3398-8a3c-4e41-8ca1-917cc399cd22"},"vehicle_type_id":"4","last_reported":1684080457,"current_range_meters":31200,"station_id":"ce4bhch2rcd13ifvqeug","pricing_plan_id":"free"},{"bike_id":"1da3e0de-2d2b-43c1-9d1b-0ba7b480dbd9","system_id":"levelo_inurba_marseille","lat":43.28611,"lon":5.35102,"is_reserved":false,"is_disabled":false,"rental_uris":{"android":"levelo://app?vid=1da3e0de-2d2b-43c1-9d1b-0ba7b480dbd9","ios":"levelo://app?vid=1da3e0de-2d2b-43c1-9d1b-0ba7b480dbd9"},"vehicle_type_id":"4","last_reported":1684080457,"current_range_meters":18000,"station_id":"","pricing_plan_id":"free"},{"bike_id":"3ba8cbee-75d5-4623-980c-ad0ad6a10f83","system_id":"levelo_inurba_marseille","lat":43.2861,"lon":5.35104,"is_reserved":false,"is_disabled":false,"rental_uris":{"android":"levelo://app?vid=3ba8cbee-75d5-4623-980c-ad0ad6a10f83","ios":"levelo://app?vid=3ba8cbee-75d5-4623-980c-ad0ad6a10f83"},"vehicle_type_id":"4","last_reported":1684080457,"current_range_meters":23600,"station_id":"","pricing_plan_id":"free"},{"bike_id":"47d48109-5992-4dc9-8791-db29539163ad","system_id":"levelo_inurba_marseille","lat":43.2861,"lon":5.35102,"is_reserved":false,"is_disabled":false,"rental_uris":{"android":"levelo://app?vid=47d48109-5992-4dc9-8791-db29539163ad","ios":"levelo://app?vid=47d48109-5992-4dc9-8791-db29539163ad"},"vehicle_type_id":"4","last_reported":1684080457,"current_range_meters":5200,"station_id":"","pricing_plan_id":"free"},{"bike_id":"310f4e96-956e-4473-a323-a282982c8505","system_id":"levelo_inurba_marseille","lat":43.28609,"lon":5.35102,"is_reserved":false,"is_disabled":false,"rental_uris":{"android":"levelo://app?vid=310f4e96-956e-4473-a323-a282982c8505","ios":"levelo://app?vid=310f4e96-956e-4473-a323-a282982c8505"},"vehicle_type_id":"4","last_reported":1684080457,"current_range_meters":7200,"station_id":"","pricing_plan_id":"free"},{"bike_id":"ebce3eff-a68c-44db-bb3e-db1271329f29","system_id":"levelo_inurba_marseille","lat":43.28608,"lon":5.35102,"is_reserved":false,"is_disabled":false,"rental_uris":{"android":"levelo://app?vid=ebce3eff-a68c-44db-bb3e-db1271329f29","ios":"levelo://app?vid=ebce3eff-a68c-44db-bb3e-db1271329f29"},"vehicle_type_id":"4","last_reported":1684080457,"current_range_meters":400,"station_id":"","pricing_plan_id":"free"},{"bike_id":"5dcce393-54b6-4a95-90fb-ddadd6ce6540","system_id":"levelo_inurba_marseille","lat":43.285848,"lon":5.350787,"is_reserved":false,"is_disabled":false,"rental_uris":{"android":"levelo://app?vid=5dcce393-54b6-4a95-90fb-ddadd6ce6540","ios":"levelo://app?vid=5dcce393-54b6-4a95-90fb-ddadd6ce6540"},"vehicle_type_id":"4","last_reported":1684080457,"current_range_meters":9200,"station_id":"ce4bhch2rcd13ifvqeug","pricing_plan_id":"free"},{"bike_id":"bc3dbb85-99a8-4bce-99a9-f9aa83904534","system_id":"levelo_inurba_marseille","lat":43.295601,"lon":5.399211,"is_reserved":false,"is_disabled":false,"rental_uris":{"android":"levelo://app?vid=bc3dbb85-99a8-4bce-99a9-f9aa83904534","ios":"levelo://app?vid=bc3dbb85-99a8-4bce-99a9-f9aa83904534"},"vehicle_type_id":"4","last_reported":1684080457,"current_range_meters":20000,"station_id":"ce4bhh12rcd13ifvqff0","pricing_plan_id":"free"},{"bike_id":"67b6549a-e843-4b8f-90d6-acbd70888208","system_id":"levelo_inurba_marseille","lat":43.295713,"lon":5.399639,"is_reserved":false,"is_disabled":false,"rental_uris":{"android":"levelo://app?vid=67b6549a-e843-4b8f-90d6-acbd70888208","ios":"levelo://app?vid=67b6549a-e843-4b8f-90d6-acbd70888208"},"vehicle_type_id":"4","last_reported":1684080457,"current_range_meters":400,"station_id":"ce4bh312rcd13ifvqdj0","pricing_plan_id":"free"},{"bike_id":"f16ed337-2a1e-456e-a908-9ba08fce52e3","system_id":"levelo_inurba_marseille","lat":43.28673,"lon":5.38666,"is_reserved":false,"is_disabled":false,"rental_uris":{"android":"levelo://app?vid=f16ed337-2a1e-456e-a908-9ba08fce52e3","ios":"levelo://app?vid=f16ed337-2a1e-456e-a908-9ba08fce52e3"},"vehicle_type_id":"4","last_reported":1684080457,"current_range_meters":1200,"station_id":"ce4bh492rcd13ifvqdug","pricing_plan_id":"free"},{"bike_id":"f821c596-b69c-4187-bcb3-7d059f1ba108","system_id":"levelo_inurba_marseille","lat":43.286595,"lon":5.386795,"is_reserved":false,"is_disabled":false,"rental_uris":{"android":"levelo://app?vid=f821c596-b69c-4187-bcb3-7d059f1ba108","ios":"levelo://app?vid=f821c596-b69c-4187-bcb3-7d059f1ba108"},"vehicle_type_id":"4","last_reported":1684080457,"current_range_meters":0,"station_id":"ce4bh492rcd13ifvqdug","pricing_plan_id":"free"},{"bike_id":"ba7aa913-9040-4670-8e19-c182538420d2","system_id":"levelo_inurba_marseille","lat":43.31916,"lon":5.40815,"is_reserved":false,"is_disabled":false,"rental_uris":{"android":"levelo://app?vid=ba7aa913-9040-4670-8e19-c182538420d2","ios":"levelo://app?vid=ba7aa913-9040-4670-8e19-c182538420d2"},"vehicle_type_id":"4","last_reported":1684080457,"current_range_meters":20000,"station_id":"","pricing_plan_id":"free"},{"bike_id":"3c55e074-1749-498e-ad2f-42e17b1bc1c9","system_id":"levelo_inurba_marseille","lat":43.28423,"lon":5.34993,"is_reserved":false,"is_disabled":false,"rental_uris":{"android":"levelo://app?vid=3c55e074-1749-498e-ad2f-42e17b1bc1c9","ios":"levelo://app?vid=3c55e074-1749-498e-ad2f-42e17b1bc1c9"},"vehicle_type_id":"4","last_reported":1684080457,"current_range_meters":6400,"station_id":"ce4bhbh2rcd13ifvqepg","pricing_plan_id":"free"},{"bike_id":"8115e081-1ffd-44ff-8923-ed5ac68553b8","system_id":"levelo_inurba_marseille","lat":43.28423,"lon":5.34983,"is_reserved":false,"is_disabled":false,"rental_uris":{"android":"levelo://app?vid=8115e081-1ffd-44ff-8923-ed5ac68553b8","ios":"levelo://app?vid=8115e081-1ffd-44ff-8923-ed5ac68553b8"},"vehicle_type_id":"4","last_reported":1684080457,"current_range_meters":10800,"station_id":"ce4bhbh2rcd13ifvqepg","pricing_plan_id":"free"},{"bike_id":"3f8484fd-2dc0-4f9b-b391-62a8259ca52c","system_id":"levelo_inurba_marseille","lat":43.28418,"lon":5.34979,"is_reserved":false,"is_disabled":false,"rental_uris":{"android":"levelo://app?vid=3f8484fd-2dc0-4f9b-b391-62a8259ca52c","ios":"levelo://app?vid=3f8484fd-2dc0-4f9b-b391-62a8259ca52c"},"vehicle_type_id":"4","last_reported":1684080457,"current_range_meters":5200,"station_id":"ce4bhbh2rcd13ifvqepg","pricing_plan_id":"free"},{"bike_id":"9f4d5549-f8cc-4660-a038-674fe5327cf3","system_id":"levelo_inurba_marseille","lat":43.28419,"lon":5.34973,"is_reserved":false,"is_disabled":false,"rental_uris":{"android":"levelo://app?vid=9f4d5549-f8cc-4660-a038-674fe5327cf3","ios":"levelo://app?vid=9f4d5549-f8cc-4660-a038-674fe5327cf3"},"vehicle_type_id":"4","last_reported":1684080457,"current_range_meters":17600,"station_id":"ce4bhbh2rcd13ifvqepg","pricing_plan_id":"free"},{"bike_id":"802456b4-f5fc-4d14-93d6-849c12f57f19","system_id":"levelo_inurba_marseille","lat":43.28414,"lon":5.34971,"is_reserved":false,"is_disabled":false,"rental_uris":{"android":"levelo://app?vid=802456b4-f5fc-4d14-93d6-849c12f57f19","ios":"levelo://app?vid=802456b4-f5fc-4d14-93d6-849c12f57f19"},"vehicle_type_id":"4","last_reported":1684080457,"current_range_meters":24800,"station_id":"ce4bhbh2rcd13ifvqepg","pricing_plan_id":"free"},{"bike_id":"4317aa9d-acc0-47d9-b277-0d422a666e51","system_id":"levelo_inurba_marseille","lat":43.283502,"lon":5.386471,"is_reserved":false,"is_disabled":false,"rental_uris":{"android":"levelo://app?vid=4317aa9d-acc0-47d9-b277-0d422a666e51","ios":"levelo://app?vid=4317aa9d-acc0-47d9-b277-0d422a666e51"},"vehicle_type_id":"4","last_reported":1684080457,"current_range_meters":6000,"station_id":"ce4bh492rcd13ifvqdvg","pricing_plan_id":"free"},{"bike_id":"2a8b46f9-8615-4b94-b310-d68f002f5ce2","system_id":"levelo_inurba_marseille","lat":43.283502,"lon":5.386471,"is_reserved":false,"is_disabled":false,"rental_uris":{"android":"levelo://app?vid=2a8b46f9-8615-4b94-b310-d68f002f5ce2","ios":"levelo://app?vid=2a8b46f9-8615-4b94-b310-d68f002f5ce2"},"vehicle_type_id":"4","last_reported":1684080457,"current_range_meters":16800,"station_id":"ce4bh492rcd13ifvqdvg","pricing_plan_id":"free"},{"bike_id":"5e802efe-28b9-4f3c-aa80-a1e6ed873321","system_id":"levelo_inurba_marseille","lat":43.280382,"lon":5.369291,"is_reserved":false,"is_disabled":false,"rental_uris":{"android":"levelo://app?vid=5e802efe-28b9-4f3c-aa80-a1e6ed873321","ios":"levelo://app?vid=5e802efe-28b9-4f3c-aa80-a1e6ed873321"},"vehicle_type_id":"4","last_reported":1684080457,"current_range_meters":24800,"station_id":"ce4bha12rcd13ifvqef0","pricing_plan_id":"free"},{"bike_id":"51c73a1b-0143-44bd-8c27-f8c87ee92916","system_id":"levelo_inurba_marseille","lat":43.28039,"lon":5.369297,"is_reserved":false,"is_disabled":false,"rental_uris":{"android":"levelo://app?vid=51c73a1b-0143-44bd-8c27-f8c87ee92916","ios":"levelo://app?vid=51c73a1b-0143-44bd-8c27-f8c87ee92916"},"vehicle_type_id":"4","last_reported":1684080457,"current_range_meters":2800,"station_id":"ce4bha12rcd13ifvqef0","pricing_plan_id":"free"},{"bike_id":"14eac2be-6905-4f3b-9efe-64996bc91056","system_id":"levelo_inurba_marseille","lat":43.280382,"lon":5.369291,"is_reserved":false,"is_disabled":false,"rental_uris":{"android":"levelo://app?vid=14eac2be-6905-4f3b-9efe-64996bc91056","ios":"levelo://app?vid=14eac2be-6905-4f3b-9efe-64996bc91056"},"vehicle_type_id":"4","last_reported":1684080457,"current_range_meters":12000,"station_id":"ce4bha12rcd13ifvqef0","pricing_plan_id":"free"},{"bike_id":"b7fe639e-bd0b-445e-af10-e531c2b4b0c6","system_id":"levelo_inurba_marseille","lat":43.280382,"lon":5.369291,"is_reserved":false,"is_disabled":false,"rental_uris":{"android":"levelo://app?vid=b7fe639e-bd0b-445e-af10-e531c2b4b0c6","ios":"levelo://app?vid=b7fe639e-bd0b-445e-af10-e531c2b4b0c6"},"vehicle_type_id":"4","last_reported":1684080457,"current_range_meters":9200,"station_id":"ce4bha12rcd13ifvqef0","pricing_plan_id":"free"},{"bike_id":"3e610bfa-a402-4fb3-8303-8f17ee9e440c","system_id":"levelo_inurba_marseille","lat":43.28039,"lon":5.369297,"is_reserved":false,"is_disabled":false,"rental_uris":{"android":"levelo://app?vid=3e610bfa-a402-4fb3-8303-8f17ee9e440c","ios":"levelo://app?vid=3e610bfa-a402-4fb3-8303-8f17ee9e440c"},"vehicle_type_id":"4","last_reported":1684080457,"current_range_meters":22400,"station_id":"ce4bha12rcd13ifvqef0","pricing_plan_id":"free"},{"bike_id":"e10cf9c9-a7ff-4849-82ff-acc6262a716e","system_id":"levelo_inurba_marseille","lat":43.280382,"lon":5.369291,"is_reserved":false,"is_disabled":false,"rental_uris":{"android":"levelo://app?vid=e10cf9c9-a7ff-4849-82ff-acc6262a716e","ios":"levelo://app?vid=e10cf9c9-a7ff-4849-82ff-acc6262a716e"},"vehicle_type_id":"4","last_reported":1684080457,"current_range_meters":20400,"station_id":"ce4bha12rcd13ifvqef0","pricing_plan_id":"free"},{"bike_id":"befd4c49-f24a-4276-b9b4-a7b0b506ad98","system_id":"levelo_inurba_marseille","lat":43.29041,"lon":5.399634,"is_reserved":false,"is_disabled":false,"rental_uris":{"android":"levelo://app?vid=befd4c49-f24a-4276-b9b4-a7b0b506ad98","ios":"levelo://app?vid=befd4c49-f24a-4276-b9b4-a7b0b506ad98"},"vehicle_type_id":"4","last_reported":1684080457,"current_range_meters":16000,"station_id":"ce4bh392rcd13ifvqdm0","pricing_plan_id":"free"},{"bike_id":"25acfc55-5117-41cf-967e-e4efe22d147d","system_id":"levelo_inurba_marseille","lat":43.28243,"lon":5.35078,"is_reserved":false,"is_disabled":false,"rental_uris":{"android":"levelo://app?vid=25acfc55-5117-41cf-967e-e4efe22d147d","ios":"levelo://app?vid=25acfc55-5117-41cf-967e-e4efe22d147d"},"vehicle_type_id":"4","last_reported":1684080457,"current_range_meters":24400,"station_id":"","pricing_plan_id":"free"},{"bike_id":"4d14f77f-bab3-4d89-8302-7d8208d4ccef","system_id":"levelo_inurba_marseille","lat":43.28039,"lon":5.369297,"is_reserved":false,"is_disabled":false,"rental_uris":{"android":"levelo://app?vid=4d14f77f-bab3-4d89-8302-7d8208d4ccef","ios":"levelo://app?vid=4d14f77f-bab3-4d89-8302-7d8208d4ccef"},"vehicle_type_id":"4","last_reported":1684080457,"current_range_meters":4400,"station_id":"ce4bha12rcd13ifvqef0","pricing_plan_id":"free"},{"bike_id":"2d92a1a6-166b-48ce-8185-4218c97944cc","system_id":"levelo_inurba_marseille","lat":43.280382,"lon":5.369291,"is_reserved":false,"is_disabled":false,"rental_uris":{"android":"levelo://app?vid=2d92a1a6-166b-48ce-8185-4218c97944cc","ios":"levelo://app?vid=2d92a1a6-166b-48ce-8185-4218c97944cc"},"vehicle_type_id":"4","last_reported":1684080457,"current_range_meters":6400,"station_id":"ce4bha12rcd13ifvqef0","pricing_plan_id":"free"},{"bike_id":"74d1e32f-263d-4536-a983-0ab25dc9aec2","system_id":"levelo_inurba_marseille","lat":43.28039,"lon":5.369297,"is_reserved":false,"is_disabled":false,"rental_uris":{"android":"levelo://app?vid=74d1e32f-263d-4536-a983-0ab25dc9aec2","ios":"levelo://app?vid=74d1e32f-263d-4536-a983-0ab25dc9aec2"},"vehicle_type_id":"4","last_reported":1684080457,"current_range_meters":20000,"station_id":"ce4bha12rcd13ifvqef0","pricing_plan_id":"free"},{"bike_id":"b0495426-aca5-4473-b2fc-71f1e1adf0e0","system_id":"levelo_inurba_marseille","lat":43.281044,"lon":5.378308,"is_reserved":false,"is_disabled":false,"rental_uris":{"android":"levelo://app?vid=b0495426-aca5-4473-b2fc-71f1e1adf0e0","ios":"levelo://app?vid=b0495426-aca5-4473-b2fc-71f1e1adf0e0"},"vehicle_type_id":"4","last_reported":1684080457,"current_range_meters":15200,"station_id":"ce4bha12rcd13ifvqee0","pricing_plan_id":"free"},{"bike_id":"18593ef5-6df4-4332-9160-a31b8d291dd1","system_id":"levelo_inurba_marseille","lat":43.281044,"lon":5.378308,"is_reserved":false,"is_disabled":false,"rental_uris":{"android":"levelo://app?vid=18593ef5-6df4-4332-9160-a31b8d291dd1","ios":"levelo://app?vid=18593ef5-6df4-4332-9160-a31b8d291dd1"},"vehicle_type_id":"4","last_reported":1684080457,"current_range_meters":8000,"station_id":"ce4bha12rcd13ifvqee0","pricing_plan_id":"free"},{"bike_id":"5fd83c42-a225-432f-8372-d628009f211e","system_id":"levelo_inurba_marseille","lat":43.284462,"lon":5.392121,"is_reserved":false,"is_disabled":false,"rental_uris":{"android":"levelo://app?vid=5fd83c42-a225-432f-8372-d628009f211e","ios":"levelo://app?vid=5fd83c42-a225-432f-8372-d628009f211e"},"vehicle_type_id":"4","last_reported":1684080457,"current_range_meters":20400,"station_id":"ce4bhoh2rcd13ifvqh5g","pricing_plan_id":"free"},{"bike_id":"10e5fc13-733f-41a4-80b6-ff4d0970e266","system_id":"levelo_inurba_marseille","lat":43.282754,"lon":5.350519,"is_reserved":false,"is_disabled":false,"rental_uris":{"android":"levelo://app?vid=10e5fc13-733f-41a4-80b6-ff4d0970e266","ios":"levelo://app?vid=10e5fc13-733f-41a4-80b6-ff4d0970e266"},"vehicle_type_id":"4","last_reported":1684080457,"current_range_meters":13600,"station_id":"ce4bhbp2rcd13ifvqerg","pricing_plan_id":"free"},{"bike_id":"2330463f-06f1-4b2a-8b7b-0850c2fc672d","system_id":"levelo_inurba_marseille","lat":43.3042,"lon":5.4128,"is_reserved":false,"is_disabled":false,"rental_uris":{"android":"levelo://app?vid=2330463f-06f1-4b2a-8b7b-0850c2fc672d","ios":"levelo://app?vid=2330463f-06f1-4b2a-8b7b-0850c2fc672d"},"vehicle_type_id":"4","last_reported":1684080457,"current_range_meters":0,"station_id":"ce4bhop2rcd13ifvqh8g","pricing_plan_id":"free"},{"bike_id":"023f0704-c3c5-4983-b100-b6ceb4aa03eb","system_id":"levelo_inurba_marseille","lat":43.287154,"lon":5.399979,"is_reserved":false,"is_disabled":false,"rental_uris":{"android":"levelo://app?vid=023f0704-c3c5-4983-b100-b6ceb4aa03eb","ios":"levelo://app?vid=023f0704-c3c5-4983-b100-b6ceb4aa03eb"},"vehicle_type_id":"4","last_reported":1684080457,"current_range_meters":0,"station_id":"ce4bho92rcd13ifvqh3g","pricing_plan_id":"free"},{"bike_id":"54fb5c87-2a78-471e-a8ad-5ae87acd38d7","system_id":"levelo_inurba_marseille","lat":43.287154,"lon":5.399979,"is_reserved":false,"is_disabled":false,"rental_uris":{"android":"levelo://app?vid=54fb5c87-2a78-471e-a8ad-5ae87acd38d7","ios":"levelo://app?vid=54fb5c87-2a78-471e-a8ad-5ae87acd38d7"},"vehicle_type_id":"4","last_reported":1684080457,"current_range_meters":12000,"station_id":"ce4bho92rcd13ifvqh3g","pricing_plan_id":"free"},{"bike_id":"5ecfefea-e31e-4106-9da8-61b361a392ff","system_id":"levelo_inurba_marseille","lat":43.320045,"lon":5.415048,"is_reserved":false,"is_disabled":false,"rental_uris":{"android":"levelo://app?vid=5ecfefea-e31e-4106-9da8-61b361a392ff","ios":"levelo://app?vid=5ecfefea-e31e-4106-9da8-61b361a392ff"},"vehicle_type_id":"4","last_reported":1684080457,"current_range_meters":14400,"station_id":"ce4bhq92rcd13ifvqhkg","pricing_plan_id":"free"},{"bike_id":"4f6af200-4d16-4841-9a5d-e1b9cb36d198","system_id":"levelo_inurba_marseille","lat":43.320045,"lon":5.415048,"is_reserved":false,"is_disabled":false,"rental_uris":{"android":"levelo://app?vid=4f6af200-4d16-4841-9a5d-e1b9cb36d198","ios":"levelo://app?vid=4f6af200-4d16-4841-9a5d-e1b9cb36d198"},"vehicle_type_id":"4","last_reported":1684080457,"current_range_meters":10400,"station_id":"ce4bhq92rcd13ifvqhkg","pricing_plan_id":"free"},{"bike_id":"87ce81c1-e304-42ae-8794-24020b2741e2","system_id":"levelo_inurba_marseille","lat":43.320045,"lon":5.415048,"is_reserved":false,"is_disabled":false,"rental_uris":{"android":"levelo://app?vid=87ce81c1-e304-42ae-8794-24020b2741e2","ios":"levelo://app?vid=87ce81c1-e304-42ae-8794-24020b2741e2"},"vehicle_type_id":"4","last_reported":1684080457,"current_range_meters":22800,"station_id":"ce4bhq92rcd13ifvqhkg","pricing_plan_id":"free"},{"bike_id":"f20bcf2f-5508-4175-81d2-8720c7275c4d","system_id":"levelo_inurba_marseille","lat":43.320045,"lon":5.415048,"is_reserved":false,"is_disabled":false,"rental_uris":{"android":"levelo://app?vid=f20bcf2f-5508-4175-81d2-8720c7275c4d","ios":"levelo://app?vid=f20bcf2f-5508-4175-81d2-8720c7275c4d"},"vehicle_type_id":"4","last_reported":1684080457,"current_range_meters":28000,"station_id":"ce4bhq92rcd13ifvqhkg","pricing_plan_id":"free"},{"bike_id":"363a2ee5-e461-41cb-8873-a1110224593f","system_id":"levelo_inurba_marseille","lat":43.292571,"lon":5.409107,"is_reserved":false,"is_disabled":false,"rental_uris":{"android":"levelo://app?vid=363a2ee5-e461-41cb-8873-a1110224593f","ios":"levelo://app?vid=363a2ee5-e461-41cb-8873-a1110224593f"},"vehicle_type_id":"4","last_reported":1684080457,"current_range_meters":26400,"station_id":"ce4bh192rcd13ifvqdc0","pricing_plan_id":"free"},{"bike_id":"53671376-74d0-456e-962e-6dbdcca9a10f","system_id":"levelo_inurba_marseille","lat":43.292571,"lon":5.409107,"is_reserved":false,"is_disabled":false,"rental_uris":{"android":"levelo://app?vid=53671376-74d0-456e-962e-6dbdcca9a10f","ios":"levelo://app?vid=53671376-74d0-456e-962e-6dbdcca9a10f"},"vehicle_type_id":"4","last_reported":1684080457,"current_range_meters":6400,"station_id":"ce4bh192rcd13ifvqdc0","pricing_plan_id":"free"},{"bike_id":"b8f19bf9-5a58-470b-b90b-2fb9434e6f46","system_id":"levelo_inurba_marseille","lat":43.292571,"lon":5.409107,"is_reserved":false,"is_disabled":false,"rental_uris":{"android":"levelo://app?vid=b8f19bf9-5a58-470b-b90b-2fb9434e6f46","ios":"levelo://app?vid=b8f19bf9-5a58-470b-b90b-2fb9434e6f46"},"vehicle_type_id":"4","last_reported":1684080457,"current_range_meters":10400,"station_id":"ce4bh192rcd13ifvqdc0","pricing_plan_id":"free"},{"bike_id":"72d1c47b-25f0-4500-a29b-04b3650a151e","system_id":"levelo_inurba_marseille","lat":43.32543,"lon":5.41429,"is_reserved":false,"is_disabled":false,"rental_uris":{"android":"levelo://app?vid=72d1c47b-25f0-4500-a29b-04b3650a151e","ios":"levelo://app?vid=72d1c47b-25f0-4500-a29b-04b3650a151e"},"vehicle_type_id":"4","last_reported":1684080457,"current_range_meters":30000,"station_id":"ce4bhq12rcd13ifvqhhg","pricing_plan_id":"free"},{"bike_id":"4c0e9566-38f0-4136-80f2-e753f0e62474","system_id":"levelo_inurba_marseille","lat":43.292571,"lon":5.409107,"is_reserved":false,"is_disabled":false,"rental_uris":{"android":"levelo://app?vid=4c0e9566-38f0-4136-80f2-e753f0e62474","ios":"levelo://app?vid=4c0e9566-38f0-4136-80f2-e753f0e62474"},"vehicle_type_id":"4","last_reported":1684080457,"current_range_meters":0,"station_id":"ce4bh192rcd13ifvqdc0","pricing_plan_id":"free"},{"bike_id":"10995590-0527-4248-a46b-522030684dd6","system_id":"levelo_inurba_marseille","lat":43.27621,"lon":5.36125,"is_reserved":false,"is_disabled":false,"rental_uris":{"android":"levelo://app?vid=10995590-0527-4248-a46b-522030684dd6","ios":"levelo://app?vid=10995590-0527-4248-a46b-522030684dd6"},"vehicle_type_id":"4","last_reported":1684080457,"current_range_meters":0,"station_id":"","pricing_plan_id":"free"},{"bike_id":"f5a909bd-a329-49a7-8d3b-19a6071ce97c","system_id":"levelo_inurba_marseille","lat":43.27618,"lon":5.361009,"is_reserved":false,"is_disabled":false,"rental_uris":{"android":"levelo://app?vid=f5a909bd-a329-49a7-8d3b-19a6071ce97c","ios":"levelo://app?vid=f5a909bd-a329-49a7-8d3b-19a6071ce97c"},"vehicle_type_id":"4","last_reported":1684080457,"current_range_meters":30000,"station_id":"ce4bgj92rcd13ifvqbe0","pricing_plan_id":"free"},{"bike_id":"95852315-4a16-4d16-9b69-c64782583ec2","system_id":"levelo_inurba_marseille","lat":43.27618,"lon":5.361009,"is_reserved":false,"is_disabled":false,"rental_uris":{"android":"levelo://app?vid=95852315-4a16-4d16-9b69-c64782583ec2","ios":"levelo://app?vid=95852315-4a16-4d16-9b69-c64782583ec2"},"vehicle_type_id":"4","last_reported":1684080457,"current_range_meters":2000,"station_id":"ce4bgj92rcd13ifvqbe0","pricing_plan_id":"free"},{"bike_id":"05b4535b-3b08-4a16-9da9-a953d780145c","system_id":"levelo_inurba_marseille","lat":43.325233,"lon":5.414318,"is_reserved":false,"is_disabled":false,"rental_uris":{"android":"levelo://app?vid=05b4535b-3b08-4a16-9da9-a953d780145c","ios":"levelo://app?vid=05b4535b-3b08-4a16-9da9-a953d780145c"},"vehicle_type_id":"4","last_reported":1684080457,"current_range_meters":31200,"station_id":"ce4bhq12rcd13ifvqhhg","pricing_plan_id":"free"},{"bike_id":"12d6f1e8-eeab-40d2-82c6-379ab9ad0614","system_id":"levelo_inurba_marseille","lat":43.27618,"lon":5.361009,"is_reserved":false,"is_disabled":false,"rental_uris":{"android":"levelo://app?vid=12d6f1e8-eeab-40d2-82c6-379ab9ad0614","ios":"levelo://app?vid=12d6f1e8-eeab-40d2-82c6-379ab9ad0614"},"vehicle_type_id":"4","last_reported":1684080457,"current_range_meters":2000,"station_id":"ce4bgj92rcd13ifvqbe0","pricing_plan_id":"free"},{"bike_id":"0e661eba-6073-480e-a51c-13a6d679bbc5","system_id":"levelo_inurba_marseille","lat":43.27618,"lon":5.361009,"is_reserved":false,"is_disabled":false,"rental_uris":{"android":"levelo://app?vid=0e661eba-6073-480e-a51c-13a6d679bbc5","ios":"levelo://app?vid=0e661eba-6073-480e-a51c-13a6d679bbc5"},"vehicle_type_id":"4","last_reported":1684080457,"current_range_meters":31200,"station_id":"ce4bgj92rcd13ifvqbe0","pricing_plan_id":"free"},{"bike_id":"fe10247e-5eff-49dd-9846-b7dd552e6c87","system_id":"levelo_inurba_marseille","lat":43.27618,"lon":5.361009,"is_reserved":false,"is_disabled":false,"rental_uris":{"android":"levelo://app?vid=fe10247e-5eff-49dd-9846-b7dd552e6c87","ios":"levelo://app?vid=fe10247e-5eff-49dd-9846-b7dd552e6c87"},"vehicle_type_id":"4","last_reported":1684080457,"current_range_meters":18800,"station_id":"ce4bgj92rcd13ifvqbe0","pricing_plan_id":"free"},{"bike_id":"bf5b2fef-5f24-4a5d-a62a-fcc983a69cd0","system_id":"levelo_inurba_marseille","lat":43.276179,"lon":5.361009,"is_reserved":false,"is_disabled":false,"rental_uris":{"android":"levelo://app?vid=bf5b2fef-5f24-4a5d-a62a-fcc983a69cd0","ios":"levelo://app?vid=bf5b2fef-5f24-4a5d-a62a-fcc983a69cd0"},"vehicle_type_id":"4","last_reported":1684080457,"current_range_meters":13600,"station_id":"ce4bgj92rcd13ifvqbe0","pricing_plan_id":"free"},{"bike_id":"0c5c3926-8c14-403b-8f1a-f093df567ca2","system_id":"levelo_inurba_marseille","lat":43.27618,"lon":5.361009,"is_reserved":false,"is_disabled":false,"rental_uris":{"android":"levelo://app?vid=0c5c3926-8c14-403b-8f1a-f093df567ca2","ios":"levelo://app?vid=0c5c3926-8c14-403b-8f1a-f093df567ca2"},"vehicle_type_id":"4","last_reported":1684080457,"current_range_meters":12800,"station_id":"ce4bgj92rcd13ifvqbe0","pricing_plan_id":"free"},{"bike_id":"fe339c17-ba4f-4a4f-b350-940fbd81c43b","system_id":"levelo_inurba_marseille","lat":43.33336,"lon":5.40906,"is_reserved":false,"is_disabled":false,"rental_uris":{"android":"levelo://app?vid=fe339c17-ba4f-4a4f-b350-940fbd81c43b","ios":"levelo://app?vid=fe339c17-ba4f-4a4f-b350-940fbd81c43b"},"vehicle_type_id":"4","last_reported":1684080457,"current_range_meters":16800,"station_id":"","pricing_plan_id":"free"},{"bike_id":"0bac797a-7342-4d60-b995-f58d139abc37","system_id":"levelo_inurba_marseille","lat":43.278399,"lon":5.392139,"is_reserved":false,"is_disabled":false,"rental_uris":{"android":"levelo://app?vid=0bac797a-7342-4d60-b995-f58d139abc37","ios":"levelo://app?vid=0bac797a-7342-4d60-b995-f58d139abc37"},"vehicle_type_id":"4","last_reported":1684080457,"current_range_meters":2400,"station_id":"ce4bhjp2rcd13ifvqga0","pricing_plan_id":"free"},{"bike_id":"8f6eba40-c19e-44be-a213-4f05de073f96","system_id":"levelo_inurba_marseille","lat":43.278399,"lon":5.392139,"is_reserved":false,"is_disabled":false,"rental_uris":{"android":"levelo://app?vid=8f6eba40-c19e-44be-a213-4f05de073f96","ios":"levelo://app?vid=8f6eba40-c19e-44be-a213-4f05de073f96"},"vehicle_type_id":"4","last_reported":1684080457,"current_range_meters":2000,"station_id":"ce4bhjp2rcd13ifvqga0","pricing_plan_id":"free"},{"bike_id":"c9eb9d8e-e7b7-4166-9c2d-d0b3c485a7b3","system_id":"levelo_inurba_marseille","lat":43.27379,"lon":5.36253,"is_reserved":false,"is_disabled":false,"rental_uris":{"android":"levelo://app?vid=c9eb9d8e-e7b7-4166-9c2d-d0b3c485a7b3","ios":"levelo://app?vid=c9eb9d8e-e7b7-4166-9c2d-d0b3c485a7b3"},"vehicle_type_id":"4","last_reported":1684080457,"current_range_meters":10800,"station_id":"ce4bhbh2rcd13ifvqeo0","pricing_plan_id":"free"},{"bike_id":"e0024be8-9727-4f6c-98fa-1a00fcb3b511","system_id":"levelo_inurba_marseille","lat":43.27379,"lon":5.36251,"is_reserved":false,"is_disabled":false,"rental_uris":{"android":"levelo://app?vid=e0024be8-9727-4f6c-98fa-1a00fcb3b511","ios":"levelo://app?vid=e0024be8-9727-4f6c-98fa-1a00fcb3b511"},"vehicle_type_id":"4","last_reported":1684080457,"current_range_meters":6400,"station_id":"ce4bhbh2rcd13ifvqeo0","pricing_plan_id":"free"},{"bike_id":"b98c08fc-cced-42a4-ae71-be3c26dabcee","system_id":"levelo_inurba_marseille","lat":43.27376,"lon":5.3626,"is_reserved":false,"is_disabled":false,"rental_uris":{"android":"levelo://app?vid=b98c08fc-cced-42a4-ae71-be3c26dabcee","ios":"levelo://app?vid=b98c08fc-cced-42a4-ae71-be3c26dabcee"},"vehicle_type_id":"4","last_reported":1684080457,"current_range_meters":20400,"station_id":"ce4bhbh2rcd13ifvqeo0","pricing_plan_id":"free"},{"bike_id":"8491fd20-6cd9-40c1-97cd-62a2a07f15ab","system_id":"levelo_inurba_marseille","lat":43.27376,"lon":5.36259,"is_reserved":false,"is_disabled":false,"rental_uris":{"android":"levelo://app?vid=8491fd20-6cd9-40c1-97cd-62a2a07f15ab","ios":"levelo://app?vid=8491fd20-6cd9-40c1-97cd-62a2a07f15ab"},"vehicle_type_id":"4","last_reported":1684080457,"current_range_meters":16000,"station_id":"ce4bhbh2rcd13ifvqeo0","pricing_plan_id":"free"},{"bike_id":"e1a4934d-bc7c-4dad-ba10-61cd73a0c70c","system_id":"levelo_inurba_marseille","lat":43.27374,"lon":5.36246,"is_reserved":false,"is_disabled":false,"rental_uris":{"android":"levelo://app?vid=e1a4934d-bc7c-4dad-ba10-61cd73a0c70c","ios":"levelo://app?vid=e1a4934d-bc7c-4dad-ba10-61cd73a0c70c"},"vehicle_type_id":"4","last_reported":1684080457,"current_range_meters":31200,"station_id":"ce4bhbh2rcd13ifvqeo0","pricing_plan_id":"free"},{"bike_id":"5a2b32f7-9c46-4d48-8fbb-2b41d9e270bf","system_id":"levelo_inurba_marseille","lat":43.273613,"lon":5.362705,"is_reserved":false,"is_disabled":false,"rental_uris":{"android":"levelo://app?vid=5a2b32f7-9c46-4d48-8fbb-2b41d9e270bf","ios":"levelo://app?vid=5a2b32f7-9c46-4d48-8fbb-2b41d9e270bf"},"vehicle_type_id":"4","last_reported":1684080457,"current_range_meters":31200,"station_id":"ce4bhbh2rcd13ifvqeo0","pricing_plan_id":"free"},{"bike_id":"d656c778-d7c8-49ea-ab08-4206ded67177","system_id":"levelo_inurba_marseille","lat":43.273609,"lon":5.362708,"is_reserved":false,"is_disabled":false,"rental_uris":{"android":"levelo://app?vid=d656c778-d7c8-49ea-ab08-4206ded67177","ios":"levelo://app?vid=d656c778-d7c8-49ea-ab08-4206ded67177"},"vehicle_type_id":"4","last_reported":1684080457,"current_range_meters":31200,"station_id":"ce4bhbh2rcd13ifvqeo0","pricing_plan_id":"free"},{"bike_id":"131c7461-f3e8-463a-8c7e-54dbd03cd248","system_id":"levelo_inurba_marseille","lat":43.33603,"lon":5.41024,"is_reserved":false,"is_disabled":false,"rental_uris":{"android":"levelo://app?vid=131c7461-f3e8-463a-8c7e-54dbd03cd248","ios":"levelo://app?vid=131c7461-f3e8-463a-8c7e-54dbd03cd248"},"vehicle_type_id":"4","last_reported":1684080457,"current_range_meters":30800,"station_id":"ce4bhqh2rcd13ifvqhmg","pricing_plan_id":"free"},{"bike_id":"9b9cd1dc-c6e7-4502-8082-afff41e60bef","system_id":"levelo_inurba_marseille","lat":43.27368,"lon":5.36242,"is_reserved":false,"is_disabled":false,"rental_uris":{"android":"levelo://app?vid=9b9cd1dc-c6e7-4502-8082-afff41e60bef","ios":"levelo://app?vid=9b9cd1dc-c6e7-4502-8082-afff41e60bef"},"vehicle_type_id":"4","last_reported":1684080457,"current_range_meters":10400,"station_id":"ce4bhbh2rcd13ifvqeo0","pricing_plan_id":"free"},{"bike_id":"1677fa0b-3417-4164-b327-6308abe97dcb","system_id":"levelo_inurba_marseille","lat":43.33604,"lon":5.41027,"is_reserved":false,"is_disabled":false,"rental_uris":{"android":"levelo://app?vid=1677fa0b-3417-4164-b327-6308abe97dcb","ios":"levelo://app?vid=1677fa0b-3417-4164-b327-6308abe97dcb"},"vehicle_type_id":"4","last_reported":1684080457,"current_range_meters":29600,"station_id":"ce4bhqh2rcd13ifvqhmg","pricing_plan_id":"free"},{"bike_id":"179d33b0-4a61-4b4a-89bc-37867f5be203","system_id":"levelo_inurba_marseille","lat":43.27366,"lon":5.36251,"is_reserved":false,"is_disabled":false,"rental_uris":{"android":"levelo://app?vid=179d33b0-4a61-4b4a-89bc-37867f5be203","ios":"levelo://app?vid=179d33b0-4a61-4b4a-89bc-37867f5be203"},"vehicle_type_id":"4","last_reported":1684080457,"current_range_meters":28800,"station_id":"ce4bhbh2rcd13ifvqeo0","pricing_plan_id":"free"},{"bike_id":"dcbc080b-4fb3-4a1c-ad9b-7991188eb44c","system_id":"levelo_inurba_marseille","lat":43.33606,"lon":5.41031,"is_reserved":false,"is_disabled":false,"rental_uris":{"android":"levelo://app?vid=dcbc080b-4fb3-4a1c-ad9b-7991188eb44c","ios":"levelo://app?vid=dcbc080b-4fb3-4a1c-ad9b-7991188eb44c"},"vehicle_type_id":"4","last_reported":1684080457,"current_range_meters":13600,"station_id":"ce4bhqh2rcd13ifvqhmg","pricing_plan_id":"free"},{"bike_id":"eff8d414-51aa-46bd-8afa-97029d8bace3","system_id":"levelo_inurba_marseille","lat":43.273613,"lon":5.362705,"is_reserved":false,"is_disabled":false,"rental_uris":{"android":"levelo://app?vid=eff8d414-51aa-46bd-8afa-97029d8bace3","ios":"levelo://app?vid=eff8d414-51aa-46bd-8afa-97029d8bace3"},"vehicle_type_id":"4","last_reported":1684080457,"current_range_meters":31200,"station_id":"ce4bhbh2rcd13ifvqeo0","pricing_plan_id":"free"},{"bike_id":"badf4058-8ba4-40ae-841b-5210e14c756b","system_id":"levelo_inurba_marseille","lat":43.33608,"lon":5.4103,"is_reserved":false,"is_disabled":false,"rental_uris":{"android":"levelo://app?vid=badf4058-8ba4-40ae-841b-5210e14c756b","ios":"levelo://app?vid=badf4058-8ba4-40ae-841b-5210e14c756b"},"vehicle_type_id":"4","last_reported":1684080457,"current_range_meters":26400,"station_id":"ce4bhqh2rcd13ifvqhmg","pricing_plan_id":"free"},{"bike_id":"c5122d4e-d1e1-450b-acda-33f6b99e53be","system_id":"levelo_inurba_marseille","lat":43.27362,"lon":5.3625,"is_reserved":false,"is_disabled":false,"rental_uris":{"android":"levelo://app?vid=c5122d4e-d1e1-450b-acda-33f6b99e53be","ios":"levelo://app?vid=c5122d4e-d1e1-450b-acda-33f6b99e53be"},"vehicle_type_id":"4","last_reported":1684080457,"current_range_meters":3600,"station_id":"ce4bhbh2rcd13ifvqeo0","pricing_plan_id":"free"},{"bike_id":"dc702e88-f596-4a0e-849b-181f29049aa2","system_id":"levelo_inurba_marseille","lat":43.27682,"lon":5.38869,"is_reserved":false,"is_disabled":false,"rental_uris":{"android":"levelo://app?vid=dc702e88-f596-4a0e-849b-181f29049aa2","ios":"levelo://app?vid=dc702e88-f596-4a0e-849b-181f29049aa2"},"vehicle_type_id":"4","last_reported":1684080457,"current_range_meters":6000,"station_id":"ce4bhi12rcd13ifvqfo0","pricing_plan_id":"free"},{"bike_id":"2edaa16e-fed0-47c0-86da-c0d4ca827c31","system_id":"levelo_inurba_marseille","lat":43.27684,"lon":5.38877,"is_reserved":false,"is_disabled":false,"rental_uris":{"android":"levelo://app?vid=2edaa16e-fed0-47c0-86da-c0d4ca827c31","ios":"levelo://app?vid=2edaa16e-fed0-47c0-86da-c0d4ca827c31"},"vehicle_type_id":"4","last_reported":1684080457,"current_range_meters":0,"station_id":"ce4bhi12rcd13ifvqfo0","pricing_plan_id":"free"},{"bike_id":"fcd8aa2f-5f2e-4566-903e-685d32b8b8e3","system_id":"levelo_inurba_marseille","lat":43.336134,"lon":5.410341,"is_reserved":false,"is_disabled":false,"rental_uris":{"android":"levelo://app?vid=fcd8aa2f-5f2e-4566-903e-685d32b8b8e3","ios":"levelo://app?vid=fcd8aa2f-5f2e-4566-903e-685d32b8b8e3"},"vehicle_type_id":"4","last_reported":1684080457,"current_range_meters":26800,"station_id":"ce4bhqh2rcd13ifvqhmg","pricing_plan_id":"free"},{"bike_id":"2e677baf-bf09-4ec0-95d3-4669bd38a6e0","system_id":"levelo_inurba_marseille","lat":43.27676,"lon":5.38864,"is_reserved":false,"is_disabled":false,"rental_uris":{"android":"levelo://app?vid=2e677baf-bf09-4ec0-95d3-4669bd38a6e0","ios":"levelo://app?vid=2e677baf-bf09-4ec0-95d3-4669bd38a6e0"},"vehicle_type_id":"4","last_reported":1684080457,"current_range_meters":1600,"station_id":"ce4bhi12rcd13ifvqfo0","pricing_plan_id":"free"},{"bike_id":"19377835-ef04-4eec-b4ce-51c65afa960e","system_id":"levelo_inurba_marseille","lat":43.33612,"lon":5.410321,"is_reserved":false,"is_disabled":false,"rental_uris":{"android":"levelo://app?vid=19377835-ef04-4eec-b4ce-51c65afa960e","ios":"levelo://app?vid=19377835-ef04-4eec-b4ce-51c65afa960e"},"vehicle_type_id":"4","last_reported":1684080457,"current_range_meters":10000,"station_id":"ce4bhqh2rcd13ifvqhmg","pricing_plan_id":"free"},{"bike_id":"58820469-4dc7-4bce-8cc0-69efa299c4d5","system_id":"levelo_inurba_marseille","lat":43.276771,"lon":5.388799,"is_reserved":false,"is_disabled":false,"rental_uris":{"android":"levelo://app?vid=58820469-4dc7-4bce-8cc0-69efa299c4d5","ios":"levelo://app?vid=58820469-4dc7-4bce-8cc0-69efa299c4d5"},"vehicle_type_id":"4","last_reported":1684080457,"current_range_meters":15200,"station_id":"ce4bhi12rcd13ifvqfo0","pricing_plan_id":"free"},{"bike_id":"15cc8a37-99b3-4707-8590-3d9c5ac6fca0","system_id":"levelo_inurba_marseille","lat":43.31085,"lon":5.42416,"is_reserved":false,"is_disabled":false,"rental_uris":{"android":"levelo://app?vid=15cc8a37-99b3-4707-8590-3d9c5ac6fca0","ios":"levelo://app?vid=15cc8a37-99b3-4707-8590-3d9c5ac6fca0"},"vehicle_type_id":"4","last_reported":1684080457,"current_range_meters":16800,"station_id":"ce4bhp92rcd13ifvqhag","pricing_plan_id":"free"},{"bike_id":"12f47ffc-592d-4f7b-bd5d-3005b84d2dd9","system_id":"levelo_inurba_marseille","lat":43.310785,"lon":5.424305,"is_reserved":false,"is_disabled":false,"rental_uris":{"android":"levelo://app?vid=12f47ffc-592d-4f7b-bd5d-3005b84d2dd9","ios":"levelo://app?vid=12f47ffc-592d-4f7b-bd5d-3005b84d2dd9"},"vehicle_type_id":"4","last_reported":1684080457,"current_range_meters":31200,"station_id":"ce4bhp92rcd13ifvqhag","pricing_plan_id":"free"},{"bike_id":"97705d06-0623-40d2-803b-508247728d0b","system_id":"levelo_inurba_marseille","lat":43.310785,"lon":5.424305,"is_reserved":false,"is_disabled":false,"rental_uris":{"android":"levelo://app?vid=97705d06-0623-40d2-803b-508247728d0b","ios":"levelo://app?vid=97705d06-0623-40d2-803b-508247728d0b"},"vehicle_type_id":"4","last_reported":1684080457,"current_range_meters":15600,"station_id":"ce4bhp92rcd13ifvqhag","pricing_plan_id":"free"},{"bike_id":"ffa1d2ea-cfd2-4a83-be56-2faad0eb01d4","system_id":"levelo_inurba_marseille","lat":43.310785,"lon":5.424305,"is_reserved":false,"is_disabled":false,"rental_uris":{"android":"levelo://app?vid=ffa1d2ea-cfd2-4a83-be56-2faad0eb01d4","ios":"levelo://app?vid=ffa1d2ea-cfd2-4a83-be56-2faad0eb01d4"},"vehicle_type_id":"4","last_reported":1684080457,"current_range_meters":1200,"station_id":"ce4bhp92rcd13ifvqhag","pricing_plan_id":"free"},{"bike_id":"fb48c0bb-9008-48cf-9967-2540a90fe65c","system_id":"levelo_inurba_marseille","lat":43.310785,"lon":5.424305,"is_reserved":false,"is_disabled":false,"rental_uris":{"android":"levelo://app?vid=fb48c0bb-9008-48cf-9967-2540a90fe65c","ios":"levelo://app?vid=fb48c0bb-9008-48cf-9967-2540a90fe65c"},"vehicle_type_id":"4","last_reported":1684080457,"current_range_meters":31600,"station_id":"ce4bhp92rcd13ifvqhag","pricing_plan_id":"free"},{"bike_id":"a85cb362-6412-42e7-91c0-634cff2c0a9c","system_id":"levelo_inurba_marseille","lat":43.30424,"lon":5.42412,"is_reserved":false,"is_disabled":false,"rental_uris":{"android":"levelo://app?vid=a85cb362-6412-42e7-91c0-634cff2c0a9c","ios":"levelo://app?vid=a85cb362-6412-42e7-91c0-634cff2c0a9c"},"vehicle_type_id":"4","last_reported":1684080457,"current_range_meters":4400,"station_id":"","pricing_plan_id":"free"},{"bike_id":"ca8878f4-cd4d-49c7-a2a1-4356bf3b83cb","system_id":"levelo_inurba_marseille","lat":43.273125,"lon":5.390731,"is_reserved":false,"is_disabled":false,"rental_uris":{"android":"levelo://app?vid=ca8878f4-cd4d-49c7-a2a1-4356bf3b83cb","ios":"levelo://app?vid=ca8878f4-cd4d-49c7-a2a1-4356bf3b83cb"},"vehicle_type_id":"4","last_reported":1684080457,"current_range_meters":24000,"station_id":"ce4bhgp2rcd13ifvqfe0","pricing_plan_id":"free"},{"bike_id":"e55542a3-e81b-43e1-b644-da8b40d96e2a","system_id":"levelo_inurba_marseille","lat":43.273125,"lon":5.390731,"is_reserved":false,"is_disabled":false,"rental_uris":{"android":"levelo://app?vid=e55542a3-e81b-43e1-b644-da8b40d96e2a","ios":"levelo://app?vid=e55542a3-e81b-43e1-b644-da8b40d96e2a"},"vehicle_type_id":"4","last_reported":1684080457,"current_range_meters":4000,"station_id":"ce4bhgp2rcd13ifvqfe0","pricing_plan_id":"free"},{"bike_id":"5d5d7c4e-aa11-4a33-922b-9a95712134cc","system_id":"levelo_inurba_marseille","lat":43.273183,"lon":5.390712,"is_reserved":false,"is_disabled":false,"rental_uris":{"android":"levelo://app?vid=5d5d7c4e-aa11-4a33-922b-9a95712134cc","ios":"levelo://app?vid=5d5d7c4e-aa11-4a33-922b-9a95712134cc"},"vehicle_type_id":"4","last_reported":1684080457,"current_range_meters":14000,"station_id":"ce4bhgp2rcd13ifvqfe0","pricing_plan_id":"free"},{"bike_id":"b75e78cc-4562-4b66-ac51-ffb6fb17766d","system_id":"levelo_inurba_marseille","lat":43.273125,"lon":5.390731,"is_reserved":false,"is_disabled":false,"rental_uris":{"android":"levelo://app?vid=b75e78cc-4562-4b66-ac51-ffb6fb17766d","ios":"levelo://app?vid=b75e78cc-4562-4b66-ac51-ffb6fb17766d"},"vehicle_type_id":"4","last_reported":1684080457,"current_range_meters":14800,"station_id":"ce4bhgp2rcd13ifvqfe0","pricing_plan_id":"free"},{"bike_id":"d453c587-b05a-416e-8f4b-8a1788fc2fb3","system_id":"levelo_inurba_marseille","lat":43.274103,"lon":5.394016,"is_reserved":false,"is_disabled":false,"rental_uris":{"android":"levelo://app?vid=d453c587-b05a-416e-8f4b-8a1788fc2fb3","ios":"levelo://app?vid=d453c587-b05a-416e-8f4b-8a1788fc2fb3"},"vehicle_type_id":"4","last_reported":1684080457,"current_range_meters":16400,"station_id":"ce4bhdp2rcd13ifvqf20","pricing_plan_id":"free"},{"bike_id":"43e268be-df86-44c4-9765-de93f03e0c0c","system_id":"levelo_inurba_marseille","lat":43.274103,"lon":5.394016,"is_reserved":false,"is_disabled":false,"rental_uris":{"android":"levelo://app?vid=43e268be-df86-44c4-9765-de93f03e0c0c","ios":"levelo://app?vid=43e268be-df86-44c4-9765-de93f03e0c0c"},"vehicle_type_id":"4","last_reported":1684080457,"current_range_meters":6000,"station_id":"ce4bhdp2rcd13ifvqf20","pricing_plan_id":"free"},{"bike_id":"fd5f633d-dfa8-409e-9a1c-ad23ddb47b36","system_id":"levelo_inurba_marseille","lat":43.274103,"lon":5.394016,"is_reserved":false,"is_disabled":false,"rental_uris":{"android":"levelo://app?vid=fd5f633d-dfa8-409e-9a1c-ad23ddb47b36","ios":"levelo://app?vid=fd5f633d-dfa8-409e-9a1c-ad23ddb47b36"},"vehicle_type_id":"4","last_reported":1684080457,"current_range_meters":16400,"station_id":"ce4bhdp2rcd13ifvqf20","pricing_plan_id":"free"},{"bike_id":"27f4085f-de69-4921-8e61-a35ec9d98a21","system_id":"levelo_inurba_marseille","lat":43.304096,"lon":5.425385,"is_reserved":false,"is_disabled":false,"rental_uris":{"android":"levelo://app?vid=27f4085f-de69-4921-8e61-a35ec9d98a21","ios":"levelo://app?vid=27f4085f-de69-4921-8e61-a35ec9d98a21"},"vehicle_type_id":"4","last_reported":1684080457,"current_range_meters":23600,"station_id":"ce4bhoh2rcd13ifvqh6g","pricing_plan_id":"free"},{"bike_id":"a7145c7c-1ab7-47ff-b8ea-a6bdc966ea7b","system_id":"levelo_inurba_marseille","lat":43.304096,"lon":5.425385,"is_reserved":false,"is_disabled":false,"rental_uris":{"android":"levelo://app?vid=a7145c7c-1ab7-47ff-b8ea-a6bdc966ea7b","ios":"levelo://app?vid=a7145c7c-1ab7-47ff-b8ea-a6bdc966ea7b"},"vehicle_type_id":"4","last_reported":1684080457,"current_range_meters":1600,"station_id":"ce4bhoh2rcd13ifvqh6g","pricing_plan_id":"free"},{"bike_id":"f6bd7e49-4bf5-4cb1-aaca-fdc7172406d4","system_id":"levelo_inurba_marseille","lat":43.295523,"lon":5.422926,"is_reserved":false,"is_disabled":false,"rental_uris":{"android":"levelo://app?vid=f6bd7e49-4bf5-4cb1-aaca-fdc7172406d4","ios":"levelo://app?vid=f6bd7e49-4bf5-4cb1-aaca-fdc7172406d4"},"vehicle_type_id":"4","last_reported":1684080457,"current_range_meters":7600,"station_id":"ce4bhph2rcd13ifvqhdg","pricing_plan_id":"free"},{"bike_id":"5b67a11c-d201-4104-976c-63ea5057bbdc","system_id":"levelo_inurba_marseille","lat":43.295523,"lon":5.422926,"is_reserved":false,"is_disabled":false,"rental_uris":{"android":"levelo://app?vid=5b67a11c-d201-4104-976c-63ea5057bbdc","ios":"levelo://app?vid=5b67a11c-d201-4104-976c-63ea5057bbdc"},"vehicle_type_id":"4","last_reported":1684080457,"current_range_meters":800,"station_id":"ce4bhph2rcd13ifvqhdg","pricing_plan_id":"free"},{"bike_id":"ae14569e-0995-4602-9ac4-ac7a80b69ed2","system_id":"levelo_inurba_marseille","lat":43.295523,"lon":5.422926,"is_reserved":false,"is_disabled":false,"rental_uris":{"android":"levelo://app?vid=ae14569e-0995-4602-9ac4-ac7a80b69ed2","ios":"levelo://app?vid=ae14569e-0995-4602-9ac4-ac7a80b69ed2"},"vehicle_type_id":"4","last_reported":1684080457,"current_range_meters":31200,"station_id":"ce4bhph2rcd13ifvqhdg","pricing_plan_id":"free"},{"bike_id":"35bd53c8-6e49-4eb7-96ae-835b92f8934c","system_id":"levelo_inurba_marseille","lat":43.295523,"lon":5.422926,"is_reserved":false,"is_disabled":false,"rental_uris":{"android":"levelo://app?vid=35bd53c8-6e49-4eb7-96ae-835b92f8934c","ios":"levelo://app?vid=35bd53c8-6e49-4eb7-96ae-835b92f8934c"},"vehicle_type_id":"4","last_reported":1684080457,"current_range_meters":4800,"station_id":"ce4bhph2rcd13ifvqhdg","pricing_plan_id":"free"},{"bike_id":"33237318-93ec-4ea7-9fde-45de686cf94d","system_id":"levelo_inurba_marseille","lat":43.295523,"lon":5.422926,"is_reserved":false,"is_disabled":false,"rental_uris":{"android":"levelo://app?vid=33237318-93ec-4ea7-9fde-45de686cf94d","ios":"levelo://app?vid=33237318-93ec-4ea7-9fde-45de686cf94d"},"vehicle_type_id":"4","last_reported":1684080457,"current_range_meters":17600,"station_id":"ce4bhph2rcd13ifvqhdg","pricing_plan_id":"free"},{"bike_id":"52cc55ac-b6aa-4e96-8efb-ecc46a64d22e","system_id":"levelo_inurba_marseille","lat":43.295523,"lon":5.422926,"is_reserved":false,"is_disabled":false,"rental_uris":{"android":"levelo://app?vid=52cc55ac-b6aa-4e96-8efb-ecc46a64d22e","ios":"levelo://app?vid=52cc55ac-b6aa-4e96-8efb-ecc46a64d22e"},"vehicle_type_id":"4","last_reported":1684080457,"current_range_meters":27600,"station_id":"ce4bhph2rcd13ifvqhdg","pricing_plan_id":"free"},{"bike_id":"c03314a5-0aad-4179-811e-a88601807ece","system_id":"levelo_inurba_marseille","lat":43.272124,"lon":5.391768,"is_reserved":false,"is_disabled":false,"rental_uris":{"android":"levelo://app?vid=c03314a5-0aad-4179-811e-a88601807ece","ios":"levelo://app?vid=c03314a5-0aad-4179-811e-a88601807ece"},"vehicle_type_id":"4","last_reported":1684080457,"current_range_meters":17600,"station_id":"ce4bhhp2rcd13ifvqfm0","pricing_plan_id":"free"},{"bike_id":"cb0c403d-f2cf-4cfb-a1f4-b9c6d2dea740","system_id":"levelo_inurba_marseille","lat":43.272124,"lon":5.391768,"is_reserved":false,"is_disabled":false,"rental_uris":{"android":"levelo://app?vid=cb0c403d-f2cf-4cfb-a1f4-b9c6d2dea740","ios":"levelo://app?vid=cb0c403d-f2cf-4cfb-a1f4-b9c6d2dea740"},"vehicle_type_id":"4","last_reported":1684080457,"current_range_meters":2000,"station_id":"ce4bhhp2rcd13ifvqfm0","pricing_plan_id":"free"},{"bike_id":"08bc2265-8bed-4953-9e3e-47740d7e2408","system_id":"levelo_inurba_marseille","lat":43.27203,"lon":5.39185,"is_reserved":false,"is_disabled":false,"rental_uris":{"android":"levelo://app?vid=08bc2265-8bed-4953-9e3e-47740d7e2408","ios":"levelo://app?vid=08bc2265-8bed-4953-9e3e-47740d7e2408"},"vehicle_type_id":"4","last_reported":1684080457,"current_range_meters":0,"station_id":"ce4bhhp2rcd13ifvqfm0","pricing_plan_id":"free"},{"bike_id":"ba93bbe9-aaa4-4831-aceb-684e56b08e2c","system_id":"levelo_inurba_marseille","lat":43.27199,"lon":5.39182,"is_reserved":false,"is_disabled":false,"rental_uris":{"android":"levelo://app?vid=ba93bbe9-aaa4-4831-aceb-684e56b08e2c","ios":"levelo://app?vid=ba93bbe9-aaa4-4831-aceb-684e56b08e2c"},"vehicle_type_id":"4","last_reported":1684080457,"current_range_meters":16800,"station_id":"ce4bhhp2rcd13ifvqfm0","pricing_plan_id":"free"},{"bike_id":"2fe505e4-e8b6-493b-bcb7-ff83adb1ef85","system_id":"levelo_inurba_marseille","lat":43.269467,"lon":5.386439,"is_reserved":false,"is_disabled":false,"rental_uris":{"android":"levelo://app?vid=2fe505e4-e8b6-493b-bcb7-ff83adb1ef85","ios":"levelo://app?vid=2fe505e4-e8b6-493b-bcb7-ff83adb1ef85"},"vehicle_type_id":"4","last_reported":1684080457,"current_range_meters":26000,"station_id":"ce4bhh92rcd13ifvqfh0","pricing_plan_id":"free"},{"bike_id":"c1ce3ab0-3fa7-4376-ba6a-c87565eb5dbe","system_id":"levelo_inurba_marseille","lat":43.26955,"lon":5.38626,"is_reserved":false,"is_disabled":false,"rental_uris":{"android":"levelo://app?vid=c1ce3ab0-3fa7-4376-ba6a-c87565eb5dbe","ios":"levelo://app?vid=c1ce3ab0-3fa7-4376-ba6a-c87565eb5dbe"},"vehicle_type_id":"4","last_reported":1684080457,"current_range_meters":29600,"station_id":"ce4bhh92rcd13ifvqfh0","pricing_plan_id":"free"},{"bike_id":"ff3f462e-d420-459f-80de-d1de000da075","system_id":"levelo_inurba_marseille","lat":43.269467,"lon":5.386439,"is_reserved":false,"is_disabled":false,"rental_uris":{"android":"levelo://app?vid=ff3f462e-d420-459f-80de-d1de000da075","ios":"levelo://app?vid=ff3f462e-d420-459f-80de-d1de000da075"},"vehicle_type_id":"4","last_reported":1684080457,"current_range_meters":3200,"station_id":"ce4bhh92rcd13ifvqfh0","pricing_plan_id":"free"},