{"last_updated":1720203021,"ttl":30,"version":"2.2","data":{"bikes":[{"bike_id":"c8d11cb3-1b81-4d15-b3b4-828d4434f048","system_id":"levelo_inurba_marseille","lat":43.312239,"lon":5.368562,"is_reserved":false,"is_disabled":false,"rental_uris":{"android":"levelo://app?vid=c8d11cb3-1b81-4d15-b3b4-828d4434f048","ios":"levelo://app?vid=c8d11cb3-1b81-4d15-b3b4-828d4434f048"},"vehicle_type_id":"4","last_reported":1720203021,"current_range_meters":15200,"station_id":"ce4bgl92rcd13ifvqbq0","pricing_plan_id":"cebpf4jnsgd1na2vs0mg"},{"bike_id":"aea31e07-5336-475b-bd55-5c35f0ae3dae","system_id":"levelo_inurba_marseille","lat":43.312239,"lon":5.368562,"is_reserved":false,"is_disabled":false,"rental_uris":{"android":"levelo://app?vid=aea31e07-5336-475b-bd55-5c35f0ae3dae","ios":"levelo://app?vid=aea31e07-5336-475b-bd55-5c35f0ae3dae"},"vehicle_type_id":"4","last_reported":1720203021,"current_range_meters":1200,"station_id":"ce4bgl92rcd13ifvqbq0","pricing_plan_id":"cebpf4jnsgd1na2vs0mg"},{"bike_id":"b759568e-6710-4226-b189-1549fd3d83dc","system_id":"levelo_inurba_marseille","lat":43.309076,"lon":5.368465,"is_reserved":false,"is_disabled":false,"rental_uris":{"android":"levelo://app?vid=b759568e-6710-4226-b189-1549fd3d83dc","ios":"levelo://app?vid=b759568e-6710-4226-b189-1549fd3d83dc"},"vehicle_type_id":"4","last_reported":1720203021,"current_range_meters":2400,"station_id":"ce4bgn92rcd13ifvqbvg","pricing_plan_id":"cebpf4jnsgd1na2vs0mg"},{"bike_id":"248d3c0c-bc7d-4e0d-9e49-8a93f28d66eb","system_id":"levelo_inurba_marseille","lat":43.314811,"lon":5.373103,"is_reserved":false,"is_disabled":false,"rental_uris":{"android":"levelo://app?vid=248d3c0c-bc7d-4e0d-9e49-8a93f28d66eb","ios":"levelo://app?vid=248d3c0c-bc7d-4e0d-9e49-8a93f28d66eb"},"vehicle_type_id":"4","last_reported":1720203021,"current_range_meters":0,"station_id":"ce4bgt12rcd13ifvqcd0","pricing_plan_id":"cebpf4jnsgd1na2vs0mg"},{"bike_id":"13f5663c-72e5-4e29-a03a-7dd7116fdd2b","system_id":"levelo_inurba_marseille","lat":43.314811,"lon":5.373104,"is_reserved":false,"is_disabled":false,"rental_uris":{"android":"levelo://app?vid=13f5663c-72e5-4e29-a03a-7dd7116fdd2b","ios":"levelo://app?vid=13f5663c-72e5-4e29-a03a-7dd7116fdd2b"},"vehicle_type_id":"4","last_reported":1720203021,"current_range_meters":24400,"station_id":"ce4bgt12rcd13ifvqcd0","pricing_plan_id":"cebpf4jnsgd1na2vs0mg"},{"bike_id":"94edfedd-5a13-44b2-868f-d301a14a3eaf","system_id":"levelo_inurba_marseille","lat":43.309039,"lon":5.371797,"is_reserved":false,"is_disabled":false,"rental_uris":{"android":"levelo://app?vid=94edfedd-5a13-44b2-868f-d301a14a3eaf","ios":"levelo://app?vid=94edfedd-5a13-44b2-868f-d301a14a3eaf"},"vehicle_type_id":"4","last_reported":1720203021,"current_range_meters":2400,"station_id":"ce4bguh2rcd13ifvqckg","pricing_plan_id":"cebpf4jnsgd1na2vs0mg"},{"bike_id":"41cdcdd6-ded1-4424-b142-2da7b544bf9d","system_id":"levelo_inurba_marseille","lat":43.31792,"lon":5.36938,"is_reserved":false,"is_disabled":false,"rental_uris":{"android":"levelo://app?vid=41cdcdd6-ded1-4424-b142-2da7b544bf9d","ios":"levelo://app?vid=41cdcdd6-ded1-4424-b142-2da7b544bf9d"},"vehicle_type_id":"4","last_reported":1720203021,"current_range_meters":9600,"station_id":"","pricing_plan_id":"cebpf4jnsgd1na2vs0mg"},{"bike_id":"c79f8306-56bf-44a2-ba95-de1d7b0db9c7","system_id":"levelo_inurba_marseille","lat":43.312909,"lon":5.375559,"is_reserved":false,"is_disabled":false,"rental_uris":{"android":"levelo://app?vid=c79f8306-56bf-44a2-ba95-de1d7b0db9c7","ios":"levelo://app?vid=c79f8306-56bf-44a2-ba95-de1d7b0db9c7"},"vehicle_type_id":"4","last_reported":1720203021,"current_range_meters":0,"station_id":"","pricing_plan_id":"cebpf4jnsgd1na2vs0mg"},{"bike_id":"e137663d-8691-4bf4-a0cb-fb315a8a92f4","system_id":"levelo_inurba_marseille","lat":43.31823,"lon":5.37251,"is_reserved":false,"is_disabled":false,"rental_uris":{"android":"levelo://app?vid=e137663d-8691-4bf4-a0cb-fb315a8a92f4","ios":"levelo://app?vid=e137663d-8691-4bf4-a0cb-fb315a8a92f4"},"vehicle_type_id":"4","last_reported":1720203021,"current_range_meters":1200,"station_id":"","pricing_plan_id":"cebpf4jnsgd1na2vs0mg"},{"bike_id":"558c5cc1-98a4-4ff3-b317-3a563d755166","system_id":"levelo_inurba_marseille","lat":43.30537,"lon":5.367345,"is_reserved":false,"is_disabled":false,"rental_uris":{"android":"levelo://app?vid=558c5cc1-98a4-4ff3-b317-3a563d755166","ios":"levelo://app?vid=558c5cc1-98a4-4ff3-b317-3a563d755166"},"vehicle_type_id":"4","last_reported":1720203021,"current_range_meters":0,"station_id":"ce4bgrp2rcd13ifvqc9g","pricing_plan_id":"cebpf4jnsgd1na2vs0mg"},{"bike_id":"0e27e8c4-0fb1-4480-90f8-15640f724327","system_id":"levelo_inurba_marseille","lat":43.31128,"lon":5.37762,"is_reserved":false,"is_disabled":false,"rental_uris":{"android":"levelo://app?vid=0e27e8c4-0fb1-4480-90f8-15640f724327","ios":"levelo://app?vid=0e27e8c4-0fb1-4480-90f8-15640f724327"},"vehicle_type_id":"4","last_reported":1720203021,"current_range_meters":3200,"station_id":"","pricing_plan_id":"cebpf4jnsgd1na2vs0mg"},{"bike_id":"7bcb415b-c1cb-4023-8182-df014a85e316","system_id":"levelo_inurba_marseille","lat":43.317075,"lon":5.377367,"is_reserved":false,"is_disabled":false,"rental_uris":{"android":"levelo://app?vid=7bcb415b-c1cb-4023-8182-df014a85e316","ios":"levelo://app?vid=7bcb415b-c1cb-4023-8182-df014a85e316"},"vehicle_type_id":"4","last_reported":1720203021,"current_range_meters":20400,"station_id":"ce4bgth2rcd13ifvqch0","pricing_plan_id":"cebpf4jnsgd1na2vs0mg"},{"bike_id":"79c6a29b-99ba-4260-ab96-05abd9aa6593","system_id":"levelo_inurba_marseille","lat":43.317075,"lon":5.377367,"is_reserved":false,"is_disabled":false,"rental_uris":{"android":"levelo://app?vid=79c6a29b-99ba-4260-ab96-05abd9aa6593","ios":"levelo://app?vid=79c6a29b-99ba-4260-ab96-05abd9aa6593"},"vehicle_type_id":"4","last_reported":1720203021,"current_range_meters":2400,"station_id":"ce4bgth2rcd13ifvqch0","pricing_plan_id":"cebpf4jnsgd1na2vs0mg"},{"bike_id":"43be1e25-b800-4458-8e90-5971cfdf9eba","system_id":"levelo_inurba_marseille","lat":43.301939,"lon":5.366286,"is_reserved":false,"is_disabled":false,"rental_uris":{"android":"levelo://app?vid=43be1e25-b800-4458-8e90-5971cfdf9eba","ios":"levelo://app?vid=43be1e25-b800-4458-8e90-5971cfdf9eba"},"vehicle_type_id":"4","last_reported":1720203021,"current_range_meters":8400,"station_id":"ce4bgrh2rcd13ifvqc8g","pricing_plan_id":"cebpf4jnsgd1na2vs0mg"},{"bike_id":"c3d33ad7-e654-4202-9ecb-063a2a0ebc8e","system_id":"levelo_inurba_marseille","lat":43.32479,"lon":5.36572,"is_reserved":false,"is_disabled":false,"rental_uris":{"android":"levelo://app?vid=c3d33ad7-e654-4202-9ecb-063a2a0ebc8e","ios":"levelo://app?vid=c3d33ad7-e654-4202-9ecb-063a2a0ebc8e"},"vehicle_type_id":"4","last_reported":1720203021,"current_range_meters":4000,"station_id":"ce4bhs12rcd13ifvqhvg","pricing_plan_id":"cebpf4jnsgd1na2vs0mg"},{"bike_id":"db29794a-735b-406d-a809-c2c7f581afbc","system_id":"levelo_inurba_marseille","lat":43.324771,"lon":5.36557,"is_reserved":false,"is_disabled":false,"rental_uris":{"android":"levelo://app?vid=db29794a-735b-406d-a809-c2c7f581afbc","ios":"levelo://app?vid=db29794a-735b-406d-a809-c2c7f581afbc"},"vehicle_type_id":"4","last_reported":1720203021,"current_range_meters":14000,"station_id":"ce4bhs12rcd13ifvqhvg","pricing_plan_id":"cebpf4jnsgd1na2vs0mg"},{"bike_id":"7bc4b2b4-a771-4581-b1f8-e0ee23bf4dc5","system_id":"levelo_inurba_marseille","lat":43.324771,"lon":5.36557,"is_reserved":false,"is_disabled":false,"rental_uris":{"android":"levelo://app?vid=7bc4b2b4-a771-4581-b1f8-e0ee23bf4dc5","ios":"levelo://app?vid=7bc4b2b4-a771-4581-b1f8-e0ee23bf4dc5"},"vehicle_type_id":"4","last_reported":1720203021,"current_range_meters":27200,"station_id":"ce4bhs12rcd13ifvqhvg","pricing_plan_id":"cebpf4jnsgd1na2vs0mg"},{"bike_id":"459cc1d2-02bc-4c87-a832-0e262d1399be","system_id":"levelo_inurba_marseille","lat":43.324771,"lon":5.36557,"is_reserved":false,"is_disabled":false,"rental_uris":{"android":"levelo://app?vid=459cc1d2-02bc-4c87-a832-0e262d1399be","ios":"levelo://app?vid=459cc1d2-02bc-4c87-a832-0e262d1399be"},"vehicle_type_id":"4","last_reported":1720203021,"current_range_meters":6000,"station_id":"ce4bhs12rcd13ifvqhvg","pricing_plan_id":"cebpf4jnsgd1na2vs0mg"},{"bike_id":"dc7401a3-f714-4aea-a92a-9bc6ab1bcaf1","system_id":"levelo_inurba_marseille","lat":43.310804,"lon":5.38359,"is_reserved":false,"is_disabled":false,"rental_uris":{"android":"levelo://app?vid=dc7401a3-f714-4aea-a92a-9bc6ab1bcaf1","ios":"levelo://app?vid=dc7401a3-f714-4aea-a92a-9bc6ab1bcaf1"},"vehicle_type_id":"4","last_reported":1720203021,"current_range_meters":8400,"station_id":"ce4bgv92rcd13ifvqcr0","pricing_plan_id":"cebpf4jnsgd1na2vs0mg"},{"bike_id":"18eff693-9971-47be-bdb1-f159b2fdffcb","system_id":"levelo_inurba_marseille","lat":43.324771,"lon":5.36557,"is_reserved":false,"is_disabled":false,"rental_uris":{"android":"levelo://app?vid=18eff693-9971-47be-bdb1-f159b2fdffcb","ios":"levelo://app?vid=18eff693-9971-47be-bdb1-f159b2fdffcb"},"vehicle_type_id":"4","last_reported":1720203021,"current_range_meters":23600,"station_id":"ce4bhs12rcd13ifvqhvg","pricing_plan_id":"cebpf4jnsgd1na2vs0mg"},{"bike_id":"ebdec7e3-45d0-4cfb-8abd-95e17aecb0bc","system_id":"levelo_inurba_marseille","lat":43.310804,"lon":5.38359,"is_reserved":false,"is_disabled":false,"rental_uris":{"android":"levelo://app?vid=ebdec7e3-45d0-4cfb-8abd-95e17aecb0bc","ios":"levelo://app?vid=ebdec7e3-45d0-4cfb-8abd-95e17aecb0bc"},"vehicle_type_id":"4","last_reported":1720203021,"current_range_meters":0,"station_id":"ce4bgv92rcd13ifvqcr0","pricing_plan_id":"cebpf4jnsgd1na2vs0mg"},{"bike_id":"7826c258-8fa8-4d3f-aee3-2e6c68eb1563","system_id":"levelo_inurba_marseille","lat":43.310804,"lon":5.38359,"is_reserved":false,"is_disabled":false,"rental_uris":{"android":"levelo://app?vid=7826c258-8fa8-4d3f-aee3-2e6c68eb1563","ios":"levelo://app?vid=7826c258-8fa8-4d3f-aee3-2e6c68eb1563"},"vehicle_type_id":"4","last_reported":1720203021,"current_range_meters":22000,"station_id":"ce4bgv92rcd13ifvqcr0","pricing_plan_id":"cebpf4jnsgd1na2vs0mg"},{"bike_id":"7df079d9-43af-4b63-ba0e-2874c930731b","system_id":"levelo_inurba_marseille","lat":43.310804,"lon":5.38359,"is_reserved":false,"is_disabled":false,"rental_uris":{"android":"levelo://app?vid=7df079d9-43af-4b63-ba0e-2874c930731b","ios":"levelo://app?vid=7df079d9-43af-4b63-ba0e-2874c930731b"},"vehicle_type_id":"4","last_reported":1720203021,"current_range_meters":0,"station_id":"ce4bgv92rcd13ifvqcr0","pricing_plan_id":"cebpf4jnsgd1na2vs0mg"},{"bike_id":"42c0af62-924c-431a-85ef-55e8b3d406d6","system_id":"levelo_inurba_marseille","lat":43.30143,"lon":5.37413,"is_reserved":false,"is_disabled":false,"rental_uris":{"android":"levelo://app?vid=42c0af62-924c-431a-85ef-55e8b3d406d6","ios":"levelo://app?vid=42c0af62-924c-431a-85ef-55e8b3d406d6"},"vehicle_type_id":"4","last_reported":1720203021,"current_range_meters":6000,"station_id":"ce4bgs92rcd13ifvqcc0","pricing_plan_id":"cebpf4jnsgd1na2vs0mg"},{"bike_id":"f5255b36-a69e-4c88-88b8-aee734110053","system_id":"levelo_inurba_marseille","lat":43.319935,"lon":5.381699,"is_reserved":false,"is_disabled":false,"rental_uris":{"android":"levelo://app?vid=f5255b36-a69e-4c88-88b8-aee734110053","ios":"levelo://app?vid=f5255b36-a69e-4c88-88b8-aee734110053"},"vehicle_type_id":"4","last_reported":1720203021,"current_range_meters":21200,"station_id":"ce4bhr12rcd13ifvqhpg","pricing_plan_id":"cebpf4jnsgd1na2vs0mg"},{"bike_id":"f4112f59-9778-4046-be6e-5ddae19c3e0c","system_id":"levelo_inurba_marseille","lat":43.319935,"lon":5.381699,"is_reserved":false,"is_disabled":false,"rental_uris":{"android":"levelo://app?vid=f4112f59-9778-4046-be6e-5ddae19c3e0c","ios":"levelo://app?vid=f4112f59-9778-4046-be6e-5ddae19c3e0c"},"vehicle_type_id":"4","last_reported":1720203021,"current_range_meters":3200,"station_id":"ce4bhr12rcd13ifvqhpg","pricing_plan_id":"cebpf4jnsgd1na2vs0mg"},{"bike_id":"d631fcc0-b427-4f09-ad35-5ee0325e2748","system_id":"levelo_inurba_marseille","lat":43.31998,"lon":5.38152,"is_reserved":false,"is_disabled":false,"rental_uris":{"android":"levelo://app?vid=d631fcc0-b427-4f09-ad35-5ee0325e2748","ios":"levelo://app?vid=d631fcc0-b427-4f09-ad35-5ee0325e2748"},"vehicle_type_id":"4","last_reported":1720203021,"current_range_meters":0,"station_id":"ce4bhr12rcd13ifvqhpg","pricing_plan_id":"cebpf4jnsgd1na2vs0mg"},{"bike_id":"07825f90-2c1e-40fb-b1ff-3c0fd304de18","system_id":"levelo_inurba_marseille","lat":43.313571,"lon":5.384829,"is_reserved":false,"is_disabled":false,"rental_uris":{"android":"levelo://app?vid=07825f90-2c1e-40fb-b1ff-3c0fd304de18","ios":"levelo://app?vid=07825f90-2c1e-40fb-b1ff-3c0fd304de18"},"vehicle_type_id":"4","last_reported":1720203021,"current_range_meters":2000,"station_id":"ce4bgt92rcd13ifvqcf0","pricing_plan_id":"cebpf4jnsgd1na2vs0mg"},{"bike_id":"b4d5e166-0db5-4770-a720-e11ca65bbe2e","system_id":"levelo_inurba_marseille","lat":43.299222,"lon":5.365554,"is_reserved":false,"is_disabled":false,"rental_uris":{"android":"levelo://app?vid=b4d5e166-0db5-4770-a720-e11ca65bbe2e","ios":"levelo://app?vid=b4d5e166-0db5-4770-a720-e11ca65bbe2e"},"vehicle_type_id":"4","last_reported":1720203021,"current_range_meters":29200,"station_id":"ce4bgm92rcd13ifvqbr0","pricing_plan_id":"cebpf4jnsgd1na2vs0mg"},{"bike_id":"bb01a2b0-1119-47ff-a7ad-9bf343634336","system_id":"levelo_inurba_marseille","lat":43.299724,"lon":5.371829,"is_reserved":false,"is_disabled":false,"rental_uris":{"android":"levelo://app?vid=bb01a2b0-1119-47ff-a7ad-9bf343634336","ios":"levelo://app?vid=bb01a2b0-1119-47ff-a7ad-9bf343634336"},"vehicle_type_id":"4","last_reported":1720203021,"current_range_meters":20000,"station_id":"ce4bgr92rcd13ifvqc7g","pricing_plan_id":"cebpf4jnsgd1na2vs0mg"},{"bike_id":"adb598c2-325e-4a05-8c4d-29f0490469c3","system_id":"levelo_inurba_marseille","lat":43.298433,"lon":5.362774,"is_reserved":false,"is_disabled":false,"rental_uris":{"android":"levelo://app?vid=adb598c2-325e-4a05-8c4d-29f0490469c3","ios":"levelo://app?vid=adb598c2-325e-4a05-8c4d-29f0490469c3"},"vehicle_type_id":"4","last_reported":1720203021,"current_range_meters":6400,"station_id":"ce4bgpp2rcd13ifvqc3g","pricing_plan_id":"cebpf4jnsgd1na2vs0mg"},{"bike_id":"b2359aa6-a0bf-4ff6-88f1-3fbf7ca341c2","system_id":"levelo_inurba_marseille","lat":43.305364,"lon":5.384119,"is_reserved":false,"is_disabled":false,"rental_uris":{"android":"levelo://app?vid=b2359aa6-a0bf-4ff6-88f1-3fbf7ca341c2","ios":"levelo://app?vid=b2359aa6-a0bf-4ff6-88f1-3fbf7ca341c2"},"vehicle_type_id":"4","last_reported":1720203021,"current_range_meters":1200,"station_id":"ce4bgg92rcd13ifvqb30","pricing_plan_id":"cebpf4jnsgd1na2vs0mg"},{"bike_id":"f5eb46d6-c392-4fb6-8403-ffd01f9bbba7","system_id":"levelo_inurba_marseille","lat":43.299243,"lon":5.37481,"is_reserved":false,"is_disabled":false,"rental_uris":{"android":"levelo://app?vid=f5eb46d6-c392-4fb6-8403-ffd01f9bbba7","ios":"levelo://app?vid=f5eb46d6-c392-4fb6-8403-ffd01f9bbba7"},"vehicle_type_id":"4","last_reported":1720203021,"current_range_meters":0,"station_id":"ce4bgjh2rcd13ifvqbg0","pricing_plan_id":"cebpf4jnsgd1na2vs0mg"},{"bike_id":"fc61b835-51c9-4ea3-a943-cad07f427fb1","system_id":"levelo_inurba_marseille","lat":43.31038,"lon":5.387098,"is_reserved":false,"is_disabled":false,"rental_uris":{"android":"levelo://app?vid=fc61b835-51c9-4ea3-a943-cad07f427fb1","ios":"levelo://app?vid=fc61b835-51c9-4ea3-a943-cad07f427fb1"},"vehicle_type_id":"4","last_reported":1720203021,"current_range_meters":4400,"station_id":"","pricing_plan_id":"cebpf4jnsgd1na2vs0mg"},{"bike_id":"21ab68ef-f61e-4ff3-b293-2b258dcc8686","system_id":"levelo_inurba_marseille","lat":43.322893,"lon":5.382517,"is_reserved":false,"is_disabled":false,"rental_uris":{"android":"levelo://app?vid=21ab68ef-f61e-4ff3-b293-2b258dcc8686","ios":"levelo://app?vid=21ab68ef-f61e-4ff3-b293-2b258dcc8686"},"vehicle_type_id":"4","last_reported":1720203021,"current_range_meters":0,"station_id":"ce4bhr12rcd13ifvqhqg","pricing_plan_id":"cebpf4jnsgd1na2vs0mg"},{"bike_id":"3ed1a6ee-73a5-448b-aab8-7dd05117cb66","system_id":"levelo_inurba_marseille","lat":43.301694,"lon":5.381355,"is_reserved":false,"is_disabled":false,"rental_uris":{"android":"levelo://app?vid=3ed1a6ee-73a5-448b-aab8-7dd05117cb66","ios":"levelo://app?vid=3ed1a6ee-73a5-448b-aab8-7dd05117cb66"},"vehicle_type_id":"4","last_reported":1720203021,"current_range_meters":0,"station_id":"","pricing_plan_id":"cebpf4jnsgd1na2vs0mg"},{"bike_id":"24b9ff1f-0fd6-49aa-a906-87384c24a8d7","system_id":"levelo_inurba_marseille","lat":43.322872,"lon":5.382756,"is_reserved":false,"is_disabled":false,"rental_uris":{"android":"levelo://app?vid=24b9ff1f-0fd6-49aa-a906-87384c24a8d7","ios":"levelo://app?vid=24b9ff1f-0fd6-49aa-a906-87384c24a8d7"},"vehicle_type_id":"4","last_reported":1720203021,"current_range_meters":10800,"station_id":"ce4bhr12rcd13ifvqhqg","pricing_plan_id":"cebpf4jnsgd1na2vs0mg"},{"bike_id":"eaf33f43-5f27-4abf-bfff-b6d567248fb7","system_id":"levelo_inurba_marseille","lat":43.296986,"lon":5.362612,"is_reserved":false,"is_disabled":false,"rental_uris":{"android":"levelo://app?vid=eaf33f43-5f27-4abf-bfff-b6d567248fb7","ios":"levelo://app?vid=eaf33f43-5f27-4abf-bfff-b6d567248fb7"},"vehicle_type_id":"4","last_reported":1720203021,"current_range_meters":7200,"station_id":"","pricing_plan_id":"cebpf4jnsgd1na2vs0mg"},{"bike_id":"82f58178-8f89-479f-a33f-971fd10a7a10","system_id":"levelo_inurba_marseille","lat":43.298247,"lon":5.377123,"is_reserved":false,"is_disabled":false,"rental_uris":{"android":"levelo://app?vid=82f58178-8f89-479f-a33f-971fd10a7a10","ios":"levelo://app?vid=82f58178-8f89-479f-a33f-971fd10a7a10"},"vehicle_type_id":"4","last_reported":1720203021,"current_range_meters":5200,"station_id":"","pricing_plan_id":"cebpf4jnsgd1na2vs0mg"},{"bike_id":"bf2e3f60-668f-4afc-96f4-f4b930e46ab1","system_id":"levelo_inurba_marseille","lat":43.2968,"lon":5.37291,"is_reserved":false,"is_disabled":false,"rental_uris":{"android":"levelo://app?vid=bf2e3f60-668f-4afc-96f4-f4b930e46ab1","ios":"levelo://app?vid=bf2e3f60-668f-4afc-96f4-f4b930e46ab1"},"vehicle_type_id":"4","last_reported":1720203021,"current_range_meters":18000,"station_id":"ce4bgk12rcd13ifvqbj0","pricing_plan_id":"cebpf4jnsgd1na2vs0mg"},{"bike_id":"b0f43224-b28b-4e0a-989a-863079de3908","system_id":"levelo_inurba_marseille","lat":43.29621,"lon":5.367113,"is_reserved":false,"is_disabled":false,"rental_uris":{"android":"levelo://app?vid=b0f43224-b28b-4e0a-989a-863079de3908","ios":"levelo://app?vid=b0f43224-b28b-4e0a-989a-863079de3908"},"vehicle_type_id":"4","last_reported":1720203021,"current_range_meters":20800,"station_id":"ce4bgph2rcd13ifvqc2g","pricing_plan_id":"cebpf4jnsgd1na2vs0mg"},{"bike_id":"ad8c02c3-b43c-4efb-8ba1-4ac0faed2346","system_id":"levelo_inurba_marseille","lat":43.29643,"lon":5.362005,"is_reserved":false,"is_disabled":false,"rental_uris":{"android":"levelo://app?vid=ad8c02c3-b43c-4efb-8ba1-4ac0faed2346","ios":"levelo://app?vid=ad8c02c3-b43c-4efb-8ba1-4ac0faed2346"},"vehicle_type_id":"4","last_reported":1720203021,"current_range_meters":18000,"station_id":"","pricing_plan_id":"cebpf4jnsgd1na2vs0mg"},{"bike_id":"280525b4-850d-4349-9c72-4f70d3424eeb","system_id":"levelo_inurba_marseille","lat":43.32728,"lon":5.37848,"is_reserved":false,"is_disabled":false,"rental_uris":{"android":"levelo://app?vid=280525b4-850d-4349-9c72-4f70d3424eeb","ios":"levelo://app?vid=280525b4-850d-4349-9c72-4f70d3424eeb"},"vehicle_type_id":"4","last_reported":1720203021,"current_range_meters":8800,"station_id":"","pricing_plan_id":"cebpf4jnsgd1na2vs0mg"},{"bike_id":"8b15762b-f939-4a3b-9923-31e997c0d578","system_id":"levelo_inurba_marseille","lat":43.296129,"lon":5.370777,"is_reserved":false,"is_disabled":false,"rental_uris":{"android":"levelo://app?vid=8b15762b-f939-4a3b-9923-31e997c0d578","ios":"levelo://app?vid=8b15762b-f939-4a3b-9923-31e997c0d578"},"vehicle_type_id":"4","last_reported":1720203021,"current_range_meters":28400,"station_id":"ce4bgnh2rcd13ifvqc0g","pricing_plan_id":"cebpf4jnsgd1na2vs0mg"},{"bike_id":"36c038a4-d6fe-4c32-ac1a-8d5061eeeb8b","system_id":"levelo_inurba_marseille","lat":43.29573,"lon":5.367355,"is_reserved":false,"is_disabled":false,"rental_uris":{"android":"levelo://app?vid=36c038a4-d6fe-4c32-ac1a-8d5061eeeb8b","ios":"levelo://app?vid=36c038a4-d6fe-4c32-ac1a-8d5061eeeb8b"},"vehicle_type_id":"4","last_reported":1720203021,"current_range_meters":12000,"station_id":"ce4bgph2rcd13ifvqc2g","pricing_plan_id":"cebpf4jnsgd1na2vs0mg"},{"bike_id":"d09d7bfa-c5c3-4358-9418-adf9635ee864","system_id":"levelo_inurba_marseille","lat":43.296131,"lon":5.370773,"is_reserved":false,"is_disabled":false,"rental_uris":{"android":"levelo://app?vid=d09d7bfa-c5c3-4358-9418-adf9635ee864","ios":"levelo://app?vid=d09d7bfa-c5c3-4358-9418-adf9635ee864"},"vehicle_type_id":"4","last_reported":1720203021,"current_range_meters":20400,"station_id":"ce4bgnh2rcd13ifvqc0g","pricing_plan_id":"cebpf4jnsgd1na2vs0mg"},{"bike_id":"d06a492a-2d2f-4f04-bb81-106c2b81a1f1","system_id":"levelo_inurba_marseille","lat":43.296131,"lon":5.370773,"is_reserved":false,"is_disabled":false,"rental_uris":{"android":"levelo://app?vid=d06a492a-2d2f-4f04-bb81-106c2b81a1f1","ios":"levelo://app?vid=d06a492a-2d2f-4f04-bb81-106c2b81a1f1"},"vehicle_type_id":"4","last_reported":1720203021,"current_range_meters":3200,"station_id":"ce4bgnh2rcd13ifvqc0g","pricing_plan_id":"cebpf4jnsgd1na2vs0mg"},{"bike_id":"b42ba4ea-1156-4d33-b885-d4b2c585400a","system_id":"levelo_inurba_marseille","lat":43.296192,"lon":5.361838,"is_reserved":false,"is_disabled":false,"rental_uris":{"android":"levelo://app?vid=b42ba4ea-1156-4d33-b885-d4b2c585400a","ios":"levelo://app?vid=b42ba4ea-1156-4d33-b885-d4b2c585400a"},"vehicle_type_id":"4","last_reported":1720203021,"current_range_meters":1600,"station_id":"ce4bgpp2rcd13ifvqc3g","pricing_plan_id":"cebpf4jnsgd1na2vs0mg"},{"bike_id":"12dab499-3667-4226-8345-b30aab6dd253","system_id":"levelo_inurba_marseille","lat":43.29573,"lon":5.367355,"is_reserved":false,"is_disabled":false,"rental_uris":{"android":"levelo://app?vid=12dab499-3667-4226-8345-b30aab6dd253","ios":"levelo://app?vid=12dab499-3667-4226-8345-b30aab6dd253"},"vehicle_type_id":"4","last_reported":1720203021,"current_range_meters":7200,"station_id":"ce4bgph2rcd13ifvqc2g","pricing_plan_id":"cebpf4jnsgd1na2vs0mg"},{"bike_id":"a1b8d8d4-f9a1-4429-95b4-29893b234da6","system_id":"levelo_inurba_marseille","lat":43.29573,"lon":5.367355,"is_reserved":false,"is_disabled":false,"rental_uris":{"android":"levelo://app?vid=a1b8d8d4-f9a1-4429-95b4-29893b234da6","ios":"levelo://app?vid=a1b8d8d4-f9a1-4429-95b4-29893b234da6"},"vehicle_type_id":"4","last_reported":1720203021,"current_range_meters":13600,"station_id":"ce4bgph2rcd13ifvqc2g","pricing_plan_id":"cebpf4jnsgd1na2vs0mg"},{"bike_id":"2a2e2f67-33d5-4875-a501-3379127bb533","system_id":"levelo_inurba_marseille","lat":43.299028,"lon":5.381509,"is_reserved":false,"is_disabled":false,"rental_uris":{"android":"levelo://app?vid=2a2e2f67-33d5-4875-a501-3379127bb533","ios":"levelo://app?vid=2a2e2f67-33d5-4875-a501-3379127bb533"},"vehicle_type_id":"4","last_reported":1720203021,"current_range_meters":21200,"station_id":"ce4bgj12rcd13ifvqbc0","pricing_plan_id":"cebpf4jnsgd1na2vs0mg"},{"bike_id":"9a6b8059-5f85-470a-aa38-a1e1252ec7b7","system_id":"levelo_inurba_marseille","lat":43.309589,"lon":5.390258,"is_reserved":false,"is_disabled":false,"rental_uris":{"android":"levelo://app?vid=9a6b8059-5f85-470a-aa38-a1e1252ec7b7","ios":"levelo://app?vid=9a6b8059-5f85-470a-aa38-a1e1252ec7b7"},"vehicle_type_id":"4","last_reported":1720203021,"current_range_meters":0,"station_id":"ce4bgup2rcd13ifvqco0","pricing_plan_id":"cebpf4jnsgd1na2vs0mg"},{"bike_id":"5059c5a9-45e8-4ea7-8d90-9efaeba09ef6","system_id":"levelo_inurba_marseille","lat":43.309589,"lon":5.390258,"is_reserved":false,"is_disabled":false,"rental_uris":{"android":"levelo://app?vid=5059c5a9-45e8-4ea7-8d90-9efaeba09ef6","ios":"levelo://app?vid=5059c5a9-45e8-4ea7-8d90-9efaeba09ef6"},"vehicle_type_id":"4","last_reported":1720203021,"current_range_meters":0,"station_id":"ce4bgup2rcd13ifvqco0","pricing_plan_id":"cebpf4jnsgd1na2vs0mg"},{"bike_id":"89f73ce0-2fc2-4ae9-8f4e-2de5eab17abe","system_id":"levelo_inurba_marseille","lat":43.309589,"lon":5.390258,"is_reserved":false,"is_disabled":false,"rental_uris":{"android":"levelo://app?vid=89f73ce0-2fc2-4ae9-8f4e-2de5eab17abe","ios":"levelo://app?vid=89f73ce0-2fc2-4ae9-8f4e-2de5eab17abe"},"vehicle_type_id":"4","last_reported":1720203021,"current_range_meters":27200,"station_id":"ce4bgup2rcd13ifvqco0","pricing_plan_id":"cebpf4jnsgd1na2vs0mg"},{"bike_id":"3e88f0b4-a883-4e78-855a-0c6c2ddb592e","system_id":"levelo_inurba_marseille","lat":43.309589,"lon":5.390258,"is_reserved":false,"is_disabled":false,"rental_uris":{"android":"levelo://app?vid=3e88f0b4-a883-4e78-855a-0c6c2ddb592e","ios":"levelo://app?vid=3e88f0b4-a883-4e78-855a-0c6c2ddb592e"},"vehicle_type_id":"4","last_reported":1720203021,"current_range_meters":5200,"station_id":"ce4bgup2rcd13ifvqco0","pricing_plan_id":"cebpf4jnsgd1na2vs0mg"},{"bike_id":"7843705d-9e84-4177-bac6-254e9e8691e7","system_id":"levelo_inurba_marseille","lat":43.309589,"lon":5.390258,"is_reserved":false,"is_disabled":false,"rental_uris":{"android":"levelo://app?vid=7843705d-9e84-4177-bac6-254e9e8691e7","ios":"levelo://app?vid=7843705d-9e84-4177-bac6-254e9e8691e7"},"vehicle_type_id":"4","last_reported":1720203021,"current_range_meters":24000,"station_id":"ce4bgup2rcd13ifvqco0","pricing_plan_id":"cebpf4jnsgd1na2vs0mg"},{"bike_id":"a39d9520-4f17-4fc7-9c43-a5ba283d508b","system_id":"levelo_inurba_marseille","lat":43.309589,"lon":5.390258,"is_reserved":false,"is_disabled":false,"rental_uris":{"android":"levelo://app?vid=a39d9520-4f17-4fc7-9c43-a5ba283d508b","ios":"levelo://app?vid=a39d9520-4f17-4fc7-9c43-a5ba283d508b"},"vehicle_type_id":"4","last_reported":1720203021,"current_range_meters":4400,"station_id":"ce4bgup2rcd13ifvqco0","pricing_plan_id":"cebpf4jnsgd1na2vs0mg"},{"bike_id":"187ae5e2-716b-4cad-973b-3dce2b808684","system_id":"levelo_inurba_marseille","lat":43.317557,"lon":5.390173,"is_reserved":false,"is_disabled":false,"rental_uris":{"android":"levelo://app?vid=187ae5e2-716b-4cad-973b-3dce2b808684","ios":"levelo://app?vid=187ae5e2-716b-4cad-973b-3dce2b808684"},"vehicle_type_id":"4","last_reported":1720203021,"current_range_meters":21600,"station_id":"ce4bhqp2rcd13ifvqhng","pricing_plan_id":"cebpf4jnsgd1na2vs0mg"},{"bike_id":"d5e7c23b-3b58-4b18-9470-58f54ca67995","system_id":"levelo_inurba_marseille","lat":43.317557,"lon":5.390173,"is_reserved":false,"is_disabled":false,"rental_uris":{"android":"levelo://app?vid=d5e7c23b-3b58-4b18-9470-58f54ca67995","ios":"levelo://app?vid=d5e7c23b-3b58-4b18-9470-58f54ca67995"},"vehicle_type_id":"4","last_reported":1720203021,"current_range_meters":3600,"station_id":"ce4bhqp2rcd13ifvqhng","pricing_plan_id":"cebpf4jnsgd1na2vs0mg"},{"bike_id":"ecf98940-8507-4111-8dd0-b5c240f0fd4a","system_id":"levelo_inurba_marseille","lat":43.317557,"lon":5.390173,"is_reserved":false,"is_disabled":false,"rental_uris":{"android":"levelo://app?vid=ecf98940-8507-4111-8dd0-b5c240f0fd4a","ios":"levelo://app?vid=ecf98940-8507-4111-8dd0-b5c240f0fd4a"},"vehicle_type_id":"4","last_reported":1720203021,"current_range_meters":14400,"station_id":"ce4bhqp2rcd13ifvqhng","pricing_plan_id":"cebpf4jnsgd1na2vs0mg"},{"bike_id":"2151edc5-c629-4edb-b0fd-c62dedb97e84","system_id":"levelo_inurba_marseille","lat":43.317557,"lon":5.390173,"is_reserved":false,"is_disabled":false,"rental_uris":{"android":"levelo://app?vid=2151edc5-c629-4edb-b0fd-c62dedb97e84","ios":"levelo://app?vid=2151edc5-c629-4edb-b0fd-c62dedb97e84"},"vehicle_type_id":"4","last_reported":1720203021,"current_range_meters":17200,"station_id":"ce4bhqp2rcd13ifvqhng","pricing_plan_id":"cebpf4jnsgd1na2vs0mg"},{"bike_id":"fd0ae38b-bfba-4969-b0aa-6aaf8482dac5","system_id":"levelo_inurba_marseille","lat":43.29811,"lon":5.38112,"is_reserved":false,"is_disabled":false,"rental_uris":{"android":"levelo://app?vid=fd0ae38b-bfba-4969-b0aa-6aaf8482dac5","ios":"levelo://app?vid=fd0ae38b-bfba-4969-b0aa-6aaf8482dac5"},"vehicle_type_id":"4","last_reported":1720203021,"current_range_meters":0,"station_id":"ce4bgip2rcd13ifvqbb0","pricing_plan_id":"cebpf4jnsgd1na2vs0mg"},{"bike_id":"0f251e21-78ea-4e99-9325-0793e2ffbf2e","system_id":"levelo_inurba_marseille","lat":43.29794,"lon":5.38085,"is_reserved":false,"is_disabled":false,"rental_uris":{"android":"levelo://app?vid=0f251e21-78ea-4e99-9325-0793e2ffbf2e","ios":"levelo://app?vid=0f251e21-78ea-4e99-9325-0793e2ffbf2e"},"vehicle_type_id":"4","last_reported":1720203021,"current_range_meters":0,"station_id":"ce4bgip2rcd13ifvqbb0","pricing_plan_id":"cebpf4jnsgd1na2vs0mg"},{"bike_id":"3fa14a95-ae3e-4420-aa96-872968ed888b","system_id":"levelo_inurba_marseille","lat":43.304278,"lon":5.388868,"is_reserved":false,"is_disabled":false,"rental_uris":{"android":"levelo://app?vid=3fa14a95-ae3e-4420-aa96-872968ed888b","ios":"levelo://app?vid=3fa14a95-ae3e-4420-aa96-872968ed888b"},"vehicle_type_id":"4","last_reported":1720203021,"current_range_meters":6000,"station_id":"ce4bgk12rcd13ifvqbi0","pricing_plan_id":"cebpf4jnsgd1na2vs0mg"},{"bike_id":"96888e8b-11b6-437b-85e0-9f4215c9264b","system_id":"levelo_inurba_marseille","lat":43.295279,"lon":5.375048,"is_reserved":false,"is_disabled":false,"rental_uris":{"android":"levelo://app?vid=96888e8b-11b6-437b-85e0-9f4215c9264b","ios":"levelo://app?vid=96888e8b-11b6-437b-85e0-9f4215c9264b"},"vehicle_type_id":"4","last_reported":1720203021,"current_range_meters":2000,"station_id":"ce4bgkp2rcd13ifvqbmg","pricing_plan_id":"cebpf4jnsgd1na2vs0mg"},{"bike_id":"7c38cec3-ce59-46c6-aef0-cd1f3f8f3231","system_id":"levelo_inurba_marseille","lat":43.29533,"lon":5.37509,"is_reserved":false,"is_disabled":false,"rental_uris":{"android":"levelo://app?vid=7c38cec3-ce59-46c6-aef0-cd1f3f8f3231","ios":"levelo://app?vid=7c38cec3-ce59-46c6-aef0-cd1f3f8f3231"},"vehicle_type_id":"4","last_reported":1720203021,"current_range_meters":0,"station_id":"ce4bgkp2rcd13ifvqbmg","pricing_plan_id":"cebpf4jnsgd1na2vs0mg"},{"bike_id":"f62a3685-4dfd-4ed1-9895-678484842ca4","system_id":"levelo_inurba_marseille","lat":43.29526,"lon":5.37494,"is_reserved":false,"is_disabled":false,"rental_uris":{"android":"levelo://app?vid=f62a3685-4dfd-4ed1-9895-678484842ca4","ios":"levelo://app?vid=f62a3685-4dfd-4ed1-9895-678484842ca4"},"vehicle_type_id":"4","last_reported":1720203021,"current_range_meters":2800,"station_id":"ce4bgkp2rcd13ifvqbmg","pricing_plan_id":"cebpf4jnsgd1na2vs0mg"},{"bike_id":"1e55bb4b-126e-4305-8b30-ee896722c2b5","system_id":"levelo_inurba_marseille","lat":43.29523,"lon":5.37493,"is_reserved":false,"is_disabled":false,"rental_uris":{"android":"levelo://app?vid=1e55bb4b-126e-4305-8b30-ee896722c2b5","ios":"levelo://app?vid=1e55bb4b-126e-4305-8b30-ee896722c2b5"},"vehicle_type_id":"4","last_reported":1720203021,"current_range_meters":0,"station_id":"","pricing_plan_id":"cebpf4jnsgd1na2vs0mg"},{"bike_id":"3d9120cf-ee1a-477a-9e87-c16ee9170b42","system_id":"levelo_inurba_marseille","lat":43.29522,"lon":5.37497,"is_reserved":false,"is_disabled":false,"rental_uris":{"android":"levelo://app?vid=3d9120cf-ee1a-477a-9e87-c16ee9170b42","ios":"levelo://app?vid=3d9120cf-ee1a-477a-9e87-c16ee9170b42"},"vehicle_type_id":"4","last_reported":1720203021,"current_range_meters":0,"station_id":"ce4bgkp2rcd13ifvqbmg","pricing_plan_id":"cebpf4jnsgd1na2vs0mg"},{"bike_id":"2757e810-4767-4878-80c0-37b01296b674","system_id":"levelo_inurba_marseille","lat":43.29573,"lon":5.367355,"is_reserved":false,"is_disabled":false,"rental_uris":{"android":"levelo://app?vid=2757e810-4767-4878-80c0-37b01296b674","ios":"levelo://app?vid=2757e810-4767-4878-80c0-37b01296b674"},"vehicle_type_id":"4","last_reported":1720203021,"current_range_meters":4800,"station_id":"ce4bgph2rcd13ifvqc2g","pricing_plan_id":"cebpf4jnsgd1na2vs0mg"},{"bike_id":"970c4456-8dcb-430d-b1e4-3f02b9f019b0","system_id":"levelo_inurba_marseille","lat":43.301396,"lon":5.387812,"is_reserved":false,"is_disabled":false,"rental_uris":{"android":"levelo://app?vid=970c4456-8dcb-430d-b1e4-3f02b9f019b0","ios":"levelo://app?vid=970c4456-8dcb-430d-b1e4-3f02b9f019b0"},"vehicle_type_id":"4","last_reported":1720203021,"current_range_meters":0,"station_id":"ce4bghh2rcd13ifvqb60","pricing_plan_id":"cebpf4jnsgd1na2vs0mg"},{"bike_id":"3e2a64b1-334b-45a5-806c-9313f4d16c8f","system_id":"levelo_inurba_marseille","lat":43.29542,"lon":5.37845,"is_reserved":false,"is_disabled":false,"rental_uris":{"android":"levelo://app?vid=3e2a64b1-334b-45a5-806c-9313f4d16c8f","ios":"levelo://app?vid=3e2a64b1-334b-45a5-806c-9313f4d16c8f"},"vehicle_type_id":"4","last_reported":1720203021,"current_range_meters":400,"station_id":"","pricing_plan_id":"cebpf4jnsgd1na2vs0mg"},{"bike_id":"010fa5ae-cd6f-4b7f-bc47-ea2a8c81eacb","system_id":"levelo_inurba_marseille","lat":43.32367,"lon":5.388836,"is_reserved":false,"is_disabled":false,"rental_uris":{"android":"levelo://app?vid=010fa5ae-cd6f-4b7f-bc47-ea2a8c81eacb","ios":"levelo://app?vid=010fa5ae-cd6f-4b7f-bc47-ea2a8c81eacb"},"vehicle_type_id":"4","last_reported":1720203021,"current_range_meters":17600,"station_id":"ce4bhqp2rcd13ifvqhog","pricing_plan_id":"cebpf4jnsgd1na2vs0mg"},{"bike_id":"23f1f6bd-6fc6-427d-812b-bcc9db41800e","system_id":"levelo_inurba_marseille","lat":43.3237,"lon":5.38887,"is_reserved":false,"is_disabled":false,"rental_uris":{"android":"levelo://app?vid=23f1f6bd-6fc6-427d-812b-bcc9db41800e","ios":"levelo://app?vid=23f1f6bd-6fc6-427d-812b-bcc9db41800e"},"vehicle_type_id":"4","last_reported":1720203021,"current_range_meters":11200,"station_id":"ce4bhqp2rcd13ifvqhog","pricing_plan_id":"cebpf4jnsgd1na2vs0mg"},{"bike_id":"703e14ca-d678-45c0-a0bf-cea46d267c56","system_id":"levelo_inurba_marseille","lat":43.32367,"lon":5.388836,"is_reserved":false,"is_disabled":false,"rental_uris":{"android":"levelo://app?vid=703e14ca-d678-45c0-a0bf-cea46d267c56","ios":"levelo://app?vid=703e14ca-d678-45c0-a0bf-cea46d267c56"},"vehicle_type_id":"4","last_reported":1720203021,"current_range_meters":0,"station_id":"ce4bhqp2rcd13ifvqhog","pricing_plan_id":"cebpf4jnsgd1na2vs0mg"},{"bike_id":"32248d26-6795-4c25-a05b-1f85f60aa7a2","system_id":"levelo_inurba_marseille","lat":43.29601,"lon":5.381084,"is_reserved":false,"is_disabled":false,"rental_uris":{"android":"levelo://app?vid=32248d26-6795-4c25-a05b-1f85f60aa7a2","ios":"levelo://app?vid=32248d26-6795-4c25-a05b-1f85f60aa7a2"},"vehicle_type_id":"4","last_reported":1720203021,"current_range_meters":6800,"station_id":"ce4bgl12rcd13ifvqbo0","pricing_plan_id":"cebpf4jnsgd1na2vs0mg"},{"bike_id":"705f491a-9911-4405-8056-a94f7ee9453b","system_id":"levelo_inurba_marseille","lat":43.29602,"lon":5.381084,"is_reserved":false,"is_disabled":false,"rental_uris":{"android":"levelo://app?vid=705f491a-9911-4405-8056-a94f7ee9453b","ios":"levelo://app?vid=705f491a-9911-4405-8056-a94f7ee9453b"},"vehicle_type_id":"4","last_reported":1720203021,"current_range_meters":1200,"station_id":"ce4bgl12rcd13ifvqbo0","pricing_plan_id":"cebpf4jnsgd1na2vs0mg"},{"bike_id":"fda90c54-2335-4dbb-b4b1-74a0ff18f895","system_id":"levelo_inurba_marseille","lat":43.29603,"lon":5.38096,"is_reserved":false,"is_disabled":false,"rental_uris":{"android":"levelo://app?vid=fda90c54-2335-4dbb-b4b1-74a0ff18f895","ios":"levelo://app?vid=fda90c54-2335-4dbb-b4b1-74a0ff18f895"},"vehicle_type_id":"4","last_reported":1720203021,"current_range_meters":0,"station_id":"ce4bgl12rcd13ifvqbo0","pricing_plan_id":"cebpf4jnsgd1na2vs0mg"},{"bike_id":"45d96782-5565-4577-a435-aaee6d7dcff0","system_id":"levelo_inurba_marseille","lat":43.29599,"lon":5.3809,"is_reserved":false,"is_disabled":false,"rental_uris":{"android":"levelo://app?vid=45d96782-5565-4577-a435-aaee6d7dcff0","ios":"levelo://app?vid=45d96782-5565-4577-a435-aaee6d7dcff0"},"vehicle_type_id":"4","last_reported":1720203021,"current_range_meters":12400,"station_id":"ce4bgl12rcd13ifvqbo0","pricing_plan_id":"cebpf4jnsgd1na2vs0mg"},{"bike_id":"8a16d3e5-a71c-48e2-92a7-6620d367b9cf","system_id":"levelo_inurba_marseille","lat":43.29602,"lon":5.381084,"is_reserved":false,"is_disabled":false,"rental_uris":{"android":"levelo://app?vid=8a16d3e5-a71c-48e2-92a7-6620d367b9cf","ios":"levelo://app?vid=8a16d3e5-a71c-48e2-92a7-6620d367b9cf"},"vehicle_type_id":"4","last_reported":1720203021,"current_range_meters":14000,"station_id":"ce4bgl12rcd13ifvqbo0","pricing_plan_id":"cebpf4jnsgd1na2vs0mg"},{"bike_id":"1afd4a2e-140b-40b9-b5a4-ab23811cbc35","system_id":"levelo_inurba_marseille","lat":43.29602,"lon":5.381084,"is_reserved":false,"is_disabled":false,"rental_uris":{"android":"levelo://app?vid=1afd4a2e-140b-40b9-b5a4-ab23811cbc35","ios":"levelo://app?vid=1afd4a2e-140b-40b9-b5a4-ab23811cbc35"},"vehicle_type_id":"4","last_reported":1720203021,"current_range_meters":17200,"station_id":"ce4bgl12rcd13ifvqbo0","pricing_plan_id":"cebpf4jnsgd1na2vs0mg"},{"bike_id":"90411b40-3bed-4c27-8c00-32b9cdb76464","system_id":"levelo_inurba_marseille","lat":43.29601,"lon":5.381084,"is_reserved":false,"is_disabled":false,"rental_uris":{"android":"levelo://app?vid=90411b40-3bed-4c27-8c00-32b9cdb76464","ios":"levelo://app?vid=90411b40-3bed-4c27-8c00-32b9cdb76464"},"vehicle_type_id":"4","last_reported":1720203021,"current_range_meters":0,"station_id":"ce4bgl12rcd13ifvqbo0","pricing_plan_id":"cebpf4jnsgd1na2vs0mg"},{"bike_id":"c458fd4b-8270-4611-9282-2123b60fa4f5","system_id":"levelo_inurba_marseille","lat":43.29602,"lon":5.381084,"is_reserved":false,"is_disabled":false,"rental_uris":{"android":"levelo://app?vid=c458fd4b-8270-4611-9282-2123b60fa4f5","ios":"levelo://app?vid=c458fd4b-8270-4611-9282-2123b60fa4f5"},"vehicle_type_id":"4","last_reported":1720203021,"current_range_meters":8000,"station_id":"ce4bgl12rcd13ifvqbo0","pricing_plan_id":"cebpf4jnsgd1na2vs0mg"},{"bike_id":"c07cf2d0-5aa1-443f-a751-1633e9618d8d","system_id":"levelo_inurba_marseille","lat":43.29602,"lon":5.381084,"is_reserved":false,"is_disabled":false,"rental_uris":{"android":"levelo://app?vid=c07cf2d0-5aa1-443f-a751-1633e9618d8d","ios":"levelo://app?vid=c07cf2d0-5aa1-443f-a751-1633e9618d8d"},"vehicle_type_id":"4","last_reported":1720203021,"current_range_meters":800,"station_id":"ce4bgl12rcd13ifvqbo0","pricing_plan_id":"cebpf4jnsgd1na2vs0mg"},{"bike_id":"90b5dcdb-1c12-4754-8521-a8dfc5e61781","system_id":"levelo_inurba_marseille","lat":43.29601,"lon":5.381084,"is_reserved":false,"is_disabled":false,"rental_uris":{"android":"levelo://app?vid=90b5dcdb-1c12-4754-8521-a8dfc5e61781","ios":"levelo://app?vid=90b5dcdb-1c12-4754-8521-a8dfc5e61781"},"vehicle_type_id":"4","last_reported":1720203021,"current_range_meters":30400,"station_id":"ce4bgl12rcd13ifvqbo0","pricing_plan_id":"cebpf4jnsgd1na2vs0mg"},{"bike_id":"ac46f6f8-ff44-448d-98fe-05fd12571b45","system_id":"levelo_inurba_marseille","lat":43.295055,"lon":5.378785,"is_reserved":false,"is_disabled":false,"rental_uris":{"android":"levelo://app?vid=ac46f6f8-ff44-448d-98fe-05fd12571b45","ios":"levelo://app?vid=ac46f6f8-ff44-448d-98fe-05fd12571b45"},"vehicle_type_id":"4","last_reported":1720203021,"current_range_meters":21600,"station_id":"chh1huq6cuj3fo74tm60","pricing_plan_id":"cebpf4jnsgd1na2vs0mg"},{"bike_id":"44202f41-bdf4-40c4-b3f6-213961ce2b3f","system_id":"levelo_inurba_marseille","lat":43.29602,"lon":5.381084,"is_reserved":false,"is_disabled":false,"rental_uris":{"android":"levelo://app?vid=44202f41-bdf4-40c4-b3f6-213961ce2b3f","ios":"levelo://app?vid=44202f41-bdf4-40c4-b3f6-213961ce2b3f"},"vehicle_type_id":"4","last_reported":1720203021,"current_range_meters":9200,"station_id":"ce4bgl12rcd13ifvqbo0","pricing_plan_id":"cebpf4jnsgd1na2vs0mg"},{"bike_id":"09aca2b1-d0b7-46d2-97c4-d88d1a006823","system_id":"levelo_inurba_marseille","lat":43.29592,"lon":5.381027,"is_reserved":false,"is_disabled":false,"rental_uris":{"android":"levelo://app?vid=09aca2b1-d0b7-46d2-97c4-d88d1a006823","ios":"levelo://app?vid=09aca2b1-d0b7-46d2-97c4-d88d1a006823"},"vehicle_type_id":"4","last_reported":1720203021,"current_range_meters":18800,"station_id":"","pricing_plan_id":"cebpf4jnsgd1na2vs0mg"},{"bike_id":"6ae7b72c-49f9-472f-9fc7-be56d8ac7737","system_id":"levelo_inurba_marseille","lat":43.295897,"lon":5.381002,"is_reserved":false,"is_disabled":false,"rental_uris":{"android":"levelo://app?vid=6ae7b72c-49f9-472f-9fc7-be56d8ac7737","ios":"levelo://app?vid=6ae7b72c-49f9-472f-9fc7-be56d8ac7737"},"vehicle_type_id":"4","last_reported":1720203021,"current_range_meters":31200,"station_id":"ce4bgl12rcd13ifvqbo0","pricing_plan_id":"cebpf4jnsgd1na2vs0mg"},{"bike_id":"7e410271-253f-404a-afbb-228ee57cd696","system_id":"levelo_inurba_marseille","lat":43.293249,"lon":5.371578,"is_reserved":false,"is_disabled":false,"rental_uris":{"android":"levelo://app?vid=7e410271-253f-404a-afbb-228ee57cd696","ios":"levelo://app?vid=7e410271-253f-404a-afbb-228ee57cd696"},"vehicle_type_id":"4","last_reported":1720203021,"current_range_meters":21600,"station_id":"ce4bgh92rcd13ifvqb40","pricing_plan_id":"cebpf4jnsgd1na2vs0mg"},{"bike_id":"c0be46a5-f93d-4b74-bef2-e434c15b86b1","system_id":"levelo_inurba_marseille","lat":43.29306,"lon":5.37174,"is_reserved":false,"is_disabled":false,"rental_uris":{"android":"levelo://app?vid=c0be46a5-f93d-4b74-bef2-e434c15b86b1","ios":"levelo://app?vid=c0be46a5-f93d-4b74-bef2-e434c15b86b1"},"vehicle_type_id":"4","last_reported":1720203021,"current_range_meters":400,"station_id":"ce4bgh92rcd13ifvqb40","pricing_plan_id":"cebpf4jnsgd1na2vs0mg"},{"bike_id":"9af7e6fd-de40-4e09-826b-9c75bf676b68","system_id":"levelo_inurba_marseille","lat":43.29304,"lon":5.37175,"is_reserved":false,"is_disabled":false,"rental_uris":{"android":"levelo://app?vid=9af7e6fd-de40-4e09-826b-9c75bf676b68","ios":"levelo://app?vid=9af7e6fd-de40-4e09-826b-9c75bf676b68"},"vehicle_type_id":"4","last_reported":1720203021,"current_range_meters":6000,"station_id":"ce4bgh92rcd13ifvqb40","pricing_plan_id":"cebpf4jnsgd1na2vs0mg"},{"bike_id":"e8c22482-9319-4a68-9869-c1463180d575","system_id":"levelo_inurba_marseille","lat":43.29303,"lon":5.37169,"is_reserved":false,"is_disabled":false,"rental_uris":{"android":"levelo://app?vid=e8c22482-9319-4a68-9869-c1463180d575","ios":"levelo://app?vid=e8c22482-9319-4a68-9869-c1463180d575"},"vehicle_type_id":"4","last_reported":1720203021,"current_range_meters":19600,"station_id":"ce4bgh92rcd13ifvqb40","pricing_plan_id":"cebpf4jnsgd1na2vs0mg"},{"bike_id":"b70c9775-d71a-43ac-a56a-c1d7a6ff019b","system_id":"levelo_inurba_marseille","lat":43.29304,"lon":5.37178,"is_reserved":false,"is_disabled":false,"rental_uris":{"android":"levelo://app?vid=b70c9775-d71a-43ac-a56a-c1d7a6ff019b","ios":"levelo://app?vid=b70c9775-d71a-43ac-a56a-c1d7a6ff019b"},"vehicle_type_id":"4","last_reported":1720203021,"current_range_meters":400,"station_id":"ce4bgh92rcd13ifvqb40","pricing_plan_id":"cebpf4jnsgd1na2vs0mg"},{"bike_id":"329adf0a-ee83-4353-94a2-695e75eecb93","system_id":"levelo_inurba_marseille","lat":43.29303,"lon":5.37176,"is_reserved":false,"is_disabled":false,"rental_uris":{"android":"levelo://app?vid=329adf0a-ee83-4353-94a2-695e75eecb93","ios":"levelo://app?vid=329adf0a-ee83-4353-94a2-695e75eecb93"},"vehicle_type_id":"4","last_reported":1720203021,"current_range_meters":15200,"station_id":"ce4bgh92rcd13ifvqb40","pricing_plan_id":"cebpf4jnsgd1na2vs0mg"},{"bike_id":"26f5aae0-2053-4d9a-b590-e9a1a59ef332","system_id":"levelo_inurba_marseille","lat":43.29302,"lon":5.37169,"is_reserved":false,"is_disabled":false,"rental_uris":{"android":"levelo://app?vid=26f5aae0-2053-4d9a-b590-e9a1a59ef332","ios":"levelo://app?vid=26f5aae0-2053-4d9a-b590-e9a1a59ef332"},"vehicle_type_id":"4","last_reported":1720203021,"current_range_meters":28800,"station_id":"ce4bgh92rcd13ifvqb40","pricing_plan_id":"cebpf4jnsgd1na2vs0mg"},{"bike_id":"de513aed-fc2d-4d01-a062-dbb82fb6ba40","system_id":"levelo_inurba_marseille","lat":43.29302,"lon":5.37175,"is_reserved":false,"is_disabled":false,"rental_uris":{"android":"levelo://app?vid=de513aed-fc2d-4d01-a062-dbb82fb6ba40","ios":"levelo://app?vid=de513aed-fc2d-4d01-a062-dbb82fb6ba40"},"vehicle_type_id":"4","last_reported":1720203021,"current_range_meters":10800,"station_id":"ce4bgh92rcd13ifvqb40","pricing_plan_id":"cebpf4jnsgd1na2vs0mg"},{"bike_id":"ff79b5b9-0af4-4f66-917e-5abe524a9faf","system_id":"levelo_inurba_marseille","lat":43.29302,"lon":5.37179,"is_reserved":false,"is_disabled":false,"rental_uris":{"android":"levelo://app?vid=ff79b5b9-0af4-4f66-917e-5abe524a9faf","ios":"levelo://app?vid=ff79b5b9-0af4-4f66-917e-5abe524a9faf"},"vehicle_type_id":"4","last_reported":1720203021,"current_range_meters":3200,"station_id":"ce4bgh92rcd13ifvqb40","pricing_plan_id":"cebpf4jnsgd1na2vs0mg"},{"bike_id":"e3de3690-8ea7-4bc7-942d-e982aaf59f8c","system_id":"levelo_inurba_marseille","lat":43.29302,"lon":5.3718,"is_reserved":false,"is_disabled":false,"rental_uris":{"android":"levelo://app?vid=e3de3690-8ea7-4bc7-942d-e982aaf59f8c","ios":"levelo://app?vid=e3de3690-8ea7-4bc7-942d-e982aaf59f8c"},"vehicle_type_id":"4","last_reported":1720203021,"current_range_meters":0,"station_id":"ce4bgh92rcd13ifvqb40","pricing_plan_id":"cebpf4jnsgd1na2vs0mg"},{"bike_id":"c36c118b-c301-4a88-b1f3-2109683ec14c","system_id":"levelo_inurba_marseille","lat":43.29299,"lon":5.37173,"is_reserved":false,"is_disabled":false,"rental_uris":{"android":"levelo://app?vid=c36c118b-c301-4a88-b1f3-2109683ec14c","ios":"levelo://app?vid=c36c118b-c301-4a88-b1f3-2109683ec14c"},"vehicle_type_id":"4","last_reported":1720203021,"current_range_meters":0,"station_id":"ce4bgh92rcd13ifvqb40","pricing_plan_id":"cebpf4jnsgd1na2vs0mg"},{"bike_id":"a8dce01e-3354-4f06-b822-ea7269b57d0d","system_id":"levelo_inurba_marseille","lat":43.293048,"lon":5.374427,"is_reserved":false,"is_disabled":false,"rental_uris":{"android":"levelo://app?vid=a8dce01e-3354-4f06-b822-ea7269b57d0d","ios":"levelo://app?vid=a8dce01e-3354-4f06-b822-ea7269b57d0d"},"vehicle_type_id":"4","last_reported":1720203021,"current_range_meters":25200,"station_id":"ce4bgi12rcd13ifvqb70","pricing_plan_id":"cebpf4jnsgd1na2vs0mg"},{"bike_id":"844ee522-dc77-4315-bd37-dd4253375bdc","system_id":"levelo_inurba_marseille","lat":43.29302,"lon":5.37448,"is_reserved":false,"is_disabled":false,"rental_uris":{"android":"levelo://app?vid=844ee522-dc77-4315-bd37-dd4253375bdc","ios":"levelo://app?vid=844ee522-dc77-4315-bd37-dd4253375bdc"},"vehicle_type_id":"4","last_reported":1720203021,"current_range_meters":31200,"station_id":"ce4bgi12rcd13ifvqb70","pricing_plan_id":"cebpf4jnsgd1na2vs0mg"},{"bike_id":"2987a8e2-c956-4de9-a80a-f9252ffbb642","system_id":"levelo_inurba_marseille","lat":43.29302,"lon":5.37449,"is_reserved":false,"is_disabled":false,"rental_uris":{"android":"levelo://app?vid=2987a8e2-c956-4de9-a80a-f9252ffbb642","ios":"levelo://app?vid=2987a8e2-c956-4de9-a80a-f9252ffbb642"},"vehicle_type_id":"4","last_reported":1720203021,"current_range_meters":21200,"station_id":"ce4bgi12rcd13ifvqb70","pricing_plan_id":"cebpf4jnsgd1na2vs0mg"},{"bike_id":"d5398ed5-b02c-4b31-af15-36be81607a93","system_id":"levelo_inurba_marseille","lat":43.293028,"lon":5.374594,"is_reserved":false,"is_disabled":false,"rental_uris":{"android":"levelo://app?vid=d5398ed5-b02c-4b31-af15-36be81607a93","ios":"levelo://app?vid=d5398ed5-b02c-4b31-af15-36be81607a93"},"vehicle_type_id":"4","last_reported":1720203021,"current_range_meters":17600,"station_id":"ce4bgi12rcd13ifvqb70","pricing_plan_id":"cebpf4jnsgd1na2vs0mg"},{"bike_id":"f48ae256-1144-47ca-b766-bd1d662f92c5","system_id":"levelo_inurba_marseille","lat":43.293009,"lon":5.374584,"is_reserved":false,"is_disabled":false,"rental_uris":{"android":"levelo://app?vid=f48ae256-1144-47ca-b766-bd1d662f92c5","ios":"levelo://app?vid=f48ae256-1144-47ca-b766-bd1d662f92c5"},"vehicle_type_id":"4","last_reported":1720203021,"current_range_meters":25600,"station_id":"ce4bgi12rcd13ifvqb70","pricing_plan_id":"cebpf4jnsgd1na2vs0mg"},{"bike_id":"1987670a-e2ac-40c2-830b-67b32ef6fd91","system_id":"levelo_inurba_marseille","lat":43.29297,"lon":5.37448,"is_reserved":false,"is_disabled":false,"rental_uris":{"android":"levelo://app?vid=1987670a-e2ac-40c2-830b-67b32ef6fd91","ios":"levelo://app?vid=1987670a-e2ac-40c2-830b-67b32ef6fd91"},"vehicle_type_id":"4","last_reported":1720203021,"current_range_meters":0,"station_id":"ce4bgi12rcd13ifvqb70","pricing_plan_id":"cebpf4jnsgd1na2vs0mg"},{"bike_id":"5a3f705e-2030-4376-b5ad-d3f3482b70af","system_id":"levelo_inurba_marseille","lat":43.305994,"lon":5.393687,"is_reserved":false,"is_disabled":false,"rental_uris":{"android":"levelo://app?vid=5a3f705e-2030-4376-b5ad-d3f3482b70af","ios":"levelo://app?vid=5a3f705e-2030-4376-b5ad-d3f3482b70af"},"vehicle_type_id":"4","last_reported":1720203021,"current_range_meters":25200,"station_id":"ce4bh0p2rcd13ifvqd80","pricing_plan_id":"cebpf4jnsgd1na2vs0mg"},{"bike_id":"b1117c69-b9fc-4860-9e37-d71656bb19e8","system_id":"levelo_inurba_marseille","lat":43.305994,"lon":5.393687,"is_reserved":false,"is_disabled":false,"rental_uris":{"android":"levelo://app?vid=b1117c69-b9fc-4860-9e37-d71656bb19e8","ios":"levelo://app?vid=b1117c69-b9fc-4860-9e37-d71656bb19e8"},"vehicle_type_id":"4","last_reported":1720203021,"current_range_meters":0,"station_id":"ce4bh0p2rcd13ifvqd80","pricing_plan_id":"cebpf4jnsgd1na2vs0mg"},{"bike_id":"b504efb0-c0d4-4d66-aa24-7304149b577d","system_id":"levelo_inurba_marseille","lat":43.293009,"lon":5.374584,"is_reserved":false,"is_disabled":false,"rental_uris":{"android":"levelo://app?vid=b504efb0-c0d4-4d66-aa24-7304149b577d","ios":"levelo://app?vid=b504efb0-c0d4-4d66-aa24-7304149b577d"},"vehicle_type_id":"4","last_reported":1720203021,"current_range_meters":7600,"station_id":"ce4bgi12rcd13ifvqb70","pricing_plan_id":"cebpf4jnsgd1na2vs0mg"},{"bike_id":"af2134ba-2ac6-42cb-9c11-38882ff5214f","system_id":"levelo_inurba_marseille","lat":43.30601,"lon":5.39358,"is_reserved":false,"is_disabled":false,"rental_uris":{"android":"levelo://app?vid=af2134ba-2ac6-42cb-9c11-38882ff5214f","ios":"levelo://app?vid=af2134ba-2ac6-42cb-9c11-38882ff5214f"},"vehicle_type_id":"4","last_reported":1720203021,"current_range_meters":400,"station_id":"ce4bh0p2rcd13ifvqd80","pricing_plan_id":"cebpf4jnsgd1na2vs0mg"},{"bike_id":"5b9a7bb0-977a-4ddc-a181-13b75b0c2b9b","system_id":"levelo_inurba_marseille","lat":43.30598,"lon":5.39357,"is_reserved":false,"is_disabled":false,"rental_uris":{"android":"levelo://app?vid=5b9a7bb0-977a-4ddc-a181-13b75b0c2b9b","ios":"levelo://app?vid=5b9a7bb0-977a-4ddc-a181-13b75b0c2b9b"},"vehicle_type_id":"4","last_reported":1720203021,"current_range_meters":0,"station_id":"ce4bh0p2rcd13ifvqd80","pricing_plan_id":"cebpf4jnsgd1na2vs0mg"},{"bike_id":"fd5a46cf-fa66-419a-8600-62805c88745a","system_id":"levelo_inurba_marseille","lat":43.293009,"lon":5.374584,"is_reserved":false,"is_disabled":false,"rental_uris":{"android":"levelo://app?vid=fd5a46cf-fa66-419a-8600-62805c88745a","ios":"levelo://app?vid=fd5a46cf-fa66-419a-8600-62805c88745a"},"vehicle_type_id":"4","last_reported":1720203021,"current_range_meters":22400,"station_id":"ce4bgi12rcd13ifvqb70","pricing_plan_id":"cebpf4jnsgd1na2vs0mg"},{"bike_id":"f7265022-8eec-4a0c-a310-210c976e1c5d","system_id":"levelo_inurba_marseille","lat":43.293009,"lon":5.374584,"is_reserved":false,"is_disabled":false,"rental_uris":{"android":"levelo://app?vid=f7265022-8eec-4a0c-a310-210c976e1c5d","ios":"levelo://app?vid=f7265022-8eec-4a0c-a310-210c976e1c5d"},"vehicle_type_id":"4","last_reported":1720203021,"current_range_meters":10400,"station_id":"ce4bgi12rcd13ifvqb70","pricing_plan_id":"cebpf4jnsgd1na2vs0mg"},{"bike_id":"44d89f91-48be-4db4-9938-298d69b89b4f","system_id":"levelo_inurba_marseille","lat":43.305994,"lon":5.393687,"is_reserved":false,"is_disabled":false,"rental_uris":{"android":"levelo://app?vid=44d89f91-48be-4db4-9938-298d69b89b4f","ios":"levelo://app?vid=44d89f91-48be-4db4-9938-298d69b89b4f"},"vehicle_type_id":"4","last_reported":1720203021,"current_range_meters":6000,"station_id":"ce4bh0p2rcd13ifvqd80","pricing_plan_id":"cebpf4jnsgd1na2vs0mg"},{"bike_id":"887b70be-38f4-49c4-a6d8-490c2a8f534a","system_id":"levelo_inurba_marseille","lat":43.292958,"lon":5.374617,"is_reserved":false,"is_disabled":false,"rental_uris":{"android":"levelo://app?vid=887b70be-38f4-49c4-a6d8-490c2a8f534a","ios":"levelo://app?vid=887b70be-38f4-49c4-a6d8-490c2a8f534a"},"vehicle_type_id":"4","last_reported":1720203021,"current_range_meters":10000,"station_id":"","pricing_plan_id":"cebpf4jnsgd1na2vs0mg"},{"bike_id":"3feecaec-c429-41f4-affd-e4099e44e11d","system_id":"levelo_inurba_marseille","lat":43.293009,"lon":5.374584,"is_reserved":false,"is_disabled":false,"rental_uris":{"android":"levelo://app?vid=3feecaec-c429-41f4-affd-e4099e44e11d","ios":"levelo://app?vid=3feecaec-c429-41f4-affd-e4099e44e11d"},"vehicle_type_id":"4","last_reported":1720203021,"current_range_meters":24400,"station_id":"ce4bgi12rcd13ifvqb70","pricing_plan_id":"cebpf4jnsgd1na2vs0mg"},{"bike_id":"7180541f-6aee-487d-b7fc-d720ce047616","system_id":"levelo_inurba_marseille","lat":43.306032,"lon":5.393724,"is_reserved":false,"is_disabled":false,"rental_uris":{"android":"levelo://app?vid=7180541f-6aee-487d-b7fc-d720ce047616","ios":"levelo://app?vid=7180541f-6aee-487d-b7fc-d720ce047616"},"vehicle_type_id":"4","last_reported":1720203021,"current_range_meters":0,"station_id":"","pricing_plan_id":"cebpf4jnsgd1na2vs0mg"},{"bike_id":"98f192fd-4112-4a68-a69f-59671917df9f","system_id":"levelo_inurba_marseille","lat":43.293009,"lon":5.374584,"is_reserved":false,"is_disabled":false,"rental_uris":{"android":"levelo://app?vid=98f192fd-4112-4a68-a69f-59671917df9f","ios":"levelo://app?vid=98f192fd-4112-4a68-a69f-59671917df9f"},"vehicle_type_id":"4","last_reported":1720203021,"current_range_meters":5200,"station_id":"ce4bgi12rcd13ifvqb70","pricing_plan_id":"cebpf4jnsgd1na2vs0mg"},{"bike_id":"388edd03-16c5-4ef2-a402-87d40dc5fcc5","system_id":"levelo_inurba_marseille","lat":43.293009,"lon":5.374584,"is_reserved":false,"is_disabled":false,"rental_uris":{"android":"levelo://app?vid=388edd03-16c5-4ef2-a402-87d40dc5fcc5","ios":"levelo://app?vid=388edd03-16c5-4ef2-a402-87d40dc5fcc5"},"vehicle_type_id":"4","last_reported":1720203021,"current_range_meters":0,"station_id":"ce4bgi12rcd13ifvqb70","pricing_plan_id":"cebpf4jnsgd1na2vs0mg"},{"bike_id":"e4e4ad71-1e23-4fd6-ab4e-af5f700f1033","system_id":"levelo_inurba_marseille","lat":43.30306,"lon":5.39202,"is_reserved":false,"is_disabled":false,"rental_uris":{"android":"levelo://app?vid=e4e4ad71-1e23-4fd6-ab4e-af5f700f1033","ios":"levelo://app?vid=e4e4ad71-1e23-4fd6-ab4e-af5f700f1033"},"vehicle_type_id":"4","last_reported":1720203021,"current_range_meters":0,"station_id":"ce4bgkh2rcd13ifvqbk0","pricing_plan_id":"cebpf4jnsgd1na2vs0mg"},{"bike_id":"f2802005-c7cb-4441-b4de-8a6c72199c98","system_id":"levelo_inurba_marseille","lat":43.30304,"lon":5.39204,"is_reserved":false,"is_disabled":false,"rental_uris":{"android":"levelo://app?vid=f2802005-c7cb-4441-b4de-8a6c72199c98","ios":"levelo://app?vid=f2802005-c7cb-4441-b4de-8a6c72199c98"},"vehicle_type_id":"4","last_reported":1720203021,"current_range_meters":0,"station_id":"ce4bgkh2rcd13ifvqbk0","pricing_plan_id":"cebpf4jnsgd1na2vs0mg"},{"bike_id":"47a3e59a-9ace-4037-8c70-5682bfca42dd","system_id":"levelo_inurba_marseille","lat":43.30301,"lon":5.39205,"is_reserved":false,"is_disabled":false,"rental_uris":{"android":"levelo://app?vid=47a3e59a-9ace-4037-8c70-5682bfca42dd","ios":"levelo://app?vid=47a3e59a-9ace-4037-8c70-5682bfca42dd"},"vehicle_type_id":"4","last_reported":1720203021,"current_range_meters":0,"station_id":"ce4bgkh2rcd13ifvqbk0","pricing_plan_id":"cebpf4jnsgd1na2vs0mg"},{"bike_id":"4820fd57-20e2-4a25-8957-e61df1d2695c","system_id":"levelo_inurba_marseille","lat":43.303002,"lon":5.392142,"is_reserved":false,"is_disabled":false,"rental_uris":{"android":"levelo://app?vid=4820fd57-20e2-4a25-8957-e61df1d2695c","ios":"levelo://app?vid=4820fd57-20e2-4a25-8957-e61df1d2695c"},"vehicle_type_id":"4","last_reported":1720203021,"current_range_meters":30400,"station_id":"ce4bgkh2rcd13ifvqbk0","pricing_plan_id":"cebpf4jnsgd1na2vs0mg"},{"bike_id":"1ed2755a-8fe7-4fa1-b0ea-c531734af249","system_id":"levelo_inurba_marseille","lat":43.303002,"lon":5.392142,"is_reserved":false,"is_disabled":false,"rental_uris":{"android":"levelo://app?vid=1ed2755a-8fe7-4fa1-b0ea-c531734af249","ios":"levelo://app?vid=1ed2755a-8fe7-4fa1-b0ea-c531734af249"},"vehicle_type_id":"4","last_reported":1720203021,"current_range_meters":2000,"station_id":"ce4bgkh2rcd13ifvqbk0","pricing_plan_id":"cebpf4jnsgd1na2vs0mg"},{"bike_id":"caa176c2-af0b-43fa-a4d8-2b3039aae032","system_id":"levelo_inurba_marseille","lat":43.303002,"lon":5.392142,"is_reserved":false,"is_disabled":false,"rental_uris":{"android":"levelo://app?vid=caa176c2-af0b-43fa-a4d8-2b3039aae032","ios":"levelo://app?vid=caa176c2-af0b-43fa-a4d8-2b3039aae032"},"vehicle_type_id":"4","last_reported":1720203021,"current_range_meters":800,"station_id":"ce4bgkh2rcd13ifvqbk0","pricing_plan_id":"cebpf4jnsgd1na2vs0mg"},{"bike_id":"edb4ba7a-6886-46f6-b085-f4046a9695b5","system_id":"levelo_inurba_marseille","lat":43.30285,"lon":5.39205,"is_reserved":false,"is_disabled":false,"rental_uris":{"android":"levelo://app?vid=edb4ba7a-6886-46f6-b085-f4046a9695b5","ios":"levelo://app?vid=edb4ba7a-6886-46f6-b085-f4046a9695b5"},"vehicle_type_id":"4","last_reported":1720203021,"current_range_meters":0,"station_id":"ce4bgkh2rcd13ifvqbk0","pricing_plan_id":"cebpf4jnsgd1na2vs0mg"},{"bike_id":"369dd287-8328-420d-aa49-8597d597b7b3","system_id":"levelo_inurba_marseille","lat":43.2936,"lon":5.37835,"is_reserved":false,"is_disabled":false,"rental_uris":{"android":"levelo://app?vid=369dd287-8328-420d-aa49-8597d597b7b3","ios":"levelo://app?vid=369dd287-8328-420d-aa49-8597d597b7b3"},"vehicle_type_id":"4","last_reported":1720203021,"current_range_meters":24400,"station_id":"ce4bgjh2rcd13ifvqbf0","pricing_plan_id":"cebpf4jnsgd1na2vs0mg"},{"bike_id":"76a3eeb0-eaf2-48f0-b841-89fb73d386dd","system_id":"levelo_inurba_marseille","lat":43.2936,"lon":5.37835,"is_reserved":false,"is_disabled":false,"rental_uris":{"android":"levelo://app?vid=76a3eeb0-eaf2-48f0-b841-89fb73d386dd","ios":"levelo://app?vid=76a3eeb0-eaf2-48f0-b841-89fb73d386dd"},"vehicle_type_id":"4","last_reported":1720203021,"current_range_meters":400,"station_id":"ce4bgjh2rcd13ifvqbf0","pricing_plan_id":"cebpf4jnsgd1na2vs0mg"},{"bike_id":"05d1e005-9988-4b20-aa07-ed3981e79f3a","system_id":"levelo_inurba_marseille","lat":43.292311,"lon":5.360731,"is_reserved":false,"is_disabled":false,"rental_uris":{"android":"levelo://app?vid=05d1e005-9988-4b20-aa07-ed3981e79f3a","ios":"levelo://app?vid=05d1e005-9988-4b20-aa07-ed3981e79f3a"},"vehicle_type_id":"4","last_reported":1720203021,"current_range_meters":15600,"station_id":"ce4bhbh2rcd13ifvqeqg","pricing_plan_id":"cebpf4jnsgd1na2vs0mg"},{"bike_id":"7be06af5-01be-4588-b25d-84e64df5d5dc","system_id":"levelo_inurba_marseille","lat":43.292311,"lon":5.360731,"is_reserved":false,"is_disabled":false,"rental_uris":{"android":"levelo://app?vid=7be06af5-01be-4588-b25d-84e64df5d5dc","ios":"levelo://app?vid=7be06af5-01be-4588-b25d-84e64df5d5dc"},"vehicle_type_id":"4","last_reported":1720203021,"current_range_meters":15600,"station_id":"ce4bhbh2rcd13ifvqeqg","pricing_plan_id":"cebpf4jnsgd1na2vs0mg"},{"bike_id":"85eac404-2052-4ce1-90d8-295806c872ee","system_id":"levelo_inurba_marseille","lat":43.30085,"lon":5.390856,"is_reserved":false,"is_disabled":false,"rental_uris":{"android":"levelo://app?vid=85eac404-2052-4ce1-90d8-295806c872ee","ios":"levelo://app?vid=85eac404-2052-4ce1-90d8-295806c872ee"},"vehicle_type_id":"4","last_reported":1720203021,"current_range_meters":19200,"station_id":"ce4bh192rcd13ifvqdb0","pricing_plan_id":"cebpf4jnsgd1na2vs0mg"},{"bike_id":"89440178-580f-4cfc-a439-94402552ea60","system_id":"levelo_inurba_marseille","lat":43.292311,"lon":5.360731,"is_reserved":false,"is_disabled":false,"rental_uris":{"android":"levelo://app?vid=89440178-580f-4cfc-a439-94402552ea60","ios":"levelo://app?vid=89440178-580f-4cfc-a439-94402552ea60"},"vehicle_type_id":"4","last_reported":1720203021,"current_range_meters":2800,"station_id":"ce4bhbh2rcd13ifvqeqg","pricing_plan_id":"cebpf4jnsgd1na2vs0mg"},{"bike_id":"97adbc35-65d3-482a-a0be-2f4f1f24cfc3","system_id":"levelo_inurba_marseille","lat":43.292311,"lon":5.360731,"is_reserved":false,"is_disabled":false,"rental_uris":{"android":"levelo://app?vid=97adbc35-65d3-482a-a0be-2f4f1f24cfc3","ios":"levelo://app?vid=97adbc35-65d3-482a-a0be-2f4f1f24cfc3"},"vehicle_type_id":"4","last_reported":1720203021,"current_range_meters":31200,"station_id":"ce4bhbh2rcd13ifvqeqg","pricing_plan_id":"cebpf4jnsgd1na2vs0mg"},{"bike_id":"806cbc80-34d7-42a8-8263-555768c4324a","system_id":"levelo_inurba_marseille","lat":43.292311,"lon":5.360731,"is_reserved":false,"is_disabled":false,"rental_uris":{"android":"levelo://app?vid=806cbc80-34d7-42a8-8263-555768c4324a","ios":"levelo://app?vid=806cbc80-34d7-42a8-8263-555768c4324a"},"vehicle_type_id":"4","last_reported":1720203021,"current_range_meters":11600,"station_id":"ce4bhbh2rcd13ifvqeqg","pricing_plan_id":"cebpf4jnsgd1na2vs0mg"},{"bike_id":"c0773333-f5f5-4a28-8a90-459b18d08e63","system_id":"levelo_inurba_marseille","lat":43.30085,"lon":5.390856,"is_reserved":false,"is_disabled":false,"rental_uris":{"android":"levelo://app?vid=c0773333-f5f5-4a28-8a90-459b18d08e63","ios":"levelo://app?vid=c0773333-f5f5-4a28-8a90-459b18d08e63"},"vehicle_type_id":"4","last_reported":1720203021,"current_range_meters":25600,"station_id":"ce4bh192rcd13ifvqdb0","pricing_plan_id":"cebpf4jnsgd1na2vs0mg"},{"bike_id":"0311014c-1747-474c-9793-659d3901f01a","system_id":"levelo_inurba_marseille","lat":43.291671,"lon":5.371575,"is_reserved":false,"is_disabled":false,"rental_uris":{"android":"levelo://app?vid=0311014c-1747-474c-9793-659d3901f01a","ios":"levelo://app?vid=0311014c-1747-474c-9793-659d3901f01a"},"vehicle_type_id":"4","last_reported":1720203021,"current_range_meters":19200,"station_id":"ce4bha92rcd13ifvqeh0","pricing_plan_id":"cebpf4jnsgd1na2vs0mg"},{"bike_id":"b57b5688-a7d4-4417-8fdf-396f607ac0bd","system_id":"levelo_inurba_marseille","lat":43.298764,"lon":5.388973,"is_reserved":false,"is_disabled":false,"rental_uris":{"android":"levelo://app?vid=b57b5688-a7d4-4417-8fdf-396f607ac0bd","ios":"levelo://app?vid=b57b5688-a7d4-4417-8fdf-396f607ac0bd"},"vehicle_type_id":"4","last_reported":1720203021,"current_range_meters":10000,"station_id":"ce4bh392rcd13ifvqdl0","pricing_plan_id":"cebpf4jnsgd1na2vs0mg"},{"bike_id":"6f2449de-9ceb-4e7b-a5f6-6acaf62e9699","system_id":"levelo_inurba_marseille","lat":43.298764,"lon":5.388973,"is_reserved":false,"is_disabled":false,"rental_uris":{"android":"levelo://app?vid=6f2449de-9ceb-4e7b-a5f6-6acaf62e9699","ios":"levelo://app?vid=6f2449de-9ceb-4e7b-a5f6-6acaf62e9699"},"vehicle_type_id":"4","last_reported":1720203021,"current_range_meters":20800,"station_id":"ce4bh392rcd13ifvqdl0","pricing_plan_id":"cebpf4jnsgd1na2vs0mg"},{"bike_id":"84a5fda6-e566-4c2f-b3b1-033bb73210d4","system_id":"levelo_inurba_marseille","lat":43.298764,"lon":5.388973,"is_reserved":false,"is_disabled":false,"rental_uris":{"android":"levelo://app?vid=84a5fda6-e566-4c2f-b3b1-033bb73210d4","ios":"levelo://app?vid=84a5fda6-e566-4c2f-b3b1-033bb73210d4"},"vehicle_type_id":"4","last_reported":1720203021,"current_range_meters":16400,"station_id":"ce4bh392rcd13ifvqdl0","pricing_plan_id":"cebpf4jnsgd1na2vs0mg"},{"bike_id":"a248fc1f-c969-4377-bfc0-97b3727d42ed","system_id":"levelo_inurba_marseille","lat":43.289184,"lon":5.366408,"is_reserved":false,"is_disabled":false,"rental_uris":{"android":"levelo://app?vid=a248fc1f-c969-4377-bfc0-97b3727d42ed","ios":"levelo://app?vid=a248fc1f-c969-4377-bfc0-97b3727d42ed"},"vehicle_type_id":"4","last_reported":1720203021,"current_range_meters":21200,"station_id":"ce4bhap2rcd13ifvqek0","pricing_plan_id":"cebpf4jnsgd1na2vs0mg"},{"bike_id":"e75778e1-574c-4ea9-b9bd-7a711db44671","system_id":"levelo_inurba_marseille","lat":43.291994,"lon":5.357886,"is_reserved":false,"is_disabled":false,"rental_uris":{"android":"levelo://app?vid=e75778e1-574c-4ea9-b9bd-7a711db44671","ios":"levelo://app?vid=e75778e1-574c-4ea9-b9bd-7a711db44671"},"vehicle_type_id":"4","last_reported":1720203021,"current_range_meters":800,"station_id":"ce4bhb12rcd13ifvqel0","pricing_plan_id":"cebpf4jnsgd1na2vs0mg"},{"bike_id":"30ea06a1-8afd-4c4e-95f3-b03063a7d0b0","system_id":"levelo_inurba_marseille","lat":43.292005,"lon":5.357875,"is_reserved":false,"is_disabled":false,"rental_uris":{"android":"levelo://app?vid=30ea06a1-8afd-4c4e-95f3-b03063a7d0b0","ios":"levelo://app?vid=30ea06a1-8afd-4c4e-95f3-b03063a7d0b0"},"vehicle_type_id":"4","last_reported":1720203021,"current_range_meters":21200,"station_id":"ce4bhb12rcd13ifvqel0","pricing_plan_id":"cebpf4jnsgd1na2vs0mg"},{"bike_id":"84ed7b09-8f1c-49b4-ae51-0fac5611e294","system_id":"levelo_inurba_marseille","lat":43.313291,"lon":5.396838,"is_reserved":false,"is_disabled":false,"rental_uris":{"android":"levelo://app?vid=84ed7b09-8f1c-49b4-ae51-0fac5611e294","ios":"levelo://app?vid=84ed7b09-8f1c-49b4-ae51-0fac5611e294"},"vehicle_type_id":"4","last_reported":1720203021,"current_range_meters":2800,"station_id":"ce4bgvp2rcd13ifvqcu0","pricing_plan_id":"cebpf4jnsgd1na2vs0mg"},{"bike_id":"6a70bba6-fe6c-4c6e-8aac-604f75215610","system_id":"levelo_inurba_marseille","lat":43.313291,"lon":5.396838,"is_reserved":false,"is_disabled":false,"rental_uris":{"android":"levelo://app?vid=6a70bba6-fe6c-4c6e-8aac-604f75215610","ios":"levelo://app?vid=6a70bba6-fe6c-4c6e-8aac-604f75215610"},"vehicle_type_id":"4","last_reported":1720203021,"current_range_meters":8400,"station_id":"ce4bgvp2rcd13ifvqcu0","pricing_plan_id":"cebpf4jnsgd1na2vs0mg"},{"bike_id":"4d2bbdf9-5d7a-4fa2-bf27-fe248680be04","system_id":"levelo_inurba_marseille","lat":43.29184,"lon":5.35804,"is_reserved":false,"is_disabled":false,"rental_uris":{"android":"levelo://app?vid=4d2bbdf9-5d7a-4fa2-bf27-fe248680be04","ios":"levelo://app?vid=4d2bbdf9-5d7a-4fa2-bf27-fe248680be04"},"vehicle_type_id":"4","last_reported":1720203021,"current_range_meters":0,"station_id":"ce4bhb12rcd13ifvqel0","pricing_plan_id":"cebpf4jnsgd1na2vs0mg"},{"bike_id":"a76defd2-40e5-431d-8bfc-17881d4a2432","system_id":"levelo_inurba_marseille","lat":43.30889,"lon":5.39656,"is_reserved":false,"is_disabled":false,"rental_uris":{"android":"levelo://app?vid=a76defd2-40e5-431d-8bfc-17881d4a2432","ios":"levelo://app?vid=a76defd2-40e5-431d-8bfc-17881d4a2432"},"vehicle_type_id":"4","last_reported":1720203021,"current_range_meters":0,"station_id":"ce4bh012rcd13ifvqcv0","pricing_plan_id":"cebpf4jnsgd1na2vs0mg"},{"bike_id":"749da511-b1dc-4457-9e34-6ebc826e3567","system_id":"levelo_inurba_marseille","lat":43.29536,"lon":5.38535,"is_reserved":false,"is_disabled":false,"rental_uris":{"android":"levelo://app?vid=749da511-b1dc-4457-9e34-6ebc826e3567","ios":"levelo://app?vid=749da511-b1dc-4457-9e34-6ebc826e3567"},"vehicle_type_id":"4","last_reported":1720203021,"current_range_meters":22000,"station_id":"ce4bgih2rcd13ifvqba0","pricing_plan_id":"cebpf4jnsgd1na2vs0mg"},{"bike_id":"096fb28a-d1ce-4a14-9110-cde162180ff2","system_id":"levelo_inurba_marseille","lat":43.295316,"lon":5.385322,"is_reserved":false,"is_disabled":false,"rental_uris":{"android":"levelo://app?vid=096fb28a-d1ce-4a14-9110-cde162180ff2","ios":"levelo://app?vid=096fb28a-d1ce-4a14-9110-cde162180ff2"},"vehicle_type_id":"4","last_reported":1720203021,"current_range_meters":0,"station_id":"ce4bgih2rcd13ifvqba0","pricing_plan_id":"cebpf4jnsgd1na2vs0mg"},{"bike_id":"f3a8f0e1-b7bf-4bbc-a9e7-f2aa118f7f8a","system_id":"levelo_inurba_marseille","lat":43.29537,"lon":5.38542,"is_reserved":false,"is_disabled":false,"rental_uris":{"android":"levelo://app?vid=f3a8f0e1-b7bf-4bbc-a9e7-f2aa118f7f8a","ios":"levelo://app?vid=f3a8f0e1-b7bf-4bbc-a9e7-f2aa118f7f8a"},"vehicle_type_id":"4","last_reported":1720203021,"current_range_meters":10400,"station_id":"ce4bgih2rcd13ifvqba0","pricing_plan_id":"cebpf4jnsgd1na2vs0mg"},{"bike_id":"824cba30-5b44-4782-a456-d74bd63aa6d6","system_id":"levelo_inurba_marseille","lat":43.29535,"lon":5.38539,"is_reserved":false,"is_disabled":false,"rental_uris":{"android":"levelo://app?vid=824cba30-5b44-4782-a456-d74bd63aa6d6","ios":"levelo://app?vid=824cba30-5b44-4782-a456-d74bd63aa6d6"},"vehicle_type_id":"4","last_reported":1720203021,"current_range_meters":20000,"station_id":"ce4bgih2rcd13ifvqba0","pricing_plan_id":"cebpf4jnsgd1na2vs0mg"},{"bike_id":"78f2cbbe-913e-4652-a2aa-c2db92127fb1","system_id":"levelo_inurba_marseille","lat":43.29534,"lon":5.3854,"is_reserved":false,"is_disabled":false,"rental_uris":{"android":"levelo://app?vid=78f2cbbe-913e-4652-a2aa-c2db92127fb1","ios":"levelo://app?vid=78f2cbbe-913e-4652-a2aa-c2db92127fb1"},"vehicle_type_id":"4","last_reported":1720203021,"current_range_meters":14800,"station_id":"ce4bgih2rcd13ifvqba0","pricing_plan_id":"cebpf4jnsgd1na2vs0mg"},{"bike_id":"5473e92e-d80b-4c00-ae0e-1deca2a6a247","system_id":"levelo_inurba_marseille","lat":43.29536,"lon":5.38547,"is_reserved":false,"is_disabled":false,"rental_uris":{"android":"levelo://app?vid=5473e92e-d80b-4c00-ae0e-1deca2a6a247","ios":"levelo://app?vid=5473e92e-d80b-4c00-ae0e-1deca2a6a247"},"vehicle_type_id":"4","last_reported":1720203021,"current_range_meters":1200,"station_id":"ce4bgih2rcd13ifvqba0","pricing_plan_id":"cebpf4jnsgd1na2vs0mg"},{"bike_id":"67133372-01f9-4e07-8803-368687e28662","system_id":"levelo_inurba_marseille","lat":43.29533,"lon":5.38542,"is_reserved":false,"is_disabled":false,"rental_uris":{"android":"levelo://app?vid=67133372-01f9-4e07-8803-368687e28662","ios":"levelo://app?vid=67133372-01f9-4e07-8803-368687e28662"},"vehicle_type_id":"4","last_reported":1720203021,"current_range_meters":4000,"station_id":"ce4bgih2rcd13ifvqba0","pricing_plan_id":"cebpf4jnsgd1na2vs0mg"},{"bike_id":"1a95ce8d-56b1-4014-be0c-02ba83489cc6","system_id":"levelo_inurba_marseille","lat":43.29534,"lon":5.38548,"is_reserved":false,"is_disabled":false,"rental_uris":{"android":"levelo://app?vid=1a95ce8d-56b1-4014-be0c-02ba83489cc6","ios":"levelo://app?vid=1a95ce8d-56b1-4014-be0c-02ba83489cc6"},"vehicle_type_id":"4","last_reported":1720203021,"current_range_meters":24400,"station_id":"ce4bgih2rcd13ifvqba0","pricing_plan_id":"cebpf4jnsgd1na2vs0mg"},{"bike_id":"63bffec0-8b0f-4e1e-9900-faabf63c918a","system_id":"levelo_inurba_marseille","lat":43.29531,"lon":5.38544,"is_reserved":false,"is_disabled":false,"rental_uris":{"android":"levelo://app?vid=63bffec0-8b0f-4e1e-9900-faabf63c918a","ios":"levelo://app?vid=63bffec0-8b0f-4e1e-9900-faabf63c918a"},"vehicle_type_id":"4","last_reported":1720203021,"current_range_meters":4400,"station_id":"ce4bgih2rcd13ifvqba0","pricing_plan_id":"cebpf4jnsgd1na2vs0mg"},{"bike_id":"ba84056b-7b1c-4842-a6ad-b5707cad3061","system_id":"levelo_inurba_marseille","lat":43.29534,"lon":5.38551,"is_reserved":false,"is_disabled":false,"rental_uris":{"android":"levelo://app?vid=ba84056b-7b1c-4842-a6ad-b5707cad3061","ios":"levelo://app?vid=ba84056b-7b1c-4842-a6ad-b5707cad3061"},"vehicle_type_id":"4","last_reported":1720203021,"current_range_meters":26800,"station_id":"ce4bgih2rcd13ifvqba0","pricing_plan_id":"cebpf4jnsgd1na2vs0mg"},{"bike_id":"1c49a296-7d73-45ce-b0ad-b194a8f5954d","system_id":"levelo_inurba_marseille","lat":43.29533,"lon":5.3855,"is_reserved":false,"is_disabled":false,"rental_uris":{"android":"levelo://app?vid=1c49a296-7d73-45ce-b0ad-b194a8f5954d","ios":"levelo://app?vid=1c49a296-7d73-45ce-b0ad-b194a8f5954d"},"vehicle_type_id":"4","last_reported":1720203021,"current_range_meters":10000,"station_id":"ce4bgih2rcd13ifvqba0","pricing_plan_id":"cebpf4jnsgd1na2vs0mg"},{"bike_id":"35bbef17-dc00-4547-809b-11df97fea8ae","system_id":"levelo_inurba_marseille","lat":43.2953,"lon":5.38545,"is_reserved":false,"is_disabled":false,"rental_uris":{"android":"levelo://app?vid=35bbef17-dc00-4547-809b-11df97fea8ae","ios":"levelo://app?vid=35bbef17-dc00-4547-809b-11df97fea8ae"},"vehicle_type_id":"4","last_reported":1720203021,"current_range_meters":22800,"station_id":"ce4bgih2rcd13ifvqba0","pricing_plan_id":"cebpf4jnsgd1na2vs0mg"},{"bike_id":"fc758251-6660-48b7-af0f-a3eabd680944","system_id":"levelo_inurba_marseille","lat":43.29531,"lon":5.38547,"is_reserved":false,"is_disabled":false,"rental_uris":{"android":"levelo://app?vid=fc758251-6660-48b7-af0f-a3eabd680944","ios":"levelo://app?vid=fc758251-6660-48b7-af0f-a3eabd680944"},"vehicle_type_id":"4","last_reported":1720203021,"current_range_meters":13200,"station_id":"ce4bgih2rcd13ifvqba0","pricing_plan_id":"cebpf4jnsgd1na2vs0mg"},{"bike_id":"863f43b2-b8c2-40a7-bf8e-ec31634a334b","system_id":"levelo_inurba_marseille","lat":43.29531,"lon":5.38547,"is_reserved":false,"is_disabled":false,"rental_uris":{"android":"levelo://app?vid=863f43b2-b8c2-40a7-bf8e-ec31634a334b","ios":"levelo://app?vid=863f43b2-b8c2-40a7-bf8e-ec31634a334b"},"vehicle_type_id":"4","last_reported":1720203021,"current_range_meters":0,"station_id":"ce4bgih2rcd13ifvqba0","pricing_plan_id":"cebpf4jnsgd1na2vs0mg"},{"bike_id":"1a386e4f-d3bc-41c0-94e7-738c93062640","system_id":"levelo_inurba_marseille","lat":43.29528,"lon":5.38542,"is_reserved":false,"is_disabled":false,"rental_uris":{"android":"levelo://app?vid=1a386e4f-d3bc-41c0-94e7-738c93062640","ios":"levelo://app?vid=1a386e4f-d3bc-41c0-94e7-738c93062640"},"vehicle_type_id":"4","last_reported":1720203021,"current_range_meters":4800,"station_id":"ce4bgih2rcd13ifvqba0","pricing_plan_id":"cebpf4jnsgd1na2vs0mg"},{"bike_id":"0359699a-a16b-439f-9395-9e1eef64d690","system_id":"levelo_inurba_marseille","lat":43.295281,"lon":5.385427,"is_reserved":false,"is_disabled":false,"rental_uris":{"android":"levelo://app?vid=0359699a-a16b-439f-9395-9e1eef64d690","ios":"levelo://app?vid=0359699a-a16b-439f-9395-9e1eef64d690"},"vehicle_type_id":"4","last_reported":1720203021,"current_range_meters":10800,"station_id":"ce4bgih2rcd13ifvqba0","pricing_plan_id":"cebpf4jnsgd1na2vs0mg"},{"bike_id":"908ff1be-a5bd-4c7d-8562-7166d544881b","system_id":"levelo_inurba_marseille","lat":43.2953,"lon":5.38546,"is_reserved":false,"is_disabled":false,"rental_uris":{"android":"levelo://app?vid=908ff1be-a5bd-4c7d-8562-7166d544881b","ios":"levelo://app?vid=908ff1be-a5bd-4c7d-8562-7166d544881b"},"vehicle_type_id":"4","last_reported":1720203021,"current_range_meters":25200,"station_id":"ce4bgih2rcd13ifvqba0","pricing_plan_id":"cebpf4jnsgd1na2vs0mg"},{"bike_id":"d32ff763-9a64-4feb-82be-f6dda2b1aa21","system_id":"levelo_inurba_marseille","lat":43.29532,"lon":5.38552,"is_reserved":false,"is_disabled":false,"rental_uris":{"android":"levelo://app?vid=d32ff763-9a64-4feb-82be-f6dda2b1aa21","ios":"levelo://app?vid=d32ff763-9a64-4feb-82be-f6dda2b1aa21"},"vehicle_type_id":"4","last_reported":1720203021,"current_range_meters":25200,"station_id":"ce4bgih2rcd13ifvqba0","pricing_plan_id":"cebpf4jnsgd1na2vs0mg"},{"bike_id":"6e70bb37-c8c7-4483-85b6-a124514b4fbe","system_id":"levelo_inurba_marseille","lat":43.2953,"lon":5.38552,"is_reserved":false,"is_disabled":false,"rental_uris":{"android":"levelo://app?vid=6e70bb37-c8c7-4483-85b6-a124514b4fbe","ios":"levelo://app?vid=6e70bb37-c8c7-4483-85b6-a124514b4fbe"},"vehicle_type_id":"4","last_reported":1720203021,"current_range_meters":0,"station_id":"ce4bgih2rcd13ifvqba0","pricing_plan_id":"cebpf4jnsgd1na2vs0mg"},{"bike_id":"a23c705d-11e9-4bb9-a1d9-82b1189750d4","system_id":"levelo_inurba_marseille","lat":43.29528,"lon":5.38549,"is_reserved":false,"is_disabled":false,"rental_uris":{"android":"levelo://app?vid=a23c705d-11e9-4bb9-a1d9-82b1189750d4","ios":"levelo://app?vid=a23c705d-11e9-4bb9-a1d9-82b1189750d4"},"vehicle_type_id":"4","last_reported":1720203021,"current_range_meters":9600,"station_id":"ce4bgih2rcd13ifvqba0","pricing_plan_id":"cebpf4jnsgd1na2vs0mg"},{"bike_id":"ca1f76b4-692b-49f8-a333-c9caf8f5aa6a","system_id":"levelo_inurba_marseille","lat":43.29523,"lon":5.38541,"is_reserved":false,"is_disabled":false,"rental_uris":{"android":"levelo://app?vid=ca1f76b4-692b-49f8-a333-c9caf8f5aa6a","ios":"levelo://app?vid=ca1f76b4-692b-49f8-a333-c9caf8f5aa6a"},"vehicle_type_id":"4","last_reported":1720203021,"current_range_meters":10000,"station_id":"ce4bgih2rcd13ifvqba0","pricing_plan_id":"cebpf4jnsgd1na2vs0mg"},{"bike_id":"5710ad99-60da-4a5a-b7f9-d0d1f7033265","system_id":"levelo_inurba_marseille","lat":43.29528,"lon":5.38551,"is_reserved":false,"is_disabled":false,"rental_uris":{"android":"levelo://app?vid=5710ad99-60da-4a5a-b7f9-d0d1f7033265","ios":"levelo://app?vid=5710ad99-60da-4a5a-b7f9-d0d1f7033265"},"vehicle_type_id":"4","last_reported":1720203021,"current_range_meters":3600,"station_id":"ce4bgih2rcd13ifvqba0","pricing_plan_id":"cebpf4jnsgd1na2vs0mg"},{"bike_id":"5430b250-3a13-42b5-861a-e1d705761c6b","system_id":"levelo_inurba_marseille","lat":43.29528,"lon":5.38553,"is_reserved":false,"is_disabled":false,"rental_uris":{"android":"levelo://app?vid=5430b250-3a13-42b5-861a-e1d705761c6b","ios":"levelo://app?vid=5430b250-3a13-42b5-861a-e1d705761c6b"},"vehicle_type_id":"4","last_reported":1720203021,"current_range_meters":29200,"station_id":"ce4bgih2rcd13ifvqba0","pricing_plan_id":"cebpf4jnsgd1na2vs0mg"},{"bike_id":"4c4fe3a5-e7df-424d-a71f-10431b430c61","system_id":"levelo_inurba_marseille","lat":43.29524,"lon":5.38546,"is_reserved":false,"is_disabled":false,"rental_uris":{"android":"levelo://app?vid=4c4fe3a5-e7df-424d-a71f-10431b430c61","ios":"levelo://app?vid=4c4fe3a5-e7df-424d-a71f-10431b430c61"},"vehicle_type_id":"4","last_reported":1720203021,"current_range_meters":16400,"station_id":"ce4bgih2rcd13ifvqba0","pricing_plan_id":"cebpf4jnsgd1na2vs0mg"},{"bike_id":"0c5327a6-306a-4525-b2c6-f18328802607","system_id":"levelo_inurba_marseille","lat":43.2952,"lon":5.38541,"is_reserved":false,"is_disabled":false,"rental_uris":{"android":"levelo://app?vid=0c5327a6-306a-4525-b2c6-f18328802607","ios":"levelo://app?vid=0c5327a6-306a-4525-b2c6-f18328802607"},"vehicle_type_id":"4","last_reported":1720203021,"current_range_meters":12400,"station_id":"ce4bgih2rcd13ifvqba0","pricing_plan_id":"cebpf4jnsgd1na2vs0mg"},{"bike_id":"3278c636-886a-4eea-b273-293ef0795848","system_id":"levelo_inurba_marseille","lat":43.29526,"lon":5.38554,"is_reserved":false,"is_disabled":false,"rental_uris":{"android":"levelo://app?vid=3278c636-886a-4eea-b273-293ef0795848","ios":"levelo://app?vid=3278c636-886a-4eea-b273-293ef0795848"},"vehicle_type_id":"4","last_reported":1720203021,"current_range_meters":15200,"station_id":"ce4bgih2rcd13ifvqba0","pricing_plan_id":"cebpf4jnsgd1na2vs0mg"},{"bike_id":"36afce9f-6b18-418d-ae9b-8fc24c035c2a","system_id":"levelo_inurba_marseille","lat":43.290779,"lon":5.371482,"is_reserved":false,"is_disabled":false,"rental_uris":{"android":"levelo://app?vid=36afce9f-6b18-418d-ae9b-8fc24c035c2a","ios":"levelo://app?vid=36afce9f-6b18-418d-ae9b-8fc24c035c2a"},"vehicle_type_id":"4","last_reported":1720203021,"current_range_meters":0,"station_id":"ce4bh5p2rcd13ifvqe4g","pricing_plan_id":"cebpf4jnsgd1na2vs0mg"},{"bike_id":"1622320f-908f-4ff3-a193-7158e1bf167c","system_id":"levelo_inurba_marseille","lat":43.29426,"lon":5.38615,"is_reserved":false,"is_disabled":false,"rental_uris":{"android":"levelo://app?vid=1622320f-908f-4ff3-a193-7158e1bf167c","ios":"levelo://app?vid=1622320f-908f-4ff3-a193-7158e1bf167c"},"vehicle_type_id":"4","last_reported":1720203021,"current_range_meters":24400,"station_id":"ce4bh2h2rcd13ifvqdh0","pricing_plan_id":"cebpf4jnsgd1na2vs0mg"},{"bike_id":"7020b761-b079-48b6-b8ca-b9652a63ca01","system_id":"levelo_inurba_marseille","lat":43.290327,"lon":5.375711,"is_reserved":false,"is_disabled":false,"rental_uris":{"android":"levelo://app?vid=7020b761-b079-48b6-b8ca-b9652a63ca01","ios":"levelo://app?vid=7020b761-b079-48b6-b8ca-b9652a63ca01"},"vehicle_type_id":"4","last_reported":1720203021,"current_range_meters":19200,"station_id":"ce4bh692rcd13ifvqe90","pricing_plan_id":"cebpf4jnsgd1na2vs0mg"},{"bike_id":"f5eaad54-10ad-4e8b-837b-06108e47ba2b","system_id":"levelo_inurba_marseille","lat":43.290319,"lon":5.375732,"is_reserved":false,"is_disabled":false,"rental_uris":{"android":"levelo://app?vid=f5eaad54-10ad-4e8b-837b-06108e47ba2b","ios":"levelo://app?vid=f5eaad54-10ad-4e8b-837b-06108e47ba2b"},"vehicle_type_id":"4","last_reported":1720203021,"current_range_meters":22400,"station_id":"ce4bh692rcd13ifvqe90","pricing_plan_id":"cebpf4jnsgd1na2vs0mg"},{"bike_id":"f26da5b8-05e7-4402-9f6f-cfbbf985061f","system_id":"levelo_inurba_marseille","lat":43.29423,"lon":5.38622,"is_reserved":false,"is_disabled":false,"rental_uris":{"android":"levelo://app?vid=f26da5b8-05e7-4402-9f6f-cfbbf985061f","ios":"levelo://app?vid=f26da5b8-05e7-4402-9f6f-cfbbf985061f"},"vehicle_type_id":"4","last_reported":1720203021,"current_range_meters":19600,"station_id":"ce4bh2h2rcd13ifvqdh0","pricing_plan_id":"cebpf4jnsgd1na2vs0mg"},{"bike_id":"9c749e4c-7c88-40cb-98fd-fb0fb0d0bc88","system_id":"levelo_inurba_marseille","lat":43.29419,"lon":5.38618,"is_reserved":false,"is_disabled":false,"rental_uris":{"android":"levelo://app?vid=9c749e4c-7c88-40cb-98fd-fb0fb0d0bc88","ios":"levelo://app?vid=9c749e4c-7c88-40cb-98fd-fb0fb0d0bc88"},"vehicle_type_id":"4","last_reported":1720203021,"current_range_meters":22000,"station_id":"ce4bh2h2rcd13ifvqdh0","pricing_plan_id":"cebpf4jnsgd1na2vs0mg"},{"bike_id":"e1e2f5f0-3203-4417-a846-1d8d6851eb3f","system_id":"levelo_inurba_marseille","lat":43.294243,"lon":5.386277,"is_reserved":false,"is_disabled":false,"rental_uris":{"android":"levelo://app?vid=e1e2f5f0-3203-4417-a846-1d8d6851eb3f","ios":"levelo://app?vid=e1e2f5f0-3203-4417-a846-1d8d6851eb3f"},"vehicle_type_id":"4","last_reported":1720203021,"current_range_meters":6000,"station_id":"ce4bh2h2rcd13ifvqdh0","pricing_plan_id":"cebpf4jnsgd1na2vs0mg"},{"bike_id":"642efbeb-770b-40b9-9885-b91fb20ce53e","system_id":"levelo_inurba_marseille","lat":43.29421,"lon":5.38622,"is_reserved":false,"is_disabled":false,"rental_uris":{"android":"levelo://app?vid=642efbeb-770b-40b9-9885-b91fb20ce53e","ios":"levelo://app?vid=642efbeb-770b-40b9-9885-b91fb20ce53e"},"vehicle_type_id":"4","last_reported":1720203021,"current_range_meters":1600,"station_id":"ce4bh2h2rcd13ifvqdh0","pricing_plan_id":"cebpf4jnsgd1na2vs0mg"},{"bike_id":"911ff7c5-6c7b-467d-8695-2dab1d448b58","system_id":"levelo_inurba_marseille","lat":43.29418,"lon":5.38621,"is_reserved":false,"is_disabled":false,"rental_uris":{"android":"levelo://app?vid=911ff7c5-6c7b-467d-8695-2dab1d448b58","ios":"levelo://app?vid=911ff7c5-6c7b-467d-8695-2dab1d448b58"},"vehicle_type_id":"4","last_reported":1720203021,"current_range_meters":30400,"station_id":"ce4bh2h2rcd13ifvqdh0","pricing_plan_id":"cebpf4jnsgd1na2vs0mg"},{"bike_id":"ba03d9dc-c239-44ed-bcae-01be941c4220","system_id":"levelo_inurba_marseille","lat":43.294213,"lon":5.386273,"is_reserved":false,"is_disabled":false,"rental_uris":{"android":"levelo://app?vid=ba03d9dc-c239-44ed-bcae-01be941c4220","ios":"levelo://app?vid=ba03d9dc-c239-44ed-bcae-01be941c4220"},"vehicle_type_id":"4","last_reported":1720203021,"current_range_meters":0,"station_id":"ce4bh2h2rcd13ifvqdh0","pricing_plan_id":"cebpf4jnsgd1na2vs0mg"},{"bike_id":"c1f9dbbd-7493-4224-87ad-79b018513b22","system_id":"levelo_inurba_marseille","lat":43.29418,"lon":5.38622,"is_reserved":false,"is_disabled":false,"rental_uris":{"android":"levelo://app?vid=c1f9dbbd-7493-4224-87ad-79b018513b22","ios":"levelo://app?vid=c1f9dbbd-7493-4224-87ad-79b018513b22"},"vehicle_type_id":"4","last_reported":1720203021,"current_range_meters":6400,"station_id":"ce4bh2h2rcd13ifvqdh0","pricing_plan_id":"cebpf4jnsgd1na2vs0mg"},{"bike_id":"80b1f172-d8f6-4f8e-a315-0577a10a58d3","system_id":"levelo_inurba_marseille","lat":43.29419,"lon":5.38624,"is_reserved":false,"is_disabled":false,"rental_uris":{"android":"levelo://app?vid=80b1f172-d8f6-4f8e-a315-0577a10a58d3","ios":"levelo://app?vid=80b1f172-d8f6-4f8e-a315-0577a10a58d3"},"vehicle_type_id":"4","last_reported":1720203021,"current_range_meters":8400,"station_id":"ce4bh2h2rcd13ifvqdh0","pricing_plan_id":"cebpf4jnsgd1na2vs0mg"},{"bike_id":"b4a1ebcf-8ca5-49e8-9345-2ee324223778","system_id":"levelo_inurba_marseille","lat":43.294162,"lon":5.386292,"is_reserved":false,"is_disabled":false,"rental_uris":{"android":"levelo://app?vid=b4a1ebcf-8ca5-49e8-9345-2ee324223778","ios":"levelo://app?vid=b4a1ebcf-8ca5-49e8-9345-2ee324223778"},"vehicle_type_id":"4","last_reported":1720203021,"current_range_meters":13600,"station_id":"ce4bh2h2rcd13ifvqdh0","pricing_plan_id":"cebpf4jnsgd1na2vs0mg"},{"bike_id":"e8ccc27c-69a4-48e5-9456-45f5a2f77a76","system_id":"levelo_inurba_marseille","lat":43.294162,"lon":5.386292,"is_reserved":false,"is_disabled":false,"rental_uris":{"android":"levelo://app?vid=e8ccc27c-69a4-48e5-9456-45f5a2f77a76","ios":"levelo://app?vid=e8ccc27c-69a4-48e5-9456-45f5a2f77a76"},"vehicle_type_id":"4","last_reported":1720203021,"current_range_meters":17600,"station_id":"ce4bh2h2rcd13ifvqdh0","pricing_plan_id":"cebpf4jnsgd1na2vs0mg"},{"bike_id":"674c4758-d47c-40a2-860d-e46b511d247d","system_id":"levelo_inurba_marseille","lat":43.294162,"lon":5.386292,"is_reserved":false,"is_disabled":false,"rental_uris":{"android":"levelo://app?vid=674c4758-d47c-40a2-860d-e46b511d247d","ios":"levelo://app?vid=674c4758-d47c-40a2-860d-e46b511d247d"},"vehicle_type_id":"4","last_reported":1720203021,"current_range_meters":30400,"station_id":"ce4bh2h2rcd13ifvqdh0","pricing_plan_id":"cebpf4jnsgd1na2vs0mg"},{"bike_id":"55fca1d6-f265-4a39-9ac6-f74b9a2b2f88","system_id":"levelo_inurba_marseille","lat":43.29417,"lon":5.38621,"is_reserved":false,"is_disabled":false,"rental_uris":{"android":"levelo://app?vid=55fca1d6-f265-4a39-9ac6-f74b9a2b2f88","ios":"levelo://app?vid=55fca1d6-f265-4a39-9ac6-f74b9a2b2f88"},"vehicle_type_id":"4","last_reported":1720203021,"current_range_meters":6400,"station_id":"ce4bh2h2rcd13ifvqdh0","pricing_plan_id":"cebpf4jnsgd1na2vs0mg"},{"bike_id":"3c0fda5e-49a7-4147-b67b-1c595ad75a1b","system_id":"levelo_inurba_marseille","lat":43.294162,"lon":5.386292,"is_reserved":false,"is_disabled":false,"rental_uris":{"android":"levelo://app?vid=3c0fda5e-49a7-4147-b67b-1c595ad75a1b","ios":"levelo://app?vid=3c0fda5e-49a7-4147-b67b-1c595ad75a1b"},"vehicle_type_id":"4","last_reported":1720203021,"current_range_meters":4800,"station_id":"ce4bh2h2rcd13ifvqdh0","pricing_plan_id":"cebpf4jnsgd1na2vs0mg"},{"bike_id":"46aec4e1-d0f5-4a54-88bc-d9b711b0fb61","system_id":"levelo_inurba_marseille","lat":43.294153,"lon":5.386305,"is_reserved":false,"is_disabled":false,"rental_uris":{"android":"levelo://app?vid=46aec4e1-d0f5-4a54-88bc-d9b711b0fb61","ios":"levelo://app?vid=46aec4e1-d0f5-4a54-88bc-d9b711b0fb61"},"vehicle_type_id":"4","last_reported":1720203021,"current_range_meters":29200,"station_id":"ce4bh2h2rcd13ifvqdh0","pricing_plan_id":"cebpf4jnsgd1na2vs0mg"},{"bike_id":"0589cac6-5b52-4a38-9eb1-b455a37fdd69","system_id":"levelo_inurba_marseille","lat":43.29418,"lon":5.38625,"is_reserved":false,"is_disabled":false,"rental_uris":{"android":"levelo://app?vid=0589cac6-5b52-4a38-9eb1-b455a37fdd69","ios":"levelo://app?vid=0589cac6-5b52-4a38-9eb1-b455a37fdd69"},"vehicle_type_id":"4","last_reported":1720203021,"current_range_meters":0,"station_id":"ce4bh2h2rcd13ifvqdh0","pricing_plan_id":"cebpf4jnsgd1na2vs0mg"},{"bike_id":"cb94565f-b567-4f33-8f1c-1e47ea7e67a6","system_id":"levelo_inurba_marseille","lat":43.29418,"lon":5.38625,"is_reserved":false,"is_disabled":false,"rental_uris":{"android":"levelo://app?vid=cb94565f-b567-4f33-8f1c-1e47ea7e67a6","ios":"levelo://app?vid=cb94565f-b567-4f33-8f1c-1e47ea7e67a6"},"vehicle_type_id":"4","last_reported":1720203021,"current_range_meters":8400,"station_id":"ce4bh2h2rcd13ifvqdh0","pricing_plan_id":"cebpf4jnsgd1na2vs0mg"},{"bike_id":"1f33b997-34bf-4b87-b952-426d281d2e77","system_id":"levelo_inurba_marseille","lat":43.29423,"lon":5.38635,"is_reserved":false,"is_disabled":false,"rental_uris":{"android":"levelo://app?vid=1f33b997-34bf-4b87-b952-426d281d2e77","ios":"levelo://app?vid=1f33b997-34bf-4b87-b952-426d281d2e77"},"vehicle_type_id":"4","last_reported":1720203021,"current_range_meters":5600,"station_id":"ce4bh2h2rcd13ifvqdh0","pricing_plan_id":"cebpf4jnsgd1na2vs0mg"},{"bike_id":"25933bdb-9cce-446c-90b3-19b70af53a62","system_id":"levelo_inurba_marseille","lat":43.29418,"lon":5.38626,"is_reserved":false,"is_disabled":false,"rental_uris":{"android":"levelo://app?vid=25933bdb-9cce-446c-90b3-19b70af53a62","ios":"levelo://app?vid=25933bdb-9cce-446c-90b3-19b70af53a62"},"vehicle_type_id":"4","last_reported":1720203021,"current_range_meters":21200,"station_id":"ce4bh2h2rcd13ifvqdh0","pricing_plan_id":"cebpf4jnsgd1na2vs0mg"},{"bike_id":"16178005-5dee-465e-ac5b-5832bfedfd45","system_id":"levelo_inurba_marseille","lat":43.294162,"lon":5.386292,"is_reserved":false,"is_disabled":false,"rental_uris":{"android":"levelo://app?vid=16178005-5dee-465e-ac5b-5832bfedfd45","ios":"levelo://app?vid=16178005-5dee-465e-ac5b-5832bfedfd45"},"vehicle_type_id":"4","last_reported":1720203021,"current_range_meters":18800,"station_id":"ce4bh2h2rcd13ifvqdh0","pricing_plan_id":"cebpf4jnsgd1na2vs0mg"},{"bike_id":"06e27650-7b3e-4d9c-b7fd-e15474df1445","system_id":"levelo_inurba_marseille","lat":43.29419,"lon":5.38631,"is_reserved":false,"is_disabled":false,"rental_uris":{"android":"levelo://app?vid=06e27650-7b3e-4d9c-b7fd-e15474df1445","ios":"levelo://app?vid=06e27650-7b3e-4d9c-b7fd-e15474df1445"},"vehicle_type_id":"4","last_reported":1720203021,"current_range_meters":30800,"station_id":"ce4bh2h2rcd13ifvqdh0","pricing_plan_id":"cebpf4jnsgd1na2vs0mg"},{"bike_id":"7b2e1d0c-4eb4-46db-853a-ca0e0ff78428","system_id":"levelo_inurba_marseille","lat":43.294133,"lon":5.38621,"is_reserved":false,"is_disabled":false,"rental_uris":{"android":"levelo://app?vid=7b2e1d0c-4eb4-46db-853a-ca0e0ff78428","ios":"levelo://app?vid=7b2e1d0c-4eb4-46db-853a-ca0e0ff78428"},"vehicle_type_id":"4","last_reported":1720203021,"current_range_meters":6000,"station_id":"","pricing_plan_id":"cebpf4jnsgd1na2vs0mg"},{"bike_id":"53377a07-6df8-4f70-b9aa-cac0f8c23535","system_id":"levelo_inurba_marseille","lat":43.290319,"lon":5.375732,"is_reserved":false,"is_disabled":false,"rental_uris":{"android":"levelo://app?vid=53377a07-6df8-4f70-b9aa-cac0f8c23535","ios":"levelo://app?vid=53377a07-6df8-4f70-b9aa-cac0f8c23535"},"vehicle_type_id":"4","last_reported":1720203021,"current_range_meters":1600,"station_id":"ce4bh692rcd13ifvqe90","pricing_plan_id":"cebpf4jnsgd1na2vs0mg"},{"bike_id":"7ef726c7-a3c4-4f5b-96d1-dce7491b7268","system_id":"levelo_inurba_marseille","lat":43.289184,"lon":5.366408,"is_reserved":false,"is_disabled":false,"rental_uris":{"android":"levelo://app?vid=7ef726c7-a3c4-4f5b-96d1-dce7491b7268","ios":"levelo://app?vid=7ef726c7-a3c4-4f5b-96d1-dce7491b7268"},"vehicle_type_id":"4","last_reported":1720203021,"current_range_meters":3600,"station_id":"ce4bhap2rcd13ifvqek0","pricing_plan_id":"cebpf4jnsgd1na2vs0mg"},{"bike_id":"d5bbcbeb-b91b-4f4b-97bf-f931387af69a","system_id":"levelo_inurba_marseille","lat":43.28943,"lon":5.36635,"is_reserved":false,"is_disabled":false,"rental_uris":{"android":"levelo://app?vid=d5bbcbeb-b91b-4f4b-97bf-f931387af69a","ios":"levelo://app?vid=d5bbcbeb-b91b-4f4b-97bf-f931387af69a"},"vehicle_type_id":"4","last_reported":1720203021,"current_range_meters":10000,"station_id":"ce4bhap2rcd13ifvqek0","pricing_plan_id":"cebpf4jnsgd1na2vs0mg"},{"bike_id":"eb8eafe8-6101-4741-a15f-0672fbca0e35","system_id":"levelo_inurba_marseille","lat":43.29416,"lon":5.38628,"is_reserved":false,"is_disabled":false,"rental_uris":{"android":"levelo://app?vid=eb8eafe8-6101-4741-a15f-0672fbca0e35","ios":"levelo://app?vid=eb8eafe8-6101-4741-a15f-0672fbca0e35"},"vehicle_type_id":"4","last_reported":1720203021,"current_range_meters":15200,"station_id":"ce4bh2h2rcd13ifvqdh0","pricing_plan_id":"cebpf4jnsgd1na2vs0mg"},{"bike_id":"4f599ed6-85cf-43b1-9db8-edaed0587f6a","system_id":"levelo_inurba_marseille","lat":43.29417,"lon":5.3863,"is_reserved":false,"is_disabled":false,"rental_uris":{"android":"levelo://app?vid=4f599ed6-85cf-43b1-9db8-edaed0587f6a","ios":"levelo://app?vid=4f599ed6-85cf-43b1-9db8-edaed0587f6a"},"vehicle_type_id":"4","last_reported":1720203021,"current_range_meters":2800,"station_id":"ce4bh2h2rcd13ifvqdh0","pricing_plan_id":"cebpf4jnsgd1na2vs0mg"},{"bike_id":"cf91c12a-f359-4329-80f0-28e472d80a79","system_id":"levelo_inurba_marseille","lat":43.29416,"lon":5.38629,"is_reserved":false,"is_disabled":false,"rental_uris":{"android":"levelo://app?vid=cf91c12a-f359-4329-80f0-28e472d80a79","ios":"levelo://app?vid=cf91c12a-f359-4329-80f0-28e472d80a79"},"vehicle_type_id":"4","last_reported":1720203021,"current_range_meters":12000,"station_id":"ce4bh2h2rcd13ifvqdh0","pricing_plan_id":"cebpf4jnsgd1na2vs0mg"},{"bike_id":"bab219bc-fbb3-430b-bbe3-5061e09abb6d","system_id":"levelo_inurba_marseille","lat":43.294147,"lon":5.38629,"is_reserved":false,"is_disabled":false,"rental_uris":{"android":"levelo://app?vid=bab219bc-fbb3-430b-bbe3-5061e09abb6d","ios":"levelo://app?vid=bab219bc-fbb3-430b-bbe3-5061e09abb6d"},"vehicle_type_id":"4","last_reported":1720203021,"current_range_meters":14000,"station_id":"ce4bh2h2rcd13ifvqdh0","pricing_plan_id":"cebpf4jnsgd1na2vs0mg"},{"bike_id":"0a83e868-4ef3-49fc-b3e5-dc5c6351f540","system_id":"levelo_inurba_marseille","lat":43.294162,"lon":5.386292,"is_reserved":false,"is_disabled":false,"rental_uris":{"android":"levelo://app?vid=0a83e868-4ef3-49fc-b3e5-dc5c6351f540","ios":"levelo://app?vid=0a83e868-4ef3-49fc-b3e5-dc5c6351f540"},"vehicle_type_id":"4","last_reported":1720203021,"current_range_meters":31200,"station_id":"ce4bh2h2rcd13ifvqdh0","pricing_plan_id":"cebpf4jnsgd1na2vs0mg"},{"bike_id":"a5564e82-12c9-44dd-b3fc-3533b31e8667","system_id":"levelo_inurba_marseille","lat":43.294129,"lon":5.386264,"is_reserved":false,"is_disabled":false,"rental_uris":{"android":"levelo://app?vid=a5564e82-12c9-44dd-b3fc-3533b31e8667","ios":"levelo://app?vid=a5564e82-12c9-44dd-b3fc-3533b31e8667"},"vehicle_type_id":"4","last_reported":1720203021,"current_range_meters":8000,"station_id":"ce4bh2h2rcd13ifvqdh0","pricing_plan_id":"cebpf4jnsgd1na2vs0mg"},{"bike_id":"cb1c7ea6-bfad-4bc4-81af-67aed23a1888","system_id":"levelo_inurba_marseille","lat":43.294162,"lon":5.386292,"is_reserved":false,"is_disabled":false,"rental_uris":{"android":"levelo://app?vid=cb1c7ea6-bfad-4bc4-81af-67aed23a1888","ios":"levelo://app?vid=cb1c7ea6-bfad-4bc4-81af-67aed23a1888"},"vehicle_type_id":"4","last_reported":1720203021,"current_range_meters":16000,"station_id":"ce4bh2h2rcd13ifvqdh0","pricing_plan_id":"cebpf4jnsgd1na2vs0mg"},{"bike_id":"f88484da-ce2c-4c25-b95b-f46111f75df4","system_id":"levelo_inurba_marseille","lat":43.289184,"lon":5.366408,"is_reserved":false,"is_disabled":false,"rental_uris":{"android":"levelo://app?vid=f88484da-ce2c-4c25-b95b-f46111f75df4","ios":"levelo://app?vid=f88484da-ce2c-4c25-b95b-f46111f75df4"},"vehicle_type_id":"4","last_reported":1720203021,"current_range_meters":12400,"station_id":"ce4bhap2rcd13ifvqek0","pricing_plan_id":"cebpf4jnsgd1na2vs0mg"},{"bike_id":"edcea8da-c53f-49cb-8d4a-83d5741d2cd9","system_id":"levelo_inurba_marseille","lat":43.289184,"lon":5.366408,"is_reserved":false,"is_disabled":false,"rental_uris":{"android":"levelo://app?vid=edcea8da-c53f-49cb-8d4a-83d5741d2cd9","ios":"levelo://app?vid=edcea8da-c53f-49cb-8d4a-83d5741d2cd9"},"vehicle_type_id":"4","last_reported":1720203021,"current_range_meters":21600,"station_id":"ce4bhap2rcd13ifvqek0","pricing_plan_id":"cebpf4jnsgd1na2vs0mg"},{"bike_id":"eb9dc503-b995-4fd8-9e5b-97dae4681a9f","system_id":"levelo_inurba_marseille","lat":43.289184,"lon":5.366408,"is_reserved":false,"is_disabled":false,"rental_uris":{"android":"levelo://app?vid=eb9dc503-b995-4fd8-9e5b-97dae4681a9f","ios":"levelo://app?vid=eb9dc503-b995-4fd8-9e5b-97dae4681a9f"},"vehicle_type_id":"4","last_reported":1720203021,"current_range_meters":0,"station_id":"ce4bhap2rcd13ifvqek0","pricing_plan_id":"cebpf4jnsgd1na2vs0mg"},{"bike_id":"5abd6456-c332-403b-8302-d0fdf35abbcd","system_id":"levelo_inurba_marseille","lat":43.294162,"lon":5.386292,"is_reserved":false,"is_disabled":false,"rental_uris":{"android":"levelo://app?vid=5abd6456-c332-403b-8302-d0fdf35abbcd","ios":"levelo://app?vid=5abd6456-c332-403b-8302-d0fdf35abbcd"},"vehicle_type_id":"4","last_reported":1720203021,"current_range_meters":31200,"station_id":"ce4bh2h2rcd13ifvqdh0","pricing_plan_id":"cebpf4jnsgd1na2vs0mg"},{"bike_id":"80264da0-b8ba-4699-bde5-a309cc993541","system_id":"levelo_inurba_marseille","lat":43.289184,"lon":5.366408,"is_reserved":false,"is_disabled":false,"rental_uris":{"android":"levelo://app?vid=80264da0-b8ba-4699-bde5-a309cc993541","ios":"levelo://app?vid=80264da0-b8ba-4699-bde5-a309cc993541"},"vehicle_type_id":"4","last_reported":1720203021,"current_range_meters":13200,"station_id":"ce4bhap2rcd13ifvqek0","pricing_plan_id":"cebpf4jnsgd1na2vs0mg"},{"bike_id":"a44f1e60-2799-46d8-871b-0f8084ada5f8","system_id":"levelo_inurba_marseille","lat":43.289184,"lon":5.366408,"is_reserved":false,"is_disabled":false,"rental_uris":{"android":"levelo://app?vid=a44f1e60-2799-46d8-871b-0f8084ada5f8","ios":"levelo://app?vid=a44f1e60-2799-46d8-871b-0f8084ada5f8"},"vehicle_type_id":"4","last_reported":1720203021,"current_range_meters":13200,"station_id":"ce4bhap2rcd13ifvqek0","pricing_plan_id":"cebpf4jnsgd1na2vs0mg"},{"bike_id":"45dace48-5d9e-414a-aee9-935c52f5c12f","system_id":"levelo_inurba_marseille","lat":43.294162,"lon":5.386292,"is_reserved":false,"is_disabled":false,"rental_uris":{"android":"levelo://app?vid=45dace48-5d9e-414a-aee9-935c52f5c12f","ios":"levelo://app?vid=45dace48-5d9e-414a-aee9-935c52f5c12f"},"vehicle_type_id":"4","last_reported":1720203021,"current_range_meters":2800,"station_id":"ce4bh2h2rcd13ifvqdh0","pricing_plan_id":"cebpf4jnsgd1na2vs0mg"},{"bike_id":"5e36ff0a-df92-4b47-b2e1-50f385fd4398","system_id":"levelo_inurba_marseille","lat":43.289184,"lon":5.366408,"is_reserved":false,"is_disabled":false,"rental_uris":{"android":"levelo://app?vid=5e36ff0a-df92-4b47-b2e1-50f385fd4398","ios":"levelo://app?vid=5e36ff0a-df92-4b47-b2e1-50f385fd4398"},"vehicle_type_id":"4","last_reported":1720203021,"current_range_meters":31200,"station_id":"ce4bhap2rcd13ifvqek0","pricing_plan_id":"cebpf4jnsgd1na2vs0mg"},{"bike_id":"29934268-1db6-4624-8686-323114423cef","system_id":"levelo_inurba_marseille","lat":43.289184,"lon":5.366408,"is_reserved":false,"is_disabled":false,"rental_uris":{"android":"levelo://app?vid=29934268-1db6-4624-8686-323114423cef","ios":"levelo://app?vid=29934268-1db6-4624-8686-323114423cef"},"vehicle_type_id":"4","last_reported":1720203021,"current_range_meters":18800,"station_id":"ce4bhap2rcd13ifvqek0","pricing_plan_id":"cebpf4jnsgd1na2vs0mg"},{"bike_id":"92f0fcd4-957b-4e7e-9d77-35398c1b7fdc","system_id":"levelo_inurba_marseille","lat":43.289353,"lon":5.363947,"is_reserved":false,"is_disabled":false,"rental_uris":{"android":"levelo://app?vid=92f0fcd4-957b-4e7e-9d77-35398c1b7fdc","ios":"levelo://app?vid=92f0fcd4-957b-4e7e-9d77-35398c1b7fdc"},"vehicle_type_id":"4","last_reported":1720203021,"current_range_meters":11200,"station_id":"ce4bhc92rcd13ifvqetg","pricing_plan_id":"cebpf4jnsgd1na2vs0mg"},{"bike_id":"062d2e55-9e35-4af2-b6fd-b2c32a5d5251","system_id":"levelo_inurba_marseille","lat":43.28928,"lon":5.3639,"is_reserved":false,"is_disabled":false,"rental_uris":{"android":"levelo://app?vid=062d2e55-9e35-4af2-b6fd-b2c32a5d5251","ios":"levelo://app?vid=062d2e55-9e35-4af2-b6fd-b2c32a5d5251"},"vehicle_type_id":"4","last_reported":1720203021,"current_range_meters":7600,"station_id":"ce4bhc92rcd13ifvqetg","pricing_plan_id":"cebpf4jnsgd1na2vs0mg"},{"bike_id":"6fb3eb38-ee89-4539-a5bb-f9d7bc92044e","system_id":"levelo_inurba_marseille","lat":43.292644,"lon":5.384257,"is_reserved":false,"is_disabled":false,"rental_uris":{"android":"levelo://app?vid=6fb3eb38-ee89-4539-a5bb-f9d7bc92044e","ios":"levelo://app?vid=6fb3eb38-ee89-4539-a5bb-f9d7bc92044e"},"vehicle_type_id":"4","last_reported":1720203021,"current_range_meters":30000,"station_id":"ce4bh692rcd13ifvqea0","pricing_plan_id":"cebpf4jnsgd1na2vs0mg"},