{"last_updated":1781299833,"ttl":60,"version":"2.2","data":{"bikes":[{"bike_id":"ec12d144-24c8-4071-abf6-197e520eae96","system_id":"levelo_inurba_marseille","lat":43.337444,"lon":5.374475,"is_reserved":false,"is_disabled":false,"rental_uris":{"android":"levelo://app?vid=ec12d144-24c8-4071-abf6-197e520eae96","ios":"levelo://app?vid=ec12d144-24c8-4071-abf6-197e520eae96"},"vehicle_type_id":"4","last_reported":1781299834,"current_range_meters":0,"station_id":"","pricing_plan_id":"cebpf4jnsgd1na2vs0mg"},{"bike_id":"0a743a51-5728-422c-8a96-f69476a8f4cb","system_id":"levelo_inurba_marseille","lat":43.27595,"lon":5.36113,"is_reserved":false,"is_disabled":true,"rental_uris":{"android":"levelo://app?vid=0a743a51-5728-422c-8a96-f69476a8f4cb","ios":"levelo://app?vid=0a743a51-5728-422c-8a96-f69476a8f4cb"},"vehicle_type_id":"4","last_reported":1781299834,"current_range_meters":2800,"station_id":"ce4bgj92rcd13ifvqbe0","pricing_plan_id":"cebpf4jnsgd1na2vs0mg"},{"bike_id":"dccb06a0-5e81-432f-97b1-84f02191dc5c","system_id":"levelo_inurba_marseille","lat":43.290853,"lon":5.381409,"is_reserved":false,"is_disabled":false,"rental_uris":{"android":"levelo://app?vid=dccb06a0-5e81-432f-97b1-84f02191dc5c","ios":"levelo://app?vid=dccb06a0-5e81-432f-97b1-84f02191dc5c"},"vehicle_type_id":"4","last_reported":1781299834,"current_range_meters":2800,"station_id":"ce4bh512rcd13ifvqe2g","pricing_plan_id":"cebpf4jnsgd1na2vs0mg"},{"bike_id":"2e41d0d3-9e86-4c08-89a6-e0a70cc8ae89","system_id":"levelo_inurba_marseille","lat":43.29248,"lon":5.38251,"is_reserved":false,"is_disabled":true,"rental_uris":{"android":"levelo://app?vid=2e41d0d3-9e86-4c08-89a6-e0a70cc8ae89","ios":"levelo://app?vid=2e41d0d3-9e86-4c08-89a6-e0a70cc8ae89"},"vehicle_type_id":"4","last_reported":1781299834,"current_range_meters":2800,"station_id":"","pricing_plan_id":"cebpf4jnsgd1na2vs0mg"},{"bike_id":"41efe1ca-29c6-43c8-a63b-61a200f151ca","system_id":"levelo_inurba_marseille","lat":43.26005,"lon":5.37561,"is_reserved":false,"is_disabled":false,"rental_uris":{"android":"levelo://app?vid=41efe1ca-29c6-43c8-a63b-61a200f151ca","ios":"levelo://app?vid=41efe1ca-29c6-43c8-a63b-61a200f151ca"},"vehicle_type_id":"4","last_reported":1781299834,"current_range_meters":2800,"station_id":"ce4bhgh2rcd13ifvqfa0","pricing_plan_id":"cebpf4jnsgd1na2vs0mg"},{"bike_id":"3e28917f-12dd-4b37-af94-6f348c8b7c68","system_id":"levelo_inurba_marseille","lat":43.25581,"lon":5.38226,"is_reserved":false,"is_disabled":true,"rental_uris":{"android":"levelo://app?vid=3e28917f-12dd-4b37-af94-6f348c8b7c68","ios":"levelo://app?vid=3e28917f-12dd-4b37-af94-6f348c8b7c68"},"vehicle_type_id":"4","last_reported":1781299834,"current_range_meters":2800,"station_id":"ce4bhih2rcd13ifvqfs0","pricing_plan_id":"cebpf4jnsgd1na2vs0mg"},{"bike_id":"1c292faa-dcbd-42d9-a41d-1d23c22b5c4a","system_id":"levelo_inurba_marseille","lat":43.28685,"lon":5.38656,"is_reserved":false,"is_disabled":false,"rental_uris":{"android":"levelo://app?vid=1c292faa-dcbd-42d9-a41d-1d23c22b5c4a","ios":"levelo://app?vid=1c292faa-dcbd-42d9-a41d-1d23c22b5c4a"},"vehicle_type_id":"4","last_reported":1781299834,"current_range_meters":2800,"station_id":"ce4bh492rcd13ifvqdug","pricing_plan_id":"cebpf4jnsgd1na2vs0mg"},{"bike_id":"5ac28b06-af05-4d8b-a509-2f5043908588","system_id":"levelo_inurba_marseille","lat":43.23427,"lon":5.3686,"is_reserved":false,"is_disabled":false,"rental_uris":{"android":"levelo://app?vid=5ac28b06-af05-4d8b-a509-2f5043908588","ios":"levelo://app?vid=5ac28b06-af05-4d8b-a509-2f5043908588"},"vehicle_type_id":"4","last_reported":1781299834,"current_range_meters":2800,"station_id":"","pricing_plan_id":"cebpf4jnsgd1na2vs0mg"},{"bike_id":"17be60fe-ff7f-4ced-b2c5-f100be112574","system_id":"levelo_inurba_marseille","lat":43.31363,"lon":5.3851,"is_reserved":false,"is_disabled":true,"rental_uris":{"android":"levelo://app?vid=17be60fe-ff7f-4ced-b2c5-f100be112574","ios":"levelo://app?vid=17be60fe-ff7f-4ced-b2c5-f100be112574"},"vehicle_type_id":"4","last_reported":1781299834,"current_range_meters":2800,"station_id":"ce4bgt92rcd13ifvqcf0","pricing_plan_id":"cebpf4jnsgd1na2vs0mg"},{"bike_id":"dd8f2fa1-b5da-4cef-87c9-29d3b1051138","system_id":"levelo_inurba_marseille","lat":43.25644,"lon":5.42746,"is_reserved":false,"is_disabled":false,"rental_uris":{"android":"levelo://app?vid=dd8f2fa1-b5da-4cef-87c9-29d3b1051138","ios":"levelo://app?vid=dd8f2fa1-b5da-4cef-87c9-29d3b1051138"},"vehicle_type_id":"4","last_reported":1781299834,"current_range_meters":2800,"station_id":"","pricing_plan_id":"cebpf4jnsgd1na2vs0mg"},{"bike_id":"a7035cfa-2cad-4a3c-b6b7-082bb42a565d","system_id":"levelo_inurba_marseille","lat":43.2407,"lon":5.37803,"is_reserved":false,"is_disabled":false,"rental_uris":{"android":"levelo://app?vid=a7035cfa-2cad-4a3c-b6b7-082bb42a565d","ios":"levelo://app?vid=a7035cfa-2cad-4a3c-b6b7-082bb42a565d"},"vehicle_type_id":"4","last_reported":1781299834,"current_range_meters":2800,"station_id":"ce4bhnp2rcd13ifvqgvg","pricing_plan_id":"cebpf4jnsgd1na2vs0mg"},{"bike_id":"758b8575-bd39-4c4b-83ba-b708bb22f91d","system_id":"levelo_inurba_marseille","lat":43.27553,"lon":5.35932,"is_reserved":false,"is_disabled":false,"rental_uris":{"android":"levelo://app?vid=758b8575-bd39-4c4b-83ba-b708bb22f91d","ios":"levelo://app?vid=758b8575-bd39-4c4b-83ba-b708bb22f91d"},"vehicle_type_id":"4","last_reported":1781299834,"current_range_meters":2800,"station_id":"","pricing_plan_id":"cebpf4jnsgd1na2vs0mg"},{"bike_id":"4804a152-3c28-4559-af87-113cd26d6b42","system_id":"levelo_inurba_marseille","lat":43.25866,"lon":5.39896,"is_reserved":false,"is_disabled":false,"rental_uris":{"android":"levelo://app?vid=4804a152-3c28-4559-af87-113cd26d6b42","ios":"levelo://app?vid=4804a152-3c28-4559-af87-113cd26d6b42"},"vehicle_type_id":"4","last_reported":1781299834,"current_range_meters":2800,"station_id":"ce4bhl92rcd13ifvqghg","pricing_plan_id":"cebpf4jnsgd1na2vs0mg"},{"bike_id":"2dba0215-4226-47f6-9fdc-f5f75e518697","system_id":"levelo_inurba_marseille","lat":43.30794,"lon":5.38161,"is_reserved":false,"is_disabled":false,"rental_uris":{"android":"levelo://app?vid=2dba0215-4226-47f6-9fdc-f5f75e518697","ios":"levelo://app?vid=2dba0215-4226-47f6-9fdc-f5f75e518697"},"vehicle_type_id":"4","last_reported":1781299834,"current_range_meters":2800,"station_id":"ce4bgt12rcd13ifvqce0","pricing_plan_id":"cebpf4jnsgd1na2vs0mg"},{"bike_id":"066ec19d-154d-4909-9502-89e55ce9ec5c","system_id":"levelo_inurba_marseille","lat":43.3079,"lon":5.37645,"is_reserved":false,"is_disabled":false,"rental_uris":{"android":"levelo://app?vid=066ec19d-154d-4909-9502-89e55ce9ec5c","ios":"levelo://app?vid=066ec19d-154d-4909-9502-89e55ce9ec5c"},"vehicle_type_id":"4","last_reported":1781299834,"current_range_meters":2800,"station_id":"ce4bgv92rcd13ifvqcq0","pricing_plan_id":"cebpf4jnsgd1na2vs0mg"},{"bike_id":"4b38708e-8c44-4734-ab91-a02bd4a8b6e1","system_id":"levelo_inurba_marseille","lat":43.25495,"lon":5.37644,"is_reserved":false,"is_disabled":false,"rental_uris":{"android":"levelo://app?vid=4b38708e-8c44-4734-ab91-a02bd4a8b6e1","ios":"levelo://app?vid=4b38708e-8c44-4734-ab91-a02bd4a8b6e1"},"vehicle_type_id":"4","last_reported":1781299834,"current_range_meters":2800,"station_id":"ce4bhh12rcd13ifvqff0","pricing_plan_id":"cebpf4jnsgd1na2vs0mg"},{"bike_id":"b867be92-d2f0-4542-9e90-9b0ff4cf1450","system_id":"levelo_inurba_marseille","lat":43.30467,"lon":5.38896,"is_reserved":false,"is_disabled":false,"rental_uris":{"android":"levelo://app?vid=b867be92-d2f0-4542-9e90-9b0ff4cf1450","ios":"levelo://app?vid=b867be92-d2f0-4542-9e90-9b0ff4cf1450"},"vehicle_type_id":"4","last_reported":1781299834,"current_range_meters":2800,"station_id":"ce4bgk12rcd13ifvqbi0","pricing_plan_id":"cebpf4jnsgd1na2vs0mg"},{"bike_id":"6a90b927-7ed5-426c-9899-503608b1a8f3","system_id":"levelo_inurba_marseille","lat":43.29885,"lon":5.38914,"is_reserved":false,"is_disabled":false,"rental_uris":{"android":"levelo://app?vid=6a90b927-7ed5-426c-9899-503608b1a8f3","ios":"levelo://app?vid=6a90b927-7ed5-426c-9899-503608b1a8f3"},"vehicle_type_id":"4","last_reported":1781299834,"current_range_meters":2800,"station_id":"ce4bh392rcd13ifvqdl0","pricing_plan_id":"cebpf4jnsgd1na2vs0mg"},{"bike_id":"5098746b-9855-4736-a211-400f61449f55","system_id":"levelo_inurba_marseille","lat":43.30115,"lon":5.38769,"is_reserved":false,"is_disabled":false,"rental_uris":{"android":"levelo://app?vid=5098746b-9855-4736-a211-400f61449f55","ios":"levelo://app?vid=5098746b-9855-4736-a211-400f61449f55"},"vehicle_type_id":"4","last_reported":1781299834,"current_range_meters":2800,"station_id":"ce4bghh2rcd13ifvqb60","pricing_plan_id":"cebpf4jnsgd1na2vs0mg"},{"bike_id":"e2df3f0e-59c0-4110-9b3e-0024e7d22518","system_id":"levelo_inurba_marseille","lat":43.26008,"lon":5.37553,"is_reserved":false,"is_disabled":false,"rental_uris":{"android":"levelo://app?vid=e2df3f0e-59c0-4110-9b3e-0024e7d22518","ios":"levelo://app?vid=e2df3f0e-59c0-4110-9b3e-0024e7d22518"},"vehicle_type_id":"4","last_reported":1781299834,"current_range_meters":2800,"station_id":"ce4bhgh2rcd13ifvqfa0","pricing_plan_id":"cebpf4jnsgd1na2vs0mg"},{"bike_id":"f0fd0361-f31f-49cf-b700-8653d29b5d8e","system_id":"levelo_inurba_marseille","lat":43.24716,"lon":5.37573,"is_reserved":false,"is_disabled":false,"rental_uris":{"android":"levelo://app?vid=f0fd0361-f31f-49cf-b700-8653d29b5d8e","ios":"levelo://app?vid=f0fd0361-f31f-49cf-b700-8653d29b5d8e"},"vehicle_type_id":"4","last_reported":1781299834,"current_range_meters":2800,"station_id":"","pricing_plan_id":"cebpf4jnsgd1na2vs0mg"},{"bike_id":"52697234-3681-4587-bd5b-b5458c1b2c6c","system_id":"levelo_inurba_marseille","lat":43.23192,"lon":5.35558,"is_reserved":false,"is_disabled":false,"rental_uris":{"android":"levelo://app?vid=52697234-3681-4587-bd5b-b5458c1b2c6c","ios":"levelo://app?vid=52697234-3681-4587-bd5b-b5458c1b2c6c"},"vehicle_type_id":"4","last_reported":1781299834,"current_range_meters":2800,"station_id":"ce4bhu92rcd13ifvqi70","pricing_plan_id":"cebpf4jnsgd1na2vs0mg"},{"bike_id":"8682f4e8-0798-4b4f-8fef-c4dc002ea1c8","system_id":"levelo_inurba_marseille","lat":43.29133,"lon":5.46115,"is_reserved":false,"is_disabled":false,"rental_uris":{"android":"levelo://app?vid=8682f4e8-0798-4b4f-8fef-c4dc002ea1c8","ios":"levelo://app?vid=8682f4e8-0798-4b4f-8fef-c4dc002ea1c8"},"vehicle_type_id":"4","last_reported":1781299834,"current_range_meters":2800,"station_id":"","pricing_plan_id":"cebpf4jnsgd1na2vs0mg"},{"bike_id":"75248494-6e46-4c4b-92d2-9db9ddbe9016","system_id":"levelo_inurba_marseille","lat":43.28477,"lon":5.48407,"is_reserved":false,"is_disabled":false,"rental_uris":{"android":"levelo://app?vid=75248494-6e46-4c4b-92d2-9db9ddbe9016","ios":"levelo://app?vid=75248494-6e46-4c4b-92d2-9db9ddbe9016"},"vehicle_type_id":"4","last_reported":1781299834,"current_range_meters":2800,"station_id":"st_d3svhcjqgbts73a3dn0g","pricing_plan_id":"cebpf4jnsgd1na2vs0mg"},{"bike_id":"02779e87-7950-4b3e-a0cb-69ad55469255","system_id":"levelo_inurba_marseille","lat":43.30902,"lon":5.38311,"is_reserved":false,"is_disabled":false,"rental_uris":{"android":"levelo://app?vid=02779e87-7950-4b3e-a0cb-69ad55469255","ios":"levelo://app?vid=02779e87-7950-4b3e-a0cb-69ad55469255"},"vehicle_type_id":"4","last_reported":1781299834,"current_range_meters":2800,"station_id":"","pricing_plan_id":"cebpf4jnsgd1na2vs0mg"},{"bike_id":"cd8b17dc-13e9-44b6-a2ec-022494a29a28","system_id":"levelo_inurba_marseille","lat":43.28347,"lon":5.38096,"is_reserved":false,"is_disabled":false,"rental_uris":{"android":"levelo://app?vid=cd8b17dc-13e9-44b6-a2ec-022494a29a28","ios":"levelo://app?vid=cd8b17dc-13e9-44b6-a2ec-022494a29a28"},"vehicle_type_id":"4","last_reported":1781299834,"current_range_meters":2800,"station_id":"ce4bh412rcd13ifvqdr0","pricing_plan_id":"cebpf4jnsgd1na2vs0mg"},{"bike_id":"f3413c8d-80a6-4129-9004-b88c5c896006","system_id":"levelo_inurba_marseille","lat":43.28888,"lon":5.42574,"is_reserved":false,"is_disabled":false,"rental_uris":{"android":"levelo://app?vid=f3413c8d-80a6-4129-9004-b88c5c896006","ios":"levelo://app?vid=f3413c8d-80a6-4129-9004-b88c5c896006"},"vehicle_type_id":"4","last_reported":1781299834,"current_range_meters":2800,"station_id":"","pricing_plan_id":"cebpf4jnsgd1na2vs0mg"},{"bike_id":"dbcda9ae-c30a-47f2-91a8-8dac9b33d85e","system_id":"levelo_inurba_marseille","lat":43.28004,"lon":5.36091,"is_reserved":false,"is_disabled":false,"rental_uris":{"android":"levelo://app?vid=dbcda9ae-c30a-47f2-91a8-8dac9b33d85e","ios":"levelo://app?vid=dbcda9ae-c30a-47f2-91a8-8dac9b33d85e"},"vehicle_type_id":"4","last_reported":1781299834,"current_range_meters":2800,"station_id":"","pricing_plan_id":"cebpf4jnsgd1na2vs0mg"},{"bike_id":"40877921-cf64-4231-b6a7-7f65220da3fe","system_id":"levelo_inurba_marseille","lat":43.296022,"lon":5.381013,"is_reserved":false,"is_disabled":true,"rental_uris":{"android":"levelo://app?vid=40877921-cf64-4231-b6a7-7f65220da3fe","ios":"levelo://app?vid=40877921-cf64-4231-b6a7-7f65220da3fe"},"vehicle_type_id":"4","last_reported":1781299834,"current_range_meters":3200,"station_id":"ce4bgl12rcd13ifvqbo0","pricing_plan_id":"cebpf4jnsgd1na2vs0mg"},{"bike_id":"1962cd80-1948-45bd-a5c0-ff35fc23ed03","system_id":"levelo_inurba_marseille","lat":43.28485,"lon":5.38457,"is_reserved":false,"is_disabled":true,"rental_uris":{"android":"levelo://app?vid=1962cd80-1948-45bd-a5c0-ff35fc23ed03","ios":"levelo://app?vid=1962cd80-1948-45bd-a5c0-ff35fc23ed03"},"vehicle_type_id":"4","last_reported":1781299834,"current_range_meters":3200,"station_id":"ce4bh512rcd13ifvqe3g","pricing_plan_id":"cebpf4jnsgd1na2vs0mg"},{"bike_id":"239a30fe-cd34-49d1-acfd-e50769cf345f","system_id":"levelo_inurba_marseille","lat":43.29963,"lon":5.38504,"is_reserved":false,"is_disabled":false,"rental_uris":{"android":"levelo://app?vid=239a30fe-cd34-49d1-acfd-e50769cf345f","ios":"levelo://app?vid=239a30fe-cd34-49d1-acfd-e50769cf345f"},"vehicle_type_id":"4","last_reported":1781299834,"current_range_meters":3200,"station_id":"ce4bgj92rcd13ifvqbd0","pricing_plan_id":"cebpf4jnsgd1na2vs0mg"},{"bike_id":"f6f4f86c-9b37-4ce7-9093-9ca625094014","system_id":"levelo_inurba_marseille","lat":43.28825,"lon":5.42515,"is_reserved":false,"is_disabled":false,"rental_uris":{"android":"levelo://app?vid=f6f4f86c-9b37-4ce7-9093-9ca625094014","ios":"levelo://app?vid=f6f4f86c-9b37-4ce7-9093-9ca625094014"},"vehicle_type_id":"4","last_reported":1781299834,"current_range_meters":3200,"station_id":"st_d3b462108ojc7389ooeg","pricing_plan_id":"cebpf4jnsgd1na2vs0mg"},{"bike_id":"e84f0a26-583e-4543-9e3a-044b59f61374","system_id":"levelo_inurba_marseille","lat":43.286323,"lon":5.384546,"is_reserved":false,"is_disabled":false,"rental_uris":{"android":"levelo://app?vid=e84f0a26-583e-4543-9e3a-044b59f61374","ios":"levelo://app?vid=e84f0a26-583e-4543-9e3a-044b59f61374"},"vehicle_type_id":"4","last_reported":1781299834,"current_range_meters":3200,"station_id":"ce4bh4p2rcd13ifvqe1g","pricing_plan_id":"cebpf4jnsgd1na2vs0mg"},{"bike_id":"82e40a8e-6a39-46e2-aa69-66c475f3eb1b","system_id":"levelo_inurba_marseille","lat":43.30457,"lon":5.3898,"is_reserved":false,"is_disabled":false,"rental_uris":{"android":"levelo://app?vid=82e40a8e-6a39-46e2-aa69-66c475f3eb1b","ios":"levelo://app?vid=82e40a8e-6a39-46e2-aa69-66c475f3eb1b"},"vehicle_type_id":"4","last_reported":1781299834,"current_range_meters":3200,"station_id":"","pricing_plan_id":"cebpf4jnsgd1na2vs0mg"},{"bike_id":"2b93ae1e-aed2-4f09-a1d5-207d27d2dd0d","system_id":"levelo_inurba_marseille","lat":43.24512,"lon":5.42539,"is_reserved":false,"is_disabled":false,"rental_uris":{"android":"levelo://app?vid=2b93ae1e-aed2-4f09-a1d5-207d27d2dd0d","ios":"levelo://app?vid=2b93ae1e-aed2-4f09-a1d5-207d27d2dd0d"},"vehicle_type_id":"4","last_reported":1781299834,"current_range_meters":3200,"station_id":"","pricing_plan_id":"cebpf4jnsgd1na2vs0mg"},{"bike_id":"7c307ebc-aea8-4c74-801b-203d11055b3c","system_id":"levelo_inurba_marseille","lat":43.29912,"lon":5.42743,"is_reserved":false,"is_disabled":false,"rental_uris":{"android":"levelo://app?vid=7c307ebc-aea8-4c74-801b-203d11055b3c","ios":"levelo://app?vid=7c307ebc-aea8-4c74-801b-203d11055b3c"},"vehicle_type_id":"4","last_reported":1781299834,"current_range_meters":3200,"station_id":"","pricing_plan_id":"cebpf4jnsgd1na2vs0mg"},{"bike_id":"0a247f79-5c46-4ba8-b4e6-ff79bedb3de0","system_id":"levelo_inurba_marseille","lat":43.28633,"lon":5.35065,"is_reserved":false,"is_disabled":false,"rental_uris":{"android":"levelo://app?vid=0a247f79-5c46-4ba8-b4e6-ff79bedb3de0","ios":"levelo://app?vid=0a247f79-5c46-4ba8-b4e6-ff79bedb3de0"},"vehicle_type_id":"4","last_reported":1781299834,"current_range_meters":3200,"station_id":"ce4bhch2rcd13ifvqeug","pricing_plan_id":"cebpf4jnsgd1na2vs0mg"},{"bike_id":"2fe78ccb-070f-432a-a7e8-216efa06d701","system_id":"levelo_inurba_marseille","lat":43.28578,"lon":5.42983,"is_reserved":false,"is_disabled":false,"rental_uris":{"android":"levelo://app?vid=2fe78ccb-070f-432a-a7e8-216efa06d701","ios":"levelo://app?vid=2fe78ccb-070f-432a-a7e8-216efa06d701"},"vehicle_type_id":"4","last_reported":1781299834,"current_range_meters":3200,"station_id":"","pricing_plan_id":"cebpf4jnsgd1na2vs0mg"},{"bike_id":"86c4a8a0-4481-46af-a8ff-11939b8290bd","system_id":"levelo_inurba_marseille","lat":43.30889,"lon":5.39626,"is_reserved":false,"is_disabled":false,"rental_uris":{"android":"levelo://app?vid=86c4a8a0-4481-46af-a8ff-11939b8290bd","ios":"levelo://app?vid=86c4a8a0-4481-46af-a8ff-11939b8290bd"},"vehicle_type_id":"4","last_reported":1781299834,"current_range_meters":3200,"station_id":"ce4bh012rcd13ifvqcv0","pricing_plan_id":"cebpf4jnsgd1na2vs0mg"},{"bike_id":"f38cb6bf-5ab7-4909-948e-1247ce4f72c7","system_id":"levelo_inurba_marseille","lat":43.32655,"lon":5.40999,"is_reserved":false,"is_disabled":false,"rental_uris":{"android":"levelo://app?vid=f38cb6bf-5ab7-4909-948e-1247ce4f72c7","ios":"levelo://app?vid=f38cb6bf-5ab7-4909-948e-1247ce4f72c7"},"vehicle_type_id":"4","last_reported":1781299834,"current_range_meters":3200,"station_id":"ce4bhpp2rcd13ifvqhgg","pricing_plan_id":"cebpf4jnsgd1na2vs0mg"},{"bike_id":"605717e0-7d1c-47d4-b87e-7c92ca7ecf76","system_id":"levelo_inurba_marseille","lat":43.295156,"lon":5.374982,"is_reserved":false,"is_disabled":false,"rental_uris":{"android":"levelo://app?vid=605717e0-7d1c-47d4-b87e-7c92ca7ecf76","ios":"levelo://app?vid=605717e0-7d1c-47d4-b87e-7c92ca7ecf76"},"vehicle_type_id":"4","last_reported":1781299834,"current_range_meters":3200,"station_id":"ce4bgkp2rcd13ifvqbmg","pricing_plan_id":"cebpf4jnsgd1na2vs0mg"},{"bike_id":"26ec08c6-0088-4574-b89f-579ba5665af6","system_id":"levelo_inurba_marseille","lat":43.26653,"lon":5.38249,"is_reserved":false,"is_disabled":false,"rental_uris":{"android":"levelo://app?vid=26ec08c6-0088-4574-b89f-579ba5665af6","ios":"levelo://app?vid=26ec08c6-0088-4574-b89f-579ba5665af6"},"vehicle_type_id":"4","last_reported":1781299834,"current_range_meters":3200,"station_id":"ce4bhg92rcd13ifvqf90","pricing_plan_id":"cebpf4jnsgd1na2vs0mg"},{"bike_id":"cfca987a-456e-47df-a095-b63382c88e43","system_id":"levelo_inurba_marseille","lat":43.2319,"lon":5.3556,"is_reserved":false,"is_disabled":false,"rental_uris":{"android":"levelo://app?vid=cfca987a-456e-47df-a095-b63382c88e43","ios":"levelo://app?vid=cfca987a-456e-47df-a095-b63382c88e43"},"vehicle_type_id":"4","last_reported":1781299834,"current_range_meters":3600,"station_id":"ce4bhu92rcd13ifvqi70","pricing_plan_id":"cebpf4jnsgd1na2vs0mg"},{"bike_id":"2a192182-021b-439d-a0e2-993561972500","system_id":"levelo_inurba_marseille","lat":43.225345,"lon":5.348271,"is_reserved":false,"is_disabled":false,"rental_uris":{"android":"levelo://app?vid=2a192182-021b-439d-a0e2-993561972500","ios":"levelo://app?vid=2a192182-021b-439d-a0e2-993561972500"},"vehicle_type_id":"4","last_reported":1781299834,"current_range_meters":3600,"station_id":"st_cvj5dfep6f1abm77gieg","pricing_plan_id":"cebpf4jnsgd1na2vs0mg"},{"bike_id":"f8898cc9-67a1-4132-9631-2e0811c72bb5","system_id":"levelo_inurba_marseille","lat":43.303093,"lon":5.368942,"is_reserved":false,"is_disabled":false,"rental_uris":{"android":"levelo://app?vid=f8898cc9-67a1-4132-9631-2e0811c72bb5","ios":"levelo://app?vid=f8898cc9-67a1-4132-9631-2e0811c72bb5"},"vehicle_type_id":"4","last_reported":1781299834,"current_range_meters":3600,"station_id":"ce4bgqh2rcd13ifvqc5g","pricing_plan_id":"cebpf4jnsgd1na2vs0mg"},{"bike_id":"3643eb2e-b0e4-40f6-9aa2-b567c4963540","system_id":"levelo_inurba_marseille","lat":43.32108,"lon":5.36774,"is_reserved":false,"is_disabled":false,"rental_uris":{"android":"levelo://app?vid=3643eb2e-b0e4-40f6-9aa2-b567c4963540","ios":"levelo://app?vid=3643eb2e-b0e4-40f6-9aa2-b567c4963540"},"vehicle_type_id":"4","last_reported":1781299834,"current_range_meters":3600,"station_id":"ce4bhrh2rcd13ifvqhug","pricing_plan_id":"cebpf4jnsgd1na2vs0mg"},{"bike_id":"a7a78944-2850-4617-8e00-c4566d107d50","system_id":"levelo_inurba_marseille","lat":43.24812,"lon":5.37465,"is_reserved":false,"is_disabled":false,"rental_uris":{"android":"levelo://app?vid=a7a78944-2850-4617-8e00-c4566d107d50","ios":"levelo://app?vid=a7a78944-2850-4617-8e00-c4566d107d50"},"vehicle_type_id":"4","last_reported":1781299834,"current_range_meters":3600,"station_id":"","pricing_plan_id":"cebpf4jnsgd1na2vs0mg"},{"bike_id":"f63e0e69-6a54-4e19-8d8e-f67680de3ed1","system_id":"levelo_inurba_marseille","lat":43.24641,"lon":5.43121,"is_reserved":false,"is_disabled":false,"rental_uris":{"android":"levelo://app?vid=f63e0e69-6a54-4e19-8d8e-f67680de3ed1","ios":"levelo://app?vid=f63e0e69-6a54-4e19-8d8e-f67680de3ed1"},"vehicle_type_id":"4","last_reported":1781299834,"current_range_meters":3600,"station_id":"st_d2m6c4gdas8pm72e190g","pricing_plan_id":"cebpf4jnsgd1na2vs0mg"},{"bike_id":"72e28c7d-c30c-468a-b74f-1d191c2b7052","system_id":"levelo_inurba_marseille","lat":43.26924,"lon":5.38921,"is_reserved":false,"is_disabled":false,"rental_uris":{"android":"levelo://app?vid=72e28c7d-c30c-468a-b74f-1d191c2b7052","ios":"levelo://app?vid=72e28c7d-c30c-468a-b74f-1d191c2b7052"},"vehicle_type_id":"4","last_reported":1781299834,"current_range_meters":3600,"station_id":"ce4bhhh2rcd13ifvqfl0","pricing_plan_id":"cebpf4jnsgd1na2vs0mg"},{"bike_id":"2fbb1fdb-9e7f-4dc5-9b8b-1fa554a63a9f","system_id":"levelo_inurba_marseille","lat":43.28404,"lon":5.37501,"is_reserved":false,"is_disabled":false,"rental_uris":{"android":"levelo://app?vid=2fbb1fdb-9e7f-4dc5-9b8b-1fa554a63a9f","ios":"levelo://app?vid=2fbb1fdb-9e7f-4dc5-9b8b-1fa554a63a9f"},"vehicle_type_id":"4","last_reported":1781299834,"current_range_meters":3600,"station_id":"ce4bh412rcd13ifvqds0","pricing_plan_id":"cebpf4jnsgd1na2vs0mg"},{"bike_id":"33a1a386-28f7-4609-9d27-bd64514cf74f","system_id":"levelo_inurba_marseille","lat":43.2535,"lon":5.42595,"is_reserved":false,"is_disabled":false,"rental_uris":{"android":"levelo://app?vid=33a1a386-28f7-4609-9d27-bd64514cf74f","ios":"levelo://app?vid=33a1a386-28f7-4609-9d27-bd64514cf74f"},"vehicle_type_id":"4","last_reported":1781299834,"current_range_meters":3600,"station_id":"","pricing_plan_id":"cebpf4jnsgd1na2vs0mg"},{"bike_id":"e68fddf3-c826-4b80-8260-df958ad54400","system_id":"levelo_inurba_marseille","lat":43.26393,"lon":5.37824,"is_reserved":false,"is_disabled":false,"rental_uris":{"android":"levelo://app?vid=e68fddf3-c826-4b80-8260-df958ad54400","ios":"levelo://app?vid=e68fddf3-c826-4b80-8260-df958ad54400"},"vehicle_type_id":"4","last_reported":1781299834,"current_range_meters":3600,"station_id":"st_d163nis0mtpqnht9uue0","pricing_plan_id":"cebpf4jnsgd1na2vs0mg"},{"bike_id":"62ee6083-8197-4e28-a3ed-a84ebe7f92b2","system_id":"levelo_inurba_marseille","lat":43.29272,"lon":5.38449,"is_reserved":false,"is_disabled":false,"rental_uris":{"android":"levelo://app?vid=62ee6083-8197-4e28-a3ed-a84ebe7f92b2","ios":"levelo://app?vid=62ee6083-8197-4e28-a3ed-a84ebe7f92b2"},"vehicle_type_id":"4","last_reported":1781299834,"current_range_meters":3600,"station_id":"","pricing_plan_id":"cebpf4jnsgd1na2vs0mg"},{"bike_id":"f1a562e5-8cff-449a-bdbb-a7b0c70c969e","system_id":"levelo_inurba_marseille","lat":43.29028,"lon":5.38126,"is_reserved":false,"is_disabled":true,"rental_uris":{"android":"levelo://app?vid=f1a562e5-8cff-449a-bdbb-a7b0c70c969e","ios":"levelo://app?vid=f1a562e5-8cff-449a-bdbb-a7b0c70c969e"},"vehicle_type_id":"4","last_reported":1781299834,"current_range_meters":3600,"station_id":"ce4bh4p2rcd13ifvqe1g","pricing_plan_id":"cebpf4jnsgd1na2vs0mg"},{"bike_id":"3922a396-c5f6-4a26-bc3c-50942816827d","system_id":"levelo_inurba_marseille","lat":43.26229,"lon":5.40442,"is_reserved":false,"is_disabled":false,"rental_uris":{"android":"levelo://app?vid=3922a396-c5f6-4a26-bc3c-50942816827d","ios":"levelo://app?vid=3922a396-c5f6-4a26-bc3c-50942816827d"},"vehicle_type_id":"4","last_reported":1781299834,"current_range_meters":3600,"station_id":"ce4bhmh2rcd13ifvqgmg","pricing_plan_id":"cebpf4jnsgd1na2vs0mg"},{"bike_id":"a28af9ef-8e68-4dbd-a47a-47ab54b67600","system_id":"levelo_inurba_marseille","lat":43.28728,"lon":5.36089,"is_reserved":false,"is_disabled":false,"rental_uris":{"android":"levelo://app?vid=a28af9ef-8e68-4dbd-a47a-47ab54b67600","ios":"levelo://app?vid=a28af9ef-8e68-4dbd-a47a-47ab54b67600"},"vehicle_type_id":"4","last_reported":1781299834,"current_range_meters":3600,"station_id":"cki0cbj6b192h4jlfktg","pricing_plan_id":"cebpf4jnsgd1na2vs0mg"},{"bike_id":"91127671-348d-48fa-8e16-debe2eed689f","system_id":"levelo_inurba_marseille","lat":43.27817,"lon":5.3927,"is_reserved":false,"is_disabled":false,"rental_uris":{"android":"levelo://app?vid=91127671-348d-48fa-8e16-debe2eed689f","ios":"levelo://app?vid=91127671-348d-48fa-8e16-debe2eed689f"},"vehicle_type_id":"4","last_reported":1781299834,"current_range_meters":3600,"station_id":"","pricing_plan_id":"cebpf4jnsgd1na2vs0mg"},{"bike_id":"e701585c-89d0-4eaf-8626-265210c3ee56","system_id":"levelo_inurba_marseille","lat":43.2978,"lon":5.38093,"is_reserved":false,"is_disabled":false,"rental_uris":{"android":"levelo://app?vid=e701585c-89d0-4eaf-8626-265210c3ee56","ios":"levelo://app?vid=e701585c-89d0-4eaf-8626-265210c3ee56"},"vehicle_type_id":"4","last_reported":1781299834,"current_range_meters":3600,"station_id":"ce4bgip2rcd13ifvqbb0","pricing_plan_id":"cebpf4jnsgd1na2vs0mg"},{"bike_id":"3a44773b-a64a-45f6-9197-56969bf49878","system_id":"levelo_inurba_marseille","lat":43.29669,"lon":5.3706,"is_reserved":false,"is_disabled":false,"rental_uris":{"android":"levelo://app?vid=3a44773b-a64a-45f6-9197-56969bf49878","ios":"levelo://app?vid=3a44773b-a64a-45f6-9197-56969bf49878"},"vehicle_type_id":"4","last_reported":1781299834,"current_range_meters":3600,"station_id":"","pricing_plan_id":"cebpf4jnsgd1na2vs0mg"},{"bike_id":"bd8e8f33-12b1-4c8d-8011-a25262fca44e","system_id":"levelo_inurba_marseille","lat":43.324898,"lon":5.383017,"is_reserved":false,"is_disabled":false,"rental_uris":{"android":"levelo://app?vid=bd8e8f33-12b1-4c8d-8011-a25262fca44e","ios":"levelo://app?vid=bd8e8f33-12b1-4c8d-8011-a25262fca44e"},"vehicle_type_id":"4","last_reported":1781299834,"current_range_meters":3600,"station_id":"st_d4asgbiv49dc73anf9m0","pricing_plan_id":"cebpf4jnsgd1na2vs0mg"},{"bike_id":"6da9d7b9-df5d-4b67-8801-335c3ab0f33c","system_id":"levelo_inurba_marseille","lat":43.23968,"lon":5.36628,"is_reserved":false,"is_disabled":false,"rental_uris":{"android":"levelo://app?vid=6da9d7b9-df5d-4b67-8801-335c3ab0f33c","ios":"levelo://app?vid=6da9d7b9-df5d-4b67-8801-335c3ab0f33c"},"vehicle_type_id":"4","last_reported":1781299834,"current_range_meters":3600,"station_id":"ce4bhi12rcd13ifvqfp0","pricing_plan_id":"cebpf4jnsgd1na2vs0mg"},{"bike_id":"004b415f-b0f2-44c3-aabf-3bd9683d1147","system_id":"levelo_inurba_marseille","lat":43.26224,"lon":5.38775,"is_reserved":false,"is_disabled":false,"rental_uris":{"android":"levelo://app?vid=004b415f-b0f2-44c3-aabf-3bd9683d1147","ios":"levelo://app?vid=004b415f-b0f2-44c3-aabf-3bd9683d1147"},"vehicle_type_id":"4","last_reported":1781299834,"current_range_meters":3600,"station_id":"st_d8gjfg747rts73coq3b0","pricing_plan_id":"cebpf4jnsgd1na2vs0mg"},{"bike_id":"263da845-97bb-476a-b58b-c1db1ba25e78","system_id":"levelo_inurba_marseille","lat":43.28702,"lon":5.40004,"is_reserved":false,"is_disabled":false,"rental_uris":{"android":"levelo://app?vid=263da845-97bb-476a-b58b-c1db1ba25e78","ios":"levelo://app?vid=263da845-97bb-476a-b58b-c1db1ba25e78"},"vehicle_type_id":"4","last_reported":1781299834,"current_range_meters":3600,"station_id":"ce4bho92rcd13ifvqh3g","pricing_plan_id":"cebpf4jnsgd1na2vs0mg"},{"bike_id":"b71af7c2-4d98-4630-86ae-a4a165ba23e9","system_id":"levelo_inurba_marseille","lat":43.28872,"lon":5.37668,"is_reserved":false,"is_disabled":false,"rental_uris":{"android":"levelo://app?vid=b71af7c2-4d98-4630-86ae-a4a165ba23e9","ios":"levelo://app?vid=b71af7c2-4d98-4630-86ae-a4a165ba23e9"},"vehicle_type_id":"4","last_reported":1781299834,"current_range_meters":4000,"station_id":"","pricing_plan_id":"cebpf4jnsgd1na2vs0mg"},{"bike_id":"9a7db7eb-8c9c-4ee4-93d9-c9ef675fea88","system_id":"levelo_inurba_marseille","lat":43.33754,"lon":5.37436,"is_reserved":false,"is_disabled":true,"rental_uris":{"android":"levelo://app?vid=9a7db7eb-8c9c-4ee4-93d9-c9ef675fea88","ios":"levelo://app?vid=9a7db7eb-8c9c-4ee4-93d9-c9ef675fea88"},"vehicle_type_id":"4","last_reported":1781299834,"current_range_meters":4000,"station_id":"","pricing_plan_id":"cebpf4jnsgd1na2vs0mg"},{"bike_id":"bad21f0b-d2fb-41b9-8474-ef247551b4fe","system_id":"levelo_inurba_marseille","lat":43.29604,"lon":5.38093,"is_reserved":false,"is_disabled":false,"rental_uris":{"android":"levelo://app?vid=bad21f0b-d2fb-41b9-8474-ef247551b4fe","ios":"levelo://app?vid=bad21f0b-d2fb-41b9-8474-ef247551b4fe"},"vehicle_type_id":"4","last_reported":1781299834,"current_range_meters":4000,"station_id":"ce4bgl12rcd13ifvqbo0","pricing_plan_id":"cebpf4jnsgd1na2vs0mg"},{"bike_id":"8b6b68f1-e508-4aca-8408-2e25b4d6ced5","system_id":"levelo_inurba_marseille","lat":43.21195,"lon":5.35066,"is_reserved":false,"is_disabled":false,"rental_uris":{"android":"levelo://app?vid=8b6b68f1-e508-4aca-8408-2e25b4d6ced5","ios":"levelo://app?vid=8b6b68f1-e508-4aca-8408-2e25b4d6ced5"},"vehicle_type_id":"4","last_reported":1781299834,"current_range_meters":4000,"station_id":"st_cvj6sg6p6f1abm77japg","pricing_plan_id":"cebpf4jnsgd1na2vs0mg"},{"bike_id":"40de0209-043c-4ed6-84c3-7ac1da5cf58d","system_id":"levelo_inurba_marseille","lat":43.32097,"lon":5.36782,"is_reserved":false,"is_disabled":false,"rental_uris":{"android":"levelo://app?vid=40de0209-043c-4ed6-84c3-7ac1da5cf58d","ios":"levelo://app?vid=40de0209-043c-4ed6-84c3-7ac1da5cf58d"},"vehicle_type_id":"4","last_reported":1781299834,"current_range_meters":4000,"station_id":"ce4bhrh2rcd13ifvqhug","pricing_plan_id":"cebpf4jnsgd1na2vs0mg"},{"bike_id":"7c3c9798-9b75-4378-9f94-0bdd0c17f02c","system_id":"levelo_inurba_marseille","lat":43.2465,"lon":5.38155,"is_reserved":false,"is_disabled":false,"rental_uris":{"android":"levelo://app?vid=7c3c9798-9b75-4378-9f94-0bdd0c17f02c","ios":"levelo://app?vid=7c3c9798-9b75-4378-9f94-0bdd0c17f02c"},"vehicle_type_id":"4","last_reported":1781299834,"current_range_meters":4000,"station_id":"ce4bhih2rcd13ifvqfr0","pricing_plan_id":"cebpf4jnsgd1na2vs0mg"},{"bike_id":"8afeb7a8-b686-4611-8220-2ade2d33c717","system_id":"levelo_inurba_marseille","lat":43.29593,"lon":5.37724,"is_reserved":false,"is_disabled":true,"rental_uris":{"android":"levelo://app?vid=8afeb7a8-b686-4611-8220-2ade2d33c717","ios":"levelo://app?vid=8afeb7a8-b686-4611-8220-2ade2d33c717"},"vehicle_type_id":"4","last_reported":1781299834,"current_range_meters":4000,"station_id":"ce4bgi92rcd13ifvqb90","pricing_plan_id":"cebpf4jnsgd1na2vs0mg"},{"bike_id":"de8dcb65-849b-4904-968d-bdbfba9cb15b","system_id":"levelo_inurba_marseille","lat":43.288388,"lon":5.392995,"is_reserved":false,"is_disabled":false,"rental_uris":{"android":"levelo://app?vid=de8dcb65-849b-4904-968d-bdbfba9cb15b","ios":"levelo://app?vid=de8dcb65-849b-4904-968d-bdbfba9cb15b"},"vehicle_type_id":"4","last_reported":1781299834,"current_range_meters":4000,"station_id":"ce4bh2p2rcd13ifvqdi0","pricing_plan_id":"cebpf4jnsgd1na2vs0mg"},{"bike_id":"b5e5b9f3-bc66-4719-bcc7-6308b8e27554","system_id":"levelo_inurba_marseille","lat":43.26372,"lon":5.37822,"is_reserved":false,"is_disabled":false,"rental_uris":{"android":"levelo://app?vid=b5e5b9f3-bc66-4719-bcc7-6308b8e27554","ios":"levelo://app?vid=b5e5b9f3-bc66-4719-bcc7-6308b8e27554"},"vehicle_type_id":"4","last_reported":1781299834,"current_range_meters":4000,"station_id":"st_d163nis0mtpqnht9uue0","pricing_plan_id":"cebpf4jnsgd1na2vs0mg"},{"bike_id":"12571c13-760e-4e2a-be11-2d718eefc220","system_id":"levelo_inurba_marseille","lat":43.28846,"lon":5.39314,"is_reserved":false,"is_disabled":false,"rental_uris":{"android":"levelo://app?vid=12571c13-760e-4e2a-be11-2d718eefc220","ios":"levelo://app?vid=12571c13-760e-4e2a-be11-2d718eefc220"},"vehicle_type_id":"4","last_reported":1781299834,"current_range_meters":4000,"station_id":"ce4bh2p2rcd13ifvqdi0","pricing_plan_id":"cebpf4jnsgd1na2vs0mg"},{"bike_id":"85b37129-2b92-44e2-810c-1524ae6d0c8b","system_id":"levelo_inurba_marseille","lat":43.30329,"lon":5.40438,"is_reserved":false,"is_disabled":false,"rental_uris":{"android":"levelo://app?vid=85b37129-2b92-44e2-810c-1524ae6d0c8b","ios":"levelo://app?vid=85b37129-2b92-44e2-810c-1524ae6d0c8b"},"vehicle_type_id":"4","last_reported":1781299834,"current_range_meters":4000,"station_id":"ce4bh012rcd13ifvqd10","pricing_plan_id":"cebpf4jnsgd1na2vs0mg"},{"bike_id":"40482385-207e-4d78-af11-fafd6ad8b4df","system_id":"levelo_inurba_marseille","lat":43.2841,"lon":5.37507,"is_reserved":false,"is_disabled":false,"rental_uris":{"android":"levelo://app?vid=40482385-207e-4d78-af11-fafd6ad8b4df","ios":"levelo://app?vid=40482385-207e-4d78-af11-fafd6ad8b4df"},"vehicle_type_id":"4","last_reported":1781299834,"current_range_meters":4000,"station_id":"ce4bh412rcd13ifvqds0","pricing_plan_id":"cebpf4jnsgd1na2vs0mg"},{"bike_id":"b83be4d3-06f4-4b3e-9ba2-a6d47abaf96e","system_id":"levelo_inurba_marseille","lat":43.29271,"lon":5.37622,"is_reserved":false,"is_disabled":true,"rental_uris":{"android":"levelo://app?vid=b83be4d3-06f4-4b3e-9ba2-a6d47abaf96e","ios":"levelo://app?vid=b83be4d3-06f4-4b3e-9ba2-a6d47abaf96e"},"vehicle_type_id":"4","last_reported":1781299834,"current_range_meters":4400,"station_id":"ce4bgi12rcd13ifvqb80","pricing_plan_id":"cebpf4jnsgd1na2vs0mg"},{"bike_id":"a52f777c-8d3c-440b-8fcd-5e393b884b0e","system_id":"levelo_inurba_marseille","lat":43.29247,"lon":5.38455,"is_reserved":false,"is_disabled":false,"rental_uris":{"android":"levelo://app?vid=a52f777c-8d3c-440b-8fcd-5e393b884b0e","ios":"levelo://app?vid=a52f777c-8d3c-440b-8fcd-5e393b884b0e"},"vehicle_type_id":"4","last_reported":1781299834,"current_range_meters":4400,"station_id":"ce4bh692rcd13ifvqea0","pricing_plan_id":"cebpf4jnsgd1na2vs0mg"},{"bike_id":"318c2327-cd61-4b3a-8efa-5ff92eb9038b","system_id":"levelo_inurba_marseille","lat":43.34766,"lon":5.36638,"is_reserved":false,"is_disabled":false,"rental_uris":{"android":"levelo://app?vid=318c2327-cd61-4b3a-8efa-5ff92eb9038b","ios":"levelo://app?vid=318c2327-cd61-4b3a-8efa-5ff92eb9038b"},"vehicle_type_id":"4","last_reported":1781299834,"current_range_meters":4400,"station_id":"","pricing_plan_id":"cebpf4jnsgd1na2vs0mg"},{"bike_id":"d9bbcfa4-a44d-4020-b0df-d2651b3bdf41","system_id":"levelo_inurba_marseille","lat":43.2118,"lon":5.35117,"is_reserved":false,"is_disabled":false,"rental_uris":{"android":"levelo://app?vid=d9bbcfa4-a44d-4020-b0df-d2651b3bdf41","ios":"levelo://app?vid=d9bbcfa4-a44d-4020-b0df-d2651b3bdf41"},"vehicle_type_id":"4","last_reported":1781299834,"current_range_meters":4400,"station_id":"st_cvj6sg6p6f1abm77japg","pricing_plan_id":"cebpf4jnsgd1na2vs0mg"},{"bike_id":"03ed1c88-c162-4cd3-88f1-4f550c76654e","system_id":"levelo_inurba_marseille","lat":43.23754,"lon":5.36614,"is_reserved":false,"is_disabled":false,"rental_uris":{"android":"levelo://app?vid=03ed1c88-c162-4cd3-88f1-4f550c76654e","ios":"levelo://app?vid=03ed1c88-c162-4cd3-88f1-4f550c76654e"},"vehicle_type_id":"4","last_reported":1781299834,"current_range_meters":4400,"station_id":"st_d3nk18o9ro0c73en2l3g","pricing_plan_id":"cebpf4jnsgd1na2vs0mg"},{"bike_id":"66fae40d-083e-4fda-b105-98f5ea4343f9","system_id":"levelo_inurba_marseille","lat":43.26944,"lon":5.38906,"is_reserved":false,"is_disabled":false,"rental_uris":{"android":"levelo://app?vid=66fae40d-083e-4fda-b105-98f5ea4343f9","ios":"levelo://app?vid=66fae40d-083e-4fda-b105-98f5ea4343f9"},"vehicle_type_id":"4","last_reported":1781299834,"current_range_meters":4400,"station_id":"ce4bhhh2rcd13ifvqfl0","pricing_plan_id":"cebpf4jnsgd1na2vs0mg"},{"bike_id":"8bf99202-0aa0-4c45-a06d-a3fa999fbea6","system_id":"levelo_inurba_marseille","lat":43.31104,"lon":5.37156,"is_reserved":false,"is_disabled":true,"rental_uris":{"android":"levelo://app?vid=8bf99202-0aa0-4c45-a06d-a3fa999fbea6","ios":"levelo://app?vid=8bf99202-0aa0-4c45-a06d-a3fa999fbea6"},"vehicle_type_id":"4","last_reported":1781299834,"current_range_meters":4400,"station_id":"","pricing_plan_id":"cebpf4jnsgd1na2vs0mg"},{"bike_id":"f7698676-1932-4dbf-ab9d-6c907c9bbe14","system_id":"levelo_inurba_marseille","lat":43.31886,"lon":5.37143,"is_reserved":false,"is_disabled":false,"rental_uris":{"android":"levelo://app?vid=f7698676-1932-4dbf-ab9d-6c907c9bbe14","ios":"levelo://app?vid=f7698676-1932-4dbf-ab9d-6c907c9bbe14"},"vehicle_type_id":"4","last_reported":1781299834,"current_range_meters":4400,"station_id":"","pricing_plan_id":"cebpf4jnsgd1na2vs0mg"},{"bike_id":"edd7f6cf-c00d-4334-ba4f-ddda86c6a12e","system_id":"levelo_inurba_marseille","lat":43.30263,"lon":5.37694,"is_reserved":false,"is_disabled":false,"rental_uris":{"android":"levelo://app?vid=edd7f6cf-c00d-4334-ba4f-ddda86c6a12e","ios":"levelo://app?vid=edd7f6cf-c00d-4334-ba4f-ddda86c6a12e"},"vehicle_type_id":"4","last_reported":1781299834,"current_range_meters":4400,"station_id":"ce4bguh2rcd13ifvqcj0","pricing_plan_id":"cebpf4jnsgd1na2vs0mg"},{"bike_id":"899fc967-7875-4bbe-9778-4c7d3ea1d62e","system_id":"levelo_inurba_marseille","lat":43.29096,"lon":5.38817,"is_reserved":false,"is_disabled":false,"rental_uris":{"android":"levelo://app?vid=899fc967-7875-4bbe-9778-4c7d3ea1d62e","ios":"levelo://app?vid=899fc967-7875-4bbe-9778-4c7d3ea1d62e"},"vehicle_type_id":"4","last_reported":1781299834,"current_range_meters":4400,"station_id":"","pricing_plan_id":"cebpf4jnsgd1na2vs0mg"},{"bike_id":"a24188e5-5b3d-49b1-ac4b-766450209e73","system_id":"levelo_inurba_marseille","lat":43.23174,"lon":5.3554,"is_reserved":false,"is_disabled":false,"rental_uris":{"android":"levelo://app?vid=a24188e5-5b3d-49b1-ac4b-766450209e73","ios":"levelo://app?vid=a24188e5-5b3d-49b1-ac4b-766450209e73"},"vehicle_type_id":"4","last_reported":1781299834,"current_range_meters":4400,"station_id":"ce4bhu92rcd13ifvqi70","pricing_plan_id":"cebpf4jnsgd1na2vs0mg"},{"bike_id":"1e5f8c48-dce6-462c-9a99-251ea5543707","system_id":"levelo_inurba_marseille","lat":43.25505,"lon":5.37648,"is_reserved":false,"is_disabled":false,"rental_uris":{"android":"levelo://app?vid=1e5f8c48-dce6-462c-9a99-251ea5543707","ios":"levelo://app?vid=1e5f8c48-dce6-462c-9a99-251ea5543707"},"vehicle_type_id":"4","last_reported":1781299834,"current_range_meters":4400,"station_id":"ce4bhh12rcd13ifvqff0","pricing_plan_id":"cebpf4jnsgd1na2vs0mg"},{"bike_id":"a70cc9d0-8c18-4493-8a97-b7df9d495e9b","system_id":"levelo_inurba_marseille","lat":43.25114,"lon":5.40318,"is_reserved":false,"is_disabled":false,"rental_uris":{"android":"levelo://app?vid=a70cc9d0-8c18-4493-8a97-b7df9d495e9b","ios":"levelo://app?vid=a70cc9d0-8c18-4493-8a97-b7df9d495e9b"},"vehicle_type_id":"4","last_reported":1781299834,"current_range_meters":4400,"station_id":"ce4bhlh2rcd13ifvqgig","pricing_plan_id":"cebpf4jnsgd1na2vs0mg"},{"bike_id":"1a706732-5203-4eb8-9878-0ee7ddc2410a","system_id":"levelo_inurba_marseille","lat":43.26345,"lon":5.37786,"is_reserved":false,"is_disabled":false,"rental_uris":{"android":"levelo://app?vid=1a706732-5203-4eb8-9878-0ee7ddc2410a","ios":"levelo://app?vid=1a706732-5203-4eb8-9878-0ee7ddc2410a"},"vehicle_type_id":"4","last_reported":1781299834,"current_range_meters":4400,"station_id":"st_d163nis0mtpqnht9uue0","pricing_plan_id":"cebpf4jnsgd1na2vs0mg"},{"bike_id":"52e0ca30-f6db-4b40-a595-fe3e1b7ca10e","system_id":"levelo_inurba_marseille","lat":43.26173,"lon":5.37461,"is_reserved":false,"is_disabled":true,"rental_uris":{"android":"levelo://app?vid=52e0ca30-f6db-4b40-a595-fe3e1b7ca10e","ios":"levelo://app?vid=52e0ca30-f6db-4b40-a595-fe3e1b7ca10e"},"vehicle_type_id":"4","last_reported":1781299834,"current_range_meters":4800,"station_id":"ce4bhgp2rcd13ifvqfc0","pricing_plan_id":"cebpf4jnsgd1na2vs0mg"},{"bike_id":"116e7e79-df73-459e-bb6d-922ab4ccb8bd","system_id":"levelo_inurba_marseille","lat":43.21168,"lon":5.35115,"is_reserved":false,"is_disabled":false,"rental_uris":{"android":"levelo://app?vid=116e7e79-df73-459e-bb6d-922ab4ccb8bd","ios":"levelo://app?vid=116e7e79-df73-459e-bb6d-922ab4ccb8bd"},"vehicle_type_id":"4","last_reported":1781299834,"current_range_meters":4800,"station_id":"st_cvj6sg6p6f1abm77japg","pricing_plan_id":"cebpf4jnsgd1na2vs0mg"},{"bike_id":"8e603741-2779-4d4d-a97c-177d28fd1026","system_id":"levelo_inurba_marseille","lat":43.2869,"lon":5.39968,"is_reserved":false,"is_disabled":false,"rental_uris":{"android":"levelo://app?vid=8e603741-2779-4d4d-a97c-177d28fd1026","ios":"levelo://app?vid=8e603741-2779-4d4d-a97c-177d28fd1026"},"vehicle_type_id":"4","last_reported":1781299834,"current_range_meters":4800,"station_id":"ce4bho92rcd13ifvqh3g","pricing_plan_id":"cebpf4jnsgd1na2vs0mg"},{"bike_id":"064dec6b-b238-42d1-9cfb-dc5226cf9659","system_id":"levelo_inurba_marseille","lat":43.287009,"lon":5.379426,"is_reserved":false,"is_disabled":false,"rental_uris":{"android":"levelo://app?vid=064dec6b-b238-42d1-9cfb-dc5226cf9659","ios":"levelo://app?vid=064dec6b-b238-42d1-9cfb-dc5226cf9659"},"vehicle_type_id":"4","last_reported":1781299834,"current_range_meters":4800,"station_id":"ce4bh9p2rcd13ifvqec0","pricing_plan_id":"cebpf4jnsgd1na2vs0mg"},{"bike_id":"71e673c1-4feb-446e-b58c-e0535f27ae14","system_id":"levelo_inurba_marseille","lat":43.31754,"lon":5.39029,"is_reserved":false,"is_disabled":false,"rental_uris":{"android":"levelo://app?vid=71e673c1-4feb-446e-b58c-e0535f27ae14","ios":"levelo://app?vid=71e673c1-4feb-446e-b58c-e0535f27ae14"},"vehicle_type_id":"4","last_reported":1781299834,"current_range_meters":4800,"station_id":"ce4bhqp2rcd13ifvqhng","pricing_plan_id":"cebpf4jnsgd1na2vs0mg"},{"bike_id":"1092cd7f-d680-45ee-8ff2-7815bf031c7e","system_id":"levelo_inurba_marseille","lat":43.31701,"lon":5.37731,"is_reserved":false,"is_disabled":false,"rental_uris":{"android":"levelo://app?vid=1092cd7f-d680-45ee-8ff2-7815bf031c7e","ios":"levelo://app?vid=1092cd7f-d680-45ee-8ff2-7815bf031c7e"},"vehicle_type_id":"4","last_reported":1781299834,"current_range_meters":4800,"station_id":"ce4bgth2rcd13ifvqch0","pricing_plan_id":"cebpf4jnsgd1na2vs0mg"},{"bike_id":"0e737488-eea1-4c79-a09b-4e4182d3e90a","system_id":"levelo_inurba_marseille","lat":43.26227,"lon":5.3877,"is_reserved":false,"is_disabled":false,"rental_uris":{"android":"levelo://app?vid=0e737488-eea1-4c79-a09b-4e4182d3e90a","ios":"levelo://app?vid=0e737488-eea1-4c79-a09b-4e4182d3e90a"},"vehicle_type_id":"4","last_reported":1781299834,"current_range_meters":4800,"station_id":"st_d8gjfg747rts73coq3b0","pricing_plan_id":"cebpf4jnsgd1na2vs0mg"},{"bike_id":"6e2438bd-db9c-44c7-817f-8838bffe7fff","system_id":"levelo_inurba_marseille","lat":43.26732,"lon":5.38224,"is_reserved":false,"is_disabled":false,"rental_uris":{"android":"levelo://app?vid=6e2438bd-db9c-44c7-817f-8838bffe7fff","ios":"levelo://app?vid=6e2438bd-db9c-44c7-817f-8838bffe7fff"},"vehicle_type_id":"4","last_reported":1781299834,"current_range_meters":4800,"station_id":"","pricing_plan_id":"cebpf4jnsgd1na2vs0mg"},{"bike_id":"08fbc0bc-0d78-4646-a316-9a416607340a","system_id":"levelo_inurba_marseille","lat":43.25318,"lon":5.42177,"is_reserved":false,"is_disabled":false,"rental_uris":{"android":"levelo://app?vid=08fbc0bc-0d78-4646-a316-9a416607340a","ios":"levelo://app?vid=08fbc0bc-0d78-4646-a316-9a416607340a"},"vehicle_type_id":"4","last_reported":1781299834,"current_range_meters":4800,"station_id":"st_d2m65c5bi1j21697t3ng","pricing_plan_id":"cebpf4jnsgd1na2vs0mg"},{"bike_id":"6edb1571-ff0e-41be-86f6-ab57a8172f99","system_id":"levelo_inurba_marseille","lat":43.32119,"lon":5.36772,"is_reserved":false,"is_disabled":false,"rental_uris":{"android":"levelo://app?vid=6edb1571-ff0e-41be-86f6-ab57a8172f99","ios":"levelo://app?vid=6edb1571-ff0e-41be-86f6-ab57a8172f99"},"vehicle_type_id":"4","last_reported":1781299834,"current_range_meters":4800,"station_id":"ce4bhrh2rcd13ifvqhug","pricing_plan_id":"cebpf4jnsgd1na2vs0mg"},{"bike_id":"3fe36e96-bc16-4401-911b-7c126008a02d","system_id":"levelo_inurba_marseille","lat":43.23771,"lon":5.36562,"is_reserved":false,"is_disabled":false,"rental_uris":{"android":"levelo://app?vid=3fe36e96-bc16-4401-911b-7c126008a02d","ios":"levelo://app?vid=3fe36e96-bc16-4401-911b-7c126008a02d"},"vehicle_type_id":"4","last_reported":1781299834,"current_range_meters":4800,"station_id":"st_d3nk18o9ro0c73en2l3g","pricing_plan_id":"cebpf4jnsgd1na2vs0mg"},{"bike_id":"03191701-6b47-4d0a-8a92-102d904d0229","system_id":"levelo_inurba_marseille","lat":43.30882,"lon":5.39646,"is_reserved":false,"is_disabled":false,"rental_uris":{"android":"levelo://app?vid=03191701-6b47-4d0a-8a92-102d904d0229","ios":"levelo://app?vid=03191701-6b47-4d0a-8a92-102d904d0229"},"vehicle_type_id":"4","last_reported":1781299834,"current_range_meters":4800,"station_id":"ce4bh012rcd13ifvqcv0","pricing_plan_id":"cebpf4jnsgd1na2vs0mg"},{"bike_id":"1fdd923e-e961-41f9-8f3c-11f5303c0850","system_id":"levelo_inurba_marseille","lat":43.28689,"lon":5.37373,"is_reserved":false,"is_disabled":false,"rental_uris":{"android":"levelo://app?vid=1fdd923e-e961-41f9-8f3c-11f5303c0850","ios":"levelo://app?vid=1fdd923e-e961-41f9-8f3c-11f5303c0850"},"vehicle_type_id":"4","last_reported":1781299834,"current_range_meters":4800,"station_id":"ce4bh3p2rcd13ifvqdq0","pricing_plan_id":"cebpf4jnsgd1na2vs0mg"},{"bike_id":"24f02d56-4cb2-4734-b396-c4353be9b86c","system_id":"levelo_inurba_marseille","lat":43.32112,"lon":5.36796,"is_reserved":false,"is_disabled":false,"rental_uris":{"android":"levelo://app?vid=24f02d56-4cb2-4734-b396-c4353be9b86c","ios":"levelo://app?vid=24f02d56-4cb2-4734-b396-c4353be9b86c"},"vehicle_type_id":"4","last_reported":1781299834,"current_range_meters":4800,"station_id":"ce4bhrh2rcd13ifvqhug","pricing_plan_id":"cebpf4jnsgd1na2vs0mg"},{"bike_id":"6edcf1b7-92b4-40b2-b83c-f35c5e6a2231","system_id":"levelo_inurba_marseille","lat":43.25342,"lon":5.42151,"is_reserved":false,"is_disabled":false,"rental_uris":{"android":"levelo://app?vid=6edcf1b7-92b4-40b2-b83c-f35c5e6a2231","ios":"levelo://app?vid=6edcf1b7-92b4-40b2-b83c-f35c5e6a2231"},"vehicle_type_id":"4","last_reported":1781299834,"current_range_meters":4800,"station_id":"st_d2m65c5bi1j21697t3ng","pricing_plan_id":"cebpf4jnsgd1na2vs0mg"},{"bike_id":"a848a5d1-feb4-4560-89e7-b2ad298b123f","system_id":"levelo_inurba_marseille","lat":43.24642,"lon":5.43144,"is_reserved":false,"is_disabled":false,"rental_uris":{"android":"levelo://app?vid=a848a5d1-feb4-4560-89e7-b2ad298b123f","ios":"levelo://app?vid=a848a5d1-feb4-4560-89e7-b2ad298b123f"},"vehicle_type_id":"4","last_reported":1781299834,"current_range_meters":4800,"station_id":"st_d2m6c4gdas8pm72e190g","pricing_plan_id":"cebpf4jnsgd1na2vs0mg"},{"bike_id":"b4c0f195-58a3-456c-9ed4-e0663f1468e6","system_id":"levelo_inurba_marseille","lat":43.28258,"lon":5.37406,"is_reserved":false,"is_disabled":false,"rental_uris":{"android":"levelo://app?vid=b4c0f195-58a3-456c-9ed4-e0663f1468e6","ios":"levelo://app?vid=b4c0f195-58a3-456c-9ed4-e0663f1468e6"},"vehicle_type_id":"4","last_reported":1781299834,"current_range_meters":4800,"station_id":"","pricing_plan_id":"cebpf4jnsgd1na2vs0mg"},{"bike_id":"6b39aaee-d38f-4038-ad60-3118e5ff786d","system_id":"levelo_inurba_marseille","lat":43.28034,"lon":5.36953,"is_reserved":false,"is_disabled":false,"rental_uris":{"android":"levelo://app?vid=6b39aaee-d38f-4038-ad60-3118e5ff786d","ios":"levelo://app?vid=6b39aaee-d38f-4038-ad60-3118e5ff786d"},"vehicle_type_id":"4","last_reported":1781299834,"current_range_meters":4800,"station_id":"ce4bha12rcd13ifvqef0","pricing_plan_id":"cebpf4jnsgd1na2vs0mg"},{"bike_id":"c7003374-df0a-4adf-a763-b7ffcb27c463","system_id":"levelo_inurba_marseille","lat":43.28468,"lon":5.48402,"is_reserved":false,"is_disabled":false,"rental_uris":{"android":"levelo://app?vid=c7003374-df0a-4adf-a763-b7ffcb27c463","ios":"levelo://app?vid=c7003374-df0a-4adf-a763-b7ffcb27c463"},"vehicle_type_id":"4","last_reported":1781299834,"current_range_meters":4800,"station_id":"st_d3svhcjqgbts73a3dn0g","pricing_plan_id":"cebpf4jnsgd1na2vs0mg"},{"bike_id":"f88ca048-d173-4544-986f-955bd01afab5","system_id":"levelo_inurba_marseille","lat":43.30532,"lon":5.38432,"is_reserved":false,"is_disabled":false,"rental_uris":{"android":"levelo://app?vid=f88ca048-d173-4544-986f-955bd01afab5","ios":"levelo://app?vid=f88ca048-d173-4544-986f-955bd01afab5"},"vehicle_type_id":"4","last_reported":1781299834,"current_range_meters":4800,"station_id":"ce4bgg92rcd13ifvqb30","pricing_plan_id":"cebpf4jnsgd1na2vs0mg"},{"bike_id":"750d545d-9962-42b9-9a8e-d0d1cf1bbc44","system_id":"levelo_inurba_marseille","lat":43.25515,"lon":5.37688,"is_reserved":false,"is_disabled":false,"rental_uris":{"android":"levelo://app?vid=750d545d-9962-42b9-9a8e-d0d1cf1bbc44","ios":"levelo://app?vid=750d545d-9962-42b9-9a8e-d0d1cf1bbc44"},"vehicle_type_id":"4","last_reported":1781299834,"current_range_meters":4800,"station_id":"ce4bhh12rcd13ifvqff0","pricing_plan_id":"cebpf4jnsgd1na2vs0mg"},{"bike_id":"e4f3ef33-23ae-46b5-9d3f-ed3f2c6f89cf","system_id":"levelo_inurba_marseille","lat":43.26645,"lon":5.38167,"is_reserved":false,"is_disabled":false,"rental_uris":{"android":"levelo://app?vid=e4f3ef33-23ae-46b5-9d3f-ed3f2c6f89cf","ios":"levelo://app?vid=e4f3ef33-23ae-46b5-9d3f-ed3f2c6f89cf"},"vehicle_type_id":"4","last_reported":1781299834,"current_range_meters":4800,"station_id":"","pricing_plan_id":"cebpf4jnsgd1na2vs0mg"},{"bike_id":"95a6a820-080c-4047-9edc-2eab85cc3ea0","system_id":"levelo_inurba_marseille","lat":43.31248,"lon":5.37277,"is_reserved":false,"is_disabled":false,"rental_uris":{"android":"levelo://app?vid=95a6a820-080c-4047-9edc-2eab85cc3ea0","ios":"levelo://app?vid=95a6a820-080c-4047-9edc-2eab85cc3ea0"},"vehicle_type_id":"4","last_reported":1781299834,"current_range_meters":4800,"station_id":"","pricing_plan_id":"cebpf4jnsgd1na2vs0mg"},{"bike_id":"76ff20aa-c2bd-4fa2-8dca-7099f4d9bbe6","system_id":"levelo_inurba_marseille","lat":43.21179,"lon":5.35069,"is_reserved":false,"is_disabled":false,"rental_uris":{"android":"levelo://app?vid=76ff20aa-c2bd-4fa2-8dca-7099f4d9bbe6","ios":"levelo://app?vid=76ff20aa-c2bd-4fa2-8dca-7099f4d9bbe6"},"vehicle_type_id":"4","last_reported":1781299834,"current_range_meters":4800,"station_id":"st_cvj6sg6p6f1abm77japg","pricing_plan_id":"cebpf4jnsgd1na2vs0mg"},{"bike_id":"41eb6a40-5c9c-4ae0-95cb-ec8052428c3d","system_id":"levelo_inurba_marseille","lat":43.260612,"lon":5.394034,"is_reserved":false,"is_disabled":false,"rental_uris":{"android":"levelo://app?vid=41eb6a40-5c9c-4ae0-95cb-ec8052428c3d","ios":"levelo://app?vid=41eb6a40-5c9c-4ae0-95cb-ec8052428c3d"},"vehicle_type_id":"4","last_reported":1781299834,"current_range_meters":5600,"station_id":"ce4bhh92rcd13ifvqfj0","pricing_plan_id":"cebpf4jnsgd1na2vs0mg"},{"bike_id":"497db4fe-414c-4f3e-9d03-238169542317","system_id":"levelo_inurba_marseille","lat":43.35069,"lon":5.35055,"is_reserved":false,"is_disabled":false,"rental_uris":{"android":"levelo://app?vid=497db4fe-414c-4f3e-9d03-238169542317","ios":"levelo://app?vid=497db4fe-414c-4f3e-9d03-238169542317"},"vehicle_type_id":"4","last_reported":1781299834,"current_range_meters":5600,"station_id":"","pricing_plan_id":"cebpf4jnsgd1na2vs0mg"},{"bike_id":"4865a1c5-afe2-4dda-8194-f69b08d22f31","system_id":"levelo_inurba_marseille","lat":43.25573,"lon":5.3824,"is_reserved":false,"is_disabled":false,"rental_uris":{"android":"levelo://app?vid=4865a1c5-afe2-4dda-8194-f69b08d22f31","ios":"levelo://app?vid=4865a1c5-afe2-4dda-8194-f69b08d22f31"},"vehicle_type_id":"4","last_reported":1781299834,"current_range_meters":5600,"station_id":"ce4bhih2rcd13ifvqfs0","pricing_plan_id":"cebpf4jnsgd1na2vs0mg"},{"bike_id":"7da39971-3362-423d-90d4-6678fb39a439","system_id":"levelo_inurba_marseille","lat":43.29959,"lon":5.38505,"is_reserved":false,"is_disabled":false,"rental_uris":{"android":"levelo://app?vid=7da39971-3362-423d-90d4-6678fb39a439","ios":"levelo://app?vid=7da39971-3362-423d-90d4-6678fb39a439"},"vehicle_type_id":"4","last_reported":1781299834,"current_range_meters":5600,"station_id":"ce4bgj92rcd13ifvqbd0","pricing_plan_id":"cebpf4jnsgd1na2vs0mg"},{"bike_id":"9e2ab423-c4f7-4fc5-bb89-60dd4548e5f9","system_id":"levelo_inurba_marseille","lat":43.26556,"lon":5.37288,"is_reserved":false,"is_disabled":false,"rental_uris":{"android":"levelo://app?vid=9e2ab423-c4f7-4fc5-bb89-60dd4548e5f9","ios":"levelo://app?vid=9e2ab423-c4f7-4fc5-bb89-60dd4548e5f9"},"vehicle_type_id":"4","last_reported":1781299834,"current_range_meters":5600,"station_id":"ce4bhg12rcd13ifvqf70","pricing_plan_id":"cebpf4jnsgd1na2vs0mg"},{"bike_id":"a771b0ba-e6fe-40dc-8f8a-30a1d88a02ab","system_id":"levelo_inurba_marseille","lat":43.29259,"lon":5.38417,"is_reserved":false,"is_disabled":false,"rental_uris":{"android":"levelo://app?vid=a771b0ba-e6fe-40dc-8f8a-30a1d88a02ab","ios":"levelo://app?vid=a771b0ba-e6fe-40dc-8f8a-30a1d88a02ab"},"vehicle_type_id":"4","last_reported":1781299834,"current_range_meters":5600,"station_id":"ce4bh692rcd13ifvqea0","pricing_plan_id":"cebpf4jnsgd1na2vs0mg"},{"bike_id":"ea97e60e-4181-45fb-93e9-aec30c6471ba","system_id":"levelo_inurba_marseille","lat":43.29364,"lon":5.39871,"is_reserved":false,"is_disabled":false,"rental_uris":{"android":"levelo://app?vid=ea97e60e-4181-45fb-93e9-aec30c6471ba","ios":"levelo://app?vid=ea97e60e-4181-45fb-93e9-aec30c6471ba"},"vehicle_type_id":"4","last_reported":1781299834,"current_range_meters":5600,"station_id":"","pricing_plan_id":"cebpf4jnsgd1na2vs0mg"},{"bike_id":"faf8ca25-719d-47d6-9604-bd79076dfce4","system_id":"levelo_inurba_marseille","lat":43.26656,"lon":5.38323,"is_reserved":false,"is_disabled":false,"rental_uris":{"android":"levelo://app?vid=faf8ca25-719d-47d6-9604-bd79076dfce4","ios":"levelo://app?vid=faf8ca25-719d-47d6-9604-bd79076dfce4"},"vehicle_type_id":"4","last_reported":1781299834,"current_range_meters":5600,"station_id":"","pricing_plan_id":"cebpf4jnsgd1na2vs0mg"},{"bike_id":"b105e559-ad92-41ad-9bdf-4bd2f454dd68","system_id":"levelo_inurba_marseille","lat":43.30155,"lon":5.44972,"is_reserved":false,"is_disabled":false,"rental_uris":{"android":"levelo://app?vid=b105e559-ad92-41ad-9bdf-4bd2f454dd68","ios":"levelo://app?vid=b105e559-ad92-41ad-9bdf-4bd2f454dd68"},"vehicle_type_id":"4","last_reported":1781299834,"current_range_meters":5600,"station_id":"","pricing_plan_id":"cebpf4jnsgd1na2vs0mg"},{"bike_id":"d0de1da7-d7ae-4453-8900-8b3f4d2eb0f2","system_id":"levelo_inurba_marseille","lat":43.29526,"lon":5.38546,"is_reserved":false,"is_disabled":false,"rental_uris":{"android":"levelo://app?vid=d0de1da7-d7ae-4453-8900-8b3f4d2eb0f2","ios":"levelo://app?vid=d0de1da7-d7ae-4453-8900-8b3f4d2eb0f2"},"vehicle_type_id":"4","last_reported":1781299834,"current_range_meters":5600,"station_id":"ce4bgih2rcd13ifvqba0","pricing_plan_id":"cebpf4jnsgd1na2vs0mg"},{"bike_id":"32bd2ecf-684e-4747-b682-4180cd22f828","system_id":"levelo_inurba_marseille","lat":43.30289,"lon":5.392,"is_reserved":false,"is_disabled":false,"rental_uris":{"android":"levelo://app?vid=32bd2ecf-684e-4747-b682-4180cd22f828","ios":"levelo://app?vid=32bd2ecf-684e-4747-b682-4180cd22f828"},"vehicle_type_id":"4","last_reported":1781299834,"current_range_meters":5600,"station_id":"ce4bgkh2rcd13ifvqbk0","pricing_plan_id":"cebpf4jnsgd1na2vs0mg"},{"bike_id":"c4c8f592-2f0a-488a-9059-30a67bfcfd66","system_id":"levelo_inurba_marseille","lat":43.24781,"lon":5.37447,"is_reserved":false,"is_disabled":false,"rental_uris":{"android":"levelo://app?vid=c4c8f592-2f0a-488a-9059-30a67bfcfd66","ios":"levelo://app?vid=c4c8f592-2f0a-488a-9059-30a67bfcfd66"},"vehicle_type_id":"4","last_reported":1781299834,"current_range_meters":5600,"station_id":"ce4bhgh2rcd13ifvqfb0","pricing_plan_id":"cebpf4jnsgd1na2vs0mg"},{"bike_id":"44a5ef51-d680-412c-83f6-10778670a0fe","system_id":"levelo_inurba_marseille","lat":43.24796,"lon":5.37444,"is_reserved":false,"is_disabled":false,"rental_uris":{"android":"levelo://app?vid=44a5ef51-d680-412c-83f6-10778670a0fe","ios":"levelo://app?vid=44a5ef51-d680-412c-83f6-10778670a0fe"},"vehicle_type_id":"4","last_reported":1781299834,"current_range_meters":5600,"station_id":"ce4bhgh2rcd13ifvqfb0","pricing_plan_id":"cebpf4jnsgd1na2vs0mg"},{"bike_id":"1345c154-16ee-4ed3-b4f1-947a1b328d12","system_id":"levelo_inurba_marseille","lat":43.262272,"lon":5.387562,"is_reserved":false,"is_disabled":false,"rental_uris":{"android":"levelo://app?vid=1345c154-16ee-4ed3-b4f1-947a1b328d12","ios":"levelo://app?vid=1345c154-16ee-4ed3-b4f1-947a1b328d12"},"vehicle_type_id":"4","last_reported":1781299834,"current_range_meters":5600,"station_id":"st_d8gjfg747rts73coq3b0","pricing_plan_id":"cebpf4jnsgd1na2vs0mg"},{"bike_id":"5959399d-2a5a-4619-a6df-91439cbfbae4","system_id":"levelo_inurba_marseille","lat":43.27068,"lon":5.38301,"is_reserved":false,"is_disabled":false,"rental_uris":{"android":"levelo://app?vid=5959399d-2a5a-4619-a6df-91439cbfbae4","ios":"levelo://app?vid=5959399d-2a5a-4619-a6df-91439cbfbae4"},"vehicle_type_id":"4","last_reported":1781299834,"current_range_meters":5600,"station_id":"st_d3n2fo6cfp8s73cte1j0","pricing_plan_id":"cebpf4jnsgd1na2vs0mg"},{"bike_id":"cdd0d7c4-3655-4c38-929a-373781280705","system_id":"levelo_inurba_marseille","lat":43.25484,"lon":5.37647,"is_reserved":false,"is_disabled":false,"rental_uris":{"android":"levelo://app?vid=cdd0d7c4-3655-4c38-929a-373781280705","ios":"levelo://app?vid=cdd0d7c4-3655-4c38-929a-373781280705"},"vehicle_type_id":"4","last_reported":1781299834,"current_range_meters":5600,"station_id":"ce4bhh12rcd13ifvqff0","pricing_plan_id":"cebpf4jnsgd1na2vs0mg"},{"bike_id":"6c149b80-daf1-4dc6-b899-1e8147e8b6f7","system_id":"levelo_inurba_marseille","lat":43.25087,"lon":5.40433,"is_reserved":false,"is_disabled":false,"rental_uris":{"android":"levelo://app?vid=6c149b80-daf1-4dc6-b899-1e8147e8b6f7","ios":"levelo://app?vid=6c149b80-daf1-4dc6-b899-1e8147e8b6f7"},"vehicle_type_id":"4","last_reported":1781299834,"current_range_meters":5600,"station_id":"","pricing_plan_id":"cebpf4jnsgd1na2vs0mg"},{"bike_id":"3eb1ee37-e347-41f2-8d65-873e103ae57e","system_id":"levelo_inurba_marseille","lat":43.26474,"lon":5.39468,"is_reserved":false,"is_disabled":false,"rental_uris":{"android":"levelo://app?vid=3eb1ee37-e347-41f2-8d65-873e103ae57e","ios":"levelo://app?vid=3eb1ee37-e347-41f2-8d65-873e103ae57e"},"vehicle_type_id":"4","last_reported":1781299834,"current_range_meters":5600,"station_id":"","pricing_plan_id":"cebpf4jnsgd1na2vs0mg"},{"bike_id":"7717390a-9f55-4678-b2a5-ba0a73b8a548","system_id":"levelo_inurba_marseille","lat":43.31588,"lon":5.36948,"is_reserved":false,"is_disabled":false,"rental_uris":{"android":"levelo://app?vid=7717390a-9f55-4678-b2a5-ba0a73b8a548","ios":"levelo://app?vid=7717390a-9f55-4678-b2a5-ba0a73b8a548"},"vehicle_type_id":"4","last_reported":1781299834,"current_range_meters":5600,"station_id":"","pricing_plan_id":"cebpf4jnsgd1na2vs0mg"},{"bike_id":"7a4ba46c-6362-49a8-982a-a4ee92fd7529","system_id":"levelo_inurba_marseille","lat":43.26866,"lon":5.37055,"is_reserved":false,"is_disabled":false,"rental_uris":{"android":"levelo://app?vid=7a4ba46c-6362-49a8-982a-a4ee92fd7529","ios":"levelo://app?vid=7a4ba46c-6362-49a8-982a-a4ee92fd7529"},"vehicle_type_id":"4","last_reported":1781299834,"current_range_meters":5600,"station_id":"","pricing_plan_id":"cebpf4jnsgd1na2vs0mg"},{"bike_id":"a4b5c841-081f-4864-9ad4-e1c7a6e60416","system_id":"levelo_inurba_marseille","lat":43.23786,"lon":5.36617,"is_reserved":false,"is_disabled":true,"rental_uris":{"android":"levelo://app?vid=a4b5c841-081f-4864-9ad4-e1c7a6e60416","ios":"levelo://app?vid=a4b5c841-081f-4864-9ad4-e1c7a6e60416"},"vehicle_type_id":"4","last_reported":1781299834,"current_range_meters":5600,"station_id":"st_d3nk18o9ro0c73en2l3g","pricing_plan_id":"cebpf4jnsgd1na2vs0mg"},{"bike_id":"c2dec3d9-07ad-4eb1-8b48-59fae51aa2bd","system_id":"levelo_inurba_marseille","lat":43.2601,"lon":5.37556,"is_reserved":false,"is_disabled":false,"rental_uris":{"android":"levelo://app?vid=c2dec3d9-07ad-4eb1-8b48-59fae51aa2bd","ios":"levelo://app?vid=c2dec3d9-07ad-4eb1-8b48-59fae51aa2bd"},"vehicle_type_id":"4","last_reported":1781299834,"current_range_meters":5600,"station_id":"ce4bhgh2rcd13ifvqfa0","pricing_plan_id":"cebpf4jnsgd1na2vs0mg"},{"bike_id":"ba9e205d-e713-44ce-9423-b1e66772d3da","system_id":"levelo_inurba_marseille","lat":43.29271,"lon":5.38447,"is_reserved":false,"is_disabled":false,"rental_uris":{"android":"levelo://app?vid=ba9e205d-e713-44ce-9423-b1e66772d3da","ios":"levelo://app?vid=ba9e205d-e713-44ce-9423-b1e66772d3da"},"vehicle_type_id":"4","last_reported":1781299834,"current_range_meters":5600,"station_id":"ce4bh692rcd13ifvqea0","pricing_plan_id":"cebpf4jnsgd1na2vs0mg"},{"bike_id":"fddbf6a7-cfab-4481-914f-86a0d0db8fc2","system_id":"levelo_inurba_marseille","lat":43.26349,"lon":5.37828,"is_reserved":false,"is_disabled":false,"rental_uris":{"android":"levelo://app?vid=fddbf6a7-cfab-4481-914f-86a0d0db8fc2","ios":"levelo://app?vid=fddbf6a7-cfab-4481-914f-86a0d0db8fc2"},"vehicle_type_id":"4","last_reported":1781299834,"current_range_meters":5600,"station_id":"st_d163nis0mtpqnht9uue0","pricing_plan_id":"cebpf4jnsgd1na2vs0mg"},{"bike_id":"83b97a84-3219-4b15-b3c7-d12b8693895b","system_id":"levelo_inurba_marseille","lat":43.26205,"lon":5.37447,"is_reserved":false,"is_disabled":false,"rental_uris":{"android":"levelo://app?vid=83b97a84-3219-4b15-b3c7-d12b8693895b","ios":"levelo://app?vid=83b97a84-3219-4b15-b3c7-d12b8693895b"},"vehicle_type_id":"4","last_reported":1781299834,"current_range_meters":5600,"station_id":"ce4bhgp2rcd13ifvqfc0","pricing_plan_id":"cebpf4jnsgd1na2vs0mg"},{"bike_id":"a7a8b9c4-b243-4552-8039-fd809a726e11","system_id":"levelo_inurba_marseille","lat":43.309487,"lon":5.390284,"is_reserved":false,"is_disabled":false,"rental_uris":{"android":"levelo://app?vid=a7a8b9c4-b243-4552-8039-fd809a726e11","ios":"levelo://app?vid=a7a8b9c4-b243-4552-8039-fd809a726e11"},"vehicle_type_id":"4","last_reported":1781299834,"current_range_meters":5600,"station_id":"ce4bgup2rcd13ifvqco0","pricing_plan_id":"cebpf4jnsgd1na2vs0mg"},{"bike_id":"ee494397-ad1c-4b5e-80ed-9cc6e888762d","system_id":"levelo_inurba_marseille","lat":43.31907,"lon":5.42485,"is_reserved":false,"is_disabled":false,"rental_uris":{"android":"levelo://app?vid=ee494397-ad1c-4b5e-80ed-9cc6e888762d","ios":"levelo://app?vid=ee494397-ad1c-4b5e-80ed-9cc6e888762d"},"vehicle_type_id":"4","last_reported":1781299834,"current_range_meters":5600,"station_id":"","pricing_plan_id":"cebpf4jnsgd1na2vs0mg"},{"bike_id":"4bbd9026-ac9b-4dc1-97ad-6610089734db","system_id":"levelo_inurba_marseille","lat":43.31524,"lon":5.38821,"is_reserved":false,"is_disabled":false,"rental_uris":{"android":"levelo://app?vid=4bbd9026-ac9b-4dc1-97ad-6610089734db","ios":"levelo://app?vid=4bbd9026-ac9b-4dc1-97ad-6610089734db"},"vehicle_type_id":"4","last_reported":1781299834,"current_range_meters":6000,"station_id":"","pricing_plan_id":"cebpf4jnsgd1na2vs0mg"},{"bike_id":"9355951e-b041-446b-b93e-73dce11071c1","system_id":"levelo_inurba_marseille","lat":43.30291,"lon":5.37317,"is_reserved":false,"is_disabled":false,"rental_uris":{"android":"levelo://app?vid=9355951e-b041-446b-b93e-73dce11071c1","ios":"levelo://app?vid=9355951e-b041-446b-b93e-73dce11071c1"},"vehicle_type_id":"4","last_reported":1781299834,"current_range_meters":6000,"station_id":"","pricing_plan_id":"cebpf4jnsgd1na2vs0mg"},{"bike_id":"f7b2140e-39b4-4c04-9be7-1aff72473e60","system_id":"levelo_inurba_marseille","lat":43.26333,"lon":5.37851,"is_reserved":false,"is_disabled":false,"rental_uris":{"android":"levelo://app?vid=f7b2140e-39b4-4c04-9be7-1aff72473e60","ios":"levelo://app?vid=f7b2140e-39b4-4c04-9be7-1aff72473e60"},"vehicle_type_id":"4","last_reported":1781299834,"current_range_meters":6000,"station_id":"","pricing_plan_id":"cebpf4jnsgd1na2vs0mg"},{"bike_id":"0861ae41-ee4b-4f20-9f21-8200b0c33b42","system_id":"levelo_inurba_marseille","lat":43.27761,"lon":5.35564,"is_reserved":false,"is_disabled":false,"rental_uris":{"android":"levelo://app?vid=0861ae41-ee4b-4f20-9f21-8200b0c33b42","ios":"levelo://app?vid=0861ae41-ee4b-4f20-9f21-8200b0c33b42"},"vehicle_type_id":"4","last_reported":1781299834,"current_range_meters":6000,"station_id":"","pricing_plan_id":"cebpf4jnsgd1na2vs0mg"},{"bike_id":"f50c0941-7536-4434-8ceb-69e31f58dca1","system_id":"levelo_inurba_marseille","lat":43.24666,"lon":5.38156,"is_reserved":false,"is_disabled":false,"rental_uris":{"android":"levelo://app?vid=f50c0941-7536-4434-8ceb-69e31f58dca1","ios":"levelo://app?vid=f50c0941-7536-4434-8ceb-69e31f58dca1"},"vehicle_type_id":"4","last_reported":1781299834,"current_range_meters":6000,"station_id":"ce4bhih2rcd13ifvqfr0","pricing_plan_id":"cebpf4jnsgd1na2vs0mg"},{"bike_id":"b154e503-5e6b-4b2c-aea8-7afe1c19122c","system_id":"levelo_inurba_marseille","lat":43.28093,"lon":5.42657,"is_reserved":false,"is_disabled":false,"rental_uris":{"android":"levelo://app?vid=b154e503-5e6b-4b2c-aea8-7afe1c19122c","ios":"levelo://app?vid=b154e503-5e6b-4b2c-aea8-7afe1c19122c"},"vehicle_type_id":"4","last_reported":1781299834,"current_range_meters":6000,"station_id":"","pricing_plan_id":"cebpf4jnsgd1na2vs0mg"},{"bike_id":"c204c8ea-e90e-4d5e-9e5f-316b4c7758ae","system_id":"levelo_inurba_marseille","lat":43.30928,"lon":5.40161,"is_reserved":false,"is_disabled":false,"rental_uris":{"android":"levelo://app?vid=c204c8ea-e90e-4d5e-9e5f-316b4c7758ae","ios":"levelo://app?vid=c204c8ea-e90e-4d5e-9e5f-316b4c7758ae"},"vehicle_type_id":"4","last_reported":1781299834,"current_range_meters":6000,"station_id":"ce4bgvp2rcd13ifvqct0","pricing_plan_id":"cebpf4jnsgd1na2vs0mg"},{"bike_id":"52db8a96-15c9-4d7c-8aa3-ffcb142876e6","system_id":"levelo_inurba_marseille","lat":43.298919,"lon":5.389047,"is_reserved":false,"is_disabled":false,"rental_uris":{"android":"levelo://app?vid=52db8a96-15c9-4d7c-8aa3-ffcb142876e6","ios":"levelo://app?vid=52db8a96-15c9-4d7c-8aa3-ffcb142876e6"},"vehicle_type_id":"4","last_reported":1781299834,"current_range_meters":6000,"station_id":"ce4bh392rcd13ifvqdl0","pricing_plan_id":"cebpf4jnsgd1na2vs0mg"},{"bike_id":"ae3be122-678e-4362-a61e-d9ebae16bb12","system_id":"levelo_inurba_marseille","lat":43.26543,"lon":5.37293,"is_reserved":false,"is_disabled":false,"rental_uris":{"android":"levelo://app?vid=ae3be122-678e-4362-a61e-d9ebae16bb12","ios":"levelo://app?vid=ae3be122-678e-4362-a61e-d9ebae16bb12"},"vehicle_type_id":"4","last_reported":1781299834,"current_range_meters":6400,"station_id":"ce4bhg12rcd13ifvqf70","pricing_plan_id":"cebpf4jnsgd1na2vs0mg"},{"bike_id":"6859e872-f5de-49b6-9665-a4075fb23877","system_id":"levelo_inurba_marseille","lat":43.29437,"lon":5.39753,"is_reserved":false,"is_disabled":false,"rental_uris":{"android":"levelo://app?vid=6859e872-f5de-49b6-9665-a4075fb23877","ios":"levelo://app?vid=6859e872-f5de-49b6-9665-a4075fb23877"},"vehicle_type_id":"4","last_reported":1781299834,"current_range_meters":6400,"station_id":"ce4bh3h2rcd13ifvqdo0","pricing_plan_id":"cebpf4jnsgd1na2vs0mg"},{"bike_id":"4409efa9-d863-42a6-803f-a8201c7f7c73","system_id":"levelo_inurba_marseille","lat":43.2655,"lon":5.37286,"is_reserved":false,"is_disabled":false,"rental_uris":{"android":"levelo://app?vid=4409efa9-d863-42a6-803f-a8201c7f7c73","ios":"levelo://app?vid=4409efa9-d863-42a6-803f-a8201c7f7c73"},"vehicle_type_id":"4","last_reported":1781299834,"current_range_meters":6400,"station_id":"ce4bhg12rcd13ifvqf70","pricing_plan_id":"cebpf4jnsgd1na2vs0mg"},{"bike_id":"ba9e662c-c195-4d37-b478-8ff41eecf68d","system_id":"levelo_inurba_marseille","lat":43.29445,"lon":5.39761,"is_reserved":false,"is_disabled":false,"rental_uris":{"android":"levelo://app?vid=ba9e662c-c195-4d37-b478-8ff41eecf68d","ios":"levelo://app?vid=ba9e662c-c195-4d37-b478-8ff41eecf68d"},"vehicle_type_id":"4","last_reported":1781299834,"current_range_meters":6400,"station_id":"ce4bh3h2rcd13ifvqdo0","pricing_plan_id":"cebpf4jnsgd1na2vs0mg"},{"bike_id":"d6f0960d-8a26-4d7f-93a9-7161f0913d8b","system_id":"levelo_inurba_marseille","lat":43.25512,"lon":5.37652,"is_reserved":false,"is_disabled":false,"rental_uris":{"android":"levelo://app?vid=d6f0960d-8a26-4d7f-93a9-7161f0913d8b","ios":"levelo://app?vid=d6f0960d-8a26-4d7f-93a9-7161f0913d8b"},"vehicle_type_id":"4","last_reported":1781299834,"current_range_meters":6400,"station_id":"ce4bhh12rcd13ifvqff0","pricing_plan_id":"cebpf4jnsgd1na2vs0mg"},{"bike_id":"6bdc9c81-0fa4-4fd9-9089-fbabf2d80fb4","system_id":"levelo_inurba_marseille","lat":43.30141,"lon":5.38075,"is_reserved":false,"is_disabled":false,"rental_uris":{"android":"levelo://app?vid=6bdc9c81-0fa4-4fd9-9089-fbabf2d80fb4","ios":"levelo://app?vid=6bdc9c81-0fa4-4fd9-9089-fbabf2d80fb4"},"vehicle_type_id":"4","last_reported":1781299834,"current_range_meters":6400,"station_id":"ce4bgjp2rcd13ifvqbh0","pricing_plan_id":"cebpf4jnsgd1na2vs0mg"},{"bike_id":"d39db183-6bf7-420a-96f5-b25822544857","system_id":"levelo_inurba_marseille","lat":43.32316,"lon":5.36766,"is_reserved":false,"is_disabled":false,"rental_uris":{"android":"levelo://app?vid=d39db183-6bf7-420a-96f5-b25822544857","ios":"levelo://app?vid=d39db183-6bf7-420a-96f5-b25822544857"},"vehicle_type_id":"4","last_reported":1781299834,"current_range_meters":6400,"station_id":"ce4bhsh2rcd13ifvqi2g","pricing_plan_id":"cebpf4jnsgd1na2vs0mg"},{"bike_id":"8af204e8-8a8c-4394-80db-41d43f6f704d","system_id":"levelo_inurba_marseille","lat":43.26933,"lon":5.38903,"is_reserved":false,"is_disabled":false,"rental_uris":{"android":"levelo://app?vid=8af204e8-8a8c-4394-80db-41d43f6f704d","ios":"levelo://app?vid=8af204e8-8a8c-4394-80db-41d43f6f704d"},"vehicle_type_id":"4","last_reported":1781299834,"current_range_meters":6400,"station_id":"ce4bhhh2rcd13ifvqfl0","pricing_plan_id":"cebpf4jnsgd1na2vs0mg"},{"bike_id":"dbf30277-d3e6-4cad-8465-5c92e1f1d567","system_id":"levelo_inurba_marseille","lat":43.23183,"lon":5.39987,"is_reserved":false,"is_disabled":false,"rental_uris":{"android":"levelo://app?vid=dbf30277-d3e6-4cad-8465-5c92e1f1d567","ios":"levelo://app?vid=dbf30277-d3e6-4cad-8465-5c92e1f1d567"},"vehicle_type_id":"4","last_reported":1781299834,"current_range_meters":6400,"station_id":"ce4bhn12rcd13ifvqgqg","pricing_plan_id":"cebpf4jnsgd1na2vs0mg"},{"bike_id":"1c444fa9-9def-4999-8bc4-4a6c72c5f742","system_id":"levelo_inurba_marseille","lat":43.26014,"lon":5.37544,"is_reserved":false,"is_disabled":false,"rental_uris":{"android":"levelo://app?vid=1c444fa9-9def-4999-8bc4-4a6c72c5f742","ios":"levelo://app?vid=1c444fa9-9def-4999-8bc4-4a6c72c5f742"},"vehicle_type_id":"4","last_reported":1781299834,"current_range_meters":6400,"station_id":"ce4bhgh2rcd13ifvqfa0","pricing_plan_id":"cebpf4jnsgd1na2vs0mg"},{"bike_id":"97b9414c-f337-4aa3-a619-e8223bfb5c75","system_id":"levelo_inurba_marseille","lat":43.29529,"lon":5.38549,"is_reserved":false,"is_disabled":false,"rental_uris":{"android":"levelo://app?vid=97b9414c-f337-4aa3-a619-e8223bfb5c75","ios":"levelo://app?vid=97b9414c-f337-4aa3-a619-e8223bfb5c75"},"vehicle_type_id":"4","last_reported":1781299834,"current_range_meters":6400,"station_id":"ce4bgih2rcd13ifvqba0","pricing_plan_id":"cebpf4jnsgd1na2vs0mg"},{"bike_id":"8549ed76-d067-4e8e-8122-bf5cc7918ab0","system_id":"levelo_inurba_marseille","lat":43.27811,"lon":5.4071,"is_reserved":false,"is_disabled":false,"rental_uris":{"android":"levelo://app?vid=8549ed76-d067-4e8e-8122-bf5cc7918ab0","ios":"levelo://app?vid=8549ed76-d067-4e8e-8122-bf5cc7918ab0"},"vehicle_type_id":"4","last_reported":1781299834,"current_range_meters":6400,"station_id":"ce4bhnh2rcd13ifvqgtg","pricing_plan_id":"cebpf4jnsgd1na2vs0mg"},{"bike_id":"1ca3a914-a55c-4637-a9ca-4ffd36fbecad","system_id":"levelo_inurba_marseille","lat":43.262214,"lon":5.387661,"is_reserved":false,"is_disabled":true,"rental_uris":{"android":"levelo://app?vid=1ca3a914-a55c-4637-a9ca-4ffd36fbecad","ios":"levelo://app?vid=1ca3a914-a55c-4637-a9ca-4ffd36fbecad"},"vehicle_type_id":"4","last_reported":1781299834,"current_range_meters":6400,"station_id":"st_d8gjfg747rts73coq3b0","pricing_plan_id":"cebpf4jnsgd1na2vs0mg"},{"bike_id":"5ab25b28-e35d-4f10-9ca9-7d658cce4ea9","system_id":"levelo_inurba_marseille","lat":43.28913,"lon":5.38395,"is_reserved":false,"is_disabled":true,"rental_uris":{"android":"levelo://app?vid=5ab25b28-e35d-4f10-9ca9-7d658cce4ea9","ios":"levelo://app?vid=5ab25b28-e35d-4f10-9ca9-7d658cce4ea9"},"vehicle_type_id":"4","last_reported":1781299834,"current_range_meters":6400,"station_id":"ce4bh612rcd13ifvqe6g","pricing_plan_id":"cebpf4jnsgd1na2vs0mg"},{"bike_id":"5fe816be-adb0-4ccc-a8a6-ac6bd0711409","system_id":"levelo_inurba_marseille","lat":43.26322,"lon":5.37831,"is_reserved":false,"is_disabled":false,"rental_uris":{"android":"levelo://app?vid=5fe816be-adb0-4ccc-a8a6-ac6bd0711409","ios":"levelo://app?vid=5fe816be-adb0-4ccc-a8a6-ac6bd0711409"},"vehicle_type_id":"4","last_reported":1781299834,"current_range_meters":6400,"station_id":"","pricing_plan_id":"cebpf4jnsgd1na2vs0mg"},{"bike_id":"a318bc01-9889-445e-ad9e-b36118278119","system_id":"levelo_inurba_marseille","lat":43.28612,"lon":5.35111,"is_reserved":false,"is_disabled":true,"rental_uris":{"android":"levelo://app?vid=a318bc01-9889-445e-ad9e-b36118278119","ios":"levelo://app?vid=a318bc01-9889-445e-ad9e-b36118278119"},"vehicle_type_id":"4","last_reported":1781299834,"current_range_meters":6400,"station_id":"ce4bhch2rcd13ifvqeug","pricing_plan_id":"cebpf4jnsgd1na2vs0mg"},{"bike_id":"9e36cfa1-09fe-4bd5-9827-624ec281fd82","system_id":"levelo_inurba_marseille","lat":43.26078,"lon":5.37499,"is_reserved":false,"is_disabled":false,"rental_uris":{"android":"levelo://app?vid=9e36cfa1-09fe-4bd5-9827-624ec281fd82","ios":"levelo://app?vid=9e36cfa1-09fe-4bd5-9827-624ec281fd82"},"vehicle_type_id":"4","last_reported":1781299834,"current_range_meters":6400,"station_id":"","pricing_plan_id":"cebpf4jnsgd1na2vs0mg"},{"bike_id":"6df7054b-12fc-4820-90eb-30a94928fe3f","system_id":"levelo_inurba_marseille","lat":43.23784,"lon":5.36629,"is_reserved":false,"is_disabled":false,"rental_uris":{"android":"levelo://app?vid=6df7054b-12fc-4820-90eb-30a94928fe3f","ios":"levelo://app?vid=6df7054b-12fc-4820-90eb-30a94928fe3f"},"vehicle_type_id":"4","last_reported":1781299834,"current_range_meters":6400,"station_id":"st_d3nk18o9ro0c73en2l3g","pricing_plan_id":"cebpf4jnsgd1na2vs0mg"},{"bike_id":"7f928b3b-7f65-4d73-95df-3bf5f0b8fb18","system_id":"levelo_inurba_marseille","lat":43.24817,"lon":5.37447,"is_reserved":false,"is_disabled":false,"rental_uris":{"android":"levelo://app?vid=7f928b3b-7f65-4d73-95df-3bf5f0b8fb18","ios":"levelo://app?vid=7f928b3b-7f65-4d73-95df-3bf5f0b8fb18"},"vehicle_type_id":"4","last_reported":1781299834,"current_range_meters":6400,"station_id":"ce4bhgh2rcd13ifvqfb0","pricing_plan_id":"cebpf4jnsgd1na2vs0mg"},{"bike_id":"281b85c8-1e24-4ce9-ac35-abd4098019b5","system_id":"levelo_inurba_marseille","lat":43.25821,"lon":5.39443,"is_reserved":false,"is_disabled":false,"rental_uris":{"android":"levelo://app?vid=281b85c8-1e24-4ce9-ac35-abd4098019b5","ios":"levelo://app?vid=281b85c8-1e24-4ce9-ac35-abd4098019b5"},"vehicle_type_id":"4","last_reported":1781299834,"current_range_meters":6400,"station_id":"ce4bhip2rcd13ifvqft0","pricing_plan_id":"cebpf4jnsgd1na2vs0mg"},{"bike_id":"4b85c269-feee-4e9a-b0a2-a652195e1452","system_id":"levelo_inurba_marseille","lat":43.29784,"lon":5.39353,"is_reserved":false,"is_disabled":false,"rental_uris":{"android":"levelo://app?vid=4b85c269-feee-4e9a-b0a2-a652195e1452","ios":"levelo://app?vid=4b85c269-feee-4e9a-b0a2-a652195e1452"},"vehicle_type_id":"4","last_reported":1781299834,"current_range_meters":6400,"station_id":"chh1huq6cuj3fo74tm60","pricing_plan_id":"cebpf4jnsgd1na2vs0mg"},{"bike_id":"3ea61c54-5ae4-4ec5-8d1e-95c813254f6e","system_id":"levelo_inurba_marseille","lat":43.24478,"lon":5.42517,"is_reserved":false,"is_disabled":false,"rental_uris":{"android":"levelo://app?vid=3ea61c54-5ae4-4ec5-8d1e-95c813254f6e","ios":"levelo://app?vid=3ea61c54-5ae4-4ec5-8d1e-95c813254f6e"},"vehicle_type_id":"4","last_reported":1781299834,"current_range_meters":6400,"station_id":"st_d4a3vfp97mjs738cd8kg","pricing_plan_id":"cebpf4jnsgd1na2vs0mg"},{"bike_id":"cdcc5eb0-33f2-43e8-a67f-b9a41888cf3d","system_id":"levelo_inurba_marseille","lat":43.290018,"lon":5.381468,"is_reserved":false,"is_disabled":false,"rental_uris":{"android":"levelo://app?vid=cdcc5eb0-33f2-43e8-a67f-b9a41888cf3d","ios":"levelo://app?vid=cdcc5eb0-33f2-43e8-a67f-b9a41888cf3d"},"vehicle_type_id":"4","last_reported":1781299834,"current_range_meters":6400,"station_id":"ce4bh4p2rcd13ifvqe1g","pricing_plan_id":"cebpf4jnsgd1na2vs0mg"},{"bike_id":"67d79504-0563-4610-907f-80e12b8075dc","system_id":"levelo_inurba_marseille","lat":43.24395,"lon":5.37086,"is_reserved":false,"is_disabled":false,"rental_uris":{"android":"levelo://app?vid=67d79504-0563-4610-907f-80e12b8075dc","ios":"levelo://app?vid=67d79504-0563-4610-907f-80e12b8075dc"},"vehicle_type_id":"4","last_reported":1781299834,"current_range_meters":6800,"station_id":"ce4bhhh2rcd13ifvqfk0","pricing_plan_id":"cebpf4jnsgd1na2vs0mg"},{"bike_id":"f4bd0ae9-9a5e-4f7b-b865-f24efdefb544","system_id":"levelo_inurba_marseille","lat":43.31187,"lon":5.38718,"is_reserved":false,"is_disabled":false,"rental_uris":{"android":"levelo://app?vid=f4bd0ae9-9a5e-4f7b-b865-f24efdefb544","ios":"levelo://app?vid=f4bd0ae9-9a5e-4f7b-b865-f24efdefb544"},"vehicle_type_id":"4","last_reported":1781299834,"current_range_meters":6800,"station_id":"","pricing_plan_id":"cebpf4jnsgd1na2vs0mg"},{"bike_id":"e3d1acd9-21a1-49e6-9e69-9cd1875f977a","system_id":"levelo_inurba_marseille","lat":43.29527,"lon":5.38545,"is_reserved":false,"is_disabled":false,"rental_uris":{"android":"levelo://app?vid=e3d1acd9-21a1-49e6-9e69-9cd1875f977a","ios":"levelo://app?vid=e3d1acd9-21a1-49e6-9e69-9cd1875f977a"},"vehicle_type_id":"4","last_reported":1781299834,"current_range_meters":6800,"station_id":"ce4bgih2rcd13ifvqba0","pricing_plan_id":"cebpf4jnsgd1na2vs0mg"},{"bike_id":"566ffcbb-7d7f-4d9b-8873-6c15b1b550ca","system_id":"levelo_inurba_marseille","lat":43.286248,"lon":5.384794,"is_reserved":false,"is_disabled":false,"rental_uris":{"android":"levelo://app?vid=566ffcbb-7d7f-4d9b-8873-6c15b1b550ca","ios":"levelo://app?vid=566ffcbb-7d7f-4d9b-8873-6c15b1b550ca"},"vehicle_type_id":"4","last_reported":1781299834,"current_range_meters":6800,"station_id":"ce4bhoh2rcd13ifvqh5g","pricing_plan_id":"cebpf4jnsgd1na2vs0mg"},{"bike_id":"7c56fbf2-b06b-4ad4-bd6e-fb0ad9ba401c","system_id":"levelo_inurba_marseille","lat":43.28718,"lon":5.37957,"is_reserved":false,"is_disabled":true,"rental_uris":{"android":"levelo://app?vid=7c56fbf2-b06b-4ad4-bd6e-fb0ad9ba401c","ios":"levelo://app?vid=7c56fbf2-b06b-4ad4-bd6e-fb0ad9ba401c"},"vehicle_type_id":"4","last_reported":1781299834,"current_range_meters":6800,"station_id":"ce4bh9p2rcd13ifvqec0","pricing_plan_id":"cebpf4jnsgd1na2vs0mg"},{"bike_id":"f312a474-3688-43e4-8515-a784a5c48528","system_id":"levelo_inurba_marseille","lat":43.21185,"lon":5.35076,"is_reserved":false,"is_disabled":true,"rental_uris":{"android":"levelo://app?vid=f312a474-3688-43e4-8515-a784a5c48528","ios":"levelo://app?vid=f312a474-3688-43e4-8515-a784a5c48528"},"vehicle_type_id":"4","last_reported":1781299834,"current_range_meters":6800,"station_id":"st_cvj6sg6p6f1abm77japg","pricing_plan_id":"cebpf4jnsgd1na2vs0mg"},{"bike_id":"5c61ed5b-3e8e-4aff-9618-9a1c259af739","system_id":"levelo_inurba_marseille","lat":43.307854,"lon":5.381514,"is_reserved":false,"is_disabled":false,"rental_uris":{"android":"levelo://app?vid=5c61ed5b-3e8e-4aff-9618-9a1c259af739","ios":"levelo://app?vid=5c61ed5b-3e8e-4aff-9618-9a1c259af739"},"vehicle_type_id":"4","last_reported":1781299834,"current_range_meters":6800,"station_id":"ce4bgt12rcd13ifvqce0","pricing_plan_id":"cebpf4jnsgd1na2vs0mg"},{"bike_id":"a0d2ac5f-fff6-43f6-831d-dfa81e9c3981","system_id":"levelo_inurba_marseille","lat":43.29603,"lon":5.36402,"is_reserved":false,"is_disabled":false,"rental_uris":{"android":"levelo://app?vid=a0d2ac5f-fff6-43f6-831d-dfa81e9c3981","ios":"levelo://app?vid=a0d2ac5f-fff6-43f6-831d-dfa81e9c3981"},"vehicle_type_id":"4","last_reported":1781299834,"current_range_meters":6800,"station_id":"","pricing_plan_id":"cebpf4jnsgd1na2vs0mg"},{"bike_id":"5006798d-7dc2-4215-9cbf-f3ae1e0c2388","system_id":"levelo_inurba_marseille","lat":43.28683,"lon":5.38663,"is_reserved":false,"is_disabled":false,"rental_uris":{"android":"levelo://app?vid=5006798d-7dc2-4215-9cbf-f3ae1e0c2388","ios":"levelo://app?vid=5006798d-7dc2-4215-9cbf-f3ae1e0c2388"},"vehicle_type_id":"4","last_reported":1781299834,"current_range_meters":6800,"station_id":"ce4bh492rcd13ifvqdug","pricing_plan_id":"cebpf4jnsgd1na2vs0mg"},{"bike_id":"2d65b860-94da-4574-a20f-82b65ca5f84b","system_id":"levelo_inurba_marseille","lat":43.22569,"lon":5.41639,"is_reserved":false,"is_disabled":false,"rental_uris":{"android":"levelo://app?vid=2d65b860-94da-4574-a20f-82b65ca5f84b","ios":"levelo://app?vid=2d65b860-94da-4574-a20f-82b65ca5f84b"},"vehicle_type_id":"4","last_reported":1781299834,"current_range_meters":6800,"station_id":"st_d2o4gvlbi1j2169b742g","pricing_plan_id":"cebpf4jnsgd1na2vs0mg"},{"bike_id":"f57ddc5d-b3ad-43f3-bbc4-226ea7be866d","system_id":"levelo_inurba_marseille","lat":43.29853,"lon":5.42272,"is_reserved":false,"is_disabled":false,"rental_uris":{"android":"levelo://app?vid=f57ddc5d-b3ad-43f3-bbc4-226ea7be866d","ios":"levelo://app?vid=f57ddc5d-b3ad-43f3-bbc4-226ea7be866d"},"vehicle_type_id":"4","last_reported":1781299834,"current_range_meters":6800,"station_id":"","pricing_plan_id":"cebpf4jnsgd1na2vs0mg"},{"bike_id":"fb2a1f7d-f7e9-4d12-bb3c-32e8cd55f82d","system_id":"levelo_inurba_marseille","lat":43.29068,"lon":5.4426,"is_reserved":false,"is_disabled":false,"rental_uris":{"android":"levelo://app?vid=fb2a1f7d-f7e9-4d12-bb3c-32e8cd55f82d","ios":"levelo://app?vid=fb2a1f7d-f7e9-4d12-bb3c-32e8cd55f82d"},"vehicle_type_id":"4","last_reported":1781299834,"current_range_meters":6800,"station_id":"","pricing_plan_id":"cebpf4jnsgd1na2vs0mg"},{"bike_id":"910288ae-a795-4498-aa25-4a8228f33c50","system_id":"levelo_inurba_marseille","lat":43.26196,"lon":5.3744,"is_reserved":false,"is_disabled":false,"rental_uris":{"android":"levelo://app?vid=910288ae-a795-4498-aa25-4a8228f33c50","ios":"levelo://app?vid=910288ae-a795-4498-aa25-4a8228f33c50"},"vehicle_type_id":"4","last_reported":1781299834,"current_range_meters":6800,"station_id":"ce4bhgp2rcd13ifvqfc0","pricing_plan_id":"cebpf4jnsgd1na2vs0mg"},{"bike_id":"e6dd2d51-0c09-4f37-aab6-d3ebe41e92d3","system_id":"levelo_inurba_marseille","lat":43.26656,"lon":5.37225,"is_reserved":false,"is_disabled":false,"rental_uris":{"android":"levelo://app?vid=e6dd2d51-0c09-4f37-aab6-d3ebe41e92d3","ios":"levelo://app?vid=e6dd2d51-0c09-4f37-aab6-d3ebe41e92d3"},"vehicle_type_id":"4","last_reported":1781299834,"current_range_meters":6800,"station_id":"","pricing_plan_id":"cebpf4jnsgd1na2vs0mg"},{"bike_id":"6823f9a2-8013-4e26-94c8-72b20fcbdb61","system_id":"levelo_inurba_marseille","lat":43.30323,"lon":5.40422,"is_reserved":false,"is_disabled":false,"rental_uris":{"android":"levelo://app?vid=6823f9a2-8013-4e26-94c8-72b20fcbdb61","ios":"levelo://app?vid=6823f9a2-8013-4e26-94c8-72b20fcbdb61"},"vehicle_type_id":"4","last_reported":1781299834,"current_range_meters":6800,"station_id":"ce4bh012rcd13ifvqd10","pricing_plan_id":"cebpf4jnsgd1na2vs0mg"},{"bike_id":"7af5dc62-7a31-4d7c-a26c-927a2cb82321","system_id":"levelo_inurba_marseille","lat":43.32102,"lon":5.36776,"is_reserved":false,"is_disabled":false,"rental_uris":{"android":"levelo://app?vid=7af5dc62-7a31-4d7c-a26c-927a2cb82321","ios":"levelo://app?vid=7af5dc62-7a31-4d7c-a26c-927a2cb82321"},"vehicle_type_id":"4","last_reported":1781299834,"current_range_meters":6800,"station_id":"ce4bhrh2rcd13ifvqhug","pricing_plan_id":"cebpf4jnsgd1na2vs0mg"},{"bike_id":"29f89edd-ea47-4769-ba03-c94739969a4f","system_id":"levelo_inurba_marseille","lat":43.2937,"lon":5.40155,"is_reserved":false,"is_disabled":false,"rental_uris":{"android":"levelo://app?vid=29f89edd-ea47-4769-ba03-c94739969a4f","ios":"levelo://app?vid=29f89edd-ea47-4769-ba03-c94739969a4f"},"vehicle_type_id":"4","last_reported":1781299834,"current_range_meters":6800,"station_id":"","pricing_plan_id":"cebpf4jnsgd1na2vs0mg"},{"bike_id":"5bc497bf-eb8e-48cf-8383-2855140cbfa3","system_id":"levelo_inurba_marseille","lat":43.29972,"lon":5.37173,"is_reserved":false,"is_disabled":false,"rental_uris":{"android":"levelo://app?vid=5bc497bf-eb8e-48cf-8383-2855140cbfa3","ios":"levelo://app?vid=5bc497bf-eb8e-48cf-8383-2855140cbfa3"},"vehicle_type_id":"4","last_reported":1781299834,"current_range_meters":6800,"station_id":"ce4bgr92rcd13ifvqc7g","pricing_plan_id":"cebpf4jnsgd1na2vs0mg"},{"bike_id":"3fd18870-63e0-4195-960e-3e018f65896c","system_id":"levelo_inurba_marseille","lat":43.2619,"lon":5.3744,"is_reserved":false,"is_disabled":false,"rental_uris":{"android":"levelo://app?vid=3fd18870-63e0-4195-960e-3e018f65896c","ios":"levelo://app?vid=3fd18870-63e0-4195-960e-3e018f65896c"},"vehicle_type_id":"4","last_reported":1781299834,"current_range_meters":6800,"station_id":"ce4bhgp2rcd13ifvqfc0","pricing_plan_id":"cebpf4jnsgd1na2vs0mg"},{"bike_id":"29866fdf-8b3b-4d01-acd8-1c5cee78560c","system_id":"levelo_inurba_marseille","lat":43.24386,"lon":5.37048,"is_reserved":false,"is_disabled":false,"rental_uris":{"android":"levelo://app?vid=29866fdf-8b3b-4d01-acd8-1c5cee78560c","ios":"levelo://app?vid=29866fdf-8b3b-4d01-acd8-1c5cee78560c"},"vehicle_type_id":"4","last_reported":1781299834,"current_range_meters":6800,"station_id":"ce4bhhh2rcd13ifvqfk0","pricing_plan_id":"cebpf4jnsgd1na2vs0mg"},{"bike_id":"c017a8ae-85a7-45a6-aa4f-da9efc8013ea","system_id":"levelo_inurba_marseille","lat":43.24821,"lon":5.37463,"is_reserved":false,"is_disabled":false,"rental_uris":{"android":"levelo://app?vid=c017a8ae-85a7-45a6-aa4f-da9efc8013ea","ios":"levelo://app?vid=c017a8ae-85a7-45a6-aa4f-da9efc8013ea"},"vehicle_type_id":"4","last_reported":1781299834,"current_range_meters":6800,"station_id":"ce4bhgh2rcd13ifvqfb0","pricing_plan_id":"cebpf4jnsgd1na2vs0mg"},{"bike_id":"f96f9850-1fa1-4da0-b9b2-06c64b7f75d3","system_id":"levelo_inurba_marseille","lat":43.26015,"lon":5.37561,"is_reserved":false,"is_disabled":false,"rental_uris":{"android":"levelo://app?vid=f96f9850-1fa1-4da0-b9b2-06c64b7f75d3","ios":"levelo://app?vid=f96f9850-1fa1-4da0-b9b2-06c64b7f75d3"},"vehicle_type_id":"4","last_reported":1781299834,"current_range_meters":6800,"station_id":"ce4bhgh2rcd13ifvqfa0","pricing_plan_id":"cebpf4jnsgd1na2vs0mg"},{"bike_id":"e2884d18-ed99-4f3c-88c9-633eff12bfed","system_id":"levelo_inurba_marseille","lat":43.30212,"lon":5.39474,"is_reserved":false,"is_disabled":false,"rental_uris":{"android":"levelo://app?vid=e2884d18-ed99-4f3c-88c9-633eff12bfed","ios":"levelo://app?vid=e2884d18-ed99-4f3c-88c9-633eff12bfed"},"vehicle_type_id":"4","last_reported":1781299834,"current_range_meters":6800,"station_id":"ce4bh0p2rcd13ifvqd70","pricing_plan_id":"cebpf4jnsgd1na2vs0mg"},{"bike_id":"70782d62-79db-4fe5-9541-fd64ae5ddfbb","system_id":"levelo_inurba_marseille","lat":43.29289,"lon":5.37738,"is_reserved":false,"is_disabled":false,"rental_uris":{"android":"levelo://app?vid=70782d62-79db-4fe5-9541-fd64ae5ddfbb","ios":"levelo://app?vid=70782d62-79db-4fe5-9541-fd64ae5ddfbb"},"vehicle_type_id":"4","last_reported":1781299834,"current_range_meters":6800,"station_id":"","pricing_plan_id":"cebpf4jnsgd1na2vs0mg"},{"bike_id":"ed1b8ea2-ecf3-46da-8352-26963074c835","system_id":"levelo_inurba_marseille","lat":43.2445,"lon":5.42521,"is_reserved":false,"is_disabled":false,"rental_uris":{"android":"levelo://app?vid=ed1b8ea2-ecf3-46da-8352-26963074c835","ios":"levelo://app?vid=ed1b8ea2-ecf3-46da-8352-26963074c835"},"vehicle_type_id":"4","last_reported":1781299834,"current_range_meters":6800,"station_id":"st_d4a3vfp97mjs738cd8kg","pricing_plan_id":"cebpf4jnsgd1na2vs0mg"},{"bike_id":"61b7a27c-4633-4433-8d95-fae8968731e7","system_id":"levelo_inurba_marseille","lat":43.27518,"lon":5.4158,"is_reserved":false,"is_disabled":false,"rental_uris":{"android":"levelo://app?vid=61b7a27c-4633-4433-8d95-fae8968731e7","ios":"levelo://app?vid=61b7a27c-4633-4433-8d95-fae8968731e7"},"vehicle_type_id":"4","last_reported":1781299834,"current_range_meters":6800,"station_id":"st_d6im8g6chgec73a5pndg","pricing_plan_id":"cebpf4jnsgd1na2vs0mg"},{"bike_id":"b40cef3f-d5ca-4ed4-a2ea-62a784c7dd79","system_id":"levelo_inurba_marseille","lat":43.29525,"lon":5.38541,"is_reserved":false,"is_disabled":false,"rental_uris":{"android":"levelo://app?vid=b40cef3f-d5ca-4ed4-a2ea-62a784c7dd79","ios":"levelo://app?vid=b40cef3f-d5ca-4ed4-a2ea-62a784c7dd79"},"vehicle_type_id":"4","last_reported":1781299834,"current_range_meters":6800,"station_id":"ce4bgih2rcd13ifvqba0","pricing_plan_id":"cebpf4jnsgd1na2vs0mg"},{"bike_id":"4b60ae99-f290-4039-abe4-cd055330fc73","system_id":"levelo_inurba_marseille","lat":43.27802,"lon":5.4074,"is_reserved":false,"is_disabled":false,"rental_uris":{"android":"levelo://app?vid=4b60ae99-f290-4039-abe4-cd055330fc73","ios":"levelo://app?vid=4b60ae99-f290-4039-abe4-cd055330fc73"},"vehicle_type_id":"4","last_reported":1781299834,"current_range_meters":6800,"station_id":"ce4bhnh2rcd13ifvqgtg","pricing_plan_id":"cebpf4jnsgd1na2vs0mg"},{"bike_id":"deaa129f-e1ec-4b70-89be-08228923086d","system_id":"levelo_inurba_marseille","lat":43.27057,"lon":5.38289,"is_reserved":false,"is_disabled":false,"rental_uris":{"android":"levelo://app?vid=deaa129f-e1ec-4b70-89be-08228923086d","ios":"levelo://app?vid=deaa129f-e1ec-4b70-89be-08228923086d"},"vehicle_type_id":"4","last_reported":1781299834,"current_range_meters":6800,"station_id":"st_d3n2fo6cfp8s73cte1j0","pricing_plan_id":"cebpf4jnsgd1na2vs0mg"},{"bike_id":"c40c4ead-d8dd-4ab4-8b7c-8c735c9c1613","system_id":"levelo_inurba_marseille","lat":43.31893,"lon":5.36821,"is_reserved":false,"is_disabled":false,"rental_uris":{"android":"levelo://app?vid=c40c4ead-d8dd-4ab4-8b7c-8c735c9c1613","ios":"levelo://app?vid=c40c4ead-d8dd-4ab4-8b7c-8c735c9c1613"},"vehicle_type_id":"4","last_reported":1781299834,"current_range_meters":6800,"station_id":"st_d6o2h0d0559c73evc1b0","pricing_plan_id":"cebpf4jnsgd1na2vs0mg"},{"bike_id":"4231fdab-bb24-4934-b29a-a4c3489e3fbf","system_id":"levelo_inurba_marseille","lat":43.28933,"lon":5.36643,"is_reserved":false,"is_disabled":false,"rental_uris":{"android":"levelo://app?vid=4231fdab-bb24-4934-b29a-a4c3489e3fbf","ios":"levelo://app?vid=4231fdab-bb24-4934-b29a-a4c3489e3fbf"},"vehicle_type_id":"4","last_reported":1781299834,"current_range_meters":6800,"station_id":"ce4bhap2rcd13ifvqek0","pricing_plan_id":"cebpf4jnsgd1na2vs0mg"},{"bike_id":"a5e77653-46b7-42be-ae06-dd075d05a062","system_id":"levelo_inurba_marseille","lat":43.32489,"lon":5.36586,"is_reserved":false,"is_disabled":false,"rental_uris":{"android":"levelo://app?vid=a5e77653-46b7-42be-ae06-dd075d05a062","ios":"levelo://app?vid=a5e77653-46b7-42be-ae06-dd075d05a062"},"vehicle_type_id":"4","last_reported":1781299834,"current_range_meters":7200,"station_id":"ce4bhs12rcd13ifvqhvg","pricing_plan_id":"cebpf4jnsgd1na2vs0mg"},{"bike_id":"932afb10-d230-406f-a6e2-098fe36a2de4","system_id":"levelo_inurba_marseille","lat":43.25326,"lon":5.42161,"is_reserved":false,"is_disabled":false,"rental_uris":{"android":"levelo://app?vid=932afb10-d230-406f-a6e2-098fe36a2de4","ios":"levelo://app?vid=932afb10-d230-406f-a6e2-098fe36a2de4"},"vehicle_type_id":"4","last_reported":1781299834,"current_range_meters":7200,"station_id":"st_d2m65c5bi1j21697t3ng","pricing_plan_id":"cebpf4jnsgd1na2vs0mg"},{"bike_id":"40d12a24-cf28-4a6d-87fd-6bb64cea15d1","system_id":"levelo_inurba_marseille","lat":43.26541,"lon":5.37288,"is_reserved":false,"is_disabled":false,"rental_uris":{"android":"levelo://app?vid=40d12a24-cf28-4a6d-87fd-6bb64cea15d1","ios":"levelo://app?vid=40d12a24-cf28-4a6d-87fd-6bb64cea15d1"},"vehicle_type_id":"4","last_reported":1781299834,"current_range_meters":7200,"station_id":"ce4bhg12rcd13ifvqf70","pricing_plan_id":"cebpf4jnsgd1na2vs0mg"},{"bike_id":"7ec5ac6c-1ad1-484e-b1ac-0dd6240aeac8","system_id":"levelo_inurba_marseille","lat":43.32094,"lon":5.36768,"is_reserved":false,"is_disabled":false,"rental_uris":{"android":"levelo://app?vid=7ec5ac6c-1ad1-484e-b1ac-0dd6240aeac8","ios":"levelo://app?vid=7ec5ac6c-1ad1-484e-b1ac-0dd6240aeac8"},"vehicle_type_id":"4","last_reported":1781299834,"current_range_meters":7200,"station_id":"ce4bhrh2rcd13ifvqhug","pricing_plan_id":"cebpf4jnsgd1na2vs0mg"},{"bike_id":"6a27404a-fd45-46ef-b0c6-d19df52b0472","system_id":"levelo_inurba_marseille","lat":43.30058,"lon":5.37767,"is_reserved":false,"is_disabled":false,"rental_uris":{"android":"levelo://app?vid=6a27404a-fd45-46ef-b0c6-d19df52b0472","ios":"levelo://app?vid=6a27404a-fd45-46ef-b0c6-d19df52b0472"},"vehicle_type_id":"4","last_reported":1781299834,"current_range_meters":7200,"station_id":"","pricing_plan_id":"cebpf4jnsgd1na2vs0mg"},{"bike_id":"0af28dff-10e3-45c2-abfc-a6abed270ace","system_id":"levelo_inurba_marseille","lat":43.33716,"lon":5.39207,"is_reserved":false,"is_disabled":false,"rental_uris":{"android":"levelo://app?vid=0af28dff-10e3-45c2-abfc-a6abed270ace","ios":"levelo://app?vid=0af28dff-10e3-45c2-abfc-a6abed270ace"},"vehicle_type_id":"4","last_reported":1781299834,"current_range_meters":7200,"station_id":"ce4bhr92rcd13ifvqhsg","pricing_plan_id":"cebpf4jnsgd1na2vs0mg"},{"bike_id":"61abc050-794c-43f3-96ae-15565612cd1b","system_id":"levelo_inurba_marseille","lat":43.28671,"lon":5.46677,"is_reserved":false,"is_disabled":false,"rental_uris":{"android":"levelo://app?vid=61abc050-794c-43f3-96ae-15565612cd1b","ios":"levelo://app?vid=61abc050-794c-43f3-96ae-15565612cd1b"},"vehicle_type_id":"4","last_reported":1781299834,"current_range_meters":7200,"station_id":"st_d6tc3vkotcvc738tfjhg","pricing_plan_id":"cebpf4jnsgd1na2vs0mg"},{"bike_id":"925c1e70-5a7e-4c96-b774-c6af84642d7b","system_id":"levelo_inurba_marseille","lat":43.26246,"lon":5.37441,"is_reserved":false,"is_disabled":false,"rental_uris":{"android":"levelo://app?vid=925c1e70-5a7e-4c96-b774-c6af84642d7b","ios":"levelo://app?vid=925c1e70-5a7e-4c96-b774-c6af84642d7b"},"vehicle_type_id":"4","last_reported":1781299834,"current_range_meters":7200,"station_id":"","pricing_plan_id":"cebpf4jnsgd1na2vs0mg"},{"bike_id":"75a8d4bb-5b93-4cf3-8f56-e58ee660da96","system_id":"levelo_inurba_marseille","lat":43.24178,"lon":5.40823,"is_reserved":false,"is_disabled":false,"rental_uris":{"android":"levelo://app?vid=75a8d4bb-5b93-4cf3-8f56-e58ee660da96","ios":"levelo://app?vid=75a8d4bb-5b93-4cf3-8f56-e58ee660da96"},"vehicle_type_id":"4","last_reported":1781299834,"current_range_meters":7200,"station_id":"","pricing_plan_id":"cebpf4jnsgd1na2vs0mg"},{"bike_id":"d7a97713-f5f5-407e-9351-ec37d3a320c5","system_id":"levelo_inurba_marseille","lat":43.29522,"lon":5.38541,"is_reserved":false,"is_disabled":false,"rental_uris":{"android":"levelo://app?vid=d7a97713-f5f5-407e-9351-ec37d3a320c5","ios":"levelo://app?vid=d7a97713-f5f5-407e-9351-ec37d3a320c5"},"vehicle_type_id":"4","last_reported":1781299834,"current_range_meters":7200,"station_id":"ce4bgih2rcd13ifvqba0","pricing_plan_id":"cebpf4jnsgd1na2vs0mg"},{"bike_id":"8bee8db7-aa2b-497e-8a43-f42775c9f1b4","system_id":"levelo_inurba_marseille","lat":43.26059,"lon":5.39402,"is_reserved":false,"is_disabled":false,"rental_uris":{"android":"levelo://app?vid=8bee8db7-aa2b-497e-8a43-f42775c9f1b4","ios":"levelo://app?vid=8bee8db7-aa2b-497e-8a43-f42775c9f1b4"},"vehicle_type_id":"4","last_reported":1781299834,"current_range_meters":7200,"station_id":"ce4bhh92rcd13ifvqfj0","pricing_plan_id":"cebpf4jnsgd1na2vs0mg"},{"bike_id":"01974ce9-2ce7-4184-9698-03768bec9bb4","system_id":"levelo_inurba_marseille","lat":43.28687,"lon":5.46637,"is_reserved":false,"is_disabled":false,"rental_uris":{"android":"levelo://app?vid=01974ce9-2ce7-4184-9698-03768bec9bb4","ios":"levelo://app?vid=01974ce9-2ce7-4184-9698-03768bec9bb4"},"vehicle_type_id":"4","last_reported":1781299834,"current_range_meters":7200,"station_id":"st_d6tc3vkotcvc738tfjhg","pricing_plan_id":"cebpf4jnsgd1na2vs0mg"},{"bike_id":"e359725d-04b5-4451-8ab6-a4ac14bd9ba6","system_id":"levelo_inurba_marseille","lat":43.26682,"lon":5.38276,"is_reserved":false,"is_disabled":false,"rental_uris":{"android":"levelo://app?vid=e359725d-04b5-4451-8ab6-a4ac14bd9ba6","ios":"levelo://app?vid=e359725d-04b5-4451-8ab6-a4ac14bd9ba6"},"vehicle_type_id":"4","last_reported":1781299834,"current_range_meters":7200,"station_id":"","pricing_plan_id":"cebpf4jnsgd1na2vs0mg"},{"bike_id":"5e65bd81-8190-4fc5-9f8e-d040d3bdd292","system_id":"levelo_inurba_marseille","lat":43.26183,"lon":5.37456,"is_reserved":false,"is_disabled":false,"rental_uris":{"android":"levelo://app?vid=5e65bd81-8190-4fc5-9f8e-d040d3bdd292","ios":"levelo://app?vid=5e65bd81-8190-4fc5-9f8e-d040d3bdd292"},"vehicle_type_id":"4","last_reported":1781299834,"current_range_meters":7200,"station_id":"ce4bhgp2rcd13ifvqfc0","pricing_plan_id":"cebpf4jnsgd1na2vs0mg"},{"bike_id":"e1f61ad6-7e3d-40b4-9834-86bf2c8c8eb5","system_id":"levelo_inurba_marseille","lat":43.29539,"lon":5.38553,"is_reserved":false,"is_disabled":false,"rental_uris":{"android":"levelo://app?vid=e1f61ad6-7e3d-40b4-9834-86bf2c8c8eb5","ios":"levelo://app?vid=e1f61ad6-7e3d-40b4-9834-86bf2c8c8eb5"},"vehicle_type_id":"4","last_reported":1781299834,"current_range_meters":7200,"station_id":"ce4bgih2rcd13ifvqba0","pricing_plan_id":"cebpf4jnsgd1na2vs0mg"},{"bike_id":"6238fcf5-9640-4daf-a7e9-dad5928f2be9","system_id":"levelo_inurba_marseille","lat":43.24806,"lon":5.37457,"is_reserved":false,"is_disabled":false,"rental_uris":{"android":"levelo://app?vid=6238fcf5-9640-4daf-a7e9-dad5928f2be9","ios":"levelo://app?vid=6238fcf5-9640-4daf-a7e9-dad5928f2be9"},"vehicle_type_id":"4","last_reported":1781299834,"current_range_meters":7200,"station_id":"ce4bhgh2rcd13ifvqfb0","pricing_plan_id":"cebpf4jnsgd1na2vs0mg"},{"bike_id":"cdf52cdf-6a66-44ec-be4a-b3cda60316f0","system_id":"levelo_inurba_marseille","lat":43.29011,"lon":5.3998,"is_reserved":false,"is_disabled":false,"rental_uris":{"android":"levelo://app?vid=cdf52cdf-6a66-44ec-be4a-b3cda60316f0","ios":"levelo://app?vid=cdf52cdf-6a66-44ec-be4a-b3cda60316f0"},"vehicle_type_id":"4","last_reported":1781299834,"current_range_meters":7200,"station_id":"ce4bh392rcd13ifvqdm0","pricing_plan_id":"cebpf4jnsgd1na2vs0mg"},{"bike_id":"a48ddd59-740a-46d1-a488-52db0b6c8054","system_id":"levelo_inurba_marseille","lat":43.260248,"lon":5.375492,"is_reserved":false,"is_disabled":false,"rental_uris":{"android":"levelo://app?vid=a48ddd59-740a-46d1-a488-52db0b6c8054","ios":"levelo://app?vid=a48ddd59-740a-46d1-a488-52db0b6c8054"},"vehicle_type_id":"4","last_reported":1781299834,"current_range_meters":7200,"station_id":"ce4bhgh2rcd13ifvqfa0","pricing_plan_id":"cebpf4jnsgd1na2vs0mg"},{"bike_id":"f7453a07-acc8-4a0c-b4d8-3250378f0a1d","system_id":"levelo_inurba_marseille","lat":43.26681,"lon":5.38265,"is_reserved":false,"is_disabled":false,"rental_uris":{"android":"levelo://app?vid=f7453a07-acc8-4a0c-b4d8-3250378f0a1d","ios":"levelo://app?vid=f7453a07-acc8-4a0c-b4d8-3250378f0a1d"},"vehicle_type_id":"4","last_reported":1781299834,"current_range_meters":7200,"station_id":"ce4bhg92rcd13ifvqf90","pricing_plan_id":"cebpf4jnsgd1na2vs0mg"},