{"last_updated":1716581279,"ttl":30,"version":"2.2","data":{"bikes":[{"bike_id":"3985fa50-573b-4da0-ba15-98abd4d18252","system_id":"levelo_inurba_marseille","lat":43.313391,"lon":5.36706,"is_reserved":false,"is_disabled":false,"rental_uris":{"android":"levelo://app?vid=3985fa50-573b-4da0-ba15-98abd4d18252","ios":"levelo://app?vid=3985fa50-573b-4da0-ba15-98abd4d18252"},"vehicle_type_id":"4","last_reported":1716581279,"current_range_meters":22000,"station_id":"ce4bgr92rcd13ifvqc6g","pricing_plan_id":"cebpf4jnsgd1na2vs0mg"},{"bike_id":"f2afdebb-1e02-404c-be9b-ccbf569bd622","system_id":"levelo_inurba_marseille","lat":43.312239,"lon":5.368562,"is_reserved":false,"is_disabled":false,"rental_uris":{"android":"levelo://app?vid=f2afdebb-1e02-404c-be9b-ccbf569bd622","ios":"levelo://app?vid=f2afdebb-1e02-404c-be9b-ccbf569bd622"},"vehicle_type_id":"4","last_reported":1716581279,"current_range_meters":16400,"station_id":"ce4bgl92rcd13ifvqbq0","pricing_plan_id":"cebpf4jnsgd1na2vs0mg"},{"bike_id":"73d4ccd6-64d8-42d0-90ab-2b7e71d26448","system_id":"levelo_inurba_marseille","lat":43.30909,"lon":5.36857,"is_reserved":false,"is_disabled":false,"rental_uris":{"android":"levelo://app?vid=73d4ccd6-64d8-42d0-90ab-2b7e71d26448","ios":"levelo://app?vid=73d4ccd6-64d8-42d0-90ab-2b7e71d26448"},"vehicle_type_id":"4","last_reported":1716581279,"current_range_meters":3200,"station_id":"ce4bgn92rcd13ifvqbvg","pricing_plan_id":"cebpf4jnsgd1na2vs0mg"},{"bike_id":"a0528aeb-bdb5-4fd2-9e73-7a702481c9e7","system_id":"levelo_inurba_marseille","lat":43.314811,"lon":5.373103,"is_reserved":false,"is_disabled":false,"rental_uris":{"android":"levelo://app?vid=a0528aeb-bdb5-4fd2-9e73-7a702481c9e7","ios":"levelo://app?vid=a0528aeb-bdb5-4fd2-9e73-7a702481c9e7"},"vehicle_type_id":"4","last_reported":1716581279,"current_range_meters":6400,"station_id":"ce4bgt12rcd13ifvqcd0","pricing_plan_id":"cebpf4jnsgd1na2vs0mg"},{"bike_id":"680accf6-ed3b-4787-af41-1076d02d7782","system_id":"levelo_inurba_marseille","lat":43.314944,"lon":5.373069,"is_reserved":false,"is_disabled":false,"rental_uris":{"android":"levelo://app?vid=680accf6-ed3b-4787-af41-1076d02d7782","ios":"levelo://app?vid=680accf6-ed3b-4787-af41-1076d02d7782"},"vehicle_type_id":"4","last_reported":1716581279,"current_range_meters":0,"station_id":"ce4bgt12rcd13ifvqcd0","pricing_plan_id":"cebpf4jnsgd1na2vs0mg"},{"bike_id":"3725c023-ca5e-456e-ae6e-93911242638c","system_id":"levelo_inurba_marseille","lat":43.314811,"lon":5.373103,"is_reserved":false,"is_disabled":false,"rental_uris":{"android":"levelo://app?vid=3725c023-ca5e-456e-ae6e-93911242638c","ios":"levelo://app?vid=3725c023-ca5e-456e-ae6e-93911242638c"},"vehicle_type_id":"4","last_reported":1716581279,"current_range_meters":14400,"station_id":"ce4bgt12rcd13ifvqcd0","pricing_plan_id":"cebpf4jnsgd1na2vs0mg"},{"bike_id":"08983ad2-04ce-4606-9155-45bf09262516","system_id":"levelo_inurba_marseille","lat":43.314811,"lon":5.373104,"is_reserved":false,"is_disabled":false,"rental_uris":{"android":"levelo://app?vid=08983ad2-04ce-4606-9155-45bf09262516","ios":"levelo://app?vid=08983ad2-04ce-4606-9155-45bf09262516"},"vehicle_type_id":"4","last_reported":1716581279,"current_range_meters":0,"station_id":"ce4bgt12rcd13ifvqcd0","pricing_plan_id":"cebpf4jnsgd1na2vs0mg"},{"bike_id":"797895c1-fd2a-47fb-827e-f8bae353946d","system_id":"levelo_inurba_marseille","lat":43.314811,"lon":5.373103,"is_reserved":false,"is_disabled":false,"rental_uris":{"android":"levelo://app?vid=797895c1-fd2a-47fb-827e-f8bae353946d","ios":"levelo://app?vid=797895c1-fd2a-47fb-827e-f8bae353946d"},"vehicle_type_id":"4","last_reported":1716581279,"current_range_meters":8400,"station_id":"ce4bgt12rcd13ifvqcd0","pricing_plan_id":"cebpf4jnsgd1na2vs0mg"},{"bike_id":"fe53bfb2-7aa2-4ac2-a339-1ef2deb4a7ec","system_id":"levelo_inurba_marseille","lat":43.309039,"lon":5.371797,"is_reserved":false,"is_disabled":false,"rental_uris":{"android":"levelo://app?vid=fe53bfb2-7aa2-4ac2-a339-1ef2deb4a7ec","ios":"levelo://app?vid=fe53bfb2-7aa2-4ac2-a339-1ef2deb4a7ec"},"vehicle_type_id":"4","last_reported":1716581279,"current_range_meters":17600,"station_id":"ce4bguh2rcd13ifvqckg","pricing_plan_id":"cebpf4jnsgd1na2vs0mg"},{"bike_id":"0bff9da8-2424-4117-84e9-6aa1cea12f0c","system_id":"levelo_inurba_marseille","lat":43.309034,"lon":5.371783,"is_reserved":false,"is_disabled":false,"rental_uris":{"android":"levelo://app?vid=0bff9da8-2424-4117-84e9-6aa1cea12f0c","ios":"levelo://app?vid=0bff9da8-2424-4117-84e9-6aa1cea12f0c"},"vehicle_type_id":"4","last_reported":1716581279,"current_range_meters":20400,"station_id":"ce4bguh2rcd13ifvqckg","pricing_plan_id":"cebpf4jnsgd1na2vs0mg"},{"bike_id":"f607a2d9-dea8-4867-a264-a375240e5b9a","system_id":"levelo_inurba_marseille","lat":43.31672,"lon":5.3722,"is_reserved":false,"is_disabled":false,"rental_uris":{"android":"levelo://app?vid=f607a2d9-dea8-4867-a264-a375240e5b9a","ios":"levelo://app?vid=f607a2d9-dea8-4867-a264-a375240e5b9a"},"vehicle_type_id":"4","last_reported":1716581279,"current_range_meters":2000,"station_id":"","pricing_plan_id":"cebpf4jnsgd1na2vs0mg"},{"bike_id":"085f8808-1d82-4a31-a42a-8e58df7e3717","system_id":"levelo_inurba_marseille","lat":43.306004,"lon":5.372197,"is_reserved":false,"is_disabled":false,"rental_uris":{"android":"levelo://app?vid=085f8808-1d82-4a31-a42a-8e58df7e3717","ios":"levelo://app?vid=085f8808-1d82-4a31-a42a-8e58df7e3717"},"vehicle_type_id":"4","last_reported":1716581279,"current_range_meters":31200,"station_id":"","pricing_plan_id":"cebpf4jnsgd1na2vs0mg"},{"bike_id":"7f16e208-a196-475f-ac1b-f66dcfc734ce","system_id":"levelo_inurba_marseille","lat":43.305989,"lon":5.37225,"is_reserved":false,"is_disabled":false,"rental_uris":{"android":"levelo://app?vid=7f16e208-a196-475f-ac1b-f66dcfc734ce","ios":"levelo://app?vid=7f16e208-a196-475f-ac1b-f66dcfc734ce"},"vehicle_type_id":"4","last_reported":1716581279,"current_range_meters":0,"station_id":"ce4bgqh2rcd13ifvqc4g","pricing_plan_id":"cebpf4jnsgd1na2vs0mg"},{"bike_id":"f7f2d8fb-7da3-490f-8414-b705eeddd1cd","system_id":"levelo_inurba_marseille","lat":43.311131,"lon":5.377651,"is_reserved":false,"is_disabled":false,"rental_uris":{"android":"levelo://app?vid=f7f2d8fb-7da3-490f-8414-b705eeddd1cd","ios":"levelo://app?vid=f7f2d8fb-7da3-490f-8414-b705eeddd1cd"},"vehicle_type_id":"4","last_reported":1716581279,"current_range_meters":7200,"station_id":"ce4bgt92rcd13ifvqcg0","pricing_plan_id":"cebpf4jnsgd1na2vs0mg"},{"bike_id":"3d8894ce-039d-4f34-bf18-a5770c6f6b7d","system_id":"levelo_inurba_marseille","lat":43.307945,"lon":5.376487,"is_reserved":false,"is_disabled":false,"rental_uris":{"android":"levelo://app?vid=3d8894ce-039d-4f34-bf18-a5770c6f6b7d","ios":"levelo://app?vid=3d8894ce-039d-4f34-bf18-a5770c6f6b7d"},"vehicle_type_id":"4","last_reported":1716581279,"current_range_meters":11600,"station_id":"ce4bgv92rcd13ifvqcq0","pricing_plan_id":"cebpf4jnsgd1na2vs0mg"},{"bike_id":"7173f743-ec7e-4945-9415-050295bbdabe","system_id":"levelo_inurba_marseille","lat":43.30537,"lon":5.367345,"is_reserved":false,"is_disabled":false,"rental_uris":{"android":"levelo://app?vid=7173f743-ec7e-4945-9415-050295bbdabe","ios":"levelo://app?vid=7173f743-ec7e-4945-9415-050295bbdabe"},"vehicle_type_id":"4","last_reported":1716581279,"current_range_meters":22000,"station_id":"ce4bgrp2rcd13ifvqc9g","pricing_plan_id":"cebpf4jnsgd1na2vs0mg"},{"bike_id":"7156561f-58ad-460b-95be-0b3ffc4ba2d5","system_id":"levelo_inurba_marseille","lat":43.317075,"lon":5.377367,"is_reserved":false,"is_disabled":false,"rental_uris":{"android":"levelo://app?vid=7156561f-58ad-460b-95be-0b3ffc4ba2d5","ios":"levelo://app?vid=7156561f-58ad-460b-95be-0b3ffc4ba2d5"},"vehicle_type_id":"4","last_reported":1716581279,"current_range_meters":10800,"station_id":"ce4bgth2rcd13ifvqch0","pricing_plan_id":"cebpf4jnsgd1na2vs0mg"},{"bike_id":"a3eea9da-e081-4b61-abad-ef1d81822ea7","system_id":"levelo_inurba_marseille","lat":43.317075,"lon":5.377367,"is_reserved":false,"is_disabled":false,"rental_uris":{"android":"levelo://app?vid=a3eea9da-e081-4b61-abad-ef1d81822ea7","ios":"levelo://app?vid=a3eea9da-e081-4b61-abad-ef1d81822ea7"},"vehicle_type_id":"4","last_reported":1716581279,"current_range_meters":11200,"station_id":"ce4bgth2rcd13ifvqch0","pricing_plan_id":"cebpf4jnsgd1na2vs0mg"},{"bike_id":"f73273d6-14cd-4694-923c-feb9ff006f76","system_id":"levelo_inurba_marseille","lat":43.317075,"lon":5.377367,"is_reserved":false,"is_disabled":false,"rental_uris":{"android":"levelo://app?vid=f73273d6-14cd-4694-923c-feb9ff006f76","ios":"levelo://app?vid=f73273d6-14cd-4694-923c-feb9ff006f76"},"vehicle_type_id":"4","last_reported":1716581279,"current_range_meters":10400,"station_id":"ce4bgth2rcd13ifvqch0","pricing_plan_id":"cebpf4jnsgd1na2vs0mg"},{"bike_id":"9c4dca65-26a6-416b-8816-f9c5b1ca6b50","system_id":"levelo_inurba_marseille","lat":43.303035,"lon":5.368749,"is_reserved":false,"is_disabled":false,"rental_uris":{"android":"levelo://app?vid=9c4dca65-26a6-416b-8816-f9c5b1ca6b50","ios":"levelo://app?vid=9c4dca65-26a6-416b-8816-f9c5b1ca6b50"},"vehicle_type_id":"4","last_reported":1716581279,"current_range_meters":0,"station_id":"ce4bgqh2rcd13ifvqc5g","pricing_plan_id":"cebpf4jnsgd1na2vs0mg"},{"bike_id":"15c4e31b-acc6-467e-8e0e-43f24a21bbd0","system_id":"levelo_inurba_marseille","lat":43.315293,"lon":5.380349,"is_reserved":false,"is_disabled":false,"rental_uris":{"android":"levelo://app?vid=15c4e31b-acc6-467e-8e0e-43f24a21bbd0","ios":"levelo://app?vid=15c4e31b-acc6-467e-8e0e-43f24a21bbd0"},"vehicle_type_id":"4","last_reported":1716581279,"current_range_meters":27600,"station_id":"ce4bhsp2rcd13ifvqi50","pricing_plan_id":"cebpf4jnsgd1na2vs0mg"},{"bike_id":"1f13e6a8-8290-41b0-9b49-25d9da15ae75","system_id":"levelo_inurba_marseille","lat":43.32079,"lon":5.375731,"is_reserved":false,"is_disabled":false,"rental_uris":{"android":"levelo://app?vid=1f13e6a8-8290-41b0-9b49-25d9da15ae75","ios":"levelo://app?vid=1f13e6a8-8290-41b0-9b49-25d9da15ae75"},"vehicle_type_id":"4","last_reported":1716581279,"current_range_meters":2400,"station_id":"","pricing_plan_id":"cebpf4jnsgd1na2vs0mg"},{"bike_id":"50afe27a-382a-43bf-8aa1-feaff2a0af42","system_id":"levelo_inurba_marseille","lat":43.301939,"lon":5.366286,"is_reserved":false,"is_disabled":false,"rental_uris":{"android":"levelo://app?vid=50afe27a-382a-43bf-8aa1-feaff2a0af42","ios":"levelo://app?vid=50afe27a-382a-43bf-8aa1-feaff2a0af42"},"vehicle_type_id":"4","last_reported":1716581279,"current_range_meters":7200,"station_id":"ce4bgrh2rcd13ifvqc8g","pricing_plan_id":"cebpf4jnsgd1na2vs0mg"},{"bike_id":"d4d19976-62c0-4d9c-8fa0-d7c4c2d14c1f","system_id":"levelo_inurba_marseille","lat":43.301939,"lon":5.366286,"is_reserved":false,"is_disabled":false,"rental_uris":{"android":"levelo://app?vid=d4d19976-62c0-4d9c-8fa0-d7c4c2d14c1f","ios":"levelo://app?vid=d4d19976-62c0-4d9c-8fa0-d7c4c2d14c1f"},"vehicle_type_id":"4","last_reported":1716581279,"current_range_meters":20000,"station_id":"ce4bgrh2rcd13ifvqc8g","pricing_plan_id":"cebpf4jnsgd1na2vs0mg"},{"bike_id":"b57f94ea-ac09-4f40-afab-e2508999d37a","system_id":"levelo_inurba_marseille","lat":43.301939,"lon":5.366286,"is_reserved":false,"is_disabled":false,"rental_uris":{"android":"levelo://app?vid=b57f94ea-ac09-4f40-afab-e2508999d37a","ios":"levelo://app?vid=b57f94ea-ac09-4f40-afab-e2508999d37a"},"vehicle_type_id":"4","last_reported":1716581279,"current_range_meters":14400,"station_id":"ce4bgrh2rcd13ifvqc8g","pricing_plan_id":"cebpf4jnsgd1na2vs0mg"},{"bike_id":"4809ba28-6ae0-4c13-8f80-e70e3ce2e322","system_id":"levelo_inurba_marseille","lat":43.301939,"lon":5.366286,"is_reserved":false,"is_disabled":false,"rental_uris":{"android":"levelo://app?vid=4809ba28-6ae0-4c13-8f80-e70e3ce2e322","ios":"levelo://app?vid=4809ba28-6ae0-4c13-8f80-e70e3ce2e322"},"vehicle_type_id":"4","last_reported":1716581279,"current_range_meters":16400,"station_id":"ce4bgrh2rcd13ifvqc8g","pricing_plan_id":"cebpf4jnsgd1na2vs0mg"},{"bike_id":"57db3377-05c8-4ba1-b4bf-9b5b00778a3c","system_id":"levelo_inurba_marseille","lat":43.308012,"lon":5.381511,"is_reserved":false,"is_disabled":false,"rental_uris":{"android":"levelo://app?vid=57db3377-05c8-4ba1-b4bf-9b5b00778a3c","ios":"levelo://app?vid=57db3377-05c8-4ba1-b4bf-9b5b00778a3c"},"vehicle_type_id":"4","last_reported":1716581279,"current_range_meters":0,"station_id":"ce4bgt12rcd13ifvqce0","pricing_plan_id":"cebpf4jnsgd1na2vs0mg"},{"bike_id":"93493a72-68e8-4882-9261-f912887fa50f","system_id":"levelo_inurba_marseille","lat":43.308012,"lon":5.381511,"is_reserved":false,"is_disabled":false,"rental_uris":{"android":"levelo://app?vid=93493a72-68e8-4882-9261-f912887fa50f","ios":"levelo://app?vid=93493a72-68e8-4882-9261-f912887fa50f"},"vehicle_type_id":"4","last_reported":1716581279,"current_range_meters":20000,"station_id":"ce4bgt12rcd13ifvqce0","pricing_plan_id":"cebpf4jnsgd1na2vs0mg"},{"bike_id":"f8ed2b1a-b95d-46f0-8bd0-01e9a2f1df01","system_id":"levelo_inurba_marseille","lat":43.308012,"lon":5.381511,"is_reserved":false,"is_disabled":false,"rental_uris":{"android":"levelo://app?vid=f8ed2b1a-b95d-46f0-8bd0-01e9a2f1df01","ios":"levelo://app?vid=f8ed2b1a-b95d-46f0-8bd0-01e9a2f1df01"},"vehicle_type_id":"4","last_reported":1716581279,"current_range_meters":20000,"station_id":"ce4bgt12rcd13ifvqce0","pricing_plan_id":"cebpf4jnsgd1na2vs0mg"},{"bike_id":"077fd208-e0eb-458b-86f9-bf63798e8702","system_id":"levelo_inurba_marseille","lat":43.304606,"lon":5.379026,"is_reserved":false,"is_disabled":false,"rental_uris":{"android":"levelo://app?vid=077fd208-e0eb-458b-86f9-bf63798e8702","ios":"levelo://app?vid=077fd208-e0eb-458b-86f9-bf63798e8702"},"vehicle_type_id":"4","last_reported":1716581279,"current_range_meters":1200,"station_id":"ce4bgup2rcd13ifvqcn0","pricing_plan_id":"cebpf4jnsgd1na2vs0mg"},{"bike_id":"f18f6616-a199-42ce-b7b9-e4c61ca6082c","system_id":"levelo_inurba_marseille","lat":43.304606,"lon":5.379026,"is_reserved":false,"is_disabled":false,"rental_uris":{"android":"levelo://app?vid=f18f6616-a199-42ce-b7b9-e4c61ca6082c","ios":"levelo://app?vid=f18f6616-a199-42ce-b7b9-e4c61ca6082c"},"vehicle_type_id":"4","last_reported":1716581279,"current_range_meters":18800,"station_id":"ce4bgup2rcd13ifvqcn0","pricing_plan_id":"cebpf4jnsgd1na2vs0mg"},{"bike_id":"3437d4b5-05b0-40f8-bc8a-989e33f13e7b","system_id":"levelo_inurba_marseille","lat":43.304534,"lon":5.378929,"is_reserved":false,"is_disabled":false,"rental_uris":{"android":"levelo://app?vid=3437d4b5-05b0-40f8-bc8a-989e33f13e7b","ios":"levelo://app?vid=3437d4b5-05b0-40f8-bc8a-989e33f13e7b"},"vehicle_type_id":"4","last_reported":1716581279,"current_range_meters":4400,"station_id":"ce4bgup2rcd13ifvqcn0","pricing_plan_id":"cebpf4jnsgd1na2vs0mg"},{"bike_id":"9edb4c5f-dad8-4395-b921-ea0b8745f5cb","system_id":"levelo_inurba_marseille","lat":43.304606,"lon":5.379026,"is_reserved":false,"is_disabled":false,"rental_uris":{"android":"levelo://app?vid=9edb4c5f-dad8-4395-b921-ea0b8745f5cb","ios":"levelo://app?vid=9edb4c5f-dad8-4395-b921-ea0b8745f5cb"},"vehicle_type_id":"4","last_reported":1716581279,"current_range_meters":800,"station_id":"ce4bgup2rcd13ifvqcn0","pricing_plan_id":"cebpf4jnsgd1na2vs0mg"},{"bike_id":"97623218-2c44-4f6d-b8ad-293117adf315","system_id":"levelo_inurba_marseille","lat":43.304606,"lon":5.379026,"is_reserved":false,"is_disabled":false,"rental_uris":{"android":"levelo://app?vid=97623218-2c44-4f6d-b8ad-293117adf315","ios":"levelo://app?vid=97623218-2c44-4f6d-b8ad-293117adf315"},"vehicle_type_id":"4","last_reported":1716581279,"current_range_meters":10400,"station_id":"ce4bgup2rcd13ifvqcn0","pricing_plan_id":"cebpf4jnsgd1na2vs0mg"},{"bike_id":"a6ea22b3-4ef0-49e0-bab9-eab5b157213a","system_id":"levelo_inurba_marseille","lat":43.304606,"lon":5.379026,"is_reserved":false,"is_disabled":false,"rental_uris":{"android":"levelo://app?vid=a6ea22b3-4ef0-49e0-bab9-eab5b157213a","ios":"levelo://app?vid=a6ea22b3-4ef0-49e0-bab9-eab5b157213a"},"vehicle_type_id":"4","last_reported":1716581279,"current_range_meters":19200,"station_id":"ce4bgup2rcd13ifvqcn0","pricing_plan_id":"cebpf4jnsgd1na2vs0mg"},{"bike_id":"03b2d0ac-4855-463a-a2f0-be21041dc802","system_id":"levelo_inurba_marseille","lat":43.304606,"lon":5.379026,"is_reserved":false,"is_disabled":false,"rental_uris":{"android":"levelo://app?vid=03b2d0ac-4855-463a-a2f0-be21041dc802","ios":"levelo://app?vid=03b2d0ac-4855-463a-a2f0-be21041dc802"},"vehicle_type_id":"4","last_reported":1716581279,"current_range_meters":31600,"station_id":"ce4bgup2rcd13ifvqcn0","pricing_plan_id":"cebpf4jnsgd1na2vs0mg"},{"bike_id":"6fc99fd3-d6ca-414e-884d-25a7ef9d3d9e","system_id":"levelo_inurba_marseille","lat":43.324771,"lon":5.36557,"is_reserved":false,"is_disabled":false,"rental_uris":{"android":"levelo://app?vid=6fc99fd3-d6ca-414e-884d-25a7ef9d3d9e","ios":"levelo://app?vid=6fc99fd3-d6ca-414e-884d-25a7ef9d3d9e"},"vehicle_type_id":"4","last_reported":1716581279,"current_range_meters":5200,"station_id":"ce4bhs12rcd13ifvqhvg","pricing_plan_id":"cebpf4jnsgd1na2vs0mg"},{"bike_id":"16a06ed8-703e-4278-a699-b2724d031bcd","system_id":"levelo_inurba_marseille","lat":43.32481,"lon":5.36559,"is_reserved":false,"is_disabled":false,"rental_uris":{"android":"levelo://app?vid=16a06ed8-703e-4278-a699-b2724d031bcd","ios":"levelo://app?vid=16a06ed8-703e-4278-a699-b2724d031bcd"},"vehicle_type_id":"4","last_reported":1716581279,"current_range_meters":0,"station_id":"ce4bhs12rcd13ifvqhvg","pricing_plan_id":"cebpf4jnsgd1na2vs0mg"},{"bike_id":"97aa767d-4a7c-4d81-b244-c5d3efb49efc","system_id":"levelo_inurba_marseille","lat":43.324771,"lon":5.36557,"is_reserved":false,"is_disabled":false,"rental_uris":{"android":"levelo://app?vid=97aa767d-4a7c-4d81-b244-c5d3efb49efc","ios":"levelo://app?vid=97aa767d-4a7c-4d81-b244-c5d3efb49efc"},"vehicle_type_id":"4","last_reported":1716581279,"current_range_meters":24800,"station_id":"ce4bhs12rcd13ifvqhvg","pricing_plan_id":"cebpf4jnsgd1na2vs0mg"},{"bike_id":"5526f99e-ce5b-4832-b293-0afb424949db","system_id":"levelo_inurba_marseille","lat":43.31075,"lon":5.38351,"is_reserved":false,"is_disabled":false,"rental_uris":{"android":"levelo://app?vid=5526f99e-ce5b-4832-b293-0afb424949db","ios":"levelo://app?vid=5526f99e-ce5b-4832-b293-0afb424949db"},"vehicle_type_id":"4","last_reported":1716581279,"current_range_meters":0,"station_id":"ce4bgv92rcd13ifvqcr0","pricing_plan_id":"cebpf4jnsgd1na2vs0mg"},{"bike_id":"d538da81-6f3a-4626-a16b-11c9293668b8","system_id":"levelo_inurba_marseille","lat":43.310804,"lon":5.38359,"is_reserved":false,"is_disabled":false,"rental_uris":{"android":"levelo://app?vid=d538da81-6f3a-4626-a16b-11c9293668b8","ios":"levelo://app?vid=d538da81-6f3a-4626-a16b-11c9293668b8"},"vehicle_type_id":"4","last_reported":1716581279,"current_range_meters":31200,"station_id":"ce4bgv92rcd13ifvqcr0","pricing_plan_id":"cebpf4jnsgd1na2vs0mg"},{"bike_id":"66bb4919-832a-4540-b63f-1fda147e5881","system_id":"levelo_inurba_marseille","lat":43.302784,"lon":5.377158,"is_reserved":false,"is_disabled":false,"rental_uris":{"android":"levelo://app?vid=66bb4919-832a-4540-b63f-1fda147e5881","ios":"levelo://app?vid=66bb4919-832a-4540-b63f-1fda147e5881"},"vehicle_type_id":"4","last_reported":1716581279,"current_range_meters":15600,"station_id":"ce4bguh2rcd13ifvqcj0","pricing_plan_id":"cebpf4jnsgd1na2vs0mg"},{"bike_id":"7dcbb485-8da0-40d1-8aa0-c2b853805002","system_id":"levelo_inurba_marseille","lat":43.310804,"lon":5.38359,"is_reserved":false,"is_disabled":false,"rental_uris":{"android":"levelo://app?vid=7dcbb485-8da0-40d1-8aa0-c2b853805002","ios":"levelo://app?vid=7dcbb485-8da0-40d1-8aa0-c2b853805002"},"vehicle_type_id":"4","last_reported":1716581279,"current_range_meters":8800,"station_id":"ce4bgv92rcd13ifvqcr0","pricing_plan_id":"cebpf4jnsgd1na2vs0mg"},{"bike_id":"fef876b3-9b54-4928-8521-41ad56e5a33e","system_id":"levelo_inurba_marseille","lat":43.310804,"lon":5.38359,"is_reserved":false,"is_disabled":false,"rental_uris":{"android":"levelo://app?vid=fef876b3-9b54-4928-8521-41ad56e5a33e","ios":"levelo://app?vid=fef876b3-9b54-4928-8521-41ad56e5a33e"},"vehicle_type_id":"4","last_reported":1716581279,"current_range_meters":21600,"station_id":"ce4bgv92rcd13ifvqcr0","pricing_plan_id":"cebpf4jnsgd1na2vs0mg"},{"bike_id":"cea67c1b-d1a2-41ad-8017-c10bdd6cdc75","system_id":"levelo_inurba_marseille","lat":43.304606,"lon":5.379026,"is_reserved":false,"is_disabled":false,"rental_uris":{"android":"levelo://app?vid=cea67c1b-d1a2-41ad-8017-c10bdd6cdc75","ios":"levelo://app?vid=cea67c1b-d1a2-41ad-8017-c10bdd6cdc75"},"vehicle_type_id":"4","last_reported":1716581279,"current_range_meters":13600,"station_id":"ce4bgup2rcd13ifvqcn0","pricing_plan_id":"cebpf4jnsgd1na2vs0mg"},{"bike_id":"6628c81a-85d0-456a-be28-285a2f2ae4ed","system_id":"levelo_inurba_marseille","lat":43.302784,"lon":5.377158,"is_reserved":false,"is_disabled":false,"rental_uris":{"android":"levelo://app?vid=6628c81a-85d0-456a-be28-285a2f2ae4ed","ios":"levelo://app?vid=6628c81a-85d0-456a-be28-285a2f2ae4ed"},"vehicle_type_id":"4","last_reported":1716581279,"current_range_meters":1200,"station_id":"ce4bguh2rcd13ifvqcj0","pricing_plan_id":"cebpf4jnsgd1na2vs0mg"},{"bike_id":"30b35093-0d62-4be4-a668-932fe3b4dd4f","system_id":"levelo_inurba_marseille","lat":43.310804,"lon":5.38359,"is_reserved":false,"is_disabled":false,"rental_uris":{"android":"levelo://app?vid=30b35093-0d62-4be4-a668-932fe3b4dd4f","ios":"levelo://app?vid=30b35093-0d62-4be4-a668-932fe3b4dd4f"},"vehicle_type_id":"4","last_reported":1716581279,"current_range_meters":26000,"station_id":"ce4bgv92rcd13ifvqcr0","pricing_plan_id":"cebpf4jnsgd1na2vs0mg"},{"bike_id":"7cea4282-6561-4cfb-aaee-5c825634b42a","system_id":"levelo_inurba_marseille","lat":43.310804,"lon":5.38359,"is_reserved":false,"is_disabled":false,"rental_uris":{"android":"levelo://app?vid=7cea4282-6561-4cfb-aaee-5c825634b42a","ios":"levelo://app?vid=7cea4282-6561-4cfb-aaee-5c825634b42a"},"vehicle_type_id":"4","last_reported":1716581279,"current_range_meters":0,"station_id":"ce4bgv92rcd13ifvqcr0","pricing_plan_id":"cebpf4jnsgd1na2vs0mg"},{"bike_id":"926ea45f-f6f9-4d97-9233-6b68f6a95716","system_id":"levelo_inurba_marseille","lat":43.310804,"lon":5.38359,"is_reserved":false,"is_disabled":false,"rental_uris":{"android":"levelo://app?vid=926ea45f-f6f9-4d97-9233-6b68f6a95716","ios":"levelo://app?vid=926ea45f-f6f9-4d97-9233-6b68f6a95716"},"vehicle_type_id":"4","last_reported":1716581279,"current_range_meters":31200,"station_id":"ce4bgv92rcd13ifvqcr0","pricing_plan_id":"cebpf4jnsgd1na2vs0mg"},{"bike_id":"5dde7c7e-b78a-40e4-85af-933cd19e89d9","system_id":"levelo_inurba_marseille","lat":43.310804,"lon":5.38359,"is_reserved":false,"is_disabled":false,"rental_uris":{"android":"levelo://app?vid=5dde7c7e-b78a-40e4-85af-933cd19e89d9","ios":"levelo://app?vid=5dde7c7e-b78a-40e4-85af-933cd19e89d9"},"vehicle_type_id":"4","last_reported":1716581279,"current_range_meters":25600,"station_id":"ce4bgv92rcd13ifvqcr0","pricing_plan_id":"cebpf4jnsgd1na2vs0mg"},{"bike_id":"23f9a920-44c7-4cac-89cc-648cb87f0a0f","system_id":"levelo_inurba_marseille","lat":43.310804,"lon":5.38359,"is_reserved":false,"is_disabled":false,"rental_uris":{"android":"levelo://app?vid=23f9a920-44c7-4cac-89cc-648cb87f0a0f","ios":"levelo://app?vid=23f9a920-44c7-4cac-89cc-648cb87f0a0f"},"vehicle_type_id":"4","last_reported":1716581279,"current_range_meters":9200,"station_id":"ce4bgv92rcd13ifvqcr0","pricing_plan_id":"cebpf4jnsgd1na2vs0mg"},{"bike_id":"35bc0e44-74b0-496a-91e9-609183414d04","system_id":"levelo_inurba_marseille","lat":43.310804,"lon":5.38359,"is_reserved":false,"is_disabled":false,"rental_uris":{"android":"levelo://app?vid=35bc0e44-74b0-496a-91e9-609183414d04","ios":"levelo://app?vid=35bc0e44-74b0-496a-91e9-609183414d04"},"vehicle_type_id":"4","last_reported":1716581279,"current_range_meters":800,"station_id":"ce4bgv92rcd13ifvqcr0","pricing_plan_id":"cebpf4jnsgd1na2vs0mg"},{"bike_id":"0b778e5a-ce21-4cb5-a3e7-9e239eef6665","system_id":"levelo_inurba_marseille","lat":43.302784,"lon":5.377158,"is_reserved":false,"is_disabled":false,"rental_uris":{"android":"levelo://app?vid=0b778e5a-ce21-4cb5-a3e7-9e239eef6665","ios":"levelo://app?vid=0b778e5a-ce21-4cb5-a3e7-9e239eef6665"},"vehicle_type_id":"4","last_reported":1716581279,"current_range_meters":23600,"station_id":"ce4bguh2rcd13ifvqcj0","pricing_plan_id":"cebpf4jnsgd1na2vs0mg"},{"bike_id":"659b5f1e-1b58-48d0-8b18-0f8309fdf1c3","system_id":"levelo_inurba_marseille","lat":43.319935,"lon":5.381699,"is_reserved":false,"is_disabled":false,"rental_uris":{"android":"levelo://app?vid=659b5f1e-1b58-48d0-8b18-0f8309fdf1c3","ios":"levelo://app?vid=659b5f1e-1b58-48d0-8b18-0f8309fdf1c3"},"vehicle_type_id":"4","last_reported":1716581279,"current_range_meters":2400,"station_id":"ce4bhr12rcd13ifvqhpg","pricing_plan_id":"cebpf4jnsgd1na2vs0mg"},{"bike_id":"7217e5c8-6503-4cd6-8114-794c23bbe059","system_id":"levelo_inurba_marseille","lat":43.319969,"lon":5.381433,"is_reserved":false,"is_disabled":false,"rental_uris":{"android":"levelo://app?vid=7217e5c8-6503-4cd6-8114-794c23bbe059","ios":"levelo://app?vid=7217e5c8-6503-4cd6-8114-794c23bbe059"},"vehicle_type_id":"4","last_reported":1716581279,"current_range_meters":2800,"station_id":"ce4bhr12rcd13ifvqhpg","pricing_plan_id":"cebpf4jnsgd1na2vs0mg"},{"bike_id":"71369abf-e394-4940-97da-986f25abee8b","system_id":"levelo_inurba_marseille","lat":43.319935,"lon":5.381699,"is_reserved":false,"is_disabled":false,"rental_uris":{"android":"levelo://app?vid=71369abf-e394-4940-97da-986f25abee8b","ios":"levelo://app?vid=71369abf-e394-4940-97da-986f25abee8b"},"vehicle_type_id":"4","last_reported":1716581279,"current_range_meters":21600,"station_id":"ce4bhr12rcd13ifvqhpg","pricing_plan_id":"cebpf4jnsgd1na2vs0mg"},{"bike_id":"f17462eb-9d0d-4948-85db-37f9fcb89ac8","system_id":"levelo_inurba_marseille","lat":43.319976,"lon":5.381504,"is_reserved":false,"is_disabled":false,"rental_uris":{"android":"levelo://app?vid=f17462eb-9d0d-4948-85db-37f9fcb89ac8","ios":"levelo://app?vid=f17462eb-9d0d-4948-85db-37f9fcb89ac8"},"vehicle_type_id":"4","last_reported":1716581279,"current_range_meters":8000,"station_id":"ce4bhr12rcd13ifvqhpg","pricing_plan_id":"cebpf4jnsgd1na2vs0mg"},{"bike_id":"0fbe5198-f394-4686-a086-9ac196b8caea","system_id":"levelo_inurba_marseille","lat":43.319935,"lon":5.381699,"is_reserved":false,"is_disabled":false,"rental_uris":{"android":"levelo://app?vid=0fbe5198-f394-4686-a086-9ac196b8caea","ios":"levelo://app?vid=0fbe5198-f394-4686-a086-9ac196b8caea"},"vehicle_type_id":"4","last_reported":1716581279,"current_range_meters":22000,"station_id":"ce4bhr12rcd13ifvqhpg","pricing_plan_id":"cebpf4jnsgd1na2vs0mg"},{"bike_id":"20b80fdf-8217-462b-abf7-be479f03096d","system_id":"levelo_inurba_marseille","lat":43.319935,"lon":5.381699,"is_reserved":false,"is_disabled":false,"rental_uris":{"android":"levelo://app?vid=20b80fdf-8217-462b-abf7-be479f03096d","ios":"levelo://app?vid=20b80fdf-8217-462b-abf7-be479f03096d"},"vehicle_type_id":"4","last_reported":1716581279,"current_range_meters":3200,"station_id":"ce4bhr12rcd13ifvqhpg","pricing_plan_id":"cebpf4jnsgd1na2vs0mg"},{"bike_id":"fc319d2b-dd48-4075-a9d0-543a8fd40a05","system_id":"levelo_inurba_marseille","lat":43.319935,"lon":5.381699,"is_reserved":false,"is_disabled":false,"rental_uris":{"android":"levelo://app?vid=fc319d2b-dd48-4075-a9d0-543a8fd40a05","ios":"levelo://app?vid=fc319d2b-dd48-4075-a9d0-543a8fd40a05"},"vehicle_type_id":"4","last_reported":1716581279,"current_range_meters":1200,"station_id":"ce4bhr12rcd13ifvqhpg","pricing_plan_id":"cebpf4jnsgd1na2vs0mg"},{"bike_id":"8471c39e-8c71-4616-a849-3dad396d10d2","system_id":"levelo_inurba_marseille","lat":43.313571,"lon":5.384829,"is_reserved":false,"is_disabled":false,"rental_uris":{"android":"levelo://app?vid=8471c39e-8c71-4616-a849-3dad396d10d2","ios":"levelo://app?vid=8471c39e-8c71-4616-a849-3dad396d10d2"},"vehicle_type_id":"4","last_reported":1716581279,"current_range_meters":31200,"station_id":"ce4bgt92rcd13ifvqcf0","pricing_plan_id":"cebpf4jnsgd1na2vs0mg"},{"bike_id":"12b0167c-4520-4725-b866-460dd1fa04a4","system_id":"levelo_inurba_marseille","lat":43.313571,"lon":5.384829,"is_reserved":false,"is_disabled":false,"rental_uris":{"android":"levelo://app?vid=12b0167c-4520-4725-b866-460dd1fa04a4","ios":"levelo://app?vid=12b0167c-4520-4725-b866-460dd1fa04a4"},"vehicle_type_id":"4","last_reported":1716581279,"current_range_meters":16800,"station_id":"ce4bgt92rcd13ifvqcf0","pricing_plan_id":"cebpf4jnsgd1na2vs0mg"},{"bike_id":"ede04da6-42e1-4d21-a7d7-76cad01f3be4","system_id":"levelo_inurba_marseille","lat":43.313571,"lon":5.384829,"is_reserved":false,"is_disabled":false,"rental_uris":{"android":"levelo://app?vid=ede04da6-42e1-4d21-a7d7-76cad01f3be4","ios":"levelo://app?vid=ede04da6-42e1-4d21-a7d7-76cad01f3be4"},"vehicle_type_id":"4","last_reported":1716581279,"current_range_meters":26400,"station_id":"ce4bgt92rcd13ifvqcf0","pricing_plan_id":"cebpf4jnsgd1na2vs0mg"},{"bike_id":"97ea8947-8bce-49d3-a6cb-79f2ff4fbea0","system_id":"levelo_inurba_marseille","lat":43.313571,"lon":5.384829,"is_reserved":false,"is_disabled":false,"rental_uris":{"android":"levelo://app?vid=97ea8947-8bce-49d3-a6cb-79f2ff4fbea0","ios":"levelo://app?vid=97ea8947-8bce-49d3-a6cb-79f2ff4fbea0"},"vehicle_type_id":"4","last_reported":1716581279,"current_range_meters":8400,"station_id":"ce4bgt92rcd13ifvqcf0","pricing_plan_id":"cebpf4jnsgd1na2vs0mg"},{"bike_id":"3ca4c5b2-5526-42a7-b9e5-96e125a72bfe","system_id":"levelo_inurba_marseille","lat":43.313571,"lon":5.384829,"is_reserved":false,"is_disabled":false,"rental_uris":{"android":"levelo://app?vid=3ca4c5b2-5526-42a7-b9e5-96e125a72bfe","ios":"levelo://app?vid=3ca4c5b2-5526-42a7-b9e5-96e125a72bfe"},"vehicle_type_id":"4","last_reported":1716581279,"current_range_meters":14800,"station_id":"ce4bgt92rcd13ifvqcf0","pricing_plan_id":"cebpf4jnsgd1na2vs0mg"},{"bike_id":"666aeb30-cc64-4529-9652-82fbd45d1184","system_id":"levelo_inurba_marseille","lat":43.313571,"lon":5.384829,"is_reserved":false,"is_disabled":false,"rental_uris":{"android":"levelo://app?vid=666aeb30-cc64-4529-9652-82fbd45d1184","ios":"levelo://app?vid=666aeb30-cc64-4529-9652-82fbd45d1184"},"vehicle_type_id":"4","last_reported":1716581279,"current_range_meters":0,"station_id":"ce4bgt92rcd13ifvqcf0","pricing_plan_id":"cebpf4jnsgd1na2vs0mg"},{"bike_id":"952dc43a-34ff-4237-acf6-c0a7744bdfbe","system_id":"levelo_inurba_marseille","lat":43.313571,"lon":5.384829,"is_reserved":false,"is_disabled":false,"rental_uris":{"android":"levelo://app?vid=952dc43a-34ff-4237-acf6-c0a7744bdfbe","ios":"levelo://app?vid=952dc43a-34ff-4237-acf6-c0a7744bdfbe"},"vehicle_type_id":"4","last_reported":1716581279,"current_range_meters":9600,"station_id":"ce4bgt92rcd13ifvqcf0","pricing_plan_id":"cebpf4jnsgd1na2vs0mg"},{"bike_id":"fdfe17fb-549f-4722-bee9-a1a9707ef9b8","system_id":"levelo_inurba_marseille","lat":43.313571,"lon":5.384829,"is_reserved":false,"is_disabled":false,"rental_uris":{"android":"levelo://app?vid=fdfe17fb-549f-4722-bee9-a1a9707ef9b8","ios":"levelo://app?vid=fdfe17fb-549f-4722-bee9-a1a9707ef9b8"},"vehicle_type_id":"4","last_reported":1716581279,"current_range_meters":31200,"station_id":"ce4bgt92rcd13ifvqcf0","pricing_plan_id":"cebpf4jnsgd1na2vs0mg"},{"bike_id":"5ab940b3-597a-44b4-95d3-bd3cda0e8d12","system_id":"levelo_inurba_marseille","lat":43.313571,"lon":5.384829,"is_reserved":false,"is_disabled":false,"rental_uris":{"android":"levelo://app?vid=5ab940b3-597a-44b4-95d3-bd3cda0e8d12","ios":"levelo://app?vid=5ab940b3-597a-44b4-95d3-bd3cda0e8d12"},"vehicle_type_id":"4","last_reported":1716581279,"current_range_meters":28000,"station_id":"ce4bgt92rcd13ifvqcf0","pricing_plan_id":"cebpf4jnsgd1na2vs0mg"},{"bike_id":"ab57cb7e-e10d-497a-b6f2-5b0bed834e3b","system_id":"levelo_inurba_marseille","lat":43.299724,"lon":5.371829,"is_reserved":false,"is_disabled":false,"rental_uris":{"android":"levelo://app?vid=ab57cb7e-e10d-497a-b6f2-5b0bed834e3b","ios":"levelo://app?vid=ab57cb7e-e10d-497a-b6f2-5b0bed834e3b"},"vehicle_type_id":"4","last_reported":1716581279,"current_range_meters":2000,"station_id":"ce4bgr92rcd13ifvqc7g","pricing_plan_id":"cebpf4jnsgd1na2vs0mg"},{"bike_id":"e1fb7f9d-a09c-4836-9447-34844aa84cb0","system_id":"levelo_inurba_marseille","lat":43.299222,"lon":5.365554,"is_reserved":false,"is_disabled":false,"rental_uris":{"android":"levelo://app?vid=e1fb7f9d-a09c-4836-9447-34844aa84cb0","ios":"levelo://app?vid=e1fb7f9d-a09c-4836-9447-34844aa84cb0"},"vehicle_type_id":"4","last_reported":1716581279,"current_range_meters":800,"station_id":"ce4bgm92rcd13ifvqbr0","pricing_plan_id":"cebpf4jnsgd1na2vs0mg"},{"bike_id":"8e12b4c9-f820-42d9-a113-37a501f7b438","system_id":"levelo_inurba_marseille","lat":43.299724,"lon":5.371829,"is_reserved":false,"is_disabled":false,"rental_uris":{"android":"levelo://app?vid=8e12b4c9-f820-42d9-a113-37a501f7b438","ios":"levelo://app?vid=8e12b4c9-f820-42d9-a113-37a501f7b438"},"vehicle_type_id":"4","last_reported":1716581279,"current_range_meters":7600,"station_id":"ce4bgr92rcd13ifvqc7g","pricing_plan_id":"cebpf4jnsgd1na2vs0mg"},{"bike_id":"f0d9c018-6868-4da8-8a51-b7a3fc98eb19","system_id":"levelo_inurba_marseille","lat":43.299724,"lon":5.371829,"is_reserved":false,"is_disabled":false,"rental_uris":{"android":"levelo://app?vid=f0d9c018-6868-4da8-8a51-b7a3fc98eb19","ios":"levelo://app?vid=f0d9c018-6868-4da8-8a51-b7a3fc98eb19"},"vehicle_type_id":"4","last_reported":1716581279,"current_range_meters":16800,"station_id":"ce4bgr92rcd13ifvqc7g","pricing_plan_id":"cebpf4jnsgd1na2vs0mg"},{"bike_id":"1df332b9-62a5-45b4-96d2-21a927596d98","system_id":"levelo_inurba_marseille","lat":43.299724,"lon":5.371829,"is_reserved":false,"is_disabled":false,"rental_uris":{"android":"levelo://app?vid=1df332b9-62a5-45b4-96d2-21a927596d98","ios":"levelo://app?vid=1df332b9-62a5-45b4-96d2-21a927596d98"},"vehicle_type_id":"4","last_reported":1716581279,"current_range_meters":29600,"station_id":"ce4bgr92rcd13ifvqc7g","pricing_plan_id":"cebpf4jnsgd1na2vs0mg"},{"bike_id":"d151cb71-8aa9-4b89-b4e8-3ed37c5b9bf3","system_id":"levelo_inurba_marseille","lat":43.299724,"lon":5.371829,"is_reserved":false,"is_disabled":false,"rental_uris":{"android":"levelo://app?vid=d151cb71-8aa9-4b89-b4e8-3ed37c5b9bf3","ios":"levelo://app?vid=d151cb71-8aa9-4b89-b4e8-3ed37c5b9bf3"},"vehicle_type_id":"4","last_reported":1716581279,"current_range_meters":31600,"station_id":"ce4bgr92rcd13ifvqc7g","pricing_plan_id":"cebpf4jnsgd1na2vs0mg"},{"bike_id":"4b6f58bb-24dd-4afe-a003-32f109ee2fec","system_id":"levelo_inurba_marseille","lat":43.319935,"lon":5.381699,"is_reserved":false,"is_disabled":false,"rental_uris":{"android":"levelo://app?vid=4b6f58bb-24dd-4afe-a003-32f109ee2fec","ios":"levelo://app?vid=4b6f58bb-24dd-4afe-a003-32f109ee2fec"},"vehicle_type_id":"4","last_reported":1716581279,"current_range_meters":21600,"station_id":"ce4bhr12rcd13ifvqhpg","pricing_plan_id":"cebpf4jnsgd1na2vs0mg"},{"bike_id":"cc318f70-771e-4b7e-a7b3-5e18c1529b41","system_id":"levelo_inurba_marseille","lat":43.299222,"lon":5.365554,"is_reserved":false,"is_disabled":false,"rental_uris":{"android":"levelo://app?vid=cc318f70-771e-4b7e-a7b3-5e18c1529b41","ios":"levelo://app?vid=cc318f70-771e-4b7e-a7b3-5e18c1529b41"},"vehicle_type_id":"4","last_reported":1716581279,"current_range_meters":16400,"station_id":"ce4bgm92rcd13ifvqbr0","pricing_plan_id":"cebpf4jnsgd1na2vs0mg"},{"bike_id":"79e6001b-3d3d-48b4-842f-24305dbf61f9","system_id":"levelo_inurba_marseille","lat":43.299724,"lon":5.371829,"is_reserved":false,"is_disabled":false,"rental_uris":{"android":"levelo://app?vid=79e6001b-3d3d-48b4-842f-24305dbf61f9","ios":"levelo://app?vid=79e6001b-3d3d-48b4-842f-24305dbf61f9"},"vehicle_type_id":"4","last_reported":1716581279,"current_range_meters":2800,"station_id":"ce4bgr92rcd13ifvqc7g","pricing_plan_id":"cebpf4jnsgd1na2vs0mg"},{"bike_id":"6e8734d7-19c7-4023-a39d-d6d57ff928db","system_id":"levelo_inurba_marseille","lat":43.299724,"lon":5.371829,"is_reserved":false,"is_disabled":false,"rental_uris":{"android":"levelo://app?vid=6e8734d7-19c7-4023-a39d-d6d57ff928db","ios":"levelo://app?vid=6e8734d7-19c7-4023-a39d-d6d57ff928db"},"vehicle_type_id":"4","last_reported":1716581279,"current_range_meters":12400,"station_id":"ce4bgr92rcd13ifvqc7g","pricing_plan_id":"cebpf4jnsgd1na2vs0mg"},{"bike_id":"983044ad-68f9-49b7-a5a7-29d3b7a3168a","system_id":"levelo_inurba_marseille","lat":43.304606,"lon":5.379026,"is_reserved":false,"is_disabled":false,"rental_uris":{"android":"levelo://app?vid=983044ad-68f9-49b7-a5a7-29d3b7a3168a","ios":"levelo://app?vid=983044ad-68f9-49b7-a5a7-29d3b7a3168a"},"vehicle_type_id":"4","last_reported":1716581279,"current_range_meters":800,"station_id":"ce4bgup2rcd13ifvqcn0","pricing_plan_id":"cebpf4jnsgd1na2vs0mg"},{"bike_id":"8178b009-9abb-41a3-ad16-d62a1a2492a8","system_id":"levelo_inurba_marseille","lat":43.298433,"lon":5.362774,"is_reserved":false,"is_disabled":false,"rental_uris":{"android":"levelo://app?vid=8178b009-9abb-41a3-ad16-d62a1a2492a8","ios":"levelo://app?vid=8178b009-9abb-41a3-ad16-d62a1a2492a8"},"vehicle_type_id":"4","last_reported":1716581279,"current_range_meters":9600,"station_id":"ce4bgpp2rcd13ifvqc3g","pricing_plan_id":"cebpf4jnsgd1na2vs0mg"},{"bike_id":"d2db437a-9d64-4ae7-81d2-007b7f17a68d","system_id":"levelo_inurba_marseille","lat":43.305364,"lon":5.384119,"is_reserved":false,"is_disabled":false,"rental_uris":{"android":"levelo://app?vid=d2db437a-9d64-4ae7-81d2-007b7f17a68d","ios":"levelo://app?vid=d2db437a-9d64-4ae7-81d2-007b7f17a68d"},"vehicle_type_id":"4","last_reported":1716581279,"current_range_meters":2800,"station_id":"ce4bgg92rcd13ifvqb30","pricing_plan_id":"cebpf4jnsgd1na2vs0mg"},{"bike_id":"3f5be611-6277-45a2-a5ae-98b14c02e0cf","system_id":"levelo_inurba_marseille","lat":43.298433,"lon":5.362774,"is_reserved":false,"is_disabled":false,"rental_uris":{"android":"levelo://app?vid=3f5be611-6277-45a2-a5ae-98b14c02e0cf","ios":"levelo://app?vid=3f5be611-6277-45a2-a5ae-98b14c02e0cf"},"vehicle_type_id":"4","last_reported":1716581279,"current_range_meters":5200,"station_id":"ce4bgpp2rcd13ifvqc3g","pricing_plan_id":"cebpf4jnsgd1na2vs0mg"},{"bike_id":"b8675ff9-e419-4cfb-8c76-008a2f2166b4","system_id":"levelo_inurba_marseille","lat":43.299243,"lon":5.374807,"is_reserved":false,"is_disabled":false,"rental_uris":{"android":"levelo://app?vid=b8675ff9-e419-4cfb-8c76-008a2f2166b4","ios":"levelo://app?vid=b8675ff9-e419-4cfb-8c76-008a2f2166b4"},"vehicle_type_id":"4","last_reported":1716581279,"current_range_meters":800,"station_id":"ce4bgjh2rcd13ifvqbg0","pricing_plan_id":"cebpf4jnsgd1na2vs0mg"},{"bike_id":"625c96cd-43e1-48f8-89de-b9812917311c","system_id":"levelo_inurba_marseille","lat":43.311724,"lon":5.387155,"is_reserved":false,"is_disabled":false,"rental_uris":{"android":"levelo://app?vid=625c96cd-43e1-48f8-89de-b9812917311c","ios":"levelo://app?vid=625c96cd-43e1-48f8-89de-b9812917311c"},"vehicle_type_id":"4","last_reported":1716581279,"current_range_meters":12400,"station_id":"ce4bgv12rcd13ifvqcp0","pricing_plan_id":"cebpf4jnsgd1na2vs0mg"},{"bike_id":"9f46337f-077b-4212-9126-6b020a840b9d","system_id":"levelo_inurba_marseille","lat":43.311722,"lon":5.387247,"is_reserved":false,"is_disabled":false,"rental_uris":{"android":"levelo://app?vid=9f46337f-077b-4212-9126-6b020a840b9d","ios":"levelo://app?vid=9f46337f-077b-4212-9126-6b020a840b9d"},"vehicle_type_id":"4","last_reported":1716581279,"current_range_meters":10400,"station_id":"ce4bgv12rcd13ifvqcp0","pricing_plan_id":"cebpf4jnsgd1na2vs0mg"},{"bike_id":"0228f498-c670-43d4-a791-626f84e3a192","system_id":"levelo_inurba_marseille","lat":43.311722,"lon":5.387247,"is_reserved":false,"is_disabled":false,"rental_uris":{"android":"levelo://app?vid=0228f498-c670-43d4-a791-626f84e3a192","ios":"levelo://app?vid=0228f498-c670-43d4-a791-626f84e3a192"},"vehicle_type_id":"4","last_reported":1716581279,"current_range_meters":7200,"station_id":"ce4bgv12rcd13ifvqcp0","pricing_plan_id":"cebpf4jnsgd1na2vs0mg"},{"bike_id":"4ea25c05-6405-4f53-a15b-c39bbb4fffe5","system_id":"levelo_inurba_marseille","lat":43.31164,"lon":5.38731,"is_reserved":false,"is_disabled":false,"rental_uris":{"android":"levelo://app?vid=4ea25c05-6405-4f53-a15b-c39bbb4fffe5","ios":"levelo://app?vid=4ea25c05-6405-4f53-a15b-c39bbb4fffe5"},"vehicle_type_id":"4","last_reported":1716581279,"current_range_meters":31200,"station_id":"ce4bgv12rcd13ifvqcp0","pricing_plan_id":"cebpf4jnsgd1na2vs0mg"},{"bike_id":"ed492a4e-944e-43b3-bd26-4581a8e6f7a8","system_id":"levelo_inurba_marseille","lat":43.297794,"lon":5.370888,"is_reserved":false,"is_disabled":false,"rental_uris":{"android":"levelo://app?vid=ed492a4e-944e-43b3-bd26-4581a8e6f7a8","ios":"levelo://app?vid=ed492a4e-944e-43b3-bd26-4581a8e6f7a8"},"vehicle_type_id":"4","last_reported":1716581279,"current_range_meters":30000,"station_id":"ce4bgop2rcd13ifvqc1g","pricing_plan_id":"cebpf4jnsgd1na2vs0mg"},{"bike_id":"0d26ce8d-7dad-448e-8a04-fad3aa451936","system_id":"levelo_inurba_marseille","lat":43.322872,"lon":5.382756,"is_reserved":false,"is_disabled":false,"rental_uris":{"android":"levelo://app?vid=0d26ce8d-7dad-448e-8a04-fad3aa451936","ios":"levelo://app?vid=0d26ce8d-7dad-448e-8a04-fad3aa451936"},"vehicle_type_id":"4","last_reported":1716581279,"current_range_meters":10400,"station_id":"ce4bhr12rcd13ifvqhqg","pricing_plan_id":"cebpf4jnsgd1na2vs0mg"},{"bike_id":"79f33001-a651-4b0f-b82e-f19ee71b8d0f","system_id":"levelo_inurba_marseille","lat":43.322872,"lon":5.382756,"is_reserved":false,"is_disabled":false,"rental_uris":{"android":"levelo://app?vid=79f33001-a651-4b0f-b82e-f19ee71b8d0f","ios":"levelo://app?vid=79f33001-a651-4b0f-b82e-f19ee71b8d0f"},"vehicle_type_id":"4","last_reported":1716581279,"current_range_meters":28000,"station_id":"ce4bhr12rcd13ifvqhqg","pricing_plan_id":"cebpf4jnsgd1na2vs0mg"},{"bike_id":"a281f011-7cc0-4b1c-9d34-3a0e8e58659c","system_id":"levelo_inurba_marseille","lat":43.322872,"lon":5.382756,"is_reserved":false,"is_disabled":false,"rental_uris":{"android":"levelo://app?vid=a281f011-7cc0-4b1c-9d34-3a0e8e58659c","ios":"levelo://app?vid=a281f011-7cc0-4b1c-9d34-3a0e8e58659c"},"vehicle_type_id":"4","last_reported":1716581279,"current_range_meters":31600,"station_id":"ce4bhr12rcd13ifvqhqg","pricing_plan_id":"cebpf4jnsgd1na2vs0mg"},{"bike_id":"becaa431-a8d9-410b-b743-73dc8dc17993","system_id":"levelo_inurba_marseille","lat":43.322872,"lon":5.382756,"is_reserved":false,"is_disabled":false,"rental_uris":{"android":"levelo://app?vid=becaa431-a8d9-410b-b743-73dc8dc17993","ios":"levelo://app?vid=becaa431-a8d9-410b-b743-73dc8dc17993"},"vehicle_type_id":"4","last_reported":1716581279,"current_range_meters":21200,"station_id":"ce4bhr12rcd13ifvqhqg","pricing_plan_id":"cebpf4jnsgd1na2vs0mg"},{"bike_id":"e39f77da-b2ef-4df0-8c27-f669a9096c13","system_id":"levelo_inurba_marseille","lat":43.322872,"lon":5.382756,"is_reserved":false,"is_disabled":false,"rental_uris":{"android":"levelo://app?vid=e39f77da-b2ef-4df0-8c27-f669a9096c13","ios":"levelo://app?vid=e39f77da-b2ef-4df0-8c27-f669a9096c13"},"vehicle_type_id":"4","last_reported":1716581279,"current_range_meters":5600,"station_id":"ce4bhr12rcd13ifvqhqg","pricing_plan_id":"cebpf4jnsgd1na2vs0mg"},{"bike_id":"66425d78-e730-4e03-8806-befd97dd7ae9","system_id":"levelo_inurba_marseille","lat":43.322872,"lon":5.382756,"is_reserved":false,"is_disabled":false,"rental_uris":{"android":"levelo://app?vid=66425d78-e730-4e03-8806-befd97dd7ae9","ios":"levelo://app?vid=66425d78-e730-4e03-8806-befd97dd7ae9"},"vehicle_type_id":"4","last_reported":1716581279,"current_range_meters":22800,"station_id":"ce4bhr12rcd13ifvqhqg","pricing_plan_id":"cebpf4jnsgd1na2vs0mg"},{"bike_id":"48d10151-47c7-4d75-864d-30f9b21ff931","system_id":"levelo_inurba_marseille","lat":43.322872,"lon":5.382756,"is_reserved":false,"is_disabled":false,"rental_uris":{"android":"levelo://app?vid=48d10151-47c7-4d75-864d-30f9b21ff931","ios":"levelo://app?vid=48d10151-47c7-4d75-864d-30f9b21ff931"},"vehicle_type_id":"4","last_reported":1716581279,"current_range_meters":8000,"station_id":"ce4bhr12rcd13ifvqhqg","pricing_plan_id":"cebpf4jnsgd1na2vs0mg"},{"bike_id":"023fd50e-0e64-4a44-bb5f-522d4d1226e8","system_id":"levelo_inurba_marseille","lat":43.322872,"lon":5.382756,"is_reserved":false,"is_disabled":false,"rental_uris":{"android":"levelo://app?vid=023fd50e-0e64-4a44-bb5f-522d4d1226e8","ios":"levelo://app?vid=023fd50e-0e64-4a44-bb5f-522d4d1226e8"},"vehicle_type_id":"4","last_reported":1716581279,"current_range_meters":9200,"station_id":"ce4bhr12rcd13ifvqhqg","pricing_plan_id":"cebpf4jnsgd1na2vs0mg"},{"bike_id":"ff2c9325-2710-4158-a459-0a59e7eafe1b","system_id":"levelo_inurba_marseille","lat":43.322872,"lon":5.382756,"is_reserved":false,"is_disabled":false,"rental_uris":{"android":"levelo://app?vid=ff2c9325-2710-4158-a459-0a59e7eafe1b","ios":"levelo://app?vid=ff2c9325-2710-4158-a459-0a59e7eafe1b"},"vehicle_type_id":"4","last_reported":1716581279,"current_range_meters":10800,"station_id":"ce4bhr12rcd13ifvqhqg","pricing_plan_id":"cebpf4jnsgd1na2vs0mg"},{"bike_id":"dd21820a-d962-46eb-9bfd-f0b8620243b3","system_id":"levelo_inurba_marseille","lat":43.297163,"lon":5.365866,"is_reserved":false,"is_disabled":false,"rental_uris":{"android":"levelo://app?vid=dd21820a-d962-46eb-9bfd-f0b8620243b3","ios":"levelo://app?vid=dd21820a-d962-46eb-9bfd-f0b8620243b3"},"vehicle_type_id":"4","last_reported":1716581279,"current_range_meters":1600,"station_id":"ce4bgn12rcd13ifvqbt0","pricing_plan_id":"cebpf4jnsgd1na2vs0mg"},{"bike_id":"fef19b85-e841-42d1-9cad-a8ea3c9523a5","system_id":"levelo_inurba_marseille","lat":43.29851,"lon":5.37698,"is_reserved":false,"is_disabled":false,"rental_uris":{"android":"levelo://app?vid=fef19b85-e841-42d1-9cad-a8ea3c9523a5","ios":"levelo://app?vid=fef19b85-e841-42d1-9cad-a8ea3c9523a5"},"vehicle_type_id":"4","last_reported":1716581279,"current_range_meters":10000,"station_id":"","pricing_plan_id":"cebpf4jnsgd1na2vs0mg"},{"bike_id":"cbcabf7b-9e40-45c7-aa0f-f447d32638f5","system_id":"levelo_inurba_marseille","lat":43.310804,"lon":5.38359,"is_reserved":false,"is_disabled":false,"rental_uris":{"android":"levelo://app?vid=cbcabf7b-9e40-45c7-aa0f-f447d32638f5","ios":"levelo://app?vid=cbcabf7b-9e40-45c7-aa0f-f447d32638f5"},"vehicle_type_id":"4","last_reported":1716581279,"current_range_meters":23600,"station_id":"ce4bgv92rcd13ifvqcr0","pricing_plan_id":"cebpf4jnsgd1na2vs0mg"},{"bike_id":"d39d500d-a295-4133-a4e3-e7898c546f66","system_id":"levelo_inurba_marseille","lat":43.297163,"lon":5.365866,"is_reserved":false,"is_disabled":false,"rental_uris":{"android":"levelo://app?vid=d39d500d-a295-4133-a4e3-e7898c546f66","ios":"levelo://app?vid=d39d500d-a295-4133-a4e3-e7898c546f66"},"vehicle_type_id":"4","last_reported":1716581279,"current_range_meters":4400,"station_id":"ce4bgn12rcd13ifvqbt0","pricing_plan_id":"cebpf4jnsgd1na2vs0mg"},{"bike_id":"b0181dbd-d16d-4347-9382-b450da867146","system_id":"levelo_inurba_marseille","lat":43.29657,"lon":5.36162,"is_reserved":false,"is_disabled":false,"rental_uris":{"android":"levelo://app?vid=b0181dbd-d16d-4347-9382-b450da867146","ios":"levelo://app?vid=b0181dbd-d16d-4347-9382-b450da867146"},"vehicle_type_id":"4","last_reported":1716581279,"current_range_meters":11200,"station_id":"","pricing_plan_id":"cebpf4jnsgd1na2vs0mg"},{"bike_id":"dda2761a-651f-49a1-95eb-d93e955be5c8","system_id":"levelo_inurba_marseille","lat":43.29573,"lon":5.367355,"is_reserved":false,"is_disabled":false,"rental_uris":{"android":"levelo://app?vid=dda2761a-651f-49a1-95eb-d93e955be5c8","ios":"levelo://app?vid=dda2761a-651f-49a1-95eb-d93e955be5c8"},"vehicle_type_id":"4","last_reported":1716581279,"current_range_meters":26000,"station_id":"ce4bgph2rcd13ifvqc2g","pricing_plan_id":"cebpf4jnsgd1na2vs0mg"},{"bike_id":"ac59e799-5844-4be0-ac6f-d85648773bf3","system_id":"levelo_inurba_marseille","lat":43.29616,"lon":5.371591,"is_reserved":false,"is_disabled":false,"rental_uris":{"android":"levelo://app?vid=ac59e799-5844-4be0-ac6f-d85648773bf3","ios":"levelo://app?vid=ac59e799-5844-4be0-ac6f-d85648773bf3"},"vehicle_type_id":"4","last_reported":1716581279,"current_range_meters":16000,"station_id":"ce4bgnh2rcd13ifvqc0g","pricing_plan_id":"cebpf4jnsgd1na2vs0mg"},{"bike_id":"af10bbaf-907b-4329-a0aa-9aaf032ddb53","system_id":"levelo_inurba_marseille","lat":43.29573,"lon":5.367355,"is_reserved":false,"is_disabled":false,"rental_uris":{"android":"levelo://app?vid=af10bbaf-907b-4329-a0aa-9aaf032ddb53","ios":"levelo://app?vid=af10bbaf-907b-4329-a0aa-9aaf032ddb53"},"vehicle_type_id":"4","last_reported":1716581279,"current_range_meters":31200,"station_id":"ce4bgph2rcd13ifvqc2g","pricing_plan_id":"cebpf4jnsgd1na2vs0mg"},{"bike_id":"eb1efca5-917b-4c95-a0fe-6365e87dac1a","system_id":"levelo_inurba_marseille","lat":43.29575,"lon":5.36735,"is_reserved":false,"is_disabled":false,"rental_uris":{"android":"levelo://app?vid=eb1efca5-917b-4c95-a0fe-6365e87dac1a","ios":"levelo://app?vid=eb1efca5-917b-4c95-a0fe-6365e87dac1a"},"vehicle_type_id":"4","last_reported":1716581279,"current_range_meters":0,"station_id":"ce4bgph2rcd13ifvqc2g","pricing_plan_id":"cebpf4jnsgd1na2vs0mg"},{"bike_id":"6cbb1bb7-eb74-4965-8d1d-53ddb40d5f4d","system_id":"levelo_inurba_marseille","lat":43.296118,"lon":5.372095,"is_reserved":false,"is_disabled":false,"rental_uris":{"android":"levelo://app?vid=6cbb1bb7-eb74-4965-8d1d-53ddb40d5f4d","ios":"levelo://app?vid=6cbb1bb7-eb74-4965-8d1d-53ddb40d5f4d"},"vehicle_type_id":"4","last_reported":1716581279,"current_range_meters":3200,"station_id":"ce4bgnh2rcd13ifvqc0g","pricing_plan_id":"cebpf4jnsgd1na2vs0mg"},{"bike_id":"2a0a0340-ab8f-428c-b2d0-6453788a9a37","system_id":"levelo_inurba_marseille","lat":43.299028,"lon":5.381509,"is_reserved":false,"is_disabled":false,"rental_uris":{"android":"levelo://app?vid=2a0a0340-ab8f-428c-b2d0-6453788a9a37","ios":"levelo://app?vid=2a0a0340-ab8f-428c-b2d0-6453788a9a37"},"vehicle_type_id":"4","last_reported":1716581279,"current_range_meters":4400,"station_id":"ce4bgj12rcd13ifvqbc0","pricing_plan_id":"cebpf4jnsgd1na2vs0mg"},{"bike_id":"f352398d-22f2-490d-8924-a5e29f76537f","system_id":"levelo_inurba_marseille","lat":43.299028,"lon":5.381509,"is_reserved":false,"is_disabled":false,"rental_uris":{"android":"levelo://app?vid=f352398d-22f2-490d-8924-a5e29f76537f","ios":"levelo://app?vid=f352398d-22f2-490d-8924-a5e29f76537f"},"vehicle_type_id":"4","last_reported":1716581279,"current_range_meters":13600,"station_id":"ce4bgj12rcd13ifvqbc0","pricing_plan_id":"cebpf4jnsgd1na2vs0mg"},{"bike_id":"6e044a5a-db6d-423a-b223-273ea27d0013","system_id":"levelo_inurba_marseille","lat":43.309589,"lon":5.390258,"is_reserved":false,"is_disabled":false,"rental_uris":{"android":"levelo://app?vid=6e044a5a-db6d-423a-b223-273ea27d0013","ios":"levelo://app?vid=6e044a5a-db6d-423a-b223-273ea27d0013"},"vehicle_type_id":"4","last_reported":1716581279,"current_range_meters":10000,"station_id":"ce4bgup2rcd13ifvqco0","pricing_plan_id":"cebpf4jnsgd1na2vs0mg"},{"bike_id":"5294f3bd-bc47-4373-b837-7fc378c4ddf3","system_id":"levelo_inurba_marseille","lat":43.309589,"lon":5.390258,"is_reserved":false,"is_disabled":false,"rental_uris":{"android":"levelo://app?vid=5294f3bd-bc47-4373-b837-7fc378c4ddf3","ios":"levelo://app?vid=5294f3bd-bc47-4373-b837-7fc378c4ddf3"},"vehicle_type_id":"4","last_reported":1716581279,"current_range_meters":6800,"station_id":"ce4bgup2rcd13ifvqco0","pricing_plan_id":"cebpf4jnsgd1na2vs0mg"},{"bike_id":"0923754b-eea1-4832-946e-820d332b89d1","system_id":"levelo_inurba_marseille","lat":43.309589,"lon":5.390258,"is_reserved":false,"is_disabled":false,"rental_uris":{"android":"levelo://app?vid=0923754b-eea1-4832-946e-820d332b89d1","ios":"levelo://app?vid=0923754b-eea1-4832-946e-820d332b89d1"},"vehicle_type_id":"4","last_reported":1716581279,"current_range_meters":27600,"station_id":"ce4bgup2rcd13ifvqco0","pricing_plan_id":"cebpf4jnsgd1na2vs0mg"},{"bike_id":"5b26aea3-ed87-4ea7-9593-6e5925eb77d4","system_id":"levelo_inurba_marseille","lat":43.28039,"lon":5.369297,"is_reserved":false,"is_disabled":false,"rental_uris":{"android":"levelo://app?vid=5b26aea3-ed87-4ea7-9593-6e5925eb77d4","ios":"levelo://app?vid=5b26aea3-ed87-4ea7-9593-6e5925eb77d4"},"vehicle_type_id":"4","last_reported":1716581279,"current_range_meters":12800,"station_id":"ce4bha12rcd13ifvqef0","pricing_plan_id":"cebpf4jnsgd1na2vs0mg"},{"bike_id":"d538cead-1bb8-401c-854f-3b73786bb1b3","system_id":"levelo_inurba_marseille","lat":43.30424,"lon":5.38835,"is_reserved":false,"is_disabled":false,"rental_uris":{"android":"levelo://app?vid=d538cead-1bb8-401c-854f-3b73786bb1b3","ios":"levelo://app?vid=d538cead-1bb8-401c-854f-3b73786bb1b3"},"vehicle_type_id":"4","last_reported":1716581279,"current_range_meters":16000,"station_id":"ce4bgk12rcd13ifvqbi0","pricing_plan_id":"cebpf4jnsgd1na2vs0mg"},{"bike_id":"79be2b50-ee1d-4c87-bb2c-71a21eef2173","system_id":"levelo_inurba_marseille","lat":43.298037,"lon":5.381066,"is_reserved":false,"is_disabled":false,"rental_uris":{"android":"levelo://app?vid=79be2b50-ee1d-4c87-bb2c-71a21eef2173","ios":"levelo://app?vid=79be2b50-ee1d-4c87-bb2c-71a21eef2173"},"vehicle_type_id":"4","last_reported":1716581279,"current_range_meters":26000,"station_id":"ce4bgip2rcd13ifvqbb0","pricing_plan_id":"cebpf4jnsgd1na2vs0mg"},{"bike_id":"162e3b56-3dfd-4158-a52f-74624d0702f7","system_id":"levelo_inurba_marseille","lat":43.297982,"lon":5.381091,"is_reserved":false,"is_disabled":false,"rental_uris":{"android":"levelo://app?vid=162e3b56-3dfd-4158-a52f-74624d0702f7","ios":"levelo://app?vid=162e3b56-3dfd-4158-a52f-74624d0702f7"},"vehicle_type_id":"4","last_reported":1716581279,"current_range_meters":0,"station_id":"ce4bgip2rcd13ifvqbb0","pricing_plan_id":"cebpf4jnsgd1na2vs0mg"},{"bike_id":"9684b68e-99ff-4401-8bae-0fef939332e3","system_id":"levelo_inurba_marseille","lat":43.295748,"lon":5.37522,"is_reserved":false,"is_disabled":false,"rental_uris":{"android":"levelo://app?vid=9684b68e-99ff-4401-8bae-0fef939332e3","ios":"levelo://app?vid=9684b68e-99ff-4401-8bae-0fef939332e3"},"vehicle_type_id":"4","last_reported":1716581279,"current_range_meters":0,"station_id":"ce4bgh92rcd13ifvqb50","pricing_plan_id":"cebpf4jnsgd1na2vs0mg"},{"bike_id":"e195254a-dda7-4ffe-abd6-8d141003887e","system_id":"levelo_inurba_marseille","lat":43.295725,"lon":5.375178,"is_reserved":false,"is_disabled":false,"rental_uris":{"android":"levelo://app?vid=e195254a-dda7-4ffe-abd6-8d141003887e","ios":"levelo://app?vid=e195254a-dda7-4ffe-abd6-8d141003887e"},"vehicle_type_id":"4","last_reported":1716581279,"current_range_meters":0,"station_id":"ce4bgh92rcd13ifvqb50","pricing_plan_id":"cebpf4jnsgd1na2vs0mg"},{"bike_id":"139c5498-0da1-4931-854b-e2961b1becf6","system_id":"levelo_inurba_marseille","lat":43.304278,"lon":5.388868,"is_reserved":false,"is_disabled":false,"rental_uris":{"android":"levelo://app?vid=139c5498-0da1-4931-854b-e2961b1becf6","ios":"levelo://app?vid=139c5498-0da1-4931-854b-e2961b1becf6"},"vehicle_type_id":"4","last_reported":1716581279,"current_range_meters":26400,"station_id":"ce4bgk12rcd13ifvqbi0","pricing_plan_id":"cebpf4jnsgd1na2vs0mg"},{"bike_id":"bb24329f-730a-4f00-99c9-bb6e6328b89a","system_id":"levelo_inurba_marseille","lat":43.298037,"lon":5.381066,"is_reserved":false,"is_disabled":false,"rental_uris":{"android":"levelo://app?vid=bb24329f-730a-4f00-99c9-bb6e6328b89a","ios":"levelo://app?vid=bb24329f-730a-4f00-99c9-bb6e6328b89a"},"vehicle_type_id":"4","last_reported":1716581279,"current_range_meters":12800,"station_id":"ce4bgip2rcd13ifvqbb0","pricing_plan_id":"cebpf4jnsgd1na2vs0mg"},{"bike_id":"10d97f9b-2efe-4f19-95fc-a2525d5de59d","system_id":"levelo_inurba_marseille","lat":43.304274,"lon":5.388873,"is_reserved":false,"is_disabled":false,"rental_uris":{"android":"levelo://app?vid=10d97f9b-2efe-4f19-95fc-a2525d5de59d","ios":"levelo://app?vid=10d97f9b-2efe-4f19-95fc-a2525d5de59d"},"vehicle_type_id":"4","last_reported":1716581279,"current_range_meters":22800,"station_id":"ce4bgk12rcd13ifvqbi0","pricing_plan_id":"cebpf4jnsgd1na2vs0mg"},{"bike_id":"2de67958-adcb-4f65-bc76-fa63c9d361c2","system_id":"levelo_inurba_marseille","lat":43.304274,"lon":5.388873,"is_reserved":false,"is_disabled":false,"rental_uris":{"android":"levelo://app?vid=2de67958-adcb-4f65-bc76-fa63c9d361c2","ios":"levelo://app?vid=2de67958-adcb-4f65-bc76-fa63c9d361c2"},"vehicle_type_id":"4","last_reported":1716581279,"current_range_meters":18400,"station_id":"ce4bgk12rcd13ifvqbi0","pricing_plan_id":"cebpf4jnsgd1na2vs0mg"},{"bike_id":"9ce19277-06dc-4f9b-acc2-68e54331bbee","system_id":"levelo_inurba_marseille","lat":43.295279,"lon":5.375048,"is_reserved":false,"is_disabled":false,"rental_uris":{"android":"levelo://app?vid=9ce19277-06dc-4f9b-acc2-68e54331bbee","ios":"levelo://app?vid=9ce19277-06dc-4f9b-acc2-68e54331bbee"},"vehicle_type_id":"4","last_reported":1716581279,"current_range_meters":3600,"station_id":"ce4bgkp2rcd13ifvqbmg","pricing_plan_id":"cebpf4jnsgd1na2vs0mg"},{"bike_id":"7de219cf-52bc-4397-8b15-d9d279d330e0","system_id":"levelo_inurba_marseille","lat":43.299707,"lon":5.384859,"is_reserved":false,"is_disabled":false,"rental_uris":{"android":"levelo://app?vid=7de219cf-52bc-4397-8b15-d9d279d330e0","ios":"levelo://app?vid=7de219cf-52bc-4397-8b15-d9d279d330e0"},"vehicle_type_id":"4","last_reported":1716581279,"current_range_meters":29600,"station_id":"ce4bgj92rcd13ifvqbd0","pricing_plan_id":"cebpf4jnsgd1na2vs0mg"},{"bike_id":"16403433-61ec-49a3-9d26-151a3c17f7a6","system_id":"levelo_inurba_marseille","lat":43.299707,"lon":5.384859,"is_reserved":false,"is_disabled":false,"rental_uris":{"android":"levelo://app?vid=16403433-61ec-49a3-9d26-151a3c17f7a6","ios":"levelo://app?vid=16403433-61ec-49a3-9d26-151a3c17f7a6"},"vehicle_type_id":"4","last_reported":1716581279,"current_range_meters":31200,"station_id":"ce4bgj92rcd13ifvqbd0","pricing_plan_id":"cebpf4jnsgd1na2vs0mg"},{"bike_id":"efa2a2dd-7bf2-40ce-b4d8-c75b4303d793","system_id":"levelo_inurba_marseille","lat":43.299707,"lon":5.384859,"is_reserved":false,"is_disabled":false,"rental_uris":{"android":"levelo://app?vid=efa2a2dd-7bf2-40ce-b4d8-c75b4303d793","ios":"levelo://app?vid=efa2a2dd-7bf2-40ce-b4d8-c75b4303d793"},"vehicle_type_id":"4","last_reported":1716581279,"current_range_meters":10800,"station_id":"ce4bgj92rcd13ifvqbd0","pricing_plan_id":"cebpf4jnsgd1na2vs0mg"},{"bike_id":"bfa57660-98e2-4041-bc62-cba610a7af9d","system_id":"levelo_inurba_marseille","lat":43.299707,"lon":5.384859,"is_reserved":false,"is_disabled":false,"rental_uris":{"android":"levelo://app?vid=bfa57660-98e2-4041-bc62-cba610a7af9d","ios":"levelo://app?vid=bfa57660-98e2-4041-bc62-cba610a7af9d"},"vehicle_type_id":"4","last_reported":1716581279,"current_range_meters":30000,"station_id":"ce4bgj92rcd13ifvqbd0","pricing_plan_id":"cebpf4jnsgd1na2vs0mg"},{"bike_id":"f9b2cdc9-42c8-407a-8bd5-8f34bb7601e0","system_id":"levelo_inurba_marseille","lat":43.299707,"lon":5.384859,"is_reserved":false,"is_disabled":false,"rental_uris":{"android":"levelo://app?vid=f9b2cdc9-42c8-407a-8bd5-8f34bb7601e0","ios":"levelo://app?vid=f9b2cdc9-42c8-407a-8bd5-8f34bb7601e0"},"vehicle_type_id":"4","last_reported":1716581279,"current_range_meters":10400,"station_id":"ce4bgj92rcd13ifvqbd0","pricing_plan_id":"cebpf4jnsgd1na2vs0mg"},{"bike_id":"ea5c8d42-c861-4802-a2ac-9f57d3bd183f","system_id":"levelo_inurba_marseille","lat":43.299707,"lon":5.384859,"is_reserved":false,"is_disabled":false,"rental_uris":{"android":"levelo://app?vid=ea5c8d42-c861-4802-a2ac-9f57d3bd183f","ios":"levelo://app?vid=ea5c8d42-c861-4802-a2ac-9f57d3bd183f"},"vehicle_type_id":"4","last_reported":1716581279,"current_range_meters":29600,"station_id":"ce4bgj92rcd13ifvqbd0","pricing_plan_id":"cebpf4jnsgd1na2vs0mg"},{"bike_id":"63760144-1376-4196-aacd-713adb626cf6","system_id":"levelo_inurba_marseille","lat":43.299707,"lon":5.384859,"is_reserved":false,"is_disabled":false,"rental_uris":{"android":"levelo://app?vid=63760144-1376-4196-aacd-713adb626cf6","ios":"levelo://app?vid=63760144-1376-4196-aacd-713adb626cf6"},"vehicle_type_id":"4","last_reported":1716581279,"current_range_meters":10400,"station_id":"ce4bgj92rcd13ifvqbd0","pricing_plan_id":"cebpf4jnsgd1na2vs0mg"},{"bike_id":"d014cf3e-048b-41f0-8f75-4b7171a47831","system_id":"levelo_inurba_marseille","lat":43.299717,"lon":5.384845,"is_reserved":false,"is_disabled":false,"rental_uris":{"android":"levelo://app?vid=d014cf3e-048b-41f0-8f75-4b7171a47831","ios":"levelo://app?vid=d014cf3e-048b-41f0-8f75-4b7171a47831"},"vehicle_type_id":"4","last_reported":1716581279,"current_range_meters":31600,"station_id":"ce4bgj92rcd13ifvqbd0","pricing_plan_id":"cebpf4jnsgd1na2vs0mg"},{"bike_id":"10f01d38-754a-4013-a294-096a0900cd2d","system_id":"levelo_inurba_marseille","lat":43.304278,"lon":5.388868,"is_reserved":false,"is_disabled":false,"rental_uris":{"android":"levelo://app?vid=10f01d38-754a-4013-a294-096a0900cd2d","ios":"levelo://app?vid=10f01d38-754a-4013-a294-096a0900cd2d"},"vehicle_type_id":"4","last_reported":1716581279,"current_range_meters":28400,"station_id":"ce4bgk12rcd13ifvqbi0","pricing_plan_id":"cebpf4jnsgd1na2vs0mg"},{"bike_id":"f09f4cd3-0fe9-42d6-b772-bd6be134cd93","system_id":"levelo_inurba_marseille","lat":43.299678,"lon":5.384942,"is_reserved":false,"is_disabled":false,"rental_uris":{"android":"levelo://app?vid=f09f4cd3-0fe9-42d6-b772-bd6be134cd93","ios":"levelo://app?vid=f09f4cd3-0fe9-42d6-b772-bd6be134cd93"},"vehicle_type_id":"4","last_reported":1716581279,"current_range_meters":31200,"station_id":"ce4bgj92rcd13ifvqbd0","pricing_plan_id":"cebpf4jnsgd1na2vs0mg"},{"bike_id":"1b22525b-5f83-47e4-9bcb-f7ee7da2e1e3","system_id":"levelo_inurba_marseille","lat":43.2936,"lon":5.37835,"is_reserved":false,"is_disabled":false,"rental_uris":{"android":"levelo://app?vid=1b22525b-5f83-47e4-9bcb-f7ee7da2e1e3","ios":"levelo://app?vid=1b22525b-5f83-47e4-9bcb-f7ee7da2e1e3"},"vehicle_type_id":"4","last_reported":1716581279,"current_range_meters":5600,"station_id":"ce4bgjh2rcd13ifvqbf0","pricing_plan_id":"cebpf4jnsgd1na2vs0mg"},{"bike_id":"23937fe7-a392-4bef-b57c-c75384c95292","system_id":"levelo_inurba_marseille","lat":43.299724,"lon":5.384848,"is_reserved":false,"is_disabled":false,"rental_uris":{"android":"levelo://app?vid=23937fe7-a392-4bef-b57c-c75384c95292","ios":"levelo://app?vid=23937fe7-a392-4bef-b57c-c75384c95292"},"vehicle_type_id":"4","last_reported":1716581279,"current_range_meters":20000,"station_id":"ce4bgj92rcd13ifvqbd0","pricing_plan_id":"cebpf4jnsgd1na2vs0mg"},{"bike_id":"cc673440-2f5d-420a-b08d-8d601746c5bc","system_id":"levelo_inurba_marseille","lat":43.299707,"lon":5.384859,"is_reserved":false,"is_disabled":false,"rental_uris":{"android":"levelo://app?vid=cc673440-2f5d-420a-b08d-8d601746c5bc","ios":"levelo://app?vid=cc673440-2f5d-420a-b08d-8d601746c5bc"},"vehicle_type_id":"4","last_reported":1716581279,"current_range_meters":25600,"station_id":"ce4bgj92rcd13ifvqbd0","pricing_plan_id":"cebpf4jnsgd1na2vs0mg"},{"bike_id":"05f9b29a-d940-4d4a-83bf-b0a80d81b355","system_id":"levelo_inurba_marseille","lat":43.295279,"lon":5.375048,"is_reserved":false,"is_disabled":false,"rental_uris":{"android":"levelo://app?vid=05f9b29a-d940-4d4a-83bf-b0a80d81b355","ios":"levelo://app?vid=05f9b29a-d940-4d4a-83bf-b0a80d81b355"},"vehicle_type_id":"4","last_reported":1716581279,"current_range_meters":16800,"station_id":"ce4bgkp2rcd13ifvqbmg","pricing_plan_id":"cebpf4jnsgd1na2vs0mg"},{"bike_id":"b12a7e07-deeb-4c1d-aa7c-e8e67775d75b","system_id":"levelo_inurba_marseille","lat":43.299707,"lon":5.384859,"is_reserved":false,"is_disabled":false,"rental_uris":{"android":"levelo://app?vid=b12a7e07-deeb-4c1d-aa7c-e8e67775d75b","ios":"levelo://app?vid=b12a7e07-deeb-4c1d-aa7c-e8e67775d75b"},"vehicle_type_id":"4","last_reported":1716581279,"current_range_meters":21200,"station_id":"ce4bgj92rcd13ifvqbd0","pricing_plan_id":"cebpf4jnsgd1na2vs0mg"},{"bike_id":"82940d50-70ca-48fb-afc7-89118eb52e22","system_id":"levelo_inurba_marseille","lat":43.299724,"lon":5.384848,"is_reserved":false,"is_disabled":false,"rental_uris":{"android":"levelo://app?vid=82940d50-70ca-48fb-afc7-89118eb52e22","ios":"levelo://app?vid=82940d50-70ca-48fb-afc7-89118eb52e22"},"vehicle_type_id":"4","last_reported":1716581279,"current_range_meters":26400,"station_id":"ce4bgj92rcd13ifvqbd0","pricing_plan_id":"cebpf4jnsgd1na2vs0mg"},{"bike_id":"30590dfc-c2a7-467d-85f5-9eec23c26303","system_id":"levelo_inurba_marseille","lat":43.299717,"lon":5.384845,"is_reserved":false,"is_disabled":false,"rental_uris":{"android":"levelo://app?vid=30590dfc-c2a7-467d-85f5-9eec23c26303","ios":"levelo://app?vid=30590dfc-c2a7-467d-85f5-9eec23c26303"},"vehicle_type_id":"4","last_reported":1716581279,"current_range_meters":23200,"station_id":"ce4bgj92rcd13ifvqbd0","pricing_plan_id":"cebpf4jnsgd1na2vs0mg"},{"bike_id":"dedfb4a7-d9b9-47d6-8a86-07755e9e107a","system_id":"levelo_inurba_marseille","lat":43.299724,"lon":5.384848,"is_reserved":false,"is_disabled":false,"rental_uris":{"android":"levelo://app?vid=dedfb4a7-d9b9-47d6-8a86-07755e9e107a","ios":"levelo://app?vid=dedfb4a7-d9b9-47d6-8a86-07755e9e107a"},"vehicle_type_id":"4","last_reported":1716581279,"current_range_meters":28400,"station_id":"ce4bgj92rcd13ifvqbd0","pricing_plan_id":"cebpf4jnsgd1na2vs0mg"},{"bike_id":"23f11f4f-3713-45aa-99fd-ad23825c001a","system_id":"levelo_inurba_marseille","lat":43.299717,"lon":5.384845,"is_reserved":false,"is_disabled":false,"rental_uris":{"android":"levelo://app?vid=23f11f4f-3713-45aa-99fd-ad23825c001a","ios":"levelo://app?vid=23f11f4f-3713-45aa-99fd-ad23825c001a"},"vehicle_type_id":"4","last_reported":1716581279,"current_range_meters":23600,"station_id":"ce4bgj92rcd13ifvqbd0","pricing_plan_id":"cebpf4jnsgd1na2vs0mg"},{"bike_id":"c692fd75-9972-42e1-92a8-4ac7cce47a41","system_id":"levelo_inurba_marseille","lat":43.299243,"lon":5.37481,"is_reserved":false,"is_disabled":false,"rental_uris":{"android":"levelo://app?vid=c692fd75-9972-42e1-92a8-4ac7cce47a41","ios":"levelo://app?vid=c692fd75-9972-42e1-92a8-4ac7cce47a41"},"vehicle_type_id":"4","last_reported":1716581279,"current_range_meters":14800,"station_id":"ce4bgjh2rcd13ifvqbg0","pricing_plan_id":"cebpf4jnsgd1na2vs0mg"},{"bike_id":"78252e3e-8eff-4ccb-a142-6526e4cc39f4","system_id":"levelo_inurba_marseille","lat":43.30089,"lon":5.38729,"is_reserved":false,"is_disabled":false,"rental_uris":{"android":"levelo://app?vid=78252e3e-8eff-4ccb-a142-6526e4cc39f4","ios":"levelo://app?vid=78252e3e-8eff-4ccb-a142-6526e4cc39f4"},"vehicle_type_id":"4","last_reported":1716581279,"current_range_meters":3200,"station_id":"","pricing_plan_id":"cebpf4jnsgd1na2vs0mg"},{"bike_id":"489823e6-287e-4f39-a689-3db2a123fd25","system_id":"levelo_inurba_marseille","lat":43.32367,"lon":5.388836,"is_reserved":false,"is_disabled":false,"rental_uris":{"android":"levelo://app?vid=489823e6-287e-4f39-a689-3db2a123fd25","ios":"levelo://app?vid=489823e6-287e-4f39-a689-3db2a123fd25"},"vehicle_type_id":"4","last_reported":1716581279,"current_range_meters":8800,"station_id":"ce4bhqp2rcd13ifvqhog","pricing_plan_id":"cebpf4jnsgd1na2vs0mg"},{"bike_id":"eef2fc75-37f2-4919-a57c-ff6516d63899","system_id":"levelo_inurba_marseille","lat":43.32365,"lon":5.3888,"is_reserved":false,"is_disabled":false,"rental_uris":{"android":"levelo://app?vid=eef2fc75-37f2-4919-a57c-ff6516d63899","ios":"levelo://app?vid=eef2fc75-37f2-4919-a57c-ff6516d63899"},"vehicle_type_id":"4","last_reported":1716581279,"current_range_meters":0,"station_id":"ce4bhqp2rcd13ifvqhog","pricing_plan_id":"cebpf4jnsgd1na2vs0mg"},{"bike_id":"468755de-5a10-46b7-a431-fd1d15d1e67d","system_id":"levelo_inurba_marseille","lat":43.32367,"lon":5.388836,"is_reserved":false,"is_disabled":false,"rental_uris":{"android":"levelo://app?vid=468755de-5a10-46b7-a431-fd1d15d1e67d","ios":"levelo://app?vid=468755de-5a10-46b7-a431-fd1d15d1e67d"},"vehicle_type_id":"4","last_reported":1716581279,"current_range_meters":10400,"station_id":"ce4bhqp2rcd13ifvqhog","pricing_plan_id":"cebpf4jnsgd1na2vs0mg"},{"bike_id":"d2eb160d-e401-4e0b-ab47-4555b3948918","system_id":"levelo_inurba_marseille","lat":43.32367,"lon":5.388836,"is_reserved":false,"is_disabled":false,"rental_uris":{"android":"levelo://app?vid=d2eb160d-e401-4e0b-ab47-4555b3948918","ios":"levelo://app?vid=d2eb160d-e401-4e0b-ab47-4555b3948918"},"vehicle_type_id":"4","last_reported":1716581279,"current_range_meters":3600,"station_id":"ce4bhqp2rcd13ifvqhog","pricing_plan_id":"cebpf4jnsgd1na2vs0mg"},{"bike_id":"6a4ae92e-fe7d-4306-a153-adb08dbc9854","system_id":"levelo_inurba_marseille","lat":43.32367,"lon":5.388836,"is_reserved":false,"is_disabled":false,"rental_uris":{"android":"levelo://app?vid=6a4ae92e-fe7d-4306-a153-adb08dbc9854","ios":"levelo://app?vid=6a4ae92e-fe7d-4306-a153-adb08dbc9854"},"vehicle_type_id":"4","last_reported":1716581279,"current_range_meters":9600,"station_id":"ce4bhqp2rcd13ifvqhog","pricing_plan_id":"cebpf4jnsgd1na2vs0mg"},{"bike_id":"2564f59a-633f-467e-8d77-b31d7567aee3","system_id":"levelo_inurba_marseille","lat":43.29602,"lon":5.381084,"is_reserved":false,"is_disabled":false,"rental_uris":{"android":"levelo://app?vid=2564f59a-633f-467e-8d77-b31d7567aee3","ios":"levelo://app?vid=2564f59a-633f-467e-8d77-b31d7567aee3"},"vehicle_type_id":"4","last_reported":1716581279,"current_range_meters":11200,"station_id":"ce4bgl12rcd13ifvqbo0","pricing_plan_id":"cebpf4jnsgd1na2vs0mg"},{"bike_id":"108e92f4-e385-42a2-b503-84b1d279a416","system_id":"levelo_inurba_marseille","lat":43.29602,"lon":5.381084,"is_reserved":false,"is_disabled":false,"rental_uris":{"android":"levelo://app?vid=108e92f4-e385-42a2-b503-84b1d279a416","ios":"levelo://app?vid=108e92f4-e385-42a2-b503-84b1d279a416"},"vehicle_type_id":"4","last_reported":1716581279,"current_range_meters":0,"station_id":"ce4bgl12rcd13ifvqbo0","pricing_plan_id":"cebpf4jnsgd1na2vs0mg"},{"bike_id":"ee826514-cf89-4b69-a2d5-2b8bc0342a88","system_id":"levelo_inurba_marseille","lat":43.29602,"lon":5.381084,"is_reserved":false,"is_disabled":false,"rental_uris":{"android":"levelo://app?vid=ee826514-cf89-4b69-a2d5-2b8bc0342a88","ios":"levelo://app?vid=ee826514-cf89-4b69-a2d5-2b8bc0342a88"},"vehicle_type_id":"4","last_reported":1716581279,"current_range_meters":18400,"station_id":"ce4bgl12rcd13ifvqbo0","pricing_plan_id":"cebpf4jnsgd1na2vs0mg"},{"bike_id":"f56b82ab-3cd6-4bfe-a743-b4a7e324bb4f","system_id":"levelo_inurba_marseille","lat":43.29602,"lon":5.381084,"is_reserved":false,"is_disabled":false,"rental_uris":{"android":"levelo://app?vid=f56b82ab-3cd6-4bfe-a743-b4a7e324bb4f","ios":"levelo://app?vid=f56b82ab-3cd6-4bfe-a743-b4a7e324bb4f"},"vehicle_type_id":"4","last_reported":1716581279,"current_range_meters":6400,"station_id":"ce4bgl12rcd13ifvqbo0","pricing_plan_id":"cebpf4jnsgd1na2vs0mg"},{"bike_id":"5860bf5c-5d21-4c40-b886-1308811c3cd3","system_id":"levelo_inurba_marseille","lat":43.293053,"lon":5.371684,"is_reserved":false,"is_disabled":false,"rental_uris":{"android":"levelo://app?vid=5860bf5c-5d21-4c40-b886-1308811c3cd3","ios":"levelo://app?vid=5860bf5c-5d21-4c40-b886-1308811c3cd3"},"vehicle_type_id":"4","last_reported":1716581279,"current_range_meters":0,"station_id":"","pricing_plan_id":"cebpf4jnsgd1na2vs0mg"},{"bike_id":"e5b0850f-0f21-4548-88ee-c32058a204c0","system_id":"levelo_inurba_marseille","lat":43.292749,"lon":5.368402,"is_reserved":false,"is_disabled":false,"rental_uris":{"android":"levelo://app?vid=e5b0850f-0f21-4548-88ee-c32058a204c0","ios":"levelo://app?vid=e5b0850f-0f21-4548-88ee-c32058a204c0"},"vehicle_type_id":"4","last_reported":1716581279,"current_range_meters":22800,"station_id":"ce4bhbp2rcd13ifvqesg","pricing_plan_id":"cebpf4jnsgd1na2vs0mg"},{"bike_id":"93e131eb-75d1-4f4f-a3ab-467dfbc94d5d","system_id":"levelo_inurba_marseille","lat":43.292749,"lon":5.368402,"is_reserved":false,"is_disabled":false,"rental_uris":{"android":"levelo://app?vid=93e131eb-75d1-4f4f-a3ab-467dfbc94d5d","ios":"levelo://app?vid=93e131eb-75d1-4f4f-a3ab-467dfbc94d5d"},"vehicle_type_id":"4","last_reported":1716581279,"current_range_meters":4400,"station_id":"ce4bhbp2rcd13ifvqesg","pricing_plan_id":"cebpf4jnsgd1na2vs0mg"},{"bike_id":"1fe6035b-952d-4dc5-9979-22b379b70b85","system_id":"levelo_inurba_marseille","lat":43.292749,"lon":5.368402,"is_reserved":false,"is_disabled":false,"rental_uris":{"android":"levelo://app?vid=1fe6035b-952d-4dc5-9979-22b379b70b85","ios":"levelo://app?vid=1fe6035b-952d-4dc5-9979-22b379b70b85"},"vehicle_type_id":"4","last_reported":1716581279,"current_range_meters":28800,"station_id":"ce4bhbp2rcd13ifvqesg","pricing_plan_id":"cebpf4jnsgd1na2vs0mg"},{"bike_id":"e31c2c71-6aac-4630-93ff-d223eb7550f9","system_id":"levelo_inurba_marseille","lat":43.292749,"lon":5.368402,"is_reserved":false,"is_disabled":false,"rental_uris":{"android":"levelo://app?vid=e31c2c71-6aac-4630-93ff-d223eb7550f9","ios":"levelo://app?vid=e31c2c71-6aac-4630-93ff-d223eb7550f9"},"vehicle_type_id":"4","last_reported":1716581279,"current_range_meters":4800,"station_id":"ce4bhbp2rcd13ifvqesg","pricing_plan_id":"cebpf4jnsgd1na2vs0mg"},{"bike_id":"c29d333a-447a-4d23-ae22-2e697c1711ba","system_id":"levelo_inurba_marseille","lat":43.292749,"lon":5.368402,"is_reserved":false,"is_disabled":false,"rental_uris":{"android":"levelo://app?vid=c29d333a-447a-4d23-ae22-2e697c1711ba","ios":"levelo://app?vid=c29d333a-447a-4d23-ae22-2e697c1711ba"},"vehicle_type_id":"4","last_reported":1716581279,"current_range_meters":4400,"station_id":"ce4bhbp2rcd13ifvqesg","pricing_plan_id":"cebpf4jnsgd1na2vs0mg"},{"bike_id":"44ef3baf-5a20-4456-a43e-53a5423e5a08","system_id":"levelo_inurba_marseille","lat":43.292749,"lon":5.368402,"is_reserved":false,"is_disabled":false,"rental_uris":{"android":"levelo://app?vid=44ef3baf-5a20-4456-a43e-53a5423e5a08","ios":"levelo://app?vid=44ef3baf-5a20-4456-a43e-53a5423e5a08"},"vehicle_type_id":"4","last_reported":1716581279,"current_range_meters":9600,"station_id":"ce4bhbp2rcd13ifvqesg","pricing_plan_id":"cebpf4jnsgd1na2vs0mg"},{"bike_id":"dd7b0079-c55c-4214-a3c4-f2790afb7f19","system_id":"levelo_inurba_marseille","lat":43.292749,"lon":5.368402,"is_reserved":false,"is_disabled":false,"rental_uris":{"android":"levelo://app?vid=dd7b0079-c55c-4214-a3c4-f2790afb7f19","ios":"levelo://app?vid=dd7b0079-c55c-4214-a3c4-f2790afb7f19"},"vehicle_type_id":"4","last_reported":1716581279,"current_range_meters":21200,"station_id":"ce4bhbp2rcd13ifvqesg","pricing_plan_id":"cebpf4jnsgd1na2vs0mg"},{"bike_id":"24db2af2-8484-40ff-a48d-e2fde0e282e3","system_id":"levelo_inurba_marseille","lat":43.292749,"lon":5.368402,"is_reserved":false,"is_disabled":false,"rental_uris":{"android":"levelo://app?vid=24db2af2-8484-40ff-a48d-e2fde0e282e3","ios":"levelo://app?vid=24db2af2-8484-40ff-a48d-e2fde0e282e3"},"vehicle_type_id":"4","last_reported":1716581279,"current_range_meters":8000,"station_id":"ce4bhbp2rcd13ifvqesg","pricing_plan_id":"cebpf4jnsgd1na2vs0mg"},{"bike_id":"94d8b2be-485b-42e6-8790-48725dab9f1a","system_id":"levelo_inurba_marseille","lat":43.302673,"lon":5.391334,"is_reserved":false,"is_disabled":false,"rental_uris":{"android":"levelo://app?vid=94d8b2be-485b-42e6-8790-48725dab9f1a","ios":"levelo://app?vid=94d8b2be-485b-42e6-8790-48725dab9f1a"},"vehicle_type_id":"4","last_reported":1716581279,"current_range_meters":0,"station_id":"ce4bgkh2rcd13ifvqbk0","pricing_plan_id":"cebpf4jnsgd1na2vs0mg"},{"bike_id":"c5e7fec4-e0af-4a4d-a440-436182b6909d","system_id":"levelo_inurba_marseille","lat":43.293037,"lon":5.374561,"is_reserved":false,"is_disabled":false,"rental_uris":{"android":"levelo://app?vid=c5e7fec4-e0af-4a4d-a440-436182b6909d","ios":"levelo://app?vid=c5e7fec4-e0af-4a4d-a440-436182b6909d"},"vehicle_type_id":"4","last_reported":1716581279,"current_range_meters":0,"station_id":"ce4bgi12rcd13ifvqb70","pricing_plan_id":"cebpf4jnsgd1na2vs0mg"},{"bike_id":"61bd5da3-0178-45a9-b6ab-8679c497ee89","system_id":"levelo_inurba_marseille","lat":43.293027,"lon":5.374586,"is_reserved":false,"is_disabled":false,"rental_uris":{"android":"levelo://app?vid=61bd5da3-0178-45a9-b6ab-8679c497ee89","ios":"levelo://app?vid=61bd5da3-0178-45a9-b6ab-8679c497ee89"},"vehicle_type_id":"4","last_reported":1716581279,"current_range_meters":25200,"station_id":"ce4bgi12rcd13ifvqb70","pricing_plan_id":"cebpf4jnsgd1na2vs0mg"},{"bike_id":"1a090c63-e0a9-468b-84e2-ab75aaa7238f","system_id":"levelo_inurba_marseille","lat":43.293009,"lon":5.374584,"is_reserved":false,"is_disabled":false,"rental_uris":{"android":"levelo://app?vid=1a090c63-e0a9-468b-84e2-ab75aaa7238f","ios":"levelo://app?vid=1a090c63-e0a9-468b-84e2-ab75aaa7238f"},"vehicle_type_id":"4","last_reported":1716581279,"current_range_meters":6000,"station_id":"ce4bgi12rcd13ifvqb70","pricing_plan_id":"cebpf4jnsgd1na2vs0mg"},{"bike_id":"99e78435-9c69-4797-a5c6-eb5df5e3d88a","system_id":"levelo_inurba_marseille","lat":43.305994,"lon":5.393687,"is_reserved":false,"is_disabled":false,"rental_uris":{"android":"levelo://app?vid=99e78435-9c69-4797-a5c6-eb5df5e3d88a","ios":"levelo://app?vid=99e78435-9c69-4797-a5c6-eb5df5e3d88a"},"vehicle_type_id":"4","last_reported":1716581279,"current_range_meters":5600,"station_id":"ce4bh0p2rcd13ifvqd80","pricing_plan_id":"cebpf4jnsgd1na2vs0mg"},{"bike_id":"36914f5a-7b60-4dba-9f8b-5da803768953","system_id":"levelo_inurba_marseille","lat":43.305994,"lon":5.393687,"is_reserved":false,"is_disabled":false,"rental_uris":{"android":"levelo://app?vid=36914f5a-7b60-4dba-9f8b-5da803768953","ios":"levelo://app?vid=36914f5a-7b60-4dba-9f8b-5da803768953"},"vehicle_type_id":"4","last_reported":1716581279,"current_range_meters":0,"station_id":"ce4bh0p2rcd13ifvqd80","pricing_plan_id":"cebpf4jnsgd1na2vs0mg"},{"bike_id":"b81eee73-88b0-4cb6-bd08-63639faf1398","system_id":"levelo_inurba_marseille","lat":43.302992,"lon":5.392136,"is_reserved":false,"is_disabled":false,"rental_uris":{"android":"levelo://app?vid=b81eee73-88b0-4cb6-bd08-63639faf1398","ios":"levelo://app?vid=b81eee73-88b0-4cb6-bd08-63639faf1398"},"vehicle_type_id":"4","last_reported":1716581279,"current_range_meters":2000,"station_id":"ce4bgkh2rcd13ifvqbk0","pricing_plan_id":"cebpf4jnsgd1na2vs0mg"},{"bike_id":"22b8f6c0-b900-4265-8dad-c5c6c7551f6b","system_id":"levelo_inurba_marseille","lat":43.301939,"lon":5.366286,"is_reserved":false,"is_disabled":false,"rental_uris":{"android":"levelo://app?vid=22b8f6c0-b900-4265-8dad-c5c6c7551f6b","ios":"levelo://app?vid=22b8f6c0-b900-4265-8dad-c5c6c7551f6b"},"vehicle_type_id":"4","last_reported":1716581279,"current_range_meters":10000,"station_id":"ce4bgrh2rcd13ifvqc8g","pricing_plan_id":"cebpf4jnsgd1na2vs0mg"},{"bike_id":"399dea46-b55f-4d9a-8683-11abba3a29fa","system_id":"levelo_inurba_marseille","lat":43.303173,"lon":5.392138,"is_reserved":false,"is_disabled":false,"rental_uris":{"android":"levelo://app?vid=399dea46-b55f-4d9a-8683-11abba3a29fa","ios":"levelo://app?vid=399dea46-b55f-4d9a-8683-11abba3a29fa"},"vehicle_type_id":"4","last_reported":1716581279,"current_range_meters":0,"station_id":"ce4bgkh2rcd13ifvqbk0","pricing_plan_id":"cebpf4jnsgd1na2vs0mg"},{"bike_id":"1d0c724b-3e56-4691-ad38-cf2c6972c272","system_id":"levelo_inurba_marseille","lat":43.30305,"lon":5.39208,"is_reserved":false,"is_disabled":false,"rental_uris":{"android":"levelo://app?vid=1d0c724b-3e56-4691-ad38-cf2c6972c272","ios":"levelo://app?vid=1d0c724b-3e56-4691-ad38-cf2c6972c272"},"vehicle_type_id":"4","last_reported":1716581279,"current_range_meters":5600,"station_id":"ce4bgkh2rcd13ifvqbk0","pricing_plan_id":"cebpf4jnsgd1na2vs0mg"},{"bike_id":"544aa61d-b0e9-4bd1-ba41-a6592ec7a637","system_id":"levelo_inurba_marseille","lat":43.302992,"lon":5.392136,"is_reserved":false,"is_disabled":false,"rental_uris":{"android":"levelo://app?vid=544aa61d-b0e9-4bd1-ba41-a6592ec7a637","ios":"levelo://app?vid=544aa61d-b0e9-4bd1-ba41-a6592ec7a637"},"vehicle_type_id":"4","last_reported":1716581279,"current_range_meters":400,"station_id":"ce4bgkh2rcd13ifvqbk0","pricing_plan_id":"cebpf4jnsgd1na2vs0mg"},{"bike_id":"26a61023-29a6-4cf0-b80e-e2a1b8c78e39","system_id":"levelo_inurba_marseille","lat":43.302992,"lon":5.392136,"is_reserved":false,"is_disabled":false,"rental_uris":{"android":"levelo://app?vid=26a61023-29a6-4cf0-b80e-e2a1b8c78e39","ios":"levelo://app?vid=26a61023-29a6-4cf0-b80e-e2a1b8c78e39"},"vehicle_type_id":"4","last_reported":1716581279,"current_range_meters":1200,"station_id":"ce4bgkh2rcd13ifvqbk0","pricing_plan_id":"cebpf4jnsgd1na2vs0mg"},{"bike_id":"dac8480e-dbc0-4da5-8a63-b897f3f011f5","system_id":"levelo_inurba_marseille","lat":43.30298,"lon":5.392068,"is_reserved":false,"is_disabled":false,"rental_uris":{"android":"levelo://app?vid=dac8480e-dbc0-4da5-8a63-b897f3f011f5","ios":"levelo://app?vid=dac8480e-dbc0-4da5-8a63-b897f3f011f5"},"vehicle_type_id":"4","last_reported":1716581279,"current_range_meters":13600,"station_id":"ce4bgkh2rcd13ifvqbk0","pricing_plan_id":"cebpf4jnsgd1na2vs0mg"},{"bike_id":"d544b28f-1dc7-4a70-aa2e-55106058e19d","system_id":"levelo_inurba_marseille","lat":43.30305,"lon":5.39216,"is_reserved":false,"is_disabled":false,"rental_uris":{"android":"levelo://app?vid=d544b28f-1dc7-4a70-aa2e-55106058e19d","ios":"levelo://app?vid=d544b28f-1dc7-4a70-aa2e-55106058e19d"},"vehicle_type_id":"4","last_reported":1716581279,"current_range_meters":15600,"station_id":"ce4bgkh2rcd13ifvqbk0","pricing_plan_id":"cebpf4jnsgd1na2vs0mg"},{"bike_id":"5341379e-9f1b-46dd-9b0b-d61d681f1495","system_id":"levelo_inurba_marseille","lat":43.30085,"lon":5.390856,"is_reserved":false,"is_disabled":false,"rental_uris":{"android":"levelo://app?vid=5341379e-9f1b-46dd-9b0b-d61d681f1495","ios":"levelo://app?vid=5341379e-9f1b-46dd-9b0b-d61d681f1495"},"vehicle_type_id":"4","last_reported":1716581279,"current_range_meters":24800,"station_id":"ce4bh192rcd13ifvqdb0","pricing_plan_id":"cebpf4jnsgd1na2vs0mg"},{"bike_id":"f951f07d-fb74-402e-ad8b-100f9bcdbe9a","system_id":"levelo_inurba_marseille","lat":43.2936,"lon":5.37835,"is_reserved":false,"is_disabled":false,"rental_uris":{"android":"levelo://app?vid=f951f07d-fb74-402e-ad8b-100f9bcdbe9a","ios":"levelo://app?vid=f951f07d-fb74-402e-ad8b-100f9bcdbe9a"},"vehicle_type_id":"4","last_reported":1716581279,"current_range_meters":16800,"station_id":"ce4bgjh2rcd13ifvqbf0","pricing_plan_id":"cebpf4jnsgd1na2vs0mg"},{"bike_id":"a6350e46-36ad-4a4b-88ee-19dc3d4a425b","system_id":"levelo_inurba_marseille","lat":43.302992,"lon":5.392136,"is_reserved":false,"is_disabled":false,"rental_uris":{"android":"levelo://app?vid=a6350e46-36ad-4a4b-88ee-19dc3d4a425b","ios":"levelo://app?vid=a6350e46-36ad-4a4b-88ee-19dc3d4a425b"},"vehicle_type_id":"4","last_reported":1716581279,"current_range_meters":0,"station_id":"ce4bgkh2rcd13ifvqbk0","pricing_plan_id":"cebpf4jnsgd1na2vs0mg"},{"bike_id":"e5cb12c0-8b46-482a-b2e4-ec6a88fa4827","system_id":"levelo_inurba_marseille","lat":43.303002,"lon":5.392142,"is_reserved":false,"is_disabled":false,"rental_uris":{"android":"levelo://app?vid=e5cb12c0-8b46-482a-b2e4-ec6a88fa4827","ios":"levelo://app?vid=e5cb12c0-8b46-482a-b2e4-ec6a88fa4827"},"vehicle_type_id":"4","last_reported":1716581279,"current_range_meters":11600,"station_id":"ce4bgkh2rcd13ifvqbk0","pricing_plan_id":"cebpf4jnsgd1na2vs0mg"},{"bike_id":"07364759-a90b-4c36-94a2-c1cf891f9f7c","system_id":"levelo_inurba_marseille","lat":43.30085,"lon":5.390856,"is_reserved":false,"is_disabled":false,"rental_uris":{"android":"levelo://app?vid=07364759-a90b-4c36-94a2-c1cf891f9f7c","ios":"levelo://app?vid=07364759-a90b-4c36-94a2-c1cf891f9f7c"},"vehicle_type_id":"4","last_reported":1716581279,"current_range_meters":3200,"station_id":"ce4bh192rcd13ifvqdb0","pricing_plan_id":"cebpf4jnsgd1na2vs0mg"},{"bike_id":"dd5eb748-343f-4ca6-81e6-dab75618bb42","system_id":"levelo_inurba_marseille","lat":43.30085,"lon":5.390856,"is_reserved":false,"is_disabled":false,"rental_uris":{"android":"levelo://app?vid=dd5eb748-343f-4ca6-81e6-dab75618bb42","ios":"levelo://app?vid=dd5eb748-343f-4ca6-81e6-dab75618bb42"},"vehicle_type_id":"4","last_reported":1716581279,"current_range_meters":19600,"station_id":"ce4bh192rcd13ifvqdb0","pricing_plan_id":"cebpf4jnsgd1na2vs0mg"},{"bike_id":"7d87cd7e-1556-4522-b627-9b2dcac160ee","system_id":"levelo_inurba_marseille","lat":43.30085,"lon":5.390856,"is_reserved":false,"is_disabled":false,"rental_uris":{"android":"levelo://app?vid=7d87cd7e-1556-4522-b627-9b2dcac160ee","ios":"levelo://app?vid=7d87cd7e-1556-4522-b627-9b2dcac160ee"},"vehicle_type_id":"4","last_reported":1716581279,"current_range_meters":29200,"station_id":"ce4bh192rcd13ifvqdb0","pricing_plan_id":"cebpf4jnsgd1na2vs0mg"},{"bike_id":"174ccd49-996d-4286-8bfe-b7cf86da6ab9","system_id":"levelo_inurba_marseille","lat":43.30085,"lon":5.390856,"is_reserved":false,"is_disabled":false,"rental_uris":{"android":"levelo://app?vid=174ccd49-996d-4286-8bfe-b7cf86da6ab9","ios":"levelo://app?vid=174ccd49-996d-4286-8bfe-b7cf86da6ab9"},"vehicle_type_id":"4","last_reported":1716581279,"current_range_meters":20400,"station_id":"ce4bh192rcd13ifvqdb0","pricing_plan_id":"cebpf4jnsgd1na2vs0mg"},{"bike_id":"4d2eabf8-803c-4a58-bc66-591f9b7b8bb1","system_id":"levelo_inurba_marseille","lat":43.30085,"lon":5.390856,"is_reserved":false,"is_disabled":false,"rental_uris":{"android":"levelo://app?vid=4d2eabf8-803c-4a58-bc66-591f9b7b8bb1","ios":"levelo://app?vid=4d2eabf8-803c-4a58-bc66-591f9b7b8bb1"},"vehicle_type_id":"4","last_reported":1716581279,"current_range_meters":4400,"station_id":"ce4bh192rcd13ifvqdb0","pricing_plan_id":"cebpf4jnsgd1na2vs0mg"},{"bike_id":"6e252e6d-9508-48c8-b3ac-c7dfb774916d","system_id":"levelo_inurba_marseille","lat":43.30085,"lon":5.390856,"is_reserved":false,"is_disabled":false,"rental_uris":{"android":"levelo://app?vid=6e252e6d-9508-48c8-b3ac-c7dfb774916d","ios":"levelo://app?vid=6e252e6d-9508-48c8-b3ac-c7dfb774916d"},"vehicle_type_id":"4","last_reported":1716581279,"current_range_meters":31200,"station_id":"ce4bh192rcd13ifvqdb0","pricing_plan_id":"cebpf4jnsgd1na2vs0mg"},{"bike_id":"23f79f2d-e349-413b-ae78-c3b7f633e079","system_id":"levelo_inurba_marseille","lat":43.3008,"lon":5.39097,"is_reserved":false,"is_disabled":false,"rental_uris":{"android":"levelo://app?vid=23f79f2d-e349-413b-ae78-c3b7f633e079","ios":"levelo://app?vid=23f79f2d-e349-413b-ae78-c3b7f633e079"},"vehicle_type_id":"4","last_reported":1716581279,"current_range_meters":17600,"station_id":"ce4bh192rcd13ifvqdb0","pricing_plan_id":"cebpf4jnsgd1na2vs0mg"},{"bike_id":"1c9f811a-df5f-4a3d-aab2-3c800fde9c93","system_id":"levelo_inurba_marseille","lat":43.291675,"lon":5.371583,"is_reserved":false,"is_disabled":false,"rental_uris":{"android":"levelo://app?vid=1c9f811a-df5f-4a3d-aab2-3c800fde9c93","ios":"levelo://app?vid=1c9f811a-df5f-4a3d-aab2-3c800fde9c93"},"vehicle_type_id":"4","last_reported":1716581279,"current_range_meters":4400,"station_id":"ce4bha92rcd13ifvqeh0","pricing_plan_id":"cebpf4jnsgd1na2vs0mg"},{"bike_id":"4ead63b6-955b-4da1-9d14-8e1d3f789f40","system_id":"levelo_inurba_marseille","lat":43.291671,"lon":5.371575,"is_reserved":false,"is_disabled":false,"rental_uris":{"android":"levelo://app?vid=4ead63b6-955b-4da1-9d14-8e1d3f789f40","ios":"levelo://app?vid=4ead63b6-955b-4da1-9d14-8e1d3f789f40"},"vehicle_type_id":"4","last_reported":1716581279,"current_range_meters":31600,"station_id":"ce4bha92rcd13ifvqeh0","pricing_plan_id":"cebpf4jnsgd1na2vs0mg"},{"bike_id":"45b62bbe-6e29-446f-b44a-802dc6a2c1d7","system_id":"levelo_inurba_marseille","lat":43.291675,"lon":5.371583,"is_reserved":false,"is_disabled":false,"rental_uris":{"android":"levelo://app?vid=45b62bbe-6e29-446f-b44a-802dc6a2c1d7","ios":"levelo://app?vid=45b62bbe-6e29-446f-b44a-802dc6a2c1d7"},"vehicle_type_id":"4","last_reported":1716581279,"current_range_meters":24800,"station_id":"ce4bha92rcd13ifvqeh0","pricing_plan_id":"cebpf4jnsgd1na2vs0mg"},{"bike_id":"4eac5f08-e07e-4244-83df-2e8805b2cc8a","system_id":"levelo_inurba_marseille","lat":43.29874,"lon":5.38908,"is_reserved":false,"is_disabled":false,"rental_uris":{"android":"levelo://app?vid=4eac5f08-e07e-4244-83df-2e8805b2cc8a","ios":"levelo://app?vid=4eac5f08-e07e-4244-83df-2e8805b2cc8a"},"vehicle_type_id":"4","last_reported":1716581279,"current_range_meters":0,"station_id":"ce4bh392rcd13ifvqdl0","pricing_plan_id":"cebpf4jnsgd1na2vs0mg"},{"bike_id":"5465def4-23c6-4475-9f85-270ed5518ebc","system_id":"levelo_inurba_marseille","lat":43.291671,"lon":5.371575,"is_reserved":false,"is_disabled":false,"rental_uris":{"android":"levelo://app?vid=5465def4-23c6-4475-9f85-270ed5518ebc","ios":"levelo://app?vid=5465def4-23c6-4475-9f85-270ed5518ebc"},"vehicle_type_id":"4","last_reported":1716581279,"current_range_meters":29200,"station_id":"ce4bha92rcd13ifvqeh0","pricing_plan_id":"cebpf4jnsgd1na2vs0mg"},{"bike_id":"a888eca7-d2a5-431e-a434-d925b445e9ae","system_id":"levelo_inurba_marseille","lat":43.298764,"lon":5.388973,"is_reserved":false,"is_disabled":false,"rental_uris":{"android":"levelo://app?vid=a888eca7-d2a5-431e-a434-d925b445e9ae","ios":"levelo://app?vid=a888eca7-d2a5-431e-a434-d925b445e9ae"},"vehicle_type_id":"4","last_reported":1716581279,"current_range_meters":23600,"station_id":"ce4bh392rcd13ifvqdl0","pricing_plan_id":"cebpf4jnsgd1na2vs0mg"},{"bike_id":"c8aa69dd-ed00-4014-abd1-0b0bf97d0725","system_id":"levelo_inurba_marseille","lat":43.301267,"lon":5.391753,"is_reserved":false,"is_disabled":false,"rental_uris":{"android":"levelo://app?vid=c8aa69dd-ed00-4014-abd1-0b0bf97d0725","ios":"levelo://app?vid=c8aa69dd-ed00-4014-abd1-0b0bf97d0725"},"vehicle_type_id":"4","last_reported":1716581279,"current_range_meters":0,"station_id":"","pricing_plan_id":"cebpf4jnsgd1na2vs0mg"},{"bike_id":"dc3b38d0-ed92-4ced-aa4e-a0df990341d3","system_id":"levelo_inurba_marseille","lat":43.291671,"lon":5.371575,"is_reserved":false,"is_disabled":false,"rental_uris":{"android":"levelo://app?vid=dc3b38d0-ed92-4ced-aa4e-a0df990341d3","ios":"levelo://app?vid=dc3b38d0-ed92-4ced-aa4e-a0df990341d3"},"vehicle_type_id":"4","last_reported":1716581279,"current_range_meters":400,"station_id":"ce4bha92rcd13ifvqeh0","pricing_plan_id":"cebpf4jnsgd1na2vs0mg"},{"bike_id":"ca9c4b47-c7e4-4dec-b87e-6a92f4f3dcbd","system_id":"levelo_inurba_marseille","lat":43.291675,"lon":5.371583,"is_reserved":false,"is_disabled":false,"rental_uris":{"android":"levelo://app?vid=ca9c4b47-c7e4-4dec-b87e-6a92f4f3dcbd","ios":"levelo://app?vid=ca9c4b47-c7e4-4dec-b87e-6a92f4f3dcbd"},"vehicle_type_id":"4","last_reported":1716581279,"current_range_meters":13600,"station_id":"ce4bha92rcd13ifvqeh0","pricing_plan_id":"cebpf4jnsgd1na2vs0mg"},{"bike_id":"812a4be2-bd29-4303-a8fe-42df9db058c6","system_id":"levelo_inurba_marseille","lat":43.309038,"lon":5.396546,"is_reserved":false,"is_disabled":false,"rental_uris":{"android":"levelo://app?vid=812a4be2-bd29-4303-a8fe-42df9db058c6","ios":"levelo://app?vid=812a4be2-bd29-4303-a8fe-42df9db058c6"},"vehicle_type_id":"4","last_reported":1716581279,"current_range_meters":0,"station_id":"ce4bh012rcd13ifvqcv0","pricing_plan_id":"cebpf4jnsgd1na2vs0mg"},{"bike_id":"1a26dcce-eeb7-4f4f-b862-5a62b00bfd35","system_id":"levelo_inurba_marseille","lat":43.31325,"lon":5.39689,"is_reserved":false,"is_disabled":false,"rental_uris":{"android":"levelo://app?vid=1a26dcce-eeb7-4f4f-b862-5a62b00bfd35","ios":"levelo://app?vid=1a26dcce-eeb7-4f4f-b862-5a62b00bfd35"},"vehicle_type_id":"4","last_reported":1716581279,"current_range_meters":23600,"station_id":"ce4bgvp2rcd13ifvqcu0","pricing_plan_id":"cebpf4jnsgd1na2vs0mg"},{"bike_id":"7cae6a09-72d3-4652-8b73-d48a5600486e","system_id":"levelo_inurba_marseille","lat":43.31327,"lon":5.3969,"is_reserved":false,"is_disabled":false,"rental_uris":{"android":"levelo://app?vid=7cae6a09-72d3-4652-8b73-d48a5600486e","ios":"levelo://app?vid=7cae6a09-72d3-4652-8b73-d48a5600486e"},"vehicle_type_id":"4","last_reported":1716581279,"current_range_meters":0,"station_id":"ce4bgvp2rcd13ifvqcu0","pricing_plan_id":"cebpf4jnsgd1na2vs0mg"},{"bike_id":"fbeb9e87-8f47-4da1-b3a0-de77d36d5933","system_id":"levelo_inurba_marseille","lat":43.29529,"lon":5.385581,"is_reserved":false,"is_disabled":false,"rental_uris":{"android":"levelo://app?vid=fbeb9e87-8f47-4da1-b3a0-de77d36d5933","ios":"levelo://app?vid=fbeb9e87-8f47-4da1-b3a0-de77d36d5933"},"vehicle_type_id":"4","last_reported":1716581279,"current_range_meters":4800,"station_id":"ce4bgih2rcd13ifvqba0","pricing_plan_id":"cebpf4jnsgd1na2vs0mg"},{"bike_id":"059d4949-2d64-4f3c-be5e-6f0691157ad4","system_id":"levelo_inurba_marseille","lat":43.308481,"lon":5.396414,"is_reserved":false,"is_disabled":false,"rental_uris":{"android":"levelo://app?vid=059d4949-2d64-4f3c-be5e-6f0691157ad4","ios":"levelo://app?vid=059d4949-2d64-4f3c-be5e-6f0691157ad4"},"vehicle_type_id":"4","last_reported":1716581279,"current_range_meters":18400,"station_id":"ce4bh0p2rcd13ifvqd80","pricing_plan_id":"cebpf4jnsgd1na2vs0mg"},{"bike_id":"d086cac9-0335-41f9-9ebe-9afc9679edab","system_id":"levelo_inurba_marseille","lat":43.309047,"lon":5.396551,"is_reserved":false,"is_disabled":false,"rental_uris":{"android":"levelo://app?vid=d086cac9-0335-41f9-9ebe-9afc9679edab","ios":"levelo://app?vid=d086cac9-0335-41f9-9ebe-9afc9679edab"},"vehicle_type_id":"4","last_reported":1716581279,"current_range_meters":18400,"station_id":"ce4bh012rcd13ifvqcv0","pricing_plan_id":"cebpf4jnsgd1na2vs0mg"},{"bike_id":"e357b7d1-79be-4dd6-837c-37db48bfcc05","system_id":"levelo_inurba_marseille","lat":43.309038,"lon":5.396546,"is_reserved":false,"is_disabled":false,"rental_uris":{"android":"levelo://app?vid=e357b7d1-79be-4dd6-837c-37db48bfcc05","ios":"levelo://app?vid=e357b7d1-79be-4dd6-837c-37db48bfcc05"},"vehicle_type_id":"4","last_reported":1716581279,"current_range_meters":3200,"station_id":"ce4bh012rcd13ifvqcv0","pricing_plan_id":"cebpf4jnsgd1na2vs0mg"},{"bike_id":"dc1e90e0-3d0b-4f23-8526-3ed70a24c86a","system_id":"levelo_inurba_marseille","lat":43.29529,"lon":5.385581,"is_reserved":false,"is_disabled":false,"rental_uris":{"android":"levelo://app?vid=dc1e90e0-3d0b-4f23-8526-3ed70a24c86a","ios":"levelo://app?vid=dc1e90e0-3d0b-4f23-8526-3ed70a24c86a"},"vehicle_type_id":"4","last_reported":1716581279,"current_range_meters":0,"station_id":"ce4bgih2rcd13ifvqba0","pricing_plan_id":"cebpf4jnsgd1na2vs0mg"},{"bike_id":"c1344387-a191-4365-9d08-3d23598f5267","system_id":"levelo_inurba_marseille","lat":43.295327,"lon":5.385487,"is_reserved":false,"is_disabled":false,"rental_uris":{"android":"levelo://app?vid=c1344387-a191-4365-9d08-3d23598f5267","ios":"levelo://app?vid=c1344387-a191-4365-9d08-3d23598f5267"},"vehicle_type_id":"4","last_reported":1716581279,"current_range_meters":0,"station_id":"ce4bgih2rcd13ifvqba0","pricing_plan_id":"cebpf4jnsgd1na2vs0mg"},{"bike_id":"c6397be6-ca16-4cf2-81d3-427852dbaf8e","system_id":"levelo_inurba_marseille","lat":43.29529,"lon":5.385581,"is_reserved":false,"is_disabled":false,"rental_uris":{"android":"levelo://app?vid=c6397be6-ca16-4cf2-81d3-427852dbaf8e","ios":"levelo://app?vid=c6397be6-ca16-4cf2-81d3-427852dbaf8e"},"vehicle_type_id":"4","last_reported":1716581279,"current_range_meters":0,"station_id":"ce4bgih2rcd13ifvqba0","pricing_plan_id":"cebpf4jnsgd1na2vs0mg"},{"bike_id":"c99db814-efb2-43db-9c89-9453eda7fbd5","system_id":"levelo_inurba_marseille","lat":43.29529,"lon":5.385581,"is_reserved":false,"is_disabled":false,"rental_uris":{"android":"levelo://app?vid=c99db814-efb2-43db-9c89-9453eda7fbd5","ios":"levelo://app?vid=c99db814-efb2-43db-9c89-9453eda7fbd5"},"vehicle_type_id":"4","last_reported":1716581279,"current_range_meters":0,"station_id":"ce4bgih2rcd13ifvqba0","pricing_plan_id":"cebpf4jnsgd1na2vs0mg"},{"bike_id":"88659acf-383b-46d5-be5c-1ca0b27db724","system_id":"levelo_inurba_marseille","lat":43.29532,"lon":5.38554,"is_reserved":false,"is_disabled":false,"rental_uris":{"android":"levelo://app?vid=88659acf-383b-46d5-be5c-1ca0b27db724","ios":"levelo://app?vid=88659acf-383b-46d5-be5c-1ca0b27db724"},"vehicle_type_id":"4","last_reported":1716581279,"current_range_meters":5600,"station_id":"ce4bgih2rcd13ifvqba0","pricing_plan_id":"cebpf4jnsgd1na2vs0mg"},{"bike_id":"3a3bcfc7-2a8b-4cf6-a6e4-f8d8444b3276","system_id":"levelo_inurba_marseille","lat":43.29529,"lon":5.385581,"is_reserved":false,"is_disabled":false,"rental_uris":{"android":"levelo://app?vid=3a3bcfc7-2a8b-4cf6-a6e4-f8d8444b3276","ios":"levelo://app?vid=3a3bcfc7-2a8b-4cf6-a6e4-f8d8444b3276"},"vehicle_type_id":"4","last_reported":1716581279,"current_range_meters":4800,"station_id":"ce4bgih2rcd13ifvqba0","pricing_plan_id":"cebpf4jnsgd1na2vs0mg"},{"bike_id":"478d4ee7-3240-4028-9420-a6625943decf","system_id":"levelo_inurba_marseille","lat":43.29529,"lon":5.385581,"is_reserved":false,"is_disabled":false,"rental_uris":{"android":"levelo://app?vid=478d4ee7-3240-4028-9420-a6625943decf","ios":"levelo://app?vid=478d4ee7-3240-4028-9420-a6625943decf"},"vehicle_type_id":"4","last_reported":1716581279,"current_range_meters":10400,"station_id":"ce4bgih2rcd13ifvqba0","pricing_plan_id":"cebpf4jnsgd1na2vs0mg"},{"bike_id":"a9d3a8e1-e37a-4856-8bd5-e2aed53840be","system_id":"levelo_inurba_marseille","lat":43.29532,"lon":5.38559,"is_reserved":false,"is_disabled":false,"rental_uris":{"android":"levelo://app?vid=a9d3a8e1-e37a-4856-8bd5-e2aed53840be","ios":"levelo://app?vid=a9d3a8e1-e37a-4856-8bd5-e2aed53840be"},"vehicle_type_id":"4","last_reported":1716581279,"current_range_meters":6000,"station_id":"ce4bgih2rcd13ifvqba0","pricing_plan_id":"cebpf4jnsgd1na2vs0mg"},{"bike_id":"7339b36e-08ec-4d6a-8799-a483c9af908d","system_id":"levelo_inurba_marseille","lat":43.29529,"lon":5.385581,"is_reserved":false,"is_disabled":false,"rental_uris":{"android":"levelo://app?vid=7339b36e-08ec-4d6a-8799-a483c9af908d","ios":"levelo://app?vid=7339b36e-08ec-4d6a-8799-a483c9af908d"},"vehicle_type_id":"4","last_reported":1716581279,"current_range_meters":3600,"station_id":"ce4bgih2rcd13ifvqba0","pricing_plan_id":"cebpf4jnsgd1na2vs0mg"},{"bike_id":"42875bbc-b0be-4681-9fb4-5ca291cff835","system_id":"levelo_inurba_marseille","lat":43.290779,"lon":5.371482,"is_reserved":false,"is_disabled":false,"rental_uris":{"android":"levelo://app?vid=42875bbc-b0be-4681-9fb4-5ca291cff835","ios":"levelo://app?vid=42875bbc-b0be-4681-9fb4-5ca291cff835"},"vehicle_type_id":"4","last_reported":1716581279,"current_range_meters":31200,"station_id":"ce4bh5p2rcd13ifvqe4g","pricing_plan_id":"cebpf4jnsgd1na2vs0mg"},{"bike_id":"880370e5-8094-42b9-9cfd-7d3db51235de","system_id":"levelo_inurba_marseille","lat":43.297707,"lon":5.390237,"is_reserved":false,"is_disabled":false,"rental_uris":{"android":"levelo://app?vid=880370e5-8094-42b9-9cfd-7d3db51235de","ios":"levelo://app?vid=880370e5-8094-42b9-9cfd-7d3db51235de"},"vehicle_type_id":"4","last_reported":1716581279,"current_range_meters":0,"station_id":"chh1huq6cuj3fo74tm60","pricing_plan_id":"cebpf4jnsgd1na2vs0mg"},{"bike_id":"6b0305f6-9426-46b4-ab0e-2247d0e047de","system_id":"levelo_inurba_marseille","lat":43.302008,"lon":5.394694,"is_reserved":false,"is_disabled":false,"rental_uris":{"android":"levelo://app?vid=6b0305f6-9426-46b4-ab0e-2247d0e047de","ios":"levelo://app?vid=6b0305f6-9426-46b4-ab0e-2247d0e047de"},"vehicle_type_id":"4","last_reported":1716581279,"current_range_meters":10400,"station_id":"ce4bh0p2rcd13ifvqd70","pricing_plan_id":"cebpf4jnsgd1na2vs0mg"},{"bike_id":"0c1633ad-51f5-4090-a0b3-a857f6127844","system_id":"levelo_inurba_marseille","lat":43.302008,"lon":5.394694,"is_reserved":false,"is_disabled":false,"rental_uris":{"android":"levelo://app?vid=0c1633ad-51f5-4090-a0b3-a857f6127844","ios":"levelo://app?vid=0c1633ad-51f5-4090-a0b3-a857f6127844"},"vehicle_type_id":"4","last_reported":1716581279,"current_range_meters":10400,"station_id":"ce4bh0p2rcd13ifvqd70","pricing_plan_id":"cebpf4jnsgd1na2vs0mg"},{"bike_id":"48bc9eec-59f9-45d5-a1c9-c7404eea5a34","system_id":"levelo_inurba_marseille","lat":43.289184,"lon":5.366408,"is_reserved":false,"is_disabled":false,"rental_uris":{"android":"levelo://app?vid=48bc9eec-59f9-45d5-a1c9-c7404eea5a34","ios":"levelo://app?vid=48bc9eec-59f9-45d5-a1c9-c7404eea5a34"},"vehicle_type_id":"4","last_reported":1716581279,"current_range_meters":28400,"station_id":"ce4bhap2rcd13ifvqek0","pricing_plan_id":"cebpf4jnsgd1na2vs0mg"},{"bike_id":"238a2e6f-e8c4-491b-abe5-365996402f88","system_id":"levelo_inurba_marseille","lat":43.289184,"lon":5.366408,"is_reserved":false,"is_disabled":false,"rental_uris":{"android":"levelo://app?vid=238a2e6f-e8c4-491b-abe5-365996402f88","ios":"levelo://app?vid=238a2e6f-e8c4-491b-abe5-365996402f88"},