{"last_updated":1727820491,"ttl":60,"version":"2.2","data":{"bikes":[{"bike_id":"e65db43f-3df2-4777-903f-e32fd9b2c23b","system_id":"levelo_inurba_marseille","lat":43.29042,"lon":5.37569,"is_reserved":false,"is_disabled":false,"rental_uris":{"android":"levelo://app?vid=e65db43f-3df2-4777-903f-e32fd9b2c23b","ios":"levelo://app?vid=e65db43f-3df2-4777-903f-e32fd9b2c23b"},"vehicle_type_id":"4","last_reported":1727820492,"current_range_meters":28000,"station_id":"ce4bh692rcd13ifvqe90","pricing_plan_id":"cebpf4jnsgd1na2vs0mg"},{"bike_id":"d97196d4-185e-4916-bd86-5eb6fdf18447","system_id":"levelo_inurba_marseille","lat":43.33025,"lon":5.39043,"is_reserved":false,"is_disabled":false,"rental_uris":{"android":"levelo://app?vid=d97196d4-185e-4916-bd86-5eb6fdf18447","ios":"levelo://app?vid=d97196d4-185e-4916-bd86-5eb6fdf18447"},"vehicle_type_id":"4","last_reported":1727820492,"current_range_meters":24000,"station_id":"ce4bhr92rcd13ifvqhrg","pricing_plan_id":"cebpf4jnsgd1na2vs0mg"},{"bike_id":"c1f8fd95-7047-428b-8805-d2bc5bdc3363","system_id":"levelo_inurba_marseille","lat":43.3303,"lon":5.39047,"is_reserved":false,"is_disabled":false,"rental_uris":{"android":"levelo://app?vid=c1f8fd95-7047-428b-8805-d2bc5bdc3363","ios":"levelo://app?vid=c1f8fd95-7047-428b-8805-d2bc5bdc3363"},"vehicle_type_id":"4","last_reported":1727820492,"current_range_meters":37600,"station_id":"ce4bhr92rcd13ifvqhrg","pricing_plan_id":"cebpf4jnsgd1na2vs0mg"},{"bike_id":"590a8d58-4170-45bf-9ac5-837bd3ff5b81","system_id":"levelo_inurba_marseille","lat":43.27089,"lon":5.42267,"is_reserved":false,"is_disabled":false,"rental_uris":{"android":"levelo://app?vid=590a8d58-4170-45bf-9ac5-837bd3ff5b81","ios":"levelo://app?vid=590a8d58-4170-45bf-9ac5-837bd3ff5b81"},"vehicle_type_id":"4","last_reported":1727820492,"current_range_meters":25600,"station_id":"ce4bhk92rcd13ifvqgb0","pricing_plan_id":"cebpf4jnsgd1na2vs0mg"},{"bike_id":"44cefc2e-25d9-4040-b45f-14956c78c679","system_id":"levelo_inurba_marseille","lat":43.27073,"lon":5.42274,"is_reserved":false,"is_disabled":false,"rental_uris":{"android":"levelo://app?vid=44cefc2e-25d9-4040-b45f-14956c78c679","ios":"levelo://app?vid=44cefc2e-25d9-4040-b45f-14956c78c679"},"vehicle_type_id":"4","last_reported":1727820492,"current_range_meters":38800,"station_id":"ce4bhk92rcd13ifvqgb0","pricing_plan_id":"cebpf4jnsgd1na2vs0mg"},{"bike_id":"a814215c-f3f0-4b2e-be81-e83f4e5a2fd2","system_id":"levelo_inurba_marseille","lat":43.24071,"lon":5.37731,"is_reserved":false,"is_disabled":false,"rental_uris":{"android":"levelo://app?vid=a814215c-f3f0-4b2e-be81-e83f4e5a2fd2","ios":"levelo://app?vid=a814215c-f3f0-4b2e-be81-e83f4e5a2fd2"},"vehicle_type_id":"4","last_reported":1727820492,"current_range_meters":33200,"station_id":"ce4bhnp2rcd13ifvqgvg","pricing_plan_id":"cebpf4jnsgd1na2vs0mg"},{"bike_id":"83e07b7c-5a31-4eac-92e4-4f0fe5973f81","system_id":"levelo_inurba_marseille","lat":43.24659,"lon":5.3889,"is_reserved":false,"is_disabled":false,"rental_uris":{"android":"levelo://app?vid=83e07b7c-5a31-4eac-92e4-4f0fe5973f81","ios":"levelo://app?vid=83e07b7c-5a31-4eac-92e4-4f0fe5973f81"},"vehicle_type_id":"4","last_reported":1727820492,"current_range_meters":15200,"station_id":"ce4bhg12rcd13ifvqf60","pricing_plan_id":"cebpf4jnsgd1na2vs0mg"},{"bike_id":"eed7e329-6797-484d-911e-085f4531d31b","system_id":"levelo_inurba_marseille","lat":43.25589,"lon":5.38239,"is_reserved":false,"is_disabled":false,"rental_uris":{"android":"levelo://app?vid=eed7e329-6797-484d-911e-085f4531d31b","ios":"levelo://app?vid=eed7e329-6797-484d-911e-085f4531d31b"},"vehicle_type_id":"4","last_reported":1727820492,"current_range_meters":8400,"station_id":"ce4bhih2rcd13ifvqfs0","pricing_plan_id":"cebpf4jnsgd1na2vs0mg"},{"bike_id":"1a3ec3a1-7767-4940-a140-a358655f8458","system_id":"levelo_inurba_marseille","lat":43.29565,"lon":5.42288,"is_reserved":false,"is_disabled":false,"rental_uris":{"android":"levelo://app?vid=1a3ec3a1-7767-4940-a140-a358655f8458","ios":"levelo://app?vid=1a3ec3a1-7767-4940-a140-a358655f8458"},"vehicle_type_id":"4","last_reported":1727820492,"current_range_meters":37600,"station_id":"ce4bhph2rcd13ifvqhdg","pricing_plan_id":"cebpf4jnsgd1na2vs0mg"},{"bike_id":"c92a38d9-de10-477a-8e6d-a4f5631ecb8e","system_id":"levelo_inurba_marseille","lat":43.24652,"lon":5.38891,"is_reserved":false,"is_disabled":false,"rental_uris":{"android":"levelo://app?vid=c92a38d9-de10-477a-8e6d-a4f5631ecb8e","ios":"levelo://app?vid=c92a38d9-de10-477a-8e6d-a4f5631ecb8e"},"vehicle_type_id":"4","last_reported":1727820492,"current_range_meters":28000,"station_id":"ce4bhg12rcd13ifvqf60","pricing_plan_id":"cebpf4jnsgd1na2vs0mg"},{"bike_id":"acec0df2-76a5-4e08-bd34-e0b2de725b1b","system_id":"levelo_inurba_marseille","lat":43.28413,"lon":5.37519,"is_reserved":false,"is_disabled":false,"rental_uris":{"android":"levelo://app?vid=acec0df2-76a5-4e08-bd34-e0b2de725b1b","ios":"levelo://app?vid=acec0df2-76a5-4e08-bd34-e0b2de725b1b"},"vehicle_type_id":"4","last_reported":1727820492,"current_range_meters":24400,"station_id":"ce4bh412rcd13ifvqds0","pricing_plan_id":"cebpf4jnsgd1na2vs0mg"},{"bike_id":"09ae8c03-4961-49ed-b29a-bf4a8ba84722","system_id":"levelo_inurba_marseille","lat":43.25107,"lon":5.40327,"is_reserved":false,"is_disabled":false,"rental_uris":{"android":"levelo://app?vid=09ae8c03-4961-49ed-b29a-bf4a8ba84722","ios":"levelo://app?vid=09ae8c03-4961-49ed-b29a-bf4a8ba84722"},"vehicle_type_id":"4","last_reported":1727820492,"current_range_meters":6000,"station_id":"ce4bhlh2rcd13ifvqgig","pricing_plan_id":"cebpf4jnsgd1na2vs0mg"},{"bike_id":"6aeb9f4c-83d7-43dc-a943-a7e5c7fd4420","system_id":"levelo_inurba_marseille","lat":43.29988,"lon":5.37186,"is_reserved":false,"is_disabled":false,"rental_uris":{"android":"levelo://app?vid=6aeb9f4c-83d7-43dc-a943-a7e5c7fd4420","ios":"levelo://app?vid=6aeb9f4c-83d7-43dc-a943-a7e5c7fd4420"},"vehicle_type_id":"4","last_reported":1727820492,"current_range_meters":37600,"station_id":"ce4bgr92rcd13ifvqc7g","pricing_plan_id":"cebpf4jnsgd1na2vs0mg"},{"bike_id":"3d107f9a-8ace-4686-b421-7aac96a91c78","system_id":"levelo_inurba_marseille","lat":43.28493,"lon":5.38565,"is_reserved":false,"is_disabled":false,"rental_uris":{"android":"levelo://app?vid=3d107f9a-8ace-4686-b421-7aac96a91c78","ios":"levelo://app?vid=3d107f9a-8ace-4686-b421-7aac96a91c78"},"vehicle_type_id":"4","last_reported":1727820492,"current_range_meters":10800,"station_id":"ce4bh8p2rcd13ifvqeb0","pricing_plan_id":"cebpf4jnsgd1na2vs0mg"},{"bike_id":"689c61bd-6560-48fc-85fb-6bf297fc84e3","system_id":"levelo_inurba_marseille","lat":43.29622,"lon":5.3771,"is_reserved":false,"is_disabled":false,"rental_uris":{"android":"levelo://app?vid=689c61bd-6560-48fc-85fb-6bf297fc84e3","ios":"levelo://app?vid=689c61bd-6560-48fc-85fb-6bf297fc84e3"},"vehicle_type_id":"4","last_reported":1727820492,"current_range_meters":4000,"station_id":"ce4bgi92rcd13ifvqb90","pricing_plan_id":"cebpf4jnsgd1na2vs0mg"},{"bike_id":"a213483b-0747-4221-a9b2-2551cb9f0226","system_id":"levelo_inurba_marseille","lat":43.30809,"lon":5.38157,"is_reserved":false,"is_disabled":false,"rental_uris":{"android":"levelo://app?vid=a213483b-0747-4221-a9b2-2551cb9f0226","ios":"levelo://app?vid=a213483b-0747-4221-a9b2-2551cb9f0226"},"vehicle_type_id":"4","last_reported":1727820492,"current_range_meters":37600,"station_id":"ce4bgt12rcd13ifvqce0","pricing_plan_id":"cebpf4jnsgd1na2vs0mg"},{"bike_id":"f139bc38-1ba2-4d42-a550-2a060e4202e5","system_id":"levelo_inurba_marseille","lat":43.27818,"lon":5.40713,"is_reserved":false,"is_disabled":false,"rental_uris":{"android":"levelo://app?vid=f139bc38-1ba2-4d42-a550-2a060e4202e5","ios":"levelo://app?vid=f139bc38-1ba2-4d42-a550-2a060e4202e5"},"vehicle_type_id":"4","last_reported":1727820492,"current_range_meters":38800,"station_id":"ce4bhnh2rcd13ifvqgtg","pricing_plan_id":"cebpf4jnsgd1na2vs0mg"},{"bike_id":"2a62678b-7307-4fb5-9cbc-d335087ba1ad","system_id":"levelo_inurba_marseille","lat":43.28442,"lon":5.39188,"is_reserved":false,"is_disabled":false,"rental_uris":{"android":"levelo://app?vid=2a62678b-7307-4fb5-9cbc-d335087ba1ad","ios":"levelo://app?vid=2a62678b-7307-4fb5-9cbc-d335087ba1ad"},"vehicle_type_id":"4","last_reported":1727820492,"current_range_meters":11200,"station_id":"ce4bhoh2rcd13ifvqh5g","pricing_plan_id":"cebpf4jnsgd1na2vs0mg"},{"bike_id":"fb54197c-bcfe-4fae-91f5-5917564b6317","system_id":"levelo_inurba_marseille","lat":43.30897,"lon":5.3964,"is_reserved":false,"is_disabled":false,"rental_uris":{"android":"levelo://app?vid=fb54197c-bcfe-4fae-91f5-5917564b6317","ios":"levelo://app?vid=fb54197c-bcfe-4fae-91f5-5917564b6317"},"vehicle_type_id":"4","last_reported":1727820492,"current_range_meters":16400,"station_id":"ce4bh012rcd13ifvqcv0","pricing_plan_id":"cebpf4jnsgd1na2vs0mg"},{"bike_id":"cea241bb-d5ea-446d-8605-9570eb5e0ae4","system_id":"levelo_inurba_marseille","lat":43.26787,"lon":5.39417,"is_reserved":false,"is_disabled":false,"rental_uris":{"android":"levelo://app?vid=cea241bb-d5ea-446d-8605-9570eb5e0ae4","ios":"levelo://app?vid=cea241bb-d5ea-446d-8605-9570eb5e0ae4"},"vehicle_type_id":"4","last_reported":1727820492,"current_range_meters":12400,"station_id":"ce4bhh12rcd13ifvqfg0","pricing_plan_id":"cebpf4jnsgd1na2vs0mg"},{"bike_id":"e7c090c4-a395-497f-aafe-dafdf7011f5d","system_id":"levelo_inurba_marseille","lat":43.31184,"lon":5.38709,"is_reserved":false,"is_disabled":false,"rental_uris":{"android":"levelo://app?vid=e7c090c4-a395-497f-aafe-dafdf7011f5d","ios":"levelo://app?vid=e7c090c4-a395-497f-aafe-dafdf7011f5d"},"vehicle_type_id":"4","last_reported":1727820492,"current_range_meters":38000,"station_id":"ce4bgv12rcd13ifvqcp0","pricing_plan_id":"cebpf4jnsgd1na2vs0mg"},{"bike_id":"bcd3d28a-ea65-4172-8f36-03236c255f65","system_id":"levelo_inurba_marseille","lat":43.30321,"lon":5.40444,"is_reserved":false,"is_disabled":false,"rental_uris":{"android":"levelo://app?vid=bcd3d28a-ea65-4172-8f36-03236c255f65","ios":"levelo://app?vid=bcd3d28a-ea65-4172-8f36-03236c255f65"},"vehicle_type_id":"4","last_reported":1727820492,"current_range_meters":38800,"station_id":"ce4bh012rcd13ifvqd10","pricing_plan_id":"cebpf4jnsgd1na2vs0mg"},{"bike_id":"a4224d16-b792-43d4-bccc-ee1385fa6dad","system_id":"levelo_inurba_marseille","lat":43.32545,"lon":5.41453,"is_reserved":false,"is_disabled":false,"rental_uris":{"android":"levelo://app?vid=a4224d16-b792-43d4-bccc-ee1385fa6dad","ios":"levelo://app?vid=a4224d16-b792-43d4-bccc-ee1385fa6dad"},"vehicle_type_id":"4","last_reported":1727820492,"current_range_meters":25200,"station_id":"ce4bhq12rcd13ifvqhhg","pricing_plan_id":"cebpf4jnsgd1na2vs0mg"},{"bike_id":"9ea65383-a0de-4a50-8614-6075feadc120","system_id":"levelo_inurba_marseille","lat":43.31324,"lon":5.39692,"is_reserved":false,"is_disabled":false,"rental_uris":{"android":"levelo://app?vid=9ea65383-a0de-4a50-8614-6075feadc120","ios":"levelo://app?vid=9ea65383-a0de-4a50-8614-6075feadc120"},"vehicle_type_id":"4","last_reported":1727820492,"current_range_meters":36400,"station_id":"ce4bgvp2rcd13ifvqcu0","pricing_plan_id":"cebpf4jnsgd1na2vs0mg"},{"bike_id":"5a3a7372-89db-462e-a21e-008482c7ec13","system_id":"levelo_inurba_marseille","lat":43.30894,"lon":5.39645,"is_reserved":false,"is_disabled":false,"rental_uris":{"android":"levelo://app?vid=5a3a7372-89db-462e-a21e-008482c7ec13","ios":"levelo://app?vid=5a3a7372-89db-462e-a21e-008482c7ec13"},"vehicle_type_id":"4","last_reported":1727820492,"current_range_meters":33200,"station_id":"ce4bh012rcd13ifvqcv0","pricing_plan_id":"cebpf4jnsgd1na2vs0mg"},{"bike_id":"202e0f5d-a2cc-4f86-93f0-5e300189a421","system_id":"levelo_inurba_marseille","lat":43.31237,"lon":5.36851,"is_reserved":false,"is_disabled":false,"rental_uris":{"android":"levelo://app?vid=202e0f5d-a2cc-4f86-93f0-5e300189a421","ios":"levelo://app?vid=202e0f5d-a2cc-4f86-93f0-5e300189a421"},"vehicle_type_id":"4","last_reported":1727820492,"current_range_meters":18800,"station_id":"ce4bgl92rcd13ifvqbq0","pricing_plan_id":"cebpf4jnsgd1na2vs0mg"},{"bike_id":"554d7a73-3b40-4dac-9894-f5eadfdc26ff","system_id":"levelo_inurba_marseille","lat":43.28156,"lon":5.42643,"is_reserved":false,"is_disabled":false,"rental_uris":{"android":"levelo://app?vid=554d7a73-3b40-4dac-9894-f5eadfdc26ff","ios":"levelo://app?vid=554d7a73-3b40-4dac-9894-f5eadfdc26ff"},"vehicle_type_id":"4","last_reported":1727820492,"current_range_meters":38800,"station_id":"ce4bhnh2rcd13ifvqgug","pricing_plan_id":"cebpf4jnsgd1na2vs0mg"},{"bike_id":"43c1e5a4-b8d0-43e7-82b5-8d7b9ca74bff","system_id":"levelo_inurba_marseille","lat":43.31372,"lon":5.38497,"is_reserved":false,"is_disabled":false,"rental_uris":{"android":"levelo://app?vid=43c1e5a4-b8d0-43e7-82b5-8d7b9ca74bff","ios":"levelo://app?vid=43c1e5a4-b8d0-43e7-82b5-8d7b9ca74bff"},"vehicle_type_id":"4","last_reported":1727820492,"current_range_meters":23200,"station_id":"ce4bgt92rcd13ifvqcf0","pricing_plan_id":"cebpf4jnsgd1na2vs0mg"},{"bike_id":"7e76f61d-1104-460b-895f-03b2abf7da39","system_id":"levelo_inurba_marseille","lat":43.24076,"lon":5.37754,"is_reserved":false,"is_disabled":false,"rental_uris":{"android":"levelo://app?vid=7e76f61d-1104-460b-895f-03b2abf7da39","ios":"levelo://app?vid=7e76f61d-1104-460b-895f-03b2abf7da39"},"vehicle_type_id":"4","last_reported":1727820492,"current_range_meters":15200,"station_id":"ce4bhnp2rcd13ifvqgvg","pricing_plan_id":"cebpf4jnsgd1na2vs0mg"},{"bike_id":"bc33db4a-e3c9-4718-b2b1-11c0fecddb09","system_id":"levelo_inurba_marseille","lat":43.30288,"lon":5.37698,"is_reserved":false,"is_disabled":false,"rental_uris":{"android":"levelo://app?vid=bc33db4a-e3c9-4718-b2b1-11c0fecddb09","ios":"levelo://app?vid=bc33db4a-e3c9-4718-b2b1-11c0fecddb09"},"vehicle_type_id":"4","last_reported":1727820492,"current_range_meters":31200,"station_id":"ce4bguh2rcd13ifvqcj0","pricing_plan_id":"cebpf4jnsgd1na2vs0mg"},{"bike_id":"60566f3e-8e89-4ab7-87b4-a4570925c8eb","system_id":"levelo_inurba_marseille","lat":43.28358,"lon":5.38109,"is_reserved":false,"is_disabled":false,"rental_uris":{"android":"levelo://app?vid=60566f3e-8e89-4ab7-87b4-a4570925c8eb","ios":"levelo://app?vid=60566f3e-8e89-4ab7-87b4-a4570925c8eb"},"vehicle_type_id":"4","last_reported":1727820492,"current_range_meters":30000,"station_id":"ce4bh412rcd13ifvqdr0","pricing_plan_id":"cebpf4jnsgd1na2vs0mg"},{"bike_id":"857a4f54-b09e-427f-89a4-f8ebb75f9e7f","system_id":"levelo_inurba_marseille","lat":43.3089,"lon":5.39638,"is_reserved":false,"is_disabled":false,"rental_uris":{"android":"levelo://app?vid=857a4f54-b09e-427f-89a4-f8ebb75f9e7f","ios":"levelo://app?vid=857a4f54-b09e-427f-89a4-f8ebb75f9e7f"},"vehicle_type_id":"4","last_reported":1727820492,"current_range_meters":37600,"station_id":"ce4bh012rcd13ifvqcv0","pricing_plan_id":"cebpf4jnsgd1na2vs0mg"},{"bike_id":"c32d92b6-7ce5-4d09-bf38-7781f66ad1d1","system_id":"levelo_inurba_marseille","lat":43.25718,"lon":5.41114,"is_reserved":false,"is_disabled":false,"rental_uris":{"android":"levelo://app?vid=c32d92b6-7ce5-4d09-bf38-7781f66ad1d1","ios":"levelo://app?vid=c32d92b6-7ce5-4d09-bf38-7781f66ad1d1"},"vehicle_type_id":"4","last_reported":1727820492,"current_range_meters":8000,"station_id":"ce4bhkp2rcd13ifvqgd0","pricing_plan_id":"cebpf4jnsgd1na2vs0mg"},{"bike_id":"c0b1e63f-032e-4aaa-874f-686d4b6ed33d","system_id":"levelo_inurba_marseille","lat":43.28714,"lon":5.3795,"is_reserved":false,"is_disabled":false,"rental_uris":{"android":"levelo://app?vid=c0b1e63f-032e-4aaa-874f-686d4b6ed33d","ios":"levelo://app?vid=c0b1e63f-032e-4aaa-874f-686d4b6ed33d"},"vehicle_type_id":"4","last_reported":1727820492,"current_range_meters":33200,"station_id":"ce4bh9p2rcd13ifvqec0","pricing_plan_id":"cebpf4jnsgd1na2vs0mg"},{"bike_id":"2028cdfd-a15b-43cc-980f-9ab89ecb686c","system_id":"levelo_inurba_marseille","lat":43.25867,"lon":5.39903,"is_reserved":false,"is_disabled":false,"rental_uris":{"android":"levelo://app?vid=2028cdfd-a15b-43cc-980f-9ab89ecb686c","ios":"levelo://app?vid=2028cdfd-a15b-43cc-980f-9ab89ecb686c"},"vehicle_type_id":"4","last_reported":1727820492,"current_range_meters":12800,"station_id":"ce4bhl92rcd13ifvqghg","pricing_plan_id":"cebpf4jnsgd1na2vs0mg"},{"bike_id":"259eaa39-41cd-49da-afdf-9b857b269a04","system_id":"levelo_inurba_marseille","lat":43.31074,"lon":5.38354,"is_reserved":false,"is_disabled":false,"rental_uris":{"android":"levelo://app?vid=259eaa39-41cd-49da-afdf-9b857b269a04","ios":"levelo://app?vid=259eaa39-41cd-49da-afdf-9b857b269a04"},"vehicle_type_id":"4","last_reported":1727820492,"current_range_meters":38800,"station_id":"ce4bgv92rcd13ifvqcr0","pricing_plan_id":"cebpf4jnsgd1na2vs0mg"},{"bike_id":"e24c17eb-50c5-4f74-8372-e38785c54118","system_id":"levelo_inurba_marseille","lat":43.3304,"lon":5.39046,"is_reserved":false,"is_disabled":false,"rental_uris":{"android":"levelo://app?vid=e24c17eb-50c5-4f74-8372-e38785c54118","ios":"levelo://app?vid=e24c17eb-50c5-4f74-8372-e38785c54118"},"vehicle_type_id":"4","last_reported":1727820492,"current_range_meters":30400,"station_id":"ce4bhr92rcd13ifvqhrg","pricing_plan_id":"cebpf4jnsgd1na2vs0mg"},{"bike_id":"d8aca88c-2b37-438e-a894-303d677e2f8e","system_id":"levelo_inurba_marseille","lat":43.30786,"lon":5.37651,"is_reserved":false,"is_disabled":false,"rental_uris":{"android":"levelo://app?vid=d8aca88c-2b37-438e-a894-303d677e2f8e","ios":"levelo://app?vid=d8aca88c-2b37-438e-a894-303d677e2f8e"},"vehicle_type_id":"4","last_reported":1727820492,"current_range_meters":9200,"station_id":"ce4bgv92rcd13ifvqcq0","pricing_plan_id":"cebpf4jnsgd1na2vs0mg"},{"bike_id":"0f9b29c8-861b-47b2-9988-3a99314bf183","system_id":"levelo_inurba_marseille","lat":43.28713,"lon":5.37393,"is_reserved":false,"is_disabled":false,"rental_uris":{"android":"levelo://app?vid=0f9b29c8-861b-47b2-9988-3a99314bf183","ios":"levelo://app?vid=0f9b29c8-861b-47b2-9988-3a99314bf183"},"vehicle_type_id":"4","last_reported":1727820492,"current_range_meters":16000,"station_id":"ce4bh3p2rcd13ifvqdq0","pricing_plan_id":"cebpf4jnsgd1na2vs0mg"},{"bike_id":"e33f8a79-4b8f-428d-917a-d0abba2a4c62","system_id":"levelo_inurba_marseille","lat":43.31692,"lon":5.40464,"is_reserved":false,"is_disabled":false,"rental_uris":{"android":"levelo://app?vid=e33f8a79-4b8f-428d-917a-d0abba2a4c62","ios":"levelo://app?vid=e33f8a79-4b8f-428d-917a-d0abba2a4c62"},"vehicle_type_id":"4","last_reported":1727820492,"current_range_meters":32400,"station_id":"ce4bh012rcd13ifvqd00","pricing_plan_id":"cebpf4jnsgd1na2vs0mg"},{"bike_id":"03b7707f-5aa4-4141-bc12-c62142caf78c","system_id":"levelo_inurba_marseille","lat":43.29904,"lon":5.43657,"is_reserved":false,"is_disabled":false,"rental_uris":{"android":"levelo://app?vid=03b7707f-5aa4-4141-bc12-c62142caf78c","ios":"levelo://app?vid=03b7707f-5aa4-4141-bc12-c62142caf78c"},"vehicle_type_id":"4","last_reported":1727820492,"current_range_meters":6800,"station_id":"ce4bhpp2rcd13ifvqhfg","pricing_plan_id":"cebpf4jnsgd1na2vs0mg"},{"bike_id":"81750190-39ad-463e-969c-0a74da3c78de","system_id":"levelo_inurba_marseille","lat":43.29263,"lon":5.4091,"is_reserved":false,"is_disabled":false,"rental_uris":{"android":"levelo://app?vid=81750190-39ad-463e-969c-0a74da3c78de","ios":"levelo://app?vid=81750190-39ad-463e-969c-0a74da3c78de"},"vehicle_type_id":"4","last_reported":1727820492,"current_range_meters":8400,"station_id":"ce4bh192rcd13ifvqdc0","pricing_plan_id":"cebpf4jnsgd1na2vs0mg"},{"bike_id":"6ec7665f-a186-48a1-ac82-bab87779fe03","system_id":"levelo_inurba_marseille","lat":43.3054,"lon":5.38424,"is_reserved":false,"is_disabled":false,"rental_uris":{"android":"levelo://app?vid=6ec7665f-a186-48a1-ac82-bab87779fe03","ios":"levelo://app?vid=6ec7665f-a186-48a1-ac82-bab87779fe03"},"vehicle_type_id":"4","last_reported":1727820492,"current_range_meters":28800,"station_id":"ce4bgg92rcd13ifvqb30","pricing_plan_id":"cebpf4jnsgd1na2vs0mg"},{"bike_id":"205cc5f6-52f3-4805-bfcd-4e372f6a7196","system_id":"levelo_inurba_marseille","lat":43.25098,"lon":5.3952,"is_reserved":false,"is_disabled":false,"rental_uris":{"android":"levelo://app?vid=205cc5f6-52f3-4805-bfcd-4e372f6a7196","ios":"levelo://app?vid=205cc5f6-52f3-4805-bfcd-4e372f6a7196"},"vehicle_type_id":"4","last_reported":1727820492,"current_range_meters":33200,"station_id":"ce4bhm12rcd13ifvqgkg","pricing_plan_id":"cebpf4jnsgd1na2vs0mg"},{"bike_id":"cc348d5e-b637-44b1-84a4-6c92ec751a0c","system_id":"levelo_inurba_marseille","lat":43.31175,"lon":5.38707,"is_reserved":false,"is_disabled":false,"rental_uris":{"android":"levelo://app?vid=cc348d5e-b637-44b1-84a4-6c92ec751a0c","ios":"levelo://app?vid=cc348d5e-b637-44b1-84a4-6c92ec751a0c"},"vehicle_type_id":"4","last_reported":1727820492,"current_range_meters":31200,"station_id":"ce4bgv12rcd13ifvqcp0","pricing_plan_id":"cebpf4jnsgd1na2vs0mg"},{"bike_id":"6f145e4b-a2f1-447b-ae74-c4e533f7e679","system_id":"levelo_inurba_marseille","lat":43.32662,"lon":5.40987,"is_reserved":false,"is_disabled":false,"rental_uris":{"android":"levelo://app?vid=6f145e4b-a2f1-447b-ae74-c4e533f7e679","ios":"levelo://app?vid=6f145e4b-a2f1-447b-ae74-c4e533f7e679"},"vehicle_type_id":"4","last_reported":1727820492,"current_range_meters":38800,"station_id":"ce4bhpp2rcd13ifvqhgg","pricing_plan_id":"cebpf4jnsgd1na2vs0mg"},{"bike_id":"8884666a-6177-4a7b-b0cb-8adad2eb0450","system_id":"levelo_inurba_marseille","lat":43.30616,"lon":5.37228,"is_reserved":false,"is_disabled":false,"rental_uris":{"android":"levelo://app?vid=8884666a-6177-4a7b-b0cb-8adad2eb0450","ios":"levelo://app?vid=8884666a-6177-4a7b-b0cb-8adad2eb0450"},"vehicle_type_id":"4","last_reported":1727820492,"current_range_meters":38800,"station_id":"ce4bgqh2rcd13ifvqc4g","pricing_plan_id":"cebpf4jnsgd1na2vs0mg"},{"bike_id":"d616de3c-fdcc-449b-aaab-950f4c46fdd3","system_id":"levelo_inurba_marseille","lat":43.32108,"lon":5.36782,"is_reserved":false,"is_disabled":false,"rental_uris":{"android":"levelo://app?vid=d616de3c-fdcc-449b-aaab-950f4c46fdd3","ios":"levelo://app?vid=d616de3c-fdcc-449b-aaab-950f4c46fdd3"},"vehicle_type_id":"4","last_reported":1727820492,"current_range_meters":11600,"station_id":"ce4bhrh2rcd13ifvqhug","pricing_plan_id":"cebpf4jnsgd1na2vs0mg"},{"bike_id":"ce7fbd85-3674-49ab-af79-52cc945fe35d","system_id":"levelo_inurba_marseille","lat":43.30788,"lon":5.37638,"is_reserved":false,"is_disabled":false,"rental_uris":{"android":"levelo://app?vid=ce7fbd85-3674-49ab-af79-52cc945fe35d","ios":"levelo://app?vid=ce7fbd85-3674-49ab-af79-52cc945fe35d"},"vehicle_type_id":"4","last_reported":1727820492,"current_range_meters":31200,"station_id":"ce4bgv92rcd13ifvqcq0","pricing_plan_id":"cebpf4jnsgd1na2vs0mg"},{"bike_id":"5bc9cf4a-31e0-4a4d-960b-f2ea6dbb3479","system_id":"levelo_inurba_marseille","lat":43.28704,"lon":5.39998,"is_reserved":false,"is_disabled":false,"rental_uris":{"android":"levelo://app?vid=5bc9cf4a-31e0-4a4d-960b-f2ea6dbb3479","ios":"levelo://app?vid=5bc9cf4a-31e0-4a4d-960b-f2ea6dbb3479"},"vehicle_type_id":"4","last_reported":1727820492,"current_range_meters":26000,"station_id":"ce4bho92rcd13ifvqh3g","pricing_plan_id":"cebpf4jnsgd1na2vs0mg"},{"bike_id":"45d1cae2-8c7b-4b13-822e-f3e5b588dc36","system_id":"levelo_inurba_marseille","lat":43.29812,"lon":5.38096,"is_reserved":false,"is_disabled":false,"rental_uris":{"android":"levelo://app?vid=45d1cae2-8c7b-4b13-822e-f3e5b588dc36","ios":"levelo://app?vid=45d1cae2-8c7b-4b13-822e-f3e5b588dc36"},"vehicle_type_id":"4","last_reported":1727820492,"current_range_meters":38800,"station_id":"ce4bgip2rcd13ifvqbb0","pricing_plan_id":"cebpf4jnsgd1na2vs0mg"},{"bike_id":"196d312b-4c3a-4864-9b4b-d156fba48afb","system_id":"levelo_inurba_marseille","lat":43.29874,"lon":5.39735,"is_reserved":false,"is_disabled":false,"rental_uris":{"android":"levelo://app?vid=196d312b-4c3a-4864-9b4b-d156fba48afb","ios":"levelo://app?vid=196d312b-4c3a-4864-9b4b-d156fba48afb"},"vehicle_type_id":"4","last_reported":1727820492,"current_range_meters":38400,"station_id":"ce4bh0h2rcd13ifvqd50","pricing_plan_id":"cebpf4jnsgd1na2vs0mg"},{"bike_id":"df780b36-1bd7-4ee0-a23e-812efc385c51","system_id":"levelo_inurba_marseille","lat":43.28422,"lon":5.3752,"is_reserved":false,"is_disabled":false,"rental_uris":{"android":"levelo://app?vid=df780b36-1bd7-4ee0-a23e-812efc385c51","ios":"levelo://app?vid=df780b36-1bd7-4ee0-a23e-812efc385c51"},"vehicle_type_id":"4","last_reported":1727820492,"current_range_meters":38800,"station_id":"ce4bh412rcd13ifvqds0","pricing_plan_id":"cebpf4jnsgd1na2vs0mg"},{"bike_id":"c3bd477f-1cfd-4699-95b7-bd853a8e55cb","system_id":"levelo_inurba_marseille","lat":43.31343,"lon":5.39701,"is_reserved":false,"is_disabled":false,"rental_uris":{"android":"levelo://app?vid=c3bd477f-1cfd-4699-95b7-bd853a8e55cb","ios":"levelo://app?vid=c3bd477f-1cfd-4699-95b7-bd853a8e55cb"},"vehicle_type_id":"4","last_reported":1727820492,"current_range_meters":38800,"station_id":"ce4bgvp2rcd13ifvqcu0","pricing_plan_id":"cebpf4jnsgd1na2vs0mg"},{"bike_id":"d9935980-1a1e-417b-9dde-bc0953e2ec18","system_id":"levelo_inurba_marseille","lat":43.26209,"lon":5.3793,"is_reserved":false,"is_disabled":false,"rental_uris":{"android":"levelo://app?vid=d9935980-1a1e-417b-9dde-bc0953e2ec18","ios":"levelo://app?vid=d9935980-1a1e-417b-9dde-bc0953e2ec18"},"vehicle_type_id":"4","last_reported":1727820492,"current_range_meters":37600,"station_id":"ce4bhjp2rcd13ifvqg90","pricing_plan_id":"cebpf4jnsgd1na2vs0mg"},{"bike_id":"e61b0e2b-f600-47ed-a252-8caf712f924c","system_id":"levelo_inurba_marseille","lat":43.24552,"lon":5.39532,"is_reserved":false,"is_disabled":false,"rental_uris":{"android":"levelo://app?vid=e61b0e2b-f600-47ed-a252-8caf712f924c","ios":"levelo://app?vid=e61b0e2b-f600-47ed-a252-8caf712f924c"},"vehicle_type_id":"4","last_reported":1727820492,"current_range_meters":28800,"station_id":"ce4bhlp2rcd13ifvqgjg","pricing_plan_id":"cebpf4jnsgd1na2vs0mg"},{"bike_id":"736bcb89-3fa5-4423-83ab-c46b1faa6d18","system_id":"levelo_inurba_marseille","lat":43.34499,"lon":5.41635,"is_reserved":false,"is_disabled":false,"rental_uris":{"android":"levelo://app?vid=736bcb89-3fa5-4423-83ab-c46b1faa6d18","ios":"levelo://app?vid=736bcb89-3fa5-4423-83ab-c46b1faa6d18"},"vehicle_type_id":"4","last_reported":1727820492,"current_range_meters":8400,"station_id":"","pricing_plan_id":"cebpf4jnsgd1na2vs0mg"},{"bike_id":"c87cbcf6-5323-4613-b4d0-9266fc83505c","system_id":"levelo_inurba_marseille","lat":43.27818,"lon":5.40726,"is_reserved":false,"is_disabled":false,"rental_uris":{"android":"levelo://app?vid=c87cbcf6-5323-4613-b4d0-9266fc83505c","ios":"levelo://app?vid=c87cbcf6-5323-4613-b4d0-9266fc83505c"},"vehicle_type_id":"4","last_reported":1727820492,"current_range_meters":18000,"station_id":"ce4bhnh2rcd13ifvqgtg","pricing_plan_id":"cebpf4jnsgd1na2vs0mg"},{"bike_id":"6ea05692-adf3-408b-868f-40336bbd4929","system_id":"levelo_inurba_marseille","lat":43.2922,"lon":5.39332,"is_reserved":false,"is_disabled":false,"rental_uris":{"android":"levelo://app?vid=6ea05692-adf3-408b-868f-40336bbd4929","ios":"levelo://app?vid=6ea05692-adf3-408b-868f-40336bbd4929"},"vehicle_type_id":"4","last_reported":1727820492,"current_range_meters":20000,"station_id":"ce4bh192rcd13ifvqdd0","pricing_plan_id":"cebpf4jnsgd1na2vs0mg"},{"bike_id":"1b3337b2-dd7e-48de-8610-05b0d914bc13","system_id":"levelo_inurba_marseille","lat":43.239685,"lon":5.366273,"is_reserved":false,"is_disabled":false,"rental_uris":{"android":"levelo://app?vid=1b3337b2-dd7e-48de-8610-05b0d914bc13","ios":"levelo://app?vid=1b3337b2-dd7e-48de-8610-05b0d914bc13"},"vehicle_type_id":"4","last_reported":1727820492,"current_range_meters":9600,"station_id":"ce4bhi12rcd13ifvqfp0","pricing_plan_id":"cebpf4jnsgd1na2vs0mg"},{"bike_id":"2cb0e818-0cd7-4b14-b3e2-a4fe86b5667b","system_id":"levelo_inurba_marseille","lat":43.27926,"lon":5.39586,"is_reserved":false,"is_disabled":false,"rental_uris":{"android":"levelo://app?vid=2cb0e818-0cd7-4b14-b3e2-a4fe86b5667b","ios":"levelo://app?vid=2cb0e818-0cd7-4b14-b3e2-a4fe86b5667b"},"vehicle_type_id":"4","last_reported":1727820492,"current_range_meters":38000,"station_id":"ce4bhf92rcd13ifvqf40","pricing_plan_id":"cebpf4jnsgd1na2vs0mg"},{"bike_id":"721575da-938b-4ec0-9e8d-af824620b54d","system_id":"levelo_inurba_marseille","lat":43.31121,"lon":5.37773,"is_reserved":false,"is_disabled":false,"rental_uris":{"android":"levelo://app?vid=721575da-938b-4ec0-9e8d-af824620b54d","ios":"levelo://app?vid=721575da-938b-4ec0-9e8d-af824620b54d"},"vehicle_type_id":"4","last_reported":1727820492,"current_range_meters":38800,"station_id":"ce4bgt92rcd13ifvqcg0","pricing_plan_id":"cebpf4jnsgd1na2vs0mg"},{"bike_id":"8e0ee0d6-72fa-4006-90aa-68211f78ca72","system_id":"levelo_inurba_marseille","lat":43.2781,"lon":5.40712,"is_reserved":false,"is_disabled":false,"rental_uris":{"android":"levelo://app?vid=8e0ee0d6-72fa-4006-90aa-68211f78ca72","ios":"levelo://app?vid=8e0ee0d6-72fa-4006-90aa-68211f78ca72"},"vehicle_type_id":"4","last_reported":1727820492,"current_range_meters":38800,"station_id":"ce4bhnh2rcd13ifvqgtg","pricing_plan_id":"cebpf4jnsgd1na2vs0mg"},{"bike_id":"609844d3-402e-4c83-8b7f-d2093120cb67","system_id":"levelo_inurba_marseille","lat":43.32545,"lon":5.41456,"is_reserved":false,"is_disabled":false,"rental_uris":{"android":"levelo://app?vid=609844d3-402e-4c83-8b7f-d2093120cb67","ios":"levelo://app?vid=609844d3-402e-4c83-8b7f-d2093120cb67"},"vehicle_type_id":"4","last_reported":1727820492,"current_range_meters":37600,"station_id":"ce4bhq12rcd13ifvqhhg","pricing_plan_id":"cebpf4jnsgd1na2vs0mg"},{"bike_id":"649b0ebd-72c1-4ccb-bdb5-0127394604e7","system_id":"levelo_inurba_marseille","lat":43.33618,"lon":5.41025,"is_reserved":false,"is_disabled":false,"rental_uris":{"android":"levelo://app?vid=649b0ebd-72c1-4ccb-bdb5-0127394604e7","ios":"levelo://app?vid=649b0ebd-72c1-4ccb-bdb5-0127394604e7"},"vehicle_type_id":"4","last_reported":1727820492,"current_range_meters":38800,"station_id":"ce4bhqh2rcd13ifvqhmg","pricing_plan_id":"cebpf4jnsgd1na2vs0mg"},{"bike_id":"342d6839-168e-4c4b-9389-b1f4214b5099","system_id":"levelo_inurba_marseille","lat":43.28708,"lon":5.39993,"is_reserved":false,"is_disabled":false,"rental_uris":{"android":"levelo://app?vid=342d6839-168e-4c4b-9389-b1f4214b5099","ios":"levelo://app?vid=342d6839-168e-4c4b-9389-b1f4214b5099"},"vehicle_type_id":"4","last_reported":1727820492,"current_range_meters":14400,"station_id":"ce4bho92rcd13ifvqh3g","pricing_plan_id":"cebpf4jnsgd1na2vs0mg"},{"bike_id":"577addd3-1160-4f40-a1fb-aed4c5f8f786","system_id":"levelo_inurba_marseille","lat":43.30256,"lon":5.40059,"is_reserved":false,"is_disabled":false,"rental_uris":{"android":"levelo://app?vid=577addd3-1160-4f40-a1fb-aed4c5f8f786","ios":"levelo://app?vid=577addd3-1160-4f40-a1fb-aed4c5f8f786"},"vehicle_type_id":"4","last_reported":1727820492,"current_range_meters":10000,"station_id":"ce4bgvh2rcd13ifvqcs0","pricing_plan_id":"cebpf4jnsgd1na2vs0mg"},{"bike_id":"3997dd27-fc07-42d9-8b50-a60e20400007","system_id":"levelo_inurba_marseille","lat":43.28001,"lon":5.41668,"is_reserved":false,"is_disabled":false,"rental_uris":{"android":"levelo://app?vid=3997dd27-fc07-42d9-8b50-a60e20400007","ios":"levelo://app?vid=3997dd27-fc07-42d9-8b50-a60e20400007"},"vehicle_type_id":"4","last_reported":1727820492,"current_range_meters":38800,"station_id":"ce4bho12rcd13ifvqh1g","pricing_plan_id":"cebpf4jnsgd1na2vs0mg"},{"bike_id":"2efe889c-d7f9-441d-afae-d38011cb4d35","system_id":"levelo_inurba_marseille","lat":43.28454,"lon":5.35883,"is_reserved":false,"is_disabled":false,"rental_uris":{"android":"levelo://app?vid=2efe889c-d7f9-441d-afae-d38011cb4d35","ios":"levelo://app?vid=2efe889c-d7f9-441d-afae-d38011cb4d35"},"vehicle_type_id":"4","last_reported":1727820492,"current_range_meters":38800,"station_id":"ce4bhah2rcd13ifvqei0","pricing_plan_id":"cebpf4jnsgd1na2vs0mg"},{"bike_id":"d633adbf-c648-466b-8c2c-9563678ba4d6","system_id":"levelo_inurba_marseille","lat":43.31504,"lon":5.373,"is_reserved":false,"is_disabled":false,"rental_uris":{"android":"levelo://app?vid=d633adbf-c648-466b-8c2c-9563678ba4d6","ios":"levelo://app?vid=d633adbf-c648-466b-8c2c-9563678ba4d6"},"vehicle_type_id":"4","last_reported":1727820492,"current_range_meters":15200,"station_id":"ce4bgt12rcd13ifvqcd0","pricing_plan_id":"cebpf4jnsgd1na2vs0mg"},{"bike_id":"cc4d67ad-30d6-4ec4-9225-0aea9258758d","system_id":"levelo_inurba_marseille","lat":43.292023,"lon":5.358103,"is_reserved":false,"is_disabled":false,"rental_uris":{"android":"levelo://app?vid=cc4d67ad-30d6-4ec4-9225-0aea9258758d","ios":"levelo://app?vid=cc4d67ad-30d6-4ec4-9225-0aea9258758d"},"vehicle_type_id":"4","last_reported":1727820492,"current_range_meters":37600,"station_id":"ce4bhb12rcd13ifvqel0","pricing_plan_id":"cebpf4jnsgd1na2vs0mg"},{"bike_id":"c0930808-f56f-44c0-832d-f564381e4521","system_id":"levelo_inurba_marseille","lat":43.27822,"lon":5.40707,"is_reserved":false,"is_disabled":false,"rental_uris":{"android":"levelo://app?vid=c0930808-f56f-44c0-832d-f564381e4521","ios":"levelo://app?vid=c0930808-f56f-44c0-832d-f564381e4521"},"vehicle_type_id":"4","last_reported":1727820492,"current_range_meters":38800,"station_id":"ce4bhnh2rcd13ifvqgtg","pricing_plan_id":"cebpf4jnsgd1na2vs0mg"},{"bike_id":"8e160c7f-3a0b-4d22-9d6b-fd33004f5e98","system_id":"levelo_inurba_marseille","lat":43.269379,"lon":5.38614,"is_reserved":false,"is_disabled":false,"rental_uris":{"android":"levelo://app?vid=8e160c7f-3a0b-4d22-9d6b-fd33004f5e98","ios":"levelo://app?vid=8e160c7f-3a0b-4d22-9d6b-fd33004f5e98"},"vehicle_type_id":"4","last_reported":1727820492,"current_range_meters":19600,"station_id":"ce4bhn12rcd13ifvqgpg","pricing_plan_id":"cebpf4jnsgd1na2vs0mg"},{"bike_id":"6c05f302-12d0-4100-b4f1-ff2bc6f80530","system_id":"levelo_inurba_marseille","lat":43.30613,"lon":5.37215,"is_reserved":false,"is_disabled":false,"rental_uris":{"android":"levelo://app?vid=6c05f302-12d0-4100-b4f1-ff2bc6f80530","ios":"levelo://app?vid=6c05f302-12d0-4100-b4f1-ff2bc6f80530"},"vehicle_type_id":"4","last_reported":1727820492,"current_range_meters":15200,"station_id":"ce4bgqh2rcd13ifvqc4g","pricing_plan_id":"cebpf4jnsgd1na2vs0mg"},{"bike_id":"8087968d-3566-4acc-85fc-5c9fccf3ef88","system_id":"levelo_inurba_marseille","lat":43.27568,"lon":5.38443,"is_reserved":false,"is_disabled":false,"rental_uris":{"android":"levelo://app?vid=8087968d-3566-4acc-85fc-5c9fccf3ef88","ios":"levelo://app?vid=8087968d-3566-4acc-85fc-5c9fccf3ef88"},"vehicle_type_id":"4","last_reported":1727820492,"current_range_meters":3600,"station_id":"ce4bhh92rcd13ifvqfi0","pricing_plan_id":"cebpf4jnsgd1na2vs0mg"},{"bike_id":"de1e7b09-ca4b-4b48-a3fd-23a534e7333f","system_id":"levelo_inurba_marseille","lat":43.3175,"lon":5.39023,"is_reserved":false,"is_disabled":false,"rental_uris":{"android":"levelo://app?vid=de1e7b09-ca4b-4b48-a3fd-23a534e7333f","ios":"levelo://app?vid=de1e7b09-ca4b-4b48-a3fd-23a534e7333f"},"vehicle_type_id":"4","last_reported":1727820492,"current_range_meters":38800,"station_id":"ce4bhqp2rcd13ifvqhng","pricing_plan_id":"cebpf4jnsgd1na2vs0mg"},{"bike_id":"43f4205d-320b-41db-91a2-d22651866ea2","system_id":"levelo_inurba_marseille","lat":43.30431,"lon":5.41287,"is_reserved":false,"is_disabled":false,"rental_uris":{"android":"levelo://app?vid=43f4205d-320b-41db-91a2-d22651866ea2","ios":"levelo://app?vid=43f4205d-320b-41db-91a2-d22651866ea2"},"vehicle_type_id":"4","last_reported":1727820492,"current_range_meters":6400,"station_id":"ce4bhop2rcd13ifvqh8g","pricing_plan_id":"cebpf4jnsgd1na2vs0mg"},{"bike_id":"cec806c0-0d1a-44d4-99f6-68d15d3991e2","system_id":"levelo_inurba_marseille","lat":43.28274,"lon":5.35069,"is_reserved":false,"is_disabled":false,"rental_uris":{"android":"levelo://app?vid=cec806c0-0d1a-44d4-99f6-68d15d3991e2","ios":"levelo://app?vid=cec806c0-0d1a-44d4-99f6-68d15d3991e2"},"vehicle_type_id":"4","last_reported":1727820492,"current_range_meters":5600,"station_id":"ce4bhbp2rcd13ifvqerg","pricing_plan_id":"cebpf4jnsgd1na2vs0mg"},{"bike_id":"d4ee366f-491d-4484-8ef6-3ee33462286b","system_id":"levelo_inurba_marseille","lat":43.30972,"lon":5.39006,"is_reserved":false,"is_disabled":false,"rental_uris":{"android":"levelo://app?vid=d4ee366f-491d-4484-8ef6-3ee33462286b","ios":"levelo://app?vid=d4ee366f-491d-4484-8ef6-3ee33462286b"},"vehicle_type_id":"4","last_reported":1727820492,"current_range_meters":17200,"station_id":"","pricing_plan_id":"cebpf4jnsgd1na2vs0mg"},{"bike_id":"d74fb2ef-f814-4ca8-94df-c647e77cc523","system_id":"levelo_inurba_marseille","lat":43.28155,"lon":5.42648,"is_reserved":false,"is_disabled":false,"rental_uris":{"android":"levelo://app?vid=d74fb2ef-f814-4ca8-94df-c647e77cc523","ios":"levelo://app?vid=d74fb2ef-f814-4ca8-94df-c647e77cc523"},"vehicle_type_id":"4","last_reported":1727820492,"current_range_meters":38800,"station_id":"ce4bhnh2rcd13ifvqgug","pricing_plan_id":"cebpf4jnsgd1na2vs0mg"},{"bike_id":"d763cad4-66cb-461f-93aa-ab4cbaa6a897","system_id":"levelo_inurba_marseille","lat":43.28861,"lon":5.39312,"is_reserved":false,"is_disabled":false,"rental_uris":{"android":"levelo://app?vid=d763cad4-66cb-461f-93aa-ab4cbaa6a897","ios":"levelo://app?vid=d763cad4-66cb-461f-93aa-ab4cbaa6a897"},"vehicle_type_id":"4","last_reported":1727820492,"current_range_meters":32400,"station_id":"ce4bh2p2rcd13ifvqdi0","pricing_plan_id":"cebpf4jnsgd1na2vs0mg"},{"bike_id":"2ae79f09-d280-47e8-864e-c5ffdd4f6c88","system_id":"levelo_inurba_marseille","lat":43.28572,"lon":5.39506,"is_reserved":false,"is_disabled":false,"rental_uris":{"android":"levelo://app?vid=2ae79f09-d280-47e8-864e-c5ffdd4f6c88","ios":"levelo://app?vid=2ae79f09-d280-47e8-864e-c5ffdd4f6c88"},"vehicle_type_id":"4","last_reported":1727820492,"current_range_meters":25200,"station_id":"ce4bh292rcd13ifvqdg0","pricing_plan_id":"cebpf4jnsgd1na2vs0mg"},{"bike_id":"98796747-ed9b-4562-a96c-8ab785ac535f","system_id":"levelo_inurba_marseille","lat":43.31069,"lon":5.38353,"is_reserved":false,"is_disabled":false,"rental_uris":{"android":"levelo://app?vid=98796747-ed9b-4562-a96c-8ab785ac535f","ios":"levelo://app?vid=98796747-ed9b-4562-a96c-8ab785ac535f"},"vehicle_type_id":"4","last_reported":1727820492,"current_range_meters":27600,"station_id":"ce4bgv92rcd13ifvqcr0","pricing_plan_id":"cebpf4jnsgd1na2vs0mg"},{"bike_id":"ca903a14-a01e-4576-bbf8-bb497a06cc75","system_id":"levelo_inurba_marseille","lat":43.28686,"lon":5.36354,"is_reserved":false,"is_disabled":false,"rental_uris":{"android":"levelo://app?vid=ca903a14-a01e-4576-bbf8-bb497a06cc75","ios":"levelo://app?vid=ca903a14-a01e-4576-bbf8-bb497a06cc75"},"vehicle_type_id":"4","last_reported":1727820492,"current_range_meters":4000,"station_id":"ce4bhah2rcd13ifvqej0","pricing_plan_id":"cebpf4jnsgd1na2vs0mg"},{"bike_id":"31ce676b-4b5b-4ea4-99ad-85a0c9961324","system_id":"levelo_inurba_marseille","lat":43.28846,"lon":5.39308,"is_reserved":false,"is_disabled":false,"rental_uris":{"android":"levelo://app?vid=31ce676b-4b5b-4ea4-99ad-85a0c9961324","ios":"levelo://app?vid=31ce676b-4b5b-4ea4-99ad-85a0c9961324"},"vehicle_type_id":"4","last_reported":1727820492,"current_range_meters":17200,"station_id":"ce4bh2p2rcd13ifvqdi0","pricing_plan_id":"cebpf4jnsgd1na2vs0mg"},{"bike_id":"52f96dfb-9ddf-4085-ac6a-650cf2c85d4b","system_id":"levelo_inurba_marseille","lat":43.25124,"lon":5.4032,"is_reserved":false,"is_disabled":false,"rental_uris":{"android":"levelo://app?vid=52f96dfb-9ddf-4085-ac6a-650cf2c85d4b","ios":"levelo://app?vid=52f96dfb-9ddf-4085-ac6a-650cf2c85d4b"},"vehicle_type_id":"4","last_reported":1727820492,"current_range_meters":36800,"station_id":"ce4bhlh2rcd13ifvqgig","pricing_plan_id":"cebpf4jnsgd1na2vs0mg"},{"bike_id":"e39cd6f1-548c-400d-9f96-bf8b0c294a2d","system_id":"levelo_inurba_marseille","lat":43.24084,"lon":5.37751,"is_reserved":false,"is_disabled":false,"rental_uris":{"android":"levelo://app?vid=e39cd6f1-548c-400d-9f96-bf8b0c294a2d","ios":"levelo://app?vid=e39cd6f1-548c-400d-9f96-bf8b0c294a2d"},"vehicle_type_id":"4","last_reported":1727820492,"current_range_meters":10800,"station_id":"ce4bhnp2rcd13ifvqgvg","pricing_plan_id":"cebpf4jnsgd1na2vs0mg"},{"bike_id":"fdea5bfa-15eb-4746-9162-46b5986608e3","system_id":"levelo_inurba_marseille","lat":43.27952,"lon":5.41045,"is_reserved":false,"is_disabled":false,"rental_uris":{"android":"levelo://app?vid=fdea5bfa-15eb-4746-9162-46b5986608e3","ios":"levelo://app?vid=fdea5bfa-15eb-4746-9162-46b5986608e3"},"vehicle_type_id":"4","last_reported":1727820492,"current_range_meters":38400,"station_id":"ce4bhnp2rcd13ifvqh0g","pricing_plan_id":"cebpf4jnsgd1na2vs0mg"},{"bike_id":"3baa6935-96c4-4261-90b6-046b87419675","system_id":"levelo_inurba_marseille","lat":43.31082,"lon":5.38346,"is_reserved":false,"is_disabled":false,"rental_uris":{"android":"levelo://app?vid=3baa6935-96c4-4261-90b6-046b87419675","ios":"levelo://app?vid=3baa6935-96c4-4261-90b6-046b87419675"},"vehicle_type_id":"4","last_reported":1727820492,"current_range_meters":38800,"station_id":"ce4bgv92rcd13ifvqcr0","pricing_plan_id":"cebpf4jnsgd1na2vs0mg"},{"bike_id":"97e51c0e-64f8-4ffc-97e9-8ff5d02f96b0","system_id":"levelo_inurba_marseille","lat":43.28711,"lon":5.39984,"is_reserved":false,"is_disabled":false,"rental_uris":{"android":"levelo://app?vid=97e51c0e-64f8-4ffc-97e9-8ff5d02f96b0","ios":"levelo://app?vid=97e51c0e-64f8-4ffc-97e9-8ff5d02f96b0"},"vehicle_type_id":"4","last_reported":1727820492,"current_range_meters":30000,"station_id":"ce4bho92rcd13ifvqh3g","pricing_plan_id":"cebpf4jnsgd1na2vs0mg"},{"bike_id":"f09c731c-5c02-47d4-ad6f-4b608712d763","system_id":"levelo_inurba_marseille","lat":43.27173,"lon":5.40993,"is_reserved":false,"is_disabled":false,"rental_uris":{"android":"levelo://app?vid=f09c731c-5c02-47d4-ad6f-4b608712d763","ios":"levelo://app?vid=f09c731c-5c02-47d4-ad6f-4b608712d763"},"vehicle_type_id":"4","last_reported":1727820492,"current_range_meters":25600,"station_id":"ce4bhl12rcd13ifvqgf0","pricing_plan_id":"cebpf4jnsgd1na2vs0mg"},{"bike_id":"ff7cf19f-0c5f-49e1-9586-b0a3d128cc51","system_id":"levelo_inurba_marseille","lat":43.25002,"lon":5.38928,"is_reserved":false,"is_disabled":false,"rental_uris":{"android":"levelo://app?vid=ff7cf19f-0c5f-49e1-9586-b0a3d128cc51","ios":"levelo://app?vid=ff7cf19f-0c5f-49e1-9586-b0a3d128cc51"},"vehicle_type_id":"4","last_reported":1727820492,"current_range_meters":17600,"station_id":"ce4bhgp2rcd13ifvqfd0","pricing_plan_id":"cebpf4jnsgd1na2vs0mg"},{"bike_id":"134a88fb-c4a2-4650-a0e7-749ffca99de4","system_id":"levelo_inurba_marseille","lat":43.27908,"lon":5.39581,"is_reserved":false,"is_disabled":false,"rental_uris":{"android":"levelo://app?vid=134a88fb-c4a2-4650-a0e7-749ffca99de4","ios":"levelo://app?vid=134a88fb-c4a2-4650-a0e7-749ffca99de4"},"vehicle_type_id":"4","last_reported":1727820492,"current_range_meters":38400,"station_id":"ce4bhf92rcd13ifvqf40","pricing_plan_id":"cebpf4jnsgd1na2vs0mg"},{"bike_id":"f8f518e3-bd48-40f5-801a-4ead88758ee2","system_id":"levelo_inurba_marseille","lat":43.32107,"lon":5.3678,"is_reserved":false,"is_disabled":false,"rental_uris":{"android":"levelo://app?vid=f8f518e3-bd48-40f5-801a-4ead88758ee2","ios":"levelo://app?vid=f8f518e3-bd48-40f5-801a-4ead88758ee2"},"vehicle_type_id":"4","last_reported":1727820492,"current_range_meters":12400,"station_id":"ce4bhrh2rcd13ifvqhug","pricing_plan_id":"cebpf4jnsgd1na2vs0mg"},{"bike_id":"6a45f6fd-9fea-4138-9229-bd8600390f1a","system_id":"levelo_inurba_marseille","lat":43.29633,"lon":5.40598,"is_reserved":false,"is_disabled":false,"rental_uris":{"android":"levelo://app?vid=6a45f6fd-9fea-4138-9229-bd8600390f1a","ios":"levelo://app?vid=6a45f6fd-9fea-4138-9229-bd8600390f1a"},"vehicle_type_id":"4","last_reported":1727820492,"current_range_meters":36400,"station_id":"ce4bh0h2rcd13ifvqd60","pricing_plan_id":"cebpf4jnsgd1na2vs0mg"},{"bike_id":"2def81ca-9886-4391-9ee8-c6ea94127750","system_id":"levelo_inurba_marseille","lat":43.27077,"lon":5.42278,"is_reserved":false,"is_disabled":false,"rental_uris":{"android":"levelo://app?vid=2def81ca-9886-4391-9ee8-c6ea94127750","ios":"levelo://app?vid=2def81ca-9886-4391-9ee8-c6ea94127750"},"vehicle_type_id":"4","last_reported":1727820492,"current_range_meters":38800,"station_id":"ce4bhk92rcd13ifvqgb0","pricing_plan_id":"cebpf4jnsgd1na2vs0mg"},{"bike_id":"33a713f0-965f-4b98-ada5-b4e3b79329f5","system_id":"levelo_inurba_marseille","lat":43.2872,"lon":5.37941,"is_reserved":false,"is_disabled":false,"rental_uris":{"android":"levelo://app?vid=33a713f0-965f-4b98-ada5-b4e3b79329f5","ios":"levelo://app?vid=33a713f0-965f-4b98-ada5-b4e3b79329f5"},"vehicle_type_id":"4","last_reported":1727820492,"current_range_meters":25600,"station_id":"ce4bh9p2rcd13ifvqec0","pricing_plan_id":"cebpf4jnsgd1na2vs0mg"},{"bike_id":"ea93fcf4-b5e9-40c1-b370-a567f9b54856","system_id":"levelo_inurba_marseille","lat":43.28967,"lon":5.39702,"is_reserved":false,"is_disabled":false,"rental_uris":{"android":"levelo://app?vid=ea93fcf4-b5e9-40c1-b370-a567f9b54856","ios":"levelo://app?vid=ea93fcf4-b5e9-40c1-b370-a567f9b54856"},"vehicle_type_id":"4","last_reported":1727820492,"current_range_meters":31200,"station_id":"","pricing_plan_id":"cebpf4jnsgd1na2vs0mg"},{"bike_id":"d1fd22c9-724e-4047-974b-0b6e64659788","system_id":"levelo_inurba_marseille","lat":43.30783,"lon":5.37655,"is_reserved":false,"is_disabled":false,"rental_uris":{"android":"levelo://app?vid=d1fd22c9-724e-4047-974b-0b6e64659788","ios":"levelo://app?vid=d1fd22c9-724e-4047-974b-0b6e64659788"},"vehicle_type_id":"4","last_reported":1727820492,"current_range_meters":12800,"station_id":"ce4bgv92rcd13ifvqcq0","pricing_plan_id":"cebpf4jnsgd1na2vs0mg"},{"bike_id":"18f0ebb9-80ba-4131-b0ed-701fab87af48","system_id":"levelo_inurba_marseille","lat":43.31167,"lon":5.3871,"is_reserved":false,"is_disabled":false,"rental_uris":{"android":"levelo://app?vid=18f0ebb9-80ba-4131-b0ed-701fab87af48","ios":"levelo://app?vid=18f0ebb9-80ba-4131-b0ed-701fab87af48"},"vehicle_type_id":"4","last_reported":1727820492,"current_range_meters":38800,"station_id":"ce4bgv12rcd13ifvqcp0","pricing_plan_id":"cebpf4jnsgd1na2vs0mg"},{"bike_id":"ff0c3ffe-a45a-4d7c-a518-9099eb9d2e67","system_id":"levelo_inurba_marseille","lat":43.29271,"lon":5.4092,"is_reserved":false,"is_disabled":false,"rental_uris":{"android":"levelo://app?vid=ff0c3ffe-a45a-4d7c-a518-9099eb9d2e67","ios":"levelo://app?vid=ff0c3ffe-a45a-4d7c-a518-9099eb9d2e67"},"vehicle_type_id":"4","last_reported":1727820492,"current_range_meters":24400,"station_id":"ce4bh192rcd13ifvqdc0","pricing_plan_id":"cebpf4jnsgd1na2vs0mg"},{"bike_id":"bea7e37e-fa1e-4668-9960-2263c08217c3","system_id":"levelo_inurba_marseille","lat":43.28857,"lon":5.39311,"is_reserved":false,"is_disabled":false,"rental_uris":{"android":"levelo://app?vid=bea7e37e-fa1e-4668-9960-2263c08217c3","ios":"levelo://app?vid=bea7e37e-fa1e-4668-9960-2263c08217c3"},"vehicle_type_id":"4","last_reported":1727820492,"current_range_meters":36400,"station_id":"ce4bh2p2rcd13ifvqdi0","pricing_plan_id":"cebpf4jnsgd1na2vs0mg"},{"bike_id":"c0726d95-92ce-4d02-ad3e-566e7d2b5f43","system_id":"levelo_inurba_marseille","lat":43.28117,"lon":5.37844,"is_reserved":false,"is_disabled":false,"rental_uris":{"android":"levelo://app?vid=c0726d95-92ce-4d02-ad3e-566e7d2b5f43","ios":"levelo://app?vid=c0726d95-92ce-4d02-ad3e-566e7d2b5f43"},"vehicle_type_id":"4","last_reported":1727820492,"current_range_meters":8000,"station_id":"ce4bha12rcd13ifvqee0","pricing_plan_id":"cebpf4jnsgd1na2vs0mg"},{"bike_id":"58bffdc9-2c81-468d-939c-1ce01cae2e7d","system_id":"levelo_inurba_marseille","lat":43.29367,"lon":5.3785,"is_reserved":false,"is_disabled":false,"rental_uris":{"android":"levelo://app?vid=58bffdc9-2c81-468d-939c-1ce01cae2e7d","ios":"levelo://app?vid=58bffdc9-2c81-468d-939c-1ce01cae2e7d"},"vehicle_type_id":"4","last_reported":1727820492,"current_range_meters":32000,"station_id":"ce4bgjh2rcd13ifvqbf0","pricing_plan_id":"cebpf4jnsgd1na2vs0mg"},{"bike_id":"3375e05b-1315-4c90-a181-1bef544bd0c4","system_id":"levelo_inurba_marseille","lat":43.3154,"lon":5.38034,"is_reserved":false,"is_disabled":false,"rental_uris":{"android":"levelo://app?vid=3375e05b-1315-4c90-a181-1bef544bd0c4","ios":"levelo://app?vid=3375e05b-1315-4c90-a181-1bef544bd0c4"},"vehicle_type_id":"4","last_reported":1727820492,"current_range_meters":27200,"station_id":"ce4bhsp2rcd13ifvqi50","pricing_plan_id":"cebpf4jnsgd1na2vs0mg"},{"bike_id":"78863aa1-ed71-4955-9c54-509cc7bf9e19","system_id":"levelo_inurba_marseille","lat":43.30722,"lon":5.3808,"is_reserved":false,"is_disabled":false,"rental_uris":{"android":"levelo://app?vid=78863aa1-ed71-4955-9c54-509cc7bf9e19","ios":"levelo://app?vid=78863aa1-ed71-4955-9c54-509cc7bf9e19"},"vehicle_type_id":"4","last_reported":1727820492,"current_range_meters":22800,"station_id":"","pricing_plan_id":"cebpf4jnsgd1na2vs0mg"},{"bike_id":"dc03e946-be64-435d-a6e2-304d0c9f3ef5","system_id":"levelo_inurba_marseille","lat":43.315319,"lon":5.380291,"is_reserved":false,"is_disabled":false,"rental_uris":{"android":"levelo://app?vid=dc03e946-be64-435d-a6e2-304d0c9f3ef5","ios":"levelo://app?vid=dc03e946-be64-435d-a6e2-304d0c9f3ef5"},"vehicle_type_id":"4","last_reported":1727820492,"current_range_meters":39200,"station_id":"ce4bhsp2rcd13ifvqi50","pricing_plan_id":"cebpf4jnsgd1na2vs0mg"},{"bike_id":"bf7ae5ba-7674-46bf-8c61-9ffd920fd771","system_id":"levelo_inurba_marseille","lat":43.30329,"lon":5.40439,"is_reserved":false,"is_disabled":false,"rental_uris":{"android":"levelo://app?vid=bf7ae5ba-7674-46bf-8c61-9ffd920fd771","ios":"levelo://app?vid=bf7ae5ba-7674-46bf-8c61-9ffd920fd771"},"vehicle_type_id":"4","last_reported":1727820492,"current_range_meters":37600,"station_id":"ce4bh012rcd13ifvqd10","pricing_plan_id":"cebpf4jnsgd1na2vs0mg"},{"bike_id":"0e5dae4c-a7a8-4e18-94bb-35a364a15051","system_id":"levelo_inurba_marseille","lat":43.30642,"lon":5.40082,"is_reserved":false,"is_disabled":false,"rental_uris":{"android":"levelo://app?vid=0e5dae4c-a7a8-4e18-94bb-35a364a15051","ios":"levelo://app?vid=0e5dae4c-a7a8-4e18-94bb-35a364a15051"},"vehicle_type_id":"4","last_reported":1727820492,"current_range_meters":12800,"station_id":"ce4bh112rcd13ifvqda0","pricing_plan_id":"cebpf4jnsgd1na2vs0mg"},{"bike_id":"d995d233-d2fe-4db9-b69b-baa1337469bf","system_id":"levelo_inurba_marseille","lat":43.26747,"lon":5.40249,"is_reserved":false,"is_disabled":false,"rental_uris":{"android":"levelo://app?vid=d995d233-d2fe-4db9-b69b-baa1337469bf","ios":"levelo://app?vid=d995d233-d2fe-4db9-b69b-baa1337469bf"},"vehicle_type_id":"4","last_reported":1727820492,"current_range_meters":12000,"station_id":"ce4bhm92rcd13ifvqglg","pricing_plan_id":"cebpf4jnsgd1na2vs0mg"},{"bike_id":"e5c4fc76-9d17-4d73-8584-09ac92a37057","system_id":"levelo_inurba_marseille","lat":43.28423,"lon":5.37521,"is_reserved":false,"is_disabled":false,"rental_uris":{"android":"levelo://app?vid=e5c4fc76-9d17-4d73-8584-09ac92a37057","ios":"levelo://app?vid=e5c4fc76-9d17-4d73-8584-09ac92a37057"},"vehicle_type_id":"4","last_reported":1727820492,"current_range_meters":38800,"station_id":"ce4bh412rcd13ifvqds0","pricing_plan_id":"cebpf4jnsgd1na2vs0mg"},{"bike_id":"3ddf769c-c1f4-4c07-a643-d89d6207fa69","system_id":"levelo_inurba_marseille","lat":43.26694,"lon":5.38274,"is_reserved":false,"is_disabled":false,"rental_uris":{"android":"levelo://app?vid=3ddf769c-c1f4-4c07-a643-d89d6207fa69","ios":"levelo://app?vid=3ddf769c-c1f4-4c07-a643-d89d6207fa69"},"vehicle_type_id":"4","last_reported":1727820492,"current_range_meters":36400,"station_id":"ce4bhg92rcd13ifvqf90","pricing_plan_id":"cebpf4jnsgd1na2vs0mg"},{"bike_id":"9ae55583-61da-4955-afe0-934f7c2a6fdd","system_id":"levelo_inurba_marseille","lat":43.24652,"lon":5.389,"is_reserved":false,"is_disabled":false,"rental_uris":{"android":"levelo://app?vid=9ae55583-61da-4955-afe0-934f7c2a6fdd","ios":"levelo://app?vid=9ae55583-61da-4955-afe0-934f7c2a6fdd"},"vehicle_type_id":"4","last_reported":1727820492,"current_range_meters":39200,"station_id":"ce4bhg12rcd13ifvqf60","pricing_plan_id":"cebpf4jnsgd1na2vs0mg"},{"bike_id":"a8ed16c8-6bda-457e-bb60-4eabfdb421ad","system_id":"levelo_inurba_marseille","lat":43.29291,"lon":5.40139,"is_reserved":false,"is_disabled":false,"rental_uris":{"android":"levelo://app?vid=a8ed16c8-6bda-457e-bb60-4eabfdb421ad","ios":"levelo://app?vid=a8ed16c8-6bda-457e-bb60-4eabfdb421ad"},"vehicle_type_id":"4","last_reported":1727820492,"current_range_meters":20400,"station_id":"ce4bh312rcd13ifvqdk0","pricing_plan_id":"cebpf4jnsgd1na2vs0mg"},{"bike_id":"fb9d1e21-03e6-4c8b-820e-16d4a1ba982a","system_id":"levelo_inurba_marseille","lat":43.306427,"lon":5.401002,"is_reserved":false,"is_disabled":false,"rental_uris":{"android":"levelo://app?vid=fb9d1e21-03e6-4c8b-820e-16d4a1ba982a","ios":"levelo://app?vid=fb9d1e21-03e6-4c8b-820e-16d4a1ba982a"},"vehicle_type_id":"4","last_reported":1727820492,"current_range_meters":32000,"station_id":"ce4bh112rcd13ifvqda0","pricing_plan_id":"cebpf4jnsgd1na2vs0mg"},{"bike_id":"d95beb57-f11d-4baa-b47c-ac6c57b8f1ff","system_id":"levelo_inurba_marseille","lat":43.29962,"lon":5.385,"is_reserved":false,"is_disabled":false,"rental_uris":{"android":"levelo://app?vid=d95beb57-f11d-4baa-b47c-ac6c57b8f1ff","ios":"levelo://app?vid=d95beb57-f11d-4baa-b47c-ac6c57b8f1ff"},"vehicle_type_id":"4","last_reported":1727820492,"current_range_meters":38400,"station_id":"ce4bgj92rcd13ifvqbd0","pricing_plan_id":"cebpf4jnsgd1na2vs0mg"},{"bike_id":"bc0caa8f-e329-47f5-a9f2-6515789f2ae1","system_id":"levelo_inurba_marseille","lat":43.28685,"lon":5.38664,"is_reserved":false,"is_disabled":false,"rental_uris":{"android":"levelo://app?vid=bc0caa8f-e329-47f5-a9f2-6515789f2ae1","ios":"levelo://app?vid=bc0caa8f-e329-47f5-a9f2-6515789f2ae1"},"vehicle_type_id":"4","last_reported":1727820492,"current_range_meters":26800,"station_id":"ce4bh492rcd13ifvqdug","pricing_plan_id":"cebpf4jnsgd1na2vs0mg"},{"bike_id":"7c8e102b-8729-45dd-a2e0-c8af2fc278ec","system_id":"levelo_inurba_marseille","lat":43.2512,"lon":5.40316,"is_reserved":false,"is_disabled":false,"rental_uris":{"android":"levelo://app?vid=7c8e102b-8729-45dd-a2e0-c8af2fc278ec","ios":"levelo://app?vid=7c8e102b-8729-45dd-a2e0-c8af2fc278ec"},"vehicle_type_id":"4","last_reported":1727820492,"current_range_meters":6400,"station_id":"ce4bhlh2rcd13ifvqgig","pricing_plan_id":"cebpf4jnsgd1na2vs0mg"},{"bike_id":"63df1070-907d-4ecd-8835-81d9ac996235","system_id":"levelo_inurba_marseille","lat":43.31176,"lon":5.38721,"is_reserved":false,"is_disabled":false,"rental_uris":{"android":"levelo://app?vid=63df1070-907d-4ecd-8835-81d9ac996235","ios":"levelo://app?vid=63df1070-907d-4ecd-8835-81d9ac996235"},"vehicle_type_id":"4","last_reported":1727820492,"current_range_meters":12800,"station_id":"ce4bgv12rcd13ifvqcp0","pricing_plan_id":"cebpf4jnsgd1na2vs0mg"},{"bike_id":"b652f429-09b8-4697-9c1b-3b9adc3c55d8","system_id":"levelo_inurba_marseille","lat":43.26871,"lon":5.39135,"is_reserved":false,"is_disabled":false,"rental_uris":{"android":"levelo://app?vid=b652f429-09b8-4697-9c1b-3b9adc3c55d8","ios":"levelo://app?vid=b652f429-09b8-4697-9c1b-3b9adc3c55d8"},"vehicle_type_id":"4","last_reported":1727820492,"current_range_meters":5600,"station_id":"","pricing_plan_id":"cebpf4jnsgd1na2vs0mg"},{"bike_id":"61a947e1-a421-40aa-a820-d6e19a6f0fe4","system_id":"levelo_inurba_marseille","lat":43.31725,"lon":5.42409,"is_reserved":false,"is_disabled":false,"rental_uris":{"android":"levelo://app?vid=61a947e1-a421-40aa-a820-d6e19a6f0fe4","ios":"levelo://app?vid=61a947e1-a421-40aa-a820-d6e19a6f0fe4"},"vehicle_type_id":"4","last_reported":1727820492,"current_range_meters":27600,"station_id":"ce4bhp92rcd13ifvqhbg","pricing_plan_id":"cebpf4jnsgd1na2vs0mg"},{"bike_id":"37623181-9101-4c73-bb6a-5aa8fec97674","system_id":"levelo_inurba_marseille","lat":43.28431,"lon":5.3752,"is_reserved":false,"is_disabled":false,"rental_uris":{"android":"levelo://app?vid=37623181-9101-4c73-bb6a-5aa8fec97674","ios":"levelo://app?vid=37623181-9101-4c73-bb6a-5aa8fec97674"},"vehicle_type_id":"4","last_reported":1727820492,"current_range_meters":8800,"station_id":"ce4bhah2rcd13ifvqei0","pricing_plan_id":"cebpf4jnsgd1na2vs0mg"},{"bike_id":"1cbb5b9f-27fd-4647-944e-96013dabaee7","system_id":"levelo_inurba_marseille","lat":43.31758,"lon":5.39009,"is_reserved":false,"is_disabled":false,"rental_uris":{"android":"levelo://app?vid=1cbb5b9f-27fd-4647-944e-96013dabaee7","ios":"levelo://app?vid=1cbb5b9f-27fd-4647-944e-96013dabaee7"},"vehicle_type_id":"4","last_reported":1727820492,"current_range_meters":38800,"station_id":"ce4bhqp2rcd13ifvqhng","pricing_plan_id":"cebpf4jnsgd1na2vs0mg"},{"bike_id":"cc334f47-266c-4194-bd67-059ec0658e9f","system_id":"levelo_inurba_marseille","lat":43.31278,"lon":5.40168,"is_reserved":false,"is_disabled":false,"rental_uris":{"android":"levelo://app?vid=cc334f47-266c-4194-bd67-059ec0658e9f","ios":"levelo://app?vid=cc334f47-266c-4194-bd67-059ec0658e9f"},"vehicle_type_id":"4","last_reported":1727820492,"current_range_meters":36000,"station_id":"ce4bh092rcd13ifvqd30","pricing_plan_id":"cebpf4jnsgd1na2vs0mg"},{"bike_id":"d4c26f9a-1080-4999-bf2c-e944fa58d3ff","system_id":"levelo_inurba_marseille","lat":43.28703,"lon":5.39987,"is_reserved":false,"is_disabled":false,"rental_uris":{"android":"levelo://app?vid=d4c26f9a-1080-4999-bf2c-e944fa58d3ff","ios":"levelo://app?vid=d4c26f9a-1080-4999-bf2c-e944fa58d3ff"},"vehicle_type_id":"4","last_reported":1727820492,"current_range_meters":30000,"station_id":"ce4bho92rcd13ifvqh3g","pricing_plan_id":"cebpf4jnsgd1na2vs0mg"},{"bike_id":"43ec8304-b11c-44d9-9f47-bc865890f14a","system_id":"levelo_inurba_marseille","lat":43.25092,"lon":5.39514,"is_reserved":false,"is_disabled":false,"rental_uris":{"android":"levelo://app?vid=43ec8304-b11c-44d9-9f47-bc865890f14a","ios":"levelo://app?vid=43ec8304-b11c-44d9-9f47-bc865890f14a"},"vehicle_type_id":"4","last_reported":1727820492,"current_range_meters":15200,"station_id":"ce4bhm12rcd13ifvqgkg","pricing_plan_id":"cebpf4jnsgd1na2vs0mg"},{"bike_id":"0726aaf9-3448-465a-8d21-944ad6140277","system_id":"levelo_inurba_marseille","lat":43.3138,"lon":5.38503,"is_reserved":false,"is_disabled":false,"rental_uris":{"android":"levelo://app?vid=0726aaf9-3448-465a-8d21-944ad6140277","ios":"levelo://app?vid=0726aaf9-3448-465a-8d21-944ad6140277"},"vehicle_type_id":"4","last_reported":1727820492,"current_range_meters":18000,"station_id":"ce4bgt92rcd13ifvqcf0","pricing_plan_id":"cebpf4jnsgd1na2vs0mg"},{"bike_id":"e5f61d33-8415-4a03-ae60-f12eae9e325c","system_id":"levelo_inurba_marseille","lat":43.28045,"lon":5.36954,"is_reserved":false,"is_disabled":false,"rental_uris":{"android":"levelo://app?vid=e5f61d33-8415-4a03-ae60-f12eae9e325c","ios":"levelo://app?vid=e5f61d33-8415-4a03-ae60-f12eae9e325c"},"vehicle_type_id":"4","last_reported":1727820492,"current_range_meters":19200,"station_id":"ce4bha12rcd13ifvqef0","pricing_plan_id":"cebpf4jnsgd1na2vs0mg"},{"bike_id":"ab7a1380-2e77-4e3d-85b7-63e972cc603b","system_id":"levelo_inurba_marseille","lat":43.29608,"lon":5.381,"is_reserved":false,"is_disabled":false,"rental_uris":{"android":"levelo://app?vid=ab7a1380-2e77-4e3d-85b7-63e972cc603b","ios":"levelo://app?vid=ab7a1380-2e77-4e3d-85b7-63e972cc603b"},"vehicle_type_id":"4","last_reported":1727820492,"current_range_meters":27600,"station_id":"ce4bgl12rcd13ifvqbo0","pricing_plan_id":"cebpf4jnsgd1na2vs0mg"},{"bike_id":"382a442a-a2da-4ef2-bb13-81937cd21851","system_id":"levelo_inurba_marseille","lat":43.28448,"lon":5.39191,"is_reserved":false,"is_disabled":false,"rental_uris":{"android":"levelo://app?vid=382a442a-a2da-4ef2-bb13-81937cd21851","ios":"levelo://app?vid=382a442a-a2da-4ef2-bb13-81937cd21851"},"vehicle_type_id":"4","last_reported":1727820492,"current_range_meters":34000,"station_id":"ce4bhoh2rcd13ifvqh5g","pricing_plan_id":"cebpf4jnsgd1na2vs0mg"},{"bike_id":"152be7fe-903a-4137-9bfe-6e779d55c33f","system_id":"levelo_inurba_marseille","lat":43.26806,"lon":5.40261,"is_reserved":false,"is_disabled":false,"rental_uris":{"android":"levelo://app?vid=152be7fe-903a-4137-9bfe-6e779d55c33f","ios":"levelo://app?vid=152be7fe-903a-4137-9bfe-6e779d55c33f"},"vehicle_type_id":"4","last_reported":1727820492,"current_range_meters":24000,"station_id":"ce501612rcd8frsf0b60","pricing_plan_id":"cebpf4jnsgd1na2vs0mg"},{"bike_id":"e91aa9e0-0f12-4659-99c1-1711760a06ce","system_id":"levelo_inurba_marseille","lat":43.31127,"lon":5.37775,"is_reserved":false,"is_disabled":false,"rental_uris":{"android":"levelo://app?vid=e91aa9e0-0f12-4659-99c1-1711760a06ce","ios":"levelo://app?vid=e91aa9e0-0f12-4659-99c1-1711760a06ce"},"vehicle_type_id":"4","last_reported":1727820492,"current_range_meters":22400,"station_id":"ce4bgt92rcd13ifvqcg0","pricing_plan_id":"cebpf4jnsgd1na2vs0mg"},{"bike_id":"0385b8aa-f99f-4f2f-a4a1-989fe579f52f","system_id":"levelo_inurba_marseille","lat":43.32044,"lon":5.41541,"is_reserved":false,"is_disabled":false,"rental_uris":{"android":"levelo://app?vid=0385b8aa-f99f-4f2f-a4a1-989fe579f52f","ios":"levelo://app?vid=0385b8aa-f99f-4f2f-a4a1-989fe579f52f"},"vehicle_type_id":"4","last_reported":1727820492,"current_range_meters":8400,"station_id":"ce4bhq92rcd13ifvqhkg","pricing_plan_id":"cebpf4jnsgd1na2vs0mg"},{"bike_id":"e602d960-7762-4556-87f3-7ca7eb9e1588","system_id":"levelo_inurba_marseille","lat":43.31888,"lon":5.40731,"is_reserved":false,"is_disabled":false,"rental_uris":{"android":"levelo://app?vid=e602d960-7762-4556-87f3-7ca7eb9e1588","ios":"levelo://app?vid=e602d960-7762-4556-87f3-7ca7eb9e1588"},"vehicle_type_id":"4","last_reported":1727820492,"current_range_meters":38000,"station_id":"ce4bhq12rcd13ifvqhig","pricing_plan_id":"cebpf4jnsgd1na2vs0mg"},{"bike_id":"03f20321-c27e-4a89-a49d-93410733ba67","system_id":"levelo_inurba_marseille","lat":43.28711,"lon":5.37923,"is_reserved":false,"is_disabled":false,"rental_uris":{"android":"levelo://app?vid=03f20321-c27e-4a89-a49d-93410733ba67","ios":"levelo://app?vid=03f20321-c27e-4a89-a49d-93410733ba67"},"vehicle_type_id":"4","last_reported":1727820492,"current_range_meters":9200,"station_id":"ce4bh9p2rcd13ifvqec0","pricing_plan_id":"cebpf4jnsgd1na2vs0mg"},{"bike_id":"6fd13259-3116-404c-92cb-683c3b491724","system_id":"levelo_inurba_marseille","lat":43.31178,"lon":5.3872,"is_reserved":false,"is_disabled":false,"rental_uris":{"android":"levelo://app?vid=6fd13259-3116-404c-92cb-683c3b491724","ios":"levelo://app?vid=6fd13259-3116-404c-92cb-683c3b491724"},"vehicle_type_id":"4","last_reported":1727820492,"current_range_meters":22400,"station_id":"ce4bgv12rcd13ifvqcp0","pricing_plan_id":"cebpf4jnsgd1na2vs0mg"},{"bike_id":"7049f253-e92f-400c-9ba7-b6ebe4446dc0","system_id":"levelo_inurba_marseille","lat":43.30215,"lon":5.39471,"is_reserved":false,"is_disabled":false,"rental_uris":{"android":"levelo://app?vid=7049f253-e92f-400c-9ba7-b6ebe4446dc0","ios":"levelo://app?vid=7049f253-e92f-400c-9ba7-b6ebe4446dc0"},"vehicle_type_id":"4","last_reported":1727820492,"current_range_meters":26800,"station_id":"ce4bh0p2rcd13ifvqd70","pricing_plan_id":"cebpf4jnsgd1na2vs0mg"},{"bike_id":"89b9dfd5-0dc9-4197-bb8d-be7f07ee51ff","system_id":"levelo_inurba_marseille","lat":43.31536,"lon":5.38038,"is_reserved":false,"is_disabled":false,"rental_uris":{"android":"levelo://app?vid=89b9dfd5-0dc9-4197-bb8d-be7f07ee51ff","ios":"levelo://app?vid=89b9dfd5-0dc9-4197-bb8d-be7f07ee51ff"},"vehicle_type_id":"4","last_reported":1727820492,"current_range_meters":38400,"station_id":"ce4bhsp2rcd13ifvqi50","pricing_plan_id":"cebpf4jnsgd1na2vs0mg"},{"bike_id":"2e6db03b-89d0-4b7f-9255-d4415cec9b74","system_id":"levelo_inurba_marseille","lat":43.251,"lon":5.39518,"is_reserved":false,"is_disabled":false,"rental_uris":{"android":"levelo://app?vid=2e6db03b-89d0-4b7f-9255-d4415cec9b74","ios":"levelo://app?vid=2e6db03b-89d0-4b7f-9255-d4415cec9b74"},"vehicle_type_id":"4","last_reported":1727820492,"current_range_meters":2800,"station_id":"ce4bhm12rcd13ifvqgkg","pricing_plan_id":"cebpf4jnsgd1na2vs0mg"},{"bike_id":"6ae20033-92da-495d-9743-905496a75472","system_id":"levelo_inurba_marseille","lat":43.33618,"lon":5.41025,"is_reserved":false,"is_disabled":false,"rental_uris":{"android":"levelo://app?vid=6ae20033-92da-495d-9743-905496a75472","ios":"levelo://app?vid=6ae20033-92da-495d-9743-905496a75472"},"vehicle_type_id":"4","last_reported":1727820492,"current_range_meters":38800,"station_id":"ce4bhqh2rcd13ifvqhmg","pricing_plan_id":"cebpf4jnsgd1na2vs0mg"},{"bike_id":"ff324f9f-4d8f-4d7e-a0c5-274cf470f26e","system_id":"levelo_inurba_marseille","lat":43.27183,"lon":5.4099,"is_reserved":false,"is_disabled":false,"rental_uris":{"android":"levelo://app?vid=ff324f9f-4d8f-4d7e-a0c5-274cf470f26e","ios":"levelo://app?vid=ff324f9f-4d8f-4d7e-a0c5-274cf470f26e"},"vehicle_type_id":"4","last_reported":1727820492,"current_range_meters":38800,"station_id":"ce4bhl12rcd13ifvqgf0","pricing_plan_id":"cebpf4jnsgd1na2vs0mg"},{"bike_id":"6ff016f9-d31d-4e50-9002-5dee01876d27","system_id":"levelo_inurba_marseille","lat":43.31331,"lon":5.39699,"is_reserved":false,"is_disabled":false,"rental_uris":{"android":"levelo://app?vid=6ff016f9-d31d-4e50-9002-5dee01876d27","ios":"levelo://app?vid=6ff016f9-d31d-4e50-9002-5dee01876d27"},"vehicle_type_id":"4","last_reported":1727820492,"current_range_meters":16000,"station_id":"ce4bgvp2rcd13ifvqcu0","pricing_plan_id":"cebpf4jnsgd1na2vs0mg"},{"bike_id":"27932a63-cf7f-453e-b5e6-aab75167bbe5","system_id":"levelo_inurba_marseille","lat":43.30092,"lon":5.39087,"is_reserved":false,"is_disabled":false,"rental_uris":{"android":"levelo://app?vid=27932a63-cf7f-453e-b5e6-aab75167bbe5","ios":"levelo://app?vid=27932a63-cf7f-453e-b5e6-aab75167bbe5"},"vehicle_type_id":"4","last_reported":1727820492,"current_range_meters":28000,"station_id":"ce4bh192rcd13ifvqdb0","pricing_plan_id":"cebpf4jnsgd1na2vs0mg"},{"bike_id":"972f0298-3b6a-4a5a-9a88-2b3812e933f5","system_id":"levelo_inurba_marseille","lat":43.27931,"lon":5.39589,"is_reserved":false,"is_disabled":false,"rental_uris":{"android":"levelo://app?vid=972f0298-3b6a-4a5a-9a88-2b3812e933f5","ios":"levelo://app?vid=972f0298-3b6a-4a5a-9a88-2b3812e933f5"},"vehicle_type_id":"4","last_reported":1727820492,"current_range_meters":6800,"station_id":"ce4bhf92rcd13ifvqf40","pricing_plan_id":"cebpf4jnsgd1na2vs0mg"},{"bike_id":"9d98c167-ce53-4a4d-871d-1c099d57722c","system_id":"levelo_inurba_marseille","lat":43.30624,"lon":5.37222,"is_reserved":false,"is_disabled":false,"rental_uris":{"android":"levelo://app?vid=9d98c167-ce53-4a4d-871d-1c099d57722c","ios":"levelo://app?vid=9d98c167-ce53-4a4d-871d-1c099d57722c"},"vehicle_type_id":"4","last_reported":1727820492,"current_range_meters":33600,"station_id":"ce4bgqh2rcd13ifvqc4g","pricing_plan_id":"cebpf4jnsgd1na2vs0mg"},{"bike_id":"b19d6f71-956a-439f-b8b5-91f0a6d9d8f5","system_id":"levelo_inurba_marseille","lat":43.29986,"lon":5.37178,"is_reserved":false,"is_disabled":false,"rental_uris":{"android":"levelo://app?vid=b19d6f71-956a-439f-b8b5-91f0a6d9d8f5","ios":"levelo://app?vid=b19d6f71-956a-439f-b8b5-91f0a6d9d8f5"},"vehicle_type_id":"4","last_reported":1727820492,"current_range_meters":37600,"station_id":"ce4bgr92rcd13ifvqc7g","pricing_plan_id":"cebpf4jnsgd1na2vs0mg"},{"bike_id":"5c48585c-f809-4fb1-af51-f7111af0c173","system_id":"levelo_inurba_marseille","lat":43.284576,"lon":5.358782,"is_reserved":false,"is_disabled":false,"rental_uris":{"android":"levelo://app?vid=5c48585c-f809-4fb1-af51-f7111af0c173","ios":"levelo://app?vid=5c48585c-f809-4fb1-af51-f7111af0c173"},"vehicle_type_id":"4","last_reported":1727820492,"current_range_meters":3600,"station_id":"ce4bhah2rcd13ifvqei0","pricing_plan_id":"cebpf4jnsgd1na2vs0mg"},{"bike_id":"82c2475c-c35b-4b23-a470-b125ed8a5409","system_id":"levelo_inurba_marseille","lat":43.30359,"lon":5.41875,"is_reserved":false,"is_disabled":false,"rental_uris":{"android":"levelo://app?vid=82c2475c-c35b-4b23-a470-b125ed8a5409","ios":"levelo://app?vid=82c2475c-c35b-4b23-a470-b125ed8a5409"},"vehicle_type_id":"4","last_reported":1727820492,"current_range_meters":8800,"station_id":"ce4bhop2rcd13ifvqh7g","pricing_plan_id":"cebpf4jnsgd1na2vs0mg"},{"bike_id":"184db0d2-68c8-43ef-84eb-377f6a81aa7b","system_id":"levelo_inurba_marseille","lat":43.30437,"lon":5.38899,"is_reserved":false,"is_disabled":false,"rental_uris":{"android":"levelo://app?vid=184db0d2-68c8-43ef-84eb-377f6a81aa7b","ios":"levelo://app?vid=184db0d2-68c8-43ef-84eb-377f6a81aa7b"},"vehicle_type_id":"4","last_reported":1727820492,"current_range_meters":30000,"station_id":"ce4bgk12rcd13ifvqbi0","pricing_plan_id":"cebpf4jnsgd1na2vs0mg"},{"bike_id":"78b1dac7-5bed-47e2-8698-6f2dc96554bd","system_id":"levelo_inurba_marseille","lat":43.31535,"lon":5.38027,"is_reserved":false,"is_disabled":false,"rental_uris":{"android":"levelo://app?vid=78b1dac7-5bed-47e2-8698-6f2dc96554bd","ios":"levelo://app?vid=78b1dac7-5bed-47e2-8698-6f2dc96554bd"},"vehicle_type_id":"4","last_reported":1727820492,"current_range_meters":32400,"station_id":"ce4bhsp2rcd13ifvqi50","pricing_plan_id":"cebpf4jnsgd1na2vs0mg"},{"bike_id":"2b889d16-9dfb-4234-b9cd-a1f18c4d7543","system_id":"levelo_inurba_marseille","lat":43.28054,"lon":5.3695,"is_reserved":false,"is_disabled":false,"rental_uris":{"android":"levelo://app?vid=2b889d16-9dfb-4234-b9cd-a1f18c4d7543","ios":"levelo://app?vid=2b889d16-9dfb-4234-b9cd-a1f18c4d7543"},"vehicle_type_id":"4","last_reported":1727820492,"current_range_meters":25200,"station_id":"ce4bha12rcd13ifvqef0","pricing_plan_id":"cebpf4jnsgd1na2vs0mg"},{"bike_id":"b2b90e47-3d23-4cf8-aed1-cf7c1c2a0002","system_id":"levelo_inurba_marseille","lat":43.31167,"lon":5.38723,"is_reserved":false,"is_disabled":false,"rental_uris":{"android":"levelo://app?vid=b2b90e47-3d23-4cf8-aed1-cf7c1c2a0002","ios":"levelo://app?vid=b2b90e47-3d23-4cf8-aed1-cf7c1c2a0002"},"vehicle_type_id":"4","last_reported":1727820492,"current_range_meters":32400,"station_id":"ce4bgv12rcd13ifvqcp0","pricing_plan_id":"cebpf4jnsgd1na2vs0mg"},{"bike_id":"75f7d3bd-f2a1-4d79-867f-cd81045ec393","system_id":"levelo_inurba_marseille","lat":43.303273,"lon":5.404417,"is_reserved":false,"is_disabled":false,"rental_uris":{"android":"levelo://app?vid=75f7d3bd-f2a1-4d79-867f-cd81045ec393","ios":"levelo://app?vid=75f7d3bd-f2a1-4d79-867f-cd81045ec393"},"vehicle_type_id":"4","last_reported":1727820492,"current_range_meters":30400,"station_id":"ce4bh012rcd13ifvqd10","pricing_plan_id":"cebpf4jnsgd1na2vs0mg"},{"bike_id":"1b0da400-df7f-46cf-a71b-f878e1e3bfe9","system_id":"levelo_inurba_marseille","lat":43.24074,"lon":5.37761,"is_reserved":false,"is_disabled":false,"rental_uris":{"android":"levelo://app?vid=1b0da400-df7f-46cf-a71b-f878e1e3bfe9","ios":"levelo://app?vid=1b0da400-df7f-46cf-a71b-f878e1e3bfe9"},"vehicle_type_id":"4","last_reported":1727820492,"current_range_meters":28400,"station_id":"ce4bhnp2rcd13ifvqgvg","pricing_plan_id":"cebpf4jnsgd1na2vs0mg"},{"bike_id":"9cdc62b1-5402-49d4-9c8e-9ab354c814dc","system_id":"levelo_inurba_marseille","lat":43.324768,"lon":5.411232,"is_reserved":false,"is_disabled":false,"rental_uris":{"android":"levelo://app?vid=9cdc62b1-5402-49d4-9c8e-9ab354c814dc","ios":"levelo://app?vid=9cdc62b1-5402-49d4-9c8e-9ab354c814dc"},"vehicle_type_id":"4","last_reported":1727820492,"current_range_meters":19600,"station_id":"ce4bhpp2rcd13ifvqhgg","pricing_plan_id":"cebpf4jnsgd1na2vs0mg"},{"bike_id":"aae274d4-174b-48df-8d7a-32f65846d636","system_id":"levelo_inurba_marseille","lat":43.27845,"lon":5.39216,"is_reserved":false,"is_disabled":false,"rental_uris":{"android":"levelo://app?vid=aae274d4-174b-48df-8d7a-32f65846d636","ios":"levelo://app?vid=aae274d4-174b-48df-8d7a-32f65846d636"},"vehicle_type_id":"4","last_reported":1727820492,"current_range_meters":37600,"station_id":"ce4bhjp2rcd13ifvqga0","pricing_plan_id":"cebpf4jnsgd1na2vs0mg"},{"bike_id":"d22ae321-847f-4577-8563-9e21e8a7db72","system_id":"levelo_inurba_marseille","lat":43.30789,"lon":5.37655,"is_reserved":false,"is_disabled":false,"rental_uris":{"android":"levelo://app?vid=d22ae321-847f-4577-8563-9e21e8a7db72","ios":"levelo://app?vid=d22ae321-847f-4577-8563-9e21e8a7db72"},"vehicle_type_id":"4","last_reported":1727820492,"current_range_meters":26800,"station_id":"ce4bgv92rcd13ifvqcq0","pricing_plan_id":"cebpf4jnsgd1na2vs0mg"},{"bike_id":"2ad48f66-d496-4774-9d3a-071b3547565a","system_id":"levelo_inurba_marseille","lat":43.30327,"lon":5.40437,"is_reserved":false,"is_disabled":false,"rental_uris":{"android":"levelo://app?vid=2ad48f66-d496-4774-9d3a-071b3547565a","ios":"levelo://app?vid=2ad48f66-d496-4774-9d3a-071b3547565a"},"vehicle_type_id":"4","last_reported":1727820492,"current_range_meters":5600,"station_id":"ce4bh012rcd13ifvqd10","pricing_plan_id":"cebpf4jnsgd1na2vs0mg"},{"bike_id":"6153c6e4-d604-478e-8e06-72f20b035027","system_id":"levelo_inurba_marseille","lat":43.28163,"lon":5.4265,"is_reserved":false,"is_disabled":false,"rental_uris":{"android":"levelo://app?vid=6153c6e4-d604-478e-8e06-72f20b035027","ios":"levelo://app?vid=6153c6e4-d604-478e-8e06-72f20b035027"},"vehicle_type_id":"4","last_reported":1727820492,"current_range_meters":38800,"station_id":"ce4bhnh2rcd13ifvqgug","pricing_plan_id":"cebpf4jnsgd1na2vs0mg"},{"bike_id":"8a9a5a88-54ba-43dc-8df1-8efce13be32e","system_id":"levelo_inurba_marseille","lat":43.27929,"lon":5.39588,"is_reserved":false,"is_disabled":false,"rental_uris":{"android":"levelo://app?vid=8a9a5a88-54ba-43dc-8df1-8efce13be32e","ios":"levelo://app?vid=8a9a5a88-54ba-43dc-8df1-8efce13be32e"},"vehicle_type_id":"4","last_reported":1727820492,"current_range_meters":38800,"station_id":"ce4bhf92rcd13ifvqf40","pricing_plan_id":"cebpf4jnsgd1na2vs0mg"},{"bike_id":"c070c241-857d-41ab-837e-b7196074f68c","system_id":"levelo_inurba_marseille","lat":43.292638,"lon":5.409084,"is_reserved":false,"is_disabled":false,"rental_uris":{"android":"levelo://app?vid=c070c241-857d-41ab-837e-b7196074f68c","ios":"levelo://app?vid=c070c241-857d-41ab-837e-b7196074f68c"},"vehicle_type_id":"4","last_reported":1727820492,"current_range_meters":38800,"station_id":"ce4bh192rcd13ifvqdc0","pricing_plan_id":"cebpf4jnsgd1na2vs0mg"},{"bike_id":"060a1bfa-2e51-45b7-8d05-0e7fbf1a2b7d","system_id":"levelo_inurba_marseille","lat":43.28367,"lon":5.38622,"is_reserved":false,"is_disabled":false,"rental_uris":{"android":"levelo://app?vid=060a1bfa-2e51-45b7-8d05-0e7fbf1a2b7d","ios":"levelo://app?vid=060a1bfa-2e51-45b7-8d05-0e7fbf1a2b7d"},"vehicle_type_id":"4","last_reported":1727820492,"current_range_meters":20000,"station_id":"ce4bh492rcd13ifvqdvg","pricing_plan_id":"cebpf4jnsgd1na2vs0mg"},{"bike_id":"98f1a612-88d8-478b-ad87-9b7a044bda5e","system_id":"levelo_inurba_marseille","lat":43.30229,"lon":5.36521,"is_reserved":false,"is_disabled":false,"rental_uris":{"android":"levelo://app?vid=98f1a612-88d8-478b-ad87-9b7a044bda5e","ios":"levelo://app?vid=98f1a612-88d8-478b-ad87-9b7a044bda5e"},"vehicle_type_id":"4","last_reported":1727820492,"current_range_meters":11200,"station_id":"","pricing_plan_id":"cebpf4jnsgd1na2vs0mg"},{"bike_id":"f8cabb24-b291-43a7-b863-b2f6c298db17","system_id":"levelo_inurba_marseille","lat":43.30906,"lon":5.39644,"is_reserved":false,"is_disabled":false,"rental_uris":{"android":"levelo://app?vid=f8cabb24-b291-43a7-b863-b2f6c298db17","ios":"levelo://app?vid=f8cabb24-b291-43a7-b863-b2f6c298db17"},"vehicle_type_id":"4","last_reported":1727820492,"current_range_meters":9200,"station_id":"ce4bh012rcd13ifvqcv0","pricing_plan_id":"cebpf4jnsgd1na2vs0mg"},{"bike_id":"9e293ca7-6bf9-444f-b38f-f33855779b8c","system_id":"levelo_inurba_marseille","lat":43.26211,"lon":5.37445,"is_reserved":false,"is_disabled":false,"rental_uris":{"android":"levelo://app?vid=9e293ca7-6bf9-444f-b38f-f33855779b8c","ios":"levelo://app?vid=9e293ca7-6bf9-444f-b38f-f33855779b8c"},"vehicle_type_id":"4","last_reported":1727820492,"current_range_meters":24400,"station_id":"ce4bhgp2rcd13ifvqfc0","pricing_plan_id":"cebpf4jnsgd1na2vs0mg"},{"bike_id":"8ceb96fe-a74c-49c6-8577-bc4076ef5c3c","system_id":"levelo_inurba_marseille","lat":43.32301,"lon":5.3828,"is_reserved":false,"is_disabled":false,"rental_uris":{"android":"levelo://app?vid=8ceb96fe-a74c-49c6-8577-bc4076ef5c3c","ios":"levelo://app?vid=8ceb96fe-a74c-49c6-8577-bc4076ef5c3c"},"vehicle_type_id":"4","last_reported":1727820492,"current_range_meters":8800,"station_id":"ce4bhr12rcd13ifvqhqg","pricing_plan_id":"cebpf4jnsgd1na2vs0mg"},{"bike_id":"b6291581-2ff7-490c-bf63-5c7ac8cc3675","system_id":"levelo_inurba_marseille","lat":43.30653,"lon":5.40089,"is_reserved":false,"is_disabled":false,"rental_uris":{"android":"levelo://app?vid=b6291581-2ff7-490c-bf63-5c7ac8cc3675","ios":"levelo://app?vid=b6291581-2ff7-490c-bf63-5c7ac8cc3675"},"vehicle_type_id":"4","last_reported":1727820492,"current_range_meters":38000,"station_id":"ce4bh112rcd13ifvqda0","pricing_plan_id":"cebpf4jnsgd1na2vs0mg"},{"bike_id":"b337bd20-f5ab-4d71-a842-ea60a4480d01","system_id":"levelo_inurba_marseille","lat":43.33752,"lon":5.37462,"is_reserved":false,"is_disabled":false,"rental_uris":{"android":"levelo://app?vid=b337bd20-f5ab-4d71-a842-ea60a4480d01","ios":"levelo://app?vid=b337bd20-f5ab-4d71-a842-ea60a4480d01"},"vehicle_type_id":"4","last_reported":1727820492,"current_range_meters":36000,"station_id":"","pricing_plan_id":"cebpf4jnsgd1na2vs0mg"},{"bike_id":"6c1cfd53-6570-49ff-9900-dbc15086be93","system_id":"levelo_inurba_marseille","lat":43.28459,"lon":5.359,"is_reserved":false,"is_disabled":false,"rental_uris":{"android":"levelo://app?vid=6c1cfd53-6570-49ff-9900-dbc15086be93","ios":"levelo://app?vid=6c1cfd53-6570-49ff-9900-dbc15086be93"},"vehicle_type_id":"4","last_reported":1727820492,"current_range_meters":39200,"station_id":"ce4bhah2rcd13ifvqei0","pricing_plan_id":"cebpf4jnsgd1na2vs0mg"},{"bike_id":"2d1e394b-c65c-48dd-8f6c-7fbd688f784e","system_id":"levelo_inurba_marseille","lat":43.31652,"lon":5.38802,"is_reserved":false,"is_disabled":false,"rental_uris":{"android":"levelo://app?vid=2d1e394b-c65c-48dd-8f6c-7fbd688f784e","ios":"levelo://app?vid=2d1e394b-c65c-48dd-8f6c-7fbd688f784e"},"vehicle_type_id":"4","last_reported":1727820492,"current_range_meters":10800,"station_id":"ce4bhqp2rcd13ifvqhng","pricing_plan_id":"cebpf4jnsgd1na2vs0mg"},{"bike_id":"737387ba-9b3a-423e-82d6-7f2519af15e7","system_id":"levelo_inurba_marseille","lat":43.3267,"lon":5.40993,"is_reserved":false,"is_disabled":false,"rental_uris":{"android":"levelo://app?vid=737387ba-9b3a-423e-82d6-7f2519af15e7","ios":"levelo://app?vid=737387ba-9b3a-423e-82d6-7f2519af15e7"},"vehicle_type_id":"4","last_reported":1727820492,"current_range_meters":38000,"station_id":"ce4bhpp2rcd13ifvqhgg","pricing_plan_id":"cebpf4jnsgd1na2vs0mg"},{"bike_id":"a839f8c2-1f19-41c9-b661-130324e30c0f","system_id":"levelo_inurba_marseille","lat":43.32292,"lon":5.38267,"is_reserved":false,"is_disabled":false,"rental_uris":{"android":"levelo://app?vid=a839f8c2-1f19-41c9-b661-130324e30c0f","ios":"levelo://app?vid=a839f8c2-1f19-41c9-b661-130324e30c0f"},"vehicle_type_id":"4","last_reported":1727820492,"current_range_meters":38800,"station_id":"ce4bhr12rcd13ifvqhqg","pricing_plan_id":"cebpf4jnsgd1na2vs0mg"},{"bike_id":"a08fb8e3-178d-48a6-81dd-3d2b604c8945","system_id":"levelo_inurba_marseille","lat":43.29936,"lon":5.36523,"is_reserved":false,"is_disabled":false,"rental_uris":{"android":"levelo://app?vid=a08fb8e3-178d-48a6-81dd-3d2b604c8945","ios":"levelo://app?vid=a08fb8e3-178d-48a6-81dd-3d2b604c8945"},"vehicle_type_id":"4","last_reported":1727820492,"current_range_meters":4000,"station_id":"ce4bgm92rcd13ifvqbr0","pricing_plan_id":"cebpf4jnsgd1na2vs0mg"},{"bike_id":"60f41cc8-afe7-48eb-a187-506db8f3a799","system_id":"levelo_inurba_marseille","lat":43.29803,"lon":5.40405,"is_reserved":false,"is_disabled":false,"rental_uris":{"android":"levelo://app?vid=60f41cc8-afe7-48eb-a187-506db8f3a799","ios":"levelo://app?vid=60f41cc8-afe7-48eb-a187-506db8f3a799"},"vehicle_type_id":"4","last_reported":1727820492,"current_range_meters":36000,"station_id":"ce4bh112rcd13ifvqd90","pricing_plan_id":"cebpf4jnsgd1na2vs0mg"},{"bike_id":"42b39daf-2a0c-403d-81df-ff40365bdd87","system_id":"levelo_inurba_marseille","lat":43.32665,"lon":5.40995,"is_reserved":false,"is_disabled":false,"rental_uris":{"android":"levelo://app?vid=42b39daf-2a0c-403d-81df-ff40365bdd87","ios":"levelo://app?vid=42b39daf-2a0c-403d-81df-ff40365bdd87"},"vehicle_type_id":"4","last_reported":1727820492,"current_range_meters":36800,"station_id":"ce4bhpp2rcd13ifvqhgg","pricing_plan_id":"cebpf4jnsgd1na2vs0mg"},{"bike_id":"64aa91d5-8321-4944-9ff4-784f4b999f84","system_id":"levelo_inurba_marseille","lat":43.2928,"lon":5.40117,"is_reserved":false,"is_disabled":false,"rental_uris":{"android":"levelo://app?vid=64aa91d5-8321-4944-9ff4-784f4b999f84","ios":"levelo://app?vid=64aa91d5-8321-4944-9ff4-784f4b999f84"},"vehicle_type_id":"4","last_reported":1727820492,"current_range_meters":9200,"station_id":"ce4bh312rcd13ifvqdk0","pricing_plan_id":"cebpf4jnsgd1na2vs0mg"},{"bike_id":"f493192b-13c6-47a1-9573-739dd32e633f","system_id":"levelo_inurba_marseille","lat":43.337444,"lon":5.374475,"is_reserved":false,"is_disabled":false,"rental_uris":{"android":"levelo://app?vid=f493192b-13c6-47a1-9573-739dd32e633f","ios":"levelo://app?vid=f493192b-13c6-47a1-9573-739dd32e633f"},"vehicle_type_id":"4","last_reported":1727820492,"current_range_meters":15200,"station_id":"","pricing_plan_id":"cebpf4jnsgd1na2vs0mg"},{"bike_id":"82629651-f3f6-4e9b-971d-0a40fe1449ba","system_id":"levelo_inurba_marseille","lat":43.28157,"lon":5.42643,"is_reserved":false,"is_disabled":false,"rental_uris":{"android":"levelo://app?vid=82629651-f3f6-4e9b-971d-0a40fe1449ba","ios":"levelo://app?vid=82629651-f3f6-4e9b-971d-0a40fe1449ba"},"vehicle_type_id":"4","last_reported":1727820492,"current_range_meters":38800,"station_id":"ce4bhnh2rcd13ifvqgug","pricing_plan_id":"cebpf4jnsgd1na2vs0mg"},{"bike_id":"296dfd53-38a8-44ca-b5a3-cb4ea10465e7","system_id":"levelo_inurba_marseille","lat":43.27215,"lon":5.39179,"is_reserved":false,"is_disabled":false,"rental_uris":{"android":"levelo://app?vid=296dfd53-38a8-44ca-b5a3-cb4ea10465e7","ios":"levelo://app?vid=296dfd53-38a8-44ca-b5a3-cb4ea10465e7"},"vehicle_type_id":"4","last_reported":1727820492,"current_range_meters":25600,"station_id":"ce4bhhp2rcd13ifvqfm0","pricing_plan_id":"cebpf4jnsgd1na2vs0mg"},{"bike_id":"b8a5d0e2-7dce-4cea-b8d0-0d75b8c2b4df","system_id":"levelo_inurba_marseille","lat":43.26926,"lon":5.38909,"is_reserved":false,"is_disabled":false,"rental_uris":{"android":"levelo://app?vid=b8a5d0e2-7dce-4cea-b8d0-0d75b8c2b4df","ios":"levelo://app?vid=b8a5d0e2-7dce-4cea-b8d0-0d75b8c2b4df"},"vehicle_type_id":"4","last_reported":1727820492,"current_range_meters":38400,"station_id":"ce4bhhh2rcd13ifvqfl0","pricing_plan_id":"cebpf4jnsgd1na2vs0mg"},{"bike_id":"aab4210c-0fc9-43af-983b-cc13c19a5d64","system_id":"levelo_inurba_marseille","lat":43.27183,"lon":5.40985,"is_reserved":false,"is_disabled":false,"rental_uris":{"android":"levelo://app?vid=aab4210c-0fc9-43af-983b-cc13c19a5d64","ios":"levelo://app?vid=aab4210c-0fc9-43af-983b-cc13c19a5d64"},"vehicle_type_id":"4","last_reported":1727820492,"current_range_meters":14000,"station_id":"ce4bhl12rcd13ifvqgf0","pricing_plan_id":"cebpf4jnsgd1na2vs0mg"},{"bike_id":"ecf16e4f-f297-481a-ba9a-f34d3a2be745","system_id":"levelo_inurba_marseille","lat":43.2985,"lon":5.36277,"is_reserved":false,"is_disabled":false,"rental_uris":{"android":"levelo://app?vid=ecf16e4f-f297-481a-ba9a-f34d3a2be745","ios":"levelo://app?vid=ecf16e4f-f297-481a-ba9a-f34d3a2be745"},"vehicle_type_id":"4","last_reported":1727820492,"current_range_meters":8400,"station_id":"ce4bgpp2rcd13ifvqc3g","pricing_plan_id":"cebpf4jnsgd1na2vs0mg"},{"bike_id":"441f094e-6466-462e-98bf-9aeceeeab288","system_id":"levelo_inurba_marseille","lat":43.27815,"lon":5.40713,"is_reserved":false,"is_disabled":false,"rental_uris":{"android":"levelo://app?vid=441f094e-6466-462e-98bf-9aeceeeab288","ios":"levelo://app?vid=441f094e-6466-462e-98bf-9aeceeeab288"},"vehicle_type_id":"4","last_reported":1727820492,"current_range_meters":38800,"station_id":"ce4bhnh2rcd13ifvqgtg","pricing_plan_id":"cebpf4jnsgd1na2vs0mg"},{"bike_id":"77f4d60e-8fce-42bf-87a6-fba55031adb0","system_id":"levelo_inurba_marseille","lat":43.29564,"lon":5.42291,"is_reserved":false,"is_disabled":false,"rental_uris":{"android":"levelo://app?vid=77f4d60e-8fce-42bf-87a6-fba55031adb0","ios":"levelo://app?vid=77f4d60e-8fce-42bf-87a6-fba55031adb0"},"vehicle_type_id":"4","last_reported":1727820492,"current_range_meters":37600,"station_id":"ce4bhph2rcd13ifvqhdg","pricing_plan_id":"cebpf4jnsgd1na2vs0mg"},{"bike_id":"dc3289b7-5397-463d-b8ee-3f7e34403a59","system_id":"levelo_inurba_marseille","lat":43.28453,"lon":5.35886,"is_reserved":false,"is_disabled":false,"rental_uris":{"android":"levelo://app?vid=dc3289b7-5397-463d-b8ee-3f7e34403a59","ios":"levelo://app?vid=dc3289b7-5397-463d-b8ee-3f7e34403a59"},"vehicle_type_id":"4","last_reported":1727820492,"current_range_meters":26800,"station_id":"ce4bhah2rcd13ifvqei0","pricing_plan_id":"cebpf4jnsgd1na2vs0mg"},{"bike_id":"d0f3ba74-2db6-4276-a970-d6d9e934005a","system_id":"levelo_inurba_marseille","lat":43.3373,"lon":5.39184,"is_reserved":false,"is_disabled":false,"rental_uris":{"android":"levelo://app?vid=d0f3ba74-2db6-4276-a970-d6d9e934005a","ios":"levelo://app?vid=d0f3ba74-2db6-4276-a970-d6d9e934005a"},"vehicle_type_id":"4","last_reported":1727820492,"current_range_meters":38800,"station_id":"ce4bhr92rcd13ifvqhsg","pricing_plan_id":"cebpf4jnsgd1na2vs0mg"},{"bike_id":"7d719436-d69c-4d48-8fe9-74cb17994169","system_id":"levelo_inurba_marseille","lat":43.28729,"lon":5.36093,"is_reserved":false,"is_disabled":false,"rental_uris":{"android":"levelo://app?vid=7d719436-d69c-4d48-8fe9-74cb17994169","ios":"levelo://app?vid=7d719436-d69c-4d48-8fe9-74cb17994169"},"vehicle_type_id":"4","last_reported":1727820492,"current_range_meters":25200,"station_id":"cki0cbj6b192h4jlfktg","pricing_plan_id":"cebpf4jnsgd1na2vs0mg"},{"bike_id":"f1dd1acd-6ae2-46a7-8d62-c777e527ff0c","system_id":"levelo_inurba_marseille","lat":43.28466,"lon":5.35883,"is_reserved":false,"is_disabled":false,"rental_uris":{"android":"levelo://app?vid=f1dd1acd-6ae2-46a7-8d62-c777e527ff0c","ios":"levelo://app?vid=f1dd1acd-6ae2-46a7-8d62-c777e527ff0c"},"vehicle_type_id":"4","last_reported":1727820492,"current_range_meters":3600,"station_id":"ce4bhah2rcd13ifvqei0","pricing_plan_id":"cebpf4jnsgd1na2vs0mg"},{"bike_id":"4c4f3085-7816-4fff-97e5-4cd36e0a2328","system_id":"levelo_inurba_marseille","lat":43.26559,"lon":5.37287,"is_reserved":false,"is_disabled":false,"rental_uris":{"android":"levelo://app?vid=4c4f3085-7816-4fff-97e5-4cd36e0a2328","ios":"levelo://app?vid=4c4f3085-7816-4fff-97e5-4cd36e0a2328"},"vehicle_type_id":"4","last_reported":1727820492,"current_range_meters":38800,"station_id":"ce4bhg12rcd13ifvqf70","pricing_plan_id":"cebpf4jnsgd1na2vs0mg"},{"bike_id":"e1a22575-397e-4cd2-9953-1ff35d4fc195","system_id":"levelo_inurba_marseille","lat":43.26559,"lon":5.37292,"is_reserved":false,"is_disabled":false,"rental_uris":{"android":"levelo://app?vid=e1a22575-397e-4cd2-9953-1ff35d4fc195","ios":"levelo://app?vid=e1a22575-397e-4cd2-9953-1ff35d4fc195"},"vehicle_type_id":"4","last_reported":1727820492,"current_range_meters":38800,"station_id":"ce4bhg12rcd13ifvqf70","pricing_plan_id":"cebpf4jnsgd1na2vs0mg"},{"bike_id":"6c4851bd-7bfb-4ada-92cb-f45abb80cbaa","system_id":"levelo_inurba_marseille","lat":43.30131,"lon":5.38786,"is_reserved":false,"is_disabled":false,"rental_uris":{"android":"levelo://app?vid=6c4851bd-7bfb-4ada-92cb-f45abb80cbaa","ios":"levelo://app?vid=6c4851bd-7bfb-4ada-92cb-f45abb80cbaa"},"vehicle_type_id":"4","last_reported":1727820492,"current_range_meters":26000,"station_id":"ce4bghh2rcd13ifvqb60","pricing_plan_id":"cebpf4jnsgd1na2vs0mg"},{"bike_id":"e3789a53-30ff-404c-bf99-457ed15f9ab2","system_id":"levelo_inurba_marseille","lat":43.28461,"lon":5.35882,"is_reserved":false,"is_disabled":false,"rental_uris":{"android":"levelo://app?vid=e3789a53-30ff-404c-bf99-457ed15f9ab2","ios":"levelo://app?vid=e3789a53-30ff-404c-bf99-457ed15f9ab2"},"vehicle_type_id":"4","last_reported":1727820492,"current_range_meters":38800,"station_id":"ce4bhah2rcd13ifvqei0","pricing_plan_id":"cebpf4jnsgd1na2vs0mg"},{"bike_id":"c21885d0-f98b-408a-b33e-348332f887e9","system_id":"levelo_inurba_marseille","lat":43.25591,"lon":5.38238,"is_reserved":false,"is_disabled":false,"rental_uris":{"android":"levelo://app?vid=c21885d0-f98b-408a-b33e-348332f887e9","ios":"levelo://app?vid=c21885d0-f98b-408a-b33e-348332f887e9"},"vehicle_type_id":"4","last_reported":1727820492,"current_range_meters":27600,"station_id":"ce4bhih2rcd13ifvqfs0","pricing_plan_id":"cebpf4jnsgd1na2vs0mg"},{"bike_id":"7acc4f54-6a14-4172-91fe-2ee65d4056a4","system_id":"levelo_inurba_marseille","lat":43.31891,"lon":5.40735,"is_reserved":false,"is_disabled":false,"rental_uris":{"android":"levelo://app?vid=7acc4f54-6a14-4172-91fe-2ee65d4056a4","ios":"levelo://app?vid=7acc4f54-6a14-4172-91fe-2ee65d4056a4"},"vehicle_type_id":"4","last_reported":1727820492,"current_range_meters":9200,"station_id":"ce4bhq12rcd13ifvqhig","pricing_plan_id":"cebpf4jnsgd1na2vs0mg"},{"bike_id":"eb4ee25e-80aa-43ab-a312-06f81214c344","system_id":"levelo_inurba_marseille","lat":43.29273,"lon":5.36842,"is_reserved":false,"is_disabled":false,"rental_uris":{"android":"levelo://app?vid=eb4ee25e-80aa-43ab-a312-06f81214c344","ios":"levelo://app?vid=eb4ee25e-80aa-43ab-a312-06f81214c344"},"vehicle_type_id":"4","last_reported":1727820492,"current_range_meters":23200,"station_id":"ce4bhbp2rcd13ifvqesg","pricing_plan_id":"cebpf4jnsgd1na2vs0mg"},{"bike_id":"9501c630-0ef6-483f-91e4-e177bcc46701","system_id":"levelo_inurba_marseille","lat":43.28709,"lon":5.37382,"is_reserved":false,"is_disabled":false,"rental_uris":{"android":"levelo://app?vid=9501c630-0ef6-483f-91e4-e177bcc46701","ios":"levelo://app?vid=9501c630-0ef6-483f-91e4-e177bcc46701"},"vehicle_type_id":"4","last_reported":1727820492,"current_range_meters":38800,"station_id":"ce4bh3p2rcd13ifvqdq0","pricing_plan_id":"cebpf4jnsgd1na2vs0mg"},{"bike_id":"2bf7e306-f8f9-4dd3-b221-2dc4bd7dabc2","system_id":"levelo_inurba_marseille","lat":43.28474,"lon":5.35889,"is_reserved":false,"is_disabled":false,"rental_uris":{"android":"levelo://app?vid=2bf7e306-f8f9-4dd3-b221-2dc4bd7dabc2","ios":"levelo://app?vid=2bf7e306-f8f9-4dd3-b221-2dc4bd7dabc2"},"vehicle_type_id":"4","last_reported":1727820492,"current_range_meters":18800,"station_id":"ce4bhah2rcd13ifvqei0","pricing_plan_id":"cebpf4jnsgd1na2vs0mg"},{"bike_id":"43bfceaf-5615-4c89-a9c7-1588e6315ed2","system_id":"levelo_inurba_marseille","lat":43.23158,"lon":5.43709,"is_reserved":false,"is_disabled":false,"rental_uris":{"android":"levelo://app?vid=43bfceaf-5615-4c89-a9c7-1588e6315ed2","ios":"levelo://app?vid=43bfceaf-5615-4c89-a9c7-1588e6315ed2"},"vehicle_type_id":"4","last_reported":1727820492,"current_range_meters":4000,"station_id":"ce4bhmp2rcd13ifvqgog","pricing_plan_id":"cebpf4jnsgd1na2vs0mg"},{"bike_id":"759c996f-08c4-4a1e-98b0-a7fbf3e3168e","system_id":"levelo_inurba_marseille","lat":43.25503,"lon":5.37649,"is_reserved":false,"is_disabled":false,"rental_uris":{"android":"levelo://app?vid=759c996f-08c4-4a1e-98b0-a7fbf3e3168e","ios":"levelo://app?vid=759c996f-08c4-4a1e-98b0-a7fbf3e3168e"},"vehicle_type_id":"4","last_reported":1727820492,"current_range_meters":26000,"station_id":"ce4bhh12rcd13ifvqff0","pricing_plan_id":"cebpf4jnsgd1na2vs0mg"},{"bike_id":"a2ae8adb-cbe8-4c0b-89c0-a433c1504522","system_id":"levelo_inurba_marseille","lat":43.31273,"lon":5.4017,"is_reserved":false,"is_disabled":false,"rental_uris":{"android":"levelo://app?vid=a2ae8adb-cbe8-4c0b-89c0-a433c1504522","ios":"levelo://app?vid=a2ae8adb-cbe8-4c0b-89c0-a433c1504522"},"vehicle_type_id":"4","last_reported":1727820492,"current_range_meters":27600,"station_id":"ce4bh092rcd13ifvqd30","pricing_plan_id":"cebpf4jnsgd1na2vs0mg"},{"bike_id":"5bf52619-7ce6-4cac-8408-b1bcf64ac36e","system_id":"levelo_inurba_marseille","lat":43.283142,"lon":5.385047,"is_reserved":false,"is_disabled":false,"rental_uris":{"android":"levelo://app?vid=5bf52619-7ce6-4cac-8408-b1bcf64ac36e","ios":"levelo://app?vid=5bf52619-7ce6-4cac-8408-b1bcf64ac36e"},"vehicle_type_id":"4","last_reported":1727820492,"current_range_meters":12000,"station_id":"ce4bhdp2rcd13ifvqf20","pricing_plan_id":"cebpf4jnsgd1na2vs0mg"},{"bike_id":"0b7a5177-7bc1-4350-bceb-f8d35eb45312","system_id":"levelo_inurba_marseille","lat":43.29266,"lon":5.4092,"is_reserved":false,"is_disabled":false,"rental_uris":{"android":"levelo://app?vid=0b7a5177-7bc1-4350-bceb-f8d35eb45312","ios":"levelo://app?vid=0b7a5177-7bc1-4350-bceb-f8d35eb45312"},"vehicle_type_id":"4","last_reported":1727820492,"current_range_meters":26000,"station_id":"ce4bh192rcd13ifvqdc0","pricing_plan_id":"cebpf4jnsgd1na2vs0mg"},{"bike_id":"849785e9-3354-451b-a4b8-9dfecd3e3883","system_id":"levelo_inurba_marseille","lat":43.26689,"lon":5.38268,"is_reserved":false,"is_disabled":false,"rental_uris":{"android":"levelo://app?vid=849785e9-3354-451b-a4b8-9dfecd3e3883","ios":"levelo://app?vid=849785e9-3354-451b-a4b8-9dfecd3e3883"},"vehicle_type_id":"4","last_reported":1727820492,"current_range_meters":38800,"station_id":"ce4bhg92rcd13ifvqf90","pricing_plan_id":"cebpf4jnsgd1na2vs0mg"},{"bike_id":"b7a4367c-fc71-4ab7-95c7-5d35b416dab0","system_id":"levelo_inurba_marseille","lat":43.31538,"lon":5.38039,"is_reserved":false,"is_disabled":false,"rental_uris":{"android":"levelo://app?vid=b7a4367c-fc71-4ab7-95c7-5d35b416dab0","ios":"levelo://app?vid=b7a4367c-fc71-4ab7-95c7-5d35b416dab0"},"vehicle_type_id":"4","last_reported":1727820492,"current_range_meters":39200,"station_id":"ce4bhsp2rcd13ifvqi50","pricing_plan_id":"cebpf4jnsgd1na2vs0mg"},{"bike_id":"c7d8911c-5d10-4729-b66f-16e46212ebff","system_id":"levelo_inurba_marseille","lat":43.28112,"lon":5.37848,"is_reserved":false,"is_disabled":false,"rental_uris":{"android":"levelo://app?vid=c7d8911c-5d10-4729-b66f-16e46212ebff","ios":"levelo://app?vid=c7d8911c-5d10-4729-b66f-16e46212ebff"},"vehicle_type_id":"4","last_reported":1727820492,"current_range_meters":36800,"station_id":"ce4bha12rcd13ifvqee0","pricing_plan_id":"cebpf4jnsgd1na2vs0mg"},{"bike_id":"37621281-5028-4585-b6ad-dbe94e6e8663","system_id":"levelo_inurba_marseille","lat":43.33029,"lon":5.39041,"is_reserved":false,"is_disabled":false,"rental_uris":{"android":"levelo://app?vid=37621281-5028-4585-b6ad-dbe94e6e8663","ios":"levelo://app?vid=37621281-5028-4585-b6ad-dbe94e6e8663"},"vehicle_type_id":"4","last_reported":1727820492,"current_range_meters":38800,"station_id":"ce4bhr92rcd13ifvqhrg","pricing_plan_id":"cebpf4jnsgd1na2vs0mg"},{"bike_id":"9c9cc226-5222-4b9b-9b93-130a0a217ed8","system_id":"levelo_inurba_marseille","lat":43.28442,"lon":5.39178,"is_reserved":false,"is_disabled":false,"rental_uris":{"android":"levelo://app?vid=9c9cc226-5222-4b9b-9b93-130a0a217ed8","ios":"levelo://app?vid=9c9cc226-5222-4b9b-9b93-130a0a217ed8"},"vehicle_type_id":"4","last_reported":1727820492,"current_range_meters":14400,"station_id":"ce4bhoh2rcd13ifvqh5g","pricing_plan_id":"cebpf4jnsgd1na2vs0mg"},{"bike_id":"72b8a9f1-3407-4a48-9abf-5f0e95d80bf4","system_id":"levelo_inurba_marseille","lat":43.28162,"lon":5.42644,"is_reserved":false,"is_disabled":false,"rental_uris":{"android":"levelo://app?vid=72b8a9f1-3407-4a48-9abf-5f0e95d80bf4","ios":"levelo://app?vid=72b8a9f1-3407-4a48-9abf-5f0e95d80bf4"},"vehicle_type_id":"4","last_reported":1727820492,"current_range_meters":28000,"station_id":"ce4bhnh2rcd13ifvqgug","pricing_plan_id":"cebpf4jnsgd1na2vs0mg"},{"bike_id":"2d206e1a-412a-43c5-aa5a-7208962f0ec1","system_id":"levelo_inurba_marseille","lat":43.29562,"lon":5.42292,"is_reserved":false,"is_disabled":false,"rental_uris":{"android":"levelo://app?vid=2d206e1a-412a-43c5-aa5a-7208962f0ec1","ios":"levelo://app?vid=2d206e1a-412a-43c5-aa5a-7208962f0ec1"},"vehicle_type_id":"4","last_reported":1727820492,"current_range_meters":18800,"station_id":"ce4bhph2rcd13ifvqhdg","pricing_plan_id":"cebpf4jnsgd1na2vs0mg"},{"bike_id":"6b75cf0c-677e-483d-8715-aa3742ef121e","system_id":"levelo_inurba_marseille","lat":43.28431,"lon":5.39177,"is_reserved":false,"is_disabled":false,"rental_uris":{"android":"levelo://app?vid=6b75cf0c-677e-483d-8715-aa3742ef121e","ios":"levelo://app?vid=6b75cf0c-677e-483d-8715-aa3742ef121e"},"vehicle_type_id":"4","last_reported":1727820492,"current_range_meters":8800,"station_id":"ce4bhoh2rcd13ifvqh5g","pricing_plan_id":"cebpf4jnsgd1na2vs0mg"},{"bike_id":"205af2dd-fea3-44ee-b55a-ead4b4acb9cb","system_id":"levelo_inurba_marseille","lat":43.28368,"lon":5.38619,"is_reserved":false,"is_disabled":false,"rental_uris":{"android":"levelo://app?vid=205af2dd-fea3-44ee-b55a-ead4b4acb9cb","ios":"levelo://app?vid=205af2dd-fea3-44ee-b55a-ead4b4acb9cb"},"vehicle_type_id":"4","last_reported":1727820492,"current_range_meters":12800,"station_id":"ce4bh492rcd13ifvqdvg","pricing_plan_id":"cebpf4jnsgd1na2vs0mg"},{"bike_id":"7c497bf9-b02a-44df-be63-521fb3c5c2f3","system_id":"levelo_inurba_marseille","lat":43.29273,"lon":5.40919,"is_reserved":false,"is_disabled":false,"rental_uris":{"android":"levelo://app?vid=7c497bf9-b02a-44df-be63-521fb3c5c2f3","ios":"levelo://app?vid=7c497bf9-b02a-44df-be63-521fb3c5c2f3"},"vehicle_type_id":"4","last_reported":1727820492,"current_range_meters":25200,"station_id":"ce4bh192rcd13ifvqdc0","pricing_plan_id":"cebpf4jnsgd1na2vs0mg"},{"bike_id":"c0166d9c-98ce-42f6-b748-506358585091","system_id":"levelo_inurba_marseille","lat":43.29568,"lon":5.42291,"is_reserved":false,"is_disabled":false,"rental_uris":{"android":"levelo://app?vid=c0166d9c-98ce-42f6-b748-506358585091","ios":"levelo://app?vid=c0166d9c-98ce-42f6-b748-506358585091"},"vehicle_type_id":"4","last_reported":1727820492,"current_range_meters":17600,"station_id":"ce4bhph2rcd13ifvqhdg","pricing_plan_id":"cebpf4jnsgd1na2vs0mg"},{"bike_id":"cc60b7c8-31f3-409a-bb05-85cf7a5bd1d7","system_id":"levelo_inurba_marseille","lat":43.27954,"lon":5.41049,"is_reserved":false,"is_disabled":false,"rental_uris":{"android":"levelo://app?vid=cc60b7c8-31f3-409a-bb05-85cf7a5bd1d7","ios":"levelo://app?vid=cc60b7c8-31f3-409a-bb05-85cf7a5bd1d7"},"vehicle_type_id":"4","last_reported":1727820492,"current_range_meters":38800,"station_id":"ce4bhnp2rcd13ifvqh0g","pricing_plan_id":"cebpf4jnsgd1na2vs0mg"},{"bike_id":"2948fd1f-247d-4c2a-9a70-c609d126edac","system_id":"levelo_inurba_marseille","lat":43.28702,"lon":5.39974,"is_reserved":false,"is_disabled":false,"rental_uris":{"android":"levelo://app?vid=2948fd1f-247d-4c2a-9a70-c609d126edac","ios":"levelo://app?vid=2948fd1f-247d-4c2a-9a70-c609d126edac"},"vehicle_type_id":"4","last_reported":1727820492,"current_range_meters":32400,"station_id":"ce4bho92rcd13ifvqh3g","pricing_plan_id":"cebpf4jnsgd1na2vs0mg"},{"bike_id":"bea98f12-f887-4527-9795-e1ed0ce7c624","system_id":"levelo_inurba_marseille","lat":43.276222,"lon":5.36112,"is_reserved":false,"is_disabled":false,"rental_uris":{"android":"levelo://app?vid=bea98f12-f887-4527-9795-e1ed0ce7c624","ios":"levelo://app?vid=bea98f12-f887-4527-9795-e1ed0ce7c624"},"vehicle_type_id":"4","last_reported":1727820492,"current_range_meters":37600,"station_id":"ce4bgj92rcd13ifvqbe0","pricing_plan_id":"cebpf4jnsgd1na2vs0mg"},{"bike_id":"02dda933-dd15-4efa-a784-08bc79d05aef","system_id":"levelo_inurba_marseille","lat":43.30665,"lon":5.40091,"is_reserved":false,"is_disabled":false,"rental_uris":{"android":"levelo://app?vid=02dda933-dd15-4efa-a784-08bc79d05aef","ios":"levelo://app?vid=02dda933-dd15-4efa-a784-08bc79d05aef"},"vehicle_type_id":"4","last_reported":1727820492,"current_range_meters":38800,"station_id":"ce4bh112rcd13ifvqda0","pricing_plan_id":"cebpf4jnsgd1na2vs0mg"},{"bike_id":"dd3ca98e-1664-4b31-96a2-ef1fbb10cc50","system_id":"levelo_inurba_marseille","lat":43.292979,"lon":5.371652,"is_reserved":false,"is_disabled":false,"rental_uris":{"android":"levelo://app?vid=dd3ca98e-1664-4b31-96a2-ef1fbb10cc50","ios":"levelo://app?vid=dd3ca98e-1664-4b31-96a2-ef1fbb10cc50"},"vehicle_type_id":"4","last_reported":1727820492,"current_range_meters":22800,"station_id":"ce4bhb12rcd13ifvqel0","pricing_plan_id":"cebpf4jnsgd1na2vs0mg"},{"bike_id":"03e6508b-5e63-46d0-a44b-3dfbe099be42","system_id":"levelo_inurba_marseille","lat":43.33602,"lon":5.41034,"is_reserved":false,"is_disabled":false,"rental_uris":{"android":"levelo://app?vid=03e6508b-5e63-46d0-a44b-3dfbe099be42","ios":"levelo://app?vid=03e6508b-5e63-46d0-a44b-3dfbe099be42"},"vehicle_type_id":"4","last_reported":1727820492,"current_range_meters":22800,"station_id":"ce4bhqh2rcd13ifvqhmg","pricing_plan_id":"cebpf4jnsgd1na2vs0mg"},