{"last_updated":1702642406,"ttl":30,"version":"2.2","data":{"bikes":[{"bike_id":"500b1cc1-06b5-4a49-b594-610cc505f678","system_id":"levelo_inurba_marseille","lat":43.31341,"lon":5.367098,"is_reserved":false,"is_disabled":false,"rental_uris":{"android":"levelo://app?vid=500b1cc1-06b5-4a49-b594-610cc505f678","ios":"levelo://app?vid=500b1cc1-06b5-4a49-b594-610cc505f678"},"vehicle_type_id":"4","last_reported":1702642406,"current_range_meters":31200,"station_id":"ce4bgr92rcd13ifvqc6g","pricing_plan_id":"free"},{"bike_id":"4e4ce1ca-60c1-48b1-a6fe-29bac6729d91","system_id":"levelo_inurba_marseille","lat":43.313391,"lon":5.36706,"is_reserved":false,"is_disabled":false,"rental_uris":{"android":"levelo://app?vid=4e4ce1ca-60c1-48b1-a6fe-29bac6729d91","ios":"levelo://app?vid=4e4ce1ca-60c1-48b1-a6fe-29bac6729d91"},"vehicle_type_id":"4","last_reported":1702642406,"current_range_meters":1600,"station_id":"ce4bgr92rcd13ifvqc6g","pricing_plan_id":"free"},{"bike_id":"cc70a5cb-e6f0-49b4-8e2a-5191d608ab1e","system_id":"levelo_inurba_marseille","lat":43.309039,"lon":5.371797,"is_reserved":false,"is_disabled":false,"rental_uris":{"android":"levelo://app?vid=cc70a5cb-e6f0-49b4-8e2a-5191d608ab1e","ios":"levelo://app?vid=cc70a5cb-e6f0-49b4-8e2a-5191d608ab1e"},"vehicle_type_id":"4","last_reported":1702642406,"current_range_meters":22000,"station_id":"ce4bguh2rcd13ifvqckg","pricing_plan_id":"free"},{"bike_id":"0de4dab6-3131-46a0-ad72-998bb08f38e6","system_id":"levelo_inurba_marseille","lat":43.309039,"lon":5.371797,"is_reserved":false,"is_disabled":false,"rental_uris":{"android":"levelo://app?vid=0de4dab6-3131-46a0-ad72-998bb08f38e6","ios":"levelo://app?vid=0de4dab6-3131-46a0-ad72-998bb08f38e6"},"vehicle_type_id":"4","last_reported":1702642406,"current_range_meters":9200,"station_id":"ce4bguh2rcd13ifvqckg","pricing_plan_id":"free"},{"bike_id":"1c3427c6-df09-40de-ab23-e0b94b6c83bb","system_id":"levelo_inurba_marseille","lat":43.309039,"lon":5.371797,"is_reserved":false,"is_disabled":false,"rental_uris":{"android":"levelo://app?vid=1c3427c6-df09-40de-ab23-e0b94b6c83bb","ios":"levelo://app?vid=1c3427c6-df09-40de-ab23-e0b94b6c83bb"},"vehicle_type_id":"4","last_reported":1702642406,"current_range_meters":22400,"station_id":"ce4bguh2rcd13ifvqckg","pricing_plan_id":"free"},{"bike_id":"3f8b821f-e430-4a35-bf14-f8b6e777ea11","system_id":"levelo_inurba_marseille","lat":43.313939,"lon":5.375306,"is_reserved":false,"is_disabled":false,"rental_uris":{"android":"levelo://app?vid=3f8b821f-e430-4a35-bf14-f8b6e777ea11","ios":"levelo://app?vid=3f8b821f-e430-4a35-bf14-f8b6e777ea11"},"vehicle_type_id":"4","last_reported":1702642406,"current_range_meters":0,"station_id":"","pricing_plan_id":"free"},{"bike_id":"b9a61213-f60b-4899-9f1f-9f5ad9c86497","system_id":"levelo_inurba_marseille","lat":43.305368,"lon":5.367343,"is_reserved":false,"is_disabled":false,"rental_uris":{"android":"levelo://app?vid=b9a61213-f60b-4899-9f1f-9f5ad9c86497","ios":"levelo://app?vid=b9a61213-f60b-4899-9f1f-9f5ad9c86497"},"vehicle_type_id":"4","last_reported":1702642406,"current_range_meters":24800,"station_id":"ce4bgrp2rcd13ifvqc9g","pricing_plan_id":"free"},{"bike_id":"203c13d6-1f55-4a80-93d1-b8667e889f0c","system_id":"levelo_inurba_marseille","lat":43.305425,"lon":5.36699,"is_reserved":false,"is_disabled":false,"rental_uris":{"android":"levelo://app?vid=203c13d6-1f55-4a80-93d1-b8667e889f0c","ios":"levelo://app?vid=203c13d6-1f55-4a80-93d1-b8667e889f0c"},"vehicle_type_id":"4","last_reported":1702642406,"current_range_meters":25600,"station_id":"ce4bgrp2rcd13ifvqc9g","pricing_plan_id":"free"},{"bike_id":"ca661059-53c5-466a-8ed8-745d878c0f24","system_id":"levelo_inurba_marseille","lat":43.30543,"lon":5.36567,"is_reserved":false,"is_disabled":false,"rental_uris":{"android":"levelo://app?vid=ca661059-53c5-466a-8ed8-745d878c0f24","ios":"levelo://app?vid=ca661059-53c5-466a-8ed8-745d878c0f24"},"vehicle_type_id":"4","last_reported":1702642406,"current_range_meters":14800,"station_id":"ce4bgs12rcd13ifvqcag","pricing_plan_id":"free"},{"bike_id":"18a9f65f-e97c-40ee-bcc3-1b1c7dd5dd34","system_id":"levelo_inurba_marseille","lat":43.305447,"lon":5.365302,"is_reserved":false,"is_disabled":false,"rental_uris":{"android":"levelo://app?vid=18a9f65f-e97c-40ee-bcc3-1b1c7dd5dd34","ios":"levelo://app?vid=18a9f65f-e97c-40ee-bcc3-1b1c7dd5dd34"},"vehicle_type_id":"4","last_reported":1702642406,"current_range_meters":31200,"station_id":"ce4bgs12rcd13ifvqcag","pricing_plan_id":"free"},{"bike_id":"8c6c4dc6-846c-4b18-a416-2708d49d308f","system_id":"levelo_inurba_marseille","lat":43.305706,"lon":5.365654,"is_reserved":false,"is_disabled":false,"rental_uris":{"android":"levelo://app?vid=8c6c4dc6-846c-4b18-a416-2708d49d308f","ios":"levelo://app?vid=8c6c4dc6-846c-4b18-a416-2708d49d308f"},"vehicle_type_id":"4","last_reported":1702642406,"current_range_meters":18800,"station_id":"ce4bgs12rcd13ifvqcag","pricing_plan_id":"free"},{"bike_id":"14e93773-de84-4db5-b826-dff4c80b188c","system_id":"levelo_inurba_marseille","lat":43.30532,"lon":5.36699,"is_reserved":false,"is_disabled":false,"rental_uris":{"android":"levelo://app?vid=14e93773-de84-4db5-b826-dff4c80b188c","ios":"levelo://app?vid=14e93773-de84-4db5-b826-dff4c80b188c"},"vehicle_type_id":"4","last_reported":1702642406,"current_range_meters":19600,"station_id":"ce4bgrp2rcd13ifvqc9g","pricing_plan_id":"free"},{"bike_id":"157a8f3a-68c6-4c32-aea5-7295b93ec660","system_id":"levelo_inurba_marseille","lat":43.30531,"lon":5.36702,"is_reserved":false,"is_disabled":false,"rental_uris":{"android":"levelo://app?vid=157a8f3a-68c6-4c32-aea5-7295b93ec660","ios":"levelo://app?vid=157a8f3a-68c6-4c32-aea5-7295b93ec660"},"vehicle_type_id":"4","last_reported":1702642406,"current_range_meters":23200,"station_id":"ce4bgrp2rcd13ifvqc9g","pricing_plan_id":"free"},{"bike_id":"955e4ab2-16e5-44e8-a986-a2f50ff96c06","system_id":"levelo_inurba_marseille","lat":43.305382,"lon":5.365389,"is_reserved":false,"is_disabled":false,"rental_uris":{"android":"levelo://app?vid=955e4ab2-16e5-44e8-a986-a2f50ff96c06","ios":"levelo://app?vid=955e4ab2-16e5-44e8-a986-a2f50ff96c06"},"vehicle_type_id":"4","last_reported":1702642406,"current_range_meters":19600,"station_id":"","pricing_plan_id":"free"},{"bike_id":"d500779a-cdab-4b60-b0a2-0288c5e71d87","system_id":"levelo_inurba_marseille","lat":43.305706,"lon":5.365654,"is_reserved":false,"is_disabled":false,"rental_uris":{"android":"levelo://app?vid=d500779a-cdab-4b60-b0a2-0288c5e71d87","ios":"levelo://app?vid=d500779a-cdab-4b60-b0a2-0288c5e71d87"},"vehicle_type_id":"4","last_reported":1702642406,"current_range_meters":26800,"station_id":"ce4bgs12rcd13ifvqcag","pricing_plan_id":"free"},{"bike_id":"1505f857-09f3-4f54-8aec-690c15e0b4d2","system_id":"levelo_inurba_marseille","lat":43.30537,"lon":5.367345,"is_reserved":false,"is_disabled":false,"rental_uris":{"android":"levelo://app?vid=1505f857-09f3-4f54-8aec-690c15e0b4d2","ios":"levelo://app?vid=1505f857-09f3-4f54-8aec-690c15e0b4d2"},"vehicle_type_id":"4","last_reported":1702642406,"current_range_meters":0,"station_id":"ce4bgrp2rcd13ifvqc9g","pricing_plan_id":"free"},{"bike_id":"0a7635bc-469c-4e65-8a51-9fadfb187576","system_id":"levelo_inurba_marseille","lat":43.305706,"lon":5.365654,"is_reserved":false,"is_disabled":false,"rental_uris":{"android":"levelo://app?vid=0a7635bc-469c-4e65-8a51-9fadfb187576","ios":"levelo://app?vid=0a7635bc-469c-4e65-8a51-9fadfb187576"},"vehicle_type_id":"4","last_reported":1702642406,"current_range_meters":10000,"station_id":"ce4bgs12rcd13ifvqcag","pricing_plan_id":"free"},{"bike_id":"850d97d9-fabe-40c2-bad0-029ca2103835","system_id":"levelo_inurba_marseille","lat":43.305706,"lon":5.365654,"is_reserved":false,"is_disabled":false,"rental_uris":{"android":"levelo://app?vid=850d97d9-fabe-40c2-bad0-029ca2103835","ios":"levelo://app?vid=850d97d9-fabe-40c2-bad0-029ca2103835"},"vehicle_type_id":"4","last_reported":1702642406,"current_range_meters":27200,"station_id":"ce4bgs12rcd13ifvqcag","pricing_plan_id":"free"},{"bike_id":"23a76755-2585-4c93-a187-d2ff6c53cfb4","system_id":"levelo_inurba_marseille","lat":43.305706,"lon":5.365654,"is_reserved":false,"is_disabled":false,"rental_uris":{"android":"levelo://app?vid=23a76755-2585-4c93-a187-d2ff6c53cfb4","ios":"levelo://app?vid=23a76755-2585-4c93-a187-d2ff6c53cfb4"},"vehicle_type_id":"4","last_reported":1702642406,"current_range_meters":6400,"station_id":"ce4bgs12rcd13ifvqcag","pricing_plan_id":"free"},{"bike_id":"ea90133d-bf35-4e95-bb67-746ac9b8d0d3","system_id":"levelo_inurba_marseille","lat":43.305706,"lon":5.365654,"is_reserved":false,"is_disabled":false,"rental_uris":{"android":"levelo://app?vid=ea90133d-bf35-4e95-bb67-746ac9b8d0d3","ios":"levelo://app?vid=ea90133d-bf35-4e95-bb67-746ac9b8d0d3"},"vehicle_type_id":"4","last_reported":1702642406,"current_range_meters":30800,"station_id":"ce4bgs12rcd13ifvqcag","pricing_plan_id":"free"},{"bike_id":"95c5359e-f913-40bc-92c0-3ea7c91e9cf3","system_id":"levelo_inurba_marseille","lat":43.305706,"lon":5.365654,"is_reserved":false,"is_disabled":false,"rental_uris":{"android":"levelo://app?vid=95c5359e-f913-40bc-92c0-3ea7c91e9cf3","ios":"levelo://app?vid=95c5359e-f913-40bc-92c0-3ea7c91e9cf3"},"vehicle_type_id":"4","last_reported":1702642406,"current_range_meters":31600,"station_id":"ce4bgs12rcd13ifvqcag","pricing_plan_id":"free"},{"bike_id":"aacfe432-6ac6-4f6e-9473-0a63d1707f5c","system_id":"levelo_inurba_marseille","lat":43.305706,"lon":5.365654,"is_reserved":false,"is_disabled":false,"rental_uris":{"android":"levelo://app?vid=aacfe432-6ac6-4f6e-9473-0a63d1707f5c","ios":"levelo://app?vid=aacfe432-6ac6-4f6e-9473-0a63d1707f5c"},"vehicle_type_id":"4","last_reported":1702642406,"current_range_meters":2800,"station_id":"ce4bgs12rcd13ifvqcag","pricing_plan_id":"free"},{"bike_id":"a24100f2-6684-443a-bf80-99c027d968c6","system_id":"levelo_inurba_marseille","lat":43.305706,"lon":5.365654,"is_reserved":false,"is_disabled":false,"rental_uris":{"android":"levelo://app?vid=a24100f2-6684-443a-bf80-99c027d968c6","ios":"levelo://app?vid=a24100f2-6684-443a-bf80-99c027d968c6"},"vehicle_type_id":"4","last_reported":1702642406,"current_range_meters":23200,"station_id":"ce4bgs12rcd13ifvqcag","pricing_plan_id":"free"},{"bike_id":"5e40f3f1-6d37-4fc1-a04e-e206e3e1f52e","system_id":"levelo_inurba_marseille","lat":43.30796,"lon":5.37658,"is_reserved":false,"is_disabled":false,"rental_uris":{"android":"levelo://app?vid=5e40f3f1-6d37-4fc1-a04e-e206e3e1f52e","ios":"levelo://app?vid=5e40f3f1-6d37-4fc1-a04e-e206e3e1f52e"},"vehicle_type_id":"4","last_reported":1702642406,"current_range_meters":8400,"station_id":"ce4bgv92rcd13ifvqcq0","pricing_plan_id":"free"},{"bike_id":"aa1194f3-20a8-4044-9420-7afd9ef77560","system_id":"levelo_inurba_marseille","lat":43.30304,"lon":5.368987,"is_reserved":false,"is_disabled":false,"rental_uris":{"android":"levelo://app?vid=aa1194f3-20a8-4044-9420-7afd9ef77560","ios":"levelo://app?vid=aa1194f3-20a8-4044-9420-7afd9ef77560"},"vehicle_type_id":"4","last_reported":1702642406,"current_range_meters":14800,"station_id":"ce4bgqh2rcd13ifvqc5g","pricing_plan_id":"free"},{"bike_id":"515fcf81-5d12-430d-b05f-57e0c8d72f53","system_id":"levelo_inurba_marseille","lat":43.303046,"lon":5.368981,"is_reserved":false,"is_disabled":false,"rental_uris":{"android":"levelo://app?vid=515fcf81-5d12-430d-b05f-57e0c8d72f53","ios":"levelo://app?vid=515fcf81-5d12-430d-b05f-57e0c8d72f53"},"vehicle_type_id":"4","last_reported":1702642406,"current_range_meters":22400,"station_id":"ce4bgqh2rcd13ifvqc5g","pricing_plan_id":"free"},{"bike_id":"0f1ec8ec-18b5-4729-8d02-3b824b3e7c12","system_id":"levelo_inurba_marseille","lat":43.31532,"lon":5.3804,"is_reserved":false,"is_disabled":false,"rental_uris":{"android":"levelo://app?vid=0f1ec8ec-18b5-4729-8d02-3b824b3e7c12","ios":"levelo://app?vid=0f1ec8ec-18b5-4729-8d02-3b824b3e7c12"},"vehicle_type_id":"4","last_reported":1702642406,"current_range_meters":28400,"station_id":"ce4bhsp2rcd13ifvqi50","pricing_plan_id":"free"},{"bike_id":"e1d261b2-96b1-4ebc-be9f-21a322245f21","system_id":"levelo_inurba_marseille","lat":43.301939,"lon":5.366286,"is_reserved":false,"is_disabled":false,"rental_uris":{"android":"levelo://app?vid=e1d261b2-96b1-4ebc-be9f-21a322245f21","ios":"levelo://app?vid=e1d261b2-96b1-4ebc-be9f-21a322245f21"},"vehicle_type_id":"4","last_reported":1702642406,"current_range_meters":23200,"station_id":"ce4bgrh2rcd13ifvqc8g","pricing_plan_id":"free"},{"bike_id":"eb390be1-7df7-4d5f-b775-4af93f5546b1","system_id":"levelo_inurba_marseille","lat":43.301939,"lon":5.366286,"is_reserved":false,"is_disabled":false,"rental_uris":{"android":"levelo://app?vid=eb390be1-7df7-4d5f-b775-4af93f5546b1","ios":"levelo://app?vid=eb390be1-7df7-4d5f-b775-4af93f5546b1"},"vehicle_type_id":"4","last_reported":1702642406,"current_range_meters":11200,"station_id":"ce4bgrh2rcd13ifvqc8g","pricing_plan_id":"free"},{"bike_id":"d9916cec-d06f-4151-ad13-fa5d8c3e21f5","system_id":"levelo_inurba_marseille","lat":43.304753,"lon":5.379077,"is_reserved":false,"is_disabled":false,"rental_uris":{"android":"levelo://app?vid=d9916cec-d06f-4151-ad13-fa5d8c3e21f5","ios":"levelo://app?vid=d9916cec-d06f-4151-ad13-fa5d8c3e21f5"},"vehicle_type_id":"4","last_reported":1702642406,"current_range_meters":16400,"station_id":"ce4bgup2rcd13ifvqcn0","pricing_plan_id":"free"},{"bike_id":"4265c6ff-7e79-4ea1-921d-0e654ddba6aa","system_id":"levelo_inurba_marseille","lat":43.324771,"lon":5.36557,"is_reserved":false,"is_disabled":false,"rental_uris":{"android":"levelo://app?vid=4265c6ff-7e79-4ea1-921d-0e654ddba6aa","ios":"levelo://app?vid=4265c6ff-7e79-4ea1-921d-0e654ddba6aa"},"vehicle_type_id":"4","last_reported":1702642406,"current_range_meters":20000,"station_id":"ce4bhs12rcd13ifvqhvg","pricing_plan_id":"free"},{"bike_id":"88f7ea2a-62f7-4a88-9e9d-900940b4d7e5","system_id":"levelo_inurba_marseille","lat":43.32485,"lon":5.3656,"is_reserved":false,"is_disabled":false,"rental_uris":{"android":"levelo://app?vid=88f7ea2a-62f7-4a88-9e9d-900940b4d7e5","ios":"levelo://app?vid=88f7ea2a-62f7-4a88-9e9d-900940b4d7e5"},"vehicle_type_id":"4","last_reported":1702642406,"current_range_meters":20800,"station_id":"ce4bhs12rcd13ifvqhvg","pricing_plan_id":"free"},{"bike_id":"36eb7f1b-e120-4e23-821d-34fca9a67d75","system_id":"levelo_inurba_marseille","lat":43.30284,"lon":5.37694,"is_reserved":false,"is_disabled":false,"rental_uris":{"android":"levelo://app?vid=36eb7f1b-e120-4e23-821d-34fca9a67d75","ios":"levelo://app?vid=36eb7f1b-e120-4e23-821d-34fca9a67d75"},"vehicle_type_id":"4","last_reported":1702642406,"current_range_meters":0,"station_id":"ce4bguh2rcd13ifvqcj0","pricing_plan_id":"free"},{"bike_id":"d2175bd4-6c3a-481b-aad6-2e99c3b2ffef","system_id":"levelo_inurba_marseille","lat":43.30142,"lon":5.37412,"is_reserved":false,"is_disabled":false,"rental_uris":{"android":"levelo://app?vid=d2175bd4-6c3a-481b-aad6-2e99c3b2ffef","ios":"levelo://app?vid=d2175bd4-6c3a-481b-aad6-2e99c3b2ffef"},"vehicle_type_id":"4","last_reported":1702642406,"current_range_meters":0,"station_id":"ce4bgs92rcd13ifvqcc0","pricing_plan_id":"free"},{"bike_id":"fdcd74e0-5fce-436e-805d-ade6ef010660","system_id":"levelo_inurba_marseille","lat":43.319935,"lon":5.381699,"is_reserved":false,"is_disabled":false,"rental_uris":{"android":"levelo://app?vid=fdcd74e0-5fce-436e-805d-ade6ef010660","ios":"levelo://app?vid=fdcd74e0-5fce-436e-805d-ade6ef010660"},"vehicle_type_id":"4","last_reported":1702642406,"current_range_meters":0,"station_id":"ce4bhr12rcd13ifvqhpg","pricing_plan_id":"free"},{"bike_id":"e6533872-bfd6-4009-bf18-4ad359d0f0f7","system_id":"levelo_inurba_marseille","lat":43.30642,"lon":5.401031,"is_reserved":false,"is_disabled":false,"rental_uris":{"android":"levelo://app?vid=e6533872-bfd6-4009-bf18-4ad359d0f0f7","ios":"levelo://app?vid=e6533872-bfd6-4009-bf18-4ad359d0f0f7"},"vehicle_type_id":"4","last_reported":1702642406,"current_range_meters":24000,"station_id":"ce4bh112rcd13ifvqda0","pricing_plan_id":"free"},{"bike_id":"4b0c5801-9606-4922-b810-8359e762fa30","system_id":"levelo_inurba_marseille","lat":43.298433,"lon":5.362774,"is_reserved":false,"is_disabled":false,"rental_uris":{"android":"levelo://app?vid=4b0c5801-9606-4922-b810-8359e762fa30","ios":"levelo://app?vid=4b0c5801-9606-4922-b810-8359e762fa30"},"vehicle_type_id":"4","last_reported":1702642406,"current_range_meters":30400,"station_id":"ce4bgpp2rcd13ifvqc3g","pricing_plan_id":"free"},{"bike_id":"742eae4d-6582-45a6-8046-6905cc7ff493","system_id":"levelo_inurba_marseille","lat":43.298433,"lon":5.362774,"is_reserved":false,"is_disabled":false,"rental_uris":{"android":"levelo://app?vid=742eae4d-6582-45a6-8046-6905cc7ff493","ios":"levelo://app?vid=742eae4d-6582-45a6-8046-6905cc7ff493"},"vehicle_type_id":"4","last_reported":1702642406,"current_range_meters":11200,"station_id":"ce4bgpp2rcd13ifvqc3g","pricing_plan_id":"free"},{"bike_id":"94dc8d4f-92ce-4f18-9f3e-dffdb24aaef5","system_id":"levelo_inurba_marseille","lat":43.328371,"lon":5.366909,"is_reserved":false,"is_disabled":false,"rental_uris":{"android":"levelo://app?vid=94dc8d4f-92ce-4f18-9f3e-dffdb24aaef5","ios":"levelo://app?vid=94dc8d4f-92ce-4f18-9f3e-dffdb24aaef5"},"vehicle_type_id":"4","last_reported":1702642406,"current_range_meters":16800,"station_id":"ce4bhs92rcd13ifvqi0g","pricing_plan_id":"free"},{"bike_id":"e3e0595a-d2b3-4ffe-92de-ddb8bd1e34eb","system_id":"levelo_inurba_marseille","lat":43.2968,"lon":5.37291,"is_reserved":false,"is_disabled":false,"rental_uris":{"android":"levelo://app?vid=e3e0595a-d2b3-4ffe-92de-ddb8bd1e34eb","ios":"levelo://app?vid=e3e0595a-d2b3-4ffe-92de-ddb8bd1e34eb"},"vehicle_type_id":"4","last_reported":1702642406,"current_range_meters":25600,"station_id":"ce4bgk12rcd13ifvqbj0","pricing_plan_id":"free"},{"bike_id":"1bd0d437-ea21-4bf9-8661-f65417dfce1e","system_id":"levelo_inurba_marseille","lat":43.2968,"lon":5.37291,"is_reserved":false,"is_disabled":false,"rental_uris":{"android":"levelo://app?vid=1bd0d437-ea21-4bf9-8661-f65417dfce1e","ios":"levelo://app?vid=1bd0d437-ea21-4bf9-8661-f65417dfce1e"},"vehicle_type_id":"4","last_reported":1702642406,"current_range_meters":25600,"station_id":"ce4bgk12rcd13ifvqbj0","pricing_plan_id":"free"},{"bike_id":"1b11e655-3ede-4537-a2c3-9ba60c2b25a3","system_id":"levelo_inurba_marseille","lat":43.29584,"lon":5.367481,"is_reserved":false,"is_disabled":false,"rental_uris":{"android":"levelo://app?vid=1b11e655-3ede-4537-a2c3-9ba60c2b25a3","ios":"levelo://app?vid=1b11e655-3ede-4537-a2c3-9ba60c2b25a3"},"vehicle_type_id":"4","last_reported":1702642406,"current_range_meters":18800,"station_id":"ce4bgph2rcd13ifvqc2g","pricing_plan_id":"free"},{"bike_id":"387ff9b9-61cb-43f8-aeed-7e92a6a15fff","system_id":"levelo_inurba_marseille","lat":43.296921,"lon":5.376579,"is_reserved":false,"is_disabled":false,"rental_uris":{"android":"levelo://app?vid=387ff9b9-61cb-43f8-aeed-7e92a6a15fff","ios":"levelo://app?vid=387ff9b9-61cb-43f8-aeed-7e92a6a15fff"},"vehicle_type_id":"4","last_reported":1702642406,"current_range_meters":18800,"station_id":"ce4bgkh2rcd13ifvqbl0","pricing_plan_id":"free"},{"bike_id":"d2eb33bb-ecf8-45b0-b294-b9761f27ff03","system_id":"levelo_inurba_marseille","lat":43.298029,"lon":5.381025,"is_reserved":false,"is_disabled":false,"rental_uris":{"android":"levelo://app?vid=d2eb33bb-ecf8-45b0-b294-b9761f27ff03","ios":"levelo://app?vid=d2eb33bb-ecf8-45b0-b294-b9761f27ff03"},"vehicle_type_id":"4","last_reported":1702642406,"current_range_meters":11600,"station_id":"ce4bgip2rcd13ifvqbb0","pricing_plan_id":"free"},{"bike_id":"f9b98c94-3bd2-4bc6-bfac-22d33c646230","system_id":"levelo_inurba_marseille","lat":43.29797,"lon":5.381,"is_reserved":false,"is_disabled":false,"rental_uris":{"android":"levelo://app?vid=f9b98c94-3bd2-4bc6-bfac-22d33c646230","ios":"levelo://app?vid=f9b98c94-3bd2-4bc6-bfac-22d33c646230"},"vehicle_type_id":"4","last_reported":1702642406,"current_range_meters":22000,"station_id":"ce4bgip2rcd13ifvqbb0","pricing_plan_id":"free"},{"bike_id":"61447082-46e9-4379-93fb-606fc57fa83b","system_id":"levelo_inurba_marseille","lat":43.29798,"lon":5.38107,"is_reserved":false,"is_disabled":false,"rental_uris":{"android":"levelo://app?vid=61447082-46e9-4379-93fb-606fc57fa83b","ios":"levelo://app?vid=61447082-46e9-4379-93fb-606fc57fa83b"},"vehicle_type_id":"4","last_reported":1702642406,"current_range_meters":18000,"station_id":"ce4bgip2rcd13ifvqbb0","pricing_plan_id":"free"},{"bike_id":"a4537b89-972d-4a05-9a62-f4ae3079eaa2","system_id":"levelo_inurba_marseille","lat":43.304274,"lon":5.388873,"is_reserved":false,"is_disabled":false,"rental_uris":{"android":"levelo://app?vid=a4537b89-972d-4a05-9a62-f4ae3079eaa2","ios":"levelo://app?vid=a4537b89-972d-4a05-9a62-f4ae3079eaa2"},"vehicle_type_id":"4","last_reported":1702642406,"current_range_meters":16400,"station_id":"ce4bgk12rcd13ifvqbi0","pricing_plan_id":"free"},{"bike_id":"1593638b-b13e-4984-bb58-dfbeb23fa5a1","system_id":"levelo_inurba_marseille","lat":43.299707,"lon":5.384859,"is_reserved":false,"is_disabled":false,"rental_uris":{"android":"levelo://app?vid=1593638b-b13e-4984-bb58-dfbeb23fa5a1","ios":"levelo://app?vid=1593638b-b13e-4984-bb58-dfbeb23fa5a1"},"vehicle_type_id":"4","last_reported":1702642406,"current_range_meters":24800,"station_id":"ce4bgj92rcd13ifvqbd0","pricing_plan_id":"free"},{"bike_id":"3456c3a7-316c-4685-b0f1-b0a897a5eef6","system_id":"levelo_inurba_marseille","lat":43.299717,"lon":5.384845,"is_reserved":false,"is_disabled":false,"rental_uris":{"android":"levelo://app?vid=3456c3a7-316c-4685-b0f1-b0a897a5eef6","ios":"levelo://app?vid=3456c3a7-316c-4685-b0f1-b0a897a5eef6"},"vehicle_type_id":"4","last_reported":1702642406,"current_range_meters":21600,"station_id":"ce4bgj92rcd13ifvqbd0","pricing_plan_id":"free"},{"bike_id":"298ebd5a-0299-4d1f-88cf-325b9cf61e26","system_id":"levelo_inurba_marseille","lat":43.32365,"lon":5.38884,"is_reserved":false,"is_disabled":false,"rental_uris":{"android":"levelo://app?vid=298ebd5a-0299-4d1f-88cf-325b9cf61e26","ios":"levelo://app?vid=298ebd5a-0299-4d1f-88cf-325b9cf61e26"},"vehicle_type_id":"4","last_reported":1702642406,"current_range_meters":4400,"station_id":"ce4bhqp2rcd13ifvqhog","pricing_plan_id":"free"},{"bike_id":"d1382dc1-00b3-4f0b-9c4f-b6ca2ec91563","system_id":"levelo_inurba_marseille","lat":43.305994,"lon":5.393687,"is_reserved":false,"is_disabled":false,"rental_uris":{"android":"levelo://app?vid=d1382dc1-00b3-4f0b-9c4f-b6ca2ec91563","ios":"levelo://app?vid=d1382dc1-00b3-4f0b-9c4f-b6ca2ec91563"},"vehicle_type_id":"4","last_reported":1702642406,"current_range_meters":22400,"station_id":"ce4bh0p2rcd13ifvqd80","pricing_plan_id":"free"},{"bike_id":"cf764199-823e-413c-b71d-a395ea93eb6f","system_id":"levelo_inurba_marseille","lat":43.302992,"lon":5.392136,"is_reserved":false,"is_disabled":false,"rental_uris":{"android":"levelo://app?vid=cf764199-823e-413c-b71d-a395ea93eb6f","ios":"levelo://app?vid=cf764199-823e-413c-b71d-a395ea93eb6f"},"vehicle_type_id":"4","last_reported":1702642406,"current_range_meters":17600,"station_id":"ce4bgkh2rcd13ifvqbk0","pricing_plan_id":"free"},{"bike_id":"422371ca-3367-47e4-a55f-f1bb28e7187c","system_id":"levelo_inurba_marseille","lat":43.291675,"lon":5.371583,"is_reserved":false,"is_disabled":false,"rental_uris":{"android":"levelo://app?vid=422371ca-3367-47e4-a55f-f1bb28e7187c","ios":"levelo://app?vid=422371ca-3367-47e4-a55f-f1bb28e7187c"},"vehicle_type_id":"4","last_reported":1702642406,"current_range_meters":17600,"station_id":"ce4bha92rcd13ifvqeh0","pricing_plan_id":"free"},{"bike_id":"6b4db107-537c-4693-9648-a07bdad4c822","system_id":"levelo_inurba_marseille","lat":43.290779,"lon":5.371482,"is_reserved":false,"is_disabled":false,"rental_uris":{"android":"levelo://app?vid=6b4db107-537c-4693-9648-a07bdad4c822","ios":"levelo://app?vid=6b4db107-537c-4693-9648-a07bdad4c822"},"vehicle_type_id":"4","last_reported":1702642406,"current_range_meters":23600,"station_id":"ce4bh5p2rcd13ifvqe4g","pricing_plan_id":"free"},{"bike_id":"10287fb1-6bda-4aec-b479-019c437080cc","system_id":"levelo_inurba_marseille","lat":43.290631,"lon":5.359244,"is_reserved":false,"is_disabled":false,"rental_uris":{"android":"levelo://app?vid=10287fb1-6bda-4aec-b479-019c437080cc","ios":"levelo://app?vid=10287fb1-6bda-4aec-b479-019c437080cc"},"vehicle_type_id":"4","last_reported":1702642406,"current_range_meters":15200,"station_id":"ce4bha92rcd13ifvqeg0","pricing_plan_id":"free"},{"bike_id":"f4e93b08-d33a-492f-9e22-bd4606572033","system_id":"levelo_inurba_marseille","lat":43.294153,"lon":5.386305,"is_reserved":false,"is_disabled":false,"rental_uris":{"android":"levelo://app?vid=f4e93b08-d33a-492f-9e22-bd4606572033","ios":"levelo://app?vid=f4e93b08-d33a-492f-9e22-bd4606572033"},"vehicle_type_id":"4","last_reported":1702642406,"current_range_meters":26800,"station_id":"ce4bh2h2rcd13ifvqdh0","pricing_plan_id":"free"},{"bike_id":"a434cc3b-4b24-430b-9702-dd93274f439f","system_id":"levelo_inurba_marseille","lat":43.294153,"lon":5.386305,"is_reserved":false,"is_disabled":false,"rental_uris":{"android":"levelo://app?vid=a434cc3b-4b24-430b-9702-dd93274f439f","ios":"levelo://app?vid=a434cc3b-4b24-430b-9702-dd93274f439f"},"vehicle_type_id":"4","last_reported":1702642406,"current_range_meters":14000,"station_id":"ce4bh2h2rcd13ifvqdh0","pricing_plan_id":"free"},{"bike_id":"2c9ae7c7-a9f9-4fe4-8d19-857657e2ff8a","system_id":"levelo_inurba_marseille","lat":43.294162,"lon":5.386292,"is_reserved":false,"is_disabled":false,"rental_uris":{"android":"levelo://app?vid=2c9ae7c7-a9f9-4fe4-8d19-857657e2ff8a","ios":"levelo://app?vid=2c9ae7c7-a9f9-4fe4-8d19-857657e2ff8a"},"vehicle_type_id":"4","last_reported":1702642406,"current_range_meters":15600,"station_id":"ce4bh2h2rcd13ifvqdh0","pricing_plan_id":"free"},{"bike_id":"d8679d54-4654-4555-a5f1-593d1302fad0","system_id":"levelo_inurba_marseille","lat":43.294153,"lon":5.386305,"is_reserved":false,"is_disabled":false,"rental_uris":{"android":"levelo://app?vid=d8679d54-4654-4555-a5f1-593d1302fad0","ios":"levelo://app?vid=d8679d54-4654-4555-a5f1-593d1302fad0"},"vehicle_type_id":"4","last_reported":1702642406,"current_range_meters":14800,"station_id":"ce4bh2h2rcd13ifvqdh0","pricing_plan_id":"free"},{"bike_id":"cfdebcac-4307-4294-b9db-bca32b40a1dc","system_id":"levelo_inurba_marseille","lat":43.289184,"lon":5.366408,"is_reserved":false,"is_disabled":false,"rental_uris":{"android":"levelo://app?vid=cfdebcac-4307-4294-b9db-bca32b40a1dc","ios":"levelo://app?vid=cfdebcac-4307-4294-b9db-bca32b40a1dc"},"vehicle_type_id":"4","last_reported":1702642406,"current_range_meters":2800,"station_id":"ce4bhap2rcd13ifvqek0","pricing_plan_id":"free"},{"bike_id":"9553f02f-64c1-40cc-9401-1d093192f144","system_id":"levelo_inurba_marseille","lat":43.292644,"lon":5.384257,"is_reserved":false,"is_disabled":false,"rental_uris":{"android":"levelo://app?vid=9553f02f-64c1-40cc-9401-1d093192f144","ios":"levelo://app?vid=9553f02f-64c1-40cc-9401-1d093192f144"},"vehicle_type_id":"4","last_reported":1702642406,"current_range_meters":18800,"station_id":"ce4bh692rcd13ifvqea0","pricing_plan_id":"free"},{"bike_id":"a54dd097-81af-4c03-abb5-d0ade94c7cbc","system_id":"levelo_inurba_marseille","lat":43.292644,"lon":5.384257,"is_reserved":false,"is_disabled":false,"rental_uris":{"android":"levelo://app?vid=a54dd097-81af-4c03-abb5-d0ade94c7cbc","ios":"levelo://app?vid=a54dd097-81af-4c03-abb5-d0ade94c7cbc"},"vehicle_type_id":"4","last_reported":1702642406,"current_range_meters":28400,"station_id":"ce4bh692rcd13ifvqea0","pricing_plan_id":"free"},{"bike_id":"18c9af87-0b14-480d-a816-588b7a915ed6","system_id":"levelo_inurba_marseille","lat":43.292642,"lon":5.384254,"is_reserved":false,"is_disabled":false,"rental_uris":{"android":"levelo://app?vid=18c9af87-0b14-480d-a816-588b7a915ed6","ios":"levelo://app?vid=18c9af87-0b14-480d-a816-588b7a915ed6"},"vehicle_type_id":"4","last_reported":1702642406,"current_range_meters":11600,"station_id":"ce4bh692rcd13ifvqea0","pricing_plan_id":"free"},{"bike_id":"a9c8e1ee-0ebc-43f0-ba70-0326f35d2889","system_id":"levelo_inurba_marseille","lat":43.292642,"lon":5.384254,"is_reserved":false,"is_disabled":false,"rental_uris":{"android":"levelo://app?vid=a9c8e1ee-0ebc-43f0-ba70-0326f35d2889","ios":"levelo://app?vid=a9c8e1ee-0ebc-43f0-ba70-0326f35d2889"},"vehicle_type_id":"4","last_reported":1702642406,"current_range_meters":28400,"station_id":"ce4bh692rcd13ifvqea0","pricing_plan_id":"free"},{"bike_id":"248ee67f-fdac-412d-8257-0f725ea3d607","system_id":"levelo_inurba_marseille","lat":43.33037,"lon":5.38922,"is_reserved":false,"is_disabled":false,"rental_uris":{"android":"levelo://app?vid=248ee67f-fdac-412d-8257-0f725ea3d607","ios":"levelo://app?vid=248ee67f-fdac-412d-8257-0f725ea3d607"},"vehicle_type_id":"4","last_reported":1702642406,"current_range_meters":12800,"station_id":"ce4bhr92rcd13ifvqhrg","pricing_plan_id":"free"},{"bike_id":"af683763-83a5-4267-a077-10844ebff2db","system_id":"levelo_inurba_marseille","lat":43.290104,"lon":5.356111,"is_reserved":false,"is_disabled":false,"rental_uris":{"android":"levelo://app?vid=af683763-83a5-4267-a077-10844ebff2db","ios":"levelo://app?vid=af683763-83a5-4267-a077-10844ebff2db"},"vehicle_type_id":"4","last_reported":1702642406,"current_range_meters":15600,"station_id":"ce4bhb92rcd13ifvqen0","pricing_plan_id":"free"},{"bike_id":"5189608a-bffc-408f-b64c-1779f910f651","system_id":"levelo_inurba_marseille","lat":43.290104,"lon":5.356111,"is_reserved":false,"is_disabled":false,"rental_uris":{"android":"levelo://app?vid=5189608a-bffc-408f-b64c-1779f910f651","ios":"levelo://app?vid=5189608a-bffc-408f-b64c-1779f910f651"},"vehicle_type_id":"4","last_reported":1702642406,"current_range_meters":14000,"station_id":"ce4bhb92rcd13ifvqen0","pricing_plan_id":"free"},{"bike_id":"b40991f1-909d-4daa-a83b-1286bad3730d","system_id":"levelo_inurba_marseille","lat":43.290103,"lon":5.356114,"is_reserved":false,"is_disabled":false,"rental_uris":{"android":"levelo://app?vid=b40991f1-909d-4daa-a83b-1286bad3730d","ios":"levelo://app?vid=b40991f1-909d-4daa-a83b-1286bad3730d"},"vehicle_type_id":"4","last_reported":1702642406,"current_range_meters":16800,"station_id":"ce4bhb92rcd13ifvqen0","pricing_plan_id":"free"},{"bike_id":"dcd8c778-d23a-4d6b-9b49-5853bd897683","system_id":"levelo_inurba_marseille","lat":43.29776,"lon":5.39344,"is_reserved":false,"is_disabled":false,"rental_uris":{"android":"levelo://app?vid=dcd8c778-d23a-4d6b-9b49-5853bd897683","ios":"levelo://app?vid=dcd8c778-d23a-4d6b-9b49-5853bd897683"},"vehicle_type_id":"4","last_reported":1702642406,"current_range_meters":30800,"station_id":"chh1huq6cuj3fo74tm60","pricing_plan_id":"free"},{"bike_id":"13f07548-455e-45e2-bc2e-ce7dc90388c2","system_id":"levelo_inurba_marseille","lat":43.295169,"lon":5.390426,"is_reserved":false,"is_disabled":false,"rental_uris":{"android":"levelo://app?vid=13f07548-455e-45e2-bc2e-ce7dc90388c2","ios":"levelo://app?vid=13f07548-455e-45e2-bc2e-ce7dc90388c2"},"vehicle_type_id":"4","last_reported":1702642406,"current_range_meters":26400,"station_id":"ce4bh3p2rcd13ifvqdp0","pricing_plan_id":"free"},{"bike_id":"1e0967fd-3a9c-4b66-a4aa-347c02a9e244","system_id":"levelo_inurba_marseille","lat":43.28856,"lon":5.358371,"is_reserved":false,"is_disabled":false,"rental_uris":{"android":"levelo://app?vid=1e0967fd-3a9c-4b66-a4aa-347c02a9e244","ios":"levelo://app?vid=1e0967fd-3a9c-4b66-a4aa-347c02a9e244"},"vehicle_type_id":"4","last_reported":1702642406,"current_range_meters":18800,"station_id":"ce4bhb12rcd13ifvqem0","pricing_plan_id":"free"},{"bike_id":"ba0ee73b-c5f1-4cef-a929-860bc019b7de","system_id":"levelo_inurba_marseille","lat":43.312609,"lon":5.401662,"is_reserved":false,"is_disabled":false,"rental_uris":{"android":"levelo://app?vid=ba0ee73b-c5f1-4cef-a929-860bc019b7de","ios":"levelo://app?vid=ba0ee73b-c5f1-4cef-a929-860bc019b7de"},"vehicle_type_id":"4","last_reported":1702642406,"current_range_meters":25600,"station_id":"ce4bh092rcd13ifvqd30","pricing_plan_id":"free"},{"bike_id":"e5e97f74-e4a8-4bb6-ad54-01574dddc219","system_id":"levelo_inurba_marseille","lat":43.312609,"lon":5.401662,"is_reserved":false,"is_disabled":false,"rental_uris":{"android":"levelo://app?vid=e5e97f74-e4a8-4bb6-ad54-01574dddc219","ios":"levelo://app?vid=e5e97f74-e4a8-4bb6-ad54-01574dddc219"},"vehicle_type_id":"4","last_reported":1702642406,"current_range_meters":7200,"station_id":"ce4bh092rcd13ifvqd30","pricing_plan_id":"free"},{"bike_id":"b2f72c8b-ad2a-45cb-9df0-b359d62bdb89","system_id":"levelo_inurba_marseille","lat":43.312609,"lon":5.401662,"is_reserved":false,"is_disabled":false,"rental_uris":{"android":"levelo://app?vid=b2f72c8b-ad2a-45cb-9df0-b359d62bdb89","ios":"levelo://app?vid=b2f72c8b-ad2a-45cb-9df0-b359d62bdb89"},"vehicle_type_id":"4","last_reported":1702642406,"current_range_meters":15600,"station_id":"ce4bh092rcd13ifvqd30","pricing_plan_id":"free"},{"bike_id":"d1dce9b5-e14d-4595-b783-599f2e5be667","system_id":"levelo_inurba_marseille","lat":43.33752,"lon":5.37433,"is_reserved":false,"is_disabled":false,"rental_uris":{"android":"levelo://app?vid=d1dce9b5-e14d-4595-b783-599f2e5be667","ios":"levelo://app?vid=d1dce9b5-e14d-4595-b783-599f2e5be667"},"vehicle_type_id":"4","last_reported":1702642406,"current_range_meters":22000,"station_id":"","pricing_plan_id":"free"},{"bike_id":"cf9da87b-7fc3-409a-856a-c34c6137cbae","system_id":"levelo_inurba_marseille","lat":43.309239,"lon":5.401466,"is_reserved":false,"is_disabled":false,"rental_uris":{"android":"levelo://app?vid=cf9da87b-7fc3-409a-856a-c34c6137cbae","ios":"levelo://app?vid=cf9da87b-7fc3-409a-856a-c34c6137cbae"},"vehicle_type_id":"4","last_reported":1702642406,"current_range_meters":28400,"station_id":"ce4bgvp2rcd13ifvqct0","pricing_plan_id":"free"},{"bike_id":"258fb4dc-8b86-4317-a659-25c2fa641a42","system_id":"levelo_inurba_marseille","lat":43.30932,"lon":5.40149,"is_reserved":false,"is_disabled":false,"rental_uris":{"android":"levelo://app?vid=258fb4dc-8b86-4317-a659-25c2fa641a42","ios":"levelo://app?vid=258fb4dc-8b86-4317-a659-25c2fa641a42"},"vehicle_type_id":"4","last_reported":1702642406,"current_range_meters":20400,"station_id":"ce4bgvp2rcd13ifvqct0","pricing_plan_id":"free"},{"bike_id":"930bba3a-4350-44cf-bb9b-310a6cbdb5ef","system_id":"levelo_inurba_marseille","lat":43.337575,"lon":5.374566,"is_reserved":false,"is_disabled":false,"rental_uris":{"android":"levelo://app?vid=930bba3a-4350-44cf-bb9b-310a6cbdb5ef","ios":"levelo://app?vid=930bba3a-4350-44cf-bb9b-310a6cbdb5ef"},"vehicle_type_id":"4","last_reported":1702642406,"current_range_meters":28400,"station_id":"","pricing_plan_id":"free"},{"bike_id":"bf2e972a-0f79-47ee-8d7c-512b373195ba","system_id":"levelo_inurba_marseille","lat":43.30903,"lon":5.40179,"is_reserved":false,"is_disabled":false,"rental_uris":{"android":"levelo://app?vid=bf2e972a-0f79-47ee-8d7c-512b373195ba","ios":"levelo://app?vid=bf2e972a-0f79-47ee-8d7c-512b373195ba"},"vehicle_type_id":"4","last_reported":1702642406,"current_range_meters":19200,"station_id":"ce4bgvp2rcd13ifvqct0","pricing_plan_id":"free"},{"bike_id":"4b738421-7c7e-4ee2-b128-5a4a65c665b6","system_id":"levelo_inurba_marseille","lat":43.286591,"lon":5.363346,"is_reserved":false,"is_disabled":false,"rental_uris":{"android":"levelo://app?vid=4b738421-7c7e-4ee2-b128-5a4a65c665b6","ios":"levelo://app?vid=4b738421-7c7e-4ee2-b128-5a4a65c665b6"},"vehicle_type_id":"4","last_reported":1702642406,"current_range_meters":16800,"station_id":"ce4bhah2rcd13ifvqej0","pricing_plan_id":"free"},{"bike_id":"c9fb1ddd-e8c7-46d8-b77b-36f57fac5496","system_id":"levelo_inurba_marseille","lat":43.28701,"lon":5.37392,"is_reserved":false,"is_disabled":false,"rental_uris":{"android":"levelo://app?vid=c9fb1ddd-e8c7-46d8-b77b-36f57fac5496","ios":"levelo://app?vid=c9fb1ddd-e8c7-46d8-b77b-36f57fac5496"},"vehicle_type_id":"4","last_reported":1702642406,"current_range_meters":8800,"station_id":"ce4bh3p2rcd13ifvqdq0","pricing_plan_id":"free"},{"bike_id":"973b5e95-a558-44e5-b212-f909a35193ad","system_id":"levelo_inurba_marseille","lat":43.286979,"lon":5.373885,"is_reserved":false,"is_disabled":false,"rental_uris":{"android":"levelo://app?vid=973b5e95-a558-44e5-b212-f909a35193ad","ios":"levelo://app?vid=973b5e95-a558-44e5-b212-f909a35193ad"},"vehicle_type_id":"4","last_reported":1702642406,"current_range_meters":18000,"station_id":"ce4bh3p2rcd13ifvqdq0","pricing_plan_id":"free"},{"bike_id":"f8fe4054-f05f-4ac6-a2cc-ee82e4f71591","system_id":"levelo_inurba_marseille","lat":43.28697,"lon":5.37383,"is_reserved":false,"is_disabled":false,"rental_uris":{"android":"levelo://app?vid=f8fe4054-f05f-4ac6-a2cc-ee82e4f71591","ios":"levelo://app?vid=f8fe4054-f05f-4ac6-a2cc-ee82e4f71591"},"vehicle_type_id":"4","last_reported":1702642406,"current_range_meters":25600,"station_id":"ce4bh3p2rcd13ifvqdq0","pricing_plan_id":"free"},{"bike_id":"f6910a34-2646-4990-929b-22caba6097b8","system_id":"levelo_inurba_marseille","lat":43.295194,"lon":5.39397,"is_reserved":false,"is_disabled":false,"rental_uris":{"android":"levelo://app?vid=f6910a34-2646-4990-929b-22caba6097b8","ios":"levelo://app?vid=f6910a34-2646-4990-929b-22caba6097b8"},"vehicle_type_id":"4","last_reported":1702642406,"current_range_meters":21600,"station_id":"ce4bh292rcd13ifvqdf0","pricing_plan_id":"free"},{"bike_id":"76e4248a-d4d6-499c-9d48-0f1463e09f0c","system_id":"levelo_inurba_marseille","lat":43.267966,"lon":5.393976,"is_reserved":false,"is_disabled":false,"rental_uris":{"android":"levelo://app?vid=76e4248a-d4d6-499c-9d48-0f1463e09f0c","ios":"levelo://app?vid=76e4248a-d4d6-499c-9d48-0f1463e09f0c"},"vehicle_type_id":"4","last_reported":1702642406,"current_range_meters":17600,"station_id":"ce4bhh12rcd13ifvqfg0","pricing_plan_id":"free"},{"bike_id":"cf39560a-2ffd-4345-9919-dfc40d7d98e6","system_id":"levelo_inurba_marseille","lat":43.289307,"lon":5.38406,"is_reserved":false,"is_disabled":false,"rental_uris":{"android":"levelo://app?vid=cf39560a-2ffd-4345-9919-dfc40d7d98e6","ios":"levelo://app?vid=cf39560a-2ffd-4345-9919-dfc40d7d98e6"},"vehicle_type_id":"4","last_reported":1702642406,"current_range_meters":27600,"station_id":"ce4bh612rcd13ifvqe6g","pricing_plan_id":"free"},{"bike_id":"9fe6fec6-85c2-42e5-a75c-3cca253a30b5","system_id":"levelo_inurba_marseille","lat":43.289825,"lon":5.38569,"is_reserved":false,"is_disabled":false,"rental_uris":{"android":"levelo://app?vid=9fe6fec6-85c2-42e5-a75c-3cca253a30b5","ios":"levelo://app?vid=9fe6fec6-85c2-42e5-a75c-3cca253a30b5"},"vehicle_type_id":"4","last_reported":1702642406,"current_range_meters":0,"station_id":"","pricing_plan_id":"free"},{"bike_id":"14f42ce6-1882-466d-a284-3053d9434d53","system_id":"levelo_inurba_marseille","lat":43.287184,"lon":5.37937,"is_reserved":false,"is_disabled":false,"rental_uris":{"android":"levelo://app?vid=14f42ce6-1882-466d-a284-3053d9434d53","ios":"levelo://app?vid=14f42ce6-1882-466d-a284-3053d9434d53"},"vehicle_type_id":"4","last_reported":1702642406,"current_range_meters":23600,"station_id":"ce4bh9p2rcd13ifvqec0","pricing_plan_id":"free"},{"bike_id":"051b3582-5aef-4f33-9d1b-7ca6a5741455","system_id":"levelo_inurba_marseille","lat":43.317058,"lon":5.404466,"is_reserved":false,"is_disabled":false,"rental_uris":{"android":"levelo://app?vid=051b3582-5aef-4f33-9d1b-7ca6a5741455","ios":"levelo://app?vid=051b3582-5aef-4f33-9d1b-7ca6a5741455"},"vehicle_type_id":"4","last_reported":1702642406,"current_range_meters":20800,"station_id":"ce4bh012rcd13ifvqd00","pricing_plan_id":"free"},{"bike_id":"38d3d8d4-6e87-4de8-8539-178f27a35dce","system_id":"levelo_inurba_marseille","lat":43.304188,"lon":5.412904,"is_reserved":false,"is_disabled":false,"rental_uris":{"android":"levelo://app?vid=38d3d8d4-6e87-4de8-8539-178f27a35dce","ios":"levelo://app?vid=38d3d8d4-6e87-4de8-8539-178f27a35dce"},"vehicle_type_id":"4","last_reported":1702642406,"current_range_meters":15600,"station_id":"ce4bhop2rcd13ifvqh8g","pricing_plan_id":"free"},{"bike_id":"db321aad-a2bd-43cb-8a25-24d52c780e95","system_id":"levelo_inurba_marseille","lat":43.284534,"lon":5.358662,"is_reserved":false,"is_disabled":false,"rental_uris":{"android":"levelo://app?vid=db321aad-a2bd-43cb-8a25-24d52c780e95","ios":"levelo://app?vid=db321aad-a2bd-43cb-8a25-24d52c780e95"},"vehicle_type_id":"4","last_reported":1702642406,"current_range_meters":7200,"station_id":"ce4bhah2rcd13ifvqei0","pricing_plan_id":"free"},{"bike_id":"9e84b7b4-e2dc-444d-b2ff-5b4c8b704783","system_id":"levelo_inurba_marseille","lat":43.28613,"lon":5.3511,"is_reserved":false,"is_disabled":false,"rental_uris":{"android":"levelo://app?vid=9e84b7b4-e2dc-444d-b2ff-5b4c8b704783","ios":"levelo://app?vid=9e84b7b4-e2dc-444d-b2ff-5b4c8b704783"},"vehicle_type_id":"4","last_reported":1702642406,"current_range_meters":21600,"station_id":"ce4bhch2rcd13ifvqeug","pricing_plan_id":"free"},{"bike_id":"bed3451f-e282-4582-b90f-34894d22153f","system_id":"levelo_inurba_marseille","lat":43.286124,"lon":5.351098,"is_reserved":false,"is_disabled":false,"rental_uris":{"android":"levelo://app?vid=bed3451f-e282-4582-b90f-34894d22153f","ios":"levelo://app?vid=bed3451f-e282-4582-b90f-34894d22153f"},"vehicle_type_id":"4","last_reported":1702642406,"current_range_meters":23600,"station_id":"","pricing_plan_id":"free"},{"bike_id":"094d0d1a-978b-4ab3-b6b4-63fddddd9463","system_id":"levelo_inurba_marseille","lat":43.28612,"lon":5.35109,"is_reserved":false,"is_disabled":false,"rental_uris":{"android":"levelo://app?vid=094d0d1a-978b-4ab3-b6b4-63fddddd9463","ios":"levelo://app?vid=094d0d1a-978b-4ab3-b6b4-63fddddd9463"},"vehicle_type_id":"4","last_reported":1702642406,"current_range_meters":23600,"station_id":"ce4bhch2rcd13ifvqeug","pricing_plan_id":"free"},{"bike_id":"0c36ec1b-858a-4c98-872f-a279d27c66c4","system_id":"levelo_inurba_marseille","lat":43.286088,"lon":5.35112,"is_reserved":false,"is_disabled":false,"rental_uris":{"android":"levelo://app?vid=0c36ec1b-858a-4c98-872f-a279d27c66c4","ios":"levelo://app?vid=0c36ec1b-858a-4c98-872f-a279d27c66c4"},"vehicle_type_id":"4","last_reported":1702642406,"current_range_meters":21600,"station_id":"ce4bhch2rcd13ifvqeug","pricing_plan_id":"free"},{"bike_id":"6f546b5e-f751-4f3a-8a21-cf12517bb847","system_id":"levelo_inurba_marseille","lat":43.286595,"lon":5.386795,"is_reserved":false,"is_disabled":false,"rental_uris":{"android":"levelo://app?vid=6f546b5e-f751-4f3a-8a21-cf12517bb847","ios":"levelo://app?vid=6f546b5e-f751-4f3a-8a21-cf12517bb847"},"vehicle_type_id":"4","last_reported":1702642406,"current_range_meters":18800,"station_id":"ce4bh492rcd13ifvqdug","pricing_plan_id":"free"},{"bike_id":"8fb47eb9-d1de-47c3-9a4f-063d68d00739","system_id":"levelo_inurba_marseille","lat":43.280382,"lon":5.369291,"is_reserved":false,"is_disabled":false,"rental_uris":{"android":"levelo://app?vid=8fb47eb9-d1de-47c3-9a4f-063d68d00739","ios":"levelo://app?vid=8fb47eb9-d1de-47c3-9a4f-063d68d00739"},"vehicle_type_id":"4","last_reported":1702642406,"current_range_meters":26800,"station_id":"ce4bha12rcd13ifvqef0","pricing_plan_id":"free"},{"bike_id":"f3fcf217-4796-4d58-a2a4-0cb5ac61533e","system_id":"levelo_inurba_marseille","lat":43.33717,"lon":5.391857,"is_reserved":false,"is_disabled":false,"rental_uris":{"android":"levelo://app?vid=f3fcf217-4796-4d58-a2a4-0cb5ac61533e","ios":"levelo://app?vid=f3fcf217-4796-4d58-a2a4-0cb5ac61533e"},"vehicle_type_id":"4","last_reported":1702642406,"current_range_meters":30800,"station_id":"ce4bhr92rcd13ifvqhsg","pricing_plan_id":"free"},{"bike_id":"7dad4481-4867-4557-8614-5bf9a8d365e1","system_id":"levelo_inurba_marseille","lat":43.337168,"lon":5.391825,"is_reserved":false,"is_disabled":false,"rental_uris":{"android":"levelo://app?vid=7dad4481-4867-4557-8614-5bf9a8d365e1","ios":"levelo://app?vid=7dad4481-4867-4557-8614-5bf9a8d365e1"},"vehicle_type_id":"4","last_reported":1702642406,"current_range_meters":17600,"station_id":"ce4bhr92rcd13ifvqhsg","pricing_plan_id":"free"},{"bike_id":"a1835fdf-f765-4ea1-baa6-15b494a69f79","system_id":"levelo_inurba_marseille","lat":43.284793,"lon":5.384113,"is_reserved":false,"is_disabled":false,"rental_uris":{"android":"levelo://app?vid=a1835fdf-f765-4ea1-baa6-15b494a69f79","ios":"levelo://app?vid=a1835fdf-f765-4ea1-baa6-15b494a69f79"},"vehicle_type_id":"4","last_reported":1702642406,"current_range_meters":10000,"station_id":"ce4bh512rcd13ifvqe3g","pricing_plan_id":"free"},{"bike_id":"1f414e41-da0e-4c09-93ac-37b4344cffe7","system_id":"levelo_inurba_marseille","lat":43.284793,"lon":5.384113,"is_reserved":false,"is_disabled":false,"rental_uris":{"android":"levelo://app?vid=1f414e41-da0e-4c09-93ac-37b4344cffe7","ios":"levelo://app?vid=1f414e41-da0e-4c09-93ac-37b4344cffe7"},"vehicle_type_id":"4","last_reported":1702642406,"current_range_meters":5200,"station_id":"ce4bh512rcd13ifvqe3g","pricing_plan_id":"free"},{"bike_id":"237341c0-f71f-4c32-b39e-e5b4f38c3727","system_id":"levelo_inurba_marseille","lat":43.284787,"lon":5.384116,"is_reserved":false,"is_disabled":false,"rental_uris":{"android":"levelo://app?vid=237341c0-f71f-4c32-b39e-e5b4f38c3727","ios":"levelo://app?vid=237341c0-f71f-4c32-b39e-e5b4f38c3727"},"vehicle_type_id":"4","last_reported":1702642406,"current_range_meters":18400,"station_id":"ce4bh512rcd13ifvqe3g","pricing_plan_id":"free"},{"bike_id":"9d89bf92-0209-461c-a063-d774434297cd","system_id":"levelo_inurba_marseille","lat":43.288501,"lon":5.393087,"is_reserved":false,"is_disabled":false,"rental_uris":{"android":"levelo://app?vid=9d89bf92-0209-461c-a063-d774434297cd","ios":"levelo://app?vid=9d89bf92-0209-461c-a063-d774434297cd"},"vehicle_type_id":"4","last_reported":1702642406,"current_range_meters":24000,"station_id":"ce4bh2p2rcd13ifvqdi0","pricing_plan_id":"free"},{"bike_id":"47e1ddad-e74e-4675-aab6-3bb475b79847","system_id":"levelo_inurba_marseille","lat":43.283494,"lon":5.380945,"is_reserved":false,"is_disabled":false,"rental_uris":{"android":"levelo://app?vid=47e1ddad-e74e-4675-aab6-3bb475b79847","ios":"levelo://app?vid=47e1ddad-e74e-4675-aab6-3bb475b79847"},"vehicle_type_id":"4","last_reported":1702642406,"current_range_meters":16000,"station_id":"ce4bh412rcd13ifvqdr0","pricing_plan_id":"free"},{"bike_id":"20333730-c3ce-4f27-819a-4abe11603f3c","system_id":"levelo_inurba_marseille","lat":43.284219,"lon":5.3497,"is_reserved":false,"is_disabled":false,"rental_uris":{"android":"levelo://app?vid=20333730-c3ce-4f27-819a-4abe11603f3c","ios":"levelo://app?vid=20333730-c3ce-4f27-819a-4abe11603f3c"},"vehicle_type_id":"4","last_reported":1702642406,"current_range_meters":20800,"station_id":"ce4bhbh2rcd13ifvqepg","pricing_plan_id":"free"},{"bike_id":"1673000d-0cf2-4f76-b938-f1265f83aa84","system_id":"levelo_inurba_marseille","lat":43.28413,"lon":5.34984,"is_reserved":false,"is_disabled":false,"rental_uris":{"android":"levelo://app?vid=1673000d-0cf2-4f76-b938-f1265f83aa84","ios":"levelo://app?vid=1673000d-0cf2-4f76-b938-f1265f83aa84"},"vehicle_type_id":"4","last_reported":1702642406,"current_range_meters":0,"station_id":"ce4bhbh2rcd13ifvqepg","pricing_plan_id":"free"},{"bike_id":"4fd73b75-1c97-4343-b994-392a26228067","system_id":"levelo_inurba_marseille","lat":43.283502,"lon":5.386471,"is_reserved":false,"is_disabled":false,"rental_uris":{"android":"levelo://app?vid=4fd73b75-1c97-4343-b994-392a26228067","ios":"levelo://app?vid=4fd73b75-1c97-4343-b994-392a26228067"},"vehicle_type_id":"4","last_reported":1702642406,"current_range_meters":26000,"station_id":"ce4bh492rcd13ifvqdvg","pricing_plan_id":"free"},{"bike_id":"b0d164a9-3f15-4315-ad59-cdfaeb338125","system_id":"levelo_inurba_marseille","lat":43.283502,"lon":5.386471,"is_reserved":false,"is_disabled":false,"rental_uris":{"android":"levelo://app?vid=b0d164a9-3f15-4315-ad59-cdfaeb338125","ios":"levelo://app?vid=b0d164a9-3f15-4315-ad59-cdfaeb338125"},"vehicle_type_id":"4","last_reported":1702642406,"current_range_meters":14400,"station_id":"ce4bh492rcd13ifvqdvg","pricing_plan_id":"free"},{"bike_id":"329bd0ce-cd8f-4268-a0f9-c5304fb1f856","system_id":"levelo_inurba_marseille","lat":43.280382,"lon":5.369291,"is_reserved":false,"is_disabled":false,"rental_uris":{"android":"levelo://app?vid=329bd0ce-cd8f-4268-a0f9-c5304fb1f856","ios":"levelo://app?vid=329bd0ce-cd8f-4268-a0f9-c5304fb1f856"},"vehicle_type_id":"4","last_reported":1702642406,"current_range_meters":21600,"station_id":"ce4bha12rcd13ifvqef0","pricing_plan_id":"free"},{"bike_id":"f226633b-d5bd-4875-8374-476372cbc862","system_id":"levelo_inurba_marseille","lat":43.283502,"lon":5.386471,"is_reserved":false,"is_disabled":false,"rental_uris":{"android":"levelo://app?vid=f226633b-d5bd-4875-8374-476372cbc862","ios":"levelo://app?vid=f226633b-d5bd-4875-8374-476372cbc862"},"vehicle_type_id":"4","last_reported":1702642406,"current_range_meters":4000,"station_id":"ce4bh492rcd13ifvqdvg","pricing_plan_id":"free"},{"bike_id":"62c32a41-5c85-445e-a62d-27f8a6e615c9","system_id":"levelo_inurba_marseille","lat":43.280382,"lon":5.369291,"is_reserved":false,"is_disabled":false,"rental_uris":{"android":"levelo://app?vid=62c32a41-5c85-445e-a62d-27f8a6e615c9","ios":"levelo://app?vid=62c32a41-5c85-445e-a62d-27f8a6e615c9"},"vehicle_type_id":"4","last_reported":1702642406,"current_range_meters":7200,"station_id":"ce4bha12rcd13ifvqef0","pricing_plan_id":"free"},{"bike_id":"8f9b4908-704c-45e6-8c96-21a45651ecc9","system_id":"levelo_inurba_marseille","lat":43.296263,"lon":5.40601,"is_reserved":false,"is_disabled":false,"rental_uris":{"android":"levelo://app?vid=8f9b4908-704c-45e6-8c96-21a45651ecc9","ios":"levelo://app?vid=8f9b4908-704c-45e6-8c96-21a45651ecc9"},"vehicle_type_id":"4","last_reported":1702642406,"current_range_meters":10400,"station_id":"ce4bh0h2rcd13ifvqd60","pricing_plan_id":"free"},{"bike_id":"a504b27d-6e8a-48d0-866f-304fb1963ec6","system_id":"levelo_inurba_marseille","lat":43.32663,"lon":5.40975,"is_reserved":false,"is_disabled":false,"rental_uris":{"android":"levelo://app?vid=a504b27d-6e8a-48d0-866f-304fb1963ec6","ios":"levelo://app?vid=a504b27d-6e8a-48d0-866f-304fb1963ec6"},"vehicle_type_id":"4","last_reported":1702642406,"current_range_meters":0,"station_id":"ce4bhpp2rcd13ifvqhgg","pricing_plan_id":"free"},{"bike_id":"cc79aa30-8236-4a2a-8ecf-15d09d695010","system_id":"levelo_inurba_marseille","lat":43.304188,"lon":5.412904,"is_reserved":false,"is_disabled":false,"rental_uris":{"android":"levelo://app?vid=cc79aa30-8236-4a2a-8ecf-15d09d695010","ios":"levelo://app?vid=cc79aa30-8236-4a2a-8ecf-15d09d695010"},"vehicle_type_id":"4","last_reported":1702642406,"current_range_meters":17600,"station_id":"ce4bhop2rcd13ifvqh8g","pricing_plan_id":"free"},{"bike_id":"d06474d7-56f5-4d94-a716-b474ac106b98","system_id":"levelo_inurba_marseille","lat":43.299577,"lon":5.413277,"is_reserved":false,"is_disabled":false,"rental_uris":{"android":"levelo://app?vid=d06474d7-56f5-4d94-a716-b474ac106b98","ios":"levelo://app?vid=d06474d7-56f5-4d94-a716-b474ac106b98"},"vehicle_type_id":"4","last_reported":1702642406,"current_range_meters":22400,"station_id":"ce4bhp12rcd13ifvqh9g","pricing_plan_id":"free"},{"bike_id":"21c5618d-7559-4926-a59a-b4477c11d53e","system_id":"levelo_inurba_marseille","lat":43.325233,"lon":5.414318,"is_reserved":false,"is_disabled":false,"rental_uris":{"android":"levelo://app?vid=21c5618d-7559-4926-a59a-b4477c11d53e","ios":"levelo://app?vid=21c5618d-7559-4926-a59a-b4477c11d53e"},"vehicle_type_id":"4","last_reported":1702642406,"current_range_meters":20800,"station_id":"ce4bhq12rcd13ifvqhhg","pricing_plan_id":"free"},{"bike_id":"58e9943b-43f5-4d87-96b8-329d761359b6","system_id":"levelo_inurba_marseille","lat":43.325233,"lon":5.414318,"is_reserved":false,"is_disabled":false,"rental_uris":{"android":"levelo://app?vid=58e9943b-43f5-4d87-96b8-329d761359b6","ios":"levelo://app?vid=58e9943b-43f5-4d87-96b8-329d761359b6"},"vehicle_type_id":"4","last_reported":1702642406,"current_range_meters":20400,"station_id":"ce4bhq12rcd13ifvqhhg","pricing_plan_id":"free"},{"bike_id":"fdb02120-6a60-4af8-883a-ee735e1878fe","system_id":"levelo_inurba_marseille","lat":43.280784,"lon":5.396622,"is_reserved":false,"is_disabled":false,"rental_uris":{"android":"levelo://app?vid=fdb02120-6a60-4af8-883a-ee735e1878fe","ios":"levelo://app?vid=fdb02120-6a60-4af8-883a-ee735e1878fe"},"vehicle_type_id":"4","last_reported":1702642406,"current_range_meters":400,"station_id":"ce4bho12rcd13ifvqh2g","pricing_plan_id":"free"},{"bike_id":"6cd50120-6e70-4a3f-86bc-17a622bb7433","system_id":"levelo_inurba_marseille","lat":43.280784,"lon":5.396622,"is_reserved":false,"is_disabled":false,"rental_uris":{"android":"levelo://app?vid=6cd50120-6e70-4a3f-86bc-17a622bb7433","ios":"levelo://app?vid=6cd50120-6e70-4a3f-86bc-17a622bb7433"},"vehicle_type_id":"4","last_reported":1702642406,"current_range_meters":16400,"station_id":"ce4bho12rcd13ifvqh2g","pricing_plan_id":"free"},{"bike_id":"8e1e848d-d96b-4302-ada5-5df8b44d4656","system_id":"levelo_inurba_marseille","lat":43.303837,"lon":5.418724,"is_reserved":false,"is_disabled":false,"rental_uris":{"android":"levelo://app?vid=8e1e848d-d96b-4302-ada5-5df8b44d4656","ios":"levelo://app?vid=8e1e848d-d96b-4302-ada5-5df8b44d4656"},"vehicle_type_id":"4","last_reported":1702642406,"current_range_meters":14000,"station_id":"ce4bhop2rcd13ifvqh7g","pricing_plan_id":"free"},{"bike_id":"824ebf9f-32a6-4422-922f-71cac9715be0","system_id":"levelo_inurba_marseille","lat":43.278401,"lon":5.392152,"is_reserved":false,"is_disabled":false,"rental_uris":{"android":"levelo://app?vid=824ebf9f-32a6-4422-922f-71cac9715be0","ios":"levelo://app?vid=824ebf9f-32a6-4422-922f-71cac9715be0"},"vehicle_type_id":"4","last_reported":1702642406,"current_range_meters":16000,"station_id":"ce4bhjp2rcd13ifvqga0","pricing_plan_id":"free"},{"bike_id":"f46b8131-d934-4d08-8783-3a4977f7a16d","system_id":"levelo_inurba_marseille","lat":43.273613,"lon":5.362705,"is_reserved":false,"is_disabled":false,"rental_uris":{"android":"levelo://app?vid=f46b8131-d934-4d08-8783-3a4977f7a16d","ios":"levelo://app?vid=f46b8131-d934-4d08-8783-3a4977f7a16d"},"vehicle_type_id":"4","last_reported":1702642406,"current_range_meters":26000,"station_id":"ce4bhbh2rcd13ifvqeo0","pricing_plan_id":"free"},{"bike_id":"50d89c24-e48a-4e41-b9a4-89a221510bb1","system_id":"levelo_inurba_marseille","lat":43.273613,"lon":5.362705,"is_reserved":false,"is_disabled":false,"rental_uris":{"android":"levelo://app?vid=50d89c24-e48a-4e41-b9a4-89a221510bb1","ios":"levelo://app?vid=50d89c24-e48a-4e41-b9a4-89a221510bb1"},"vehicle_type_id":"4","last_reported":1702642406,"current_range_meters":19600,"station_id":"ce4bhbh2rcd13ifvqeo0","pricing_plan_id":"free"},{"bike_id":"4230d88d-5fda-4ac2-ac14-45970900d515","system_id":"levelo_inurba_marseille","lat":43.273613,"lon":5.362705,"is_reserved":false,"is_disabled":false,"rental_uris":{"android":"levelo://app?vid=4230d88d-5fda-4ac2-ac14-45970900d515","ios":"levelo://app?vid=4230d88d-5fda-4ac2-ac14-45970900d515"},"vehicle_type_id":"4","last_reported":1702642406,"current_range_meters":20400,"station_id":"ce4bhbh2rcd13ifvqeo0","pricing_plan_id":"free"},{"bike_id":"6470a7a2-1349-4ea5-b7c9-64e4a4a46249","system_id":"levelo_inurba_marseille","lat":43.273609,"lon":5.362708,"is_reserved":false,"is_disabled":false,"rental_uris":{"android":"levelo://app?vid=6470a7a2-1349-4ea5-b7c9-64e4a4a46249","ios":"levelo://app?vid=6470a7a2-1349-4ea5-b7c9-64e4a4a46249"},"vehicle_type_id":"4","last_reported":1702642406,"current_range_meters":23200,"station_id":"ce4bhbh2rcd13ifvqeo0","pricing_plan_id":"free"},{"bike_id":"221d63e7-23e0-465d-b284-e6263b22e20a","system_id":"levelo_inurba_marseille","lat":43.273609,"lon":5.362708,"is_reserved":false,"is_disabled":false,"rental_uris":{"android":"levelo://app?vid=221d63e7-23e0-465d-b284-e6263b22e20a","ios":"levelo://app?vid=221d63e7-23e0-465d-b284-e6263b22e20a"},"vehicle_type_id":"4","last_reported":1702642406,"current_range_meters":18400,"station_id":"ce4bhbh2rcd13ifvqeo0","pricing_plan_id":"free"},{"bike_id":"48ad37e8-fc28-4c61-9b8a-cd02d209dac8","system_id":"levelo_inurba_marseille","lat":43.276771,"lon":5.388799,"is_reserved":false,"is_disabled":false,"rental_uris":{"android":"levelo://app?vid=48ad37e8-fc28-4c61-9b8a-cd02d209dac8","ios":"levelo://app?vid=48ad37e8-fc28-4c61-9b8a-cd02d209dac8"},"vehicle_type_id":"4","last_reported":1702642406,"current_range_meters":28800,"station_id":"ce4bhi12rcd13ifvqfo0","pricing_plan_id":"free"},{"bike_id":"e925b3d1-1a08-4c4b-beb4-4c15019c4a47","system_id":"levelo_inurba_marseille","lat":43.310785,"lon":5.424305,"is_reserved":false,"is_disabled":false,"rental_uris":{"android":"levelo://app?vid=e925b3d1-1a08-4c4b-beb4-4c15019c4a47","ios":"levelo://app?vid=e925b3d1-1a08-4c4b-beb4-4c15019c4a47"},"vehicle_type_id":"4","last_reported":1702642406,"current_range_meters":27600,"station_id":"ce4bhp92rcd13ifvqhag","pricing_plan_id":"free"},{"bike_id":"3ca2c2d2-99b0-4aa6-a05d-e30f02e6a7fb","system_id":"levelo_inurba_marseille","lat":43.276092,"lon":5.395289,"is_reserved":false,"is_disabled":false,"rental_uris":{"android":"levelo://app?vid=3ca2c2d2-99b0-4aa6-a05d-e30f02e6a7fb","ios":"levelo://app?vid=3ca2c2d2-99b0-4aa6-a05d-e30f02e6a7fb"},"vehicle_type_id":"4","last_reported":1702642406,"current_range_meters":28000,"station_id":"","pricing_plan_id":"free"},{"bike_id":"597fbaac-2c9e-4e5e-a77f-b7b4e6511ada","system_id":"levelo_inurba_marseille","lat":43.273125,"lon":5.390731,"is_reserved":false,"is_disabled":false,"rental_uris":{"android":"levelo://app?vid=597fbaac-2c9e-4e5e-a77f-b7b4e6511ada","ios":"levelo://app?vid=597fbaac-2c9e-4e5e-a77f-b7b4e6511ada"},"vehicle_type_id":"4","last_reported":1702642406,"current_range_meters":19200,"station_id":"ce4bhgp2rcd13ifvqfe0","pricing_plan_id":"free"},{"bike_id":"5d3f594c-9b0e-418e-807f-31b01190d134","system_id":"levelo_inurba_marseille","lat":43.295523,"lon":5.422926,"is_reserved":false,"is_disabled":false,"rental_uris":{"android":"levelo://app?vid=5d3f594c-9b0e-418e-807f-31b01190d134","ios":"levelo://app?vid=5d3f594c-9b0e-418e-807f-31b01190d134"},"vehicle_type_id":"4","last_reported":1702642406,"current_range_meters":28400,"station_id":"ce4bhph2rcd13ifvqhdg","pricing_plan_id":"free"},{"bike_id":"94984fc3-6575-498f-bb52-e6c05e1c5e4b","system_id":"levelo_inurba_marseille","lat":43.295523,"lon":5.422926,"is_reserved":false,"is_disabled":false,"rental_uris":{"android":"levelo://app?vid=94984fc3-6575-498f-bb52-e6c05e1c5e4b","ios":"levelo://app?vid=94984fc3-6575-498f-bb52-e6c05e1c5e4b"},"vehicle_type_id":"4","last_reported":1702642406,"current_range_meters":21200,"station_id":"ce4bhph2rcd13ifvqhdg","pricing_plan_id":"free"},{"bike_id":"5a1b5282-2b51-4d9c-bacd-5818412db10f","system_id":"levelo_inurba_marseille","lat":43.29555,"lon":5.422835,"is_reserved":false,"is_disabled":false,"rental_uris":{"android":"levelo://app?vid=5a1b5282-2b51-4d9c-bacd-5818412db10f","ios":"levelo://app?vid=5a1b5282-2b51-4d9c-bacd-5818412db10f"},"vehicle_type_id":"4","last_reported":1702642406,"current_range_meters":19600,"station_id":"ce4bhph2rcd13ifvqhdg","pricing_plan_id":"free"},{"bike_id":"44b5f216-a7b6-4c19-8600-d0fc7a6dee0a","system_id":"levelo_inurba_marseille","lat":43.295523,"lon":5.422926,"is_reserved":false,"is_disabled":false,"rental_uris":{"android":"levelo://app?vid=44b5f216-a7b6-4c19-8600-d0fc7a6dee0a","ios":"levelo://app?vid=44b5f216-a7b6-4c19-8600-d0fc7a6dee0a"},"vehicle_type_id":"4","last_reported":1702642406,"current_range_meters":23200,"station_id":"ce4bhph2rcd13ifvqhdg","pricing_plan_id":"free"},{"bike_id":"9128feaf-36b8-4e63-849f-ccc68f896dc0","system_id":"levelo_inurba_marseille","lat":43.295523,"lon":5.422926,"is_reserved":false,"is_disabled":false,"rental_uris":{"android":"levelo://app?vid=9128feaf-36b8-4e63-849f-ccc68f896dc0","ios":"levelo://app?vid=9128feaf-36b8-4e63-849f-ccc68f896dc0"},"vehicle_type_id":"4","last_reported":1702642406,"current_range_meters":31600,"station_id":"ce4bhph2rcd13ifvqhdg","pricing_plan_id":"free"},{"bike_id":"69f8ad0f-2459-47c5-93c3-15dea485ac8b","system_id":"levelo_inurba_marseille","lat":43.295511,"lon":5.422926,"is_reserved":false,"is_disabled":false,"rental_uris":{"android":"levelo://app?vid=69f8ad0f-2459-47c5-93c3-15dea485ac8b","ios":"levelo://app?vid=69f8ad0f-2459-47c5-93c3-15dea485ac8b"},"vehicle_type_id":"4","last_reported":1702642406,"current_range_meters":25600,"station_id":"ce4bhph2rcd13ifvqhdg","pricing_plan_id":"free"},{"bike_id":"c4dcd648-45d4-4a62-8bc1-646dd07d9239","system_id":"levelo_inurba_marseille","lat":43.29552,"lon":5.42286,"is_reserved":false,"is_disabled":false,"rental_uris":{"android":"levelo://app?vid=c4dcd648-45d4-4a62-8bc1-646dd07d9239","ios":"levelo://app?vid=c4dcd648-45d4-4a62-8bc1-646dd07d9239"},"vehicle_type_id":"4","last_reported":1702642406,"current_range_meters":24000,"station_id":"ce4bhph2rcd13ifvqhdg","pricing_plan_id":"free"},{"bike_id":"a7863f6b-776e-4daa-b931-d7ecbe1a71ad","system_id":"levelo_inurba_marseille","lat":43.29552,"lon":5.42286,"is_reserved":false,"is_disabled":false,"rental_uris":{"android":"levelo://app?vid=a7863f6b-776e-4daa-b931-d7ecbe1a71ad","ios":"levelo://app?vid=a7863f6b-776e-4daa-b931-d7ecbe1a71ad"},"vehicle_type_id":"4","last_reported":1702642406,"current_range_meters":21600,"station_id":"ce4bhph2rcd13ifvqhdg","pricing_plan_id":"free"},{"bike_id":"0fdd36e0-a97d-4931-83bd-dc41afbd80cb","system_id":"levelo_inurba_marseille","lat":43.295511,"lon":5.422926,"is_reserved":false,"is_disabled":false,"rental_uris":{"android":"levelo://app?vid=0fdd36e0-a97d-4931-83bd-dc41afbd80cb","ios":"levelo://app?vid=0fdd36e0-a97d-4931-83bd-dc41afbd80cb"},"vehicle_type_id":"4","last_reported":1702642406,"current_range_meters":26000,"station_id":"ce4bhph2rcd13ifvqhdg","pricing_plan_id":"free"},{"bike_id":"1d2472e2-350f-44fa-a627-38e6bb5829da","system_id":"levelo_inurba_marseille","lat":43.295511,"lon":5.422926,"is_reserved":false,"is_disabled":false,"rental_uris":{"android":"levelo://app?vid=1d2472e2-350f-44fa-a627-38e6bb5829da","ios":"levelo://app?vid=1d2472e2-350f-44fa-a627-38e6bb5829da"},"vehicle_type_id":"4","last_reported":1702642406,"current_range_meters":31200,"station_id":"ce4bhph2rcd13ifvqhdg","pricing_plan_id":"free"},{"bike_id":"7c986511-17e0-43fa-b106-d4a86a7afc30","system_id":"levelo_inurba_marseille","lat":43.269467,"lon":5.386439,"is_reserved":false,"is_disabled":false,"rental_uris":{"android":"levelo://app?vid=7c986511-17e0-43fa-b106-d4a86a7afc30","ios":"levelo://app?vid=7c986511-17e0-43fa-b106-d4a86a7afc30"},"vehicle_type_id":"4","last_reported":1702642406,"current_range_meters":29600,"station_id":"ce4bhh92rcd13ifvqfh0","pricing_plan_id":"free"},{"bike_id":"b88f45db-53ae-4573-bcf6-9047007060de","system_id":"levelo_inurba_marseille","lat":43.278128,"lon":5.407195,"is_reserved":false,"is_disabled":false,"rental_uris":{"android":"levelo://app?vid=b88f45db-53ae-4573-bcf6-9047007060de","ios":"levelo://app?vid=b88f45db-53ae-4573-bcf6-9047007060de"},"vehicle_type_id":"4","last_reported":1702642406,"current_range_meters":25600,"station_id":"ce4bhnh2rcd13ifvqgtg","pricing_plan_id":"free"},{"bike_id":"ba22ff11-c67b-42b3-9f45-0b3d73750189","system_id":"levelo_inurba_marseille","lat":43.278128,"lon":5.407195,"is_reserved":false,"is_disabled":false,"rental_uris":{"android":"levelo://app?vid=ba22ff11-c67b-42b3-9f45-0b3d73750189","ios":"levelo://app?vid=ba22ff11-c67b-42b3-9f45-0b3d73750189"},"vehicle_type_id":"4","last_reported":1702642406,"current_range_meters":1200,"station_id":"ce4bhnh2rcd13ifvqgtg","pricing_plan_id":"free"},{"bike_id":"13136e7b-17d5-41a3-baf1-84312a187446","system_id":"levelo_inurba_marseille","lat":43.278128,"lon":5.407195,"is_reserved":false,"is_disabled":false,"rental_uris":{"android":"levelo://app?vid=13136e7b-17d5-41a3-baf1-84312a187446","ios":"levelo://app?vid=13136e7b-17d5-41a3-baf1-84312a187446"},"vehicle_type_id":"4","last_reported":1702642406,"current_range_meters":31600,"station_id":"ce4bhnh2rcd13ifvqgtg","pricing_plan_id":"free"},{"bike_id":"a2913844-cebf-4c5c-b596-5768f5a023fa","system_id":"levelo_inurba_marseille","lat":43.27813,"lon":5.40711,"is_reserved":false,"is_disabled":false,"rental_uris":{"android":"levelo://app?vid=a2913844-cebf-4c5c-b596-5768f5a023fa","ios":"levelo://app?vid=a2913844-cebf-4c5c-b596-5768f5a023fa"},"vehicle_type_id":"4","last_reported":1702642406,"current_range_meters":6400,"station_id":"ce4bhnh2rcd13ifvqgtg","pricing_plan_id":"free"},{"bike_id":"9ed8a8b0-adcb-4301-a90b-ada718e24e35","system_id":"levelo_inurba_marseille","lat":43.278128,"lon":5.407195,"is_reserved":false,"is_disabled":false,"rental_uris":{"android":"levelo://app?vid=9ed8a8b0-adcb-4301-a90b-ada718e24e35","ios":"levelo://app?vid=9ed8a8b0-adcb-4301-a90b-ada718e24e35"},"vehicle_type_id":"4","last_reported":1702642406,"current_range_meters":27200,"station_id":"ce4bhnh2rcd13ifvqgtg","pricing_plan_id":"free"},{"bike_id":"dafabd23-fa34-4b76-8a52-348f45f414c9","system_id":"levelo_inurba_marseille","lat":43.27814,"lon":5.40716,"is_reserved":false,"is_disabled":false,"rental_uris":{"android":"levelo://app?vid=dafabd23-fa34-4b76-8a52-348f45f414c9","ios":"levelo://app?vid=dafabd23-fa34-4b76-8a52-348f45f414c9"},"vehicle_type_id":"4","last_reported":1702642406,"current_range_meters":10000,"station_id":"ce4bhnh2rcd13ifvqgtg","pricing_plan_id":"free"},{"bike_id":"5702f4a6-a2df-4ab7-90ca-bbf1a21df8e5","system_id":"levelo_inurba_marseille","lat":43.278128,"lon":5.407195,"is_reserved":false,"is_disabled":false,"rental_uris":{"android":"levelo://app?vid=5702f4a6-a2df-4ab7-90ca-bbf1a21df8e5","ios":"levelo://app?vid=5702f4a6-a2df-4ab7-90ca-bbf1a21df8e5"},"vehicle_type_id":"4","last_reported":1702642406,"current_range_meters":0,"station_id":"ce4bhnh2rcd13ifvqgtg","pricing_plan_id":"free"},{"bike_id":"aaf0a2da-6559-483e-b877-95aab8f7a9d9","system_id":"levelo_inurba_marseille","lat":43.27816,"lon":5.4072,"is_reserved":false,"is_disabled":false,"rental_uris":{"android":"levelo://app?vid=aaf0a2da-6559-483e-b877-95aab8f7a9d9","ios":"levelo://app?vid=aaf0a2da-6559-483e-b877-95aab8f7a9d9"},"vehicle_type_id":"4","last_reported":1702642406,"current_range_meters":22400,"station_id":"ce4bhnh2rcd13ifvqgtg","pricing_plan_id":"free"},{"bike_id":"fed7a257-7812-4a25-b052-f0b21833c508","system_id":"levelo_inurba_marseille","lat":43.278128,"lon":5.407195,"is_reserved":false,"is_disabled":false,"rental_uris":{"android":"levelo://app?vid=fed7a257-7812-4a25-b052-f0b21833c508","ios":"levelo://app?vid=fed7a257-7812-4a25-b052-f0b21833c508"},"vehicle_type_id":"4","last_reported":1702642406,"current_range_meters":22800,"station_id":"ce4bhnh2rcd13ifvqgtg","pricing_plan_id":"free"},{"bike_id":"96645246-bccb-40af-9562-b21a528f0343","system_id":"levelo_inurba_marseille","lat":43.278128,"lon":5.407195,"is_reserved":false,"is_disabled":false,"rental_uris":{"android":"levelo://app?vid=96645246-bccb-40af-9562-b21a528f0343","ios":"levelo://app?vid=96645246-bccb-40af-9562-b21a528f0343"},"vehicle_type_id":"4","last_reported":1702642406,"current_range_meters":6000,"station_id":"ce4bhnh2rcd13ifvqgtg","pricing_plan_id":"free"},{"bike_id":"97ac1881-8439-4704-9077-92aee68360dd","system_id":"levelo_inurba_marseille","lat":43.278128,"lon":5.407195,"is_reserved":false,"is_disabled":false,"rental_uris":{"android":"levelo://app?vid=97ac1881-8439-4704-9077-92aee68360dd","ios":"levelo://app?vid=97ac1881-8439-4704-9077-92aee68360dd"},"vehicle_type_id":"4","last_reported":1702642406,"current_range_meters":15600,"station_id":"ce4bhnh2rcd13ifvqgtg","pricing_plan_id":"free"},{"bike_id":"99672b23-a5b6-4be4-9c79-7ddffd972fd5","system_id":"levelo_inurba_marseille","lat":43.27815,"lon":5.407219,"is_reserved":false,"is_disabled":false,"rental_uris":{"android":"levelo://app?vid=99672b23-a5b6-4be4-9c79-7ddffd972fd5","ios":"levelo://app?vid=99672b23-a5b6-4be4-9c79-7ddffd972fd5"},"vehicle_type_id":"4","last_reported":1702642406,"current_range_meters":25200,"station_id":"ce4bhnh2rcd13ifvqgtg","pricing_plan_id":"free"},{"bike_id":"b266a27d-bbf3-4dfe-b176-36ddfaae0937","system_id":"levelo_inurba_marseille","lat":43.278128,"lon":5.407195,"is_reserved":false,"is_disabled":false,"rental_uris":{"android":"levelo://app?vid=b266a27d-bbf3-4dfe-b176-36ddfaae0937","ios":"levelo://app?vid=b266a27d-bbf3-4dfe-b176-36ddfaae0937"},"vehicle_type_id":"4","last_reported":1702642406,"current_range_meters":10800,"station_id":"ce4bhnh2rcd13ifvqgtg","pricing_plan_id":"free"},{"bike_id":"6baecf9e-750f-4685-ba33-d33fd9cbfd22","system_id":"levelo_inurba_marseille","lat":43.278128,"lon":5.407195,"is_reserved":false,"is_disabled":false,"rental_uris":{"android":"levelo://app?vid=6baecf9e-750f-4685-ba33-d33fd9cbfd22","ios":"levelo://app?vid=6baecf9e-750f-4685-ba33-d33fd9cbfd22"},"vehicle_type_id":"4","last_reported":1702642406,"current_range_meters":30400,"station_id":"ce4bhnh2rcd13ifvqgtg","pricing_plan_id":"free"},{"bike_id":"1b5db403-146a-41c4-8af6-ef2cbdb45d78","system_id":"levelo_inurba_marseille","lat":43.2781,"lon":5.40718,"is_reserved":false,"is_disabled":false,"rental_uris":{"android":"levelo://app?vid=1b5db403-146a-41c4-8af6-ef2cbdb45d78","ios":"levelo://app?vid=1b5db403-146a-41c4-8af6-ef2cbdb45d78"},"vehicle_type_id":"4","last_reported":1702642406,"current_range_meters":13200,"station_id":"ce4bhnh2rcd13ifvqgtg","pricing_plan_id":"free"},{"bike_id":"64c2ad92-741d-4ddc-9586-92c4ce4c9736","system_id":"levelo_inurba_marseille","lat":43.278128,"lon":5.407195,"is_reserved":false,"is_disabled":false,"rental_uris":{"android":"levelo://app?vid=64c2ad92-741d-4ddc-9586-92c4ce4c9736","ios":"levelo://app?vid=64c2ad92-741d-4ddc-9586-92c4ce4c9736"},"vehicle_type_id":"4","last_reported":1702642406,"current_range_meters":29600,"station_id":"ce4bhnh2rcd13ifvqgtg","pricing_plan_id":"free"},{"bike_id":"fae2b501-0ee8-40be-ae29-d4eca2f021af","system_id":"levelo_inurba_marseille","lat":43.269467,"lon":5.386439,"is_reserved":false,"is_disabled":false,"rental_uris":{"android":"levelo://app?vid=fae2b501-0ee8-40be-ae29-d4eca2f021af","ios":"levelo://app?vid=fae2b501-0ee8-40be-ae29-d4eca2f021af"},"vehicle_type_id":"4","last_reported":1702642406,"current_range_meters":21600,"station_id":"ce4bhh92rcd13ifvqfh0","pricing_plan_id":"free"},{"bike_id":"68db3b59-852b-4637-8e53-79c1de53312a","system_id":"levelo_inurba_marseille","lat":43.26681,"lon":5.382694,"is_reserved":false,"is_disabled":false,"rental_uris":{"android":"levelo://app?vid=68db3b59-852b-4637-8e53-79c1de53312a","ios":"levelo://app?vid=68db3b59-852b-4637-8e53-79c1de53312a"},"vehicle_type_id":"4","last_reported":1702642406,"current_range_meters":22800,"station_id":"ce4bhg92rcd13ifvqf90","pricing_plan_id":"free"},{"bike_id":"5bdeb62f-3697-4a8d-a2b6-0d9d785d06a4","system_id":"levelo_inurba_marseille","lat":43.26552,"lon":5.37285,"is_reserved":false,"is_disabled":false,"rental_uris":{"android":"levelo://app?vid=5bdeb62f-3697-4a8d-a2b6-0d9d785d06a4","ios":"levelo://app?vid=5bdeb62f-3697-4a8d-a2b6-0d9d785d06a4"},"vehicle_type_id":"4","last_reported":1702642406,"current_range_meters":0,"station_id":"ce4bhg12rcd13ifvqf70","pricing_plan_id":"free"},{"bike_id":"233e4d84-6e5c-4e53-ae5b-241ab43f5062","system_id":"levelo_inurba_marseille","lat":43.268117,"lon":5.389089,"is_reserved":false,"is_disabled":false,"rental_uris":{"android":"levelo://app?vid=233e4d84-6e5c-4e53-ae5b-241ab43f5062","ios":"levelo://app?vid=233e4d84-6e5c-4e53-ae5b-241ab43f5062"},"vehicle_type_id":"4","last_reported":1702642406,"current_range_meters":4400,"station_id":"","pricing_plan_id":"free"},{"bike_id":"0b69adc4-dd91-4379-bab2-f30bbaa4a680","system_id":"levelo_inurba_marseille","lat":43.279987,"lon":5.416634,"is_reserved":false,"is_disabled":false,"rental_uris":{"android":"levelo://app?vid=0b69adc4-dd91-4379-bab2-f30bbaa4a680","ios":"levelo://app?vid=0b69adc4-dd91-4379-bab2-f30bbaa4a680"},"vehicle_type_id":"4","last_reported":1702642406,"current_range_meters":28000,"station_id":"ce4bho12rcd13ifvqh1g","pricing_plan_id":"free"},{"bike_id":"8df36a2f-9a4c-411e-9780-e3e8c897fac1","system_id":"levelo_inurba_marseille","lat":43.27983,"lon":5.41654,"is_reserved":false,"is_disabled":false,"rental_uris":{"android":"levelo://app?vid=8df36a2f-9a4c-411e-9780-e3e8c897fac1","ios":"levelo://app?vid=8df36a2f-9a4c-411e-9780-e3e8c897fac1"},"vehicle_type_id":"4","last_reported":1702642406,"current_range_meters":30400,"station_id":"ce4bho12rcd13ifvqh1g","pricing_plan_id":"free"},{"bike_id":"4510633c-6100-41ad-9855-e4f0def2a04e","system_id":"levelo_inurba_marseille","lat":43.298768,"lon":5.43643,"is_reserved":false,"is_disabled":false,"rental_uris":{"android":"levelo://app?vid=4510633c-6100-41ad-9855-e4f0def2a04e","ios":"levelo://app?vid=4510633c-6100-41ad-9855-e4f0def2a04e"},"vehicle_type_id":"4","last_reported":1702642406,"current_range_meters":20000,"station_id":"ce4bhpp2rcd13ifvqhfg","pricing_plan_id":"free"},{"bike_id":"159b4c8d-2087-4c22-bde9-59c87c309b2c","system_id":"levelo_inurba_marseille","lat":43.298768,"lon":5.43643,"is_reserved":false,"is_disabled":false,"rental_uris":{"android":"levelo://app?vid=159b4c8d-2087-4c22-bde9-59c87c309b2c","ios":"levelo://app?vid=159b4c8d-2087-4c22-bde9-59c87c309b2c"},"vehicle_type_id":"4","last_reported":1702642406,"current_range_meters":26800,"station_id":"ce4bhpp2rcd13ifvqhfg","pricing_plan_id":"free"},{"bike_id":"281cc086-7c8f-44e0-abbe-0ddc559b2c6b","system_id":"levelo_inurba_marseille","lat":43.281548,"lon":5.42643,"is_reserved":false,"is_disabled":false,"rental_uris":{"android":"levelo://app?vid=281cc086-7c8f-44e0-abbe-0ddc559b2c6b","ios":"levelo://app?vid=281cc086-7c8f-44e0-abbe-0ddc559b2c6b"},"vehicle_type_id":"4","last_reported":1702642406,"current_range_meters":31200,"station_id":"ce4bhnh2rcd13ifvqgug","pricing_plan_id":"free"},{"bike_id":"4c30006f-cd4a-49aa-8970-d08ef740da72","system_id":"levelo_inurba_marseille","lat":43.25503,"lon":5.37649,"is_reserved":false,"is_disabled":false,"rental_uris":{"android":"levelo://app?vid=4c30006f-cd4a-49aa-8970-d08ef740da72","ios":"levelo://app?vid=4c30006f-cd4a-49aa-8970-d08ef740da72"},"vehicle_type_id":"4","last_reported":1702642406,"current_range_meters":16000,"station_id":"ce4bhh12rcd13ifvqff0","pricing_plan_id":"free"},{"bike_id":"9f2be9ac-5156-4917-ac32-77a822ce004c","system_id":"levelo_inurba_marseille","lat":43.258658,"lon":5.398935,"is_reserved":false,"is_disabled":false,"rental_uris":{"android":"levelo://app?vid=9f2be9ac-5156-4917-ac32-77a822ce004c","ios":"levelo://app?vid=9f2be9ac-5156-4917-ac32-77a822ce004c"},"vehicle_type_id":"4","last_reported":1702642406,"current_range_meters":14000,"station_id":"ce4bhl92rcd13ifvqghg","pricing_plan_id":"free"},{"bike_id":"6ac9f128-ddfa-4e31-a487-dd14c456b374","system_id":"levelo_inurba_marseille","lat":43.25941,"lon":5.40902,"is_reserved":false,"is_disabled":false,"rental_uris":{"android":"levelo://app?vid=6ac9f128-ddfa-4e31-a487-dd14c456b374","ios":"levelo://app?vid=6ac9f128-ddfa-4e31-a487-dd14c456b374"},"vehicle_type_id":"4","last_reported":1702642406,"current_range_meters":7200,"station_id":"ce4bhm92rcd13ifvqglg","pricing_plan_id":"free"},{"bike_id":"db140ae3-05d1-43cc-a7cb-19fe416166e3","system_id":"levelo_inurba_marseille","lat":43.259013,"lon":5.409301,"is_reserved":false,"is_disabled":false,"rental_uris":{"android":"levelo://app?vid=db140ae3-05d1-43cc-a7cb-19fe416166e3","ios":"levelo://app?vid=db140ae3-05d1-43cc-a7cb-19fe416166e3"},"vehicle_type_id":"4","last_reported":1702642406,"current_range_meters":11200,"station_id":"ce4bhm92rcd13ifvqglg","pricing_plan_id":"free"},{"bike_id":"b0f80740-e3e1-420c-9fab-1084f4861ab8","system_id":"levelo_inurba_marseille","lat":43.25933,"lon":5.40911,"is_reserved":false,"is_disabled":false,"rental_uris":{"android":"levelo://app?vid=b0f80740-e3e1-420c-9fab-1084f4861ab8","ios":"levelo://app?vid=b0f80740-e3e1-420c-9fab-1084f4861ab8"},"vehicle_type_id":"4","last_reported":1702642406,"current_range_meters":22400,"station_id":"ce4bhm92rcd13ifvqglg","pricing_plan_id":"free"},{"bike_id":"640714f5-618c-4118-bfeb-63a862712304","system_id":"levelo_inurba_marseille","lat":43.259009,"lon":5.40929,"is_reserved":false,"is_disabled":false,"rental_uris":{"android":"levelo://app?vid=640714f5-618c-4118-bfeb-63a862712304","ios":"levelo://app?vid=640714f5-618c-4118-bfeb-63a862712304"},"vehicle_type_id":"4","last_reported":1702642406,"current_range_meters":22400,"station_id":"ce4bhm92rcd13ifvqglg","pricing_plan_id":"free"},{"bike_id":"d670efb1-efdf-42e6-83af-fe750cac2ec7","system_id":"levelo_inurba_marseille","lat":43.25201,"lon":5.38687,"is_reserved":false,"is_disabled":false,"rental_uris":{"android":"levelo://app?vid=d670efb1-efdf-42e6-83af-fe750cac2ec7","ios":"levelo://app?vid=d670efb1-efdf-42e6-83af-fe750cac2ec7"},"vehicle_type_id":"4","last_reported":1702642406,"current_range_meters":14000,"station_id":"","pricing_plan_id":"free"},{"bike_id":"30f27992-ba7e-43f7-aa91-a4e7136a79eb","system_id":"levelo_inurba_marseille","lat":43.257079,"lon":5.411051,"is_reserved":false,"is_disabled":false,"rental_uris":{"android":"levelo://app?vid=30f27992-ba7e-43f7-aa91-a4e7136a79eb","ios":"levelo://app?vid=30f27992-ba7e-43f7-aa91-a4e7136a79eb"},"vehicle_type_id":"4","last_reported":1702642406,"current_range_meters":15200,"station_id":"ce4bhkp2rcd13ifvqgd0","pricing_plan_id":"free"},{"bike_id":"17312546-c0ff-413a-88c8-388ef633d0e0","system_id":"levelo_inurba_marseille","lat":43.257079,"lon":5.411051,"is_reserved":false,"is_disabled":false,"rental_uris":{"android":"levelo://app?vid=17312546-c0ff-413a-88c8-388ef633d0e0","ios":"levelo://app?vid=17312546-c0ff-413a-88c8-388ef633d0e0"},"vehicle_type_id":"4","last_reported":1702642406,"current_range_meters":12000,"station_id":"ce4bhkp2rcd13ifvqgd0","pricing_plan_id":"free"},{"bike_id":"36055a51-5a34-47f1-96fe-daf072616fe9","system_id":"levelo_inurba_marseille","lat":43.257079,"lon":5.411051,"is_reserved":false,"is_disabled":false,"rental_uris":{"android":"levelo://app?vid=36055a51-5a34-47f1-96fe-daf072616fe9","ios":"levelo://app?vid=36055a51-5a34-47f1-96fe-daf072616fe9"},"vehicle_type_id":"4","last_reported":1702642406,"current_range_meters":23600,"station_id":"ce4bhkp2rcd13ifvqgd0","pricing_plan_id":"free"},{"bike_id":"1e9e428d-b61f-405f-b6da-009e00ac3d50","system_id":"levelo_inurba_marseille","lat":43.250009,"lon":5.389195,"is_reserved":false,"is_disabled":false,"rental_uris":{"android":"levelo://app?vid=1e9e428d-b61f-405f-b6da-009e00ac3d50","ios":"levelo://app?vid=1e9e428d-b61f-405f-b6da-009e00ac3d50"},"vehicle_type_id":"4","last_reported":1702642406,"current_range_meters":26400,"station_id":"ce4bhgp2rcd13ifvqfd0","pricing_plan_id":"free"},{"bike_id":"c6090ec4-8560-48bc-94a6-7a1d3e384089","system_id":"levelo_inurba_marseille","lat":43.25102,"lon":5.403214,"is_reserved":false,"is_disabled":false,"rental_uris":{"android":"levelo://app?vid=c6090ec4-8560-48bc-94a6-7a1d3e384089","ios":"levelo://app?vid=c6090ec4-8560-48bc-94a6-7a1d3e384089"},"vehicle_type_id":"4","last_reported":1702642406,"current_range_meters":16800,"station_id":"ce4bhlh2rcd13ifvqgig","pricing_plan_id":"free"},{"bike_id":"76b3450d-b4f9-4302-bdc7-d4c7b251dffc","system_id":"levelo_inurba_marseille","lat":43.25102,"lon":5.403214,"is_reserved":false,"is_disabled":false,"rental_uris":{"android":"levelo://app?vid=76b3450d-b4f9-4302-bdc7-d4c7b251dffc","ios":"levelo://app?vid=76b3450d-b4f9-4302-bdc7-d4c7b251dffc"},"vehicle_type_id":"4","last_reported":1702642406,"current_range_meters":28800,"station_id":"ce4bhlh2rcd13ifvqgig","pricing_plan_id":"free"},{"bike_id":"75e7fda2-ef5f-4af1-bebc-e679c02badd3","system_id":"levelo_inurba_marseille","lat":43.25102,"lon":5.403214,"is_reserved":false,"is_disabled":false,"rental_uris":{"android":"levelo://app?vid=75e7fda2-ef5f-4af1-bebc-e679c02badd3","ios":"levelo://app?vid=75e7fda2-ef5f-4af1-bebc-e679c02badd3"},"vehicle_type_id":"4","last_reported":1702642406,"current_range_meters":14400,"station_id":"ce4bhlh2rcd13ifvqgig","pricing_plan_id":"free"},{"bike_id":"4801bce4-f2d8-4d38-9b21-58084e0cd275","system_id":"levelo_inurba_marseille","lat":43.25102,"lon":5.403214,"is_reserved":false,"is_disabled":false,"rental_uris":{"android":"levelo://app?vid=4801bce4-f2d8-4d38-9b21-58084e0cd275","ios":"levelo://app?vid=4801bce4-f2d8-4d38-9b21-58084e0cd275"},"vehicle_type_id":"4","last_reported":1702642406,"current_range_meters":23600,"station_id":"ce4bhlh2rcd13ifvqgig","pricing_plan_id":"free"},{"bike_id":"8f56fd84-9b07-4290-b5e3-cac21f5b1a8f","system_id":"levelo_inurba_marseille","lat":43.25102,"lon":5.403214,"is_reserved":false,"is_disabled":false,"rental_uris":{"android":"levelo://app?vid=8f56fd84-9b07-4290-b5e3-cac21f5b1a8f","ios":"levelo://app?vid=8f56fd84-9b07-4290-b5e3-cac21f5b1a8f"},"vehicle_type_id":"4","last_reported":1702642406,"current_range_meters":18400,"station_id":"ce4bhlh2rcd13ifvqgig","pricing_plan_id":"free"},{"bike_id":"a2dda63e-6f80-4f86-ab71-bbfb2699139a","system_id":"levelo_inurba_marseille","lat":43.25102,"lon":5.403214,"is_reserved":false,"is_disabled":false,"rental_uris":{"android":"levelo://app?vid=a2dda63e-6f80-4f86-ab71-bbfb2699139a","ios":"levelo://app?vid=a2dda63e-6f80-4f86-ab71-bbfb2699139a"},"vehicle_type_id":"4","last_reported":1702642406,"current_range_meters":31600,"station_id":"ce4bhlh2rcd13ifvqgig","pricing_plan_id":"free"},{"bike_id":"f8439625-ee9d-4d9c-9264-2936b8368847","system_id":"levelo_inurba_marseille","lat":43.25102,"lon":5.403214,"is_reserved":false,"is_disabled":false,"rental_uris":{"android":"levelo://app?vid=f8439625-ee9d-4d9c-9264-2936b8368847","ios":"levelo://app?vid=f8439625-ee9d-4d9c-9264-2936b8368847"},"vehicle_type_id":"4","last_reported":1702642406,"current_range_meters":17200,"station_id":"ce4bhlh2rcd13ifvqgig","pricing_plan_id":"free"},{"bike_id":"069df437-ee5f-4e99-b5ce-45561b3cc013","system_id":"levelo_inurba_marseille","lat":43.246467,"lon":5.388984,"is_reserved":false,"is_disabled":false,"rental_uris":{"android":"levelo://app?vid=069df437-ee5f-4e99-b5ce-45561b3cc013","ios":"levelo://app?vid=069df437-ee5f-4e99-b5ce-45561b3cc013"},"vehicle_type_id":"4","last_reported":1702642406,"current_range_meters":10400,"station_id":"ce4bhg12rcd13ifvqf60","pricing_plan_id":"free"},{"bike_id":"24cf7ba8-9382-4158-b77d-2dba9f470feb","system_id":"levelo_inurba_marseille","lat":43.243884,"lon":5.370736,"is_reserved":false,"is_disabled":false,"rental_uris":{"android":"levelo://app?vid=24cf7ba8-9382-4158-b77d-2dba9f470feb","ios":"levelo://app?vid=24cf7ba8-9382-4158-b77d-2dba9f470feb"},"vehicle_type_id":"4","last_reported":1702642406,"current_range_meters":28000,"station_id":"ce4bhhh2rcd13ifvqfk0","pricing_plan_id":"free"},{"bike_id":"368d8ba7-9e36-494a-8368-02f5b9672c48","system_id":"levelo_inurba_marseille","lat":43.243884,"lon":5.370737,"is_reserved":false,"is_disabled":false,"rental_uris":{"android":"levelo://app?vid=368d8ba7-9e36-494a-8368-02f5b9672c48","ios":"levelo://app?vid=368d8ba7-9e36-494a-8368-02f5b9672c48"},"vehicle_type_id":"4","last_reported":1702642406,"current_range_meters":15200,"station_id":"ce4bhhh2rcd13ifvqfk0","pricing_plan_id":"free"},{"bike_id":"0b62bb29-02fd-4a95-ab0f-8ca69b333db9","system_id":"levelo_inurba_marseille","lat":43.243884,"lon":5.370737,"is_reserved":false,"is_disabled":false,"rental_uris":{"android":"levelo://app?vid=0b62bb29-02fd-4a95-ab0f-8ca69b333db9","ios":"levelo://app?vid=0b62bb29-02fd-4a95-ab0f-8ca69b333db9"},"vehicle_type_id":"4","last_reported":1702642406,"current_range_meters":27200,"station_id":"ce4bhhh2rcd13ifvqfk0","pricing_plan_id":"free"},{"bike_id":"180d3e01-737a-4839-b7d6-7587e3a7b83b","system_id":"levelo_inurba_marseille","lat":43.239588,"lon":5.366238,"is_reserved":false,"is_disabled":false,"rental_uris":{"android":"levelo://app?vid=180d3e01-737a-4839-b7d6-7587e3a7b83b","ios":"levelo://app?vid=180d3e01-737a-4839-b7d6-7587e3a7b83b"},"vehicle_type_id":"4","last_reported":1702642406,"current_range_meters":29200,"station_id":"ce4bhi12rcd13ifvqfp0","pricing_plan_id":"free"},{"bike_id":"5c56cc11-c1ca-430f-b898-95a1151d8a21","system_id":"levelo_inurba_marseille","lat":43.232,"lon":5.35547,"is_reserved":false,"is_disabled":false,"rental_uris":{"android":"levelo://app?vid=5c56cc11-c1ca-430f-b898-95a1151d8a21","ios":"levelo://app?vid=5c56cc11-c1ca-430f-b898-95a1151d8a21"},"vehicle_type_id":"4","last_reported":1702642406,"current_range_meters":27600,"station_id":"ce4bhu92rcd13ifvqi70","pricing_plan_id":"free"},{"bike_id":"81e904a9-3da5-429d-9d59-11820eabd019","system_id":"levelo_inurba_marseille","lat":43.231919,"lon":5.355532,"is_reserved":false,"is_disabled":false,"rental_uris":{"android":"levelo://app?vid=81e904a9-3da5-429d-9d59-11820eabd019","ios":"levelo://app?vid=81e904a9-3da5-429d-9d59-11820eabd019"},"vehicle_type_id":"4","last_reported":1702642406,"current_range_meters":27600,"station_id":"ce4bhu92rcd13ifvqi70","pricing_plan_id":"free"},{"bike_id":"547672b1-18af-4711-b9a3-86e73cab70b4","system_id":"levelo_inurba_marseille","lat":43.23193,"lon":5.35552,"is_reserved":false,"is_disabled":false,"rental_uris":{"android":"levelo://app?vid=547672b1-18af-4711-b9a3-86e73cab70b4","ios":"levelo://app?vid=547672b1-18af-4711-b9a3-86e73cab70b4"},"vehicle_type_id":"4","last_reported":1702642406,"current_range_meters":18800,"station_id":"ce4bhu92rcd13ifvqi70","pricing_plan_id":"free"},{"bike_id":"160d3fcc-bd25-4280-b137-d9379b2a4d30","system_id":"levelo_inurba_marseille","lat":43.231919,"lon":5.355532,"is_reserved":false,"is_disabled":false,"rental_uris":{"android":"levelo://app?vid=160d3fcc-bd25-4280-b137-d9379b2a4d30","ios":"levelo://app?vid=160d3fcc-bd25-4280-b137-d9379b2a4d30"},"vehicle_type_id":"4","last_reported":1702642406,"current_range_meters":19200,"station_id":"ce4bhu92rcd13ifvqi70","pricing_plan_id":"free"},{"bike_id":"1c152701-4b2a-4bae-9910-af52ecb96d7d","system_id":"levelo_inurba_marseille","lat":43.23192,"lon":5.35543,"is_reserved":false,"is_disabled":false,"rental_uris":{"android":"levelo://app?vid=1c152701-4b2a-4bae-9910-af52ecb96d7d","ios":"levelo://app?vid=1c152701-4b2a-4bae-9910-af52ecb96d7d"},"vehicle_type_id":"4","last_reported":1702642406,"current_range_meters":15600,"station_id":"ce4bhu92rcd13ifvqi70","pricing_plan_id":"free"},{"bike_id":"d657bd16-ddba-486a-8e03-61a1863435fa","system_id":"levelo_inurba_marseille","lat":43.231794,"lon":5.400052,"is_reserved":false,"is_disabled":false,"rental_uris":{"android":"levelo://app?vid=d657bd16-ddba-486a-8e03-61a1863435fa","ios":"levelo://app?vid=d657bd16-ddba-486a-8e03-61a1863435fa"},"vehicle_type_id":"4","last_reported":1702642406,"current_range_meters":31200,"station_id":"ce4bhn12rcd13ifvqgqg","pricing_plan_id":"free"},{"bike_id":"66c7be48-055a-4d3c-babc-42a1ae9c92f3","system_id":"levelo_inurba_marseille","lat":43.231793,"lon":5.400044,"is_reserved":false,"is_disabled":false,"rental_uris":{"android":"levelo://app?vid=66c7be48-055a-4d3c-babc-42a1ae9c92f3","ios":"levelo://app?vid=66c7be48-055a-4d3c-babc-42a1ae9c92f3"},"vehicle_type_id":"4","last_reported":1702642406,"current_range_meters":10000,"station_id":"ce4bhn12rcd13ifvqgqg","pricing_plan_id":"free"},{"bike_id":"15390e95-9aad-4940-b530-77bde5a963d6","system_id":"levelo_inurba_marseille","lat":43.231793,"lon":5.400044,"is_reserved":false,"is_disabled":false,"rental_uris":{"android":"levelo://app?vid=15390e95-9aad-4940-b530-77bde5a963d6","ios":"levelo://app?vid=15390e95-9aad-4940-b530-77bde5a963d6"},"vehicle_type_id":"4","last_reported":1702642406,"current_range_meters":29600,"station_id":"ce4bhn12rcd13ifvqgqg","pricing_plan_id":"free"},{"bike_id":"dab70c17-a5b9-4f38-944f-6180880edb5e","system_id":"levelo_inurba_marseille","lat":43.231794,"lon":5.400052,"is_reserved":false,"is_disabled":false,"rental_uris":{"android":"levelo://app?vid=dab70c17-a5b9-4f38-944f-6180880edb5e","ios":"levelo://app?vid=dab70c17-a5b9-4f38-944f-6180880edb5e"},"vehicle_type_id":"4","last_reported":1702642406,"current_range_meters":26800,"station_id":"ce4bhn12rcd13ifvqgqg","pricing_plan_id":"free"},{"bike_id":"9ea1be43-fefe-4b43-a11d-aef0c1b7e1e5","system_id":"levelo_inurba_marseille","lat":43.231794,"lon":5.400052,"is_reserved":false,"is_disabled":false,"rental_uris":{"android":"levelo://app?vid=9ea1be43-fefe-4b43-a11d-aef0c1b7e1e5","ios":"levelo://app?vid=9ea1be43-fefe-4b43-a11d-aef0c1b7e1e5"},"vehicle_type_id":"4","last_reported":1702642406,"current_range_meters":9200,"station_id":"ce4bhn12rcd13ifvqgqg","pricing_plan_id":"free"},{"bike_id":"3ee3ddba-66ac-4768-bd27-f666c8f401d2","system_id":"levelo_inurba_marseille","lat":43.231794,"lon":5.400052,"is_reserved":false,"is_disabled":false,"rental_uris":{"android":"levelo://app?vid=3ee3ddba-66ac-4768-bd27-f666c8f401d2","ios":"levelo://app?vid=3ee3ddba-66ac-4768-bd27-f666c8f401d2"},"vehicle_type_id":"4","last_reported":1702642406,"current_range_meters":18400,"station_id":"ce4bhn12rcd13ifvqgqg","pricing_plan_id":"free"},{"bike_id":"ebbe1ab4-3413-43cb-b51f-b32ca996f64c","system_id":"levelo_inurba_marseille","lat":43.231794,"lon":5.400052,"is_reserved":false,"is_disabled":false,"rental_uris":{"android":"levelo://app?vid=ebbe1ab4-3413-43cb-b51f-b32ca996f64c","ios":"levelo://app?vid=ebbe1ab4-3413-43cb-b51f-b32ca996f64c"},"vehicle_type_id":"4","last_reported":1702642406,"current_range_meters":8800,"station_id":"ce4bhn12rcd13ifvqgqg","pricing_plan_id":"free"},{"bike_id":"b3d76cfa-7eab-4352-8faa-b02cf8fae663","system_id":"levelo_inurba_marseille","lat":43.231793,"lon":5.400044,"is_reserved":false,"is_disabled":false,"rental_uris":{"android":"levelo://app?vid=b3d76cfa-7eab-4352-8faa-b02cf8fae663","ios":"levelo://app?vid=b3d76cfa-7eab-4352-8faa-b02cf8fae663"},"vehicle_type_id":"4","last_reported":1702642406,"current_range_meters":11600,"station_id":"ce4bhn12rcd13ifvqgqg","pricing_plan_id":"free"},{"bike_id":"456fc84f-22dc-42e8-a748-54aaf2e1d083","system_id":"levelo_inurba_marseille","lat":43.231793,"lon":5.400044,"is_reserved":false,"is_disabled":false,"rental_uris":{"android":"levelo://app?vid=456fc84f-22dc-42e8-a748-54aaf2e1d083","ios":"levelo://app?vid=456fc84f-22dc-42e8-a748-54aaf2e1d083"},"vehicle_type_id":"4","last_reported":1702642406,"current_range_meters":11200,"station_id":"ce4bhn12rcd13ifvqgqg","pricing_plan_id":"free"}]}}