{"last_updated":1732813688,"ttl":60,"version":"2.2","data":{"bikes":[{"bike_id":"e42545d9-331a-4f6f-afc6-4a1f2bf54ab1","system_id":"levelo_inurba_marseille","lat":43.27059,"lon":5.40262,"is_reserved":false,"is_disabled":true,"rental_uris":{"android":"levelo://app?vid=e42545d9-331a-4f6f-afc6-4a1f2bf54ab1","ios":"levelo://app?vid=e42545d9-331a-4f6f-afc6-4a1f2bf54ab1"},"vehicle_type_id":"4","last_reported":1732813688,"current_range_meters":800,"station_id":"ce4bhk92rcd13ifvqgc0","pricing_plan_id":"cebpf4jnsgd1na2vs0mg"},{"bike_id":"b856c8b4-412d-4c25-bdd4-e6b29aed04cb","system_id":"levelo_inurba_marseille","lat":43.22941,"lon":5.35378,"is_reserved":false,"is_disabled":false,"rental_uris":{"android":"levelo://app?vid=b856c8b4-412d-4c25-bdd4-e6b29aed04cb","ios":"levelo://app?vid=b856c8b4-412d-4c25-bdd4-e6b29aed04cb"},"vehicle_type_id":"4","last_reported":1732813688,"current_range_meters":40000,"station_id":"cpo3532slgdg3j2ikp40","pricing_plan_id":"cebpf4jnsgd1na2vs0mg"},{"bike_id":"f3831ca1-13b5-4e14-877c-5a9d4e5c6bea","system_id":"levelo_inurba_marseille","lat":43.26203,"lon":5.37932,"is_reserved":false,"is_disabled":false,"rental_uris":{"android":"levelo://app?vid=f3831ca1-13b5-4e14-877c-5a9d4e5c6bea","ios":"levelo://app?vid=f3831ca1-13b5-4e14-877c-5a9d4e5c6bea"},"vehicle_type_id":"4","last_reported":1732813688,"current_range_meters":34000,"station_id":"ce4bhjp2rcd13ifvqg90","pricing_plan_id":"cebpf4jnsgd1na2vs0mg"},{"bike_id":"8b606e12-d2c9-41bb-a2e2-b72a2fcca1e1","system_id":"levelo_inurba_marseille","lat":43.30817,"lon":5.37531,"is_reserved":false,"is_disabled":true,"rental_uris":{"android":"levelo://app?vid=8b606e12-d2c9-41bb-a2e2-b72a2fcca1e1","ios":"levelo://app?vid=8b606e12-d2c9-41bb-a2e2-b72a2fcca1e1"},"vehicle_type_id":"4","last_reported":1732813688,"current_range_meters":400,"station_id":"","pricing_plan_id":"cebpf4jnsgd1na2vs0mg"},{"bike_id":"8853c912-b4a1-4276-9621-7cc6e8622e9e","system_id":"levelo_inurba_marseille","lat":43.26934,"lon":5.38932,"is_reserved":false,"is_disabled":true,"rental_uris":{"android":"levelo://app?vid=8853c912-b4a1-4276-9621-7cc6e8622e9e","ios":"levelo://app?vid=8853c912-b4a1-4276-9621-7cc6e8622e9e"},"vehicle_type_id":"4","last_reported":1732813688,"current_range_meters":0,"station_id":"ce4bhhh2rcd13ifvqfl0","pricing_plan_id":"cebpf4jnsgd1na2vs0mg"},{"bike_id":"1ff0bfb3-2091-4e5a-bcd7-b9677034d194","system_id":"levelo_inurba_marseille","lat":43.29281,"lon":5.3685,"is_reserved":false,"is_disabled":false,"rental_uris":{"android":"levelo://app?vid=1ff0bfb3-2091-4e5a-bcd7-b9677034d194","ios":"levelo://app?vid=1ff0bfb3-2091-4e5a-bcd7-b9677034d194"},"vehicle_type_id":"4","last_reported":1732813688,"current_range_meters":25200,"station_id":"ce4bhbp2rcd13ifvqesg","pricing_plan_id":"cebpf4jnsgd1na2vs0mg"},{"bike_id":"ce15a521-8a1d-47b7-92c8-091ca367d00e","system_id":"levelo_inurba_marseille","lat":43.33749,"lon":5.37439,"is_reserved":false,"is_disabled":false,"rental_uris":{"android":"levelo://app?vid=ce15a521-8a1d-47b7-92c8-091ca367d00e","ios":"levelo://app?vid=ce15a521-8a1d-47b7-92c8-091ca367d00e"},"vehicle_type_id":"4","last_reported":1732813688,"current_range_meters":36800,"station_id":"","pricing_plan_id":"cebpf4jnsgd1na2vs0mg"},{"bike_id":"a8cfb7c5-59c0-4772-a793-b840317f8234","system_id":"levelo_inurba_marseille","lat":43.29253,"lon":5.40911,"is_reserved":false,"is_disabled":true,"rental_uris":{"android":"levelo://app?vid=a8cfb7c5-59c0-4772-a793-b840317f8234","ios":"levelo://app?vid=a8cfb7c5-59c0-4772-a793-b840317f8234"},"vehicle_type_id":"4","last_reported":1732813688,"current_range_meters":38800,"station_id":"ce4bh192rcd13ifvqdc0","pricing_plan_id":"cebpf4jnsgd1na2vs0mg"},{"bike_id":"ba2d1a62-e632-4169-9a28-b83f6acba689","system_id":"levelo_inurba_marseille","lat":43.26325,"lon":5.40467,"is_reserved":false,"is_disabled":true,"rental_uris":{"android":"levelo://app?vid=ba2d1a62-e632-4169-9a28-b83f6acba689","ios":"levelo://app?vid=ba2d1a62-e632-4169-9a28-b83f6acba689"},"vehicle_type_id":"4","last_reported":1732813688,"current_range_meters":0,"station_id":"","pricing_plan_id":"cebpf4jnsgd1na2vs0mg"},{"bike_id":"106e461f-3874-428c-8522-21fc2ca5b5c8","system_id":"levelo_inurba_marseille","lat":43.28034,"lon":5.36937,"is_reserved":false,"is_disabled":true,"rental_uris":{"android":"levelo://app?vid=106e461f-3874-428c-8522-21fc2ca5b5c8","ios":"levelo://app?vid=106e461f-3874-428c-8522-21fc2ca5b5c8"},"vehicle_type_id":"4","last_reported":1732813688,"current_range_meters":1600,"station_id":"ce4bha12rcd13ifvqef0","pricing_plan_id":"cebpf4jnsgd1na2vs0mg"},{"bike_id":"1e6c3ebf-5fe6-4a58-a3a5-470ed290fc10","system_id":"levelo_inurba_marseille","lat":43.31501,"lon":5.37252,"is_reserved":false,"is_disabled":true,"rental_uris":{"android":"levelo://app?vid=1e6c3ebf-5fe6-4a58-a3a5-470ed290fc10","ios":"levelo://app?vid=1e6c3ebf-5fe6-4a58-a3a5-470ed290fc10"},"vehicle_type_id":"4","last_reported":1732813688,"current_range_meters":0,"station_id":"","pricing_plan_id":"cebpf4jnsgd1na2vs0mg"},{"bike_id":"3311b98b-2d07-42c3-ab30-997a77f6e0e5","system_id":"levelo_inurba_marseille","lat":43.27944,"lon":5.41046,"is_reserved":false,"is_disabled":false,"rental_uris":{"android":"levelo://app?vid=3311b98b-2d07-42c3-ab30-997a77f6e0e5","ios":"levelo://app?vid=3311b98b-2d07-42c3-ab30-997a77f6e0e5"},"vehicle_type_id":"4","last_reported":1732813688,"current_range_meters":14000,"station_id":"ce4bhnp2rcd13ifvqh0g","pricing_plan_id":"cebpf4jnsgd1na2vs0mg"},{"bike_id":"ff9a1ec5-be80-43ec-9b6e-d2bb637a4f30","system_id":"levelo_inurba_marseille","lat":43.287144,"lon":5.399981,"is_reserved":false,"is_disabled":true,"rental_uris":{"android":"levelo://app?vid=ff9a1ec5-be80-43ec-9b6e-d2bb637a4f30","ios":"levelo://app?vid=ff9a1ec5-be80-43ec-9b6e-d2bb637a4f30"},"vehicle_type_id":"4","last_reported":1732813688,"current_range_meters":35200,"station_id":"ce4bho92rcd13ifvqh3g","pricing_plan_id":"cebpf4jnsgd1na2vs0mg"},{"bike_id":"2735ebc8-02f2-4b73-9b98-fe22c818e98a","system_id":"levelo_inurba_marseille","lat":43.22931,"lon":5.35376,"is_reserved":false,"is_disabled":false,"rental_uris":{"android":"levelo://app?vid=2735ebc8-02f2-4b73-9b98-fe22c818e98a","ios":"levelo://app?vid=2735ebc8-02f2-4b73-9b98-fe22c818e98a"},"vehicle_type_id":"4","last_reported":1732813688,"current_range_meters":10800,"station_id":"cpo3532slgdg3j2ikp40","pricing_plan_id":"cebpf4jnsgd1na2vs0mg"},{"bike_id":"6f7949e1-de87-4a49-8620-fec27e04447f","system_id":"levelo_inurba_marseille","lat":43.33727,"lon":5.39184,"is_reserved":false,"is_disabled":false,"rental_uris":{"android":"levelo://app?vid=6f7949e1-de87-4a49-8620-fec27e04447f","ios":"levelo://app?vid=6f7949e1-de87-4a49-8620-fec27e04447f"},"vehicle_type_id":"4","last_reported":1732813688,"current_range_meters":34800,"station_id":"ce4bhr92rcd13ifvqhsg","pricing_plan_id":"cebpf4jnsgd1na2vs0mg"},{"bike_id":"d6af473c-317d-44a4-ba58-092abf84584f","system_id":"levelo_inurba_marseille","lat":43.22935,"lon":5.35379,"is_reserved":false,"is_disabled":true,"rental_uris":{"android":"levelo://app?vid=d6af473c-317d-44a4-ba58-092abf84584f","ios":"levelo://app?vid=d6af473c-317d-44a4-ba58-092abf84584f"},"vehicle_type_id":"4","last_reported":1732813688,"current_range_meters":1600,"station_id":"cpo3532slgdg3j2ikp40","pricing_plan_id":"cebpf4jnsgd1na2vs0mg"},{"bike_id":"6d14cef3-b447-4540-b8f1-7ac40f5c9c98","system_id":"levelo_inurba_marseille","lat":43.2904,"lon":5.39969,"is_reserved":false,"is_disabled":false,"rental_uris":{"android":"levelo://app?vid=6d14cef3-b447-4540-b8f1-7ac40f5c9c98","ios":"levelo://app?vid=6d14cef3-b447-4540-b8f1-7ac40f5c9c98"},"vehicle_type_id":"4","last_reported":1732813688,"current_range_meters":39200,"station_id":"ce4bh392rcd13ifvqdm0","pricing_plan_id":"cebpf4jnsgd1na2vs0mg"},{"bike_id":"2ee21ee3-8449-4fb5-b905-51f491900fa7","system_id":"levelo_inurba_marseille","lat":43.29199,"lon":5.39317,"is_reserved":false,"is_disabled":false,"rental_uris":{"android":"levelo://app?vid=2ee21ee3-8449-4fb5-b905-51f491900fa7","ios":"levelo://app?vid=2ee21ee3-8449-4fb5-b905-51f491900fa7"},"vehicle_type_id":"4","last_reported":1732813688,"current_range_meters":35200,"station_id":"ce4bh192rcd13ifvqdd0","pricing_plan_id":"cebpf4jnsgd1na2vs0mg"},{"bike_id":"d873b31d-bfeb-45ba-95cb-ddd4b051333e","system_id":"levelo_inurba_marseille","lat":43.29798,"lon":5.38132,"is_reserved":false,"is_disabled":true,"rental_uris":{"android":"levelo://app?vid=d873b31d-bfeb-45ba-95cb-ddd4b051333e","ios":"levelo://app?vid=d873b31d-bfeb-45ba-95cb-ddd4b051333e"},"vehicle_type_id":"4","last_reported":1732813688,"current_range_meters":38800,"station_id":"ce4bgip2rcd13ifvqbb0","pricing_plan_id":"cebpf4jnsgd1na2vs0mg"},{"bike_id":"4080f256-3760-42c4-96ae-712cf99bd1fe","system_id":"levelo_inurba_marseille","lat":43.28354,"lon":5.38092,"is_reserved":false,"is_disabled":false,"rental_uris":{"android":"levelo://app?vid=4080f256-3760-42c4-96ae-712cf99bd1fe","ios":"levelo://app?vid=4080f256-3760-42c4-96ae-712cf99bd1fe"},"vehicle_type_id":"4","last_reported":1732813688,"current_range_meters":8800,"station_id":"ce4bh412rcd13ifvqdr0","pricing_plan_id":"cebpf4jnsgd1na2vs0mg"},{"bike_id":"95bce0c8-7aac-4804-81c7-e4d0b22cb60c","system_id":"levelo_inurba_marseille","lat":43.23954,"lon":5.36654,"is_reserved":false,"is_disabled":false,"rental_uris":{"android":"levelo://app?vid=95bce0c8-7aac-4804-81c7-e4d0b22cb60c","ios":"levelo://app?vid=95bce0c8-7aac-4804-81c7-e4d0b22cb60c"},"vehicle_type_id":"4","last_reported":1732813688,"current_range_meters":16800,"station_id":"ce4bhi12rcd13ifvqfp0","pricing_plan_id":"cebpf4jnsgd1na2vs0mg"},{"bike_id":"72a955bb-38a2-4bc3-a37c-e894ed5ff445","system_id":"levelo_inurba_marseille","lat":43.26676,"lon":5.38267,"is_reserved":false,"is_disabled":false,"rental_uris":{"android":"levelo://app?vid=72a955bb-38a2-4bc3-a37c-e894ed5ff445","ios":"levelo://app?vid=72a955bb-38a2-4bc3-a37c-e894ed5ff445"},"vehicle_type_id":"4","last_reported":1732813688,"current_range_meters":36400,"station_id":"ce4bhg92rcd13ifvqf90","pricing_plan_id":"cebpf4jnsgd1na2vs0mg"},{"bike_id":"b1422ff8-74e2-4dc1-94ac-a145ceea1d5e","system_id":"levelo_inurba_marseille","lat":43.32373,"lon":5.36724,"is_reserved":false,"is_disabled":false,"rental_uris":{"android":"levelo://app?vid=b1422ff8-74e2-4dc1-94ac-a145ceea1d5e","ios":"levelo://app?vid=b1422ff8-74e2-4dc1-94ac-a145ceea1d5e"},"vehicle_type_id":"4","last_reported":1732813688,"current_range_meters":12800,"station_id":"ce4bhsh2rcd13ifvqi2g","pricing_plan_id":"cebpf4jnsgd1na2vs0mg"},{"bike_id":"8a8f2c7c-3542-4bd7-a6be-2c945171d7c4","system_id":"levelo_inurba_marseille","lat":43.29262,"lon":5.38435,"is_reserved":false,"is_disabled":false,"rental_uris":{"android":"levelo://app?vid=8a8f2c7c-3542-4bd7-a6be-2c945171d7c4","ios":"levelo://app?vid=8a8f2c7c-3542-4bd7-a6be-2c945171d7c4"},"vehicle_type_id":"4","last_reported":1732813688,"current_range_meters":34000,"station_id":"ce4bh692rcd13ifvqea0","pricing_plan_id":"cebpf4jnsgd1na2vs0mg"},{"bike_id":"4709c438-f4af-415a-a919-d27302b75dca","system_id":"levelo_inurba_marseille","lat":43.23196,"lon":5.35553,"is_reserved":false,"is_disabled":false,"rental_uris":{"android":"levelo://app?vid=4709c438-f4af-415a-a919-d27302b75dca","ios":"levelo://app?vid=4709c438-f4af-415a-a919-d27302b75dca"},"vehicle_type_id":"4","last_reported":1732813688,"current_range_meters":40000,"station_id":"ce4bhu92rcd13ifvqi70","pricing_plan_id":"cebpf4jnsgd1na2vs0mg"},{"bike_id":"2b921899-1359-49b6-a793-ffb9ef50e656","system_id":"levelo_inurba_marseille","lat":43.2962,"lon":5.37714,"is_reserved":false,"is_disabled":true,"rental_uris":{"android":"levelo://app?vid=2b921899-1359-49b6-a793-ffb9ef50e656","ios":"levelo://app?vid=2b921899-1359-49b6-a793-ffb9ef50e656"},"vehicle_type_id":"4","last_reported":1732813688,"current_range_meters":36800,"station_id":"ce4bgi92rcd13ifvqb90","pricing_plan_id":"cebpf4jnsgd1na2vs0mg"},{"bike_id":"0bdb09b7-6521-4b1f-929b-ea08f0336fbf","system_id":"levelo_inurba_marseille","lat":43.26578,"lon":5.38998,"is_reserved":false,"is_disabled":false,"rental_uris":{"android":"levelo://app?vid=0bdb09b7-6521-4b1f-929b-ea08f0336fbf","ios":"levelo://app?vid=0bdb09b7-6521-4b1f-929b-ea08f0336fbf"},"vehicle_type_id":"4","last_reported":1732813688,"current_range_meters":13600,"station_id":"ce4bhe12rcd13ifvqf30","pricing_plan_id":"cebpf4jnsgd1na2vs0mg"},{"bike_id":"58040378-96e7-4e8e-b008-e0edcf04ca18","system_id":"levelo_inurba_marseille","lat":43.304314,"lon":5.388668,"is_reserved":false,"is_disabled":true,"rental_uris":{"android":"levelo://app?vid=58040378-96e7-4e8e-b008-e0edcf04ca18","ios":"levelo://app?vid=58040378-96e7-4e8e-b008-e0edcf04ca18"},"vehicle_type_id":"4","last_reported":1732813688,"current_range_meters":0,"station_id":"ce4bgk12rcd13ifvqbi0","pricing_plan_id":"cebpf4jnsgd1na2vs0mg"},{"bike_id":"635b2fab-c93a-4fd4-8c00-90d4043c605c","system_id":"levelo_inurba_marseille","lat":43.28727,"lon":5.36082,"is_reserved":false,"is_disabled":false,"rental_uris":{"android":"levelo://app?vid=635b2fab-c93a-4fd4-8c00-90d4043c605c","ios":"levelo://app?vid=635b2fab-c93a-4fd4-8c00-90d4043c605c"},"vehicle_type_id":"4","last_reported":1732813688,"current_range_meters":39200,"station_id":"cki0cbj6b192h4jlfktg","pricing_plan_id":"cebpf4jnsgd1na2vs0mg"},{"bike_id":"e18473c4-2278-4cb2-aaab-395e1c6cf760","system_id":"levelo_inurba_marseille","lat":43.30598,"lon":5.39327,"is_reserved":false,"is_disabled":true,"rental_uris":{"android":"levelo://app?vid=e18473c4-2278-4cb2-aaab-395e1c6cf760","ios":"levelo://app?vid=e18473c4-2278-4cb2-aaab-395e1c6cf760"},"vehicle_type_id":"4","last_reported":1732813688,"current_range_meters":800,"station_id":"ce4bh0p2rcd13ifvqd80","pricing_plan_id":"cebpf4jnsgd1na2vs0mg"},{"bike_id":"fbab3102-fe03-49af-bbaa-d57c7a8c6fa3","system_id":"levelo_inurba_marseille","lat":43.28669,"lon":5.36355,"is_reserved":false,"is_disabled":true,"rental_uris":{"android":"levelo://app?vid=fbab3102-fe03-49af-bbaa-d57c7a8c6fa3","ios":"levelo://app?vid=fbab3102-fe03-49af-bbaa-d57c7a8c6fa3"},"vehicle_type_id":"4","last_reported":1732813688,"current_range_meters":19200,"station_id":"ce4bhah2rcd13ifvqej0","pricing_plan_id":"cebpf4jnsgd1na2vs0mg"},{"bike_id":"5c9a900c-8721-4714-81e4-cac9a4b15fd0","system_id":"levelo_inurba_marseille","lat":43.33726,"lon":5.3919,"is_reserved":false,"is_disabled":false,"rental_uris":{"android":"levelo://app?vid=5c9a900c-8721-4714-81e4-cac9a4b15fd0","ios":"levelo://app?vid=5c9a900c-8721-4714-81e4-cac9a4b15fd0"},"vehicle_type_id":"4","last_reported":1732813688,"current_range_meters":7200,"station_id":"ce4bhr92rcd13ifvqhsg","pricing_plan_id":"cebpf4jnsgd1na2vs0mg"},{"bike_id":"72e35d97-4929-4c08-9aa5-b25efdaba4d6","system_id":"levelo_inurba_marseille","lat":43.30085,"lon":5.39084,"is_reserved":false,"is_disabled":false,"rental_uris":{"android":"levelo://app?vid=72e35d97-4929-4c08-9aa5-b25efdaba4d6","ios":"levelo://app?vid=72e35d97-4929-4c08-9aa5-b25efdaba4d6"},"vehicle_type_id":"4","last_reported":1732813688,"current_range_meters":24800,"station_id":"ce4bh192rcd13ifvqdb0","pricing_plan_id":"cebpf4jnsgd1na2vs0mg"},{"bike_id":"1dc66f9a-39cd-4be6-8649-24e7533aca62","system_id":"levelo_inurba_marseille","lat":43.28466,"lon":5.35886,"is_reserved":false,"is_disabled":false,"rental_uris":{"android":"levelo://app?vid=1dc66f9a-39cd-4be6-8649-24e7533aca62","ios":"levelo://app?vid=1dc66f9a-39cd-4be6-8649-24e7533aca62"},"vehicle_type_id":"4","last_reported":1732813688,"current_range_meters":40000,"station_id":"ce4bhah2rcd13ifvqei0","pricing_plan_id":"cebpf4jnsgd1na2vs0mg"},{"bike_id":"8e2041ad-6bf5-4186-becc-025de1939b87","system_id":"levelo_inurba_marseille","lat":43.28461,"lon":5.3589,"is_reserved":false,"is_disabled":true,"rental_uris":{"android":"levelo://app?vid=8e2041ad-6bf5-4186-becc-025de1939b87","ios":"levelo://app?vid=8e2041ad-6bf5-4186-becc-025de1939b87"},"vehicle_type_id":"4","last_reported":1732813688,"current_range_meters":14400,"station_id":"ce4bhah2rcd13ifvqei0","pricing_plan_id":"cebpf4jnsgd1na2vs0mg"},{"bike_id":"422d452f-17cc-4565-afd8-833a3bc96a0e","system_id":"levelo_inurba_marseille","lat":43.30122,"lon":5.39868,"is_reserved":false,"is_disabled":true,"rental_uris":{"android":"levelo://app?vid=422d452f-17cc-4565-afd8-833a3bc96a0e","ios":"levelo://app?vid=422d452f-17cc-4565-afd8-833a3bc96a0e"},"vehicle_type_id":"4","last_reported":1732813688,"current_range_meters":26800,"station_id":"ce4bh0h2rcd13ifvqd40","pricing_plan_id":"cebpf4jnsgd1na2vs0mg"},{"bike_id":"4d4c884f-6933-49c0-8899-f9856d90f44d","system_id":"levelo_inurba_marseille","lat":43.29748,"lon":5.37971,"is_reserved":false,"is_disabled":true,"rental_uris":{"android":"levelo://app?vid=4d4c884f-6933-49c0-8899-f9856d90f44d","ios":"levelo://app?vid=4d4c884f-6933-49c0-8899-f9856d90f44d"},"vehicle_type_id":"4","last_reported":1732813688,"current_range_meters":0,"station_id":"","pricing_plan_id":"cebpf4jnsgd1na2vs0mg"},{"bike_id":"b6e48330-8212-4476-b4d2-8a1e3bec5ff6","system_id":"levelo_inurba_marseille","lat":43.28657,"lon":5.36346,"is_reserved":false,"is_disabled":true,"rental_uris":{"android":"levelo://app?vid=b6e48330-8212-4476-b4d2-8a1e3bec5ff6","ios":"levelo://app?vid=b6e48330-8212-4476-b4d2-8a1e3bec5ff6"},"vehicle_type_id":"4","last_reported":1732813688,"current_range_meters":24800,"station_id":"ce4bhah2rcd13ifvqej0","pricing_plan_id":"cebpf4jnsgd1na2vs0mg"},{"bike_id":"27914193-16b0-40ab-9150-5ebd9452b4f7","system_id":"levelo_inurba_marseille","lat":43.29868,"lon":5.39737,"is_reserved":false,"is_disabled":true,"rental_uris":{"android":"levelo://app?vid=27914193-16b0-40ab-9150-5ebd9452b4f7","ios":"levelo://app?vid=27914193-16b0-40ab-9150-5ebd9452b4f7"},"vehicle_type_id":"4","last_reported":1732813688,"current_range_meters":0,"station_id":"ce4bh0h2rcd13ifvqd50","pricing_plan_id":"cebpf4jnsgd1na2vs0mg"},{"bike_id":"9009be37-c6b1-406b-b0a8-fbab355f715e","system_id":"levelo_inurba_marseille","lat":43.33772,"lon":5.37494,"is_reserved":false,"is_disabled":false,"rental_uris":{"android":"levelo://app?vid=9009be37-c6b1-406b-b0a8-fbab355f715e","ios":"levelo://app?vid=9009be37-c6b1-406b-b0a8-fbab355f715e"},"vehicle_type_id":"4","last_reported":1732813688,"current_range_meters":38400,"station_id":"","pricing_plan_id":"cebpf4jnsgd1na2vs0mg"},{"bike_id":"f036ea2e-96a3-4f76-99f7-7f3c5e6948be","system_id":"levelo_inurba_marseille","lat":43.27181,"lon":5.40989,"is_reserved":false,"is_disabled":false,"rental_uris":{"android":"levelo://app?vid=f036ea2e-96a3-4f76-99f7-7f3c5e6948be","ios":"levelo://app?vid=f036ea2e-96a3-4f76-99f7-7f3c5e6948be"},"vehicle_type_id":"4","last_reported":1732813688,"current_range_meters":38800,"station_id":"ce4bhl12rcd13ifvqgf0","pricing_plan_id":"cebpf4jnsgd1na2vs0mg"},{"bike_id":"ad448571-bebb-4a8d-8d20-19092292da85","system_id":"levelo_inurba_marseille","lat":43.29167,"lon":5.37151,"is_reserved":false,"is_disabled":true,"rental_uris":{"android":"levelo://app?vid=ad448571-bebb-4a8d-8d20-19092292da85","ios":"levelo://app?vid=ad448571-bebb-4a8d-8d20-19092292da85"},"vehicle_type_id":"4","last_reported":1732813688,"current_range_meters":27600,"station_id":"ce4bha92rcd13ifvqeh0","pricing_plan_id":"cebpf4jnsgd1na2vs0mg"},{"bike_id":"cfb23acc-2889-4238-9bbf-3ccb848a9be8","system_id":"levelo_inurba_marseille","lat":43.23153,"lon":5.43718,"is_reserved":false,"is_disabled":false,"rental_uris":{"android":"levelo://app?vid=cfb23acc-2889-4238-9bbf-3ccb848a9be8","ios":"levelo://app?vid=cfb23acc-2889-4238-9bbf-3ccb848a9be8"},"vehicle_type_id":"4","last_reported":1732813688,"current_range_meters":28800,"station_id":"ce4bhmp2rcd13ifvqgog","pricing_plan_id":"cebpf4jnsgd1na2vs0mg"},{"bike_id":"60a60738-2ec3-4e16-b564-e565faa34bec","system_id":"levelo_inurba_marseille","lat":43.26937,"lon":5.38922,"is_reserved":false,"is_disabled":false,"rental_uris":{"android":"levelo://app?vid=60a60738-2ec3-4e16-b564-e565faa34bec","ios":"levelo://app?vid=60a60738-2ec3-4e16-b564-e565faa34bec"},"vehicle_type_id":"4","last_reported":1732813688,"current_range_meters":24800,"station_id":"ce4bhhh2rcd13ifvqfl0","pricing_plan_id":"cebpf4jnsgd1na2vs0mg"},{"bike_id":"840c2084-3872-4bb0-aad2-5ab80f87c1f6","system_id":"levelo_inurba_marseille","lat":43.30645,"lon":5.40095,"is_reserved":false,"is_disabled":true,"rental_uris":{"android":"levelo://app?vid=840c2084-3872-4bb0-aad2-5ab80f87c1f6","ios":"levelo://app?vid=840c2084-3872-4bb0-aad2-5ab80f87c1f6"},"vehicle_type_id":"4","last_reported":1732813688,"current_range_meters":24000,"station_id":"ce4bh112rcd13ifvqda0","pricing_plan_id":"cebpf4jnsgd1na2vs0mg"},{"bike_id":"670225b3-d8b3-4463-a45b-71b6bdb137e6","system_id":"levelo_inurba_marseille","lat":43.29532,"lon":5.38549,"is_reserved":false,"is_disabled":false,"rental_uris":{"android":"levelo://app?vid=670225b3-d8b3-4463-a45b-71b6bdb137e6","ios":"levelo://app?vid=670225b3-d8b3-4463-a45b-71b6bdb137e6"},"vehicle_type_id":"4","last_reported":1732813688,"current_range_meters":38800,"station_id":"ce4bgih2rcd13ifvqba0","pricing_plan_id":"cebpf4jnsgd1na2vs0mg"},{"bike_id":"6770707a-d638-46db-ac11-17ca394f4eb5","system_id":"levelo_inurba_marseille","lat":43.23964,"lon":5.36631,"is_reserved":false,"is_disabled":false,"rental_uris":{"android":"levelo://app?vid=6770707a-d638-46db-ac11-17ca394f4eb5","ios":"levelo://app?vid=6770707a-d638-46db-ac11-17ca394f4eb5"},"vehicle_type_id":"4","last_reported":1732813688,"current_range_meters":21600,"station_id":"ce4bhi12rcd13ifvqfp0","pricing_plan_id":"cebpf4jnsgd1na2vs0mg"},{"bike_id":"26578956-a186-493c-8224-ce214f1a4c2c","system_id":"levelo_inurba_marseille","lat":43.30356,"lon":5.41881,"is_reserved":false,"is_disabled":false,"rental_uris":{"android":"levelo://app?vid=26578956-a186-493c-8224-ce214f1a4c2c","ios":"levelo://app?vid=26578956-a186-493c-8224-ce214f1a4c2c"},"vehicle_type_id":"4","last_reported":1732813688,"current_range_meters":11600,"station_id":"ce4bhop2rcd13ifvqh7g","pricing_plan_id":"cebpf4jnsgd1na2vs0mg"},{"bike_id":"d73bde79-3d85-483a-9f90-a4ea42d156b1","system_id":"levelo_inurba_marseille","lat":43.30553,"lon":5.36552,"is_reserved":false,"is_disabled":false,"rental_uris":{"android":"levelo://app?vid=d73bde79-3d85-483a-9f90-a4ea42d156b1","ios":"levelo://app?vid=d73bde79-3d85-483a-9f90-a4ea42d156b1"},"vehicle_type_id":"4","last_reported":1732813688,"current_range_meters":17600,"station_id":"ce4bgs12rcd13ifvqcag","pricing_plan_id":"cebpf4jnsgd1na2vs0mg"},{"bike_id":"2e8f5276-e4db-48ab-8fe6-92dce3f5eb2b","system_id":"levelo_inurba_marseille","lat":43.27614,"lon":5.36109,"is_reserved":false,"is_disabled":false,"rental_uris":{"android":"levelo://app?vid=2e8f5276-e4db-48ab-8fe6-92dce3f5eb2b","ios":"levelo://app?vid=2e8f5276-e4db-48ab-8fe6-92dce3f5eb2b"},"vehicle_type_id":"4","last_reported":1732813688,"current_range_meters":22400,"station_id":"ce4bgj92rcd13ifvqbe0","pricing_plan_id":"cebpf4jnsgd1na2vs0mg"},{"bike_id":"1936c595-32cf-4097-a6cb-753cf309a951","system_id":"levelo_inurba_marseille","lat":43.31729,"lon":5.42399,"is_reserved":false,"is_disabled":false,"rental_uris":{"android":"levelo://app?vid=1936c595-32cf-4097-a6cb-753cf309a951","ios":"levelo://app?vid=1936c595-32cf-4097-a6cb-753cf309a951"},"vehicle_type_id":"4","last_reported":1732813688,"current_range_meters":38400,"station_id":"ce4bhp92rcd13ifvqhbg","pricing_plan_id":"cebpf4jnsgd1na2vs0mg"},{"bike_id":"7c1b4caa-ad10-4248-afa4-847c1d45dcbd","system_id":"levelo_inurba_marseille","lat":43.25935,"lon":5.40912,"is_reserved":false,"is_disabled":false,"rental_uris":{"android":"levelo://app?vid=7c1b4caa-ad10-4248-afa4-847c1d45dcbd","ios":"levelo://app?vid=7c1b4caa-ad10-4248-afa4-847c1d45dcbd"},"vehicle_type_id":"4","last_reported":1732813688,"current_range_meters":24400,"station_id":"ce4bhm92rcd13ifvqglg","pricing_plan_id":"cebpf4jnsgd1na2vs0mg"},{"bike_id":"e8fa7be1-2407-41a7-b843-e7c70f1917ef","system_id":"levelo_inurba_marseille","lat":43.27618,"lon":5.36107,"is_reserved":false,"is_disabled":true,"rental_uris":{"android":"levelo://app?vid=e8fa7be1-2407-41a7-b843-e7c70f1917ef","ios":"levelo://app?vid=e8fa7be1-2407-41a7-b843-e7c70f1917ef"},"vehicle_type_id":"4","last_reported":1732813688,"current_range_meters":0,"station_id":"ce4bgj92rcd13ifvqbe0","pricing_plan_id":"cebpf4jnsgd1na2vs0mg"},{"bike_id":"cbf360c8-2ebe-43a4-a104-148b0cc717df","system_id":"levelo_inurba_marseille","lat":43.29202,"lon":5.3931,"is_reserved":false,"is_disabled":false,"rental_uris":{"android":"levelo://app?vid=cbf360c8-2ebe-43a4-a104-148b0cc717df","ios":"levelo://app?vid=cbf360c8-2ebe-43a4-a104-148b0cc717df"},"vehicle_type_id":"4","last_reported":1732813688,"current_range_meters":11200,"station_id":"ce4bh192rcd13ifvqdd0","pricing_plan_id":"cebpf4jnsgd1na2vs0mg"},{"bike_id":"95c39abd-631b-4674-8877-bb71fdbca347","system_id":"levelo_inurba_marseille","lat":43.29604,"lon":5.37713,"is_reserved":false,"is_disabled":true,"rental_uris":{"android":"levelo://app?vid=95c39abd-631b-4674-8877-bb71fdbca347","ios":"levelo://app?vid=95c39abd-631b-4674-8877-bb71fdbca347"},"vehicle_type_id":"4","last_reported":1732813688,"current_range_meters":0,"station_id":"ce4bgi92rcd13ifvqb90","pricing_plan_id":"cebpf4jnsgd1na2vs0mg"},{"bike_id":"abe4247b-9100-4e73-bb1c-c2d138dfb3ed","system_id":"levelo_inurba_marseille","lat":43.26565,"lon":5.39006,"is_reserved":false,"is_disabled":false,"rental_uris":{"android":"levelo://app?vid=abe4247b-9100-4e73-bb1c-c2d138dfb3ed","ios":"levelo://app?vid=abe4247b-9100-4e73-bb1c-c2d138dfb3ed"},"vehicle_type_id":"4","last_reported":1732813688,"current_range_meters":28400,"station_id":"ce4bhe12rcd13ifvqf30","pricing_plan_id":"cebpf4jnsgd1na2vs0mg"},{"bike_id":"1cc1e945-eb9b-4437-8d75-3c4fa5557913","system_id":"levelo_inurba_marseille","lat":43.28861,"lon":5.39304,"is_reserved":false,"is_disabled":false,"rental_uris":{"android":"levelo://app?vid=1cc1e945-eb9b-4437-8d75-3c4fa5557913","ios":"levelo://app?vid=1cc1e945-eb9b-4437-8d75-3c4fa5557913"},"vehicle_type_id":"4","last_reported":1732813688,"current_range_meters":38800,"station_id":"ce4bh2p2rcd13ifvqdi0","pricing_plan_id":"cebpf4jnsgd1na2vs0mg"},{"bike_id":"1dee5398-ece1-4217-b5b9-984f22c2ff59","system_id":"levelo_inurba_marseille","lat":43.29256,"lon":5.38436,"is_reserved":false,"is_disabled":true,"rental_uris":{"android":"levelo://app?vid=1dee5398-ece1-4217-b5b9-984f22c2ff59","ios":"levelo://app?vid=1dee5398-ece1-4217-b5b9-984f22c2ff59"},"vehicle_type_id":"4","last_reported":1732813688,"current_range_meters":0,"station_id":"ce4bh692rcd13ifvqea0","pricing_plan_id":"cebpf4jnsgd1na2vs0mg"},{"bike_id":"35cde48b-e232-4392-95d8-1d6118a2707a","system_id":"levelo_inurba_marseille","lat":43.28277,"lon":5.35079,"is_reserved":false,"is_disabled":true,"rental_uris":{"android":"levelo://app?vid=35cde48b-e232-4392-95d8-1d6118a2707a","ios":"levelo://app?vid=35cde48b-e232-4392-95d8-1d6118a2707a"},"vehicle_type_id":"4","last_reported":1732813688,"current_range_meters":15200,"station_id":"ce4bhbp2rcd13ifvqerg","pricing_plan_id":"cebpf4jnsgd1na2vs0mg"},{"bike_id":"e77134e3-0e64-4117-bdd1-02fddc1d5723","system_id":"levelo_inurba_marseille","lat":43.3088,"lon":5.39654,"is_reserved":false,"is_disabled":false,"rental_uris":{"android":"levelo://app?vid=e77134e3-0e64-4117-bdd1-02fddc1d5723","ios":"levelo://app?vid=e77134e3-0e64-4117-bdd1-02fddc1d5723"},"vehicle_type_id":"4","last_reported":1732813688,"current_range_meters":23200,"station_id":"ce4bh012rcd13ifvqcv0","pricing_plan_id":"cebpf4jnsgd1na2vs0mg"},{"bike_id":"a8a175df-2b50-4bd0-af1b-e0edaa6d1dd5","system_id":"levelo_inurba_marseille","lat":43.2926,"lon":5.38438,"is_reserved":false,"is_disabled":false,"rental_uris":{"android":"levelo://app?vid=a8a175df-2b50-4bd0-af1b-e0edaa6d1dd5","ios":"levelo://app?vid=a8a175df-2b50-4bd0-af1b-e0edaa6d1dd5"},"vehicle_type_id":"4","last_reported":1732813688,"current_range_meters":33600,"station_id":"ce4bh692rcd13ifvqea0","pricing_plan_id":"cebpf4jnsgd1na2vs0mg"},{"bike_id":"4fd1b097-c59e-42c2-9798-00d668c80067","system_id":"levelo_inurba_marseille","lat":43.26943,"lon":5.40251,"is_reserved":false,"is_disabled":true,"rental_uris":{"android":"levelo://app?vid=4fd1b097-c59e-42c2-9798-00d668c80067","ios":"levelo://app?vid=4fd1b097-c59e-42c2-9798-00d668c80067"},"vehicle_type_id":"4","last_reported":1732813688,"current_range_meters":2000,"station_id":"cjm6bp8fraef2m0cb0m0","pricing_plan_id":"cebpf4jnsgd1na2vs0mg"},{"bike_id":"b799525a-4bd3-4025-995d-e4936a32b42e","system_id":"levelo_inurba_marseille","lat":43.2315,"lon":5.43708,"is_reserved":false,"is_disabled":false,"rental_uris":{"android":"levelo://app?vid=b799525a-4bd3-4025-995d-e4936a32b42e","ios":"levelo://app?vid=b799525a-4bd3-4025-995d-e4936a32b42e"},"vehicle_type_id":"4","last_reported":1732813688,"current_range_meters":17200,"station_id":"ce4bhmp2rcd13ifvqgog","pricing_plan_id":"cebpf4jnsgd1na2vs0mg"},{"bike_id":"d11b4956-0830-4cbe-b88f-76f8922fea2d","system_id":"levelo_inurba_marseille","lat":43.29554,"lon":5.42285,"is_reserved":false,"is_disabled":false,"rental_uris":{"android":"levelo://app?vid=d11b4956-0830-4cbe-b88f-76f8922fea2d","ios":"levelo://app?vid=d11b4956-0830-4cbe-b88f-76f8922fea2d"},"vehicle_type_id":"4","last_reported":1732813688,"current_range_meters":24800,"station_id":"ce4bhph2rcd13ifvqhdg","pricing_plan_id":"cebpf4jnsgd1na2vs0mg"},{"bike_id":"d5af7cc2-b6df-4c4f-8911-b9027557f92b","system_id":"levelo_inurba_marseille","lat":43.29968,"lon":5.37176,"is_reserved":false,"is_disabled":false,"rental_uris":{"android":"levelo://app?vid=d5af7cc2-b6df-4c4f-8911-b9027557f92b","ios":"levelo://app?vid=d5af7cc2-b6df-4c4f-8911-b9027557f92b"},"vehicle_type_id":"4","last_reported":1732813688,"current_range_meters":28800,"station_id":"ce4bgr92rcd13ifvqc7g","pricing_plan_id":"cebpf4jnsgd1na2vs0mg"},{"bike_id":"16fb8e17-b179-4d5a-add7-fbd05efe76fb","system_id":"levelo_inurba_marseille","lat":43.25933,"lon":5.40914,"is_reserved":false,"is_disabled":true,"rental_uris":{"android":"levelo://app?vid=16fb8e17-b179-4d5a-add7-fbd05efe76fb","ios":"levelo://app?vid=16fb8e17-b179-4d5a-add7-fbd05efe76fb"},"vehicle_type_id":"4","last_reported":1732813688,"current_range_meters":0,"station_id":"ce4bhm92rcd13ifvqglg","pricing_plan_id":"cebpf4jnsgd1na2vs0mg"},{"bike_id":"39b04c21-6a6a-40a7-a489-741c2b67c9bd","system_id":"levelo_inurba_marseille","lat":43.3373,"lon":5.39191,"is_reserved":false,"is_disabled":false,"rental_uris":{"android":"levelo://app?vid=39b04c21-6a6a-40a7-a489-741c2b67c9bd","ios":"levelo://app?vid=39b04c21-6a6a-40a7-a489-741c2b67c9bd"},"vehicle_type_id":"4","last_reported":1732813688,"current_range_meters":38800,"station_id":"ce4bhr92rcd13ifvqhsg","pricing_plan_id":"cebpf4jnsgd1na2vs0mg"},{"bike_id":"1c42731a-5859-4269-82cc-1f58d6ed97d5","system_id":"levelo_inurba_marseille","lat":43.29599,"lon":5.38085,"is_reserved":false,"is_disabled":false,"rental_uris":{"android":"levelo://app?vid=1c42731a-5859-4269-82cc-1f58d6ed97d5","ios":"levelo://app?vid=1c42731a-5859-4269-82cc-1f58d6ed97d5"},"vehicle_type_id":"4","last_reported":1732813688,"current_range_meters":26800,"station_id":"ce4bgl12rcd13ifvqbo0","pricing_plan_id":"cebpf4jnsgd1na2vs0mg"},{"bike_id":"428d9924-e84f-4562-94ed-eebbf896783a","system_id":"levelo_inurba_marseille","lat":43.24804,"lon":5.37458,"is_reserved":false,"is_disabled":false,"rental_uris":{"android":"levelo://app?vid=428d9924-e84f-4562-94ed-eebbf896783a","ios":"levelo://app?vid=428d9924-e84f-4562-94ed-eebbf896783a"},"vehicle_type_id":"4","last_reported":1732813688,"current_range_meters":9200,"station_id":"ce4bhgh2rcd13ifvqfb0","pricing_plan_id":"cebpf4jnsgd1na2vs0mg"},{"bike_id":"576aaad1-96fd-4cef-85ec-da9376e57ba5","system_id":"levelo_inurba_marseille","lat":43.28,"lon":5.41666,"is_reserved":false,"is_disabled":true,"rental_uris":{"android":"levelo://app?vid=576aaad1-96fd-4cef-85ec-da9376e57ba5","ios":"levelo://app?vid=576aaad1-96fd-4cef-85ec-da9376e57ba5"},"vehicle_type_id":"4","last_reported":1732813688,"current_range_meters":0,"station_id":"ce4bho12rcd13ifvqh1g","pricing_plan_id":"cebpf4jnsgd1na2vs0mg"},{"bike_id":"dd8abf73-0f11-4528-81c0-f7dfced5b75d","system_id":"levelo_inurba_marseille","lat":43.28035,"lon":5.36932,"is_reserved":false,"is_disabled":false,"rental_uris":{"android":"levelo://app?vid=dd8abf73-0f11-4528-81c0-f7dfced5b75d","ios":"levelo://app?vid=dd8abf73-0f11-4528-81c0-f7dfced5b75d"},"vehicle_type_id":"4","last_reported":1732813688,"current_range_meters":27600,"station_id":"ce4bha12rcd13ifvqef0","pricing_plan_id":"cebpf4jnsgd1na2vs0mg"},{"bike_id":"a4334e68-df66-47a8-81e3-023882891004","system_id":"levelo_inurba_marseille","lat":43.27741,"lon":5.40685,"is_reserved":false,"is_disabled":false,"rental_uris":{"android":"levelo://app?vid=a4334e68-df66-47a8-81e3-023882891004","ios":"levelo://app?vid=a4334e68-df66-47a8-81e3-023882891004"},"vehicle_type_id":"4","last_reported":1732813688,"current_range_meters":26800,"station_id":"ce4bhnh2rcd13ifvqgtg","pricing_plan_id":"cebpf4jnsgd1na2vs0mg"},{"bike_id":"55f94427-dfe4-4478-a6d8-0a154b88030a","system_id":"levelo_inurba_marseille","lat":43.275745,"lon":5.384276,"is_reserved":false,"is_disabled":true,"rental_uris":{"android":"levelo://app?vid=55f94427-dfe4-4478-a6d8-0a154b88030a","ios":"levelo://app?vid=55f94427-dfe4-4478-a6d8-0a154b88030a"},"vehicle_type_id":"4","last_reported":1732813688,"current_range_meters":1200,"station_id":"ce4bhh92rcd13ifvqfi0","pricing_plan_id":"cebpf4jnsgd1na2vs0mg"},{"bike_id":"4e146fb7-bfa9-401d-96fd-dd4773fb8431","system_id":"levelo_inurba_marseille","lat":43.32111,"lon":5.36772,"is_reserved":false,"is_disabled":false,"rental_uris":{"android":"levelo://app?vid=4e146fb7-bfa9-401d-96fd-dd4773fb8431","ios":"levelo://app?vid=4e146fb7-bfa9-401d-96fd-dd4773fb8431"},"vehicle_type_id":"4","last_reported":1732813688,"current_range_meters":9600,"station_id":"ce4bhrh2rcd13ifvqhug","pricing_plan_id":"cebpf4jnsgd1na2vs0mg"},{"bike_id":"81d9f7be-c3c6-4233-bf11-948e6f22debc","system_id":"levelo_inurba_marseille","lat":43.32364,"lon":5.38886,"is_reserved":false,"is_disabled":false,"rental_uris":{"android":"levelo://app?vid=81d9f7be-c3c6-4233-bf11-948e6f22debc","ios":"levelo://app?vid=81d9f7be-c3c6-4233-bf11-948e6f22debc"},"vehicle_type_id":"4","last_reported":1732813688,"current_range_meters":8400,"station_id":"ce4bhqp2rcd13ifvqhog","pricing_plan_id":"cebpf4jnsgd1na2vs0mg"},{"bike_id":"fd8792ff-a96c-4052-b941-83c88fc17abe","system_id":"levelo_inurba_marseille","lat":43.29795,"lon":5.40402,"is_reserved":false,"is_disabled":false,"rental_uris":{"android":"levelo://app?vid=fd8792ff-a96c-4052-b941-83c88fc17abe","ios":"levelo://app?vid=fd8792ff-a96c-4052-b941-83c88fc17abe"},"vehicle_type_id":"4","last_reported":1732813688,"current_range_meters":26000,"station_id":"ce4bh112rcd13ifvqd90","pricing_plan_id":"cebpf4jnsgd1na2vs0mg"},{"bike_id":"e930e690-301a-4786-a244-40f3f8e67c7c","system_id":"levelo_inurba_marseille","lat":43.29021,"lon":5.38642,"is_reserved":false,"is_disabled":false,"rental_uris":{"android":"levelo://app?vid=e930e690-301a-4786-a244-40f3f8e67c7c","ios":"levelo://app?vid=e930e690-301a-4786-a244-40f3f8e67c7c"},"vehicle_type_id":"4","last_reported":1732813688,"current_range_meters":21600,"station_id":"ce4bh4p2rcd13ifvqe0g","pricing_plan_id":"cebpf4jnsgd1na2vs0mg"},{"bike_id":"f14f4363-47d8-45cd-a562-e0f7be063522","system_id":"levelo_inurba_marseille","lat":43.2927,"lon":5.38447,"is_reserved":false,"is_disabled":false,"rental_uris":{"android":"levelo://app?vid=f14f4363-47d8-45cd-a562-e0f7be063522","ios":"levelo://app?vid=f14f4363-47d8-45cd-a562-e0f7be063522"},"vehicle_type_id":"4","last_reported":1732813688,"current_range_meters":12400,"station_id":"ce4bh692rcd13ifvqea0","pricing_plan_id":"cebpf4jnsgd1na2vs0mg"},{"bike_id":"2a976a45-3db2-4761-b229-7a9a5dc37b2c","system_id":"levelo_inurba_marseille","lat":43.280891,"lon":5.396391,"is_reserved":false,"is_disabled":true,"rental_uris":{"android":"levelo://app?vid=2a976a45-3db2-4761-b229-7a9a5dc37b2c","ios":"levelo://app?vid=2a976a45-3db2-4761-b229-7a9a5dc37b2c"},"vehicle_type_id":"4","last_reported":1732813688,"current_range_meters":400,"station_id":"ce4bho12rcd13ifvqh2g","pricing_plan_id":"cebpf4jnsgd1na2vs0mg"},{"bike_id":"8235fbdd-2039-468c-9752-0552e14ecc5c","system_id":"levelo_inurba_marseille","lat":43.28615,"lon":5.38487,"is_reserved":false,"is_disabled":false,"rental_uris":{"android":"levelo://app?vid=8235fbdd-2039-468c-9752-0552e14ecc5c","ios":"levelo://app?vid=8235fbdd-2039-468c-9752-0552e14ecc5c"},"vehicle_type_id":"4","last_reported":1732813688,"current_range_meters":24400,"station_id":"ce4bhoh2rcd13ifvqh5g","pricing_plan_id":"cebpf4jnsgd1na2vs0mg"},{"bike_id":"1cd78e3c-eca2-430e-a00b-3450b52eb373","system_id":"levelo_inurba_marseille","lat":43.22931,"lon":5.35377,"is_reserved":false,"is_disabled":false,"rental_uris":{"android":"levelo://app?vid=1cd78e3c-eca2-430e-a00b-3450b52eb373","ios":"levelo://app?vid=1cd78e3c-eca2-430e-a00b-3450b52eb373"},"vehicle_type_id":"4","last_reported":1732813688,"current_range_meters":32000,"station_id":"cpo3532slgdg3j2ikp40","pricing_plan_id":"cebpf4jnsgd1na2vs0mg"},{"bike_id":"f794b8fa-1f88-483b-a054-16f24b00c834","system_id":"levelo_inurba_marseille","lat":43.28279,"lon":5.35078,"is_reserved":false,"is_disabled":true,"rental_uris":{"android":"levelo://app?vid=f794b8fa-1f88-483b-a054-16f24b00c834","ios":"levelo://app?vid=f794b8fa-1f88-483b-a054-16f24b00c834"},"vehicle_type_id":"4","last_reported":1732813688,"current_range_meters":12000,"station_id":"ce4bhbp2rcd13ifvqerg","pricing_plan_id":"cebpf4jnsgd1na2vs0mg"},{"bike_id":"00741948-268e-498c-9e55-6281d4a7a67d","system_id":"levelo_inurba_marseille","lat":43.30542,"lon":5.384246,"is_reserved":false,"is_disabled":true,"rental_uris":{"android":"levelo://app?vid=00741948-268e-498c-9e55-6281d4a7a67d","ios":"levelo://app?vid=00741948-268e-498c-9e55-6281d4a7a67d"},"vehicle_type_id":"4","last_reported":1732813688,"current_range_meters":1200,"station_id":"ce4bgg92rcd13ifvqb30","pricing_plan_id":"cebpf4jnsgd1na2vs0mg"},{"bike_id":"40dc42c0-ff54-4894-b051-ae9c707fe604","system_id":"levelo_inurba_marseille","lat":43.29587,"lon":5.37446,"is_reserved":false,"is_disabled":false,"rental_uris":{"android":"levelo://app?vid=40dc42c0-ff54-4894-b051-ae9c707fe604","ios":"levelo://app?vid=40dc42c0-ff54-4894-b051-ae9c707fe604"},"vehicle_type_id":"4","last_reported":1732813688,"current_range_meters":6000,"station_id":"ce4bhph2rcd13ifvqheg","pricing_plan_id":"cebpf4jnsgd1na2vs0mg"},{"bike_id":"4b0e1d85-eaf3-40ed-8cc5-64a632f7a05c","system_id":"levelo_inurba_marseille","lat":43.25877,"lon":5.39912,"is_reserved":false,"is_disabled":false,"rental_uris":{"android":"levelo://app?vid=4b0e1d85-eaf3-40ed-8cc5-64a632f7a05c","ios":"levelo://app?vid=4b0e1d85-eaf3-40ed-8cc5-64a632f7a05c"},"vehicle_type_id":"4","last_reported":1732813688,"current_range_meters":30400,"station_id":"ce4bhl92rcd13ifvqghg","pricing_plan_id":"cebpf4jnsgd1na2vs0mg"},{"bike_id":"960e0ce8-4af8-4a7b-a1d9-99f150008994","system_id":"levelo_inurba_marseille","lat":43.33021,"lon":5.39027,"is_reserved":false,"is_disabled":false,"rental_uris":{"android":"levelo://app?vid=960e0ce8-4af8-4a7b-a1d9-99f150008994","ios":"levelo://app?vid=960e0ce8-4af8-4a7b-a1d9-99f150008994"},"vehicle_type_id":"4","last_reported":1732813688,"current_range_meters":39200,"station_id":"ce4bhr92rcd13ifvqhrg","pricing_plan_id":"cebpf4jnsgd1na2vs0mg"},{"bike_id":"ef7faf07-a670-4e15-b564-bded5c7ce834","system_id":"levelo_inurba_marseille","lat":43.31199,"lon":5.3675,"is_reserved":false,"is_disabled":false,"rental_uris":{"android":"levelo://app?vid=ef7faf07-a670-4e15-b564-bded5c7ce834","ios":"levelo://app?vid=ef7faf07-a670-4e15-b564-bded5c7ce834"},"vehicle_type_id":"4","last_reported":1732813688,"current_range_meters":18800,"station_id":"","pricing_plan_id":"cebpf4jnsgd1na2vs0mg"},{"bike_id":"64f36ac9-73cc-4d6e-8498-4545507c4360","system_id":"levelo_inurba_marseille","lat":43.30894,"lon":5.37195,"is_reserved":false,"is_disabled":false,"rental_uris":{"android":"levelo://app?vid=64f36ac9-73cc-4d6e-8498-4545507c4360","ios":"levelo://app?vid=64f36ac9-73cc-4d6e-8498-4545507c4360"},"vehicle_type_id":"4","last_reported":1732813688,"current_range_meters":38800,"station_id":"ce4bguh2rcd13ifvqckg","pricing_plan_id":"cebpf4jnsgd1na2vs0mg"},{"bike_id":"e4668f71-8758-4a9a-a6f0-003c1f1a1781","system_id":"levelo_inurba_marseille","lat":43.29821,"lon":5.38086,"is_reserved":false,"is_disabled":false,"rental_uris":{"android":"levelo://app?vid=e4668f71-8758-4a9a-a6f0-003c1f1a1781","ios":"levelo://app?vid=e4668f71-8758-4a9a-a6f0-003c1f1a1781"},"vehicle_type_id":"4","last_reported":1732813688,"current_range_meters":14800,"station_id":"ce4bgip2rcd13ifvqbb0","pricing_plan_id":"cebpf4jnsgd1na2vs0mg"},{"bike_id":"2e95a691-d7d8-426b-8dba-47b6b56c6a41","system_id":"levelo_inurba_marseille","lat":43.28151,"lon":5.42641,"is_reserved":false,"is_disabled":true,"rental_uris":{"android":"levelo://app?vid=2e95a691-d7d8-426b-8dba-47b6b56c6a41","ios":"levelo://app?vid=2e95a691-d7d8-426b-8dba-47b6b56c6a41"},"vehicle_type_id":"4","last_reported":1732813688,"current_range_meters":800,"station_id":"ce4bhnh2rcd13ifvqgug","pricing_plan_id":"cebpf4jnsgd1na2vs0mg"},{"bike_id":"60d2a8e1-7963-4704-bcf5-8859bd17cad1","system_id":"levelo_inurba_marseille","lat":43.27562,"lon":5.38435,"is_reserved":false,"is_disabled":false,"rental_uris":{"android":"levelo://app?vid=60d2a8e1-7963-4704-bcf5-8859bd17cad1","ios":"levelo://app?vid=60d2a8e1-7963-4704-bcf5-8859bd17cad1"},"vehicle_type_id":"4","last_reported":1732813688,"current_range_meters":27600,"station_id":"ce4bhh92rcd13ifvqfi0","pricing_plan_id":"cebpf4jnsgd1na2vs0mg"},{"bike_id":"667a3cc3-1b11-4acd-849d-520ec7bcb333","system_id":"levelo_inurba_marseille","lat":43.28731,"lon":5.36134,"is_reserved":false,"is_disabled":false,"rental_uris":{"android":"levelo://app?vid=667a3cc3-1b11-4acd-849d-520ec7bcb333","ios":"levelo://app?vid=667a3cc3-1b11-4acd-849d-520ec7bcb333"},"vehicle_type_id":"4","last_reported":1732813688,"current_range_meters":37600,"station_id":"cki0cbj6b192h4jlfktg","pricing_plan_id":"cebpf4jnsgd1na2vs0mg"},{"bike_id":"ebb60a07-22ac-4e9c-b254-ab389d3e96c1","system_id":"levelo_inurba_marseille","lat":43.28576,"lon":5.39497,"is_reserved":false,"is_disabled":false,"rental_uris":{"android":"levelo://app?vid=ebb60a07-22ac-4e9c-b254-ab389d3e96c1","ios":"levelo://app?vid=ebb60a07-22ac-4e9c-b254-ab389d3e96c1"},"vehicle_type_id":"4","last_reported":1732813688,"current_range_meters":28800,"station_id":"ce4bh292rcd13ifvqdg0","pricing_plan_id":"cebpf4jnsgd1na2vs0mg"},{"bike_id":"c27f7d66-69af-4f3c-bd4b-4ee89ae78b19","system_id":"levelo_inurba_marseille","lat":43.29528,"lon":5.39404,"is_reserved":false,"is_disabled":true,"rental_uris":{"android":"levelo://app?vid=c27f7d66-69af-4f3c-bd4b-4ee89ae78b19","ios":"levelo://app?vid=c27f7d66-69af-4f3c-bd4b-4ee89ae78b19"},"vehicle_type_id":"4","last_reported":1732813688,"current_range_meters":0,"station_id":"ce4bh292rcd13ifvqdf0","pricing_plan_id":"cebpf4jnsgd1na2vs0mg"},{"bike_id":"52a30569-0bfc-456a-b013-ec2c0ae19891","system_id":"levelo_inurba_marseille","lat":43.27915,"lon":5.39583,"is_reserved":false,"is_disabled":true,"rental_uris":{"android":"levelo://app?vid=52a30569-0bfc-456a-b013-ec2c0ae19891","ios":"levelo://app?vid=52a30569-0bfc-456a-b013-ec2c0ae19891"},"vehicle_type_id":"4","last_reported":1732813688,"current_range_meters":0,"station_id":"ce4bhf92rcd13ifvqf40","pricing_plan_id":"cebpf4jnsgd1na2vs0mg"},{"bike_id":"e51b2acb-d883-446b-9ce9-347608453ece","system_id":"levelo_inurba_marseille","lat":43.22937,"lon":5.35375,"is_reserved":false,"is_disabled":false,"rental_uris":{"android":"levelo://app?vid=e51b2acb-d883-446b-9ce9-347608453ece","ios":"levelo://app?vid=e51b2acb-d883-446b-9ce9-347608453ece"},"vehicle_type_id":"4","last_reported":1732813688,"current_range_meters":30800,"station_id":"cpo3532slgdg3j2ikp40","pricing_plan_id":"cebpf4jnsgd1na2vs0mg"},{"bike_id":"97293f8b-61cd-4617-89b0-e2f392d4c7a3","system_id":"levelo_inurba_marseille","lat":43.30486,"lon":5.37896,"is_reserved":false,"is_disabled":false,"rental_uris":{"android":"levelo://app?vid=97293f8b-61cd-4617-89b0-e2f392d4c7a3","ios":"levelo://app?vid=97293f8b-61cd-4617-89b0-e2f392d4c7a3"},"vehicle_type_id":"4","last_reported":1732813688,"current_range_meters":3600,"station_id":"","pricing_plan_id":"cebpf4jnsgd1na2vs0mg"},{"bike_id":"594f7f5f-fb98-4291-87d1-5e35d06030f0","system_id":"levelo_inurba_marseille","lat":43.29025,"lon":5.38634,"is_reserved":false,"is_disabled":false,"rental_uris":{"android":"levelo://app?vid=594f7f5f-fb98-4291-87d1-5e35d06030f0","ios":"levelo://app?vid=594f7f5f-fb98-4291-87d1-5e35d06030f0"},"vehicle_type_id":"4","last_reported":1732813688,"current_range_meters":32800,"station_id":"ce4bh4p2rcd13ifvqe0g","pricing_plan_id":"cebpf4jnsgd1na2vs0mg"},{"bike_id":"93bf632f-9c2c-453f-931e-3a26e12fd5f1","system_id":"levelo_inurba_marseille","lat":43.30127,"lon":5.39875,"is_reserved":false,"is_disabled":true,"rental_uris":{"android":"levelo://app?vid=93bf632f-9c2c-453f-931e-3a26e12fd5f1","ios":"levelo://app?vid=93bf632f-9c2c-453f-931e-3a26e12fd5f1"},"vehicle_type_id":"4","last_reported":1732813688,"current_range_meters":37600,"station_id":"ce4bh0h2rcd13ifvqd40","pricing_plan_id":"cebpf4jnsgd1na2vs0mg"},{"bike_id":"a234ba6c-5d32-4244-ad3a-3cc9d1fbb0f2","system_id":"levelo_inurba_marseille","lat":43.28406,"lon":5.37513,"is_reserved":false,"is_disabled":true,"rental_uris":{"android":"levelo://app?vid=a234ba6c-5d32-4244-ad3a-3cc9d1fbb0f2","ios":"levelo://app?vid=a234ba6c-5d32-4244-ad3a-3cc9d1fbb0f2"},"vehicle_type_id":"4","last_reported":1732813688,"current_range_meters":0,"station_id":"ce4bh412rcd13ifvqds0","pricing_plan_id":"cebpf4jnsgd1na2vs0mg"},{"bike_id":"c84ead11-7157-46ac-9060-bce80a17d452","system_id":"levelo_inurba_marseille","lat":43.29587,"lon":5.37665,"is_reserved":false,"is_disabled":false,"rental_uris":{"android":"levelo://app?vid=c84ead11-7157-46ac-9060-bce80a17d452","ios":"levelo://app?vid=c84ead11-7157-46ac-9060-bce80a17d452"},"vehicle_type_id":"4","last_reported":1732813688,"current_range_meters":38000,"station_id":"","pricing_plan_id":"cebpf4jnsgd1na2vs0mg"},{"bike_id":"371abac0-5dd0-42bb-a641-ca0cac7a118a","system_id":"levelo_inurba_marseille","lat":43.27673,"lon":5.38864,"is_reserved":false,"is_disabled":true,"rental_uris":{"android":"levelo://app?vid=371abac0-5dd0-42bb-a641-ca0cac7a118a","ios":"levelo://app?vid=371abac0-5dd0-42bb-a641-ca0cac7a118a"},"vehicle_type_id":"4","last_reported":1732813688,"current_range_meters":0,"station_id":"ce4bhi12rcd13ifvqfo0","pricing_plan_id":"cebpf4jnsgd1na2vs0mg"},{"bike_id":"6a81ad6a-08b4-4b61-ad08-61cafb99527c","system_id":"levelo_inurba_marseille","lat":43.305337,"lon":5.365521,"is_reserved":false,"is_disabled":false,"rental_uris":{"android":"levelo://app?vid=6a81ad6a-08b4-4b61-ad08-61cafb99527c","ios":"levelo://app?vid=6a81ad6a-08b4-4b61-ad08-61cafb99527c"},"vehicle_type_id":"4","last_reported":1732813688,"current_range_meters":32400,"station_id":"ce4bgs12rcd13ifvqcag","pricing_plan_id":"cebpf4jnsgd1na2vs0mg"},{"bike_id":"44692518-f307-4d34-bde3-20456f8e1767","system_id":"levelo_inurba_marseille","lat":43.27428,"lon":5.38995,"is_reserved":false,"is_disabled":false,"rental_uris":{"android":"levelo://app?vid=44692518-f307-4d34-bde3-20456f8e1767","ios":"levelo://app?vid=44692518-f307-4d34-bde3-20456f8e1767"},"vehicle_type_id":"4","last_reported":1732813688,"current_range_meters":28400,"station_id":"","pricing_plan_id":"cebpf4jnsgd1na2vs0mg"},{"bike_id":"a77e1a4d-a3ba-4e04-b327-364509e2acc8","system_id":"levelo_inurba_marseille","lat":43.28398,"lon":5.34999,"is_reserved":false,"is_disabled":false,"rental_uris":{"android":"levelo://app?vid=a77e1a4d-a3ba-4e04-b327-364509e2acc8","ios":"levelo://app?vid=a77e1a4d-a3ba-4e04-b327-364509e2acc8"},"vehicle_type_id":"4","last_reported":1732813688,"current_range_meters":38400,"station_id":"ce4bhbh2rcd13ifvqepg","pricing_plan_id":"cebpf4jnsgd1na2vs0mg"},{"bike_id":"70f06862-cb93-49c8-85b5-ec385820252c","system_id":"levelo_inurba_marseille","lat":43.28618,"lon":5.35105,"is_reserved":false,"is_disabled":false,"rental_uris":{"android":"levelo://app?vid=70f06862-cb93-49c8-85b5-ec385820252c","ios":"levelo://app?vid=70f06862-cb93-49c8-85b5-ec385820252c"},"vehicle_type_id":"4","last_reported":1732813688,"current_range_meters":26000,"station_id":"ce4bhch2rcd13ifvqeug","pricing_plan_id":"cebpf4jnsgd1na2vs0mg"},{"bike_id":"72aa3aae-1f3f-463f-bc4e-8fcc4bba48dc","system_id":"levelo_inurba_marseille","lat":43.30181,"lon":5.36618,"is_reserved":false,"is_disabled":false,"rental_uris":{"android":"levelo://app?vid=72aa3aae-1f3f-463f-bc4e-8fcc4bba48dc","ios":"levelo://app?vid=72aa3aae-1f3f-463f-bc4e-8fcc4bba48dc"},"vehicle_type_id":"4","last_reported":1732813688,"current_range_meters":20400,"station_id":"ce4bgrh2rcd13ifvqc8g","pricing_plan_id":"cebpf4jnsgd1na2vs0mg"},{"bike_id":"a971a18c-8e0c-46e3-8f4e-576e9ebeb882","system_id":"levelo_inurba_marseille","lat":43.26778,"lon":5.39415,"is_reserved":false,"is_disabled":false,"rental_uris":{"android":"levelo://app?vid=a971a18c-8e0c-46e3-8f4e-576e9ebeb882","ios":"levelo://app?vid=a971a18c-8e0c-46e3-8f4e-576e9ebeb882"},"vehicle_type_id":"4","last_reported":1732813688,"current_range_meters":36800,"station_id":"ce4bhh12rcd13ifvqfg0","pricing_plan_id":"cebpf4jnsgd1na2vs0mg"},{"bike_id":"a8168d06-d857-43d0-a39c-700f19250c68","system_id":"levelo_inurba_marseille","lat":43.30145,"lon":5.39863,"is_reserved":false,"is_disabled":false,"rental_uris":{"android":"levelo://app?vid=a8168d06-d857-43d0-a39c-700f19250c68","ios":"levelo://app?vid=a8168d06-d857-43d0-a39c-700f19250c68"},"vehicle_type_id":"4","last_reported":1732813688,"current_range_meters":29600,"station_id":"ce4bh0h2rcd13ifvqd40","pricing_plan_id":"cebpf4jnsgd1na2vs0mg"},{"bike_id":"a11c87cd-c5ed-4a29-ba8a-78abe7a5d984","system_id":"levelo_inurba_marseille","lat":43.27828,"lon":5.39205,"is_reserved":false,"is_disabled":true,"rental_uris":{"android":"levelo://app?vid=a11c87cd-c5ed-4a29-ba8a-78abe7a5d984","ios":"levelo://app?vid=a11c87cd-c5ed-4a29-ba8a-78abe7a5d984"},"vehicle_type_id":"4","last_reported":1732813688,"current_range_meters":31200,"station_id":"ce4bhjp2rcd13ifvqga0","pricing_plan_id":"cebpf4jnsgd1na2vs0mg"},{"bike_id":"17cf2c78-1bfc-4e7a-a6bc-4f206ee42f7b","system_id":"levelo_inurba_marseille","lat":43.29089,"lon":5.38117,"is_reserved":false,"is_disabled":true,"rental_uris":{"android":"levelo://app?vid=17cf2c78-1bfc-4e7a-a6bc-4f206ee42f7b","ios":"levelo://app?vid=17cf2c78-1bfc-4e7a-a6bc-4f206ee42f7b"},"vehicle_type_id":"4","last_reported":1732813688,"current_range_meters":0,"station_id":"ce4bh512rcd13ifvqe2g","pricing_plan_id":"cebpf4jnsgd1na2vs0mg"},{"bike_id":"e5297273-1640-446e-b3d0-a9777736cfa3","system_id":"levelo_inurba_marseille","lat":43.24652,"lon":5.38896,"is_reserved":false,"is_disabled":false,"rental_uris":{"android":"levelo://app?vid=e5297273-1640-446e-b3d0-a9777736cfa3","ios":"levelo://app?vid=e5297273-1640-446e-b3d0-a9777736cfa3"},"vehicle_type_id":"4","last_reported":1732813688,"current_range_meters":26000,"station_id":"ce4bhg12rcd13ifvqf60","pricing_plan_id":"cebpf4jnsgd1na2vs0mg"},{"bike_id":"a5909545-3e09-4859-9fda-9ffe4e6e4883","system_id":"levelo_inurba_marseille","lat":43.23067,"lon":5.35489,"is_reserved":false,"is_disabled":false,"rental_uris":{"android":"levelo://app?vid=a5909545-3e09-4859-9fda-9ffe4e6e4883","ios":"levelo://app?vid=a5909545-3e09-4859-9fda-9ffe4e6e4883"},"vehicle_type_id":"4","last_reported":1732813688,"current_range_meters":22400,"station_id":"cpo3342slgdg3j2ifvpg","pricing_plan_id":"cebpf4jnsgd1na2vs0mg"},{"bike_id":"b2e68ab6-4904-4734-aa6a-96785f87095f","system_id":"levelo_inurba_marseille","lat":43.30889,"lon":5.39655,"is_reserved":false,"is_disabled":false,"rental_uris":{"android":"levelo://app?vid=b2e68ab6-4904-4734-aa6a-96785f87095f","ios":"levelo://app?vid=b2e68ab6-4904-4734-aa6a-96785f87095f"},"vehicle_type_id":"4","last_reported":1732813688,"current_range_meters":37600,"station_id":"ce4bh012rcd13ifvqcv0","pricing_plan_id":"cebpf4jnsgd1na2vs0mg"},{"bike_id":"b6b1f691-f5d4-4437-a273-f7c9759cc4c1","system_id":"levelo_inurba_marseille","lat":43.29194,"lon":5.39313,"is_reserved":false,"is_disabled":true,"rental_uris":{"android":"levelo://app?vid=b6b1f691-f5d4-4437-a273-f7c9759cc4c1","ios":"levelo://app?vid=b6b1f691-f5d4-4437-a273-f7c9759cc4c1"},"vehicle_type_id":"4","last_reported":1732813688,"current_range_meters":38800,"station_id":"ce4bh192rcd13ifvqdd0","pricing_plan_id":"cebpf4jnsgd1na2vs0mg"},{"bike_id":"636c38c7-b57f-44ef-879f-37f296bc8e0a","system_id":"levelo_inurba_marseille","lat":43.32112,"lon":5.3678,"is_reserved":false,"is_disabled":false,"rental_uris":{"android":"levelo://app?vid=636c38c7-b57f-44ef-879f-37f296bc8e0a","ios":"levelo://app?vid=636c38c7-b57f-44ef-879f-37f296bc8e0a"},"vehicle_type_id":"4","last_reported":1732813688,"current_range_meters":17600,"station_id":"ce4bhrh2rcd13ifvqhug","pricing_plan_id":"cebpf4jnsgd1na2vs0mg"},{"bike_id":"354cff48-3b38-4d70-b150-f9cac1238b79","system_id":"levelo_inurba_marseille","lat":43.281306,"lon":5.389855,"is_reserved":false,"is_disabled":false,"rental_uris":{"android":"levelo://app?vid=354cff48-3b38-4d70-b150-f9cac1238b79","ios":"levelo://app?vid=354cff48-3b38-4d70-b150-f9cac1238b79"},"vehicle_type_id":"4","last_reported":1732813688,"current_range_meters":14000,"station_id":"ce4bhjp2rcd13ifvqga0","pricing_plan_id":"cebpf4jnsgd1na2vs0mg"},{"bike_id":"0784e5ed-3500-48c0-92b6-819338412b90","system_id":"levelo_inurba_marseille","lat":43.29025,"lon":5.37557,"is_reserved":false,"is_disabled":false,"rental_uris":{"android":"levelo://app?vid=0784e5ed-3500-48c0-92b6-819338412b90","ios":"levelo://app?vid=0784e5ed-3500-48c0-92b6-819338412b90"},"vehicle_type_id":"4","last_reported":1732813688,"current_range_meters":38000,"station_id":"ce4bh692rcd13ifvqe90","pricing_plan_id":"cebpf4jnsgd1na2vs0mg"},{"bike_id":"e5951ee3-4a5a-4ebb-b469-096c5188dfa3","system_id":"levelo_inurba_marseille","lat":43.23197,"lon":5.35566,"is_reserved":false,"is_disabled":false,"rental_uris":{"android":"levelo://app?vid=e5951ee3-4a5a-4ebb-b469-096c5188dfa3","ios":"levelo://app?vid=e5951ee3-4a5a-4ebb-b469-096c5188dfa3"},"vehicle_type_id":"4","last_reported":1732813688,"current_range_meters":27200,"station_id":"ce4bhu92rcd13ifvqi70","pricing_plan_id":"cebpf4jnsgd1na2vs0mg"},{"bike_id":"e4fe767c-363f-48eb-83e6-101be34f1c6f","system_id":"levelo_inurba_marseille","lat":43.24547,"lon":5.39521,"is_reserved":false,"is_disabled":false,"rental_uris":{"android":"levelo://app?vid=e4fe767c-363f-48eb-83e6-101be34f1c6f","ios":"levelo://app?vid=e4fe767c-363f-48eb-83e6-101be34f1c6f"},"vehicle_type_id":"4","last_reported":1732813688,"current_range_meters":20800,"station_id":"ce4bhlp2rcd13ifvqgjg","pricing_plan_id":"cebpf4jnsgd1na2vs0mg"},{"bike_id":"cc633f01-bdc8-430a-91b8-8b9dcc960bcd","system_id":"levelo_inurba_marseille","lat":43.32297,"lon":5.382545,"is_reserved":false,"is_disabled":false,"rental_uris":{"android":"levelo://app?vid=cc633f01-bdc8-430a-91b8-8b9dcc960bcd","ios":"levelo://app?vid=cc633f01-bdc8-430a-91b8-8b9dcc960bcd"},"vehicle_type_id":"4","last_reported":1732813688,"current_range_meters":8400,"station_id":"ce4bhr12rcd13ifvqhqg","pricing_plan_id":"cebpf4jnsgd1na2vs0mg"},{"bike_id":"6c948e9c-d5b3-4fe5-a918-1bd2f7c83b02","system_id":"levelo_inurba_marseille","lat":43.321104,"lon":5.367708,"is_reserved":false,"is_disabled":false,"rental_uris":{"android":"levelo://app?vid=6c948e9c-d5b3-4fe5-a918-1bd2f7c83b02","ios":"levelo://app?vid=6c948e9c-d5b3-4fe5-a918-1bd2f7c83b02"},"vehicle_type_id":"4","last_reported":1732813688,"current_range_meters":8000,"station_id":"ce4bhrh2rcd13ifvqhug","pricing_plan_id":"cebpf4jnsgd1na2vs0mg"},{"bike_id":"dc4b1e41-dcf1-4589-ac53-b902514e7d26","system_id":"levelo_inurba_marseille","lat":43.28153,"lon":5.42645,"is_reserved":false,"is_disabled":true,"rental_uris":{"android":"levelo://app?vid=dc4b1e41-dcf1-4589-ac53-b902514e7d26","ios":"levelo://app?vid=dc4b1e41-dcf1-4589-ac53-b902514e7d26"},"vehicle_type_id":"4","last_reported":1732813688,"current_range_meters":0,"station_id":"ce4bhnh2rcd13ifvqgug","pricing_plan_id":"cebpf4jnsgd1na2vs0mg"},{"bike_id":"57521451-088b-4d59-ae59-c456c4011d5a","system_id":"levelo_inurba_marseille","lat":43.29724,"lon":5.36911,"is_reserved":false,"is_disabled":false,"rental_uris":{"android":"levelo://app?vid=57521451-088b-4d59-ae59-c456c4011d5a","ios":"levelo://app?vid=57521451-088b-4d59-ae59-c456c4011d5a"},"vehicle_type_id":"4","last_reported":1732813688,"current_range_meters":26000,"station_id":"","pricing_plan_id":"cebpf4jnsgd1na2vs0mg"},{"bike_id":"45ba5f73-ec93-4f07-a828-0cb625a1ae35","system_id":"levelo_inurba_marseille","lat":43.27073,"lon":5.42276,"is_reserved":false,"is_disabled":true,"rental_uris":{"android":"levelo://app?vid=45ba5f73-ec93-4f07-a828-0cb625a1ae35","ios":"levelo://app?vid=45ba5f73-ec93-4f07-a828-0cb625a1ae35"},"vehicle_type_id":"4","last_reported":1732813688,"current_range_meters":13600,"station_id":"ce4bhk92rcd13ifvqgb0","pricing_plan_id":"cebpf4jnsgd1na2vs0mg"},{"bike_id":"41d87ace-b057-4ae5-8721-a2d448fef203","system_id":"levelo_inurba_marseille","lat":43.28457,"lon":5.35887,"is_reserved":false,"is_disabled":false,"rental_uris":{"android":"levelo://app?vid=41d87ace-b057-4ae5-8721-a2d448fef203","ios":"levelo://app?vid=41d87ace-b057-4ae5-8721-a2d448fef203"},"vehicle_type_id":"4","last_reported":1732813688,"current_range_meters":8400,"station_id":"ce4bhah2rcd13ifvqei0","pricing_plan_id":"cebpf4jnsgd1na2vs0mg"},{"bike_id":"1a4e55c1-0bec-48fd-8291-779d4805f240","system_id":"levelo_inurba_marseille","lat":43.32563,"lon":5.3799,"is_reserved":false,"is_disabled":false,"rental_uris":{"android":"levelo://app?vid=1a4e55c1-0bec-48fd-8291-779d4805f240","ios":"levelo://app?vid=1a4e55c1-0bec-48fd-8291-779d4805f240"},"vehicle_type_id":"4","last_reported":1732813688,"current_range_meters":25600,"station_id":"","pricing_plan_id":"cebpf4jnsgd1na2vs0mg"},{"bike_id":"34b86e02-d173-4df5-8a5b-289fe7f0bb9d","system_id":"levelo_inurba_marseille","lat":43.28711,"lon":5.37389,"is_reserved":false,"is_disabled":true,"rental_uris":{"android":"levelo://app?vid=34b86e02-d173-4df5-8a5b-289fe7f0bb9d","ios":"levelo://app?vid=34b86e02-d173-4df5-8a5b-289fe7f0bb9d"},"vehicle_type_id":"4","last_reported":1732813688,"current_range_meters":1200,"station_id":"ce4bh3p2rcd13ifvqdq0","pricing_plan_id":"cebpf4jnsgd1na2vs0mg"},{"bike_id":"d2d01e23-35ca-407f-8292-f4fa070f2e36","system_id":"levelo_inurba_marseille","lat":43.28705,"lon":5.37378,"is_reserved":false,"is_disabled":false,"rental_uris":{"android":"levelo://app?vid=d2d01e23-35ca-407f-8292-f4fa070f2e36","ios":"levelo://app?vid=d2d01e23-35ca-407f-8292-f4fa070f2e36"},"vehicle_type_id":"4","last_reported":1732813688,"current_range_meters":38800,"station_id":"ce4bh3p2rcd13ifvqdq0","pricing_plan_id":"cebpf4jnsgd1na2vs0mg"},{"bike_id":"73977e53-7356-4e18-a42f-2fed8041bd36","system_id":"levelo_inurba_marseille","lat":43.25585,"lon":5.38238,"is_reserved":false,"is_disabled":false,"rental_uris":{"android":"levelo://app?vid=73977e53-7356-4e18-a42f-2fed8041bd36","ios":"levelo://app?vid=73977e53-7356-4e18-a42f-2fed8041bd36"},"vehicle_type_id":"4","last_reported":1732813688,"current_range_meters":11600,"station_id":"ce4bhih2rcd13ifvqfs0","pricing_plan_id":"cebpf4jnsgd1na2vs0mg"},{"bike_id":"64d4b03f-278f-4ada-b6de-95e00ac1bef1","system_id":"levelo_inurba_marseille","lat":43.27172,"lon":5.40993,"is_reserved":false,"is_disabled":false,"rental_uris":{"android":"levelo://app?vid=64d4b03f-278f-4ada-b6de-95e00ac1bef1","ios":"levelo://app?vid=64d4b03f-278f-4ada-b6de-95e00ac1bef1"},"vehicle_type_id":"4","last_reported":1732813688,"current_range_meters":38000,"station_id":"ce4bhl12rcd13ifvqgf0","pricing_plan_id":"cebpf4jnsgd1na2vs0mg"},{"bike_id":"7c3d0f17-c9db-4bc3-ac84-ebee7caeb7bf","system_id":"levelo_inurba_marseille","lat":43.3093,"lon":5.40147,"is_reserved":false,"is_disabled":false,"rental_uris":{"android":"levelo://app?vid=7c3d0f17-c9db-4bc3-ac84-ebee7caeb7bf","ios":"levelo://app?vid=7c3d0f17-c9db-4bc3-ac84-ebee7caeb7bf"},"vehicle_type_id":"4","last_reported":1732813688,"current_range_meters":6000,"station_id":"ce4bh0h2rcd13ifvqd50","pricing_plan_id":"cebpf4jnsgd1na2vs0mg"},{"bike_id":"8105928c-2806-4a6a-b4e4-a4e821a3e547","system_id":"levelo_inurba_marseille","lat":43.28466,"lon":5.35897,"is_reserved":false,"is_disabled":false,"rental_uris":{"android":"levelo://app?vid=8105928c-2806-4a6a-b4e4-a4e821a3e547","ios":"levelo://app?vid=8105928c-2806-4a6a-b4e4-a4e821a3e547"},"vehicle_type_id":"4","last_reported":1732813688,"current_range_meters":24800,"station_id":"ce4bhah2rcd13ifvqei0","pricing_plan_id":"cebpf4jnsgd1na2vs0mg"},{"bike_id":"4fe3eef0-89c1-4b15-98d5-8450e693ca0f","system_id":"levelo_inurba_marseille","lat":43.30196,"lon":5.3663,"is_reserved":false,"is_disabled":false,"rental_uris":{"android":"levelo://app?vid=4fe3eef0-89c1-4b15-98d5-8450e693ca0f","ios":"levelo://app?vid=4fe3eef0-89c1-4b15-98d5-8450e693ca0f"},"vehicle_type_id":"4","last_reported":1732813688,"current_range_meters":11200,"station_id":"ce4bgrh2rcd13ifvqc8g","pricing_plan_id":"cebpf4jnsgd1na2vs0mg"},{"bike_id":"279f2d49-ecb9-44da-b2ae-502c978b06fe","system_id":"levelo_inurba_marseille","lat":43.29562,"lon":5.39958,"is_reserved":false,"is_disabled":false,"rental_uris":{"android":"levelo://app?vid=279f2d49-ecb9-44da-b2ae-502c978b06fe","ios":"levelo://app?vid=279f2d49-ecb9-44da-b2ae-502c978b06fe"},"vehicle_type_id":"4","last_reported":1732813688,"current_range_meters":37600,"station_id":"ce4bh312rcd13ifvqdj0","pricing_plan_id":"cebpf4jnsgd1na2vs0mg"},{"bike_id":"43746d86-8a13-4845-9faf-ae69b548d714","system_id":"levelo_inurba_marseille","lat":43.29459,"lon":5.37917,"is_reserved":false,"is_disabled":true,"rental_uris":{"android":"levelo://app?vid=43746d86-8a13-4845-9faf-ae69b548d714","ios":"levelo://app?vid=43746d86-8a13-4845-9faf-ae69b548d714"},"vehicle_type_id":"4","last_reported":1732813688,"current_range_meters":0,"station_id":"","pricing_plan_id":"cebpf4jnsgd1na2vs0mg"},{"bike_id":"df76b7bf-b879-4e94-9796-439ee296ef0a","system_id":"levelo_inurba_marseille","lat":43.22926,"lon":5.35377,"is_reserved":false,"is_disabled":false,"rental_uris":{"android":"levelo://app?vid=df76b7bf-b879-4e94-9796-439ee296ef0a","ios":"levelo://app?vid=df76b7bf-b879-4e94-9796-439ee296ef0a"},"vehicle_type_id":"4","last_reported":1732813688,"current_range_meters":30400,"station_id":"cpo3532slgdg3j2ikp40","pricing_plan_id":"cebpf4jnsgd1na2vs0mg"},{"bike_id":"24475bbe-d591-422d-886b-4e03bfa37464","system_id":"levelo_inurba_marseille","lat":43.23186,"lon":5.3998,"is_reserved":false,"is_disabled":false,"rental_uris":{"android":"levelo://app?vid=24475bbe-d591-422d-886b-4e03bfa37464","ios":"levelo://app?vid=24475bbe-d591-422d-886b-4e03bfa37464"},"vehicle_type_id":"4","last_reported":1732813688,"current_range_meters":39200,"station_id":"ce4bhn12rcd13ifvqgqg","pricing_plan_id":"cebpf4jnsgd1na2vs0mg"},{"bike_id":"567ce07d-5e4e-4df3-995b-ad52f1768c53","system_id":"levelo_inurba_marseille","lat":43.29529,"lon":5.38548,"is_reserved":false,"is_disabled":false,"rental_uris":{"android":"levelo://app?vid=567ce07d-5e4e-4df3-995b-ad52f1768c53","ios":"levelo://app?vid=567ce07d-5e4e-4df3-995b-ad52f1768c53"},"vehicle_type_id":"4","last_reported":1732813688,"current_range_meters":22400,"station_id":"ce4bgih2rcd13ifvqba0","pricing_plan_id":"cebpf4jnsgd1na2vs0mg"},{"bike_id":"99bb0dea-3a7a-417d-bf34-f12cf3d11c2e","system_id":"levelo_inurba_marseille","lat":43.29028,"lon":5.38135,"is_reserved":false,"is_disabled":false,"rental_uris":{"android":"levelo://app?vid=99bb0dea-3a7a-417d-bf34-f12cf3d11c2e","ios":"levelo://app?vid=99bb0dea-3a7a-417d-bf34-f12cf3d11c2e"},"vehicle_type_id":"4","last_reported":1732813688,"current_range_meters":31200,"station_id":"ce4bh4p2rcd13ifvqe1g","pricing_plan_id":"cebpf4jnsgd1na2vs0mg"},{"bike_id":"2068bea6-b554-4e30-8255-13770c871bb8","system_id":"levelo_inurba_marseille","lat":43.25578,"lon":5.3824,"is_reserved":false,"is_disabled":true,"rental_uris":{"android":"levelo://app?vid=2068bea6-b554-4e30-8255-13770c871bb8","ios":"levelo://app?vid=2068bea6-b554-4e30-8255-13770c871bb8"},"vehicle_type_id":"4","last_reported":1732813688,"current_range_meters":400,"station_id":"ce4bhih2rcd13ifvqfs0","pricing_plan_id":"cebpf4jnsgd1na2vs0mg"},{"bike_id":"83ede1f9-5fe6-4b7b-93b9-27119b2bc7ef","system_id":"levelo_inurba_marseille","lat":43.27831,"lon":5.39215,"is_reserved":false,"is_disabled":false,"rental_uris":{"android":"levelo://app?vid=83ede1f9-5fe6-4b7b-93b9-27119b2bc7ef","ios":"levelo://app?vid=83ede1f9-5fe6-4b7b-93b9-27119b2bc7ef"},"vehicle_type_id":"4","last_reported":1732813688,"current_range_meters":26000,"station_id":"ce4bhjp2rcd13ifvqga0","pricing_plan_id":"cebpf4jnsgd1na2vs0mg"},{"bike_id":"73237246-d3c1-43bc-bad7-8e44028b6f2d","system_id":"levelo_inurba_marseille","lat":43.23191,"lon":5.39978,"is_reserved":false,"is_disabled":false,"rental_uris":{"android":"levelo://app?vid=73237246-d3c1-43bc-bad7-8e44028b6f2d","ios":"levelo://app?vid=73237246-d3c1-43bc-bad7-8e44028b6f2d"},"vehicle_type_id":"4","last_reported":1732813688,"current_range_meters":30800,"station_id":"ce4bhn12rcd13ifvqgqg","pricing_plan_id":"cebpf4jnsgd1na2vs0mg"},{"bike_id":"fc4d15f5-6256-45a3-90d6-77bb4c676955","system_id":"levelo_inurba_marseille","lat":43.296284,"lon":5.377877,"is_reserved":false,"is_disabled":true,"rental_uris":{"android":"levelo://app?vid=fc4d15f5-6256-45a3-90d6-77bb4c676955","ios":"levelo://app?vid=fc4d15f5-6256-45a3-90d6-77bb4c676955"},"vehicle_type_id":"4","last_reported":1732813688,"current_range_meters":32800,"station_id":"","pricing_plan_id":"cebpf4jnsgd1na2vs0mg"},{"bike_id":"c88f8730-1176-4717-97e2-17c27b15274f","system_id":"levelo_inurba_marseille","lat":43.23195,"lon":5.35552,"is_reserved":false,"is_disabled":true,"rental_uris":{"android":"levelo://app?vid=c88f8730-1176-4717-97e2-17c27b15274f","ios":"levelo://app?vid=c88f8730-1176-4717-97e2-17c27b15274f"},"vehicle_type_id":"4","last_reported":1732813688,"current_range_meters":0,"station_id":"ce4bhu92rcd13ifvqi70","pricing_plan_id":"cebpf4jnsgd1na2vs0mg"},{"bike_id":"35cb50bf-ac62-401d-89f7-19c2fdbc2d94","system_id":"levelo_inurba_marseille","lat":43.27046,"lon":5.40264,"is_reserved":false,"is_disabled":true,"rental_uris":{"android":"levelo://app?vid=35cb50bf-ac62-401d-89f7-19c2fdbc2d94","ios":"levelo://app?vid=35cb50bf-ac62-401d-89f7-19c2fdbc2d94"},"vehicle_type_id":"4","last_reported":1732813688,"current_range_meters":1600,"station_id":"ce4bhk92rcd13ifvqgc0","pricing_plan_id":"cebpf4jnsgd1na2vs0mg"},{"bike_id":"d2438537-66df-4f0b-b5e0-c000f2ed98c7","system_id":"levelo_inurba_marseille","lat":43.301134,"lon":5.435034,"is_reserved":false,"is_disabled":false,"rental_uris":{"android":"levelo://app?vid=d2438537-66df-4f0b-b5e0-c000f2ed98c7","ios":"levelo://app?vid=d2438537-66df-4f0b-b5e0-c000f2ed98c7"},"vehicle_type_id":"4","last_reported":1732813688,"current_range_meters":6400,"station_id":"ce4bhpp2rcd13ifvqhfg","pricing_plan_id":"cebpf4jnsgd1na2vs0mg"},{"bike_id":"d5bcf17b-fcc2-403f-a12e-ce9db0a7207f","system_id":"levelo_inurba_marseille","lat":43.30648,"lon":5.4009,"is_reserved":false,"is_disabled":false,"rental_uris":{"android":"levelo://app?vid=d5bcf17b-fcc2-403f-a12e-ce9db0a7207f","ios":"levelo://app?vid=d5bcf17b-fcc2-403f-a12e-ce9db0a7207f"},"vehicle_type_id":"4","last_reported":1732813688,"current_range_meters":12800,"station_id":"ce4bh112rcd13ifvqda0","pricing_plan_id":"cebpf4jnsgd1na2vs0mg"},{"bike_id":"5e5feb69-3ec7-4d8a-a1e8-418f282a39d2","system_id":"levelo_inurba_marseille","lat":43.28939,"lon":5.36634,"is_reserved":false,"is_disabled":true,"rental_uris":{"android":"levelo://app?vid=5e5feb69-3ec7-4d8a-a1e8-418f282a39d2","ios":"levelo://app?vid=5e5feb69-3ec7-4d8a-a1e8-418f282a39d2"},"vehicle_type_id":"4","last_reported":1732813688,"current_range_meters":23200,"station_id":"ce4bhap2rcd13ifvqek0","pricing_plan_id":"cebpf4jnsgd1na2vs0mg"},{"bike_id":"b6ed1910-de57-401d-8b1d-af35755f9004","system_id":"levelo_inurba_marseille","lat":43.27954,"lon":5.41046,"is_reserved":false,"is_disabled":true,"rental_uris":{"android":"levelo://app?vid=b6ed1910-de57-401d-8b1d-af35755f9004","ios":"levelo://app?vid=b6ed1910-de57-401d-8b1d-af35755f9004"},"vehicle_type_id":"4","last_reported":1732813688,"current_range_meters":28800,"station_id":"ce4bhnp2rcd13ifvqh0g","pricing_plan_id":"cebpf4jnsgd1na2vs0mg"},{"bike_id":"b944efa8-8bfd-4cf3-9742-93239c780cac","system_id":"levelo_inurba_marseille","lat":43.29002,"lon":5.35621,"is_reserved":false,"is_disabled":true,"rental_uris":{"android":"levelo://app?vid=b944efa8-8bfd-4cf3-9742-93239c780cac","ios":"levelo://app?vid=b944efa8-8bfd-4cf3-9742-93239c780cac"},"vehicle_type_id":"4","last_reported":1732813688,"current_range_meters":31200,"station_id":"ce4bhb92rcd13ifvqen0","pricing_plan_id":"cebpf4jnsgd1na2vs0mg"},{"bike_id":"c0c814f8-5da5-485f-b863-3458dcd8a348","system_id":"levelo_inurba_marseille","lat":43.24543,"lon":5.39524,"is_reserved":false,"is_disabled":false,"rental_uris":{"android":"levelo://app?vid=c0c814f8-5da5-485f-b863-3458dcd8a348","ios":"levelo://app?vid=c0c814f8-5da5-485f-b863-3458dcd8a348"},"vehicle_type_id":"4","last_reported":1732813688,"current_range_meters":28400,"station_id":"ce4bhlp2rcd13ifvqgjg","pricing_plan_id":"cebpf4jnsgd1na2vs0mg"},{"bike_id":"aba0c93a-9c09-4735-bcb1-d6389b866a1c","system_id":"levelo_inurba_marseille","lat":43.30137,"lon":5.38766,"is_reserved":false,"is_disabled":false,"rental_uris":{"android":"levelo://app?vid=aba0c93a-9c09-4735-bcb1-d6389b866a1c","ios":"levelo://app?vid=aba0c93a-9c09-4735-bcb1-d6389b866a1c"},"vehicle_type_id":"4","last_reported":1732813688,"current_range_meters":37600,"station_id":"ce4bghh2rcd13ifvqb60","pricing_plan_id":"cebpf4jnsgd1na2vs0mg"},{"bike_id":"fb3f9a52-fa85-48ab-8b8d-de3aed3061e9","system_id":"levelo_inurba_marseille","lat":43.28109,"lon":5.37842,"is_reserved":false,"is_disabled":false,"rental_uris":{"android":"levelo://app?vid=fb3f9a52-fa85-48ab-8b8d-de3aed3061e9","ios":"levelo://app?vid=fb3f9a52-fa85-48ab-8b8d-de3aed3061e9"},"vehicle_type_id":"4","last_reported":1732813688,"current_range_meters":16400,"station_id":"ce4bha12rcd13ifvqee0","pricing_plan_id":"cebpf4jnsgd1na2vs0mg"},{"bike_id":"9910e2c0-c587-48ba-926e-36f5630f461f","system_id":"levelo_inurba_marseille","lat":43.29557,"lon":5.4229,"is_reserved":false,"is_disabled":false,"rental_uris":{"android":"levelo://app?vid=9910e2c0-c587-48ba-926e-36f5630f461f","ios":"levelo://app?vid=9910e2c0-c587-48ba-926e-36f5630f461f"},"vehicle_type_id":"4","last_reported":1732813688,"current_range_meters":40000,"station_id":"ce4bhph2rcd13ifvqhdg","pricing_plan_id":"cebpf4jnsgd1na2vs0mg"},{"bike_id":"6918dd77-cced-43c9-a845-76ad619b231f","system_id":"levelo_inurba_marseille","lat":43.2989,"lon":5.38905,"is_reserved":false,"is_disabled":false,"rental_uris":{"android":"levelo://app?vid=6918dd77-cced-43c9-a845-76ad619b231f","ios":"levelo://app?vid=6918dd77-cced-43c9-a845-76ad619b231f"},"vehicle_type_id":"4","last_reported":1732813688,"current_range_meters":36000,"station_id":"ce4bh392rcd13ifvqdl0","pricing_plan_id":"cebpf4jnsgd1na2vs0mg"},{"bike_id":"0e45148f-1a7e-42d3-9cc8-08bc63689057","system_id":"levelo_inurba_marseille","lat":43.23197,"lon":5.35556,"is_reserved":false,"is_disabled":false,"rental_uris":{"android":"levelo://app?vid=0e45148f-1a7e-42d3-9cc8-08bc63689057","ios":"levelo://app?vid=0e45148f-1a7e-42d3-9cc8-08bc63689057"},"vehicle_type_id":"4","last_reported":1732813688,"current_range_meters":8400,"station_id":"ce4bhu92rcd13ifvqi70","pricing_plan_id":"cebpf4jnsgd1na2vs0mg"},{"bike_id":"9c02b610-1aa7-40cb-a73c-bfe679532f7b","system_id":"levelo_inurba_marseille","lat":43.28655,"lon":5.36353,"is_reserved":false,"is_disabled":false,"rental_uris":{"android":"levelo://app?vid=9c02b610-1aa7-40cb-a73c-bfe679532f7b","ios":"levelo://app?vid=9c02b610-1aa7-40cb-a73c-bfe679532f7b"},"vehicle_type_id":"4","last_reported":1732813688,"current_range_meters":38800,"station_id":"ce4bhah2rcd13ifvqej0","pricing_plan_id":"cebpf4jnsgd1na2vs0mg"},{"bike_id":"0fac11bd-050c-41d1-b700-521f952d6f03","system_id":"levelo_inurba_marseille","lat":43.30659,"lon":5.40091,"is_reserved":false,"is_disabled":false,"rental_uris":{"android":"levelo://app?vid=0fac11bd-050c-41d1-b700-521f952d6f03","ios":"levelo://app?vid=0fac11bd-050c-41d1-b700-521f952d6f03"},"vehicle_type_id":"4","last_reported":1732813688,"current_range_meters":38800,"station_id":"ce4bh112rcd13ifvqda0","pricing_plan_id":"cebpf4jnsgd1na2vs0mg"},{"bike_id":"465839f2-6722-4ef8-8c92-f2263eb8bc82","system_id":"levelo_inurba_marseille","lat":43.32662,"lon":5.40989,"is_reserved":false,"is_disabled":true,"rental_uris":{"android":"levelo://app?vid=465839f2-6722-4ef8-8c92-f2263eb8bc82","ios":"levelo://app?vid=465839f2-6722-4ef8-8c92-f2263eb8bc82"},"vehicle_type_id":"4","last_reported":1732813688,"current_range_meters":0,"station_id":"ce4bhpp2rcd13ifvqhgg","pricing_plan_id":"cebpf4jnsgd1na2vs0mg"},{"bike_id":"28e35b8a-63c1-436f-851f-462ff8db4d51","system_id":"levelo_inurba_marseille","lat":43.30329,"lon":5.4044,"is_reserved":false,"is_disabled":true,"rental_uris":{"android":"levelo://app?vid=28e35b8a-63c1-436f-851f-462ff8db4d51","ios":"levelo://app?vid=28e35b8a-63c1-436f-851f-462ff8db4d51"},"vehicle_type_id":"4","last_reported":1732813688,"current_range_meters":0,"station_id":"ce4bh012rcd13ifvqd10","pricing_plan_id":"cebpf4jnsgd1na2vs0mg"},{"bike_id":"61f2f682-068e-4ab4-9a75-0b3208576e24","system_id":"levelo_inurba_marseille","lat":43.28624,"lon":5.35105,"is_reserved":false,"is_disabled":false,"rental_uris":{"android":"levelo://app?vid=61f2f682-068e-4ab4-9a75-0b3208576e24","ios":"levelo://app?vid=61f2f682-068e-4ab4-9a75-0b3208576e24"},"vehicle_type_id":"4","last_reported":1732813688,"current_range_meters":8400,"station_id":"ce4bhch2rcd13ifvqeug","pricing_plan_id":"cebpf4jnsgd1na2vs0mg"},{"bike_id":"c284d9be-bc1c-430d-808a-e136b44feb28","system_id":"levelo_inurba_marseille","lat":43.30882,"lon":5.39652,"is_reserved":false,"is_disabled":false,"rental_uris":{"android":"levelo://app?vid=c284d9be-bc1c-430d-808a-e136b44feb28","ios":"levelo://app?vid=c284d9be-bc1c-430d-808a-e136b44feb28"},"vehicle_type_id":"4","last_reported":1732813688,"current_range_meters":30000,"station_id":"ce4bh012rcd13ifvqcv0","pricing_plan_id":"cebpf4jnsgd1na2vs0mg"},{"bike_id":"2bdda83e-975c-4a09-9ebf-24b063bc8448","system_id":"levelo_inurba_marseille","lat":43.29516,"lon":5.37506,"is_reserved":false,"is_disabled":false,"rental_uris":{"android":"levelo://app?vid=2bdda83e-975c-4a09-9ebf-24b063bc8448","ios":"levelo://app?vid=2bdda83e-975c-4a09-9ebf-24b063bc8448"},"vehicle_type_id":"4","last_reported":1732813688,"current_range_meters":20800,"station_id":"ce4bgkp2rcd13ifvqbmg","pricing_plan_id":"cebpf4jnsgd1na2vs0mg"},{"bike_id":"149635d3-d662-405a-b606-5c4c5d9c738a","system_id":"levelo_inurba_marseille","lat":43.28437,"lon":5.39171,"is_reserved":false,"is_disabled":false,"rental_uris":{"android":"levelo://app?vid=149635d3-d662-405a-b606-5c4c5d9c738a","ios":"levelo://app?vid=149635d3-d662-405a-b606-5c4c5d9c738a"},"vehicle_type_id":"4","last_reported":1732813688,"current_range_meters":39200,"station_id":"ce4bhoh2rcd13ifvqh5g","pricing_plan_id":"cebpf4jnsgd1na2vs0mg"},{"bike_id":"fbb69a76-9f06-4ea3-954f-7f4b2f1d4bea","system_id":"levelo_inurba_marseille","lat":43.22927,"lon":5.35376,"is_reserved":false,"is_disabled":true,"rental_uris":{"android":"levelo://app?vid=fbb69a76-9f06-4ea3-954f-7f4b2f1d4bea","ios":"levelo://app?vid=fbb69a76-9f06-4ea3-954f-7f4b2f1d4bea"},"vehicle_type_id":"4","last_reported":1732813688,"current_range_meters":1200,"station_id":"cpo3532slgdg3j2ikp40","pricing_plan_id":"cebpf4jnsgd1na2vs0mg"},{"bike_id":"9e944db9-d48e-4848-b5fa-4af701aee80b","system_id":"levelo_inurba_marseille","lat":48.80797,"lon":2.40127,"is_reserved":false,"is_disabled":true,"rental_uris":{"android":"levelo://app?vid=9e944db9-d48e-4848-b5fa-4af701aee80b","ios":"levelo://app?vid=9e944db9-d48e-4848-b5fa-4af701aee80b"},"vehicle_type_id":"4","last_reported":1732813688,"current_range_meters":22800,"station_id":"","pricing_plan_id":"cebpf4jnsgd1na2vs0mg"},{"bike_id":"ae7d2097-c6cc-4db3-9ea2-9a8e51ad36ba","system_id":"levelo_inurba_marseille","lat":43.26688,"lon":5.38276,"is_reserved":false,"is_disabled":false,"rental_uris":{"android":"levelo://app?vid=ae7d2097-c6cc-4db3-9ea2-9a8e51ad36ba","ios":"levelo://app?vid=ae7d2097-c6cc-4db3-9ea2-9a8e51ad36ba"},"vehicle_type_id":"4","last_reported":1732813688,"current_range_meters":37600,"station_id":"ce4bhg92rcd13ifvqf90","pricing_plan_id":"cebpf4jnsgd1na2vs0mg"},{"bike_id":"ce15a62c-8d91-4b0c-b631-91bb19509cb8","system_id":"levelo_inurba_marseille","lat":43.27791,"lon":5.38263,"is_reserved":false,"is_disabled":false,"rental_uris":{"android":"levelo://app?vid=ce15a62c-8d91-4b0c-b631-91bb19509cb8","ios":"levelo://app?vid=ce15a62c-8d91-4b0c-b631-91bb19509cb8"},"vehicle_type_id":"4","last_reported":1732813688,"current_range_meters":19600,"station_id":"ce4bha12rcd13ifvqee0","pricing_plan_id":"cebpf4jnsgd1na2vs0mg"},{"bike_id":"d36302a0-1173-4f4a-9641-7fc267aec495","system_id":"levelo_inurba_marseille","lat":43.2971,"lon":5.36605,"is_reserved":false,"is_disabled":false,"rental_uris":{"android":"levelo://app?vid=d36302a0-1173-4f4a-9641-7fc267aec495","ios":"levelo://app?vid=d36302a0-1173-4f4a-9641-7fc267aec495"},"vehicle_type_id":"4","last_reported":1732813688,"current_range_meters":24000,"station_id":"ce4bgn12rcd13ifvqbt0","pricing_plan_id":"cebpf4jnsgd1na2vs0mg"},{"bike_id":"75b7dfd2-ff9f-4881-b061-575f296dd58c","system_id":"levelo_inurba_marseille","lat":43.28864,"lon":5.35843,"is_reserved":false,"is_disabled":false,"rental_uris":{"android":"levelo://app?vid=75b7dfd2-ff9f-4881-b061-575f296dd58c","ios":"levelo://app?vid=75b7dfd2-ff9f-4881-b061-575f296dd58c"},"vehicle_type_id":"4","last_reported":1732813688,"current_range_meters":15200,"station_id":"ce4bhb12rcd13ifvqem0","pricing_plan_id":"cebpf4jnsgd1na2vs0mg"},{"bike_id":"843b8250-2a29-4c5d-a421-2a813fa94bbe","system_id":"levelo_inurba_marseille","lat":43.30275,"lon":5.37724,"is_reserved":false,"is_disabled":false,"rental_uris":{"android":"levelo://app?vid=843b8250-2a29-4c5d-a421-2a813fa94bbe","ios":"levelo://app?vid=843b8250-2a29-4c5d-a421-2a813fa94bbe"},"vehicle_type_id":"4","last_reported":1732813688,"current_range_meters":30400,"station_id":"ce4bguh2rcd13ifvqcj0","pricing_plan_id":"cebpf4jnsgd1na2vs0mg"},{"bike_id":"df6dc9d2-d9bb-49ca-b89a-e84b809704a0","system_id":"levelo_inurba_marseille","lat":43.30256,"lon":5.40063,"is_reserved":false,"is_disabled":false,"rental_uris":{"android":"levelo://app?vid=df6dc9d2-d9bb-49ca-b89a-e84b809704a0","ios":"levelo://app?vid=df6dc9d2-d9bb-49ca-b89a-e84b809704a0"},"vehicle_type_id":"4","last_reported":1732813688,"current_range_meters":8400,"station_id":"ce4bgvh2rcd13ifvqcs0","pricing_plan_id":"cebpf4jnsgd1na2vs0mg"},{"bike_id":"e4f1650e-dbc2-4475-adfa-60b279e404ed","system_id":"levelo_inurba_marseille","lat":43.26059,"lon":5.39401,"is_reserved":false,"is_disabled":false,"rental_uris":{"android":"levelo://app?vid=e4f1650e-dbc2-4475-adfa-60b279e404ed","ios":"levelo://app?vid=e4f1650e-dbc2-4475-adfa-60b279e404ed"},"vehicle_type_id":"4","last_reported":1732813688,"current_range_meters":35200,"station_id":"ce4bhh92rcd13ifvqfj0","pricing_plan_id":"cebpf4jnsgd1na2vs0mg"},{"bike_id":"4ed4f533-a0dc-428f-b910-0929adfac58c","system_id":"levelo_inurba_marseille","lat":43.33023,"lon":5.39043,"is_reserved":false,"is_disabled":false,"rental_uris":{"android":"levelo://app?vid=4ed4f533-a0dc-428f-b910-0929adfac58c","ios":"levelo://app?vid=4ed4f533-a0dc-428f-b910-0929adfac58c"},"vehicle_type_id":"4","last_reported":1732813688,"current_range_meters":20400,"station_id":"ce4bhr92rcd13ifvqhrg","pricing_plan_id":"cebpf4jnsgd1na2vs0mg"},{"bike_id":"981f1cf6-e698-4e05-95e4-0b69d34bc9b4","system_id":"levelo_inurba_marseille","lat":43.27959,"lon":5.38765,"is_reserved":false,"is_disabled":true,"rental_uris":{"android":"levelo://app?vid=981f1cf6-e698-4e05-95e4-0b69d34bc9b4","ios":"levelo://app?vid=981f1cf6-e698-4e05-95e4-0b69d34bc9b4"},"vehicle_type_id":"4","last_reported":1732813688,"current_range_meters":2000,"station_id":"ce4bhg12rcd13ifvqf80","pricing_plan_id":"cebpf4jnsgd1na2vs0mg"},{"bike_id":"57c385df-d51f-4c80-92b5-fc97c76c2ab4","system_id":"levelo_inurba_marseille","lat":43.28468,"lon":5.35887,"is_reserved":false,"is_disabled":false,"rental_uris":{"android":"levelo://app?vid=57c385df-d51f-4c80-92b5-fc97c76c2ab4","ios":"levelo://app?vid=57c385df-d51f-4c80-92b5-fc97c76c2ab4"},"vehicle_type_id":"4","last_reported":1732813688,"current_range_meters":16000,"station_id":"ce4bhah2rcd13ifvqei0","pricing_plan_id":"cebpf4jnsgd1na2vs0mg"},{"bike_id":"a1dcb3c8-1eef-4083-be7b-b69a119a7250","system_id":"levelo_inurba_marseille","lat":43.23955,"lon":5.36638,"is_reserved":false,"is_disabled":false,"rental_uris":{"android":"levelo://app?vid=a1dcb3c8-1eef-4083-be7b-b69a119a7250","ios":"levelo://app?vid=a1dcb3c8-1eef-4083-be7b-b69a119a7250"},"vehicle_type_id":"4","last_reported":1732813688,"current_range_meters":12800,"station_id":"ce4bhi12rcd13ifvqfp0","pricing_plan_id":"cebpf4jnsgd1na2vs0mg"},{"bike_id":"a3114daf-4732-4c62-9b94-be68f3d6f60c","system_id":"levelo_inurba_marseille","lat":43.28609,"lon":5.37072,"is_reserved":false,"is_disabled":false,"rental_uris":{"android":"levelo://app?vid=a3114daf-4732-4c62-9b94-be68f3d6f60c","ios":"levelo://app?vid=a3114daf-4732-4c62-9b94-be68f3d6f60c"},"vehicle_type_id":"4","last_reported":1732813688,"current_range_meters":8800,"station_id":"ce4bht12rcd13ifvqi60","pricing_plan_id":"cebpf4jnsgd1na2vs0mg"},{"bike_id":"a93d9755-97b5-4b93-bd2f-16bcbfe50b2c","system_id":"levelo_inurba_marseille","lat":43.26558,"lon":5.37285,"is_reserved":false,"is_disabled":false,"rental_uris":{"android":"levelo://app?vid=a93d9755-97b5-4b93-bd2f-16bcbfe50b2c","ios":"levelo://app?vid=a93d9755-97b5-4b93-bd2f-16bcbfe50b2c"},"vehicle_type_id":"4","last_reported":1732813688,"current_range_meters":25200,"station_id":"ce4bhg12rcd13ifvqf70","pricing_plan_id":"cebpf4jnsgd1na2vs0mg"},{"bike_id":"ae3817ed-117b-4ae4-bc47-be03692973ed","system_id":"levelo_inurba_marseille","lat":43.23188,"lon":5.35556,"is_reserved":false,"is_disabled":false,"rental_uris":{"android":"levelo://app?vid=ae3817ed-117b-4ae4-bc47-be03692973ed","ios":"levelo://app?vid=ae3817ed-117b-4ae4-bc47-be03692973ed"},"vehicle_type_id":"4","last_reported":1732813688,"current_range_meters":25200,"station_id":"ce4bhu92rcd13ifvqi70","pricing_plan_id":"cebpf4jnsgd1na2vs0mg"},{"bike_id":"68e6256e-842d-4783-9f6c-5dcc010e525b","system_id":"levelo_inurba_marseille","lat":43.2668,"lon":5.38271,"is_reserved":false,"is_disabled":false,"rental_uris":{"android":"levelo://app?vid=68e6256e-842d-4783-9f6c-5dcc010e525b","ios":"levelo://app?vid=68e6256e-842d-4783-9f6c-5dcc010e525b"},"vehicle_type_id":"4","last_reported":1732813688,"current_range_meters":11600,"station_id":"ce4bhg92rcd13ifvqf90","pricing_plan_id":"cebpf4jnsgd1na2vs0mg"},{"bike_id":"949aa01c-02d2-4116-9099-92a3f51418dc","system_id":"levelo_inurba_marseille","lat":43.30145,"lon":5.37417,"is_reserved":false,"is_disabled":false,"rental_uris":{"android":"levelo://app?vid=949aa01c-02d2-4116-9099-92a3f51418dc","ios":"levelo://app?vid=949aa01c-02d2-4116-9099-92a3f51418dc"},"vehicle_type_id":"4","last_reported":1732813688,"current_range_meters":23200,"station_id":"ce4bgs92rcd13ifvqcc0","pricing_plan_id":"cebpf4jnsgd1na2vs0mg"},{"bike_id":"cf04588c-6b44-43c5-a220-083b8f79e0da","system_id":"levelo_inurba_marseille","lat":43.28728,"lon":5.36083,"is_reserved":false,"is_disabled":false,"rental_uris":{"android":"levelo://app?vid=cf04588c-6b44-43c5-a220-083b8f79e0da","ios":"levelo://app?vid=cf04588c-6b44-43c5-a220-083b8f79e0da"},"vehicle_type_id":"4","last_reported":1732813688,"current_range_meters":38400,"station_id":"cki0cbj6b192h4jlfktg","pricing_plan_id":"cebpf4jnsgd1na2vs0mg"},{"bike_id":"b4d58e23-01ae-4c65-b568-c25ecb787930","system_id":"levelo_inurba_marseille","lat":43.26544,"lon":5.39369,"is_reserved":false,"is_disabled":true,"rental_uris":{"android":"levelo://app?vid=b4d58e23-01ae-4c65-b568-c25ecb787930","ios":"levelo://app?vid=b4d58e23-01ae-4c65-b568-c25ecb787930"},"vehicle_type_id":"4","last_reported":1732813688,"current_range_meters":0,"station_id":"","pricing_plan_id":"cebpf4jnsgd1na2vs0mg"},{"bike_id":"cc2ccdca-a13d-404e-a41f-cd48b695db1b","system_id":"levelo_inurba_marseille","lat":43.30086,"lon":5.39085,"is_reserved":false,"is_disabled":true,"rental_uris":{"android":"levelo://app?vid=cc2ccdca-a13d-404e-a41f-cd48b695db1b","ios":"levelo://app?vid=cc2ccdca-a13d-404e-a41f-cd48b695db1b"},"vehicle_type_id":"4","last_reported":1732813688,"current_range_meters":0,"station_id":"ce4bh192rcd13ifvqdb0","pricing_plan_id":"cebpf4jnsgd1na2vs0mg"},{"bike_id":"29bfd9ad-0365-4b6b-9f4a-b320e49f4b13","system_id":"levelo_inurba_marseille","lat":43.337444,"lon":5.374475,"is_reserved":false,"is_disabled":false,"rental_uris":{"android":"levelo://app?vid=29bfd9ad-0365-4b6b-9f4a-b320e49f4b13","ios":"levelo://app?vid=29bfd9ad-0365-4b6b-9f4a-b320e49f4b13"},"vehicle_type_id":"4","last_reported":1732813688,"current_range_meters":27200,"station_id":"","pricing_plan_id":"cebpf4jnsgd1na2vs0mg"},{"bike_id":"2096a45e-d0e2-4f7c-9ce9-5dc2ffe86911","system_id":"levelo_inurba_marseille","lat":43.30885,"lon":5.39654,"is_reserved":false,"is_disabled":false,"rental_uris":{"android":"levelo://app?vid=2096a45e-d0e2-4f7c-9ce9-5dc2ffe86911","ios":"levelo://app?vid=2096a45e-d0e2-4f7c-9ce9-5dc2ffe86911"},"vehicle_type_id":"4","last_reported":1732813688,"current_range_meters":36000,"station_id":"ce4bh012rcd13ifvqcv0","pricing_plan_id":"cebpf4jnsgd1na2vs0mg"},{"bike_id":"447c7286-7fd2-40d7-a11c-845c88099efe","system_id":"levelo_inurba_marseille","lat":43.22925,"lon":5.35376,"is_reserved":false,"is_disabled":true,"rental_uris":{"android":"levelo://app?vid=447c7286-7fd2-40d7-a11c-845c88099efe","ios":"levelo://app?vid=447c7286-7fd2-40d7-a11c-845c88099efe"},"vehicle_type_id":"4","last_reported":1732813688,"current_range_meters":10000,"station_id":"cpo3532slgdg3j2ikp40","pricing_plan_id":"cebpf4jnsgd1na2vs0mg"},{"bike_id":"1185b483-0f64-4793-ac1a-5b591e25e4ae","system_id":"levelo_inurba_marseille","lat":43.29579,"lon":5.37501,"is_reserved":false,"is_disabled":false,"rental_uris":{"android":"levelo://app?vid=1185b483-0f64-4793-ac1a-5b591e25e4ae","ios":"levelo://app?vid=1185b483-0f64-4793-ac1a-5b591e25e4ae"},"vehicle_type_id":"4","last_reported":1732813688,"current_range_meters":21600,"station_id":"ce4bgh92rcd13ifvqb50","pricing_plan_id":"cebpf4jnsgd1na2vs0mg"},{"bike_id":"6a239580-a00b-4138-9c0a-994b0719e2ad","system_id":"levelo_inurba_marseille","lat":43.29832,"lon":5.36249,"is_reserved":false,"is_disabled":false,"rental_uris":{"android":"levelo://app?vid=6a239580-a00b-4138-9c0a-994b0719e2ad","ios":"levelo://app?vid=6a239580-a00b-4138-9c0a-994b0719e2ad"},"vehicle_type_id":"4","last_reported":1732813688,"current_range_meters":10000,"station_id":"ce4bgpp2rcd13ifvqc3g","pricing_plan_id":"cebpf4jnsgd1na2vs0mg"},{"bike_id":"96847267-3107-43dc-9724-9cf5f25fdfe3","system_id":"levelo_inurba_marseille","lat":43.30326,"lon":5.40432,"is_reserved":false,"is_disabled":false,"rental_uris":{"android":"levelo://app?vid=96847267-3107-43dc-9724-9cf5f25fdfe3","ios":"levelo://app?vid=96847267-3107-43dc-9724-9cf5f25fdfe3"},"vehicle_type_id":"4","last_reported":1732813688,"current_range_meters":8000,"station_id":"ce4bh012rcd13ifvqd10","pricing_plan_id":"cebpf4jnsgd1na2vs0mg"},{"bike_id":"6f795e95-2133-4290-9aab-1dfdb6f20ae8","system_id":"levelo_inurba_marseille","lat":43.2957,"lon":5.39974,"is_reserved":false,"is_disabled":false,"rental_uris":{"android":"levelo://app?vid=6f795e95-2133-4290-9aab-1dfdb6f20ae8","ios":"levelo://app?vid=6f795e95-2133-4290-9aab-1dfdb6f20ae8"},"vehicle_type_id":"4","last_reported":1732813688,"current_range_meters":39200,"station_id":"ce4bh312rcd13ifvqdj0","pricing_plan_id":"cebpf4jnsgd1na2vs0mg"},{"bike_id":"b7918d7b-69f2-4a53-b50e-c1ecca7945b9","system_id":"levelo_inurba_marseille","lat":43.26939,"lon":5.40264,"is_reserved":false,"is_disabled":true,"rental_uris":{"android":"levelo://app?vid=b7918d7b-69f2-4a53-b50e-c1ecca7945b9","ios":"levelo://app?vid=b7918d7b-69f2-4a53-b50e-c1ecca7945b9"},"vehicle_type_id":"4","last_reported":1732813688,"current_range_meters":0,"station_id":"cjm6bp8fraef2m0cb0m0","pricing_plan_id":"cebpf4jnsgd1na2vs0mg"},{"bike_id":"4cd489f2-c439-431a-9770-59ddfe3a3b50","system_id":"levelo_inurba_marseille","lat":43.25872,"lon":5.39909,"is_reserved":false,"is_disabled":false,"rental_uris":{"android":"levelo://app?vid=4cd489f2-c439-431a-9770-59ddfe3a3b50","ios":"levelo://app?vid=4cd489f2-c439-431a-9770-59ddfe3a3b50"},"vehicle_type_id":"4","last_reported":1732813688,"current_range_meters":39200,"station_id":"ce4bhl92rcd13ifvqghg","pricing_plan_id":"cebpf4jnsgd1na2vs0mg"},{"bike_id":"5e3ff3d7-4ded-4184-bace-a031f28ce472","system_id":"levelo_inurba_marseille","lat":43.33763,"lon":5.37437,"is_reserved":false,"is_disabled":false,"rental_uris":{"android":"levelo://app?vid=5e3ff3d7-4ded-4184-bace-a031f28ce472","ios":"levelo://app?vid=5e3ff3d7-4ded-4184-bace-a031f28ce472"},"vehicle_type_id":"4","last_reported":1732813688,"current_range_meters":30800,"station_id":"","pricing_plan_id":"cebpf4jnsgd1na2vs0mg"},{"bike_id":"51800a91-96d1-48e9-98ea-a5c3efc552be","system_id":"levelo_inurba_marseille","lat":43.3087,"lon":5.37747,"is_reserved":false,"is_disabled":true,"rental_uris":{"android":"levelo://app?vid=51800a91-96d1-48e9-98ea-a5c3efc552be","ios":"levelo://app?vid=51800a91-96d1-48e9-98ea-a5c3efc552be"},"vehicle_type_id":"4","last_reported":1732813688,"current_range_meters":800,"station_id":"","pricing_plan_id":"cebpf4jnsgd1na2vs0mg"},{"bike_id":"e7349057-8ef6-4c7a-9368-54c4e24ed0a0","system_id":"levelo_inurba_marseille","lat":43.25003,"lon":5.38923,"is_reserved":false,"is_disabled":false,"rental_uris":{"android":"levelo://app?vid=e7349057-8ef6-4c7a-9368-54c4e24ed0a0","ios":"levelo://app?vid=e7349057-8ef6-4c7a-9368-54c4e24ed0a0"},"vehicle_type_id":"4","last_reported":1732813688,"current_range_meters":8000,"station_id":"ce4bhgp2rcd13ifvqfd0","pricing_plan_id":"cebpf4jnsgd1na2vs0mg"},{"bike_id":"1fe862fa-be68-4fd7-9ed8-9a01aef22e5e","system_id":"levelo_inurba_marseille","lat":43.28934,"lon":5.3664,"is_reserved":false,"is_disabled":false,"rental_uris":{"android":"levelo://app?vid=1fe862fa-be68-4fd7-9ed8-9a01aef22e5e","ios":"levelo://app?vid=1fe862fa-be68-4fd7-9ed8-9a01aef22e5e"},"vehicle_type_id":"4","last_reported":1732813688,"current_range_meters":6800,"station_id":"ce4bhap2rcd13ifvqek0","pricing_plan_id":"cebpf4jnsgd1na2vs0mg"},{"bike_id":"ea051491-716c-43ff-a39b-ddce056dfef7","system_id":"levelo_inurba_marseille","lat":43.27816,"lon":5.40719,"is_reserved":false,"is_disabled":false,"rental_uris":{"android":"levelo://app?vid=ea051491-716c-43ff-a39b-ddce056dfef7","ios":"levelo://app?vid=ea051491-716c-43ff-a39b-ddce056dfef7"},"vehicle_type_id":"4","last_reported":1732813688,"current_range_meters":29600,"station_id":"ce4bhnh2rcd13ifvqgtg","pricing_plan_id":"cebpf4jnsgd1na2vs0mg"},{"bike_id":"c2a3929b-b318-4753-a2ef-0b1bce38bfa9","system_id":"levelo_inurba_marseille","lat":43.27901,"lon":5.37996,"is_reserved":false,"is_disabled":false,"rental_uris":{"android":"levelo://app?vid=c2a3929b-b318-4753-a2ef-0b1bce38bfa9","ios":"levelo://app?vid=c2a3929b-b318-4753-a2ef-0b1bce38bfa9"},"vehicle_type_id":"4","last_reported":1732813688,"current_range_meters":38800,"station_id":"ce4bhf92rcd13ifvqf50","pricing_plan_id":"cebpf4jnsgd1na2vs0mg"},{"bike_id":"0f905b5d-41c0-467d-949c-fa0c05f15978","system_id":"levelo_inurba_marseille","lat":43.30243,"lon":5.40085,"is_reserved":false,"is_disabled":true,"rental_uris":{"android":"levelo://app?vid=0f905b5d-41c0-467d-949c-fa0c05f15978","ios":"levelo://app?vid=0f905b5d-41c0-467d-949c-fa0c05f15978"},"vehicle_type_id":"4","last_reported":1732813688,"current_range_meters":31200,"station_id":"ce4bgvh2rcd13ifvqcs0","pricing_plan_id":"cebpf4jnsgd1na2vs0mg"},{"bike_id":"185c0530-41bc-46f7-9534-7dbe08b37658","system_id":"levelo_inurba_marseille","lat":43.30325,"lon":5.4043,"is_reserved":false,"is_disabled":true,"rental_uris":{"android":"levelo://app?vid=185c0530-41bc-46f7-9534-7dbe08b37658","ios":"levelo://app?vid=185c0530-41bc-46f7-9534-7dbe08b37658"},"vehicle_type_id":"4","last_reported":1732813688,"current_range_meters":31200,"station_id":"ce4bh012rcd13ifvqd10","pricing_plan_id":"cebpf4jnsgd1na2vs0mg"},{"bike_id":"820bb30e-83d6-40e6-8a75-a1ea8b0761a2","system_id":"levelo_inurba_marseille","lat":43.23971,"lon":5.36636,"is_reserved":false,"is_disabled":false,"rental_uris":{"android":"levelo://app?vid=820bb30e-83d6-40e6-8a75-a1ea8b0761a2","ios":"levelo://app?vid=820bb30e-83d6-40e6-8a75-a1ea8b0761a2"},"vehicle_type_id":"4","last_reported":1732813688,"current_range_meters":5600,"station_id":"ce4bhi12rcd13ifvqfp0","pricing_plan_id":"cebpf4jnsgd1na2vs0mg"},{"bike_id":"7e7259fa-5720-46ec-a17a-b47425a0c39a","system_id":"levelo_inurba_marseille","lat":43.31334,"lon":5.39698,"is_reserved":false,"is_disabled":true,"rental_uris":{"android":"levelo://app?vid=7e7259fa-5720-46ec-a17a-b47425a0c39a","ios":"levelo://app?vid=7e7259fa-5720-46ec-a17a-b47425a0c39a"},"vehicle_type_id":"4","last_reported":1732813688,"current_range_meters":1600,"station_id":"ce4bgvp2rcd13ifvqcu0","pricing_plan_id":"cebpf4jnsgd1na2vs0mg"},{"bike_id":"4c1ba871-848d-40fb-8efc-b8373426eefb","system_id":"levelo_inurba_marseille","lat":43.3375,"lon":5.37455,"is_reserved":false,"is_disabled":false,"rental_uris":{"android":"levelo://app?vid=4c1ba871-848d-40fb-8efc-b8373426eefb","ios":"levelo://app?vid=4c1ba871-848d-40fb-8efc-b8373426eefb"},"vehicle_type_id":"4","last_reported":1732813688,"current_range_meters":28000,"station_id":"","pricing_plan_id":"cebpf4jnsgd1na2vs0mg"},{"bike_id":"2359f890-85dc-43b7-a2fb-c5dd4986d2ee","system_id":"levelo_inurba_marseille","lat":43.27946,"lon":5.4105,"is_reserved":false,"is_disabled":false,"rental_uris":{"android":"levelo://app?vid=2359f890-85dc-43b7-a2fb-c5dd4986d2ee","ios":"levelo://app?vid=2359f890-85dc-43b7-a2fb-c5dd4986d2ee"},"vehicle_type_id":"4","last_reported":1732813688,"current_range_meters":27600,"station_id":"ce4bhnp2rcd13ifvqh0g","pricing_plan_id":"cebpf4jnsgd1na2vs0mg"},{"bike_id":"ddfdcdc4-a1b5-42ea-a0ea-463dbfc33b3f","system_id":"levelo_inurba_marseille","lat":43.28033,"lon":5.36939,"is_reserved":false,"is_disabled":true,"rental_uris":{"android":"levelo://app?vid=ddfdcdc4-a1b5-42ea-a0ea-463dbfc33b3f","ios":"levelo://app?vid=ddfdcdc4-a1b5-42ea-a0ea-463dbfc33b3f"},"vehicle_type_id":"4","last_reported":1732813688,"current_range_meters":0,"station_id":"ce4bha12rcd13ifvqef0","pricing_plan_id":"cebpf4jnsgd1na2vs0mg"},{"bike_id":"7f1f678b-87f3-491d-9c54-3681ffbd248a","system_id":"levelo_inurba_marseille","lat":43.27508,"lon":5.41314,"is_reserved":false,"is_disabled":false,"rental_uris":{"android":"levelo://app?vid=7f1f678b-87f3-491d-9c54-3681ffbd248a","ios":"levelo://app?vid=7f1f678b-87f3-491d-9c54-3681ffbd248a"},"vehicle_type_id":"4","last_reported":1732813688,"current_range_meters":24800,"station_id":"","pricing_plan_id":"cebpf4jnsgd1na2vs0mg"},{"bike_id":"dcc5dcda-e0c0-4c1c-bba6-fe73755eea1b","system_id":"levelo_inurba_marseille","lat":43.26576,"lon":5.390087,"is_reserved":false,"is_disabled":true,"rental_uris":{"android":"levelo://app?vid=dcc5dcda-e0c0-4c1c-bba6-fe73755eea1b","ios":"levelo://app?vid=dcc5dcda-e0c0-4c1c-bba6-fe73755eea1b"},"vehicle_type_id":"4","last_reported":1732813688,"current_range_meters":0,"station_id":"","pricing_plan_id":"cebpf4jnsgd1na2vs0mg"},{"bike_id":"cf58660d-0bce-46c3-867d-7e0dae2586c4","system_id":"levelo_inurba_marseille","lat":43.25498,"lon":5.37648,"is_reserved":false,"is_disabled":false,"rental_uris":{"android":"levelo://app?vid=cf58660d-0bce-46c3-867d-7e0dae2586c4","ios":"levelo://app?vid=cf58660d-0bce-46c3-867d-7e0dae2586c4"},"vehicle_type_id":"4","last_reported":1732813688,"current_range_meters":32400,"station_id":"ce4bhh12rcd13ifvqff0","pricing_plan_id":"cebpf4jnsgd1na2vs0mg"},{"bike_id":"d56366e4-3882-499b-925c-5710227a2785","system_id":"levelo_inurba_marseille","lat":43.313603,"lon":5.367003,"is_reserved":false,"is_disabled":false,"rental_uris":{"android":"levelo://app?vid=d56366e4-3882-499b-925c-5710227a2785","ios":"levelo://app?vid=d56366e4-3882-499b-925c-5710227a2785"},"vehicle_type_id":"4","last_reported":1732813688,"current_range_meters":36400,"station_id":"ce4bhhh2rcd13ifvqfl0","pricing_plan_id":"cebpf4jnsgd1na2vs0mg"},{"bike_id":"f9c65f5f-682c-4b8e-9eb6-4b1bb8d69159","system_id":"levelo_inurba_marseille","lat":43.27421,"lon":5.39413,"is_reserved":false,"is_disabled":true,"rental_uris":{"android":"levelo://app?vid=f9c65f5f-682c-4b8e-9eb6-4b1bb8d69159","ios":"levelo://app?vid=f9c65f5f-682c-4b8e-9eb6-4b1bb8d69159"},"vehicle_type_id":"4","last_reported":1732813688,"current_range_meters":800,"station_id":"ce4bhdp2rcd13ifvqf20","pricing_plan_id":"cebpf4jnsgd1na2vs0mg"},{"bike_id":"1dfdb7d0-33dc-42c3-b17a-8845ae065c98","system_id":"levelo_inurba_marseille","lat":43.28228,"lon":5.38685,"is_reserved":false,"is_disabled":false,"rental_uris":{"android":"levelo://app?vid=1dfdb7d0-33dc-42c3-b17a-8845ae065c98","ios":"levelo://app?vid=1dfdb7d0-33dc-42c3-b17a-8845ae065c98"},"vehicle_type_id":"4","last_reported":1732813688,"current_range_meters":23200,"station_id":"ce4bh492rcd13ifvqdvg","pricing_plan_id":"cebpf4jnsgd1na2vs0mg"},{"bike_id":"450e101e-d986-43cb-885b-4b395eb7b52a","system_id":"levelo_inurba_marseille","lat":43.29977,"lon":5.37181,"is_reserved":false,"is_disabled":false,"rental_uris":{"android":"levelo://app?vid=450e101e-d986-43cb-885b-4b395eb7b52a","ios":"levelo://app?vid=450e101e-d986-43cb-885b-4b395eb7b52a"},"vehicle_type_id":"4","last_reported":1732813688,"current_range_meters":14800,"station_id":"ce4bgr92rcd13ifvqc7g","pricing_plan_id":"cebpf4jnsgd1na2vs0mg"},{"bike_id":"c9604b21-7dad-4909-985a-89c4af98b24f","system_id":"levelo_inurba_marseille","lat":43.27495,"lon":5.42452,"is_reserved":false,"is_disabled":false,"rental_uris":{"android":"levelo://app?vid=c9604b21-7dad-4909-985a-89c4af98b24f","ios":"levelo://app?vid=c9604b21-7dad-4909-985a-89c4af98b24f"},"vehicle_type_id":"4","last_reported":1732813688,"current_range_meters":11600,"station_id":"ce4bhn92rcd13ifvqgrg","pricing_plan_id":"cebpf4jnsgd1na2vs0mg"},{"bike_id":"1a450b52-403a-442c-b931-78164585f62b","system_id":"levelo_inurba_marseille","lat":43.2926,"lon":5.38429,"is_reserved":false,"is_disabled":false,"rental_uris":{"android":"levelo://app?vid=1a450b52-403a-442c-b931-78164585f62b","ios":"levelo://app?vid=1a450b52-403a-442c-b931-78164585f62b"},"vehicle_type_id":"4","last_reported":1732813688,"current_range_meters":19600,"station_id":"ce4bh692rcd13ifvqea0","pricing_plan_id":"cebpf4jnsgd1na2vs0mg"},{"bike_id":"8d6aa3c7-103e-43d4-bb30-f166e9f7afd2","system_id":"levelo_inurba_marseille","lat":43.304209,"lon":5.412875,"is_reserved":false,"is_disabled":false,"rental_uris":{"android":"levelo://app?vid=8d6aa3c7-103e-43d4-bb30-f166e9f7afd2","ios":"levelo://app?vid=8d6aa3c7-103e-43d4-bb30-f166e9f7afd2"},"vehicle_type_id":"4","last_reported":1732813688,"current_range_meters":18800,"station_id":"ce4bhop2rcd13ifvqh8g","pricing_plan_id":"cebpf4jnsgd1na2vs0mg"},{"bike_id":"9eaef798-6675-459c-a73b-4ba657e1c74a","system_id":"levelo_inurba_marseille","lat":43.29005,"lon":5.35609,"is_reserved":false,"is_disabled":true,"rental_uris":{"android":"levelo://app?vid=9eaef798-6675-459c-a73b-4ba657e1c74a","ios":"levelo://app?vid=9eaef798-6675-459c-a73b-4ba657e1c74a"},"vehicle_type_id":"4","last_reported":1732813688,"current_range_meters":38400,"station_id":"ce4bhb92rcd13ifvqen0","pricing_plan_id":"cebpf4jnsgd1na2vs0mg"},{"bike_id":"dc80511d-20a5-4619-b1fb-4ed40ae2043c","system_id":"levelo_inurba_marseille","lat":43.26781,"lon":5.3942,"is_reserved":false,"is_disabled":true,"rental_uris":{"android":"levelo://app?vid=dc80511d-20a5-4619-b1fb-4ed40ae2043c","ios":"levelo://app?vid=dc80511d-20a5-4619-b1fb-4ed40ae2043c"},"vehicle_type_id":"4","last_reported":1732813688,"current_range_meters":2000,"station_id":"ce4bhh12rcd13ifvqfg0","pricing_plan_id":"cebpf4jnsgd1na2vs0mg"},