{"last_updated":1707250031,"ttl":30,"version":"2.2","data":{"bikes":[{"bike_id":"f1130e54-c038-453f-a40a-20081aba8b77","system_id":"levelo_inurba_marseille","lat":43.314811,"lon":5.373103,"is_reserved":false,"is_disabled":false,"rental_uris":{"android":"levelo://app?vid=f1130e54-c038-453f-a40a-20081aba8b77","ios":"levelo://app?vid=f1130e54-c038-453f-a40a-20081aba8b77"},"vehicle_type_id":"4","last_reported":1707250031,"current_range_meters":800,"station_id":"ce4bgt12rcd13ifvqcd0","pricing_plan_id":"free"},{"bike_id":"50b8c34b-090e-4bb3-9e53-f79a42129939","system_id":"levelo_inurba_marseille","lat":43.309039,"lon":5.371797,"is_reserved":false,"is_disabled":false,"rental_uris":{"android":"levelo://app?vid=50b8c34b-090e-4bb3-9e53-f79a42129939","ios":"levelo://app?vid=50b8c34b-090e-4bb3-9e53-f79a42129939"},"vehicle_type_id":"4","last_reported":1707250031,"current_range_meters":19200,"station_id":"ce4bguh2rcd13ifvqckg","pricing_plan_id":"free"},{"bike_id":"59da6869-5cef-4563-8a13-37ac21f7f3c1","system_id":"levelo_inurba_marseille","lat":43.30537,"lon":5.367345,"is_reserved":false,"is_disabled":false,"rental_uris":{"android":"levelo://app?vid=59da6869-5cef-4563-8a13-37ac21f7f3c1","ios":"levelo://app?vid=59da6869-5cef-4563-8a13-37ac21f7f3c1"},"vehicle_type_id":"4","last_reported":1707250031,"current_range_meters":0,"station_id":"ce4bgrp2rcd13ifvqc9g","pricing_plan_id":"free"},{"bike_id":"e7ac0c82-604e-471f-b2ad-0816ca3a3e08","system_id":"levelo_inurba_marseille","lat":43.305368,"lon":5.367343,"is_reserved":false,"is_disabled":false,"rental_uris":{"android":"levelo://app?vid=e7ac0c82-604e-471f-b2ad-0816ca3a3e08","ios":"levelo://app?vid=e7ac0c82-604e-471f-b2ad-0816ca3a3e08"},"vehicle_type_id":"4","last_reported":1707250031,"current_range_meters":0,"station_id":"ce4bgrp2rcd13ifvqc9g","pricing_plan_id":"free"},{"bike_id":"e94fa700-12b2-49e8-a9d2-4a8f4f7e3d41","system_id":"levelo_inurba_marseille","lat":43.305989,"lon":5.37225,"is_reserved":false,"is_disabled":false,"rental_uris":{"android":"levelo://app?vid=e94fa700-12b2-49e8-a9d2-4a8f4f7e3d41","ios":"levelo://app?vid=e94fa700-12b2-49e8-a9d2-4a8f4f7e3d41"},"vehicle_type_id":"4","last_reported":1707250031,"current_range_meters":5600,"station_id":"ce4bgqh2rcd13ifvqc4g","pricing_plan_id":"free"},{"bike_id":"4ce86125-fef8-4857-b767-644813ac1bd7","system_id":"levelo_inurba_marseille","lat":43.305989,"lon":5.37225,"is_reserved":false,"is_disabled":false,"rental_uris":{"android":"levelo://app?vid=4ce86125-fef8-4857-b767-644813ac1bd7","ios":"levelo://app?vid=4ce86125-fef8-4857-b767-644813ac1bd7"},"vehicle_type_id":"4","last_reported":1707250031,"current_range_meters":8800,"station_id":"ce4bgqh2rcd13ifvqc4g","pricing_plan_id":"free"},{"bike_id":"d57af884-4a8c-459c-9464-17e48a3f32b5","system_id":"levelo_inurba_marseille","lat":43.311125,"lon":5.377624,"is_reserved":false,"is_disabled":false,"rental_uris":{"android":"levelo://app?vid=d57af884-4a8c-459c-9464-17e48a3f32b5","ios":"levelo://app?vid=d57af884-4a8c-459c-9464-17e48a3f32b5"},"vehicle_type_id":"4","last_reported":1707250031,"current_range_meters":2800,"station_id":"ce4bgt92rcd13ifvqcg0","pricing_plan_id":"free"},{"bike_id":"39f6a757-6bdb-4df0-969a-5bd7f58161e3","system_id":"levelo_inurba_marseille","lat":43.311125,"lon":5.377624,"is_reserved":false,"is_disabled":false,"rental_uris":{"android":"levelo://app?vid=39f6a757-6bdb-4df0-969a-5bd7f58161e3","ios":"levelo://app?vid=39f6a757-6bdb-4df0-969a-5bd7f58161e3"},"vehicle_type_id":"4","last_reported":1707250031,"current_range_meters":0,"station_id":"ce4bgt92rcd13ifvqcg0","pricing_plan_id":"free"},{"bike_id":"7989541c-ca2d-45d7-9e1a-27bb60e18a47","system_id":"levelo_inurba_marseille","lat":43.311125,"lon":5.377624,"is_reserved":false,"is_disabled":false,"rental_uris":{"android":"levelo://app?vid=7989541c-ca2d-45d7-9e1a-27bb60e18a47","ios":"levelo://app?vid=7989541c-ca2d-45d7-9e1a-27bb60e18a47"},"vehicle_type_id":"4","last_reported":1707250031,"current_range_meters":4400,"station_id":"ce4bgt92rcd13ifvqcg0","pricing_plan_id":"free"},{"bike_id":"4e85e42e-54ef-4d6f-88ac-98578011da92","system_id":"levelo_inurba_marseille","lat":43.307945,"lon":5.376487,"is_reserved":false,"is_disabled":false,"rental_uris":{"android":"levelo://app?vid=4e85e42e-54ef-4d6f-88ac-98578011da92","ios":"levelo://app?vid=4e85e42e-54ef-4d6f-88ac-98578011da92"},"vehicle_type_id":"4","last_reported":1707250031,"current_range_meters":13600,"station_id":"ce4bgv92rcd13ifvqcq0","pricing_plan_id":"free"},{"bike_id":"82345d7c-5138-40b7-be8a-be297e9b5fa9","system_id":"levelo_inurba_marseille","lat":43.307945,"lon":5.376487,"is_reserved":false,"is_disabled":false,"rental_uris":{"android":"levelo://app?vid=82345d7c-5138-40b7-be8a-be297e9b5fa9","ios":"levelo://app?vid=82345d7c-5138-40b7-be8a-be297e9b5fa9"},"vehicle_type_id":"4","last_reported":1707250031,"current_range_meters":27600,"station_id":"ce4bgv92rcd13ifvqcq0","pricing_plan_id":"free"},{"bike_id":"bbfc5f52-17f3-4330-9c28-d0c8b2bcb37d","system_id":"levelo_inurba_marseille","lat":43.317075,"lon":5.377367,"is_reserved":false,"is_disabled":false,"rental_uris":{"android":"levelo://app?vid=bbfc5f52-17f3-4330-9c28-d0c8b2bcb37d","ios":"levelo://app?vid=bbfc5f52-17f3-4330-9c28-d0c8b2bcb37d"},"vehicle_type_id":"4","last_reported":1707250031,"current_range_meters":4000,"station_id":"ce4bgth2rcd13ifvqch0","pricing_plan_id":"free"},{"bike_id":"f2788439-d11b-4309-9a2d-20dce1197347","system_id":"levelo_inurba_marseille","lat":43.317075,"lon":5.377367,"is_reserved":false,"is_disabled":false,"rental_uris":{"android":"levelo://app?vid=f2788439-d11b-4309-9a2d-20dce1197347","ios":"levelo://app?vid=f2788439-d11b-4309-9a2d-20dce1197347"},"vehicle_type_id":"4","last_reported":1707250031,"current_range_meters":18400,"station_id":"ce4bgth2rcd13ifvqch0","pricing_plan_id":"free"},{"bike_id":"77073416-f815-46ad-b414-33ec95709bea","system_id":"levelo_inurba_marseille","lat":43.317075,"lon":5.377367,"is_reserved":false,"is_disabled":false,"rental_uris":{"android":"levelo://app?vid=77073416-f815-46ad-b414-33ec95709bea","ios":"levelo://app?vid=77073416-f815-46ad-b414-33ec95709bea"},"vehicle_type_id":"4","last_reported":1707250031,"current_range_meters":31200,"station_id":"ce4bgth2rcd13ifvqch0","pricing_plan_id":"free"},{"bike_id":"0c466ccc-d747-4327-be86-c3896d0bbba3","system_id":"levelo_inurba_marseille","lat":43.317075,"lon":5.377367,"is_reserved":false,"is_disabled":false,"rental_uris":{"android":"levelo://app?vid=0c466ccc-d747-4327-be86-c3896d0bbba3","ios":"levelo://app?vid=0c466ccc-d747-4327-be86-c3896d0bbba3"},"vehicle_type_id":"4","last_reported":1707250031,"current_range_meters":31200,"station_id":"ce4bgth2rcd13ifvqch0","pricing_plan_id":"free"},{"bike_id":"44d074c1-d2db-47c6-8e3d-855ef42b92aa","system_id":"levelo_inurba_marseille","lat":43.315293,"lon":5.380349,"is_reserved":false,"is_disabled":false,"rental_uris":{"android":"levelo://app?vid=44d074c1-d2db-47c6-8e3d-855ef42b92aa","ios":"levelo://app?vid=44d074c1-d2db-47c6-8e3d-855ef42b92aa"},"vehicle_type_id":"4","last_reported":1707250031,"current_range_meters":6400,"station_id":"ce4bhsp2rcd13ifvqi50","pricing_plan_id":"free"},{"bike_id":"c3eb0486-c9f1-4610-978a-c48f7af8fd75","system_id":"levelo_inurba_marseille","lat":43.315293,"lon":5.380349,"is_reserved":false,"is_disabled":false,"rental_uris":{"android":"levelo://app?vid=c3eb0486-c9f1-4610-978a-c48f7af8fd75","ios":"levelo://app?vid=c3eb0486-c9f1-4610-978a-c48f7af8fd75"},"vehicle_type_id":"4","last_reported":1707250031,"current_range_meters":11600,"station_id":"ce4bhsp2rcd13ifvqi50","pricing_plan_id":"free"},{"bike_id":"32b3688b-c940-47a5-8354-60d524c82719","system_id":"levelo_inurba_marseille","lat":43.30193,"lon":5.3662,"is_reserved":false,"is_disabled":false,"rental_uris":{"android":"levelo://app?vid=32b3688b-c940-47a5-8354-60d524c82719","ios":"levelo://app?vid=32b3688b-c940-47a5-8354-60d524c82719"},"vehicle_type_id":"4","last_reported":1707250031,"current_range_meters":0,"station_id":"ce4bgrh2rcd13ifvqc8g","pricing_plan_id":"free"},{"bike_id":"2903cd6b-57f4-464f-93a8-36a2db0517ac","system_id":"levelo_inurba_marseille","lat":43.308012,"lon":5.381511,"is_reserved":false,"is_disabled":false,"rental_uris":{"android":"levelo://app?vid=2903cd6b-57f4-464f-93a8-36a2db0517ac","ios":"levelo://app?vid=2903cd6b-57f4-464f-93a8-36a2db0517ac"},"vehicle_type_id":"4","last_reported":1707250031,"current_range_meters":16000,"station_id":"ce4bgt12rcd13ifvqce0","pricing_plan_id":"free"},{"bike_id":"d3ae3842-43bd-4cae-aaeb-96795e02ec56","system_id":"levelo_inurba_marseille","lat":43.308012,"lon":5.381511,"is_reserved":false,"is_disabled":false,"rental_uris":{"android":"levelo://app?vid=d3ae3842-43bd-4cae-aaeb-96795e02ec56","ios":"levelo://app?vid=d3ae3842-43bd-4cae-aaeb-96795e02ec56"},"vehicle_type_id":"4","last_reported":1707250031,"current_range_meters":13200,"station_id":"ce4bgt12rcd13ifvqce0","pricing_plan_id":"free"},{"bike_id":"a394aba6-316e-493c-898e-32b69ac36ef0","system_id":"levelo_inurba_marseille","lat":43.308624,"lon":5.381811,"is_reserved":false,"is_disabled":false,"rental_uris":{"android":"levelo://app?vid=a394aba6-316e-493c-898e-32b69ac36ef0","ios":"levelo://app?vid=a394aba6-316e-493c-898e-32b69ac36ef0"},"vehicle_type_id":"4","last_reported":1707250031,"current_range_meters":17200,"station_id":"","pricing_plan_id":"free"},{"bike_id":"3181a382-09c4-4686-a78d-57cc9c8da4ac","system_id":"levelo_inurba_marseille","lat":43.308012,"lon":5.381511,"is_reserved":false,"is_disabled":false,"rental_uris":{"android":"levelo://app?vid=3181a382-09c4-4686-a78d-57cc9c8da4ac","ios":"levelo://app?vid=3181a382-09c4-4686-a78d-57cc9c8da4ac"},"vehicle_type_id":"4","last_reported":1707250031,"current_range_meters":14000,"station_id":"ce4bgt12rcd13ifvqce0","pricing_plan_id":"free"},{"bike_id":"675e637c-52df-440b-a124-13c3b55c001f","system_id":"levelo_inurba_marseille","lat":43.308012,"lon":5.381511,"is_reserved":false,"is_disabled":false,"rental_uris":{"android":"levelo://app?vid=675e637c-52df-440b-a124-13c3b55c001f","ios":"levelo://app?vid=675e637c-52df-440b-a124-13c3b55c001f"},"vehicle_type_id":"4","last_reported":1707250031,"current_range_meters":0,"station_id":"ce4bgt12rcd13ifvqce0","pricing_plan_id":"free"},{"bike_id":"ed0f226a-ff53-4560-a625-a3dcb4b6aa39","system_id":"levelo_inurba_marseille","lat":43.3046,"lon":5.37906,"is_reserved":false,"is_disabled":false,"rental_uris":{"android":"levelo://app?vid=ed0f226a-ff53-4560-a625-a3dcb4b6aa39","ios":"levelo://app?vid=ed0f226a-ff53-4560-a625-a3dcb4b6aa39"},"vehicle_type_id":"4","last_reported":1707250031,"current_range_meters":0,"station_id":"ce4bgup2rcd13ifvqcn0","pricing_plan_id":"free"},{"bike_id":"5e3f4117-bf71-4295-8fac-b33a9c44e6b6","system_id":"levelo_inurba_marseille","lat":43.324771,"lon":5.36557,"is_reserved":false,"is_disabled":false,"rental_uris":{"android":"levelo://app?vid=5e3f4117-bf71-4295-8fac-b33a9c44e6b6","ios":"levelo://app?vid=5e3f4117-bf71-4295-8fac-b33a9c44e6b6"},"vehicle_type_id":"4","last_reported":1707250031,"current_range_meters":23600,"station_id":"ce4bhs12rcd13ifvqhvg","pricing_plan_id":"free"},{"bike_id":"38cd9f06-2496-4cc3-975c-dabe34e3b5eb","system_id":"levelo_inurba_marseille","lat":43.324771,"lon":5.36557,"is_reserved":false,"is_disabled":false,"rental_uris":{"android":"levelo://app?vid=38cd9f06-2496-4cc3-975c-dabe34e3b5eb","ios":"levelo://app?vid=38cd9f06-2496-4cc3-975c-dabe34e3b5eb"},"vehicle_type_id":"4","last_reported":1707250031,"current_range_meters":1200,"station_id":"ce4bhs12rcd13ifvqhvg","pricing_plan_id":"free"},{"bike_id":"97f71f75-d414-4d74-9636-20377fab8590","system_id":"levelo_inurba_marseille","lat":43.324771,"lon":5.36557,"is_reserved":false,"is_disabled":false,"rental_uris":{"android":"levelo://app?vid=97f71f75-d414-4d74-9636-20377fab8590","ios":"levelo://app?vid=97f71f75-d414-4d74-9636-20377fab8590"},"vehicle_type_id":"4","last_reported":1707250031,"current_range_meters":30000,"station_id":"ce4bhs12rcd13ifvqhvg","pricing_plan_id":"free"},{"bike_id":"4f950c7f-7cb5-4f30-9590-a8fdce534a4c","system_id":"levelo_inurba_marseille","lat":43.31058,"lon":5.38337,"is_reserved":false,"is_disabled":false,"rental_uris":{"android":"levelo://app?vid=4f950c7f-7cb5-4f30-9590-a8fdce534a4c","ios":"levelo://app?vid=4f950c7f-7cb5-4f30-9590-a8fdce534a4c"},"vehicle_type_id":"4","last_reported":1707250031,"current_range_meters":18000,"station_id":"ce4bgv92rcd13ifvqcr0","pricing_plan_id":"free"},{"bike_id":"edf45dfe-91d7-407a-b7d3-81c40bcf1454","system_id":"levelo_inurba_marseille","lat":43.31071,"lon":5.38347,"is_reserved":false,"is_disabled":false,"rental_uris":{"android":"levelo://app?vid=edf45dfe-91d7-407a-b7d3-81c40bcf1454","ios":"levelo://app?vid=edf45dfe-91d7-407a-b7d3-81c40bcf1454"},"vehicle_type_id":"4","last_reported":1707250031,"current_range_meters":26000,"station_id":"ce4bgv92rcd13ifvqcr0","pricing_plan_id":"free"},{"bike_id":"919e23f4-28e3-46c5-b282-0fa33d736570","system_id":"levelo_inurba_marseille","lat":43.31071,"lon":5.38354,"is_reserved":false,"is_disabled":false,"rental_uris":{"android":"levelo://app?vid=919e23f4-28e3-46c5-b282-0fa33d736570","ios":"levelo://app?vid=919e23f4-28e3-46c5-b282-0fa33d736570"},"vehicle_type_id":"4","last_reported":1707250031,"current_range_meters":30000,"station_id":"ce4bgv92rcd13ifvqcr0","pricing_plan_id":"free"},{"bike_id":"b23a88ee-727a-4ee0-ac64-e7e015e2549f","system_id":"levelo_inurba_marseille","lat":43.3108,"lon":5.38361,"is_reserved":false,"is_disabled":false,"rental_uris":{"android":"levelo://app?vid=b23a88ee-727a-4ee0-ac64-e7e015e2549f","ios":"levelo://app?vid=b23a88ee-727a-4ee0-ac64-e7e015e2549f"},"vehicle_type_id":"4","last_reported":1707250031,"current_range_meters":0,"station_id":"ce4bgv92rcd13ifvqcr0","pricing_plan_id":"free"},{"bike_id":"7c20e289-a25a-40af-994e-4d7947cbd0b5","system_id":"levelo_inurba_marseille","lat":43.31069,"lon":5.38359,"is_reserved":false,"is_disabled":false,"rental_uris":{"android":"levelo://app?vid=7c20e289-a25a-40af-994e-4d7947cbd0b5","ios":"levelo://app?vid=7c20e289-a25a-40af-994e-4d7947cbd0b5"},"vehicle_type_id":"4","last_reported":1707250031,"current_range_meters":2000,"station_id":"ce4bgv92rcd13ifvqcr0","pricing_plan_id":"free"},{"bike_id":"4505dd3b-e70e-4db9-b95e-a6d146ab3434","system_id":"levelo_inurba_marseille","lat":43.319935,"lon":5.381699,"is_reserved":false,"is_disabled":false,"rental_uris":{"android":"levelo://app?vid=4505dd3b-e70e-4db9-b95e-a6d146ab3434","ios":"levelo://app?vid=4505dd3b-e70e-4db9-b95e-a6d146ab3434"},"vehicle_type_id":"4","last_reported":1707250031,"current_range_meters":14400,"station_id":"ce4bhr12rcd13ifvqhpg","pricing_plan_id":"free"},{"bike_id":"12ce1b51-e513-48d4-8826-d38689553faa","system_id":"levelo_inurba_marseille","lat":43.319935,"lon":5.381699,"is_reserved":false,"is_disabled":false,"rental_uris":{"android":"levelo://app?vid=12ce1b51-e513-48d4-8826-d38689553faa","ios":"levelo://app?vid=12ce1b51-e513-48d4-8826-d38689553faa"},"vehicle_type_id":"4","last_reported":1707250031,"current_range_meters":26000,"station_id":"ce4bhr12rcd13ifvqhpg","pricing_plan_id":"free"},{"bike_id":"cd1697dc-c996-412f-9980-2785b058e155","system_id":"levelo_inurba_marseille","lat":43.319935,"lon":5.381699,"is_reserved":false,"is_disabled":false,"rental_uris":{"android":"levelo://app?vid=cd1697dc-c996-412f-9980-2785b058e155","ios":"levelo://app?vid=cd1697dc-c996-412f-9980-2785b058e155"},"vehicle_type_id":"4","last_reported":1707250031,"current_range_meters":17600,"station_id":"ce4bhr12rcd13ifvqhpg","pricing_plan_id":"free"},{"bike_id":"ccf2a241-3d64-4fde-891f-1d3d7e7db1c1","system_id":"levelo_inurba_marseille","lat":43.319935,"lon":5.381699,"is_reserved":false,"is_disabled":false,"rental_uris":{"android":"levelo://app?vid=ccf2a241-3d64-4fde-891f-1d3d7e7db1c1","ios":"levelo://app?vid=ccf2a241-3d64-4fde-891f-1d3d7e7db1c1"},"vehicle_type_id":"4","last_reported":1707250031,"current_range_meters":26400,"station_id":"ce4bhr12rcd13ifvqhpg","pricing_plan_id":"free"},{"bike_id":"0abbaad6-12a6-4f04-8257-739b9ff8f24b","system_id":"levelo_inurba_marseille","lat":43.31996,"lon":5.38161,"is_reserved":false,"is_disabled":false,"rental_uris":{"android":"levelo://app?vid=0abbaad6-12a6-4f04-8257-739b9ff8f24b","ios":"levelo://app?vid=0abbaad6-12a6-4f04-8257-739b9ff8f24b"},"vehicle_type_id":"4","last_reported":1707250031,"current_range_meters":9200,"station_id":"ce4bhr12rcd13ifvqhpg","pricing_plan_id":"free"},{"bike_id":"3b3ba378-a266-417c-9c43-cb829e6481c7","system_id":"levelo_inurba_marseille","lat":43.319935,"lon":5.381699,"is_reserved":false,"is_disabled":false,"rental_uris":{"android":"levelo://app?vid=3b3ba378-a266-417c-9c43-cb829e6481c7","ios":"levelo://app?vid=3b3ba378-a266-417c-9c43-cb829e6481c7"},"vehicle_type_id":"4","last_reported":1707250031,"current_range_meters":5600,"station_id":"ce4bhr12rcd13ifvqhpg","pricing_plan_id":"free"},{"bike_id":"1c25a4cd-9cf0-4c3b-88f3-a47ab8939f20","system_id":"levelo_inurba_marseille","lat":43.31992,"lon":5.38168,"is_reserved":false,"is_disabled":false,"rental_uris":{"android":"levelo://app?vid=1c25a4cd-9cf0-4c3b-88f3-a47ab8939f20","ios":"levelo://app?vid=1c25a4cd-9cf0-4c3b-88f3-a47ab8939f20"},"vehicle_type_id":"4","last_reported":1707250031,"current_range_meters":14800,"station_id":"ce4bhr12rcd13ifvqhpg","pricing_plan_id":"free"},{"bike_id":"6ec3f119-1396-4f2b-bc37-fafe9f44fa4b","system_id":"levelo_inurba_marseille","lat":43.319935,"lon":5.381699,"is_reserved":false,"is_disabled":false,"rental_uris":{"android":"levelo://app?vid=6ec3f119-1396-4f2b-bc37-fafe9f44fa4b","ios":"levelo://app?vid=6ec3f119-1396-4f2b-bc37-fafe9f44fa4b"},"vehicle_type_id":"4","last_reported":1707250031,"current_range_meters":20000,"station_id":"ce4bhr12rcd13ifvqhpg","pricing_plan_id":"free"},{"bike_id":"cd930c75-f2d0-49f4-a962-1ba9d506628f","system_id":"levelo_inurba_marseille","lat":43.319935,"lon":5.381699,"is_reserved":false,"is_disabled":false,"rental_uris":{"android":"levelo://app?vid=cd930c75-f2d0-49f4-a962-1ba9d506628f","ios":"levelo://app?vid=cd930c75-f2d0-49f4-a962-1ba9d506628f"},"vehicle_type_id":"4","last_reported":1707250031,"current_range_meters":17600,"station_id":"ce4bhr12rcd13ifvqhpg","pricing_plan_id":"free"},{"bike_id":"aa2daeb2-6e2c-44e2-a71a-635c5683cc13","system_id":"levelo_inurba_marseille","lat":43.31374,"lon":5.3849,"is_reserved":false,"is_disabled":false,"rental_uris":{"android":"levelo://app?vid=aa2daeb2-6e2c-44e2-a71a-635c5683cc13","ios":"levelo://app?vid=aa2daeb2-6e2c-44e2-a71a-635c5683cc13"},"vehicle_type_id":"4","last_reported":1707250031,"current_range_meters":6400,"station_id":"ce4bgt92rcd13ifvqcf0","pricing_plan_id":"free"},{"bike_id":"8656c34f-ea84-4265-adeb-d0e88a2b6dd8","system_id":"levelo_inurba_marseille","lat":43.313571,"lon":5.384829,"is_reserved":false,"is_disabled":false,"rental_uris":{"android":"levelo://app?vid=8656c34f-ea84-4265-adeb-d0e88a2b6dd8","ios":"levelo://app?vid=8656c34f-ea84-4265-adeb-d0e88a2b6dd8"},"vehicle_type_id":"4","last_reported":1707250031,"current_range_meters":31200,"station_id":"ce4bgt92rcd13ifvqcf0","pricing_plan_id":"free"},{"bike_id":"68a7c25f-4a3f-4c80-9276-07d90f506b80","system_id":"levelo_inurba_marseille","lat":43.31363,"lon":5.38495,"is_reserved":false,"is_disabled":false,"rental_uris":{"android":"levelo://app?vid=68a7c25f-4a3f-4c80-9276-07d90f506b80","ios":"levelo://app?vid=68a7c25f-4a3f-4c80-9276-07d90f506b80"},"vehicle_type_id":"4","last_reported":1707250031,"current_range_meters":24000,"station_id":"ce4bgt92rcd13ifvqcf0","pricing_plan_id":"free"},{"bike_id":"efc61b0c-df87-4e70-8118-edca778d83e8","system_id":"levelo_inurba_marseille","lat":43.313571,"lon":5.384829,"is_reserved":false,"is_disabled":false,"rental_uris":{"android":"levelo://app?vid=efc61b0c-df87-4e70-8118-edca778d83e8","ios":"levelo://app?vid=efc61b0c-df87-4e70-8118-edca778d83e8"},"vehicle_type_id":"4","last_reported":1707250031,"current_range_meters":3600,"station_id":"ce4bgt92rcd13ifvqcf0","pricing_plan_id":"free"},{"bike_id":"a0fdb0de-f985-4692-8e62-3b9211ee337b","system_id":"levelo_inurba_marseille","lat":43.313571,"lon":5.384829,"is_reserved":false,"is_disabled":false,"rental_uris":{"android":"levelo://app?vid=a0fdb0de-f985-4692-8e62-3b9211ee337b","ios":"levelo://app?vid=a0fdb0de-f985-4692-8e62-3b9211ee337b"},"vehicle_type_id":"4","last_reported":1707250031,"current_range_meters":11600,"station_id":"ce4bgt92rcd13ifvqcf0","pricing_plan_id":"free"},{"bike_id":"c296969d-2eb2-46f0-8d1c-d054b0c44ad2","system_id":"levelo_inurba_marseille","lat":43.313571,"lon":5.384829,"is_reserved":false,"is_disabled":false,"rental_uris":{"android":"levelo://app?vid=c296969d-2eb2-46f0-8d1c-d054b0c44ad2","ios":"levelo://app?vid=c296969d-2eb2-46f0-8d1c-d054b0c44ad2"},"vehicle_type_id":"4","last_reported":1707250031,"current_range_meters":11600,"station_id":"ce4bgt92rcd13ifvqcf0","pricing_plan_id":"free"},{"bike_id":"b9f864f0-2541-4f3b-a5ed-440eba22a7dc","system_id":"levelo_inurba_marseille","lat":43.299222,"lon":5.365554,"is_reserved":false,"is_disabled":false,"rental_uris":{"android":"levelo://app?vid=b9f864f0-2541-4f3b-a5ed-440eba22a7dc","ios":"levelo://app?vid=b9f864f0-2541-4f3b-a5ed-440eba22a7dc"},"vehicle_type_id":"4","last_reported":1707250031,"current_range_meters":16000,"station_id":"ce4bgm92rcd13ifvqbr0","pricing_plan_id":"free"},{"bike_id":"1c3fc882-9145-4327-a681-b92f7c915c83","system_id":"levelo_inurba_marseille","lat":43.299222,"lon":5.365554,"is_reserved":false,"is_disabled":false,"rental_uris":{"android":"levelo://app?vid=1c3fc882-9145-4327-a681-b92f7c915c83","ios":"levelo://app?vid=1c3fc882-9145-4327-a681-b92f7c915c83"},"vehicle_type_id":"4","last_reported":1707250031,"current_range_meters":15200,"station_id":"ce4bgm92rcd13ifvqbr0","pricing_plan_id":"free"},{"bike_id":"8494b8d9-df90-488c-8a15-6eb73b95cc93","system_id":"levelo_inurba_marseille","lat":43.299724,"lon":5.371829,"is_reserved":false,"is_disabled":false,"rental_uris":{"android":"levelo://app?vid=8494b8d9-df90-488c-8a15-6eb73b95cc93","ios":"levelo://app?vid=8494b8d9-df90-488c-8a15-6eb73b95cc93"},"vehicle_type_id":"4","last_reported":1707250031,"current_range_meters":17200,"station_id":"ce4bgr92rcd13ifvqc7g","pricing_plan_id":"free"},{"bike_id":"143a28ac-7420-48f6-8909-0bda20952809","system_id":"levelo_inurba_marseille","lat":43.299222,"lon":5.365554,"is_reserved":false,"is_disabled":false,"rental_uris":{"android":"levelo://app?vid=143a28ac-7420-48f6-8909-0bda20952809","ios":"levelo://app?vid=143a28ac-7420-48f6-8909-0bda20952809"},"vehicle_type_id":"4","last_reported":1707250031,"current_range_meters":22000,"station_id":"ce4bgm92rcd13ifvqbr0","pricing_plan_id":"free"},{"bike_id":"54f2113c-6b6b-462c-96a0-9ac59b53cd92","system_id":"levelo_inurba_marseille","lat":43.299222,"lon":5.365554,"is_reserved":false,"is_disabled":false,"rental_uris":{"android":"levelo://app?vid=54f2113c-6b6b-462c-96a0-9ac59b53cd92","ios":"levelo://app?vid=54f2113c-6b6b-462c-96a0-9ac59b53cd92"},"vehicle_type_id":"4","last_reported":1707250031,"current_range_meters":6000,"station_id":"ce4bgm92rcd13ifvqbr0","pricing_plan_id":"free"},{"bike_id":"ad8f5a15-7482-410e-b52a-41b561a7e6d4","system_id":"levelo_inurba_marseille","lat":43.299724,"lon":5.371829,"is_reserved":false,"is_disabled":false,"rental_uris":{"android":"levelo://app?vid=ad8f5a15-7482-410e-b52a-41b561a7e6d4","ios":"levelo://app?vid=ad8f5a15-7482-410e-b52a-41b561a7e6d4"},"vehicle_type_id":"4","last_reported":1707250031,"current_range_meters":3200,"station_id":"ce4bgr92rcd13ifvqc7g","pricing_plan_id":"free"},{"bike_id":"d73908e2-2bfd-489b-804e-d4e95fac72d2","system_id":"levelo_inurba_marseille","lat":43.326525,"lon":5.36078,"is_reserved":false,"is_disabled":false,"rental_uris":{"android":"levelo://app?vid=d73908e2-2bfd-489b-804e-d4e95fac72d2","ios":"levelo://app?vid=d73908e2-2bfd-489b-804e-d4e95fac72d2"},"vehicle_type_id":"4","last_reported":1707250031,"current_range_meters":13200,"station_id":"","pricing_plan_id":"free"},{"bike_id":"2b394655-3659-4933-b74a-2fd23773e391","system_id":"levelo_inurba_marseille","lat":43.298433,"lon":5.362774,"is_reserved":false,"is_disabled":false,"rental_uris":{"android":"levelo://app?vid=2b394655-3659-4933-b74a-2fd23773e391","ios":"levelo://app?vid=2b394655-3659-4933-b74a-2fd23773e391"},"vehicle_type_id":"4","last_reported":1707250031,"current_range_meters":26000,"station_id":"ce4bgpp2rcd13ifvqc3g","pricing_plan_id":"free"},{"bike_id":"05619866-6be1-44c4-a857-46015812a2b0","system_id":"levelo_inurba_marseille","lat":43.299243,"lon":5.37481,"is_reserved":false,"is_disabled":false,"rental_uris":{"android":"levelo://app?vid=05619866-6be1-44c4-a857-46015812a2b0","ios":"levelo://app?vid=05619866-6be1-44c4-a857-46015812a2b0"},"vehicle_type_id":"4","last_reported":1707250031,"current_range_meters":7600,"station_id":"ce4bgjh2rcd13ifvqbg0","pricing_plan_id":"free"},{"bike_id":"821c419a-c2e6-42b8-9c75-829332e7bae9","system_id":"levelo_inurba_marseille","lat":43.3118,"lon":5.38715,"is_reserved":false,"is_disabled":false,"rental_uris":{"android":"levelo://app?vid=821c419a-c2e6-42b8-9c75-829332e7bae9","ios":"levelo://app?vid=821c419a-c2e6-42b8-9c75-829332e7bae9"},"vehicle_type_id":"4","last_reported":1707250031,"current_range_meters":4800,"station_id":"ce4bgv12rcd13ifvqcp0","pricing_plan_id":"free"},{"bike_id":"a6be166a-e1f3-4327-ace1-0262da7aa811","system_id":"levelo_inurba_marseille","lat":43.311722,"lon":5.387247,"is_reserved":false,"is_disabled":false,"rental_uris":{"android":"levelo://app?vid=a6be166a-e1f3-4327-ace1-0262da7aa811","ios":"levelo://app?vid=a6be166a-e1f3-4327-ace1-0262da7aa811"},"vehicle_type_id":"4","last_reported":1707250031,"current_range_meters":25200,"station_id":"ce4bgv12rcd13ifvqcp0","pricing_plan_id":"free"},{"bike_id":"0a7a6941-c18a-4bb9-a7fc-dd9c9e77b2c4","system_id":"levelo_inurba_marseille","lat":43.311722,"lon":5.387247,"is_reserved":false,"is_disabled":false,"rental_uris":{"android":"levelo://app?vid=0a7a6941-c18a-4bb9-a7fc-dd9c9e77b2c4","ios":"levelo://app?vid=0a7a6941-c18a-4bb9-a7fc-dd9c9e77b2c4"},"vehicle_type_id":"4","last_reported":1707250031,"current_range_meters":0,"station_id":"ce4bgv12rcd13ifvqcp0","pricing_plan_id":"free"},{"bike_id":"251db69b-0529-447c-ab49-508126bf452a","system_id":"levelo_inurba_marseille","lat":43.311722,"lon":5.387247,"is_reserved":false,"is_disabled":false,"rental_uris":{"android":"levelo://app?vid=251db69b-0529-447c-ab49-508126bf452a","ios":"levelo://app?vid=251db69b-0529-447c-ab49-508126bf452a"},"vehicle_type_id":"4","last_reported":1707250031,"current_range_meters":4000,"station_id":"ce4bgv12rcd13ifvqcp0","pricing_plan_id":"free"},{"bike_id":"fed8efb5-97ef-4a14-a565-8ab25f086fd3","system_id":"levelo_inurba_marseille","lat":43.311722,"lon":5.387247,"is_reserved":false,"is_disabled":false,"rental_uris":{"android":"levelo://app?vid=fed8efb5-97ef-4a14-a565-8ab25f086fd3","ios":"levelo://app?vid=fed8efb5-97ef-4a14-a565-8ab25f086fd3"},"vehicle_type_id":"4","last_reported":1707250031,"current_range_meters":20000,"station_id":"ce4bgv12rcd13ifvqcp0","pricing_plan_id":"free"},{"bike_id":"068825c3-0e30-4039-9991-0f25d2c61d15","system_id":"levelo_inurba_marseille","lat":43.327902,"lon":5.366962,"is_reserved":false,"is_disabled":false,"rental_uris":{"android":"levelo://app?vid=068825c3-0e30-4039-9991-0f25d2c61d15","ios":"levelo://app?vid=068825c3-0e30-4039-9991-0f25d2c61d15"},"vehicle_type_id":"4","last_reported":1707250031,"current_range_meters":15200,"station_id":"","pricing_plan_id":"free"},{"bike_id":"a3c9ba12-0347-4081-a172-994c950dbe33","system_id":"levelo_inurba_marseille","lat":43.297794,"lon":5.370888,"is_reserved":false,"is_disabled":false,"rental_uris":{"android":"levelo://app?vid=a3c9ba12-0347-4081-a172-994c950dbe33","ios":"levelo://app?vid=a3c9ba12-0347-4081-a172-994c950dbe33"},"vehicle_type_id":"4","last_reported":1707250031,"current_range_meters":20000,"station_id":"ce4bgop2rcd13ifvqc1g","pricing_plan_id":"free"},{"bike_id":"2abedac9-23cb-4b76-a99c-511005127599","system_id":"levelo_inurba_marseille","lat":43.297794,"lon":5.370888,"is_reserved":false,"is_disabled":false,"rental_uris":{"android":"levelo://app?vid=2abedac9-23cb-4b76-a99c-511005127599","ios":"levelo://app?vid=2abedac9-23cb-4b76-a99c-511005127599"},"vehicle_type_id":"4","last_reported":1707250031,"current_range_meters":6000,"station_id":"ce4bgop2rcd13ifvqc1g","pricing_plan_id":"free"},{"bike_id":"74d87c3d-ff59-49c4-93e9-54599436cf72","system_id":"levelo_inurba_marseille","lat":43.297774,"lon":5.370875,"is_reserved":false,"is_disabled":false,"rental_uris":{"android":"levelo://app?vid=74d87c3d-ff59-49c4-93e9-54599436cf72","ios":"levelo://app?vid=74d87c3d-ff59-49c4-93e9-54599436cf72"},"vehicle_type_id":"4","last_reported":1707250031,"current_range_meters":20800,"station_id":"ce4bgop2rcd13ifvqc1g","pricing_plan_id":"free"},{"bike_id":"13f466c2-8d88-43ed-9d1c-f13f6732312c","system_id":"levelo_inurba_marseille","lat":43.297774,"lon":5.370875,"is_reserved":false,"is_disabled":false,"rental_uris":{"android":"levelo://app?vid=13f466c2-8d88-43ed-9d1c-f13f6732312c","ios":"levelo://app?vid=13f466c2-8d88-43ed-9d1c-f13f6732312c"},"vehicle_type_id":"4","last_reported":1707250031,"current_range_meters":13600,"station_id":"ce4bgop2rcd13ifvqc1g","pricing_plan_id":"free"},{"bike_id":"f05ba268-8024-4397-b67e-d5d6848bf3c7","system_id":"levelo_inurba_marseille","lat":43.322872,"lon":5.382756,"is_reserved":false,"is_disabled":false,"rental_uris":{"android":"levelo://app?vid=f05ba268-8024-4397-b67e-d5d6848bf3c7","ios":"levelo://app?vid=f05ba268-8024-4397-b67e-d5d6848bf3c7"},"vehicle_type_id":"4","last_reported":1707250031,"current_range_meters":24400,"station_id":"ce4bhr12rcd13ifvqhqg","pricing_plan_id":"free"},{"bike_id":"aeda78ec-de39-407e-8a5b-89262fd5c123","system_id":"levelo_inurba_marseille","lat":43.322872,"lon":5.382756,"is_reserved":false,"is_disabled":false,"rental_uris":{"android":"levelo://app?vid=aeda78ec-de39-407e-8a5b-89262fd5c123","ios":"levelo://app?vid=aeda78ec-de39-407e-8a5b-89262fd5c123"},"vehicle_type_id":"4","last_reported":1707250031,"current_range_meters":30000,"station_id":"ce4bhr12rcd13ifvqhqg","pricing_plan_id":"free"},{"bike_id":"2e7d1277-a3ec-4c37-831b-c0b641935959","system_id":"levelo_inurba_marseille","lat":43.32817,"lon":5.36694,"is_reserved":false,"is_disabled":false,"rental_uris":{"android":"levelo://app?vid=2e7d1277-a3ec-4c37-831b-c0b641935959","ios":"levelo://app?vid=2e7d1277-a3ec-4c37-831b-c0b641935959"},"vehicle_type_id":"4","last_reported":1707250031,"current_range_meters":11200,"station_id":"ce4bhs92rcd13ifvqi0g","pricing_plan_id":"free"},{"bike_id":"1900e2ea-9239-49b1-933e-57903fa99707","system_id":"levelo_inurba_marseille","lat":43.32826,"lon":5.36695,"is_reserved":false,"is_disabled":false,"rental_uris":{"android":"levelo://app?vid=1900e2ea-9239-49b1-933e-57903fa99707","ios":"levelo://app?vid=1900e2ea-9239-49b1-933e-57903fa99707"},"vehicle_type_id":"4","last_reported":1707250031,"current_range_meters":2000,"station_id":"ce4bhs92rcd13ifvqi0g","pricing_plan_id":"free"},{"bike_id":"6a5b4a9f-7323-472e-b759-8dae709cba6c","system_id":"levelo_inurba_marseille","lat":43.32826,"lon":5.36685,"is_reserved":false,"is_disabled":false,"rental_uris":{"android":"levelo://app?vid=6a5b4a9f-7323-472e-b759-8dae709cba6c","ios":"levelo://app?vid=6a5b4a9f-7323-472e-b759-8dae709cba6c"},"vehicle_type_id":"4","last_reported":1707250031,"current_range_meters":14000,"station_id":"ce4bhs92rcd13ifvqi0g","pricing_plan_id":"free"},{"bike_id":"6cd6b889-8d57-4573-b2a2-aa0a2c9636a8","system_id":"levelo_inurba_marseille","lat":43.32827,"lon":5.36672,"is_reserved":false,"is_disabled":false,"rental_uris":{"android":"levelo://app?vid=6cd6b889-8d57-4573-b2a2-aa0a2c9636a8","ios":"levelo://app?vid=6cd6b889-8d57-4573-b2a2-aa0a2c9636a8"},"vehicle_type_id":"4","last_reported":1707250031,"current_range_meters":400,"station_id":"ce4bhs92rcd13ifvqi0g","pricing_plan_id":"free"},{"bike_id":"e9931e11-7f7d-405e-b611-f5c0a6974b86","system_id":"levelo_inurba_marseille","lat":43.32829,"lon":5.3669,"is_reserved":false,"is_disabled":false,"rental_uris":{"android":"levelo://app?vid=e9931e11-7f7d-405e-b611-f5c0a6974b86","ios":"levelo://app?vid=e9931e11-7f7d-405e-b611-f5c0a6974b86"},"vehicle_type_id":"4","last_reported":1707250031,"current_range_meters":12000,"station_id":"ce4bhs92rcd13ifvqi0g","pricing_plan_id":"free"},{"bike_id":"46ffd311-8d24-4a9c-a424-d0bccfd813b8","system_id":"levelo_inurba_marseille","lat":43.328303,"lon":5.366836,"is_reserved":false,"is_disabled":false,"rental_uris":{"android":"levelo://app?vid=46ffd311-8d24-4a9c-a424-d0bccfd813b8","ios":"levelo://app?vid=46ffd311-8d24-4a9c-a424-d0bccfd813b8"},"vehicle_type_id":"4","last_reported":1707250031,"current_range_meters":4400,"station_id":"ce4bhs92rcd13ifvqi0g","pricing_plan_id":"free"},{"bike_id":"a7f79efb-1544-4a9c-90b1-63c97e52bce2","system_id":"levelo_inurba_marseille","lat":43.328309,"lon":5.366799,"is_reserved":false,"is_disabled":false,"rental_uris":{"android":"levelo://app?vid=a7f79efb-1544-4a9c-90b1-63c97e52bce2","ios":"levelo://app?vid=a7f79efb-1544-4a9c-90b1-63c97e52bce2"},"vehicle_type_id":"4","last_reported":1707250031,"current_range_meters":10400,"station_id":"ce4bhs92rcd13ifvqi0g","pricing_plan_id":"free"},{"bike_id":"edc20a40-193c-4187-8cea-08e6765f7c9c","system_id":"levelo_inurba_marseille","lat":43.32831,"lon":5.36679,"is_reserved":false,"is_disabled":false,"rental_uris":{"android":"levelo://app?vid=edc20a40-193c-4187-8cea-08e6765f7c9c","ios":"levelo://app?vid=edc20a40-193c-4187-8cea-08e6765f7c9c"},"vehicle_type_id":"4","last_reported":1707250031,"current_range_meters":15200,"station_id":"ce4bhs92rcd13ifvqi0g","pricing_plan_id":"free"},{"bike_id":"655782ea-adc5-4c9e-a8c7-608dca9d4db8","system_id":"levelo_inurba_marseille","lat":43.328371,"lon":5.366912,"is_reserved":false,"is_disabled":false,"rental_uris":{"android":"levelo://app?vid=655782ea-adc5-4c9e-a8c7-608dca9d4db8","ios":"levelo://app?vid=655782ea-adc5-4c9e-a8c7-608dca9d4db8"},"vehicle_type_id":"4","last_reported":1707250031,"current_range_meters":21200,"station_id":"ce4bhs92rcd13ifvqi0g","pricing_plan_id":"free"},{"bike_id":"36243836-0b62-45d5-b00e-078a5c9e3add","system_id":"levelo_inurba_marseille","lat":43.32835,"lon":5.36682,"is_reserved":false,"is_disabled":false,"rental_uris":{"android":"levelo://app?vid=36243836-0b62-45d5-b00e-078a5c9e3add","ios":"levelo://app?vid=36243836-0b62-45d5-b00e-078a5c9e3add"},"vehicle_type_id":"4","last_reported":1707250031,"current_range_meters":5200,"station_id":"ce4bhs92rcd13ifvqi0g","pricing_plan_id":"free"},{"bike_id":"b3e553d9-9c32-4ac1-928b-b331b0af44f3","system_id":"levelo_inurba_marseille","lat":43.297163,"lon":5.365866,"is_reserved":false,"is_disabled":false,"rental_uris":{"android":"levelo://app?vid=b3e553d9-9c32-4ac1-928b-b331b0af44f3","ios":"levelo://app?vid=b3e553d9-9c32-4ac1-928b-b331b0af44f3"},"vehicle_type_id":"4","last_reported":1707250031,"current_range_meters":13600,"station_id":"ce4bgn12rcd13ifvqbt0","pricing_plan_id":"free"},{"bike_id":"ffb102e3-566e-4e3a-8e06-359dee6e0e0d","system_id":"levelo_inurba_marseille","lat":43.297163,"lon":5.365866,"is_reserved":false,"is_disabled":false,"rental_uris":{"android":"levelo://app?vid=ffb102e3-566e-4e3a-8e06-359dee6e0e0d","ios":"levelo://app?vid=ffb102e3-566e-4e3a-8e06-359dee6e0e0d"},"vehicle_type_id":"4","last_reported":1707250031,"current_range_meters":5200,"station_id":"ce4bgn12rcd13ifvqbt0","pricing_plan_id":"free"},{"bike_id":"5138afef-3cf7-4163-b09a-abc060063963","system_id":"levelo_inurba_marseille","lat":43.297163,"lon":5.365866,"is_reserved":false,"is_disabled":false,"rental_uris":{"android":"levelo://app?vid=5138afef-3cf7-4163-b09a-abc060063963","ios":"levelo://app?vid=5138afef-3cf7-4163-b09a-abc060063963"},"vehicle_type_id":"4","last_reported":1707250031,"current_range_meters":21200,"station_id":"ce4bgn12rcd13ifvqbt0","pricing_plan_id":"free"},{"bike_id":"09c4a6e4-128a-4c18-887a-5545204c4a60","system_id":"levelo_inurba_marseille","lat":43.296896,"lon":5.372974,"is_reserved":false,"is_disabled":false,"rental_uris":{"android":"levelo://app?vid=09c4a6e4-128a-4c18-887a-5545204c4a60","ios":"levelo://app?vid=09c4a6e4-128a-4c18-887a-5545204c4a60"},"vehicle_type_id":"4","last_reported":1707250031,"current_range_meters":0,"station_id":"ce4bgk12rcd13ifvqbj0","pricing_plan_id":"free"},{"bike_id":"4a61e6b8-e1ca-4228-af24-a83465e3dcd2","system_id":"levelo_inurba_marseille","lat":43.2968,"lon":5.37291,"is_reserved":false,"is_disabled":false,"rental_uris":{"android":"levelo://app?vid=4a61e6b8-e1ca-4228-af24-a83465e3dcd2","ios":"levelo://app?vid=4a61e6b8-e1ca-4228-af24-a83465e3dcd2"},"vehicle_type_id":"4","last_reported":1707250031,"current_range_meters":3200,"station_id":"ce4bgk12rcd13ifvqbj0","pricing_plan_id":"free"},{"bike_id":"0624481a-d16f-4c5a-b411-fba171942298","system_id":"levelo_inurba_marseille","lat":43.2968,"lon":5.37291,"is_reserved":false,"is_disabled":false,"rental_uris":{"android":"levelo://app?vid=0624481a-d16f-4c5a-b411-fba171942298","ios":"levelo://app?vid=0624481a-d16f-4c5a-b411-fba171942298"},"vehicle_type_id":"4","last_reported":1707250031,"current_range_meters":13600,"station_id":"ce4bgk12rcd13ifvqbj0","pricing_plan_id":"free"},{"bike_id":"c5a72c80-6f6e-4de7-81ba-7476e3dc3a96","system_id":"levelo_inurba_marseille","lat":43.2968,"lon":5.37291,"is_reserved":false,"is_disabled":false,"rental_uris":{"android":"levelo://app?vid=c5a72c80-6f6e-4de7-81ba-7476e3dc3a96","ios":"levelo://app?vid=c5a72c80-6f6e-4de7-81ba-7476e3dc3a96"},"vehicle_type_id":"4","last_reported":1707250031,"current_range_meters":12000,"station_id":"ce4bgk12rcd13ifvqbj0","pricing_plan_id":"free"},{"bike_id":"4fce755f-fbf8-4b65-bac2-7c715a42b871","system_id":"levelo_inurba_marseille","lat":43.29573,"lon":5.367355,"is_reserved":false,"is_disabled":false,"rental_uris":{"android":"levelo://app?vid=4fce755f-fbf8-4b65-bac2-7c715a42b871","ios":"levelo://app?vid=4fce755f-fbf8-4b65-bac2-7c715a42b871"},"vehicle_type_id":"4","last_reported":1707250031,"current_range_meters":16800,"station_id":"ce4bgph2rcd13ifvqc2g","pricing_plan_id":"free"},{"bike_id":"e2586598-a0c4-4ee3-b966-31497b432dd6","system_id":"levelo_inurba_marseille","lat":43.29573,"lon":5.367355,"is_reserved":false,"is_disabled":false,"rental_uris":{"android":"levelo://app?vid=e2586598-a0c4-4ee3-b966-31497b432dd6","ios":"levelo://app?vid=e2586598-a0c4-4ee3-b966-31497b432dd6"},"vehicle_type_id":"4","last_reported":1707250031,"current_range_meters":6400,"station_id":"ce4bgph2rcd13ifvqc2g","pricing_plan_id":"free"},{"bike_id":"52c8ce6a-05c1-471f-a2f2-a04d6086ea87","system_id":"levelo_inurba_marseille","lat":43.29872,"lon":5.380465,"is_reserved":false,"is_disabled":false,"rental_uris":{"android":"levelo://app?vid=52c8ce6a-05c1-471f-a2f2-a04d6086ea87","ios":"levelo://app?vid=52c8ce6a-05c1-471f-a2f2-a04d6086ea87"},"vehicle_type_id":"4","last_reported":1707250031,"current_range_meters":7600,"station_id":"ce4bgh92rcd13ifvqb40","pricing_plan_id":"free"},{"bike_id":"bbac393a-041e-4166-9786-1f2a65248fde","system_id":"levelo_inurba_marseille","lat":43.30959,"lon":5.39045,"is_reserved":false,"is_disabled":false,"rental_uris":{"android":"levelo://app?vid=bbac393a-041e-4166-9786-1f2a65248fde","ios":"levelo://app?vid=bbac393a-041e-4166-9786-1f2a65248fde"},"vehicle_type_id":"4","last_reported":1707250031,"current_range_meters":0,"station_id":"ce4bgup2rcd13ifvqco0","pricing_plan_id":"free"},{"bike_id":"b393e380-9b9a-4239-8934-e30e3f7bac4e","system_id":"levelo_inurba_marseille","lat":43.31737,"lon":5.390105,"is_reserved":false,"is_disabled":false,"rental_uris":{"android":"levelo://app?vid=b393e380-9b9a-4239-8934-e30e3f7bac4e","ios":"levelo://app?vid=b393e380-9b9a-4239-8934-e30e3f7bac4e"},"vehicle_type_id":"4","last_reported":1707250031,"current_range_meters":15200,"station_id":"ce4bhqp2rcd13ifvqhng","pricing_plan_id":"free"},{"bike_id":"acfb1a76-9d92-4e60-b5a5-bb928051e624","system_id":"levelo_inurba_marseille","lat":43.317557,"lon":5.390173,"is_reserved":false,"is_disabled":false,"rental_uris":{"android":"levelo://app?vid=acfb1a76-9d92-4e60-b5a5-bb928051e624","ios":"levelo://app?vid=acfb1a76-9d92-4e60-b5a5-bb928051e624"},"vehicle_type_id":"4","last_reported":1707250031,"current_range_meters":29600,"station_id":"ce4bhqp2rcd13ifvqhng","pricing_plan_id":"free"},{"bike_id":"8236458b-34ca-49b5-ab60-c4f12ac61945","system_id":"levelo_inurba_marseille","lat":43.317551,"lon":5.390151,"is_reserved":false,"is_disabled":false,"rental_uris":{"android":"levelo://app?vid=8236458b-34ca-49b5-ab60-c4f12ac61945","ios":"levelo://app?vid=8236458b-34ca-49b5-ab60-c4f12ac61945"},"vehicle_type_id":"4","last_reported":1707250031,"current_range_meters":16000,"station_id":"ce4bhqp2rcd13ifvqhng","pricing_plan_id":"free"},{"bike_id":"3ccd3931-8811-4b7f-a846-c32a0a6915a2","system_id":"levelo_inurba_marseille","lat":43.317557,"lon":5.390173,"is_reserved":false,"is_disabled":false,"rental_uris":{"android":"levelo://app?vid=3ccd3931-8811-4b7f-a846-c32a0a6915a2","ios":"levelo://app?vid=3ccd3931-8811-4b7f-a846-c32a0a6915a2"},"vehicle_type_id":"4","last_reported":1707250031,"current_range_meters":26000,"station_id":"ce4bhqp2rcd13ifvqhng","pricing_plan_id":"free"},{"bike_id":"cd483cf2-ddf7-4bc2-8846-13c380942b93","system_id":"levelo_inurba_marseille","lat":43.31758,"lon":5.39016,"is_reserved":false,"is_disabled":false,"rental_uris":{"android":"levelo://app?vid=cd483cf2-ddf7-4bc2-8846-13c380942b93","ios":"levelo://app?vid=cd483cf2-ddf7-4bc2-8846-13c380942b93"},"vehicle_type_id":"4","last_reported":1707250031,"current_range_meters":20800,"station_id":"ce4bhqp2rcd13ifvqhng","pricing_plan_id":"free"},{"bike_id":"3c453d5b-83dd-4499-9d12-a38d59d5c115","system_id":"levelo_inurba_marseille","lat":43.31757,"lon":5.390181,"is_reserved":false,"is_disabled":false,"rental_uris":{"android":"levelo://app?vid=3c453d5b-83dd-4499-9d12-a38d59d5c115","ios":"levelo://app?vid=3c453d5b-83dd-4499-9d12-a38d59d5c115"},"vehicle_type_id":"4","last_reported":1707250031,"current_range_meters":21200,"station_id":"ce4bhqp2rcd13ifvqhng","pricing_plan_id":"free"},{"bike_id":"f9e71f25-83c3-4ad2-95f8-b63267492ced","system_id":"levelo_inurba_marseille","lat":43.317557,"lon":5.390173,"is_reserved":false,"is_disabled":false,"rental_uris":{"android":"levelo://app?vid=f9e71f25-83c3-4ad2-95f8-b63267492ced","ios":"levelo://app?vid=f9e71f25-83c3-4ad2-95f8-b63267492ced"},"vehicle_type_id":"4","last_reported":1707250031,"current_range_meters":16800,"station_id":"ce4bhqp2rcd13ifvqhng","pricing_plan_id":"free"},{"bike_id":"cff55c77-7ebe-4284-bc48-2fbd9d0bf89e","system_id":"levelo_inurba_marseille","lat":43.31757,"lon":5.3902,"is_reserved":false,"is_disabled":false,"rental_uris":{"android":"levelo://app?vid=cff55c77-7ebe-4284-bc48-2fbd9d0bf89e","ios":"levelo://app?vid=cff55c77-7ebe-4284-bc48-2fbd9d0bf89e"},"vehicle_type_id":"4","last_reported":1707250031,"current_range_meters":18000,"station_id":"ce4bhqp2rcd13ifvqhng","pricing_plan_id":"free"},{"bike_id":"9268b101-79ac-4bcb-b66b-b3aa5eb7916b","system_id":"levelo_inurba_marseille","lat":43.31753,"lon":5.39025,"is_reserved":false,"is_disabled":false,"rental_uris":{"android":"levelo://app?vid=9268b101-79ac-4bcb-b66b-b3aa5eb7916b","ios":"levelo://app?vid=9268b101-79ac-4bcb-b66b-b3aa5eb7916b"},"vehicle_type_id":"4","last_reported":1707250031,"current_range_meters":17600,"station_id":"ce4bhqp2rcd13ifvqhng","pricing_plan_id":"free"},{"bike_id":"353a8076-fe4e-4941-bf3d-10e08d5bd46a","system_id":"levelo_inurba_marseille","lat":43.31754,"lon":5.39029,"is_reserved":false,"is_disabled":false,"rental_uris":{"android":"levelo://app?vid=353a8076-fe4e-4941-bf3d-10e08d5bd46a","ios":"levelo://app?vid=353a8076-fe4e-4941-bf3d-10e08d5bd46a"},"vehicle_type_id":"4","last_reported":1707250031,"current_range_meters":3200,"station_id":"ce4bhqp2rcd13ifvqhng","pricing_plan_id":"free"},{"bike_id":"211f186d-35fc-4407-a75f-a4e75d95c601","system_id":"levelo_inurba_marseille","lat":43.31757,"lon":5.39033,"is_reserved":false,"is_disabled":false,"rental_uris":{"android":"levelo://app?vid=211f186d-35fc-4407-a75f-a4e75d95c601","ios":"levelo://app?vid=211f186d-35fc-4407-a75f-a4e75d95c601"},"vehicle_type_id":"4","last_reported":1707250031,"current_range_meters":2000,"station_id":"ce4bhqp2rcd13ifvqhng","pricing_plan_id":"free"},{"bike_id":"7aef56eb-d693-4292-baae-a62fd37a6730","system_id":"levelo_inurba_marseille","lat":43.295802,"lon":5.375022,"is_reserved":false,"is_disabled":false,"rental_uris":{"android":"levelo://app?vid=7aef56eb-d693-4292-baae-a62fd37a6730","ios":"levelo://app?vid=7aef56eb-d693-4292-baae-a62fd37a6730"},"vehicle_type_id":"4","last_reported":1707250031,"current_range_meters":0,"station_id":"ce4bgh92rcd13ifvqb50","pricing_plan_id":"free"},{"bike_id":"9efa0dd4-d057-40ac-ac2d-68b20024c31c","system_id":"levelo_inurba_marseille","lat":43.29798,"lon":5.381004,"is_reserved":false,"is_disabled":false,"rental_uris":{"android":"levelo://app?vid=9efa0dd4-d057-40ac-ac2d-68b20024c31c","ios":"levelo://app?vid=9efa0dd4-d057-40ac-ac2d-68b20024c31c"},"vehicle_type_id":"4","last_reported":1707250031,"current_range_meters":0,"station_id":"ce4bgip2rcd13ifvqbb0","pricing_plan_id":"free"},{"bike_id":"a06cdc39-6e1d-45a9-9686-ce34a6a12677","system_id":"levelo_inurba_marseille","lat":43.295773,"lon":5.37522,"is_reserved":false,"is_disabled":false,"rental_uris":{"android":"levelo://app?vid=a06cdc39-6e1d-45a9-9686-ce34a6a12677","ios":"levelo://app?vid=a06cdc39-6e1d-45a9-9686-ce34a6a12677"},"vehicle_type_id":"4","last_reported":1707250031,"current_range_meters":0,"station_id":"ce4bgh92rcd13ifvqb50","pricing_plan_id":"free"},{"bike_id":"3c71bab9-fcae-48a6-9287-3b671ffb12c5","system_id":"levelo_inurba_marseille","lat":43.29793,"lon":5.38101,"is_reserved":false,"is_disabled":false,"rental_uris":{"android":"levelo://app?vid=3c71bab9-fcae-48a6-9287-3b671ffb12c5","ios":"levelo://app?vid=3c71bab9-fcae-48a6-9287-3b671ffb12c5"},"vehicle_type_id":"4","last_reported":1707250031,"current_range_meters":0,"station_id":"ce4bgip2rcd13ifvqbb0","pricing_plan_id":"free"},{"bike_id":"3b07cbfa-5c14-4621-b388-c4706716d335","system_id":"levelo_inurba_marseille","lat":43.297448,"lon":5.380998,"is_reserved":false,"is_disabled":false,"rental_uris":{"android":"levelo://app?vid=3b07cbfa-5c14-4621-b388-c4706716d335","ios":"levelo://app?vid=3b07cbfa-5c14-4621-b388-c4706716d335"},"vehicle_type_id":"4","last_reported":1707250031,"current_range_meters":1600,"station_id":"ce4bgip2rcd13ifvqbb0","pricing_plan_id":"free"},{"bike_id":"f74fe65b-77af-4d9a-ad57-4a252e2b4c9b","system_id":"levelo_inurba_marseille","lat":43.299707,"lon":5.384859,"is_reserved":false,"is_disabled":false,"rental_uris":{"android":"levelo://app?vid=f74fe65b-77af-4d9a-ad57-4a252e2b4c9b","ios":"levelo://app?vid=f74fe65b-77af-4d9a-ad57-4a252e2b4c9b"},"vehicle_type_id":"4","last_reported":1707250031,"current_range_meters":12000,"station_id":"ce4bgj92rcd13ifvqbd0","pricing_plan_id":"free"},{"bike_id":"1fa86947-ff8a-40c3-b80c-29cad3680748","system_id":"levelo_inurba_marseille","lat":43.29524,"lon":5.375068,"is_reserved":false,"is_disabled":false,"rental_uris":{"android":"levelo://app?vid=1fa86947-ff8a-40c3-b80c-29cad3680748","ios":"levelo://app?vid=1fa86947-ff8a-40c3-b80c-29cad3680748"},"vehicle_type_id":"4","last_reported":1707250031,"current_range_meters":0,"station_id":"ce4bgkp2rcd13ifvqbmg","pricing_plan_id":"free"},{"bike_id":"caceeb38-ee62-4bb2-b0ad-47dc483681c1","system_id":"levelo_inurba_marseille","lat":43.299717,"lon":5.384845,"is_reserved":false,"is_disabled":false,"rental_uris":{"android":"levelo://app?vid=caceeb38-ee62-4bb2-b0ad-47dc483681c1","ios":"levelo://app?vid=caceeb38-ee62-4bb2-b0ad-47dc483681c1"},"vehicle_type_id":"4","last_reported":1707250031,"current_range_meters":8000,"station_id":"ce4bgj92rcd13ifvqbd0","pricing_plan_id":"free"},{"bike_id":"497f9056-86fb-4ec5-b8f3-820b8acc9410","system_id":"levelo_inurba_marseille","lat":43.299724,"lon":5.384848,"is_reserved":false,"is_disabled":false,"rental_uris":{"android":"levelo://app?vid=497f9056-86fb-4ec5-b8f3-820b8acc9410","ios":"levelo://app?vid=497f9056-86fb-4ec5-b8f3-820b8acc9410"},"vehicle_type_id":"4","last_reported":1707250031,"current_range_meters":12400,"station_id":"ce4bgj92rcd13ifvqbd0","pricing_plan_id":"free"},{"bike_id":"ed5d3f68-f6ae-4628-a68b-31e6c4c8b97c","system_id":"levelo_inurba_marseille","lat":43.32358,"lon":5.38878,"is_reserved":false,"is_disabled":false,"rental_uris":{"android":"levelo://app?vid=ed5d3f68-f6ae-4628-a68b-31e6c4c8b97c","ios":"levelo://app?vid=ed5d3f68-f6ae-4628-a68b-31e6c4c8b97c"},"vehicle_type_id":"4","last_reported":1707250031,"current_range_meters":800,"station_id":"ce4bhqp2rcd13ifvqhog","pricing_plan_id":"free"},{"bike_id":"606777c4-4d1f-4822-a9c7-ca190e9d7ac9","system_id":"levelo_inurba_marseille","lat":43.32364,"lon":5.3888,"is_reserved":false,"is_disabled":false,"rental_uris":{"android":"levelo://app?vid=606777c4-4d1f-4822-a9c7-ca190e9d7ac9","ios":"levelo://app?vid=606777c4-4d1f-4822-a9c7-ca190e9d7ac9"},"vehicle_type_id":"4","last_reported":1707250031,"current_range_meters":3600,"station_id":"ce4bhqp2rcd13ifvqhog","pricing_plan_id":"free"},{"bike_id":"e46e8ff3-6efb-422c-88bb-36c5e9ce66e4","system_id":"levelo_inurba_marseille","lat":43.32368,"lon":5.3888,"is_reserved":false,"is_disabled":false,"rental_uris":{"android":"levelo://app?vid=e46e8ff3-6efb-422c-88bb-36c5e9ce66e4","ios":"levelo://app?vid=e46e8ff3-6efb-422c-88bb-36c5e9ce66e4"},"vehicle_type_id":"4","last_reported":1707250031,"current_range_meters":12400,"station_id":"ce4bhqp2rcd13ifvqhog","pricing_plan_id":"free"},{"bike_id":"b2180001-e57d-42eb-b057-d6791a6c5f13","system_id":"levelo_inurba_marseille","lat":43.323627,"lon":5.38885,"is_reserved":false,"is_disabled":false,"rental_uris":{"android":"levelo://app?vid=b2180001-e57d-42eb-b057-d6791a6c5f13","ios":"levelo://app?vid=b2180001-e57d-42eb-b057-d6791a6c5f13"},"vehicle_type_id":"4","last_reported":1707250031,"current_range_meters":10000,"station_id":"ce4bhqp2rcd13ifvqhog","pricing_plan_id":"free"},{"bike_id":"ff7066c7-aa1b-4d2c-a675-1a72e0d147ce","system_id":"levelo_inurba_marseille","lat":43.32367,"lon":5.38882,"is_reserved":false,"is_disabled":false,"rental_uris":{"android":"levelo://app?vid=ff7066c7-aa1b-4d2c-a675-1a72e0d147ce","ios":"levelo://app?vid=ff7066c7-aa1b-4d2c-a675-1a72e0d147ce"},"vehicle_type_id":"4","last_reported":1707250031,"current_range_meters":8000,"station_id":"ce4bhqp2rcd13ifvqhog","pricing_plan_id":"free"},{"bike_id":"8b53a42d-07d1-44d1-95b6-3a8a98cff51c","system_id":"levelo_inurba_marseille","lat":43.32365,"lon":5.38885,"is_reserved":false,"is_disabled":false,"rental_uris":{"android":"levelo://app?vid=8b53a42d-07d1-44d1-95b6-3a8a98cff51c","ios":"levelo://app?vid=8b53a42d-07d1-44d1-95b6-3a8a98cff51c"},"vehicle_type_id":"4","last_reported":1707250031,"current_range_meters":15200,"station_id":"ce4bhqp2rcd13ifvqhog","pricing_plan_id":"free"},{"bike_id":"2699b29a-e584-4936-892c-96f311fc0314","system_id":"levelo_inurba_marseille","lat":43.32364,"lon":5.38886,"is_reserved":false,"is_disabled":false,"rental_uris":{"android":"levelo://app?vid=2699b29a-e584-4936-892c-96f311fc0314","ios":"levelo://app?vid=2699b29a-e584-4936-892c-96f311fc0314"},"vehicle_type_id":"4","last_reported":1707250031,"current_range_meters":6400,"station_id":"ce4bhqp2rcd13ifvqhog","pricing_plan_id":"free"},{"bike_id":"27e7d923-81e0-4c18-9a4b-aeb5de43f55c","system_id":"levelo_inurba_marseille","lat":43.32364,"lon":5.38887,"is_reserved":false,"is_disabled":false,"rental_uris":{"android":"levelo://app?vid=27e7d923-81e0-4c18-9a4b-aeb5de43f55c","ios":"levelo://app?vid=27e7d923-81e0-4c18-9a4b-aeb5de43f55c"},"vehicle_type_id":"4","last_reported":1707250031,"current_range_meters":18400,"station_id":"ce4bhqp2rcd13ifvqhog","pricing_plan_id":"free"},{"bike_id":"593326ed-2cc1-41f5-9d97-b4674f983682","system_id":"levelo_inurba_marseille","lat":43.32367,"lon":5.388836,"is_reserved":false,"is_disabled":false,"rental_uris":{"android":"levelo://app?vid=593326ed-2cc1-41f5-9d97-b4674f983682","ios":"levelo://app?vid=593326ed-2cc1-41f5-9d97-b4674f983682"},"vehicle_type_id":"4","last_reported":1707250031,"current_range_meters":8800,"station_id":"ce4bhqp2rcd13ifvqhog","pricing_plan_id":"free"},{"bike_id":"0869f4d7-d03e-487e-bb3e-44f1b46bbf18","system_id":"levelo_inurba_marseille","lat":43.29602,"lon":5.381084,"is_reserved":false,"is_disabled":false,"rental_uris":{"android":"levelo://app?vid=0869f4d7-d03e-487e-bb3e-44f1b46bbf18","ios":"levelo://app?vid=0869f4d7-d03e-487e-bb3e-44f1b46bbf18"},"vehicle_type_id":"4","last_reported":1707250031,"current_range_meters":20000,"station_id":"ce4bgl12rcd13ifvqbo0","pricing_plan_id":"free"},{"bike_id":"4a7f1485-4288-4361-b7ee-540cce46f694","system_id":"levelo_inurba_marseille","lat":43.29602,"lon":5.381084,"is_reserved":false,"is_disabled":false,"rental_uris":{"android":"levelo://app?vid=4a7f1485-4288-4361-b7ee-540cce46f694","ios":"levelo://app?vid=4a7f1485-4288-4361-b7ee-540cce46f694"},"vehicle_type_id":"4","last_reported":1707250031,"current_range_meters":5600,"station_id":"ce4bgl12rcd13ifvqbo0","pricing_plan_id":"free"},{"bike_id":"fe897604-19bd-4bc2-848f-a50d1d48e378","system_id":"levelo_inurba_marseille","lat":43.293143,"lon":5.37188,"is_reserved":false,"is_disabled":false,"rental_uris":{"android":"levelo://app?vid=fe897604-19bd-4bc2-848f-a50d1d48e378","ios":"levelo://app?vid=fe897604-19bd-4bc2-848f-a50d1d48e378"},"vehicle_type_id":"4","last_reported":1707250031,"current_range_meters":30000,"station_id":"ce4bgh92rcd13ifvqb40","pricing_plan_id":"free"},{"bike_id":"e15e7b3a-16c6-4d17-9453-8aa3ff55d2b2","system_id":"levelo_inurba_marseille","lat":43.293259,"lon":5.371586,"is_reserved":false,"is_disabled":false,"rental_uris":{"android":"levelo://app?vid=e15e7b3a-16c6-4d17-9453-8aa3ff55d2b2","ios":"levelo://app?vid=e15e7b3a-16c6-4d17-9453-8aa3ff55d2b2"},"vehicle_type_id":"4","last_reported":1707250031,"current_range_meters":6000,"station_id":"ce4bgh92rcd13ifvqb40","pricing_plan_id":"free"},{"bike_id":"47039db9-6e41-4a67-a097-d0fd662e87e7","system_id":"levelo_inurba_marseille","lat":43.293087,"lon":5.371837,"is_reserved":false,"is_disabled":false,"rental_uris":{"android":"levelo://app?vid=47039db9-6e41-4a67-a097-d0fd662e87e7","ios":"levelo://app?vid=47039db9-6e41-4a67-a097-d0fd662e87e7"},"vehicle_type_id":"4","last_reported":1707250031,"current_range_meters":800,"station_id":"ce4bgh92rcd13ifvqb40","pricing_plan_id":"free"},{"bike_id":"79660a42-d39b-4560-a249-26ba4908e931","system_id":"levelo_inurba_marseille","lat":43.29308,"lon":5.37181,"is_reserved":false,"is_disabled":false,"rental_uris":{"android":"levelo://app?vid=79660a42-d39b-4560-a249-26ba4908e931","ios":"levelo://app?vid=79660a42-d39b-4560-a249-26ba4908e931"},"vehicle_type_id":"4","last_reported":1707250031,"current_range_meters":18400,"station_id":"ce4bgh92rcd13ifvqb40","pricing_plan_id":"free"},{"bike_id":"3d51c9ce-a479-4b39-95f7-67bea4d38c01","system_id":"levelo_inurba_marseille","lat":43.29307,"lon":5.37179,"is_reserved":false,"is_disabled":false,"rental_uris":{"android":"levelo://app?vid=3d51c9ce-a479-4b39-95f7-67bea4d38c01","ios":"levelo://app?vid=3d51c9ce-a479-4b39-95f7-67bea4d38c01"},"vehicle_type_id":"4","last_reported":1707250031,"current_range_meters":27200,"station_id":"ce4bgh92rcd13ifvqb40","pricing_plan_id":"free"},{"bike_id":"62b34a1f-443c-4da4-a03f-ca90de1b9600","system_id":"levelo_inurba_marseille","lat":43.29307,"lon":5.37179,"is_reserved":false,"is_disabled":false,"rental_uris":{"android":"levelo://app?vid=62b34a1f-443c-4da4-a03f-ca90de1b9600","ios":"levelo://app?vid=62b34a1f-443c-4da4-a03f-ca90de1b9600"},"vehicle_type_id":"4","last_reported":1707250031,"current_range_meters":4400,"station_id":"ce4bgh92rcd13ifvqb40","pricing_plan_id":"free"},{"bike_id":"210371f2-86b4-4c82-937b-dba5858798f9","system_id":"levelo_inurba_marseille","lat":43.29307,"lon":5.37181,"is_reserved":false,"is_disabled":false,"rental_uris":{"android":"levelo://app?vid=210371f2-86b4-4c82-937b-dba5858798f9","ios":"levelo://app?vid=210371f2-86b4-4c82-937b-dba5858798f9"},"vehicle_type_id":"4","last_reported":1707250031,"current_range_meters":21200,"station_id":"ce4bgh92rcd13ifvqb40","pricing_plan_id":"free"},{"bike_id":"2f2a3d21-e57c-4641-87f0-5283cad16772","system_id":"levelo_inurba_marseille","lat":43.29307,"lon":5.37183,"is_reserved":false,"is_disabled":false,"rental_uris":{"android":"levelo://app?vid=2f2a3d21-e57c-4641-87f0-5283cad16772","ios":"levelo://app?vid=2f2a3d21-e57c-4641-87f0-5283cad16772"},"vehicle_type_id":"4","last_reported":1707250031,"current_range_meters":8400,"station_id":"ce4bgh92rcd13ifvqb40","pricing_plan_id":"free"},{"bike_id":"abee8746-ebea-4085-859e-98261cbbe396","system_id":"levelo_inurba_marseille","lat":43.29306,"lon":5.37181,"is_reserved":false,"is_disabled":false,"rental_uris":{"android":"levelo://app?vid=abee8746-ebea-4085-859e-98261cbbe396","ios":"levelo://app?vid=abee8746-ebea-4085-859e-98261cbbe396"},"vehicle_type_id":"4","last_reported":1707250031,"current_range_meters":0,"station_id":"ce4bgh92rcd13ifvqb40","pricing_plan_id":"free"},{"bike_id":"19cfdb4b-6ab4-4373-b1ac-8fdbcb9c0511","system_id":"levelo_inurba_marseille","lat":43.29305,"lon":5.37181,"is_reserved":false,"is_disabled":false,"rental_uris":{"android":"levelo://app?vid=19cfdb4b-6ab4-4373-b1ac-8fdbcb9c0511","ios":"levelo://app?vid=19cfdb4b-6ab4-4373-b1ac-8fdbcb9c0511"},"vehicle_type_id":"4","last_reported":1707250031,"current_range_meters":2000,"station_id":"ce4bgh92rcd13ifvqb40","pricing_plan_id":"free"},{"bike_id":"d39e5c66-809f-44ff-86cb-5bf224493ff1","system_id":"levelo_inurba_marseille","lat":43.292749,"lon":5.368402,"is_reserved":false,"is_disabled":false,"rental_uris":{"android":"levelo://app?vid=d39e5c66-809f-44ff-86cb-5bf224493ff1","ios":"levelo://app?vid=d39e5c66-809f-44ff-86cb-5bf224493ff1"},"vehicle_type_id":"4","last_reported":1707250031,"current_range_meters":20000,"station_id":"ce4bhbp2rcd13ifvqesg","pricing_plan_id":"free"},{"bike_id":"76aa3ddb-9cd5-47e9-9670-6980963fbb45","system_id":"levelo_inurba_marseille","lat":43.293249,"lon":5.371578,"is_reserved":false,"is_disabled":false,"rental_uris":{"android":"levelo://app?vid=76aa3ddb-9cd5-47e9-9670-6980963fbb45","ios":"levelo://app?vid=76aa3ddb-9cd5-47e9-9670-6980963fbb45"},"vehicle_type_id":"4","last_reported":1707250031,"current_range_meters":14400,"station_id":"ce4bgh92rcd13ifvqb40","pricing_plan_id":"free"},{"bike_id":"969f5b8c-0771-4fd2-8969-d6a4a2923cb8","system_id":"levelo_inurba_marseille","lat":43.29274,"lon":5.36842,"is_reserved":false,"is_disabled":false,"rental_uris":{"android":"levelo://app?vid=969f5b8c-0771-4fd2-8969-d6a4a2923cb8","ios":"levelo://app?vid=969f5b8c-0771-4fd2-8969-d6a4a2923cb8"},"vehicle_type_id":"4","last_reported":1707250031,"current_range_meters":4400,"station_id":"","pricing_plan_id":"free"},{"bike_id":"4a912044-0e10-4fe1-a398-b325e2df8077","system_id":"levelo_inurba_marseille","lat":43.292749,"lon":5.368402,"is_reserved":false,"is_disabled":false,"rental_uris":{"android":"levelo://app?vid=4a912044-0e10-4fe1-a398-b325e2df8077","ios":"levelo://app?vid=4a912044-0e10-4fe1-a398-b325e2df8077"},"vehicle_type_id":"4","last_reported":1707250031,"current_range_meters":2000,"station_id":"ce4bhbp2rcd13ifvqesg","pricing_plan_id":"free"},{"bike_id":"6e6393a5-9ff5-4aec-b695-e3bb34499563","system_id":"levelo_inurba_marseille","lat":43.292732,"lon":5.368472,"is_reserved":false,"is_disabled":false,"rental_uris":{"android":"levelo://app?vid=6e6393a5-9ff5-4aec-b695-e3bb34499563","ios":"levelo://app?vid=6e6393a5-9ff5-4aec-b695-e3bb34499563"},"vehicle_type_id":"4","last_reported":1707250031,"current_range_meters":12800,"station_id":"","pricing_plan_id":"free"},{"bike_id":"d9c0637a-49cd-4b4b-87d7-fae64e111fa8","system_id":"levelo_inurba_marseille","lat":43.292749,"lon":5.368402,"is_reserved":false,"is_disabled":false,"rental_uris":{"android":"levelo://app?vid=d9c0637a-49cd-4b4b-87d7-fae64e111fa8","ios":"levelo://app?vid=d9c0637a-49cd-4b4b-87d7-fae64e111fa8"},"vehicle_type_id":"4","last_reported":1707250031,"current_range_meters":10000,"station_id":"ce4bhbp2rcd13ifvqesg","pricing_plan_id":"free"},{"bike_id":"4c3ddc08-8293-4c9e-9d66-1f1ed3249823","system_id":"levelo_inurba_marseille","lat":43.292749,"lon":5.368402,"is_reserved":false,"is_disabled":false,"rental_uris":{"android":"levelo://app?vid=4c3ddc08-8293-4c9e-9d66-1f1ed3249823","ios":"levelo://app?vid=4c3ddc08-8293-4c9e-9d66-1f1ed3249823"},"vehicle_type_id":"4","last_reported":1707250031,"current_range_meters":2400,"station_id":"ce4bhbp2rcd13ifvqesg","pricing_plan_id":"free"},{"bike_id":"94b8596b-1dc0-427f-9a2a-6e04ddda0d99","system_id":"levelo_inurba_marseille","lat":43.292749,"lon":5.368402,"is_reserved":false,"is_disabled":false,"rental_uris":{"android":"levelo://app?vid=94b8596b-1dc0-427f-9a2a-6e04ddda0d99","ios":"levelo://app?vid=94b8596b-1dc0-427f-9a2a-6e04ddda0d99"},"vehicle_type_id":"4","last_reported":1707250031,"current_range_meters":800,"station_id":"ce4bhbp2rcd13ifvqesg","pricing_plan_id":"free"},{"bike_id":"4c6fbc55-eeaa-481c-812f-3ff42b9db9fb","system_id":"levelo_inurba_marseille","lat":43.29299,"lon":5.37174,"is_reserved":false,"is_disabled":false,"rental_uris":{"android":"levelo://app?vid=4c6fbc55-eeaa-481c-812f-3ff42b9db9fb","ios":"levelo://app?vid=4c6fbc55-eeaa-481c-812f-3ff42b9db9fb"},"vehicle_type_id":"4","last_reported":1707250031,"current_range_meters":6400,"station_id":"ce4bgh92rcd13ifvqb40","pricing_plan_id":"free"},{"bike_id":"58ce6322-a791-48f0-8bcc-95a1314180fc","system_id":"levelo_inurba_marseille","lat":43.29551,"lon":5.381633,"is_reserved":false,"is_disabled":false,"rental_uris":{"android":"levelo://app?vid=58ce6322-a791-48f0-8bcc-95a1314180fc","ios":"levelo://app?vid=58ce6322-a791-48f0-8bcc-95a1314180fc"},"vehicle_type_id":"4","last_reported":1707250031,"current_range_meters":30000,"station_id":"","pricing_plan_id":"free"},{"bike_id":"dc776fb7-b13d-4622-ae3b-14e51fbc321a","system_id":"levelo_inurba_marseille","lat":43.293055,"lon":5.374465,"is_reserved":false,"is_disabled":false,"rental_uris":{"android":"levelo://app?vid=dc776fb7-b13d-4622-ae3b-14e51fbc321a","ios":"levelo://app?vid=dc776fb7-b13d-4622-ae3b-14e51fbc321a"},"vehicle_type_id":"4","last_reported":1707250031,"current_range_meters":0,"station_id":"ce4bgi12rcd13ifvqb70","pricing_plan_id":"free"},{"bike_id":"e197a4cc-0242-4f03-8f3c-647c7e3e3cd2","system_id":"levelo_inurba_marseille","lat":43.293009,"lon":5.374584,"is_reserved":false,"is_disabled":false,"rental_uris":{"android":"levelo://app?vid=e197a4cc-0242-4f03-8f3c-647c7e3e3cd2","ios":"levelo://app?vid=e197a4cc-0242-4f03-8f3c-647c7e3e3cd2"},"vehicle_type_id":"4","last_reported":1707250031,"current_range_meters":12800,"station_id":"ce4bgi12rcd13ifvqb70","pricing_plan_id":"free"},{"bike_id":"0571ea69-9591-4246-8792-164ffe8948cd","system_id":"levelo_inurba_marseille","lat":43.305994,"lon":5.393687,"is_reserved":false,"is_disabled":false,"rental_uris":{"android":"levelo://app?vid=0571ea69-9591-4246-8792-164ffe8948cd","ios":"levelo://app?vid=0571ea69-9591-4246-8792-164ffe8948cd"},"vehicle_type_id":"4","last_reported":1707250031,"current_range_meters":5600,"station_id":"ce4bh0p2rcd13ifvqd80","pricing_plan_id":"free"},{"bike_id":"b90c27d3-c82b-493a-ab15-ebc4cbbf2c57","system_id":"levelo_inurba_marseille","lat":43.305994,"lon":5.393687,"is_reserved":false,"is_disabled":false,"rental_uris":{"android":"levelo://app?vid=b90c27d3-c82b-493a-ab15-ebc4cbbf2c57","ios":"levelo://app?vid=b90c27d3-c82b-493a-ab15-ebc4cbbf2c57"},"vehicle_type_id":"4","last_reported":1707250031,"current_range_meters":13200,"station_id":"ce4bh0p2rcd13ifvqd80","pricing_plan_id":"free"},{"bike_id":"d8858233-f224-4bf9-9c66-105f70a635e2","system_id":"levelo_inurba_marseille","lat":43.293009,"lon":5.374584,"is_reserved":false,"is_disabled":false,"rental_uris":{"android":"levelo://app?vid=d8858233-f224-4bf9-9c66-105f70a635e2","ios":"levelo://app?vid=d8858233-f224-4bf9-9c66-105f70a635e2"},"vehicle_type_id":"4","last_reported":1707250031,"current_range_meters":4000,"station_id":"ce4bgi12rcd13ifvqb70","pricing_plan_id":"free"},{"bike_id":"1710e1a6-da8e-41ac-8eb4-42653750c2ea","system_id":"levelo_inurba_marseille","lat":43.293009,"lon":5.374584,"is_reserved":false,"is_disabled":false,"rental_uris":{"android":"levelo://app?vid=1710e1a6-da8e-41ac-8eb4-42653750c2ea","ios":"levelo://app?vid=1710e1a6-da8e-41ac-8eb4-42653750c2ea"},"vehicle_type_id":"4","last_reported":1707250031,"current_range_meters":15200,"station_id":"ce4bgi12rcd13ifvqb70","pricing_plan_id":"free"},{"bike_id":"21eb2241-53ae-42e0-b740-6d60ef61d333","system_id":"levelo_inurba_marseille","lat":43.303002,"lon":5.392142,"is_reserved":false,"is_disabled":false,"rental_uris":{"android":"levelo://app?vid=21eb2241-53ae-42e0-b740-6d60ef61d333","ios":"levelo://app?vid=21eb2241-53ae-42e0-b740-6d60ef61d333"},"vehicle_type_id":"4","last_reported":1707250031,"current_range_meters":23600,"station_id":"ce4bgkh2rcd13ifvqbk0","pricing_plan_id":"free"},{"bike_id":"a403202b-6ec2-4e9b-a830-d8bd70ec6b91","system_id":"levelo_inurba_marseille","lat":43.302992,"lon":5.392136,"is_reserved":false,"is_disabled":false,"rental_uris":{"android":"levelo://app?vid=a403202b-6ec2-4e9b-a830-d8bd70ec6b91","ios":"levelo://app?vid=a403202b-6ec2-4e9b-a830-d8bd70ec6b91"},"vehicle_type_id":"4","last_reported":1707250031,"current_range_meters":25600,"station_id":"ce4bgkh2rcd13ifvqbk0","pricing_plan_id":"free"},{"bike_id":"5b08f849-ad6d-481e-8168-8f7391220200","system_id":"levelo_inurba_marseille","lat":43.2936,"lon":5.37835,"is_reserved":false,"is_disabled":false,"rental_uris":{"android":"levelo://app?vid=5b08f849-ad6d-481e-8168-8f7391220200","ios":"levelo://app?vid=5b08f849-ad6d-481e-8168-8f7391220200"},"vehicle_type_id":"4","last_reported":1707250031,"current_range_meters":12400,"station_id":"ce4bgjh2rcd13ifvqbf0","pricing_plan_id":"free"},{"bike_id":"286b1a03-e549-4802-982a-242b9e310c4b","system_id":"levelo_inurba_marseille","lat":43.292311,"lon":5.360731,"is_reserved":false,"is_disabled":false,"rental_uris":{"android":"levelo://app?vid=286b1a03-e549-4802-982a-242b9e310c4b","ios":"levelo://app?vid=286b1a03-e549-4802-982a-242b9e310c4b"},"vehicle_type_id":"4","last_reported":1707250031,"current_range_meters":6000,"station_id":"ce4bhbh2rcd13ifvqeqg","pricing_plan_id":"free"},{"bike_id":"aa8e04ba-be2e-4339-9795-206832de60ae","system_id":"levelo_inurba_marseille","lat":43.300852,"lon":5.390859,"is_reserved":false,"is_disabled":false,"rental_uris":{"android":"levelo://app?vid=aa8e04ba-be2e-4339-9795-206832de60ae","ios":"levelo://app?vid=aa8e04ba-be2e-4339-9795-206832de60ae"},"vehicle_type_id":"4","last_reported":1707250031,"current_range_meters":5600,"station_id":"ce4bh192rcd13ifvqdb0","pricing_plan_id":"free"},{"bike_id":"6c9be7ad-6ff9-4aad-ac53-6a802f19da0d","system_id":"levelo_inurba_marseille","lat":43.300852,"lon":5.390859,"is_reserved":false,"is_disabled":false,"rental_uris":{"android":"levelo://app?vid=6c9be7ad-6ff9-4aad-ac53-6a802f19da0d","ios":"levelo://app?vid=6c9be7ad-6ff9-4aad-ac53-6a802f19da0d"},"vehicle_type_id":"4","last_reported":1707250031,"current_range_meters":0,"station_id":"ce4bh192rcd13ifvqdb0","pricing_plan_id":"free"},{"bike_id":"51e41dcd-0e6c-47b4-9dfb-e4c25e6f06fb","system_id":"levelo_inurba_marseille","lat":43.30085,"lon":5.390856,"is_reserved":false,"is_disabled":false,"rental_uris":{"android":"levelo://app?vid=51e41dcd-0e6c-47b4-9dfb-e4c25e6f06fb","ios":"levelo://app?vid=51e41dcd-0e6c-47b4-9dfb-e4c25e6f06fb"},"vehicle_type_id":"4","last_reported":1707250031,"current_range_meters":8800,"station_id":"ce4bh192rcd13ifvqdb0","pricing_plan_id":"free"},{"bike_id":"49290904-eddd-4a81-b37f-488b2ae83369","system_id":"levelo_inurba_marseille","lat":43.2928,"lon":5.37617,"is_reserved":false,"is_disabled":false,"rental_uris":{"android":"levelo://app?vid=49290904-eddd-4a81-b37f-488b2ae83369","ios":"levelo://app?vid=49290904-eddd-4a81-b37f-488b2ae83369"},"vehicle_type_id":"4","last_reported":1707250031,"current_range_meters":16400,"station_id":"","pricing_plan_id":"free"},{"bike_id":"af8a3440-2730-468a-a915-ef14d50f6b32","system_id":"levelo_inurba_marseille","lat":43.300852,"lon":5.390859,"is_reserved":false,"is_disabled":false,"rental_uris":{"android":"levelo://app?vid=af8a3440-2730-468a-a915-ef14d50f6b32","ios":"levelo://app?vid=af8a3440-2730-468a-a915-ef14d50f6b32"},"vehicle_type_id":"4","last_reported":1707250031,"current_range_meters":15200,"station_id":"ce4bh192rcd13ifvqdb0","pricing_plan_id":"free"},{"bike_id":"ef9a195a-2426-4756-a1cd-7077e67863c6","system_id":"levelo_inurba_marseille","lat":43.29264,"lon":5.37626,"is_reserved":false,"is_disabled":false,"rental_uris":{"android":"levelo://app?vid=ef9a195a-2426-4756-a1cd-7077e67863c6","ios":"levelo://app?vid=ef9a195a-2426-4756-a1cd-7077e67863c6"},"vehicle_type_id":"4","last_reported":1707250031,"current_range_meters":0,"station_id":"","pricing_plan_id":"free"},{"bike_id":"00bd8a87-0bf7-4dc0-ab09-76fbe6583ba7","system_id":"levelo_inurba_marseille","lat":43.298764,"lon":5.388973,"is_reserved":false,"is_disabled":false,"rental_uris":{"android":"levelo://app?vid=00bd8a87-0bf7-4dc0-ab09-76fbe6583ba7","ios":"levelo://app?vid=00bd8a87-0bf7-4dc0-ab09-76fbe6583ba7"},"vehicle_type_id":"4","last_reported":1707250031,"current_range_meters":18400,"station_id":"ce4bh392rcd13ifvqdl0","pricing_plan_id":"free"},{"bike_id":"faaa9245-b3a8-4524-a369-1a1ebff91b03","system_id":"levelo_inurba_marseille","lat":43.291675,"lon":5.371583,"is_reserved":false,"is_disabled":false,"rental_uris":{"android":"levelo://app?vid=faaa9245-b3a8-4524-a369-1a1ebff91b03","ios":"levelo://app?vid=faaa9245-b3a8-4524-a369-1a1ebff91b03"},"vehicle_type_id":"4","last_reported":1707250031,"current_range_meters":13200,"station_id":"ce4bha92rcd13ifvqeh0","pricing_plan_id":"free"},{"bike_id":"851bb1f1-7ab5-43b2-b56f-50a9fbe178d0","system_id":"levelo_inurba_marseille","lat":43.29877,"lon":5.38906,"is_reserved":false,"is_disabled":false,"rental_uris":{"android":"levelo://app?vid=851bb1f1-7ab5-43b2-b56f-50a9fbe178d0","ios":"levelo://app?vid=851bb1f1-7ab5-43b2-b56f-50a9fbe178d0"},"vehicle_type_id":"4","last_reported":1707250031,"current_range_meters":7200,"station_id":"ce4bh392rcd13ifvqdl0","pricing_plan_id":"free"},{"bike_id":"a1afe782-e9cb-47f0-9d01-892a158a0338","system_id":"levelo_inurba_marseille","lat":43.298764,"lon":5.388973,"is_reserved":false,"is_disabled":false,"rental_uris":{"android":"levelo://app?vid=a1afe782-e9cb-47f0-9d01-892a158a0338","ios":"levelo://app?vid=a1afe782-e9cb-47f0-9d01-892a158a0338"},"vehicle_type_id":"4","last_reported":1707250031,"current_range_meters":31200,"station_id":"ce4bh392rcd13ifvqdl0","pricing_plan_id":"free"},{"bike_id":"cd21f8e0-3a7d-41aa-9b94-f81489a3b2d8","system_id":"levelo_inurba_marseille","lat":43.298764,"lon":5.388973,"is_reserved":false,"is_disabled":false,"rental_uris":{"android":"levelo://app?vid=cd21f8e0-3a7d-41aa-9b94-f81489a3b2d8","ios":"levelo://app?vid=cd21f8e0-3a7d-41aa-9b94-f81489a3b2d8"},"vehicle_type_id":"4","last_reported":1707250031,"current_range_meters":9200,"station_id":"ce4bh392rcd13ifvqdl0","pricing_plan_id":"free"},{"bike_id":"de3ad7d1-98bd-49b5-8186-632a703a60e0","system_id":"levelo_inurba_marseille","lat":43.298764,"lon":5.388973,"is_reserved":false,"is_disabled":false,"rental_uris":{"android":"levelo://app?vid=de3ad7d1-98bd-49b5-8186-632a703a60e0","ios":"levelo://app?vid=de3ad7d1-98bd-49b5-8186-632a703a60e0"},"vehicle_type_id":"4","last_reported":1707250031,"current_range_meters":25600,"station_id":"ce4bh392rcd13ifvqdl0","pricing_plan_id":"free"},{"bike_id":"c1967ad1-b9ff-4b01-bf1e-ad0dea711b36","system_id":"levelo_inurba_marseille","lat":43.298764,"lon":5.388973,"is_reserved":false,"is_disabled":false,"rental_uris":{"android":"levelo://app?vid=c1967ad1-b9ff-4b01-bf1e-ad0dea711b36","ios":"levelo://app?vid=c1967ad1-b9ff-4b01-bf1e-ad0dea711b36"},"vehicle_type_id":"4","last_reported":1707250031,"current_range_meters":22800,"station_id":"ce4bh392rcd13ifvqdl0","pricing_plan_id":"free"},{"bike_id":"a3e3addf-597a-43f8-a586-72b85a91f845","system_id":"levelo_inurba_marseille","lat":43.29873,"lon":5.38915,"is_reserved":false,"is_disabled":false,"rental_uris":{"android":"levelo://app?vid=a3e3addf-597a-43f8-a586-72b85a91f845","ios":"levelo://app?vid=a3e3addf-597a-43f8-a586-72b85a91f845"},"vehicle_type_id":"4","last_reported":1707250031,"current_range_meters":2000,"station_id":"ce4bh312rcd13ifvqdk0","pricing_plan_id":"free"},{"bike_id":"f991e405-a4f6-4610-be1c-ad78edc49358","system_id":"levelo_inurba_marseille","lat":43.313291,"lon":5.396838,"is_reserved":false,"is_disabled":false,"rental_uris":{"android":"levelo://app?vid=f991e405-a4f6-4610-be1c-ad78edc49358","ios":"levelo://app?vid=f991e405-a4f6-4610-be1c-ad78edc49358"},"vehicle_type_id":"4","last_reported":1707250031,"current_range_meters":6800,"station_id":"ce4bgvp2rcd13ifvqcu0","pricing_plan_id":"free"},{"bike_id":"fa273153-deb8-45eb-89af-e3121ba5f39f","system_id":"levelo_inurba_marseille","lat":43.291939,"lon":5.358019,"is_reserved":false,"is_disabled":false,"rental_uris":{"android":"levelo://app?vid=fa273153-deb8-45eb-89af-e3121ba5f39f","ios":"levelo://app?vid=fa273153-deb8-45eb-89af-e3121ba5f39f"},"vehicle_type_id":"4","last_reported":1707250031,"current_range_meters":0,"station_id":"","pricing_plan_id":"free"},{"bike_id":"c1b4cdfd-dc77-4abe-ac74-7f7553521ea5","system_id":"levelo_inurba_marseille","lat":43.313291,"lon":5.396838,"is_reserved":false,"is_disabled":false,"rental_uris":{"android":"levelo://app?vid=c1b4cdfd-dc77-4abe-ac74-7f7553521ea5","ios":"levelo://app?vid=c1b4cdfd-dc77-4abe-ac74-7f7553521ea5"},"vehicle_type_id":"4","last_reported":1707250031,"current_range_meters":11600,"station_id":"ce4bgvp2rcd13ifvqcu0","pricing_plan_id":"free"},{"bike_id":"d35e5a1f-caa2-40a6-acc0-a0667c5b74de","system_id":"levelo_inurba_marseille","lat":43.313291,"lon":5.396838,"is_reserved":false,"is_disabled":false,"rental_uris":{"android":"levelo://app?vid=d35e5a1f-caa2-40a6-acc0-a0667c5b74de","ios":"levelo://app?vid=d35e5a1f-caa2-40a6-acc0-a0667c5b74de"},"vehicle_type_id":"4","last_reported":1707250031,"current_range_meters":24800,"station_id":"ce4bgvp2rcd13ifvqcu0","pricing_plan_id":"free"},{"bike_id":"c0f3e4d9-3ac1-48a0-8f12-6fe148c7f075","system_id":"levelo_inurba_marseille","lat":43.31319,"lon":5.39691,"is_reserved":false,"is_disabled":false,"rental_uris":{"android":"levelo://app?vid=c0f3e4d9-3ac1-48a0-8f12-6fe148c7f075","ios":"levelo://app?vid=c0f3e4d9-3ac1-48a0-8f12-6fe148c7f075"},"vehicle_type_id":"4","last_reported":1707250031,"current_range_meters":20000,"station_id":"ce4bgvp2rcd13ifvqcu0","pricing_plan_id":"free"},{"bike_id":"37861716-6d5c-4ec8-be0a-fdf775ed8bb1","system_id":"levelo_inurba_marseille","lat":43.313291,"lon":5.396838,"is_reserved":false,"is_disabled":false,"rental_uris":{"android":"levelo://app?vid=37861716-6d5c-4ec8-be0a-fdf775ed8bb1","ios":"levelo://app?vid=37861716-6d5c-4ec8-be0a-fdf775ed8bb1"},"vehicle_type_id":"4","last_reported":1707250031,"current_range_meters":31200,"station_id":"ce4bgvp2rcd13ifvqcu0","pricing_plan_id":"free"},{"bike_id":"2b593266-fa57-48e1-abe3-84e731e5edd5","system_id":"levelo_inurba_marseille","lat":43.31327,"lon":5.39694,"is_reserved":false,"is_disabled":false,"rental_uris":{"android":"levelo://app?vid=2b593266-fa57-48e1-abe3-84e731e5edd5","ios":"levelo://app?vid=2b593266-fa57-48e1-abe3-84e731e5edd5"},"vehicle_type_id":"4","last_reported":1707250031,"current_range_meters":26000,"station_id":"ce4bgvp2rcd13ifvqcu0","pricing_plan_id":"free"},{"bike_id":"d9b37291-f53f-4731-8d0d-013598d0279a","system_id":"levelo_inurba_marseille","lat":43.313291,"lon":5.396838,"is_reserved":false,"is_disabled":false,"rental_uris":{"android":"levelo://app?vid=d9b37291-f53f-4731-8d0d-013598d0279a","ios":"levelo://app?vid=d9b37291-f53f-4731-8d0d-013598d0279a"},"vehicle_type_id":"4","last_reported":1707250031,"current_range_meters":16000,"station_id":"ce4bgvp2rcd13ifvqcu0","pricing_plan_id":"free"},{"bike_id":"a5694600-38e4-4956-8e0a-9ad71ee47efb","system_id":"levelo_inurba_marseille","lat":43.31332,"lon":5.39694,"is_reserved":false,"is_disabled":false,"rental_uris":{"android":"levelo://app?vid=a5694600-38e4-4956-8e0a-9ad71ee47efb","ios":"levelo://app?vid=a5694600-38e4-4956-8e0a-9ad71ee47efb"},"vehicle_type_id":"4","last_reported":1707250031,"current_range_meters":2800,"station_id":"ce4bgvp2rcd13ifvqcu0","pricing_plan_id":"free"},{"bike_id":"dd2bb48a-1a28-49e0-a92a-4b79c31be3e4","system_id":"levelo_inurba_marseille","lat":43.313291,"lon":5.396838,"is_reserved":false,"is_disabled":false,"rental_uris":{"android":"levelo://app?vid=dd2bb48a-1a28-49e0-a92a-4b79c31be3e4","ios":"levelo://app?vid=dd2bb48a-1a28-49e0-a92a-4b79c31be3e4"},"vehicle_type_id":"4","last_reported":1707250031,"current_range_meters":1600,"station_id":"ce4bgvp2rcd13ifvqcu0","pricing_plan_id":"free"},{"bike_id":"758d2b83-af7f-47ce-bf19-07e89f5993d8","system_id":"levelo_inurba_marseille","lat":43.309038,"lon":5.396546,"is_reserved":false,"is_disabled":false,"rental_uris":{"android":"levelo://app?vid=758d2b83-af7f-47ce-bf19-07e89f5993d8","ios":"levelo://app?vid=758d2b83-af7f-47ce-bf19-07e89f5993d8"},"vehicle_type_id":"4","last_reported":1707250031,"current_range_meters":29200,"station_id":"ce4bh012rcd13ifvqcv0","pricing_plan_id":"free"},{"bike_id":"6ff4414e-1536-41bd-926d-71c79dfc563e","system_id":"levelo_inurba_marseille","lat":43.31326,"lon":5.39698,"is_reserved":false,"is_disabled":false,"rental_uris":{"android":"levelo://app?vid=6ff4414e-1536-41bd-926d-71c79dfc563e","ios":"levelo://app?vid=6ff4414e-1536-41bd-926d-71c79dfc563e"},"vehicle_type_id":"4","last_reported":1707250031,"current_range_meters":31200,"station_id":"ce4bgvp2rcd13ifvqcu0","pricing_plan_id":"free"},{"bike_id":"9a89fdd1-0694-4c19-8e97-3a095dff1c1c","system_id":"levelo_inurba_marseille","lat":43.309047,"lon":5.396551,"is_reserved":false,"is_disabled":false,"rental_uris":{"android":"levelo://app?vid=9a89fdd1-0694-4c19-8e97-3a095dff1c1c","ios":"levelo://app?vid=9a89fdd1-0694-4c19-8e97-3a095dff1c1c"},"vehicle_type_id":"4","last_reported":1707250031,"current_range_meters":26800,"station_id":"ce4bh012rcd13ifvqcv0","pricing_plan_id":"free"},{"bike_id":"5595d1f6-720f-4471-9e3d-e0255729bbee","system_id":"levelo_inurba_marseille","lat":43.313291,"lon":5.396838,"is_reserved":false,"is_disabled":false,"rental_uris":{"android":"levelo://app?vid=5595d1f6-720f-4471-9e3d-e0255729bbee","ios":"levelo://app?vid=5595d1f6-720f-4471-9e3d-e0255729bbee"},"vehicle_type_id":"4","last_reported":1707250031,"current_range_meters":31200,"station_id":"ce4bgvp2rcd13ifvqcu0","pricing_plan_id":"free"},{"bike_id":"6d436c31-e76c-4d61-9de3-9549ec74cb3f","system_id":"levelo_inurba_marseille","lat":43.31323,"lon":5.39701,"is_reserved":false,"is_disabled":false,"rental_uris":{"android":"levelo://app?vid=6d436c31-e76c-4d61-9de3-9549ec74cb3f","ios":"levelo://app?vid=6d436c31-e76c-4d61-9de3-9549ec74cb3f"},"vehicle_type_id":"4","last_reported":1707250031,"current_range_meters":15200,"station_id":"ce4bgvp2rcd13ifvqcu0","pricing_plan_id":"free"},{"bike_id":"a2f19b43-ef45-4787-aaba-5f75bd52f6d7","system_id":"levelo_inurba_marseille","lat":43.309038,"lon":5.396546,"is_reserved":false,"is_disabled":false,"rental_uris":{"android":"levelo://app?vid=a2f19b43-ef45-4787-aaba-5f75bd52f6d7","ios":"levelo://app?vid=a2f19b43-ef45-4787-aaba-5f75bd52f6d7"},"vehicle_type_id":"4","last_reported":1707250031,"current_range_meters":9200,"station_id":"ce4bh012rcd13ifvqcv0","pricing_plan_id":"free"},{"bike_id":"0c7b6894-87eb-443c-9da3-dc9be332ca2d","system_id":"levelo_inurba_marseille","lat":43.313291,"lon":5.396838,"is_reserved":false,"is_disabled":false,"rental_uris":{"android":"levelo://app?vid=0c7b6894-87eb-443c-9da3-dc9be332ca2d","ios":"levelo://app?vid=0c7b6894-87eb-443c-9da3-dc9be332ca2d"},"vehicle_type_id":"4","last_reported":1707250031,"current_range_meters":31600,"station_id":"ce4bgvp2rcd13ifvqcu0","pricing_plan_id":"free"},{"bike_id":"23da3993-b5bc-47e8-9bc5-72c2327f71a2","system_id":"levelo_inurba_marseille","lat":43.30886,"lon":5.39658,"is_reserved":false,"is_disabled":false,"rental_uris":{"android":"levelo://app?vid=23da3993-b5bc-47e8-9bc5-72c2327f71a2","ios":"levelo://app?vid=23da3993-b5bc-47e8-9bc5-72c2327f71a2"},"vehicle_type_id":"4","last_reported":1707250031,"current_range_meters":23600,"station_id":"","pricing_plan_id":"free"},{"bike_id":"a6509c96-19a6-4859-af4b-1a5ab9e55e3d","system_id":"levelo_inurba_marseille","lat":43.313291,"lon":5.396838,"is_reserved":false,"is_disabled":false,"rental_uris":{"android":"levelo://app?vid=a6509c96-19a6-4859-af4b-1a5ab9e55e3d","ios":"levelo://app?vid=a6509c96-19a6-4859-af4b-1a5ab9e55e3d"},"vehicle_type_id":"4","last_reported":1707250031,"current_range_meters":28000,"station_id":"ce4bgvp2rcd13ifvqcu0","pricing_plan_id":"free"},{"bike_id":"06a02e9a-9be8-403a-ab79-36f36098c52c","system_id":"levelo_inurba_marseille","lat":43.309038,"lon":5.396546,"is_reserved":false,"is_disabled":false,"rental_uris":{"android":"levelo://app?vid=06a02e9a-9be8-403a-ab79-36f36098c52c","ios":"levelo://app?vid=06a02e9a-9be8-403a-ab79-36f36098c52c"},"vehicle_type_id":"4","last_reported":1707250031,"current_range_meters":22800,"station_id":"ce4bh012rcd13ifvqcv0","pricing_plan_id":"free"},{"bike_id":"3a036673-5837-48a2-997a-e936a102cb56","system_id":"levelo_inurba_marseille","lat":43.309038,"lon":5.396546,"is_reserved":false,"is_disabled":false,"rental_uris":{"android":"levelo://app?vid=3a036673-5837-48a2-997a-e936a102cb56","ios":"levelo://app?vid=3a036673-5837-48a2-997a-e936a102cb56"},"vehicle_type_id":"4","last_reported":1707250031,"current_range_meters":16000,"station_id":"ce4bh012rcd13ifvqcv0","pricing_plan_id":"free"},{"bike_id":"7bb681e4-518b-4ffe-95f2-0a2ea18aaec8","system_id":"levelo_inurba_marseille","lat":43.295297,"lon":5.385447,"is_reserved":false,"is_disabled":false,"rental_uris":{"android":"levelo://app?vid=7bb681e4-518b-4ffe-95f2-0a2ea18aaec8","ios":"levelo://app?vid=7bb681e4-518b-4ffe-95f2-0a2ea18aaec8"},"vehicle_type_id":"4","last_reported":1707250031,"current_range_meters":12800,"station_id":"ce4bgih2rcd13ifvqba0","pricing_plan_id":"free"},{"bike_id":"f41cc664-878c-4d19-bcb5-df7466ec8a64","system_id":"levelo_inurba_marseille","lat":43.290779,"lon":5.371482,"is_reserved":false,"is_disabled":false,"rental_uris":{"android":"levelo://app?vid=f41cc664-878c-4d19-bcb5-df7466ec8a64","ios":"levelo://app?vid=f41cc664-878c-4d19-bcb5-df7466ec8a64"},"vehicle_type_id":"4","last_reported":1707250031,"current_range_meters":12000,"station_id":"ce4bh5p2rcd13ifvqe4g","pricing_plan_id":"free"},{"bike_id":"17f9ff87-0b77-4bac-8f46-35880cf4a433","system_id":"levelo_inurba_marseille","lat":43.290779,"lon":5.371482,"is_reserved":false,"is_disabled":false,"rental_uris":{"android":"levelo://app?vid=17f9ff87-0b77-4bac-8f46-35880cf4a433","ios":"levelo://app?vid=17f9ff87-0b77-4bac-8f46-35880cf4a433"},"vehicle_type_id":"4","last_reported":1707250031,"current_range_meters":0,"station_id":"ce4bh5p2rcd13ifvqe4g","pricing_plan_id":"free"},{"bike_id":"79a58a09-dfa1-4255-8d58-d53efb1f4792","system_id":"levelo_inurba_marseille","lat":43.290779,"lon":5.371482,"is_reserved":false,"is_disabled":false,"rental_uris":{"android":"levelo://app?vid=79a58a09-dfa1-4255-8d58-d53efb1f4792","ios":"levelo://app?vid=79a58a09-dfa1-4255-8d58-d53efb1f4792"},"vehicle_type_id":"4","last_reported":1707250031,"current_range_meters":12000,"station_id":"ce4bh5p2rcd13ifvqe4g","pricing_plan_id":"free"},{"bike_id":"defebe0f-b20e-4141-a25b-6ff83bee4eaf","system_id":"levelo_inurba_marseille","lat":43.284534,"lon":5.358662,"is_reserved":false,"is_disabled":false,"rental_uris":{"android":"levelo://app?vid=defebe0f-b20e-4141-a25b-6ff83bee4eaf","ios":"levelo://app?vid=defebe0f-b20e-4141-a25b-6ff83bee4eaf"},"vehicle_type_id":"4","last_reported":1707250031,"current_range_meters":6400,"station_id":"ce4bhah2rcd13ifvqei0","pricing_plan_id":"free"},{"bike_id":"111f53d4-bc53-48b5-9229-64748f31ee1c","system_id":"levelo_inurba_marseille","lat":43.302008,"lon":5.394694,"is_reserved":false,"is_disabled":false,"rental_uris":{"android":"levelo://app?vid=111f53d4-bc53-48b5-9229-64748f31ee1c","ios":"levelo://app?vid=111f53d4-bc53-48b5-9229-64748f31ee1c"},"vehicle_type_id":"4","last_reported":1707250031,"current_range_meters":1600,"station_id":"ce4bh0p2rcd13ifvqd70","pricing_plan_id":"free"},{"bike_id":"84bfd43e-983d-4c1d-8cc6-927513a83511","system_id":"levelo_inurba_marseille","lat":43.290624,"lon":5.359245,"is_reserved":false,"is_disabled":false,"rental_uris":{"android":"levelo://app?vid=84bfd43e-983d-4c1d-8cc6-927513a83511","ios":"levelo://app?vid=84bfd43e-983d-4c1d-8cc6-927513a83511"},"vehicle_type_id":"4","last_reported":1707250031,"current_range_meters":25600,"station_id":"ce4bha92rcd13ifvqeg0","pricing_plan_id":"free"},{"bike_id":"c5d3876e-d3be-41b9-a103-f444d10a7cf6","system_id":"levelo_inurba_marseille","lat":43.302008,"lon":5.394694,"is_reserved":false,"is_disabled":false,"rental_uris":{"android":"levelo://app?vid=c5d3876e-d3be-41b9-a103-f444d10a7cf6","ios":"levelo://app?vid=c5d3876e-d3be-41b9-a103-f444d10a7cf6"},"vehicle_type_id":"4","last_reported":1707250031,"current_range_meters":20000,"station_id":"ce4bh0p2rcd13ifvqd70","pricing_plan_id":"free"},{"bike_id":"d121a669-59c1-436a-bdf3-5f745c0bad8a","system_id":"levelo_inurba_marseille","lat":43.313291,"lon":5.396838,"is_reserved":false,"is_disabled":false,"rental_uris":{"android":"levelo://app?vid=d121a669-59c1-436a-bdf3-5f745c0bad8a","ios":"levelo://app?vid=d121a669-59c1-436a-bdf3-5f745c0bad8a"},"vehicle_type_id":"4","last_reported":1707250031,"current_range_meters":12800,"station_id":"ce4bgvp2rcd13ifvqcu0","pricing_plan_id":"free"},{"bike_id":"5df12e7f-0e4e-416f-8a8a-457d67375289","system_id":"levelo_inurba_marseille","lat":43.29065,"lon":5.37568,"is_reserved":false,"is_disabled":false,"rental_uris":{"android":"levelo://app?vid=5df12e7f-0e4e-416f-8a8a-457d67375289","ios":"levelo://app?vid=5df12e7f-0e4e-416f-8a8a-457d67375289"},"vehicle_type_id":"4","last_reported":1707250031,"current_range_meters":21600,"station_id":"ce4bh692rcd13ifvqe90","pricing_plan_id":"free"},{"bike_id":"5941d9db-b7e6-4020-9c6e-a71b565fe7c4","system_id":"levelo_inurba_marseille","lat":43.290624,"lon":5.359245,"is_reserved":false,"is_disabled":false,"rental_uris":{"android":"levelo://app?vid=5941d9db-b7e6-4020-9c6e-a71b565fe7c4","ios":"levelo://app?vid=5941d9db-b7e6-4020-9c6e-a71b565fe7c4"},"vehicle_type_id":"4","last_reported":1707250031,"current_range_meters":14000,"station_id":"ce4bha92rcd13ifvqeg0","pricing_plan_id":"free"},{"bike_id":"eaca481f-9b45-41a4-8a82-5915fbf55779","system_id":"levelo_inurba_marseille","lat":43.287184,"lon":5.37937,"is_reserved":false,"is_disabled":false,"rental_uris":{"android":"levelo://app?vid=eaca481f-9b45-41a4-8a82-5915fbf55779","ios":"levelo://app?vid=eaca481f-9b45-41a4-8a82-5915fbf55779"},"vehicle_type_id":"4","last_reported":1707250031,"current_range_meters":6000,"station_id":"ce4bh9p2rcd13ifvqec0","pricing_plan_id":"free"},{"bike_id":"49243288-3759-4b8d-b794-16b7b297cfc2","system_id":"levelo_inurba_marseille","lat":43.289184,"lon":5.366408,"is_reserved":false,"is_disabled":false,"rental_uris":{"android":"levelo://app?vid=49243288-3759-4b8d-b794-16b7b297cfc2","ios":"levelo://app?vid=49243288-3759-4b8d-b794-16b7b297cfc2"},"vehicle_type_id":"4","last_reported":1707250031,"current_range_meters":0,"station_id":"ce4bhap2rcd13ifvqek0","pricing_plan_id":"free"},{"bike_id":"d56cfeb2-2fb4-432a-91e3-571628c6f3ca","system_id":"levelo_inurba_marseille","lat":43.294153,"lon":5.386305,"is_reserved":false,"is_disabled":false,"rental_uris":{"android":"levelo://app?vid=d56cfeb2-2fb4-432a-91e3-571628c6f3ca","ios":"levelo://app?vid=d56cfeb2-2fb4-432a-91e3-571628c6f3ca"},"vehicle_type_id":"4","last_reported":1707250031,"current_range_meters":8000,"station_id":"ce4bh2h2rcd13ifvqdh0","pricing_plan_id":"free"},{"bike_id":"de8c70d6-5b4d-445c-926e-e39a64e45ff9","system_id":"levelo_inurba_marseille","lat":43.289184,"lon":5.366408,"is_reserved":false,"is_disabled":false,"rental_uris":{"android":"levelo://app?vid=de8c70d6-5b4d-445c-926e-e39a64e45ff9","ios":"levelo://app?vid=de8c70d6-5b4d-445c-926e-e39a64e45ff9"},"vehicle_type_id":"4","last_reported":1707250031,"current_range_meters":17600,"station_id":"ce4bhap2rcd13ifvqek0","pricing_plan_id":"free"},{"bike_id":"33c4be8f-4724-47ef-974e-d4fed283aef9","system_id":"levelo_inurba_marseille","lat":43.294153,"lon":5.386305,"is_reserved":false,"is_disabled":false,"rental_uris":{"android":"levelo://app?vid=33c4be8f-4724-47ef-974e-d4fed283aef9","ios":"levelo://app?vid=33c4be8f-4724-47ef-974e-d4fed283aef9"},"vehicle_type_id":"4","last_reported":1707250031,"current_range_meters":1600,"station_id":"ce4bh2h2rcd13ifvqdh0","pricing_plan_id":"free"},{"bike_id":"c8410599-b0b5-4cf8-8f43-935fd0257d36","system_id":"levelo_inurba_marseille","lat":43.294153,"lon":5.386305,"is_reserved":false,"is_disabled":false,"rental_uris":{"android":"levelo://app?vid=c8410599-b0b5-4cf8-8f43-935fd0257d36","ios":"levelo://app?vid=c8410599-b0b5-4cf8-8f43-935fd0257d36"},"vehicle_type_id":"4","last_reported":1707250031,"current_range_meters":21600,"station_id":"ce4bh2h2rcd13ifvqdh0","pricing_plan_id":"free"},{"bike_id":"5c5c4e5b-5912-4209-a66d-1b2f4e3dc98e","system_id":"levelo_inurba_marseille","lat":43.294162,"lon":5.386292,"is_reserved":false,"is_disabled":false,"rental_uris":{"android":"levelo://app?vid=5c5c4e5b-5912-4209-a66d-1b2f4e3dc98e","ios":"levelo://app?vid=5c5c4e5b-5912-4209-a66d-1b2f4e3dc98e"},"vehicle_type_id":"4","last_reported":1707250031,"current_range_meters":19600,"station_id":"ce4bh2h2rcd13ifvqdh0","pricing_plan_id":"free"},{"bike_id":"b5b2de65-5815-4633-b284-c87d37dd8767","system_id":"levelo_inurba_marseille","lat":43.294162,"lon":5.386292,"is_reserved":false,"is_disabled":false,"rental_uris":{"android":"levelo://app?vid=b5b2de65-5815-4633-b284-c87d37dd8767","ios":"levelo://app?vid=b5b2de65-5815-4633-b284-c87d37dd8767"},"vehicle_type_id":"4","last_reported":1707250031,"current_range_meters":20000,"station_id":"ce4bh2h2rcd13ifvqdh0","pricing_plan_id":"free"},{"bike_id":"36ab7fc1-c098-4799-9da9-5fc9ce8566f6","system_id":"levelo_inurba_marseille","lat":43.294162,"lon":5.386292,"is_reserved":false,"is_disabled":false,"rental_uris":{"android":"levelo://app?vid=36ab7fc1-c098-4799-9da9-5fc9ce8566f6","ios":"levelo://app?vid=36ab7fc1-c098-4799-9da9-5fc9ce8566f6"},"vehicle_type_id":"4","last_reported":1707250031,"current_range_meters":0,"station_id":"ce4bh2h2rcd13ifvqdh0","pricing_plan_id":"free"},{"bike_id":"1b8862f7-e38d-463d-9d00-fc56947d9974","system_id":"levelo_inurba_marseille","lat":43.289468,"lon":5.363719,"is_reserved":false,"is_disabled":false,"rental_uris":{"android":"levelo://app?vid=1b8862f7-e38d-463d-9d00-fc56947d9974","ios":"levelo://app?vid=1b8862f7-e38d-463d-9d00-fc56947d9974"},"vehicle_type_id":"4","last_reported":1707250031,"current_range_meters":4800,"station_id":"ce4bhc92rcd13ifvqetg","pricing_plan_id":"free"},{"bike_id":"87e4e996-dcd8-4f5d-b3ef-c9a5217a5234","system_id":"levelo_inurba_marseille","lat":43.289184,"lon":5.366408,"is_reserved":false,"is_disabled":false,"rental_uris":{"android":"levelo://app?vid=87e4e996-dcd8-4f5d-b3ef-c9a5217a5234","ios":"levelo://app?vid=87e4e996-dcd8-4f5d-b3ef-c9a5217a5234"},"vehicle_type_id":"4","last_reported":1707250031,"current_range_meters":0,"station_id":"ce4bhap2rcd13ifvqek0","pricing_plan_id":"free"},{"bike_id":"b991dd4f-3201-47e5-80c8-2807f1a68ef3","system_id":"levelo_inurba_marseille","lat":43.289184,"lon":5.366408,"is_reserved":false,"is_disabled":false,"rental_uris":{"android":"levelo://app?vid=b991dd4f-3201-47e5-80c8-2807f1a68ef3","ios":"levelo://app?vid=b991dd4f-3201-47e5-80c8-2807f1a68ef3"},"vehicle_type_id":"4","last_reported":1707250031,"current_range_meters":31200,"station_id":"ce4bhap2rcd13ifvqek0","pricing_plan_id":"free"},{"bike_id":"f456d5dc-1f32-4ce0-bf68-a528ac033512","system_id":"levelo_inurba_marseille","lat":43.289184,"lon":5.366408,"is_reserved":false,"is_disabled":false,"rental_uris":{"android":"levelo://app?vid=f456d5dc-1f32-4ce0-bf68-a528ac033512","ios":"levelo://app?vid=f456d5dc-1f32-4ce0-bf68-a528ac033512"},"vehicle_type_id":"4","last_reported":1707250031,"current_range_meters":7600,"station_id":"ce4bhap2rcd13ifvqek0","pricing_plan_id":"free"},{"bike_id":"d1921a25-4a5c-41ec-8db9-23330f2618d2","system_id":"levelo_inurba_marseille","lat":43.289184,"lon":5.366408,"is_reserved":false,"is_disabled":false,"rental_uris":{"android":"levelo://app?vid=d1921a25-4a5c-41ec-8db9-23330f2618d2","ios":"levelo://app?vid=d1921a25-4a5c-41ec-8db9-23330f2618d2"},"vehicle_type_id":"4","last_reported":1707250031,"current_range_meters":12000,"station_id":"ce4bhap2rcd13ifvqek0","pricing_plan_id":"free"},{"bike_id":"87c2f659-35af-42a6-88bf-28922e57d45e","system_id":"levelo_inurba_marseille","lat":43.289184,"lon":5.366408,"is_reserved":false,"is_disabled":false,"rental_uris":{"android":"levelo://app?vid=87c2f659-35af-42a6-88bf-28922e57d45e","ios":"levelo://app?vid=87c2f659-35af-42a6-88bf-28922e57d45e"},"vehicle_type_id":"4","last_reported":1707250031,"current_range_meters":17200,"station_id":"ce4bhap2rcd13ifvqek0","pricing_plan_id":"free"},{"bike_id":"7dae3824-b781-4a9c-999e-c82bb17eb7cb","system_id":"levelo_inurba_marseille","lat":43.28933,"lon":5.36634,"is_reserved":false,"is_disabled":false,"rental_uris":{"android":"levelo://app?vid=7dae3824-b781-4a9c-999e-c82bb17eb7cb","ios":"levelo://app?vid=7dae3824-b781-4a9c-999e-c82bb17eb7cb"},"vehicle_type_id":"4","last_reported":1707250031,"current_range_meters":2400,"station_id":"ce4bhap2rcd13ifvqek0","pricing_plan_id":"free"},{"bike_id":"c33b6452-daf1-4b96-b38f-b510fbf415d0","system_id":"levelo_inurba_marseille","lat":43.289184,"lon":5.366408,"is_reserved":false,"is_disabled":false,"rental_uris":{"android":"levelo://app?vid=c33b6452-daf1-4b96-b38f-b510fbf415d0","ios":"levelo://app?vid=c33b6452-daf1-4b96-b38f-b510fbf415d0"},"vehicle_type_id":"4","last_reported":1707250031,"current_range_meters":13600,"station_id":"ce4bhap2rcd13ifvqek0","pricing_plan_id":"free"},{"bike_id":"63a927a1-ddfa-4193-8ff4-a8d4900208d2","system_id":"levelo_inurba_marseille","lat":43.289468,"lon":5.363719,"is_reserved":false,"is_disabled":false,"rental_uris":{"android":"levelo://app?vid=63a927a1-ddfa-4193-8ff4-a8d4900208d2","ios":"levelo://app?vid=63a927a1-ddfa-4193-8ff4-a8d4900208d2"},"vehicle_type_id":"4","last_reported":1707250031,"current_range_meters":16000,"station_id":"ce4bhc92rcd13ifvqetg","pricing_plan_id":"free"},{"bike_id":"a9ec4cde-e9fa-41ef-a895-a50cbb532272","system_id":"levelo_inurba_marseille","lat":43.289468,"lon":5.363719,"is_reserved":false,"is_disabled":false,"rental_uris":{"android":"levelo://app?vid=a9ec4cde-e9fa-41ef-a895-a50cbb532272","ios":"levelo://app?vid=a9ec4cde-e9fa-41ef-a895-a50cbb532272"},"vehicle_type_id":"4","last_reported":1707250031,"current_range_meters":10000,"station_id":"ce4bhc92rcd13ifvqetg","pricing_plan_id":"free"},{"bike_id":"2d033236-cb24-406d-bf1b-bfe33d1c4487","system_id":"levelo_inurba_marseille","lat":43.292642,"lon":5.384254,"is_reserved":false,"is_disabled":false,"rental_uris":{"android":"levelo://app?vid=2d033236-cb24-406d-bf1b-bfe33d1c4487","ios":"levelo://app?vid=2d033236-cb24-406d-bf1b-bfe33d1c4487"},"vehicle_type_id":"4","last_reported":1707250031,"current_range_meters":0,"station_id":"ce4bh692rcd13ifvqea0","pricing_plan_id":"free"},{"bike_id":"9f0de9e9-ae98-4b9f-a4f3-2acc94a17b54","system_id":"levelo_inurba_marseille","lat":43.29267,"lon":5.38443,"is_reserved":false,"is_disabled":false,"rental_uris":{"android":"levelo://app?vid=9f0de9e9-ae98-4b9f-a4f3-2acc94a17b54","ios":"levelo://app?vid=9f0de9e9-ae98-4b9f-a4f3-2acc94a17b54"},"vehicle_type_id":"4","last_reported":1707250031,"current_range_meters":0,"station_id":"ce4bh692rcd13ifvqea0","pricing_plan_id":"free"},{"bike_id":"a5e5e816-1ceb-402a-bf53-9288157e1784","system_id":"levelo_inurba_marseille","lat":43.304274,"lon":5.397513,"is_reserved":false,"is_disabled":false,"rental_uris":{"android":"levelo://app?vid=a5e5e816-1ceb-402a-bf53-9288157e1784","ios":"levelo://app?vid=a5e5e816-1ceb-402a-bf53-9288157e1784"},"vehicle_type_id":"4","last_reported":1707250031,"current_range_meters":8800,"station_id":"ce4bh092rcd13ifvqd20","pricing_plan_id":"free"},{"bike_id":"0b161dd6-c3e8-4ab8-b745-eb97961921c4","system_id":"levelo_inurba_marseille","lat":43.29252,"lon":5.38445,"is_reserved":false,"is_disabled":false,"rental_uris":{"android":"levelo://app?vid=0b161dd6-c3e8-4ab8-b745-eb97961921c4","ios":"levelo://app?vid=0b161dd6-c3e8-4ab8-b745-eb97961921c4"},"vehicle_type_id":"4","last_reported":1707250031,"current_range_meters":0,"station_id":"ce4bh692rcd13ifvqea0","pricing_plan_id":"free"},{"bike_id":"06eff9e9-2bca-42db-ada3-dbd7835d6ef6","system_id":"levelo_inurba_marseille","lat":43.290103,"lon":5.356114,"is_reserved":false,"is_disabled":false,"rental_uris":{"android":"levelo://app?vid=06eff9e9-2bca-42db-ada3-dbd7835d6ef6","ios":"levelo://app?vid=06eff9e9-2bca-42db-ada3-dbd7835d6ef6"},"vehicle_type_id":"4","last_reported":1707250031,"current_range_meters":0,"station_id":"ce4bhb92rcd13ifvqen0","pricing_plan_id":"free"},{"bike_id":"24fa1c46-1560-4830-873d-25eab8dce427","system_id":"levelo_inurba_marseille","lat":43.29006,"lon":5.3561,"is_reserved":false,"is_disabled":false,"rental_uris":{"android":"levelo://app?vid=24fa1c46-1560-4830-873d-25eab8dce427","ios":"levelo://app?vid=24fa1c46-1560-4830-873d-25eab8dce427"},"vehicle_type_id":"4","last_reported":1707250031,"current_range_meters":12000,"station_id":"","pricing_plan_id":"free"},{"bike_id":"b5c14bc8-0bdf-48a6-9a9f-af1b4756e3aa","system_id":"levelo_inurba_marseille","lat":43.297815,"lon":5.393548,"is_reserved":false,"is_disabled":false,"rental_uris":{"android":"levelo://app?vid=b5c14bc8-0bdf-48a6-9a9f-af1b4756e3aa","ios":"levelo://app?vid=b5c14bc8-0bdf-48a6-9a9f-af1b4756e3aa"},"vehicle_type_id":"4","last_reported":1707250031,"current_range_meters":24800,"station_id":"chh1huq6cuj3fo74tm60","pricing_plan_id":"free"},{"bike_id":"28f47d09-9102-4f32-a72f-7594ad9e2229","system_id":"levelo_inurba_marseille","lat":43.29792,"lon":5.39344,"is_reserved":false,"is_disabled":false,"rental_uris":{"android":"levelo://app?vid=28f47d09-9102-4f32-a72f-7594ad9e2229","ios":"levelo://app?vid=28f47d09-9102-4f32-a72f-7594ad9e2229"},"vehicle_type_id":"4","last_reported":1707250031,"current_range_meters":4400,"station_id":"chh1huq6cuj3fo74tm60","pricing_plan_id":"free"},{"bike_id":"62ca35d7-f049-4885-9fd9-beb6af1eb797","system_id":"levelo_inurba_marseille","lat":43.33015,"lon":5.39035,"is_reserved":false,"is_disabled":false,"rental_uris":{"android":"levelo://app?vid=62ca35d7-f049-4885-9fd9-beb6af1eb797","ios":"levelo://app?vid=62ca35d7-f049-4885-9fd9-beb6af1eb797"},"vehicle_type_id":"4","last_reported":1707250031,"current_range_meters":12400,"station_id":"ce4bhr92rcd13ifvqhrg","pricing_plan_id":"free"},{"bike_id":"4271fc19-3ca2-4525-8b14-c5fe5d02ae8a","system_id":"levelo_inurba_marseille","lat":43.29783,"lon":5.39342,"is_reserved":false,"is_disabled":false,"rental_uris":{"android":"levelo://app?vid=4271fc19-3ca2-4525-8b14-c5fe5d02ae8a","ios":"levelo://app?vid=4271fc19-3ca2-4525-8b14-c5fe5d02ae8a"},"vehicle_type_id":"4","last_reported":1707250031,"current_range_meters":31200,"station_id":"chh1huq6cuj3fo74tm60","pricing_plan_id":"free"},{"bike_id":"6cbd78c5-3ed3-48da-8608-75885f5f5545","system_id":"levelo_inurba_marseille","lat":43.295169,"lon":5.390426,"is_reserved":false,"is_disabled":false,"rental_uris":{"android":"levelo://app?vid=6cbd78c5-3ed3-48da-8608-75885f5f5545","ios":"levelo://app?vid=6cbd78c5-3ed3-48da-8608-75885f5f5545"},"vehicle_type_id":"4","last_reported":1707250031,"current_range_meters":10000,"station_id":"ce4bh3p2rcd13ifvqdp0","pricing_plan_id":"free"},{"bike_id":"ba771297-a93d-41f8-8b63-633913ea0d45","system_id":"levelo_inurba_marseille","lat":43.29775,"lon":5.393363,"is_reserved":false,"is_disabled":false,"rental_uris":{"android":"levelo://app?vid=ba771297-a93d-41f8-8b63-633913ea0d45","ios":"levelo://app?vid=ba771297-a93d-41f8-8b63-633913ea0d45"},