{"last_updated":1747253363,"ttl":60,"version":"2.2","data":{"bikes":[{"bike_id":"4802c78f-fcc6-4b39-bc41-d9946f1df67c","system_id":"levelo_inurba_marseille","lat":43.30137,"lon":5.39842,"is_reserved":false,"is_disabled":false,"rental_uris":{"android":"levelo://app?vid=4802c78f-fcc6-4b39-bc41-d9946f1df67c","ios":"levelo://app?vid=4802c78f-fcc6-4b39-bc41-d9946f1df67c"},"vehicle_type_id":"4","last_reported":1747253363,"current_range_meters":2000,"station_id":"ce4bh0h2rcd13ifvqd40","pricing_plan_id":"cebpf4jnsgd1na2vs0mg"},{"bike_id":"6c4ddb88-0413-48a2-8e3c-c2320c9cf555","system_id":"levelo_inurba_marseille","lat":43.29169,"lon":5.37164,"is_reserved":false,"is_disabled":false,"rental_uris":{"android":"levelo://app?vid=6c4ddb88-0413-48a2-8e3c-c2320c9cf555","ios":"levelo://app?vid=6c4ddb88-0413-48a2-8e3c-c2320c9cf555"},"vehicle_type_id":"4","last_reported":1747253363,"current_range_meters":3200,"station_id":"ce4bha92rcd13ifvqeh0","pricing_plan_id":"cebpf4jnsgd1na2vs0mg"},{"bike_id":"3255c134-1f0a-4de5-b001-987aef916fba","system_id":"levelo_inurba_marseille","lat":43.241994,"lon":5.379447,"is_reserved":false,"is_disabled":false,"rental_uris":{"android":"levelo://app?vid=3255c134-1f0a-4de5-b001-987aef916fba","ios":"levelo://app?vid=3255c134-1f0a-4de5-b001-987aef916fba"},"vehicle_type_id":"4","last_reported":1747253363,"current_range_meters":3200,"station_id":"ce4bhnp2rcd13ifvqgvg","pricing_plan_id":"cebpf4jnsgd1na2vs0mg"},{"bike_id":"2ba29694-3755-4249-9b25-2ad9153dcea1","system_id":"levelo_inurba_marseille","lat":43.30887,"lon":5.39655,"is_reserved":false,"is_disabled":false,"rental_uris":{"android":"levelo://app?vid=2ba29694-3755-4249-9b25-2ad9153dcea1","ios":"levelo://app?vid=2ba29694-3755-4249-9b25-2ad9153dcea1"},"vehicle_type_id":"4","last_reported":1747253363,"current_range_meters":4000,"station_id":"ce4bh012rcd13ifvqcv0","pricing_plan_id":"cebpf4jnsgd1na2vs0mg"},{"bike_id":"2eda368b-cb36-420c-999e-4dc42ed019ef","system_id":"levelo_inurba_marseille","lat":43.30425,"lon":5.39742,"is_reserved":false,"is_disabled":false,"rental_uris":{"android":"levelo://app?vid=2eda368b-cb36-420c-999e-4dc42ed019ef","ios":"levelo://app?vid=2eda368b-cb36-420c-999e-4dc42ed019ef"},"vehicle_type_id":"4","last_reported":1747253363,"current_range_meters":3200,"station_id":"ce4bh092rcd13ifvqd20","pricing_plan_id":"cebpf4jnsgd1na2vs0mg"},{"bike_id":"4c5734c3-cdea-4ce7-85a2-825c2ebd7698","system_id":"levelo_inurba_marseille","lat":43.29709,"lon":5.36581,"is_reserved":false,"is_disabled":false,"rental_uris":{"android":"levelo://app?vid=4c5734c3-cdea-4ce7-85a2-825c2ebd7698","ios":"levelo://app?vid=4c5734c3-cdea-4ce7-85a2-825c2ebd7698"},"vehicle_type_id":"4","last_reported":1747253363,"current_range_meters":4000,"station_id":"ce4bgn12rcd13ifvqbt0","pricing_plan_id":"cebpf4jnsgd1na2vs0mg"},{"bike_id":"95b9651b-24ca-40ef-a319-3d06e507e536","system_id":"levelo_inurba_marseille","lat":43.312058,"lon":5.389601,"is_reserved":false,"is_disabled":false,"rental_uris":{"android":"levelo://app?vid=95b9651b-24ca-40ef-a319-3d06e507e536","ios":"levelo://app?vid=95b9651b-24ca-40ef-a319-3d06e507e536"},"vehicle_type_id":"4","last_reported":1747253363,"current_range_meters":4000,"station_id":"","pricing_plan_id":"cebpf4jnsgd1na2vs0mg"},{"bike_id":"11053c3d-07a0-4f2d-8fbf-7a14d4e23eec","system_id":"levelo_inurba_marseille","lat":43.23954,"lon":5.36644,"is_reserved":false,"is_disabled":false,"rental_uris":{"android":"levelo://app?vid=11053c3d-07a0-4f2d-8fbf-7a14d4e23eec","ios":"levelo://app?vid=11053c3d-07a0-4f2d-8fbf-7a14d4e23eec"},"vehicle_type_id":"4","last_reported":1747253363,"current_range_meters":3600,"station_id":"ce4bhi12rcd13ifvqfp0","pricing_plan_id":"cebpf4jnsgd1na2vs0mg"},{"bike_id":"43226f5c-de25-4868-bf30-430842c0cd22","system_id":"levelo_inurba_marseille","lat":43.30647,"lon":5.40095,"is_reserved":false,"is_disabled":false,"rental_uris":{"android":"levelo://app?vid=43226f5c-de25-4868-bf30-430842c0cd22","ios":"levelo://app?vid=43226f5c-de25-4868-bf30-430842c0cd22"},"vehicle_type_id":"4","last_reported":1747253363,"current_range_meters":4000,"station_id":"ce4bh112rcd13ifvqda0","pricing_plan_id":"cebpf4jnsgd1na2vs0mg"},{"bike_id":"235219a1-1f20-46cf-aafd-4ba31203671a","system_id":"levelo_inurba_marseille","lat":43.28618,"lon":5.35104,"is_reserved":false,"is_disabled":false,"rental_uris":{"android":"levelo://app?vid=235219a1-1f20-46cf-aafd-4ba31203671a","ios":"levelo://app?vid=235219a1-1f20-46cf-aafd-4ba31203671a"},"vehicle_type_id":"4","last_reported":1747253363,"current_range_meters":4400,"station_id":"ce4bhch2rcd13ifvqeug","pricing_plan_id":"cebpf4jnsgd1na2vs0mg"},{"bike_id":"1dba6c1a-2c9d-4f89-a3d0-c80470f3be70","system_id":"levelo_inurba_marseille","lat":43.32332,"lon":5.40619,"is_reserved":false,"is_disabled":false,"rental_uris":{"android":"levelo://app?vid=1dba6c1a-2c9d-4f89-a3d0-c80470f3be70","ios":"levelo://app?vid=1dba6c1a-2c9d-4f89-a3d0-c80470f3be70"},"vehicle_type_id":"4","last_reported":1747253363,"current_range_meters":4400,"station_id":"ce4bhq92rcd13ifvqhjg","pricing_plan_id":"cebpf4jnsgd1na2vs0mg"},{"bike_id":"dcc1a9b4-3a5d-4b06-9a1f-4153e388d53c","system_id":"levelo_inurba_marseille","lat":43.29438,"lon":5.39756,"is_reserved":false,"is_disabled":false,"rental_uris":{"android":"levelo://app?vid=dcc1a9b4-3a5d-4b06-9a1f-4153e388d53c","ios":"levelo://app?vid=dcc1a9b4-3a5d-4b06-9a1f-4153e388d53c"},"vehicle_type_id":"4","last_reported":1747253363,"current_range_meters":4400,"station_id":"ce4bh3h2rcd13ifvqdo0","pricing_plan_id":"cebpf4jnsgd1na2vs0mg"},{"bike_id":"7937d4a2-ab9c-468c-b937-a82be3b221b8","system_id":"levelo_inurba_marseille","lat":43.28455,"lon":5.35889,"is_reserved":false,"is_disabled":false,"rental_uris":{"android":"levelo://app?vid=7937d4a2-ab9c-468c-b937-a82be3b221b8","ios":"levelo://app?vid=7937d4a2-ab9c-468c-b937-a82be3b221b8"},"vehicle_type_id":"4","last_reported":1747253363,"current_range_meters":4400,"station_id":"ce4bhah2rcd13ifvqei0","pricing_plan_id":"cebpf4jnsgd1na2vs0mg"},{"bike_id":"74a7f466-f2f3-4927-838f-4b81a6d7d9f4","system_id":"levelo_inurba_marseille","lat":43.31063,"lon":5.383443,"is_reserved":false,"is_disabled":false,"rental_uris":{"android":"levelo://app?vid=74a7f466-f2f3-4927-838f-4b81a6d7d9f4","ios":"levelo://app?vid=74a7f466-f2f3-4927-838f-4b81a6d7d9f4"},"vehicle_type_id":"4","last_reported":1747253363,"current_range_meters":4400,"station_id":"ce4bgv92rcd13ifvqcr0","pricing_plan_id":"cebpf4jnsgd1na2vs0mg"},{"bike_id":"893cee9f-22ed-4823-82b3-4da288b81784","system_id":"levelo_inurba_marseille","lat":43.30581,"lon":5.393576,"is_reserved":false,"is_disabled":false,"rental_uris":{"android":"levelo://app?vid=893cee9f-22ed-4823-82b3-4da288b81784","ios":"levelo://app?vid=893cee9f-22ed-4823-82b3-4da288b81784"},"vehicle_type_id":"4","last_reported":1747253363,"current_range_meters":5600,"station_id":"","pricing_plan_id":"cebpf4jnsgd1na2vs0mg"},{"bike_id":"ce4325af-2448-4172-bdec-81d552ee0b62","system_id":"levelo_inurba_marseille","lat":43.261704,"lon":5.420203,"is_reserved":false,"is_disabled":false,"rental_uris":{"android":"levelo://app?vid=ce4325af-2448-4172-bdec-81d552ee0b62","ios":"levelo://app?vid=ce4325af-2448-4172-bdec-81d552ee0b62"},"vehicle_type_id":"4","last_reported":1747253363,"current_range_meters":4800,"station_id":"","pricing_plan_id":"cebpf4jnsgd1na2vs0mg"},{"bike_id":"96d0275a-ccec-4de6-ad25-67ea77d4c332","system_id":"levelo_inurba_marseille","lat":43.297474,"lon":5.400498,"is_reserved":false,"is_disabled":false,"rental_uris":{"android":"levelo://app?vid=96d0275a-ccec-4de6-ad25-67ea77d4c332","ios":"levelo://app?vid=96d0275a-ccec-4de6-ad25-67ea77d4c332"},"vehicle_type_id":"4","last_reported":1747253363,"current_range_meters":4800,"station_id":"","pricing_plan_id":"cebpf4jnsgd1na2vs0mg"},{"bike_id":"d8724a0a-ebf4-4fbb-ad96-08d5730a62fa","system_id":"levelo_inurba_marseille","lat":43.30922,"lon":5.40155,"is_reserved":false,"is_disabled":false,"rental_uris":{"android":"levelo://app?vid=d8724a0a-ebf4-4fbb-ad96-08d5730a62fa","ios":"levelo://app?vid=d8724a0a-ebf4-4fbb-ad96-08d5730a62fa"},"vehicle_type_id":"4","last_reported":1747253363,"current_range_meters":4800,"station_id":"ce4bgvp2rcd13ifvqct0","pricing_plan_id":"cebpf4jnsgd1na2vs0mg"},{"bike_id":"908c2c94-a226-4038-b6ac-5501d970bc47","system_id":"levelo_inurba_marseille","lat":43.28934,"lon":5.36635,"is_reserved":false,"is_disabled":false,"rental_uris":{"android":"levelo://app?vid=908c2c94-a226-4038-b6ac-5501d970bc47","ios":"levelo://app?vid=908c2c94-a226-4038-b6ac-5501d970bc47"},"vehicle_type_id":"4","last_reported":1747253363,"current_range_meters":4800,"station_id":"ce4bhap2rcd13ifvqek0","pricing_plan_id":"cebpf4jnsgd1na2vs0mg"},{"bike_id":"fcc4ef96-c15e-4bef-9606-819e508051db","system_id":"levelo_inurba_marseille","lat":43.26235,"lon":5.42118,"is_reserved":false,"is_disabled":false,"rental_uris":{"android":"levelo://app?vid=fcc4ef96-c15e-4bef-9606-819e508051db","ios":"levelo://app?vid=fcc4ef96-c15e-4bef-9606-819e508051db"},"vehicle_type_id":"4","last_reported":1747253363,"current_range_meters":4800,"station_id":"","pricing_plan_id":"cebpf4jnsgd1na2vs0mg"},{"bike_id":"946e9605-b426-4964-8580-838e60764538","system_id":"levelo_inurba_marseille","lat":43.289307,"lon":5.366335,"is_reserved":false,"is_disabled":false,"rental_uris":{"android":"levelo://app?vid=946e9605-b426-4964-8580-838e60764538","ios":"levelo://app?vid=946e9605-b426-4964-8580-838e60764538"},"vehicle_type_id":"4","last_reported":1747253363,"current_range_meters":4800,"station_id":"ce4bhap2rcd13ifvqek0","pricing_plan_id":"cebpf4jnsgd1na2vs0mg"},{"bike_id":"912bf903-0f2a-432c-bd15-a66ca82953f2","system_id":"levelo_inurba_marseille","lat":43.2954,"lon":5.42307,"is_reserved":false,"is_disabled":true,"rental_uris":{"android":"levelo://app?vid=912bf903-0f2a-432c-bd15-a66ca82953f2","ios":"levelo://app?vid=912bf903-0f2a-432c-bd15-a66ca82953f2"},"vehicle_type_id":"4","last_reported":1747253363,"current_range_meters":4800,"station_id":"ce4bhph2rcd13ifvqhdg","pricing_plan_id":"cebpf4jnsgd1na2vs0mg"},{"bike_id":"06d0d773-cdbd-4d62-992b-81baa39895e7","system_id":"levelo_inurba_marseille","lat":43.26938,"lon":5.40254,"is_reserved":false,"is_disabled":false,"rental_uris":{"android":"levelo://app?vid=06d0d773-cdbd-4d62-992b-81baa39895e7","ios":"levelo://app?vid=06d0d773-cdbd-4d62-992b-81baa39895e7"},"vehicle_type_id":"4","last_reported":1747253363,"current_range_meters":5600,"station_id":"cjm6bp8fraef2m0cb0m0","pricing_plan_id":"cebpf4jnsgd1na2vs0mg"},{"bike_id":"bd712a64-b07a-487b-b522-7c79ec3b3302","system_id":"levelo_inurba_marseille","lat":43.30133,"lon":5.39878,"is_reserved":false,"is_disabled":true,"rental_uris":{"android":"levelo://app?vid=bd712a64-b07a-487b-b522-7c79ec3b3302","ios":"levelo://app?vid=bd712a64-b07a-487b-b522-7c79ec3b3302"},"vehicle_type_id":"4","last_reported":1747253363,"current_range_meters":5600,"station_id":"ce4bh0h2rcd13ifvqd40","pricing_plan_id":"cebpf4jnsgd1na2vs0mg"},{"bike_id":"54507237-3a45-4e7d-9a77-5251d0cf17af","system_id":"levelo_inurba_marseille","lat":43.291,"lon":5.38136,"is_reserved":false,"is_disabled":false,"rental_uris":{"android":"levelo://app?vid=54507237-3a45-4e7d-9a77-5251d0cf17af","ios":"levelo://app?vid=54507237-3a45-4e7d-9a77-5251d0cf17af"},"vehicle_type_id":"4","last_reported":1747253363,"current_range_meters":4800,"station_id":"ce4bh512rcd13ifvqe2g","pricing_plan_id":"cebpf4jnsgd1na2vs0mg"},{"bike_id":"0c52f4bd-7702-46a0-b817-4030742ab690","system_id":"levelo_inurba_marseille","lat":43.26552,"lon":5.37291,"is_reserved":false,"is_disabled":false,"rental_uris":{"android":"levelo://app?vid=0c52f4bd-7702-46a0-b817-4030742ab690","ios":"levelo://app?vid=0c52f4bd-7702-46a0-b817-4030742ab690"},"vehicle_type_id":"4","last_reported":1747253363,"current_range_meters":5600,"station_id":"ce4bhg12rcd13ifvqf70","pricing_plan_id":"cebpf4jnsgd1na2vs0mg"},{"bike_id":"b6089a2b-dc15-42d8-9f03-c16ad6ebeca3","system_id":"levelo_inurba_marseille","lat":43.24169,"lon":5.36406,"is_reserved":false,"is_disabled":false,"rental_uris":{"android":"levelo://app?vid=b6089a2b-dc15-42d8-9f03-c16ad6ebeca3","ios":"levelo://app?vid=b6089a2b-dc15-42d8-9f03-c16ad6ebeca3"},"vehicle_type_id":"4","last_reported":1747253363,"current_range_meters":5600,"station_id":"cpo36qri1sfpv3e86is0","pricing_plan_id":"cebpf4jnsgd1na2vs0mg"},{"bike_id":"5c95ce0c-847b-4b7b-9950-64fda5cb8694","system_id":"levelo_inurba_marseille","lat":43.28952,"lon":5.36636,"is_reserved":false,"is_disabled":false,"rental_uris":{"android":"levelo://app?vid=5c95ce0c-847b-4b7b-9950-64fda5cb8694","ios":"levelo://app?vid=5c95ce0c-847b-4b7b-9950-64fda5cb8694"},"vehicle_type_id":"4","last_reported":1747253363,"current_range_meters":5600,"station_id":"ce4bhap2rcd13ifvqek0","pricing_plan_id":"cebpf4jnsgd1na2vs0mg"},{"bike_id":"d22edc89-d344-47e2-9055-3cafef1e2499","system_id":"levelo_inurba_marseille","lat":43.29299,"lon":5.37179,"is_reserved":false,"is_disabled":false,"rental_uris":{"android":"levelo://app?vid=d22edc89-d344-47e2-9055-3cafef1e2499","ios":"levelo://app?vid=d22edc89-d344-47e2-9055-3cafef1e2499"},"vehicle_type_id":"4","last_reported":1747253363,"current_range_meters":6000,"station_id":"ce4bgh92rcd13ifvqb40","pricing_plan_id":"cebpf4jnsgd1na2vs0mg"},{"bike_id":"75bc4e83-c3de-45ba-95d5-175cdf321809","system_id":"levelo_inurba_marseille","lat":43.27939,"lon":5.41045,"is_reserved":false,"is_disabled":false,"rental_uris":{"android":"levelo://app?vid=75bc4e83-c3de-45ba-95d5-175cdf321809","ios":"levelo://app?vid=75bc4e83-c3de-45ba-95d5-175cdf321809"},"vehicle_type_id":"4","last_reported":1747253363,"current_range_meters":6000,"station_id":"ce4bhnp2rcd13ifvqh0g","pricing_plan_id":"cebpf4jnsgd1na2vs0mg"},{"bike_id":"71f53f4e-f270-4d5b-8c47-a7ec010153cb","system_id":"levelo_inurba_marseille","lat":43.31071,"lon":5.38358,"is_reserved":false,"is_disabled":false,"rental_uris":{"android":"levelo://app?vid=71f53f4e-f270-4d5b-8c47-a7ec010153cb","ios":"levelo://app?vid=71f53f4e-f270-4d5b-8c47-a7ec010153cb"},"vehicle_type_id":"4","last_reported":1747253363,"current_range_meters":6000,"station_id":"ce4bgv92rcd13ifvqcr0","pricing_plan_id":"cebpf4jnsgd1na2vs0mg"},{"bike_id":"1e2dda2a-24e9-4fd6-9fd3-eb9be4fb8ba1","system_id":"levelo_inurba_marseille","lat":43.29927,"lon":5.37476,"is_reserved":false,"is_disabled":false,"rental_uris":{"android":"levelo://app?vid=1e2dda2a-24e9-4fd6-9fd3-eb9be4fb8ba1","ios":"levelo://app?vid=1e2dda2a-24e9-4fd6-9fd3-eb9be4fb8ba1"},"vehicle_type_id":"4","last_reported":1747253363,"current_range_meters":6000,"station_id":"ce4bgjh2rcd13ifvqbg0","pricing_plan_id":"cebpf4jnsgd1na2vs0mg"},{"bike_id":"1ccd8385-e9ed-4de4-8b67-3be0b0b50671","system_id":"levelo_inurba_marseille","lat":43.29301,"lon":5.37455,"is_reserved":false,"is_disabled":false,"rental_uris":{"android":"levelo://app?vid=1ccd8385-e9ed-4de4-8b67-3be0b0b50671","ios":"levelo://app?vid=1ccd8385-e9ed-4de4-8b67-3be0b0b50671"},"vehicle_type_id":"4","last_reported":1747253363,"current_range_meters":6000,"station_id":"ce4bgi12rcd13ifvqb70","pricing_plan_id":"cebpf4jnsgd1na2vs0mg"},{"bike_id":"86fbcffd-6973-4c00-8301-fddcf9386b72","system_id":"levelo_inurba_marseille","lat":43.30795,"lon":5.3816,"is_reserved":false,"is_disabled":false,"rental_uris":{"android":"levelo://app?vid=86fbcffd-6973-4c00-8301-fddcf9386b72","ios":"levelo://app?vid=86fbcffd-6973-4c00-8301-fddcf9386b72"},"vehicle_type_id":"4","last_reported":1747253363,"current_range_meters":6000,"station_id":"ce4bgt12rcd13ifvqce0","pricing_plan_id":"cebpf4jnsgd1na2vs0mg"},{"bike_id":"820781c2-91b3-4296-a92e-b37c784e5d12","system_id":"levelo_inurba_marseille","lat":43.28071,"lon":5.39643,"is_reserved":false,"is_disabled":false,"rental_uris":{"android":"levelo://app?vid=820781c2-91b3-4296-a92e-b37c784e5d12","ios":"levelo://app?vid=820781c2-91b3-4296-a92e-b37c784e5d12"},"vehicle_type_id":"4","last_reported":1747253363,"current_range_meters":6000,"station_id":"ce4bho12rcd13ifvqh2g","pricing_plan_id":"cebpf4jnsgd1na2vs0mg"},{"bike_id":"6953ca09-b1d0-473e-8b94-d568eb1a7f43","system_id":"levelo_inurba_marseille","lat":43.28848,"lon":5.37157,"is_reserved":false,"is_disabled":false,"rental_uris":{"android":"levelo://app?vid=6953ca09-b1d0-473e-8b94-d568eb1a7f43","ios":"levelo://app?vid=6953ca09-b1d0-473e-8b94-d568eb1a7f43"},"vehicle_type_id":"4","last_reported":1747253363,"current_range_meters":6000,"station_id":"","pricing_plan_id":"cebpf4jnsgd1na2vs0mg"},{"bike_id":"73e1ea2d-059d-4f9e-8485-0c0efd62a511","system_id":"levelo_inurba_marseille","lat":43.257193,"lon":5.410843,"is_reserved":false,"is_disabled":false,"rental_uris":{"android":"levelo://app?vid=73e1ea2d-059d-4f9e-8485-0c0efd62a511","ios":"levelo://app?vid=73e1ea2d-059d-4f9e-8485-0c0efd62a511"},"vehicle_type_id":"4","last_reported":1747253363,"current_range_meters":6400,"station_id":"ce4bhkp2rcd13ifvqgd0","pricing_plan_id":"cebpf4jnsgd1na2vs0mg"},{"bike_id":"f37b7848-b34f-4203-8cd6-ee4ac88ff930","system_id":"levelo_inurba_marseille","lat":43.23952,"lon":5.3663,"is_reserved":false,"is_disabled":false,"rental_uris":{"android":"levelo://app?vid=f37b7848-b34f-4203-8cd6-ee4ac88ff930","ios":"levelo://app?vid=f37b7848-b34f-4203-8cd6-ee4ac88ff930"},"vehicle_type_id":"4","last_reported":1747253363,"current_range_meters":6400,"station_id":"ce4bhi12rcd13ifvqfp0","pricing_plan_id":"cebpf4jnsgd1na2vs0mg"},{"bike_id":"bd1b85ba-2131-4296-b35e-fbaaefca32a5","system_id":"levelo_inurba_marseille","lat":43.29229,"lon":5.36062,"is_reserved":false,"is_disabled":false,"rental_uris":{"android":"levelo://app?vid=bd1b85ba-2131-4296-b35e-fbaaefca32a5","ios":"levelo://app?vid=bd1b85ba-2131-4296-b35e-fbaaefca32a5"},"vehicle_type_id":"4","last_reported":1747253363,"current_range_meters":6800,"station_id":"ce4bhbh2rcd13ifvqeqg","pricing_plan_id":"cebpf4jnsgd1na2vs0mg"},{"bike_id":"5de1e8df-cec1-47cf-b554-41f6e726d337","system_id":"levelo_inurba_marseille","lat":43.27407,"lon":5.40618,"is_reserved":false,"is_disabled":false,"rental_uris":{"android":"levelo://app?vid=5de1e8df-cec1-47cf-b554-41f6e726d337","ios":"levelo://app?vid=5de1e8df-cec1-47cf-b554-41f6e726d337"},"vehicle_type_id":"4","last_reported":1747253363,"current_range_meters":6400,"station_id":"","pricing_plan_id":"cebpf4jnsgd1na2vs0mg"},{"bike_id":"0c1cd50b-91d1-4be0-960e-ba5ec2b7a717","system_id":"levelo_inurba_marseille","lat":43.25727,"lon":5.41109,"is_reserved":false,"is_disabled":false,"rental_uris":{"android":"levelo://app?vid=0c1cd50b-91d1-4be0-960e-ba5ec2b7a717","ios":"levelo://app?vid=0c1cd50b-91d1-4be0-960e-ba5ec2b7a717"},"vehicle_type_id":"4","last_reported":1747253363,"current_range_meters":6400,"station_id":"ce4bhkp2rcd13ifvqgd0","pricing_plan_id":"cebpf4jnsgd1na2vs0mg"},{"bike_id":"f872a4c2-1be7-49b4-bb7d-e1f71d921d7b","system_id":"levelo_inurba_marseille","lat":43.23189,"lon":5.39983,"is_reserved":false,"is_disabled":false,"rental_uris":{"android":"levelo://app?vid=f872a4c2-1be7-49b4-bb7d-e1f71d921d7b","ios":"levelo://app?vid=f872a4c2-1be7-49b4-bb7d-e1f71d921d7b"},"vehicle_type_id":"4","last_reported":1747253363,"current_range_meters":4000,"station_id":"ce4bhn12rcd13ifvqgqg","pricing_plan_id":"cebpf4jnsgd1na2vs0mg"},{"bike_id":"215d7f3c-483e-4183-9e63-7b1f5466c693","system_id":"levelo_inurba_marseille","lat":43.31074,"lon":5.38357,"is_reserved":false,"is_disabled":false,"rental_uris":{"android":"levelo://app?vid=215d7f3c-483e-4183-9e63-7b1f5466c693","ios":"levelo://app?vid=215d7f3c-483e-4183-9e63-7b1f5466c693"},"vehicle_type_id":"4","last_reported":1747253363,"current_range_meters":6800,"station_id":"ce4bgv92rcd13ifvqcr0","pricing_plan_id":"cebpf4jnsgd1na2vs0mg"},{"bike_id":"ec076c35-f86e-402a-841e-225ad69c6fd5","system_id":"levelo_inurba_marseille","lat":43.28393,"lon":5.37519,"is_reserved":false,"is_disabled":false,"rental_uris":{"android":"levelo://app?vid=ec076c35-f86e-402a-841e-225ad69c6fd5","ios":"levelo://app?vid=ec076c35-f86e-402a-841e-225ad69c6fd5"},"vehicle_type_id":"4","last_reported":1747253363,"current_range_meters":6800,"station_id":"ce4bh412rcd13ifvqds0","pricing_plan_id":"cebpf4jnsgd1na2vs0mg"},{"bike_id":"0af9ff7d-5806-485b-91bf-c6a989a83460","system_id":"levelo_inurba_marseille","lat":43.28477,"lon":5.38423,"is_reserved":false,"is_disabled":false,"rental_uris":{"android":"levelo://app?vid=0af9ff7d-5806-485b-91bf-c6a989a83460","ios":"levelo://app?vid=0af9ff7d-5806-485b-91bf-c6a989a83460"},"vehicle_type_id":"4","last_reported":1747253363,"current_range_meters":6800,"station_id":"ce4bh512rcd13ifvqe3g","pricing_plan_id":"cebpf4jnsgd1na2vs0mg"},{"bike_id":"55275922-9bd8-409b-b2db-03b34d89ff58","system_id":"levelo_inurba_marseille","lat":43.24807,"lon":5.37459,"is_reserved":false,"is_disabled":false,"rental_uris":{"android":"levelo://app?vid=55275922-9bd8-409b-b2db-03b34d89ff58","ios":"levelo://app?vid=55275922-9bd8-409b-b2db-03b34d89ff58"},"vehicle_type_id":"4","last_reported":1747253363,"current_range_meters":6800,"station_id":"ce4bhgh2rcd13ifvqfb0","pricing_plan_id":"cebpf4jnsgd1na2vs0mg"},{"bike_id":"84904e41-efc3-4415-8eeb-991ab4c4f68f","system_id":"levelo_inurba_marseille","lat":43.28717,"lon":5.37394,"is_reserved":false,"is_disabled":false,"rental_uris":{"android":"levelo://app?vid=84904e41-efc3-4415-8eeb-991ab4c4f68f","ios":"levelo://app?vid=84904e41-efc3-4415-8eeb-991ab4c4f68f"},"vehicle_type_id":"4","last_reported":1747253363,"current_range_meters":6800,"station_id":"ce4bh3p2rcd13ifvqdq0","pricing_plan_id":"cebpf4jnsgd1na2vs0mg"},{"bike_id":"39446fb4-ff6d-46ba-8887-bcab2f9ac2c2","system_id":"levelo_inurba_marseille","lat":43.30346,"lon":5.4044,"is_reserved":false,"is_disabled":false,"rental_uris":{"android":"levelo://app?vid=39446fb4-ff6d-46ba-8887-bcab2f9ac2c2","ios":"levelo://app?vid=39446fb4-ff6d-46ba-8887-bcab2f9ac2c2"},"vehicle_type_id":"4","last_reported":1747253363,"current_range_meters":7200,"station_id":"ce4bh012rcd13ifvqd10","pricing_plan_id":"cebpf4jnsgd1na2vs0mg"},{"bike_id":"c96693b9-a6da-4b6c-9e25-d8c89624b3bd","system_id":"levelo_inurba_marseille","lat":43.27991,"lon":5.41662,"is_reserved":false,"is_disabled":false,"rental_uris":{"android":"levelo://app?vid=c96693b9-a6da-4b6c-9e25-d8c89624b3bd","ios":"levelo://app?vid=c96693b9-a6da-4b6c-9e25-d8c89624b3bd"},"vehicle_type_id":"4","last_reported":1747253363,"current_range_meters":7200,"station_id":"ce4bho12rcd13ifvqh1g","pricing_plan_id":"cebpf4jnsgd1na2vs0mg"},{"bike_id":"8e6d6451-a415-4b2f-bc73-95ffb29ead42","system_id":"levelo_inurba_marseille","lat":43.231906,"lon":5.355531,"is_reserved":false,"is_disabled":true,"rental_uris":{"android":"levelo://app?vid=8e6d6451-a415-4b2f-bc73-95ffb29ead42","ios":"levelo://app?vid=8e6d6451-a415-4b2f-bc73-95ffb29ead42"},"vehicle_type_id":"4","last_reported":1747253363,"current_range_meters":7200,"station_id":"ce4bhu92rcd13ifvqi70","pricing_plan_id":"cebpf4jnsgd1na2vs0mg"},{"bike_id":"f85f0f02-3aed-4e45-ab3a-0ff4cf09e33e","system_id":"levelo_inurba_marseille","lat":43.28347,"lon":5.38102,"is_reserved":false,"is_disabled":false,"rental_uris":{"android":"levelo://app?vid=f85f0f02-3aed-4e45-ab3a-0ff4cf09e33e","ios":"levelo://app?vid=f85f0f02-3aed-4e45-ab3a-0ff4cf09e33e"},"vehicle_type_id":"4","last_reported":1747253363,"current_range_meters":7200,"station_id":"ce4bh412rcd13ifvqdr0","pricing_plan_id":"cebpf4jnsgd1na2vs0mg"},{"bike_id":"48602fb7-0d3e-481a-b9e5-806278971266","system_id":"levelo_inurba_marseille","lat":43.26211,"lon":5.37444,"is_reserved":false,"is_disabled":false,"rental_uris":{"android":"levelo://app?vid=48602fb7-0d3e-481a-b9e5-806278971266","ios":"levelo://app?vid=48602fb7-0d3e-481a-b9e5-806278971266"},"vehicle_type_id":"4","last_reported":1747253363,"current_range_meters":7200,"station_id":"ce4bhgp2rcd13ifvqfc0","pricing_plan_id":"cebpf4jnsgd1na2vs0mg"},{"bike_id":"472dc04a-65b4-495b-a04d-0e53111fbf97","system_id":"levelo_inurba_marseille","lat":43.30731,"lon":5.42451,"is_reserved":false,"is_disabled":false,"rental_uris":{"android":"levelo://app?vid=472dc04a-65b4-495b-a04d-0e53111fbf97","ios":"levelo://app?vid=472dc04a-65b4-495b-a04d-0e53111fbf97"},"vehicle_type_id":"4","last_reported":1747253363,"current_range_meters":7200,"station_id":"st_cvj6ca6bvosntc0bfgr0","pricing_plan_id":"cebpf4jnsgd1na2vs0mg"},{"bike_id":"8cfecad5-6316-48d7-a472-e958d6e9e80d","system_id":"levelo_inurba_marseille","lat":43.24181,"lon":5.39723,"is_reserved":false,"is_disabled":false,"rental_uris":{"android":"levelo://app?vid=8cfecad5-6316-48d7-a472-e958d6e9e80d","ios":"levelo://app?vid=8cfecad5-6316-48d7-a472-e958d6e9e80d"},"vehicle_type_id":"4","last_reported":1747253363,"current_range_meters":7200,"station_id":"ce4bhn12rcd13ifvqgpg","pricing_plan_id":"cebpf4jnsgd1na2vs0mg"},{"bike_id":"50cbd3b4-5e31-49dd-af3e-d6b6df82e7c6","system_id":"levelo_inurba_marseille","lat":43.28448,"lon":5.39201,"is_reserved":false,"is_disabled":false,"rental_uris":{"android":"levelo://app?vid=50cbd3b4-5e31-49dd-af3e-d6b6df82e7c6","ios":"levelo://app?vid=50cbd3b4-5e31-49dd-af3e-d6b6df82e7c6"},"vehicle_type_id":"4","last_reported":1747253363,"current_range_meters":7200,"station_id":"ce4bhoh2rcd13ifvqh5g","pricing_plan_id":"cebpf4jnsgd1na2vs0mg"},{"bike_id":"5571c8a6-80e5-46a1-b70e-3134b17a080d","system_id":"levelo_inurba_marseille","lat":43.2867,"lon":5.38663,"is_reserved":false,"is_disabled":false,"rental_uris":{"android":"levelo://app?vid=5571c8a6-80e5-46a1-b70e-3134b17a080d","ios":"levelo://app?vid=5571c8a6-80e5-46a1-b70e-3134b17a080d"},"vehicle_type_id":"4","last_reported":1747253363,"current_range_meters":7200,"station_id":"ce4bh492rcd13ifvqdug","pricing_plan_id":"cebpf4jnsgd1na2vs0mg"},{"bike_id":"6c5e2750-bf55-4812-bb81-a9df60873a61","system_id":"levelo_inurba_marseille","lat":43.29639,"lon":5.36185,"is_reserved":false,"is_disabled":false,"rental_uris":{"android":"levelo://app?vid=6c5e2750-bf55-4812-bb81-a9df60873a61","ios":"levelo://app?vid=6c5e2750-bf55-4812-bb81-a9df60873a61"},"vehicle_type_id":"4","last_reported":1747253363,"current_range_meters":8000,"station_id":"","pricing_plan_id":"cebpf4jnsgd1na2vs0mg"},{"bike_id":"eb4781fe-bfdf-4eb0-a636-b80a3ec1fe09","system_id":"levelo_inurba_marseille","lat":43.292511,"lon":5.409188,"is_reserved":false,"is_disabled":true,"rental_uris":{"android":"levelo://app?vid=eb4781fe-bfdf-4eb0-a636-b80a3ec1fe09","ios":"levelo://app?vid=eb4781fe-bfdf-4eb0-a636-b80a3ec1fe09"},"vehicle_type_id":"4","last_reported":1747253363,"current_range_meters":8000,"station_id":"ce4bhgp2rcd13ifvqfc0","pricing_plan_id":"cebpf4jnsgd1na2vs0mg"},{"bike_id":"e04d78f4-77a4-48f3-aa92-3bb11cfdd2c7","system_id":"levelo_inurba_marseille","lat":43.30429,"lon":5.38887,"is_reserved":false,"is_disabled":false,"rental_uris":{"android":"levelo://app?vid=e04d78f4-77a4-48f3-aa92-3bb11cfdd2c7","ios":"levelo://app?vid=e04d78f4-77a4-48f3-aa92-3bb11cfdd2c7"},"vehicle_type_id":"4","last_reported":1747253363,"current_range_meters":8000,"station_id":"ce4bgk12rcd13ifvqbi0","pricing_plan_id":"cebpf4jnsgd1na2vs0mg"},{"bike_id":"db0db97c-7c78-4b30-8bea-136791a28f29","system_id":"levelo_inurba_marseille","lat":43.27171,"lon":5.40995,"is_reserved":false,"is_disabled":false,"rental_uris":{"android":"levelo://app?vid=db0db97c-7c78-4b30-8bea-136791a28f29","ios":"levelo://app?vid=db0db97c-7c78-4b30-8bea-136791a28f29"},"vehicle_type_id":"4","last_reported":1747253363,"current_range_meters":8000,"station_id":"ce4bhl12rcd13ifvqgf0","pricing_plan_id":"cebpf4jnsgd1na2vs0mg"},{"bike_id":"aa8db4ff-ac35-4bf2-a9fa-545ce449f88b","system_id":"levelo_inurba_marseille","lat":43.25108,"lon":5.40335,"is_reserved":false,"is_disabled":false,"rental_uris":{"android":"levelo://app?vid=aa8db4ff-ac35-4bf2-a9fa-545ce449f88b","ios":"levelo://app?vid=aa8db4ff-ac35-4bf2-a9fa-545ce449f88b"},"vehicle_type_id":"4","last_reported":1747253363,"current_range_meters":8000,"station_id":"ce4bhlh2rcd13ifvqgig","pricing_plan_id":"cebpf4jnsgd1na2vs0mg"},{"bike_id":"10996585-5abe-4390-acde-d75d8f22d563","system_id":"levelo_inurba_marseille","lat":43.24169,"lon":5.36412,"is_reserved":false,"is_disabled":false,"rental_uris":{"android":"levelo://app?vid=10996585-5abe-4390-acde-d75d8f22d563","ios":"levelo://app?vid=10996585-5abe-4390-acde-d75d8f22d563"},"vehicle_type_id":"4","last_reported":1747253363,"current_range_meters":8000,"station_id":"cpo36qri1sfpv3e86is0","pricing_plan_id":"cebpf4jnsgd1na2vs0mg"},{"bike_id":"1668fff6-b0ac-4bf0-9a6b-0393032efc9f","system_id":"levelo_inurba_marseille","lat":43.26555,"lon":5.39021,"is_reserved":false,"is_disabled":false,"rental_uris":{"android":"levelo://app?vid=1668fff6-b0ac-4bf0-9a6b-0393032efc9f","ios":"levelo://app?vid=1668fff6-b0ac-4bf0-9a6b-0393032efc9f"},"vehicle_type_id":"4","last_reported":1747253363,"current_range_meters":8400,"station_id":"ce4bhe12rcd13ifvqf30","pricing_plan_id":"cebpf4jnsgd1na2vs0mg"},{"bike_id":"f516bdec-657c-46f1-abec-ebfac75025ea","system_id":"levelo_inurba_marseille","lat":43.22901,"lon":5.35425,"is_reserved":false,"is_disabled":false,"rental_uris":{"android":"levelo://app?vid=f516bdec-657c-46f1-abec-ebfac75025ea","ios":"levelo://app?vid=f516bdec-657c-46f1-abec-ebfac75025ea"},"vehicle_type_id":"4","last_reported":1747253363,"current_range_meters":8400,"station_id":"cpo3532slgdg3j2ikp40","pricing_plan_id":"cebpf4jnsgd1na2vs0mg"},{"bike_id":"cff07eda-0d35-48d7-ae3d-eafcd93e64af","system_id":"levelo_inurba_marseille","lat":43.31911,"lon":5.39455,"is_reserved":false,"is_disabled":false,"rental_uris":{"android":"levelo://app?vid=cff07eda-0d35-48d7-ae3d-eafcd93e64af","ios":"levelo://app?vid=cff07eda-0d35-48d7-ae3d-eafcd93e64af"},"vehicle_type_id":"4","last_reported":1747253363,"current_range_meters":8400,"station_id":"","pricing_plan_id":"cebpf4jnsgd1na2vs0mg"},{"bike_id":"7ddd34a0-d984-4dc0-a019-37962a1ca7c6","system_id":"levelo_inurba_marseille","lat":43.25123,"lon":5.40335,"is_reserved":false,"is_disabled":false,"rental_uris":{"android":"levelo://app?vid=7ddd34a0-d984-4dc0-a019-37962a1ca7c6","ios":"levelo://app?vid=7ddd34a0-d984-4dc0-a019-37962a1ca7c6"},"vehicle_type_id":"4","last_reported":1747253363,"current_range_meters":8400,"station_id":"ce4bhlh2rcd13ifvqgig","pricing_plan_id":"cebpf4jnsgd1na2vs0mg"},{"bike_id":"68d33b2b-bc3a-41ca-9b0e-d642174b74f3","system_id":"levelo_inurba_marseille","lat":43.2894,"lon":5.36626,"is_reserved":false,"is_disabled":false,"rental_uris":{"android":"levelo://app?vid=68d33b2b-bc3a-41ca-9b0e-d642174b74f3","ios":"levelo://app?vid=68d33b2b-bc3a-41ca-9b0e-d642174b74f3"},"vehicle_type_id":"4","last_reported":1747253363,"current_range_meters":8400,"station_id":"ce4bhap2rcd13ifvqek0","pricing_plan_id":"cebpf4jnsgd1na2vs0mg"},{"bike_id":"84ee3956-3188-4d27-b737-e165a169133d","system_id":"levelo_inurba_marseille","lat":43.2987,"lon":5.39733,"is_reserved":false,"is_disabled":false,"rental_uris":{"android":"levelo://app?vid=84ee3956-3188-4d27-b737-e165a169133d","ios":"levelo://app?vid=84ee3956-3188-4d27-b737-e165a169133d"},"vehicle_type_id":"4","last_reported":1747253363,"current_range_meters":8400,"station_id":"ce4bh0h2rcd13ifvqd50","pricing_plan_id":"cebpf4jnsgd1na2vs0mg"},{"bike_id":"374ca2b8-a567-4fd7-9e6e-adad3bee711c","system_id":"levelo_inurba_marseille","lat":43.27998,"lon":5.41659,"is_reserved":false,"is_disabled":false,"rental_uris":{"android":"levelo://app?vid=374ca2b8-a567-4fd7-9e6e-adad3bee711c","ios":"levelo://app?vid=374ca2b8-a567-4fd7-9e6e-adad3bee711c"},"vehicle_type_id":"4","last_reported":1747253363,"current_range_meters":8400,"station_id":"ce4bho12rcd13ifvqh1g","pricing_plan_id":"cebpf4jnsgd1na2vs0mg"},{"bike_id":"d2c1d47c-b855-441f-803c-abd860de7f62","system_id":"levelo_inurba_marseille","lat":43.28077,"lon":5.39645,"is_reserved":false,"is_disabled":false,"rental_uris":{"android":"levelo://app?vid=d2c1d47c-b855-441f-803c-abd860de7f62","ios":"levelo://app?vid=d2c1d47c-b855-441f-803c-abd860de7f62"},"vehicle_type_id":"4","last_reported":1747253363,"current_range_meters":8400,"station_id":"ce4bho12rcd13ifvqh2g","pricing_plan_id":"cebpf4jnsgd1na2vs0mg"},{"bike_id":"b87eccec-5d38-487a-8553-c53b0cc4d85a","system_id":"levelo_inurba_marseille","lat":43.28938,"lon":5.36629,"is_reserved":false,"is_disabled":false,"rental_uris":{"android":"levelo://app?vid=b87eccec-5d38-487a-8553-c53b0cc4d85a","ios":"levelo://app?vid=b87eccec-5d38-487a-8553-c53b0cc4d85a"},"vehicle_type_id":"4","last_reported":1747253363,"current_range_meters":8800,"station_id":"ce4bhap2rcd13ifvqek0","pricing_plan_id":"cebpf4jnsgd1na2vs0mg"},{"bike_id":"29f5dfc5-9c18-43f8-881c-e861a55d617c","system_id":"levelo_inurba_marseille","lat":43.26937,"lon":5.40258,"is_reserved":false,"is_disabled":false,"rental_uris":{"android":"levelo://app?vid=29f5dfc5-9c18-43f8-881c-e861a55d617c","ios":"levelo://app?vid=29f5dfc5-9c18-43f8-881c-e861a55d617c"},"vehicle_type_id":"4","last_reported":1747253363,"current_range_meters":8800,"station_id":"cjm6bp8fraef2m0cb0m0","pricing_plan_id":"cebpf4jnsgd1na2vs0mg"},{"bike_id":"bc1be79e-f1ce-4945-950a-c2dec7c9e2b0","system_id":"levelo_inurba_marseille","lat":43.29708,"lon":5.37694,"is_reserved":false,"is_disabled":false,"rental_uris":{"android":"levelo://app?vid=bc1be79e-f1ce-4945-950a-c2dec7c9e2b0","ios":"levelo://app?vid=bc1be79e-f1ce-4945-950a-c2dec7c9e2b0"},"vehicle_type_id":"4","last_reported":1747253363,"current_range_meters":8400,"station_id":"ce4bgkh2rcd13ifvqbl0","pricing_plan_id":"cebpf4jnsgd1na2vs0mg"},{"bike_id":"2560ced1-3aa0-4b19-b9ca-c868822cb11c","system_id":"levelo_inurba_marseille","lat":43.31321,"lon":5.39712,"is_reserved":false,"is_disabled":false,"rental_uris":{"android":"levelo://app?vid=2560ced1-3aa0-4b19-b9ca-c868822cb11c","ios":"levelo://app?vid=2560ced1-3aa0-4b19-b9ca-c868822cb11c"},"vehicle_type_id":"4","last_reported":1747253363,"current_range_meters":8800,"station_id":"ce4bgvp2rcd13ifvqcu0","pricing_plan_id":"cebpf4jnsgd1na2vs0mg"},{"bike_id":"ecca135e-b998-4673-ab43-fe4f0d7ec9fc","system_id":"levelo_inurba_marseille","lat":43.28475,"lon":5.35879,"is_reserved":false,"is_disabled":false,"rental_uris":{"android":"levelo://app?vid=ecca135e-b998-4673-ab43-fe4f0d7ec9fc","ios":"levelo://app?vid=ecca135e-b998-4673-ab43-fe4f0d7ec9fc"},"vehicle_type_id":"4","last_reported":1747253363,"current_range_meters":9200,"station_id":"ce4bhah2rcd13ifvqei0","pricing_plan_id":"cebpf4jnsgd1na2vs0mg"},{"bike_id":"6b480042-59ab-4561-8451-0a9b3a073539","system_id":"levelo_inurba_marseille","lat":43.29537,"lon":5.3855,"is_reserved":false,"is_disabled":false,"rental_uris":{"android":"levelo://app?vid=6b480042-59ab-4561-8451-0a9b3a073539","ios":"levelo://app?vid=6b480042-59ab-4561-8451-0a9b3a073539"},"vehicle_type_id":"4","last_reported":1747253363,"current_range_meters":9200,"station_id":"ce4bgih2rcd13ifvqba0","pricing_plan_id":"cebpf4jnsgd1na2vs0mg"},{"bike_id":"253e4b78-4947-4b21-9463-55f9d197a50a","system_id":"levelo_inurba_marseille","lat":43.24798,"lon":5.37445,"is_reserved":false,"is_disabled":false,"rental_uris":{"android":"levelo://app?vid=253e4b78-4947-4b21-9463-55f9d197a50a","ios":"levelo://app?vid=253e4b78-4947-4b21-9463-55f9d197a50a"},"vehicle_type_id":"4","last_reported":1747253363,"current_range_meters":9200,"station_id":"ce4bhgh2rcd13ifvqfb0","pricing_plan_id":"cebpf4jnsgd1na2vs0mg"},{"bike_id":"af214813-c582-47ac-80a4-5216259c9745","system_id":"levelo_inurba_marseille","lat":43.29265,"lon":5.37621,"is_reserved":false,"is_disabled":false,"rental_uris":{"android":"levelo://app?vid=af214813-c582-47ac-80a4-5216259c9745","ios":"levelo://app?vid=af214813-c582-47ac-80a4-5216259c9745"},"vehicle_type_id":"4","last_reported":1747253363,"current_range_meters":9200,"station_id":"ce4bgi12rcd13ifvqb80","pricing_plan_id":"cebpf4jnsgd1na2vs0mg"},{"bike_id":"4d2a003a-d06e-472c-882c-2074d56feb4e","system_id":"levelo_inurba_marseille","lat":43.26057,"lon":5.39401,"is_reserved":false,"is_disabled":false,"rental_uris":{"android":"levelo://app?vid=4d2a003a-d06e-472c-882c-2074d56feb4e","ios":"levelo://app?vid=4d2a003a-d06e-472c-882c-2074d56feb4e"},"vehicle_type_id":"4","last_reported":1747253363,"current_range_meters":8800,"station_id":"ce4bhh92rcd13ifvqfj0","pricing_plan_id":"cebpf4jnsgd1na2vs0mg"},{"bike_id":"267de8c2-91cd-4830-b6d6-e1b646317cdb","system_id":"levelo_inurba_marseille","lat":43.29561,"lon":5.39694,"is_reserved":false,"is_disabled":false,"rental_uris":{"android":"levelo://app?vid=267de8c2-91cd-4830-b6d6-e1b646317cdb","ios":"levelo://app?vid=267de8c2-91cd-4830-b6d6-e1b646317cdb"},"vehicle_type_id":"4","last_reported":1747253363,"current_range_meters":9200,"station_id":"ce4bgih2rcd13ifvqba0","pricing_plan_id":"cebpf4jnsgd1na2vs0mg"},{"bike_id":"c0c5fb2e-1186-40e1-b0a9-11f6d8423fc9","system_id":"levelo_inurba_marseille","lat":43.28486,"lon":5.38418,"is_reserved":false,"is_disabled":false,"rental_uris":{"android":"levelo://app?vid=c0c5fb2e-1186-40e1-b0a9-11f6d8423fc9","ios":"levelo://app?vid=c0c5fb2e-1186-40e1-b0a9-11f6d8423fc9"},"vehicle_type_id":"4","last_reported":1747253363,"current_range_meters":9200,"station_id":"ce4bh512rcd13ifvqe3g","pricing_plan_id":"cebpf4jnsgd1na2vs0mg"},{"bike_id":"a1bb8e67-fad9-4c62-8ab8-6a7cd6c22b08","system_id":"levelo_inurba_marseille","lat":43.24172,"lon":5.39714,"is_reserved":false,"is_disabled":false,"rental_uris":{"android":"levelo://app?vid=a1bb8e67-fad9-4c62-8ab8-6a7cd6c22b08","ios":"levelo://app?vid=a1bb8e67-fad9-4c62-8ab8-6a7cd6c22b08"},"vehicle_type_id":"4","last_reported":1747253363,"current_range_meters":9200,"station_id":"ce4bhn12rcd13ifvqgpg","pricing_plan_id":"cebpf4jnsgd1na2vs0mg"},{"bike_id":"0dc8d66b-f0cb-4c51-970f-b855be3b36ca","system_id":"levelo_inurba_marseille","lat":43.26203,"lon":5.379183,"is_reserved":false,"is_disabled":true,"rental_uris":{"android":"levelo://app?vid=0dc8d66b-f0cb-4c51-970f-b855be3b36ca","ios":"levelo://app?vid=0dc8d66b-f0cb-4c51-970f-b855be3b36ca"},"vehicle_type_id":"4","last_reported":1747253363,"current_range_meters":9200,"station_id":"ce4bhjp2rcd13ifvqg90","pricing_plan_id":"cebpf4jnsgd1na2vs0mg"},{"bike_id":"3faf053c-e846-4d83-83ee-8fd51efc38bb","system_id":"levelo_inurba_marseille","lat":43.321083,"lon":5.367911,"is_reserved":false,"is_disabled":false,"rental_uris":{"android":"levelo://app?vid=3faf053c-e846-4d83-83ee-8fd51efc38bb","ios":"levelo://app?vid=3faf053c-e846-4d83-83ee-8fd51efc38bb"},"vehicle_type_id":"4","last_reported":1747253363,"current_range_meters":9200,"station_id":"ce4bhrh2rcd13ifvqhug","pricing_plan_id":"cebpf4jnsgd1na2vs0mg"},{"bike_id":"22df9d24-71cd-493b-bd1b-3e49a1287f80","system_id":"levelo_inurba_marseille","lat":43.28614,"lon":5.35113,"is_reserved":false,"is_disabled":false,"rental_uris":{"android":"levelo://app?vid=22df9d24-71cd-493b-bd1b-3e49a1287f80","ios":"levelo://app?vid=22df9d24-71cd-493b-bd1b-3e49a1287f80"},"vehicle_type_id":"4","last_reported":1747253363,"current_range_meters":9600,"station_id":"ce4bhch2rcd13ifvqeug","pricing_plan_id":"cebpf4jnsgd1na2vs0mg"},{"bike_id":"ddaa0f99-41ff-4bfc-8fbc-0ab556a43c75","system_id":"levelo_inurba_marseille","lat":43.28488,"lon":5.35871,"is_reserved":false,"is_disabled":false,"rental_uris":{"android":"levelo://app?vid=ddaa0f99-41ff-4bfc-8fbc-0ab556a43c75","ios":"levelo://app?vid=ddaa0f99-41ff-4bfc-8fbc-0ab556a43c75"},"vehicle_type_id":"4","last_reported":1747253363,"current_range_meters":9600,"station_id":"ce4bhah2rcd13ifvqei0","pricing_plan_id":"cebpf4jnsgd1na2vs0mg"},{"bike_id":"e54d5b45-0636-4fa1-a60f-9f8958b0e393","system_id":"levelo_inurba_marseille","lat":43.32482,"lon":5.365755,"is_reserved":false,"is_disabled":false,"rental_uris":{"android":"levelo://app?vid=e54d5b45-0636-4fa1-a60f-9f8958b0e393","ios":"levelo://app?vid=e54d5b45-0636-4fa1-a60f-9f8958b0e393"},"vehicle_type_id":"4","last_reported":1747253363,"current_range_meters":9600,"station_id":"ce4bhs12rcd13ifvqhvg","pricing_plan_id":"cebpf4jnsgd1na2vs0mg"},{"bike_id":"fa9b6064-d7ee-4e04-97c3-44edb72451c2","system_id":"levelo_inurba_marseille","lat":43.25142,"lon":5.40301,"is_reserved":false,"is_disabled":false,"rental_uris":{"android":"levelo://app?vid=fa9b6064-d7ee-4e04-97c3-44edb72451c2","ios":"levelo://app?vid=fa9b6064-d7ee-4e04-97c3-44edb72451c2"},"vehicle_type_id":"4","last_reported":1747253363,"current_range_meters":9600,"station_id":"ce4bhlh2rcd13ifvqgig","pricing_plan_id":"cebpf4jnsgd1na2vs0mg"},{"bike_id":"75696c83-d0f0-4383-b672-b0c92ab728ab","system_id":"levelo_inurba_marseille","lat":43.29194,"lon":5.39328,"is_reserved":false,"is_disabled":false,"rental_uris":{"android":"levelo://app?vid=75696c83-d0f0-4383-b672-b0c92ab728ab","ios":"levelo://app?vid=75696c83-d0f0-4383-b672-b0c92ab728ab"},"vehicle_type_id":"4","last_reported":1747253363,"current_range_meters":9600,"station_id":"ce4bh192rcd13ifvqdd0","pricing_plan_id":"cebpf4jnsgd1na2vs0mg"},{"bike_id":"7334a686-a803-4359-8857-10dc09939f33","system_id":"levelo_inurba_marseille","lat":43.26224,"lon":5.404466,"is_reserved":false,"is_disabled":false,"rental_uris":{"android":"levelo://app?vid=7334a686-a803-4359-8857-10dc09939f33","ios":"levelo://app?vid=7334a686-a803-4359-8857-10dc09939f33"},"vehicle_type_id":"4","last_reported":1747253363,"current_range_meters":9600,"station_id":"ce4bhmh2rcd13ifvqgmg","pricing_plan_id":"cebpf4jnsgd1na2vs0mg"},{"bike_id":"f3619ba7-2b97-45b6-8975-4890133541c7","system_id":"levelo_inurba_marseille","lat":43.30594,"lon":5.39353,"is_reserved":false,"is_disabled":false,"rental_uris":{"android":"levelo://app?vid=f3619ba7-2b97-45b6-8975-4890133541c7","ios":"levelo://app?vid=f3619ba7-2b97-45b6-8975-4890133541c7"},"vehicle_type_id":"4","last_reported":1747253363,"current_range_meters":9600,"station_id":"ce4bh0p2rcd13ifvqd80","pricing_plan_id":"cebpf4jnsgd1na2vs0mg"},{"bike_id":"8b75db3e-29cf-405b-89d6-d057821d94f9","system_id":"levelo_inurba_marseille","lat":43.28611,"lon":5.35113,"is_reserved":false,"is_disabled":false,"rental_uris":{"android":"levelo://app?vid=8b75db3e-29cf-405b-89d6-d057821d94f9","ios":"levelo://app?vid=8b75db3e-29cf-405b-89d6-d057821d94f9"},"vehicle_type_id":"4","last_reported":1747253363,"current_range_meters":9600,"station_id":"ce4bhch2rcd13ifvqeug","pricing_plan_id":"cebpf4jnsgd1na2vs0mg"},{"bike_id":"6a94c510-06e9-4819-80f4-2a1f66907200","system_id":"levelo_inurba_marseille","lat":43.24355,"lon":5.37989,"is_reserved":false,"is_disabled":false,"rental_uris":{"android":"levelo://app?vid=6a94c510-06e9-4819-80f4-2a1f66907200","ios":"levelo://app?vid=6a94c510-06e9-4819-80f4-2a1f66907200"},"vehicle_type_id":"4","last_reported":1747253363,"current_range_meters":10000,"station_id":"","pricing_plan_id":"cebpf4jnsgd1na2vs0mg"},{"bike_id":"68f5b50c-e55a-41be-940e-44e74a81b5ef","system_id":"levelo_inurba_marseille","lat":43.31884,"lon":5.40744,"is_reserved":false,"is_disabled":false,"rental_uris":{"android":"levelo://app?vid=68f5b50c-e55a-41be-940e-44e74a81b5ef","ios":"levelo://app?vid=68f5b50c-e55a-41be-940e-44e74a81b5ef"},"vehicle_type_id":"4","last_reported":1747253363,"current_range_meters":9600,"station_id":"ce4bhq12rcd13ifvqhig","pricing_plan_id":"cebpf4jnsgd1na2vs0mg"},{"bike_id":"c4370c3f-260d-49c5-911d-102d0c3d1da8","system_id":"levelo_inurba_marseille","lat":43.31045,"lon":5.38311,"is_reserved":false,"is_disabled":false,"rental_uris":{"android":"levelo://app?vid=c4370c3f-260d-49c5-911d-102d0c3d1da8","ios":"levelo://app?vid=c4370c3f-260d-49c5-911d-102d0c3d1da8"},"vehicle_type_id":"4","last_reported":1747253363,"current_range_meters":10000,"station_id":"ce4bgv92rcd13ifvqcr0","pricing_plan_id":"cebpf4jnsgd1na2vs0mg"},{"bike_id":"1de9fbda-f97b-4e95-892f-1f9923199bba","system_id":"levelo_inurba_marseille","lat":43.32543,"lon":5.41433,"is_reserved":false,"is_disabled":false,"rental_uris":{"android":"levelo://app?vid=1de9fbda-f97b-4e95-892f-1f9923199bba","ios":"levelo://app?vid=1de9fbda-f97b-4e95-892f-1f9923199bba"},"vehicle_type_id":"4","last_reported":1747253363,"current_range_meters":4800,"station_id":"ce4bhq12rcd13ifvqhhg","pricing_plan_id":"cebpf4jnsgd1na2vs0mg"},{"bike_id":"94e3e094-2723-4203-aef2-ca502e1e8d40","system_id":"levelo_inurba_marseille","lat":43.29526,"lon":5.39041,"is_reserved":false,"is_disabled":false,"rental_uris":{"android":"levelo://app?vid=94e3e094-2723-4203-aef2-ca502e1e8d40","ios":"levelo://app?vid=94e3e094-2723-4203-aef2-ca502e1e8d40"},"vehicle_type_id":"4","last_reported":1747253363,"current_range_meters":10000,"station_id":"ce4bh3p2rcd13ifvqdp0","pricing_plan_id":"cebpf4jnsgd1na2vs0mg"},{"bike_id":"56a54840-8453-4673-8cc1-64d415eb4281","system_id":"levelo_inurba_marseille","lat":43.32361,"lon":5.38883,"is_reserved":false,"is_disabled":false,"rental_uris":{"android":"levelo://app?vid=56a54840-8453-4673-8cc1-64d415eb4281","ios":"levelo://app?vid=56a54840-8453-4673-8cc1-64d415eb4281"},"vehicle_type_id":"4","last_reported":1747253363,"current_range_meters":10000,"station_id":"ce4bhqp2rcd13ifvqhog","pricing_plan_id":"cebpf4jnsgd1na2vs0mg"},{"bike_id":"1ed53baa-5ec1-4ad0-9276-5bccce0dc6c4","system_id":"levelo_inurba_marseille","lat":43.26227,"lon":5.40445,"is_reserved":false,"is_disabled":false,"rental_uris":{"android":"levelo://app?vid=1ed53baa-5ec1-4ad0-9276-5bccce0dc6c4","ios":"levelo://app?vid=1ed53baa-5ec1-4ad0-9276-5bccce0dc6c4"},"vehicle_type_id":"4","last_reported":1747253363,"current_range_meters":10000,"station_id":"ce4bhmh2rcd13ifvqgmg","pricing_plan_id":"cebpf4jnsgd1na2vs0mg"},{"bike_id":"e3faef6f-635a-4b6b-b2b3-c0b918604df6","system_id":"levelo_inurba_marseille","lat":43.29925,"lon":5.436703,"is_reserved":false,"is_disabled":false,"rental_uris":{"android":"levelo://app?vid=e3faef6f-635a-4b6b-b2b3-c0b918604df6","ios":"levelo://app?vid=e3faef6f-635a-4b6b-b2b3-c0b918604df6"},"vehicle_type_id":"4","last_reported":1747253363,"current_range_meters":10000,"station_id":"ce4bhpp2rcd13ifvqhfg","pricing_plan_id":"cebpf4jnsgd1na2vs0mg"},{"bike_id":"18723a66-c97e-4014-a07c-7d79a785c1b9","system_id":"levelo_inurba_marseille","lat":43.31772,"lon":5.39084,"is_reserved":false,"is_disabled":false,"rental_uris":{"android":"levelo://app?vid=18723a66-c97e-4014-a07c-7d79a785c1b9","ios":"levelo://app?vid=18723a66-c97e-4014-a07c-7d79a785c1b9"},"vehicle_type_id":"4","last_reported":1747253363,"current_range_meters":10800,"station_id":"","pricing_plan_id":"cebpf4jnsgd1na2vs0mg"},{"bike_id":"bef8f517-8be5-43fb-983a-bde2a62fa9f0","system_id":"levelo_inurba_marseille","lat":43.2957,"lon":5.37527,"is_reserved":false,"is_disabled":false,"rental_uris":{"android":"levelo://app?vid=bef8f517-8be5-43fb-983a-bde2a62fa9f0","ios":"levelo://app?vid=bef8f517-8be5-43fb-983a-bde2a62fa9f0"},"vehicle_type_id":"4","last_reported":1747253363,"current_range_meters":10800,"station_id":"ce4bgh92rcd13ifvqb50","pricing_plan_id":"cebpf4jnsgd1na2vs0mg"},{"bike_id":"d3c3d8fd-847e-486d-b4bb-d549572408c2","system_id":"levelo_inurba_marseille","lat":43.29234,"lon":5.36415,"is_reserved":false,"is_disabled":false,"rental_uris":{"android":"levelo://app?vid=d3c3d8fd-847e-486d-b4bb-d549572408c2","ios":"levelo://app?vid=d3c3d8fd-847e-486d-b4bb-d549572408c2"},"vehicle_type_id":"4","last_reported":1747253363,"current_range_meters":10800,"station_id":"","pricing_plan_id":"cebpf4jnsgd1na2vs0mg"},{"bike_id":"27ef418a-6b13-4d95-8a69-e7ca2ca9f10d","system_id":"levelo_inurba_marseille","lat":43.28659,"lon":5.36351,"is_reserved":false,"is_disabled":false,"rental_uris":{"android":"levelo://app?vid=27ef418a-6b13-4d95-8a69-e7ca2ca9f10d","ios":"levelo://app?vid=27ef418a-6b13-4d95-8a69-e7ca2ca9f10d"},"vehicle_type_id":"4","last_reported":1747253363,"current_range_meters":10800,"station_id":"ce4bhah2rcd13ifvqej0","pricing_plan_id":"cebpf4jnsgd1na2vs0mg"},{"bike_id":"0879c7af-989f-4e68-9fd6-d134be2b3e7f","system_id":"levelo_inurba_marseille","lat":43.25931,"lon":5.40881,"is_reserved":false,"is_disabled":false,"rental_uris":{"android":"levelo://app?vid=0879c7af-989f-4e68-9fd6-d134be2b3e7f","ios":"levelo://app?vid=0879c7af-989f-4e68-9fd6-d134be2b3e7f"},"vehicle_type_id":"4","last_reported":1747253363,"current_range_meters":10800,"station_id":"ce4bhm92rcd13ifvqglg","pricing_plan_id":"cebpf4jnsgd1na2vs0mg"},{"bike_id":"5a397cf7-65bf-4a3f-9658-6e7414774df2","system_id":"levelo_inurba_marseille","lat":43.27373,"lon":5.36236,"is_reserved":false,"is_disabled":false,"rental_uris":{"android":"levelo://app?vid=5a397cf7-65bf-4a3f-9658-6e7414774df2","ios":"levelo://app?vid=5a397cf7-65bf-4a3f-9658-6e7414774df2"},"vehicle_type_id":"4","last_reported":1747253363,"current_range_meters":10800,"station_id":"ce4bhbh2rcd13ifvqeo0","pricing_plan_id":"cebpf4jnsgd1na2vs0mg"},{"bike_id":"d116b1c8-5500-4ca8-9d15-947f446f13da","system_id":"levelo_inurba_marseille","lat":43.31373,"lon":5.385015,"is_reserved":false,"is_disabled":false,"rental_uris":{"android":"levelo://app?vid=d116b1c8-5500-4ca8-9d15-947f446f13da","ios":"levelo://app?vid=d116b1c8-5500-4ca8-9d15-947f446f13da"},"vehicle_type_id":"4","last_reported":1747253363,"current_range_meters":10800,"station_id":"ce4bgt92rcd13ifvqcf0","pricing_plan_id":"cebpf4jnsgd1na2vs0mg"},{"bike_id":"01cc56f2-e0a1-494c-a32a-c75065ce15de","system_id":"levelo_inurba_marseille","lat":43.32363,"lon":5.38886,"is_reserved":false,"is_disabled":false,"rental_uris":{"android":"levelo://app?vid=01cc56f2-e0a1-494c-a32a-c75065ce15de","ios":"levelo://app?vid=01cc56f2-e0a1-494c-a32a-c75065ce15de"},"vehicle_type_id":"4","last_reported":1747253363,"current_range_meters":11200,"station_id":"ce4bhqp2rcd13ifvqhog","pricing_plan_id":"cebpf4jnsgd1na2vs0mg"},{"bike_id":"0786f947-1387-43c1-8d60-229140e67e3d","system_id":"levelo_inurba_marseille","lat":43.25101,"lon":5.4029,"is_reserved":false,"is_disabled":false,"rental_uris":{"android":"levelo://app?vid=0786f947-1387-43c1-8d60-229140e67e3d","ios":"levelo://app?vid=0786f947-1387-43c1-8d60-229140e67e3d"},"vehicle_type_id":"4","last_reported":1747253363,"current_range_meters":11200,"station_id":"ce4bhlh2rcd13ifvqgig","pricing_plan_id":"cebpf4jnsgd1na2vs0mg"},{"bike_id":"ae12efae-9b9b-4273-bc68-eb68478fdde7","system_id":"levelo_inurba_marseille","lat":43.30647,"lon":5.40099,"is_reserved":false,"is_disabled":false,"rental_uris":{"android":"levelo://app?vid=ae12efae-9b9b-4273-bc68-eb68478fdde7","ios":"levelo://app?vid=ae12efae-9b9b-4273-bc68-eb68478fdde7"},"vehicle_type_id":"4","last_reported":1747253363,"current_range_meters":10800,"station_id":"ce4bh112rcd13ifvqda0","pricing_plan_id":"cebpf4jnsgd1na2vs0mg"},{"bike_id":"32a09a09-12dc-4485-9138-2afa3658df2e","system_id":"levelo_inurba_marseille","lat":43.26927,"lon":5.38918,"is_reserved":false,"is_disabled":false,"rental_uris":{"android":"levelo://app?vid=32a09a09-12dc-4485-9138-2afa3658df2e","ios":"levelo://app?vid=32a09a09-12dc-4485-9138-2afa3658df2e"},"vehicle_type_id":"4","last_reported":1747253363,"current_range_meters":11200,"station_id":"ce4bhhh2rcd13ifvqfl0","pricing_plan_id":"cebpf4jnsgd1na2vs0mg"},{"bike_id":"1d6ced6a-cdb2-48f5-b063-d1cbb967a319","system_id":"levelo_inurba_marseille","lat":43.29972,"lon":5.37172,"is_reserved":false,"is_disabled":false,"rental_uris":{"android":"levelo://app?vid=1d6ced6a-cdb2-48f5-b063-d1cbb967a319","ios":"levelo://app?vid=1d6ced6a-cdb2-48f5-b063-d1cbb967a319"},"vehicle_type_id":"4","last_reported":1747253363,"current_range_meters":11200,"station_id":"ce4bgr92rcd13ifvqc7g","pricing_plan_id":"cebpf4jnsgd1na2vs0mg"},{"bike_id":"907c425e-1976-4342-9d73-4683818bbd0a","system_id":"levelo_inurba_marseille","lat":43.298748,"lon":5.389097,"is_reserved":false,"is_disabled":false,"rental_uris":{"android":"levelo://app?vid=907c425e-1976-4342-9d73-4683818bbd0a","ios":"levelo://app?vid=907c425e-1976-4342-9d73-4683818bbd0a"},"vehicle_type_id":"4","last_reported":1747253363,"current_range_meters":11600,"station_id":"ce4bh392rcd13ifvqdl0","pricing_plan_id":"cebpf4jnsgd1na2vs0mg"},{"bike_id":"2286bd46-de13-4763-9a46-4540518e528a","system_id":"levelo_inurba_marseille","lat":43.27504,"lon":5.42456,"is_reserved":false,"is_disabled":false,"rental_uris":{"android":"levelo://app?vid=2286bd46-de13-4763-9a46-4540518e528a","ios":"levelo://app?vid=2286bd46-de13-4763-9a46-4540518e528a"},"vehicle_type_id":"4","last_reported":1747253363,"current_range_meters":11600,"station_id":"ce4bhn92rcd13ifvqgrg","pricing_plan_id":"cebpf4jnsgd1na2vs0mg"},{"bike_id":"b8eca13b-fd8f-45a8-8837-eaca4f7c106a","system_id":"levelo_inurba_marseille","lat":43.29305,"lon":5.37179,"is_reserved":false,"is_disabled":false,"rental_uris":{"android":"levelo://app?vid=b8eca13b-fd8f-45a8-8837-eaca4f7c106a","ios":"levelo://app?vid=b8eca13b-fd8f-45a8-8837-eaca4f7c106a"},"vehicle_type_id":"4","last_reported":1747253363,"current_range_meters":11600,"station_id":"ce4bgh92rcd13ifvqb40","pricing_plan_id":"cebpf4jnsgd1na2vs0mg"},{"bike_id":"3bb01f8f-50f7-474f-883f-948400a36ea5","system_id":"levelo_inurba_marseille","lat":43.32581,"lon":5.43014,"is_reserved":false,"is_disabled":false,"rental_uris":{"android":"levelo://app?vid=3bb01f8f-50f7-474f-883f-948400a36ea5","ios":"levelo://app?vid=3bb01f8f-50f7-474f-883f-948400a36ea5"},"vehicle_type_id":"4","last_reported":1747253363,"current_range_meters":11600,"station_id":"","pricing_plan_id":"cebpf4jnsgd1na2vs0mg"},{"bike_id":"4d83a49d-a4f7-4140-bff3-bb3633e6dccc","system_id":"levelo_inurba_marseille","lat":43.32357,"lon":5.38892,"is_reserved":false,"is_disabled":false,"rental_uris":{"android":"levelo://app?vid=4d83a49d-a4f7-4140-bff3-bb3633e6dccc","ios":"levelo://app?vid=4d83a49d-a4f7-4140-bff3-bb3633e6dccc"},"vehicle_type_id":"4","last_reported":1747253363,"current_range_meters":11600,"station_id":"ce4bhqp2rcd13ifvqhog","pricing_plan_id":"cebpf4jnsgd1na2vs0mg"},{"bike_id":"565a5ba6-e028-4ebd-b72f-3da251f0a0be","system_id":"levelo_inurba_marseille","lat":43.27494,"lon":5.42448,"is_reserved":false,"is_disabled":false,"rental_uris":{"android":"levelo://app?vid=565a5ba6-e028-4ebd-b72f-3da251f0a0be","ios":"levelo://app?vid=565a5ba6-e028-4ebd-b72f-3da251f0a0be"},"vehicle_type_id":"4","last_reported":1747253363,"current_range_meters":11600,"station_id":"ce4bhn92rcd13ifvqgrg","pricing_plan_id":"cebpf4jnsgd1na2vs0mg"},{"bike_id":"8099e40b-2d35-4691-bee1-f0fcd3cd0588","system_id":"levelo_inurba_marseille","lat":43.28587,"lon":5.39491,"is_reserved":false,"is_disabled":false,"rental_uris":{"android":"levelo://app?vid=8099e40b-2d35-4691-bee1-f0fcd3cd0588","ios":"levelo://app?vid=8099e40b-2d35-4691-bee1-f0fcd3cd0588"},"vehicle_type_id":"4","last_reported":1747253363,"current_range_meters":11600,"station_id":"ce4bh292rcd13ifvqdg0","pricing_plan_id":"cebpf4jnsgd1na2vs0mg"},{"bike_id":"dd3e9431-bfa9-4cc5-95c7-2f2bb3e4b1c0","system_id":"levelo_inurba_marseille","lat":43.29037,"lon":5.35927,"is_reserved":false,"is_disabled":false,"rental_uris":{"android":"levelo://app?vid=dd3e9431-bfa9-4cc5-95c7-2f2bb3e4b1c0","ios":"levelo://app?vid=dd3e9431-bfa9-4cc5-95c7-2f2bb3e4b1c0"},"vehicle_type_id":"4","last_reported":1747253363,"current_range_meters":12000,"station_id":"ce4bha92rcd13ifvqeg0","pricing_plan_id":"cebpf4jnsgd1na2vs0mg"},{"bike_id":"e887bfc9-ac77-45ef-bbfb-42255cfd406d","system_id":"levelo_inurba_marseille","lat":43.29421,"lon":5.38613,"is_reserved":false,"is_disabled":false,"rental_uris":{"android":"levelo://app?vid=e887bfc9-ac77-45ef-bbfb-42255cfd406d","ios":"levelo://app?vid=e887bfc9-ac77-45ef-bbfb-42255cfd406d"},"vehicle_type_id":"4","last_reported":1747253363,"current_range_meters":12000,"station_id":"ce4bh2h2rcd13ifvqdh0","pricing_plan_id":"cebpf4jnsgd1na2vs0mg"},{"bike_id":"1923dd1e-d8a4-4534-a36b-e83150570486","system_id":"levelo_inurba_marseille","lat":43.25116,"lon":5.40318,"is_reserved":false,"is_disabled":false,"rental_uris":{"android":"levelo://app?vid=1923dd1e-d8a4-4534-a36b-e83150570486","ios":"levelo://app?vid=1923dd1e-d8a4-4534-a36b-e83150570486"},"vehicle_type_id":"4","last_reported":1747253363,"current_range_meters":12000,"station_id":"ce4bhlh2rcd13ifvqgig","pricing_plan_id":"cebpf4jnsgd1na2vs0mg"},{"bike_id":"adcf91c8-c9d3-4615-97b4-9a0df03652bb","system_id":"levelo_inurba_marseille","lat":43.29553,"lon":5.4228,"is_reserved":false,"is_disabled":false,"rental_uris":{"android":"levelo://app?vid=adcf91c8-c9d3-4615-97b4-9a0df03652bb","ios":"levelo://app?vid=adcf91c8-c9d3-4615-97b4-9a0df03652bb"},"vehicle_type_id":"4","last_reported":1747253363,"current_range_meters":12400,"station_id":"ce4bhph2rcd13ifvqhdg","pricing_plan_id":"cebpf4jnsgd1na2vs0mg"},{"bike_id":"4a1605c8-9596-4ecb-94b7-2b583c66ecdd","system_id":"levelo_inurba_marseille","lat":43.246627,"lon":5.381667,"is_reserved":false,"is_disabled":false,"rental_uris":{"android":"levelo://app?vid=4a1605c8-9596-4ecb-94b7-2b583c66ecdd","ios":"levelo://app?vid=4a1605c8-9596-4ecb-94b7-2b583c66ecdd"},"vehicle_type_id":"4","last_reported":1747253363,"current_range_meters":12400,"station_id":"ce4bhih2rcd13ifvqfr0","pricing_plan_id":"cebpf4jnsgd1na2vs0mg"},{"bike_id":"d3a1c825-461c-4875-9f67-a6d33491348f","system_id":"levelo_inurba_marseille","lat":43.32336,"lon":5.40612,"is_reserved":false,"is_disabled":false,"rental_uris":{"android":"levelo://app?vid=d3a1c825-461c-4875-9f67-a6d33491348f","ios":"levelo://app?vid=d3a1c825-461c-4875-9f67-a6d33491348f"},"vehicle_type_id":"4","last_reported":1747253363,"current_range_meters":12400,"station_id":"ce4bhq92rcd13ifvqhjg","pricing_plan_id":"cebpf4jnsgd1na2vs0mg"},{"bike_id":"a927d1bc-b619-414d-8814-850ab7668aca","system_id":"levelo_inurba_marseille","lat":43.28873,"lon":5.39307,"is_reserved":false,"is_disabled":true,"rental_uris":{"android":"levelo://app?vid=a927d1bc-b619-414d-8814-850ab7668aca","ios":"levelo://app?vid=a927d1bc-b619-414d-8814-850ab7668aca"},"vehicle_type_id":"4","last_reported":1747253363,"current_range_meters":12400,"station_id":"ce4bh2p2rcd13ifvqdi0","pricing_plan_id":"cebpf4jnsgd1na2vs0mg"},{"bike_id":"81f32ca2-96ab-41ca-acba-b8476475b0ee","system_id":"levelo_inurba_marseille","lat":43.33022,"lon":5.39047,"is_reserved":false,"is_disabled":false,"rental_uris":{"android":"levelo://app?vid=81f32ca2-96ab-41ca-acba-b8476475b0ee","ios":"levelo://app?vid=81f32ca2-96ab-41ca-acba-b8476475b0ee"},"vehicle_type_id":"4","last_reported":1747253363,"current_range_meters":12400,"station_id":"ce4bhr92rcd13ifvqhrg","pricing_plan_id":"cebpf4jnsgd1na2vs0mg"},{"bike_id":"17d57f58-ffb0-4d77-bbe5-7f462887ac74","system_id":"levelo_inurba_marseille","lat":43.24175,"lon":5.39697,"is_reserved":false,"is_disabled":false,"rental_uris":{"android":"levelo://app?vid=17d57f58-ffb0-4d77-bbe5-7f462887ac74","ios":"levelo://app?vid=17d57f58-ffb0-4d77-bbe5-7f462887ac74"},"vehicle_type_id":"4","last_reported":1747253363,"current_range_meters":12400,"station_id":"ce4bhn12rcd13ifvqgpg","pricing_plan_id":"cebpf4jnsgd1na2vs0mg"},{"bike_id":"0ee57cd3-b290-46af-a35a-6f306772e452","system_id":"levelo_inurba_marseille","lat":43.30662,"lon":5.40273,"is_reserved":false,"is_disabled":false,"rental_uris":{"android":"levelo://app?vid=0ee57cd3-b290-46af-a35a-6f306772e452","ios":"levelo://app?vid=0ee57cd3-b290-46af-a35a-6f306772e452"},"vehicle_type_id":"4","last_reported":1747253363,"current_range_meters":12400,"station_id":"","pricing_plan_id":"cebpf4jnsgd1na2vs0mg"},{"bike_id":"793ac350-3651-4f6c-8437-efb52dfb2f81","system_id":"levelo_inurba_marseille","lat":43.31488,"lon":5.37302,"is_reserved":false,"is_disabled":false,"rental_uris":{"android":"levelo://app?vid=793ac350-3651-4f6c-8437-efb52dfb2f81","ios":"levelo://app?vid=793ac350-3651-4f6c-8437-efb52dfb2f81"},"vehicle_type_id":"4","last_reported":1747253363,"current_range_meters":12400,"station_id":"ce4bgt12rcd13ifvqcd0","pricing_plan_id":"cebpf4jnsgd1na2vs0mg"},{"bike_id":"0f6e0d3d-a368-4562-83ac-745bc108d9d6","system_id":"levelo_inurba_marseille","lat":43.2894,"lon":5.36391,"is_reserved":false,"is_disabled":false,"rental_uris":{"android":"levelo://app?vid=0f6e0d3d-a368-4562-83ac-745bc108d9d6","ios":"levelo://app?vid=0f6e0d3d-a368-4562-83ac-745bc108d9d6"},"vehicle_type_id":"4","last_reported":1747253363,"current_range_meters":12800,"station_id":"ce4bhc92rcd13ifvqetg","pricing_plan_id":"cebpf4jnsgd1na2vs0mg"},{"bike_id":"ee613623-31e1-44c0-961e-7df0445326d3","system_id":"levelo_inurba_marseille","lat":43.28462,"lon":5.3588,"is_reserved":false,"is_disabled":false,"rental_uris":{"android":"levelo://app?vid=ee613623-31e1-44c0-961e-7df0445326d3","ios":"levelo://app?vid=ee613623-31e1-44c0-961e-7df0445326d3"},"vehicle_type_id":"4","last_reported":1747253363,"current_range_meters":12800,"station_id":"ce4bhah2rcd13ifvqei0","pricing_plan_id":"cebpf4jnsgd1na2vs0mg"},{"bike_id":"d4abc0f4-75e6-4c24-ab00-0660a88a0c8c","system_id":"levelo_inurba_marseille","lat":43.25116,"lon":5.40314,"is_reserved":false,"is_disabled":false,"rental_uris":{"android":"levelo://app?vid=d4abc0f4-75e6-4c24-ab00-0660a88a0c8c","ios":"levelo://app?vid=d4abc0f4-75e6-4c24-ab00-0660a88a0c8c"},"vehicle_type_id":"4","last_reported":1747253363,"current_range_meters":12800,"station_id":"ce4bhlh2rcd13ifvqgig","pricing_plan_id":"cebpf4jnsgd1na2vs0mg"},{"bike_id":"295a7d1e-89b9-461a-8ca2-fe6d1ed480f6","system_id":"levelo_inurba_marseille","lat":43.29426,"lon":5.38632,"is_reserved":false,"is_disabled":false,"rental_uris":{"android":"levelo://app?vid=295a7d1e-89b9-461a-8ca2-fe6d1ed480f6","ios":"levelo://app?vid=295a7d1e-89b9-461a-8ca2-fe6d1ed480f6"},"vehicle_type_id":"4","last_reported":1747253363,"current_range_meters":12800,"station_id":"ce4bh2h2rcd13ifvqdh0","pricing_plan_id":"cebpf4jnsgd1na2vs0mg"},{"bike_id":"5abc2be0-fe06-42cb-b7be-f3234fd7c9b6","system_id":"levelo_inurba_marseille","lat":43.28417,"lon":5.37526,"is_reserved":false,"is_disabled":false,"rental_uris":{"android":"levelo://app?vid=5abc2be0-fe06-42cb-b7be-f3234fd7c9b6","ios":"levelo://app?vid=5abc2be0-fe06-42cb-b7be-f3234fd7c9b6"},"vehicle_type_id":"4","last_reported":1747253363,"current_range_meters":12800,"station_id":"ce4bh412rcd13ifvqds0","pricing_plan_id":"cebpf4jnsgd1na2vs0mg"},{"bike_id":"cb449aeb-63bf-4e11-a01d-928c7eea1054","system_id":"levelo_inurba_marseille","lat":43.28577,"lon":5.35109,"is_reserved":false,"is_disabled":false,"rental_uris":{"android":"levelo://app?vid=cb449aeb-63bf-4e11-a01d-928c7eea1054","ios":"levelo://app?vid=cb449aeb-63bf-4e11-a01d-928c7eea1054"},"vehicle_type_id":"4","last_reported":1747253363,"current_range_meters":12800,"station_id":"","pricing_plan_id":"cebpf4jnsgd1na2vs0mg"},{"bike_id":"05ff0bd0-e319-4143-a9ad-4d8e05a3b761","system_id":"levelo_inurba_marseille","lat":43.284432,"lon":5.392123,"is_reserved":false,"is_disabled":false,"rental_uris":{"android":"levelo://app?vid=05ff0bd0-e319-4143-a9ad-4d8e05a3b761","ios":"levelo://app?vid=05ff0bd0-e319-4143-a9ad-4d8e05a3b761"},"vehicle_type_id":"4","last_reported":1747253363,"current_range_meters":12800,"station_id":"ce4bhoh2rcd13ifvqh5g","pricing_plan_id":"cebpf4jnsgd1na2vs0mg"},{"bike_id":"82583a93-7e8b-48ee-9abd-fef200822adf","system_id":"levelo_inurba_marseille","lat":43.34138,"lon":5.40906,"is_reserved":false,"is_disabled":false,"rental_uris":{"android":"levelo://app?vid=82583a93-7e8b-48ee-9abd-fef200822adf","ios":"levelo://app?vid=82583a93-7e8b-48ee-9abd-fef200822adf"},"vehicle_type_id":"4","last_reported":1747253363,"current_range_meters":12800,"station_id":"ce4bhqh2rcd13ifvqhlg","pricing_plan_id":"cebpf4jnsgd1na2vs0mg"},{"bike_id":"31d91c88-22a2-4d7a-b03a-10d375fa00b2","system_id":"levelo_inurba_marseille","lat":43.24071,"lon":5.37755,"is_reserved":false,"is_disabled":false,"rental_uris":{"android":"levelo://app?vid=31d91c88-22a2-4d7a-b03a-10d375fa00b2","ios":"levelo://app?vid=31d91c88-22a2-4d7a-b03a-10d375fa00b2"},"vehicle_type_id":"4","last_reported":1747253363,"current_range_meters":13600,"station_id":"ce4bhnp2rcd13ifvqgvg","pricing_plan_id":"cebpf4jnsgd1na2vs0mg"},{"bike_id":"f03d21ad-dcc1-41ef-a13d-2ca5350b4df5","system_id":"levelo_inurba_marseille","lat":43.27916,"lon":5.39582,"is_reserved":false,"is_disabled":false,"rental_uris":{"android":"levelo://app?vid=f03d21ad-dcc1-41ef-a13d-2ca5350b4df5","ios":"levelo://app?vid=f03d21ad-dcc1-41ef-a13d-2ca5350b4df5"},"vehicle_type_id":"4","last_reported":1747253363,"current_range_meters":13600,"station_id":"ce4bhf92rcd13ifvqf40","pricing_plan_id":"cebpf4jnsgd1na2vs0mg"},{"bike_id":"9f3d78f3-d50a-43cd-b62d-45eb26682299","system_id":"levelo_inurba_marseille","lat":43.28458,"lon":5.35877,"is_reserved":false,"is_disabled":false,"rental_uris":{"android":"levelo://app?vid=9f3d78f3-d50a-43cd-b62d-45eb26682299","ios":"levelo://app?vid=9f3d78f3-d50a-43cd-b62d-45eb26682299"},"vehicle_type_id":"4","last_reported":1747253363,"current_range_meters":13600,"station_id":"ce4bhah2rcd13ifvqei0","pricing_plan_id":"cebpf4jnsgd1na2vs0mg"},{"bike_id":"f2fa3917-52e2-462b-8250-01097feb44e5","system_id":"levelo_inurba_marseille","lat":43.24164,"lon":5.39755,"is_reserved":false,"is_disabled":false,"rental_uris":{"android":"levelo://app?vid=f2fa3917-52e2-462b-8250-01097feb44e5","ios":"levelo://app?vid=f2fa3917-52e2-462b-8250-01097feb44e5"},"vehicle_type_id":"4","last_reported":1747253363,"current_range_meters":14000,"station_id":"ce4bhn12rcd13ifvqgpg","pricing_plan_id":"cebpf4jnsgd1na2vs0mg"},{"bike_id":"f8200506-f822-47c0-b993-0fb7d37330de","system_id":"levelo_inurba_marseille","lat":43.24804,"lon":5.3745,"is_reserved":false,"is_disabled":false,"rental_uris":{"android":"levelo://app?vid=f8200506-f822-47c0-b993-0fb7d37330de","ios":"levelo://app?vid=f8200506-f822-47c0-b993-0fb7d37330de"},"vehicle_type_id":"4","last_reported":1747253363,"current_range_meters":14000,"station_id":"ce4bhgh2rcd13ifvqfb0","pricing_plan_id":"cebpf4jnsgd1na2vs0mg"},{"bike_id":"e678ceba-753e-4f08-a88f-299142192130","system_id":"levelo_inurba_marseille","lat":43.24813,"lon":5.37451,"is_reserved":false,"is_disabled":false,"rental_uris":{"android":"levelo://app?vid=e678ceba-753e-4f08-a88f-299142192130","ios":"levelo://app?vid=e678ceba-753e-4f08-a88f-299142192130"},"vehicle_type_id":"4","last_reported":1747253363,"current_range_meters":14000,"station_id":"ce4bhgh2rcd13ifvqfb0","pricing_plan_id":"cebpf4jnsgd1na2vs0mg"},{"bike_id":"90724c60-6c5a-4e87-b678-b3af4fe117cb","system_id":"levelo_inurba_marseille","lat":43.3059,"lon":5.39352,"is_reserved":false,"is_disabled":false,"rental_uris":{"android":"levelo://app?vid=90724c60-6c5a-4e87-b678-b3af4fe117cb","ios":"levelo://app?vid=90724c60-6c5a-4e87-b678-b3af4fe117cb"},"vehicle_type_id":"4","last_reported":1747253363,"current_range_meters":14400,"station_id":"ce4bh0p2rcd13ifvqd80","pricing_plan_id":"cebpf4jnsgd1na2vs0mg"},{"bike_id":"8619acca-ecd0-4357-bf7c-0d59e9a78ed8","system_id":"levelo_inurba_marseille","lat":43.29273,"lon":5.37632,"is_reserved":false,"is_disabled":false,"rental_uris":{"android":"levelo://app?vid=8619acca-ecd0-4357-bf7c-0d59e9a78ed8","ios":"levelo://app?vid=8619acca-ecd0-4357-bf7c-0d59e9a78ed8"},"vehicle_type_id":"4","last_reported":1747253363,"current_range_meters":14400,"station_id":"ce4bgi12rcd13ifvqb80","pricing_plan_id":"cebpf4jnsgd1na2vs0mg"},{"bike_id":"f4a29ccd-2645-41bd-91b7-57baafbe4e16","system_id":"levelo_inurba_marseille","lat":43.29014,"lon":5.35602,"is_reserved":false,"is_disabled":true,"rental_uris":{"android":"levelo://app?vid=f4a29ccd-2645-41bd-91b7-57baafbe4e16","ios":"levelo://app?vid=f4a29ccd-2645-41bd-91b7-57baafbe4e16"},"vehicle_type_id":"4","last_reported":1747253363,"current_range_meters":14400,"station_id":"ce4bhb92rcd13ifvqen0","pricing_plan_id":"cebpf4jnsgd1na2vs0mg"},{"bike_id":"cf04a449-8245-40e5-866f-abb00b28cc6f","system_id":"levelo_inurba_marseille","lat":43.22933,"lon":5.35401,"is_reserved":false,"is_disabled":false,"rental_uris":{"android":"levelo://app?vid=cf04a449-8245-40e5-866f-abb00b28cc6f","ios":"levelo://app?vid=cf04a449-8245-40e5-866f-abb00b28cc6f"},"vehicle_type_id":"4","last_reported":1747253363,"current_range_meters":14400,"station_id":"cpo3532slgdg3j2ikp40","pricing_plan_id":"cebpf4jnsgd1na2vs0mg"},{"bike_id":"70d6bb2e-5960-4cca-88a1-877f81fb4297","system_id":"levelo_inurba_marseille","lat":43.30095,"lon":5.39095,"is_reserved":false,"is_disabled":false,"rental_uris":{"android":"levelo://app?vid=70d6bb2e-5960-4cca-88a1-877f81fb4297","ios":"levelo://app?vid=70d6bb2e-5960-4cca-88a1-877f81fb4297"},"vehicle_type_id":"4","last_reported":1747253363,"current_range_meters":14000,"station_id":"ce4bh192rcd13ifvqdb0","pricing_plan_id":"cebpf4jnsgd1na2vs0mg"},{"bike_id":"1587345b-4bac-4b72-b8cf-fbd86b47db23","system_id":"levelo_inurba_marseille","lat":43.29865,"lon":5.39734,"is_reserved":false,"is_disabled":false,"rental_uris":{"android":"levelo://app?vid=1587345b-4bac-4b72-b8cf-fbd86b47db23","ios":"levelo://app?vid=1587345b-4bac-4b72-b8cf-fbd86b47db23"},"vehicle_type_id":"4","last_reported":1747253363,"current_range_meters":14000,"station_id":"ce4bh0h2rcd13ifvqd50","pricing_plan_id":"cebpf4jnsgd1na2vs0mg"},{"bike_id":"8c7308bf-84fd-4edb-9b86-07fbeaf5e51b","system_id":"levelo_inurba_marseille","lat":43.31721,"lon":5.42385,"is_reserved":false,"is_disabled":false,"rental_uris":{"android":"levelo://app?vid=8c7308bf-84fd-4edb-9b86-07fbeaf5e51b","ios":"levelo://app?vid=8c7308bf-84fd-4edb-9b86-07fbeaf5e51b"},"vehicle_type_id":"4","last_reported":1747253363,"current_range_meters":14400,"station_id":"ce4bhp92rcd13ifvqhbg","pricing_plan_id":"cebpf4jnsgd1na2vs0mg"},{"bike_id":"251e065c-d743-4244-8459-843930713d33","system_id":"levelo_inurba_marseille","lat":43.24812,"lon":5.37454,"is_reserved":false,"is_disabled":false,"rental_uris":{"android":"levelo://app?vid=251e065c-d743-4244-8459-843930713d33","ios":"levelo://app?vid=251e065c-d743-4244-8459-843930713d33"},"vehicle_type_id":"4","last_reported":1747253363,"current_range_meters":14400,"station_id":"ce4bhgh2rcd13ifvqfb0","pricing_plan_id":"cebpf4jnsgd1na2vs0mg"},{"bike_id":"d7dcc71d-5772-43d3-8bf2-24a126122a9c","system_id":"levelo_inurba_marseille","lat":43.28472,"lon":5.38409,"is_reserved":false,"is_disabled":false,"rental_uris":{"android":"levelo://app?vid=d7dcc71d-5772-43d3-8bf2-24a126122a9c","ios":"levelo://app?vid=d7dcc71d-5772-43d3-8bf2-24a126122a9c"},"vehicle_type_id":"4","last_reported":1747253363,"current_range_meters":14400,"station_id":"ce4bh512rcd13ifvqe3g","pricing_plan_id":"cebpf4jnsgd1na2vs0mg"},{"bike_id":"00dbdf33-13dc-4b2c-bae8-fa37e78192e3","system_id":"levelo_inurba_marseille","lat":43.33021,"lon":5.39047,"is_reserved":false,"is_disabled":false,"rental_uris":{"android":"levelo://app?vid=00dbdf33-13dc-4b2c-bae8-fa37e78192e3","ios":"levelo://app?vid=00dbdf33-13dc-4b2c-bae8-fa37e78192e3"},"vehicle_type_id":"4","last_reported":1747253363,"current_range_meters":14800,"station_id":"ce4bhr92rcd13ifvqhrg","pricing_plan_id":"cebpf4jnsgd1na2vs0mg"},{"bike_id":"86c033af-706e-4069-beba-6756cdd575c0","system_id":"levelo_inurba_marseille","lat":43.28947,"lon":5.36386,"is_reserved":false,"is_disabled":false,"rental_uris":{"android":"levelo://app?vid=86c033af-706e-4069-beba-6756cdd575c0","ios":"levelo://app?vid=86c033af-706e-4069-beba-6756cdd575c0"},"vehicle_type_id":"4","last_reported":1747253363,"current_range_meters":14800,"station_id":"ce4bhc92rcd13ifvqetg","pricing_plan_id":"cebpf4jnsgd1na2vs0mg"},{"bike_id":"95f054bd-840c-4996-9ba5-351382dae281","system_id":"levelo_inurba_marseille","lat":43.29308,"lon":5.371647,"is_reserved":false,"is_disabled":false,"rental_uris":{"android":"levelo://app?vid=95f054bd-840c-4996-9ba5-351382dae281","ios":"levelo://app?vid=95f054bd-840c-4996-9ba5-351382dae281"},"vehicle_type_id":"4","last_reported":1747253363,"current_range_meters":14800,"station_id":"ce4bgh92rcd13ifvqb40","pricing_plan_id":"cebpf4jnsgd1na2vs0mg"},{"bike_id":"8fb498f8-adf8-4344-9bed-26ab7682cb69","system_id":"levelo_inurba_marseille","lat":43.28458,"lon":5.35877,"is_reserved":false,"is_disabled":false,"rental_uris":{"android":"levelo://app?vid=8fb498f8-adf8-4344-9bed-26ab7682cb69","ios":"levelo://app?vid=8fb498f8-adf8-4344-9bed-26ab7682cb69"},"vehicle_type_id":"4","last_reported":1747253363,"current_range_meters":14800,"station_id":"ce4bhah2rcd13ifvqei0","pricing_plan_id":"cebpf4jnsgd1na2vs0mg"},{"bike_id":"1ca58213-c754-4d8d-b717-cd343a7d5dfe","system_id":"levelo_inurba_marseille","lat":43.24802,"lon":5.37458,"is_reserved":false,"is_disabled":false,"rental_uris":{"android":"levelo://app?vid=1ca58213-c754-4d8d-b717-cd343a7d5dfe","ios":"levelo://app?vid=1ca58213-c754-4d8d-b717-cd343a7d5dfe"},"vehicle_type_id":"4","last_reported":1747253363,"current_range_meters":14800,"station_id":"ce4bhgh2rcd13ifvqfb0","pricing_plan_id":"cebpf4jnsgd1na2vs0mg"},{"bike_id":"68430a29-8263-481a-a4f7-272664bff0f4","system_id":"levelo_inurba_marseille","lat":43.29923,"lon":5.37476,"is_reserved":false,"is_disabled":false,"rental_uris":{"android":"levelo://app?vid=68430a29-8263-481a-a4f7-272664bff0f4","ios":"levelo://app?vid=68430a29-8263-481a-a4f7-272664bff0f4"},"vehicle_type_id":"4","last_reported":1747253363,"current_range_meters":15200,"station_id":"ce4bgjh2rcd13ifvqbg0","pricing_plan_id":"cebpf4jnsgd1na2vs0mg"},{"bike_id":"f7108105-b44a-47b2-80cb-79cb154b2b78","system_id":"levelo_inurba_marseille","lat":43.279902,"lon":5.416636,"is_reserved":false,"is_disabled":false,"rental_uris":{"android":"levelo://app?vid=f7108105-b44a-47b2-80cb-79cb154b2b78","ios":"levelo://app?vid=f7108105-b44a-47b2-80cb-79cb154b2b78"},"vehicle_type_id":"4","last_reported":1747253363,"current_range_meters":15200,"station_id":"ce4bho12rcd13ifvqh1g","pricing_plan_id":"cebpf4jnsgd1na2vs0mg"},{"bike_id":"335ce41f-939e-4323-8ccd-a3ddaed9ae09","system_id":"levelo_inurba_marseille","lat":43.295278,"lon":5.38547,"is_reserved":false,"is_disabled":false,"rental_uris":{"android":"levelo://app?vid=335ce41f-939e-4323-8ccd-a3ddaed9ae09","ios":"levelo://app?vid=335ce41f-939e-4323-8ccd-a3ddaed9ae09"},"vehicle_type_id":"4","last_reported":1747253363,"current_range_meters":15200,"station_id":"ce4bgih2rcd13ifvqba0","pricing_plan_id":"cebpf4jnsgd1na2vs0mg"},{"bike_id":"feb4f947-8c6b-40c7-9498-be1ceb9335f1","system_id":"levelo_inurba_marseille","lat":43.31327,"lon":5.39697,"is_reserved":false,"is_disabled":false,"rental_uris":{"android":"levelo://app?vid=feb4f947-8c6b-40c7-9498-be1ceb9335f1","ios":"levelo://app?vid=feb4f947-8c6b-40c7-9498-be1ceb9335f1"},"vehicle_type_id":"4","last_reported":1747253363,"current_range_meters":16000,"station_id":"ce4bgvp2rcd13ifvqcu0","pricing_plan_id":"cebpf4jnsgd1na2vs0mg"},{"bike_id":"fc9f8e6a-5736-4920-aff7-c92f9f88c8b5","system_id":"levelo_inurba_marseille","lat":43.27907,"lon":5.38012,"is_reserved":false,"is_disabled":false,"rental_uris":{"android":"levelo://app?vid=fc9f8e6a-5736-4920-aff7-c92f9f88c8b5","ios":"levelo://app?vid=fc9f8e6a-5736-4920-aff7-c92f9f88c8b5"},"vehicle_type_id":"4","last_reported":1747253363,"current_range_meters":15200,"station_id":"ce4bhf92rcd13ifvqf50","pricing_plan_id":"cebpf4jnsgd1na2vs0mg"},{"bike_id":"77a29338-5556-4205-9db9-a624ab9d00e5","system_id":"levelo_inurba_marseille","lat":43.24538,"lon":5.3952,"is_reserved":false,"is_disabled":false,"rental_uris":{"android":"levelo://app?vid=77a29338-5556-4205-9db9-a624ab9d00e5","ios":"levelo://app?vid=77a29338-5556-4205-9db9-a624ab9d00e5"},"vehicle_type_id":"4","last_reported":1747253363,"current_range_meters":16000,"station_id":"ce4bhlp2rcd13ifvqgjg","pricing_plan_id":"cebpf4jnsgd1na2vs0mg"},{"bike_id":"94425245-09df-4108-9a30-610dbcaf2585","system_id":"levelo_inurba_marseille","lat":43.3172,"lon":5.42393,"is_reserved":false,"is_disabled":false,"rental_uris":{"android":"levelo://app?vid=94425245-09df-4108-9a30-610dbcaf2585","ios":"levelo://app?vid=94425245-09df-4108-9a30-610dbcaf2585"},"vehicle_type_id":"4","last_reported":1747253363,"current_range_meters":16000,"station_id":"ce4bhp92rcd13ifvqhbg","pricing_plan_id":"cebpf4jnsgd1na2vs0mg"},{"bike_id":"89b7c442-48aa-497b-9f4b-7c907a7a028e","system_id":"levelo_inurba_marseille","lat":43.2481,"lon":5.37454,"is_reserved":false,"is_disabled":false,"rental_uris":{"android":"levelo://app?vid=89b7c442-48aa-497b-9f4b-7c907a7a028e","ios":"levelo://app?vid=89b7c442-48aa-497b-9f4b-7c907a7a028e"},"vehicle_type_id":"4","last_reported":1747253363,"current_range_meters":16000,"station_id":"ce4bhgh2rcd13ifvqfb0","pricing_plan_id":"cebpf4jnsgd1na2vs0mg"},{"bike_id":"32122cc2-1955-4fa7-b923-e772e4a9638a","system_id":"levelo_inurba_marseille","lat":43.29564,"lon":5.42256,"is_reserved":false,"is_disabled":false,"rental_uris":{"android":"levelo://app?vid=32122cc2-1955-4fa7-b923-e772e4a9638a","ios":"levelo://app?vid=32122cc2-1955-4fa7-b923-e772e4a9638a"},"vehicle_type_id":"4","last_reported":1747253363,"current_range_meters":16000,"station_id":"ce4bhph2rcd13ifvqhdg","pricing_plan_id":"cebpf4jnsgd1na2vs0mg"},{"bike_id":"cc377332-c824-4cf8-bc9d-97d1852f3692","system_id":"levelo_inurba_marseille","lat":43.3169,"lon":5.40476,"is_reserved":false,"is_disabled":false,"rental_uris":{"android":"levelo://app?vid=cc377332-c824-4cf8-bc9d-97d1852f3692","ios":"levelo://app?vid=cc377332-c824-4cf8-bc9d-97d1852f3692"},"vehicle_type_id":"4","last_reported":1747253363,"current_range_meters":16000,"station_id":"ce4bh012rcd13ifvqd00","pricing_plan_id":"cebpf4jnsgd1na2vs0mg"},{"bike_id":"991c43e0-cdd7-42df-9e7c-6f2f37b1ee2c","system_id":"levelo_inurba_marseille","lat":43.29005,"lon":5.35613,"is_reserved":false,"is_disabled":false,"rental_uris":{"android":"levelo://app?vid=991c43e0-cdd7-42df-9e7c-6f2f37b1ee2c","ios":"levelo://app?vid=991c43e0-cdd7-42df-9e7c-6f2f37b1ee2c"},"vehicle_type_id":"4","last_reported":1747253363,"current_range_meters":16000,"station_id":"ce4bhb92rcd13ifvqen0","pricing_plan_id":"cebpf4jnsgd1na2vs0mg"},{"bike_id":"d75df38a-a365-46fa-b389-281a29a71a09","system_id":"levelo_inurba_marseille","lat":43.28156,"lon":5.42644,"is_reserved":false,"is_disabled":false,"rental_uris":{"android":"levelo://app?vid=d75df38a-a365-46fa-b389-281a29a71a09","ios":"levelo://app?vid=d75df38a-a365-46fa-b389-281a29a71a09"},"vehicle_type_id":"4","last_reported":1747253363,"current_range_meters":16400,"station_id":"ce4bhnh2rcd13ifvqgug","pricing_plan_id":"cebpf4jnsgd1na2vs0mg"},{"bike_id":"86d9ff89-89d7-419b-aee9-09ca99185a05","system_id":"levelo_inurba_marseille","lat":43.29197,"lon":5.39329,"is_reserved":false,"is_disabled":false,"rental_uris":{"android":"levelo://app?vid=86d9ff89-89d7-419b-aee9-09ca99185a05","ios":"levelo://app?vid=86d9ff89-89d7-419b-aee9-09ca99185a05"},"vehicle_type_id":"4","last_reported":1747253363,"current_range_meters":16000,"station_id":"ce4bh192rcd13ifvqdd0","pricing_plan_id":"cebpf4jnsgd1na2vs0mg"},{"bike_id":"58ec5257-2dcf-429a-8f0e-28a5e8caa832","system_id":"levelo_inurba_marseille","lat":43.31162,"lon":5.38718,"is_reserved":false,"is_disabled":false,"rental_uris":{"android":"levelo://app?vid=58ec5257-2dcf-429a-8f0e-28a5e8caa832","ios":"levelo://app?vid=58ec5257-2dcf-429a-8f0e-28a5e8caa832"},"vehicle_type_id":"4","last_reported":1747253363,"current_range_meters":16000,"station_id":"ce4bgv12rcd13ifvqcp0","pricing_plan_id":"cebpf4jnsgd1na2vs0mg"},{"bike_id":"a4439a53-1037-4911-af4f-b21650e4fe2c","system_id":"levelo_inurba_marseille","lat":43.31075,"lon":5.3836,"is_reserved":false,"is_disabled":false,"rental_uris":{"android":"levelo://app?vid=a4439a53-1037-4911-af4f-b21650e4fe2c","ios":"levelo://app?vid=a4439a53-1037-4911-af4f-b21650e4fe2c"},"vehicle_type_id":"4","last_reported":1747253363,"current_range_meters":16000,"station_id":"ce4bgv92rcd13ifvqcr0","pricing_plan_id":"cebpf4jnsgd1na2vs0mg"},{"bike_id":"91abf9db-b86d-40d2-ab66-8acc8f2b2e3c","system_id":"levelo_inurba_marseille","lat":43.29369,"lon":5.37854,"is_reserved":false,"is_disabled":false,"rental_uris":{"android":"levelo://app?vid=91abf9db-b86d-40d2-ab66-8acc8f2b2e3c","ios":"levelo://app?vid=91abf9db-b86d-40d2-ab66-8acc8f2b2e3c"},"vehicle_type_id":"4","last_reported":1747253363,"current_range_meters":16400,"station_id":"ce4bgjh2rcd13ifvqbf0","pricing_plan_id":"cebpf4jnsgd1na2vs0mg"},{"bike_id":"bf148fad-e35c-429e-bfcc-e69d3314491e","system_id":"levelo_inurba_marseille","lat":43.31263,"lon":5.40192,"is_reserved":false,"is_disabled":false,"rental_uris":{"android":"levelo://app?vid=bf148fad-e35c-429e-bfcc-e69d3314491e","ios":"levelo://app?vid=bf148fad-e35c-429e-bfcc-e69d3314491e"},"vehicle_type_id":"4","last_reported":1747253363,"current_range_meters":16000,"station_id":"","pricing_plan_id":"cebpf4jnsgd1na2vs0mg"},{"bike_id":"2af0df00-84df-494b-94f3-3f5b86286540","system_id":"levelo_inurba_marseille","lat":43.30907,"lon":5.37063,"is_reserved":false,"is_disabled":false,"rental_uris":{"android":"levelo://app?vid=2af0df00-84df-494b-94f3-3f5b86286540","ios":"levelo://app?vid=2af0df00-84df-494b-94f3-3f5b86286540"},"vehicle_type_id":"4","last_reported":1747253363,"current_range_meters":16000,"station_id":"","pricing_plan_id":"cebpf4jnsgd1na2vs0mg"},{"bike_id":"cfae641a-54c0-4b9b-b874-774267c67373","system_id":"levelo_inurba_marseille","lat":43.28958,"lon":5.43199,"is_reserved":false,"is_disabled":false,"rental_uris":{"android":"levelo://app?vid=cfae641a-54c0-4b9b-b874-774267c67373","ios":"levelo://app?vid=cfae641a-54c0-4b9b-b874-774267c67373"},"vehicle_type_id":"4","last_reported":1747253363,"current_range_meters":16000,"station_id":"","pricing_plan_id":"cebpf4jnsgd1na2vs0mg"},{"bike_id":"5293d4aa-0549-458e-ad35-9aeeb53bca11","system_id":"levelo_inurba_marseille","lat":43.29191,"lon":5.39323,"is_reserved":false,"is_disabled":false,"rental_uris":{"android":"levelo://app?vid=5293d4aa-0549-458e-ad35-9aeeb53bca11","ios":"levelo://app?vid=5293d4aa-0549-458e-ad35-9aeeb53bca11"},"vehicle_type_id":"4","last_reported":1747253363,"current_range_meters":16000,"station_id":"ce4bh192rcd13ifvqdd0","pricing_plan_id":"cebpf4jnsgd1na2vs0mg"},{"bike_id":"c25f6565-ded3-4677-b088-739185cab41c","system_id":"levelo_inurba_marseille","lat":43.29312,"lon":5.37178,"is_reserved":false,"is_disabled":false,"rental_uris":{"android":"levelo://app?vid=c25f6565-ded3-4677-b088-739185cab41c","ios":"levelo://app?vid=c25f6565-ded3-4677-b088-739185cab41c"},"vehicle_type_id":"4","last_reported":1747253363,"current_range_meters":16400,"station_id":"ce4bgh92rcd13ifvqb40","pricing_plan_id":"cebpf4jnsgd1na2vs0mg"},{"bike_id":"a7a3d8d2-d4c3-469c-b962-d9c90b2eca97","system_id":"levelo_inurba_marseille","lat":43.283954,"lon":5.375313,"is_reserved":false,"is_disabled":true,"rental_uris":{"android":"levelo://app?vid=a7a3d8d2-d4c3-469c-b962-d9c90b2eca97","ios":"levelo://app?vid=a7a3d8d2-d4c3-469c-b962-d9c90b2eca97"},"vehicle_type_id":"4","last_reported":1747253363,"current_range_meters":16400,"station_id":"ce4bh412rcd13ifvqds0","pricing_plan_id":"cebpf4jnsgd1na2vs0mg"},{"bike_id":"21f5a1a4-43c5-4049-8a8d-3146c5c35157","system_id":"levelo_inurba_marseille","lat":43.22961,"lon":5.35445,"is_reserved":false,"is_disabled":false,"rental_uris":{"android":"levelo://app?vid=21f5a1a4-43c5-4049-8a8d-3146c5c35157","ios":"levelo://app?vid=21f5a1a4-43c5-4049-8a8d-3146c5c35157"},"vehicle_type_id":"4","last_reported":1747253363,"current_range_meters":16400,"station_id":"","pricing_plan_id":"cebpf4jnsgd1na2vs0mg"},{"bike_id":"1b80681f-9677-44c0-90c9-48d87fc24c7e","system_id":"levelo_inurba_marseille","lat":43.30882,"lon":5.3966,"is_reserved":false,"is_disabled":false,"rental_uris":{"android":"levelo://app?vid=1b80681f-9677-44c0-90c9-48d87fc24c7e","ios":"levelo://app?vid=1b80681f-9677-44c0-90c9-48d87fc24c7e"},"vehicle_type_id":"4","last_reported":1747253363,"current_range_meters":16400,"station_id":"ce4bh012rcd13ifvqcv0","pricing_plan_id":"cebpf4jnsgd1na2vs0mg"},{"bike_id":"19cae99b-aa23-4f27-bd5b-cd046f4be6a8","system_id":"levelo_inurba_marseille","lat":43.29926,"lon":5.37452,"is_reserved":false,"is_disabled":false,"rental_uris":{"android":"levelo://app?vid=19cae99b-aa23-4f27-bd5b-cd046f4be6a8","ios":"levelo://app?vid=19cae99b-aa23-4f27-bd5b-cd046f4be6a8"},"vehicle_type_id":"4","last_reported":1747253363,"current_range_meters":16400,"station_id":"ce4bgjh2rcd13ifvqbg0","pricing_plan_id":"cebpf4jnsgd1na2vs0mg"},{"bike_id":"76d19e50-95e8-472a-8f8a-190df1268370","system_id":"levelo_inurba_marseille","lat":43.2808,"lon":5.39648,"is_reserved":false,"is_disabled":false,"rental_uris":{"android":"levelo://app?vid=76d19e50-95e8-472a-8f8a-190df1268370","ios":"levelo://app?vid=76d19e50-95e8-472a-8f8a-190df1268370"},"vehicle_type_id":"4","last_reported":1747253363,"current_range_meters":16400,"station_id":"ce4bho12rcd13ifvqh2g","pricing_plan_id":"cebpf4jnsgd1na2vs0mg"},{"bike_id":"406ea47d-b89d-48cb-b521-037e2aff8b2f","system_id":"levelo_inurba_marseille","lat":43.26933,"lon":5.40258,"is_reserved":false,"is_disabled":false,"rental_uris":{"android":"levelo://app?vid=406ea47d-b89d-48cb-b521-037e2aff8b2f","ios":"levelo://app?vid=406ea47d-b89d-48cb-b521-037e2aff8b2f"},"vehicle_type_id":"4","last_reported":1747253363,"current_range_meters":16400,"station_id":"cjm6bp8fraef2m0cb0m0","pricing_plan_id":"cebpf4jnsgd1na2vs0mg"},{"bike_id":"a4d979e2-9f25-4b8a-826d-a4e2b3203cc6","system_id":"levelo_inurba_marseille","lat":43.30897,"lon":5.39631,"is_reserved":false,"is_disabled":false,"rental_uris":{"android":"levelo://app?vid=a4d979e2-9f25-4b8a-826d-a4e2b3203cc6","ios":"levelo://app?vid=a4d979e2-9f25-4b8a-826d-a4e2b3203cc6"},"vehicle_type_id":"4","last_reported":1747253363,"current_range_meters":16800,"station_id":"ce4bh012rcd13ifvqcv0","pricing_plan_id":"cebpf4jnsgd1na2vs0mg"},{"bike_id":"7bd521b5-756d-405c-9438-d2db26f23023","system_id":"levelo_inurba_marseille","lat":43.25115,"lon":5.40322,"is_reserved":false,"is_disabled":false,"rental_uris":{"android":"levelo://app?vid=7bd521b5-756d-405c-9438-d2db26f23023","ios":"levelo://app?vid=7bd521b5-756d-405c-9438-d2db26f23023"},"vehicle_type_id":"4","last_reported":1747253363,"current_range_meters":16800,"station_id":"ce4bhlh2rcd13ifvqgig","pricing_plan_id":"cebpf4jnsgd1na2vs0mg"},{"bike_id":"b65a13c9-6211-4b05-a0cd-7427fadea2bd","system_id":"levelo_inurba_marseille","lat":43.24668,"lon":5.38167,"is_reserved":false,"is_disabled":false,"rental_uris":{"android":"levelo://app?vid=b65a13c9-6211-4b05-a0cd-7427fadea2bd","ios":"levelo://app?vid=b65a13c9-6211-4b05-a0cd-7427fadea2bd"},"vehicle_type_id":"4","last_reported":1747253363,"current_range_meters":16800,"station_id":"ce4bhih2rcd13ifvqfr0","pricing_plan_id":"cebpf4jnsgd1na2vs0mg"},{"bike_id":"503b1e6e-2a73-4f04-bb9f-80c3831538b1","system_id":"levelo_inurba_marseille","lat":43.30895,"lon":5.36856,"is_reserved":false,"is_disabled":true,"rental_uris":{"android":"levelo://app?vid=503b1e6e-2a73-4f04-bb9f-80c3831538b1","ios":"levelo://app?vid=503b1e6e-2a73-4f04-bb9f-80c3831538b1"},"vehicle_type_id":"4","last_reported":1747253363,"current_range_meters":16800,"station_id":"ce4bgn92rcd13ifvqbvg","pricing_plan_id":"cebpf4jnsgd1na2vs0mg"},{"bike_id":"d3f05add-2399-4930-96be-802df569fbe4","system_id":"levelo_inurba_marseille","lat":43.27555,"lon":5.38443,"is_reserved":false,"is_disabled":false,"rental_uris":{"android":"levelo://app?vid=d3f05add-2399-4930-96be-802df569fbe4","ios":"levelo://app?vid=d3f05add-2399-4930-96be-802df569fbe4"},"vehicle_type_id":"4","last_reported":1747253363,"current_range_meters":16800,"station_id":"ce4bhh92rcd13ifvqfi0","pricing_plan_id":"cebpf4jnsgd1na2vs0mg"},{"bike_id":"d3dbbfb3-a547-4229-bb03-0374ae8d30f0","system_id":"levelo_inurba_marseille","lat":43.2799,"lon":5.41662,"is_reserved":false,"is_disabled":false,"rental_uris":{"android":"levelo://app?vid=d3dbbfb3-a547-4229-bb03-0374ae8d30f0","ios":"levelo://app?vid=d3dbbfb3-a547-4229-bb03-0374ae8d30f0"},"vehicle_type_id":"4","last_reported":1747253363,"current_range_meters":16800,"station_id":"ce4bho12rcd13ifvqh1g","pricing_plan_id":"cebpf4jnsgd1na2vs0mg"},{"bike_id":"d74dda0c-2ae8-4a20-aee3-80ba3b692d64","system_id":"levelo_inurba_marseille","lat":43.30476,"lon":5.37169,"is_reserved":false,"is_disabled":false,"rental_uris":{"android":"levelo://app?vid=d74dda0c-2ae8-4a20-aee3-80ba3b692d64","ios":"levelo://app?vid=d74dda0c-2ae8-4a20-aee3-80ba3b692d64"},"vehicle_type_id":"4","last_reported":1747253363,"current_range_meters":16800,"station_id":"","pricing_plan_id":"cebpf4jnsgd1na2vs0mg"},{"bike_id":"4ca5c04b-83fc-47f0-ba12-ec385416b528","system_id":"levelo_inurba_marseille","lat":43.31426,"lon":5.369663,"is_reserved":false,"is_disabled":false,"rental_uris":{"android":"levelo://app?vid=4ca5c04b-83fc-47f0-ba12-ec385416b528","ios":"levelo://app?vid=4ca5c04b-83fc-47f0-ba12-ec385416b528"},"vehicle_type_id":"4","last_reported":1747253363,"current_range_meters":16800,"station_id":"","pricing_plan_id":"cebpf4jnsgd1na2vs0mg"},{"bike_id":"85229f75-99f9-447a-a3ed-86236028f5a5","system_id":"levelo_inurba_marseille","lat":43.251113,"lon":5.40322,"is_reserved":false,"is_disabled":false,"rental_uris":{"android":"levelo://app?vid=85229f75-99f9-447a-a3ed-86236028f5a5","ios":"levelo://app?vid=85229f75-99f9-447a-a3ed-86236028f5a5"},"vehicle_type_id":"4","last_reported":1747253363,"current_range_meters":16800,"station_id":"ce4bhlh2rcd13ifvqgig","pricing_plan_id":"cebpf4jnsgd1na2vs0mg"},{"bike_id":"0a5e6cc4-0328-4fd7-9db5-c5029f1cf2d9","system_id":"levelo_inurba_marseille","lat":43.32366,"lon":5.38882,"is_reserved":false,"is_disabled":false,"rental_uris":{"android":"levelo://app?vid=0a5e6cc4-0328-4fd7-9db5-c5029f1cf2d9","ios":"levelo://app?vid=0a5e6cc4-0328-4fd7-9db5-c5029f1cf2d9"},"vehicle_type_id":"4","last_reported":1747253363,"current_range_meters":17200,"station_id":"ce4bhqp2rcd13ifvqhog","pricing_plan_id":"cebpf4jnsgd1na2vs0mg"},{"bike_id":"2386c923-50b3-4181-9266-5ff9c79662dd","system_id":"levelo_inurba_marseille","lat":43.30905,"lon":5.37171,"is_reserved":false,"is_disabled":false,"rental_uris":{"android":"levelo://app?vid=2386c923-50b3-4181-9266-5ff9c79662dd","ios":"levelo://app?vid=2386c923-50b3-4181-9266-5ff9c79662dd"},"vehicle_type_id":"4","last_reported":1747253363,"current_range_meters":17200,"station_id":"ce4bguh2rcd13ifvqckg","pricing_plan_id":"cebpf4jnsgd1na2vs0mg"},{"bike_id":"3101cc05-136b-45c2-95c5-5d8481191b8d","system_id":"levelo_inurba_marseille","lat":43.29264,"lon":5.3845,"is_reserved":false,"is_disabled":false,"rental_uris":{"android":"levelo://app?vid=3101cc05-136b-45c2-95c5-5d8481191b8d","ios":"levelo://app?vid=3101cc05-136b-45c2-95c5-5d8481191b8d"},"vehicle_type_id":"4","last_reported":1747253363,"current_range_meters":17200,"station_id":"ce4bh692rcd13ifvqea0","pricing_plan_id":"cebpf4jnsgd1na2vs0mg"},{"bike_id":"196d2702-8bb9-48f1-86c0-71a7bb7ad12c","system_id":"levelo_inurba_marseille","lat":43.2803,"lon":5.36956,"is_reserved":false,"is_disabled":false,"rental_uris":{"android":"levelo://app?vid=196d2702-8bb9-48f1-86c0-71a7bb7ad12c","ios":"levelo://app?vid=196d2702-8bb9-48f1-86c0-71a7bb7ad12c"},"vehicle_type_id":"4","last_reported":1747253363,"current_range_meters":17200,"station_id":"ce4bha12rcd13ifvqef0","pricing_plan_id":"cebpf4jnsgd1na2vs0mg"},{"bike_id":"f97f1493-8227-4738-b53f-4ff03a7620e8","system_id":"levelo_inurba_marseille","lat":43.29447,"lon":5.39747,"is_reserved":false,"is_disabled":false,"rental_uris":{"android":"levelo://app?vid=f97f1493-8227-4738-b53f-4ff03a7620e8","ios":"levelo://app?vid=f97f1493-8227-4738-b53f-4ff03a7620e8"},"vehicle_type_id":"4","last_reported":1747253363,"current_range_meters":17200,"station_id":"ce4bh3h2rcd13ifvqdo0","pricing_plan_id":"cebpf4jnsgd1na2vs0mg"},{"bike_id":"b3dc7ba8-3371-4496-b4ad-370034e7b805","system_id":"levelo_inurba_marseille","lat":43.30928,"lon":5.40142,"is_reserved":false,"is_disabled":false,"rental_uris":{"android":"levelo://app?vid=b3dc7ba8-3371-4496-b4ad-370034e7b805","ios":"levelo://app?vid=b3dc7ba8-3371-4496-b4ad-370034e7b805"},"vehicle_type_id":"4","last_reported":1747253363,"current_range_meters":17200,"station_id":"ce4bgvp2rcd13ifvqct0","pricing_plan_id":"cebpf4jnsgd1na2vs0mg"},{"bike_id":"fa4befad-9e1d-4f2a-8cac-8fccb960e5af","system_id":"levelo_inurba_marseille","lat":43.28939,"lon":5.36631,"is_reserved":false,"is_disabled":false,"rental_uris":{"android":"levelo://app?vid=fa4befad-9e1d-4f2a-8cac-8fccb960e5af","ios":"levelo://app?vid=fa4befad-9e1d-4f2a-8cac-8fccb960e5af"},"vehicle_type_id":"4","last_reported":1747253363,"current_range_meters":17200,"station_id":"ce4bhap2rcd13ifvqek0","pricing_plan_id":"cebpf4jnsgd1na2vs0mg"},{"bike_id":"65064f86-3c66-4826-93c2-65566820a8eb","system_id":"levelo_inurba_marseille","lat":43.26553,"lon":5.39018,"is_reserved":false,"is_disabled":false,"rental_uris":{"android":"levelo://app?vid=65064f86-3c66-4826-93c2-65566820a8eb","ios":"levelo://app?vid=65064f86-3c66-4826-93c2-65566820a8eb"},"vehicle_type_id":"4","last_reported":1747253363,"current_range_meters":17200,"station_id":"ce4bhe12rcd13ifvqf30","pricing_plan_id":"cebpf4jnsgd1na2vs0mg"},{"bike_id":"88bbba9e-7184-4058-8824-c96a1cc5be7e","system_id":"levelo_inurba_marseille","lat":43.26228,"lon":5.40456,"is_reserved":false,"is_disabled":false,"rental_uris":{"android":"levelo://app?vid=88bbba9e-7184-4058-8824-c96a1cc5be7e","ios":"levelo://app?vid=88bbba9e-7184-4058-8824-c96a1cc5be7e"},"vehicle_type_id":"4","last_reported":1747253363,"current_range_meters":17200,"station_id":"ce4bhmh2rcd13ifvqgmg","pricing_plan_id":"cebpf4jnsgd1na2vs0mg"},{"bike_id":"614b7a4c-ac25-4f83-a968-a99bc8185a87","system_id":"levelo_inurba_marseille","lat":43.27175,"lon":5.40987,"is_reserved":false,"is_disabled":false,"rental_uris":{"android":"levelo://app?vid=614b7a4c-ac25-4f83-a968-a99bc8185a87","ios":"levelo://app?vid=614b7a4c-ac25-4f83-a968-a99bc8185a87"},"vehicle_type_id":"4","last_reported":1747253363,"current_range_meters":17200,"station_id":"ce4bhl12rcd13ifvqgf0","pricing_plan_id":"cebpf4jnsgd1na2vs0mg"},{"bike_id":"31089fd7-f6db-41ca-9019-d2aa73140abe","system_id":"levelo_inurba_marseille","lat":43.30947,"lon":5.39027,"is_reserved":false,"is_disabled":false,"rental_uris":{"android":"levelo://app?vid=31089fd7-f6db-41ca-9019-d2aa73140abe","ios":"levelo://app?vid=31089fd7-f6db-41ca-9019-d2aa73140abe"},"vehicle_type_id":"4","last_reported":1747253363,"current_range_meters":17600,"station_id":"ce4bgup2rcd13ifvqco0","pricing_plan_id":"cebpf4jnsgd1na2vs0mg"},{"bike_id":"8200ec69-fb64-452f-972e-b4197dc44b61","system_id":"levelo_inurba_marseille","lat":43.282622,"lon":5.350648,"is_reserved":false,"is_disabled":false,"rental_uris":{"android":"levelo://app?vid=8200ec69-fb64-452f-972e-b4197dc44b61","ios":"levelo://app?vid=8200ec69-fb64-452f-972e-b4197dc44b61"},"vehicle_type_id":"4","last_reported":1747253363,"current_range_meters":17600,"station_id":"ce4bhbp2rcd13ifvqerg","pricing_plan_id":"cebpf4jnsgd1na2vs0mg"},{"bike_id":"c2871eb7-bb83-4da8-bd9e-21c07b2319d9","system_id":"levelo_inurba_marseille","lat":43.28932,"lon":5.36635,"is_reserved":false,"is_disabled":false,"rental_uris":{"android":"levelo://app?vid=c2871eb7-bb83-4da8-bd9e-21c07b2319d9","ios":"levelo://app?vid=c2871eb7-bb83-4da8-bd9e-21c07b2319d9"},"vehicle_type_id":"4","last_reported":1747253363,"current_range_meters":17600,"station_id":"ce4bhap2rcd13ifvqek0","pricing_plan_id":"cebpf4jnsgd1na2vs0mg"},{"bike_id":"c0b9fd4f-e181-46ce-b0bf-f5119973334f","system_id":"levelo_inurba_marseille","lat":43.33771,"lon":5.37424,"is_reserved":false,"is_disabled":false,"rental_uris":{"android":"levelo://app?vid=c0b9fd4f-e181-46ce-b0bf-f5119973334f","ios":"levelo://app?vid=c0b9fd4f-e181-46ce-b0bf-f5119973334f"},"vehicle_type_id":"4","last_reported":1747253363,"current_range_meters":17600,"station_id":"","pricing_plan_id":"cebpf4jnsgd1na2vs0mg"},{"bike_id":"d68e2195-4a46-4330-8fb5-099a7e5fcbec","system_id":"levelo_inurba_marseille","lat":43.30792,"lon":5.38158,"is_reserved":false,"is_disabled":false,"rental_uris":{"android":"levelo://app?vid=d68e2195-4a46-4330-8fb5-099a7e5fcbec","ios":"levelo://app?vid=d68e2195-4a46-4330-8fb5-099a7e5fcbec"},"vehicle_type_id":"4","last_reported":1747253363,"current_range_meters":18000,"station_id":"ce4bgt12rcd13ifvqce0","pricing_plan_id":"cebpf4jnsgd1na2vs0mg"},{"bike_id":"c0023606-0d7a-4e87-a1a7-c3d1e1479b8f","system_id":"levelo_inurba_marseille","lat":43.24798,"lon":5.37454,"is_reserved":false,"is_disabled":false,"rental_uris":{"android":"levelo://app?vid=c0023606-0d7a-4e87-a1a7-c3d1e1479b8f","ios":"levelo://app?vid=c0023606-0d7a-4e87-a1a7-c3d1e1479b8f"},"vehicle_type_id":"4","last_reported":1747253363,"current_range_meters":18000,"station_id":"ce4bhgh2rcd13ifvqfb0","pricing_plan_id":"cebpf4jnsgd1na2vs0mg"},{"bike_id":"c682a571-1b8e-42c7-82ff-72c8d128bd01","system_id":"levelo_inurba_marseille","lat":43.298936,"lon":5.383215,"is_reserved":false,"is_disabled":false,"rental_uris":{"android":"levelo://app?vid=c682a571-1b8e-42c7-82ff-72c8d128bd01","ios":"levelo://app?vid=c682a571-1b8e-42c7-82ff-72c8d128bd01"},"vehicle_type_id":"4","last_reported":1747253363,"current_range_meters":18000,"station_id":"","pricing_plan_id":"cebpf4jnsgd1na2vs0mg"},{"bike_id":"6dec34e8-aae1-45b2-999a-94cfe400def5","system_id":"levelo_inurba_marseille","lat":43.27068,"lon":5.42283,"is_reserved":false,"is_disabled":false,"rental_uris":{"android":"levelo://app?vid=6dec34e8-aae1-45b2-999a-94cfe400def5","ios":"levelo://app?vid=6dec34e8-aae1-45b2-999a-94cfe400def5"},"vehicle_type_id":"4","last_reported":1747253363,"current_range_meters":17600,"station_id":"ce4bhk92rcd13ifvqgb0","pricing_plan_id":"cebpf4jnsgd1na2vs0mg"},{"bike_id":"2edaef87-225f-46cb-8b2a-dff5bdeda8f7","system_id":"levelo_inurba_marseille","lat":43.28942,"lon":5.36396,"is_reserved":false,"is_disabled":false,"rental_uris":{"android":"levelo://app?vid=2edaef87-225f-46cb-8b2a-dff5bdeda8f7","ios":"levelo://app?vid=2edaef87-225f-46cb-8b2a-dff5bdeda8f7"},"vehicle_type_id":"4","last_reported":1747253363,"current_range_meters":18000,"station_id":"ce4bhc92rcd13ifvqetg","pricing_plan_id":"cebpf4jnsgd1na2vs0mg"},{"bike_id":"bc3c392d-5964-4131-8c92-71f4c2aca88f","system_id":"levelo_inurba_marseille","lat":43.306103,"lon":5.393376,"is_reserved":false,"is_disabled":false,"rental_uris":{"android":"levelo://app?vid=bc3c392d-5964-4131-8c92-71f4c2aca88f","ios":"levelo://app?vid=bc3c392d-5964-4131-8c92-71f4c2aca88f"},"vehicle_type_id":"4","last_reported":1747253363,"current_range_meters":18000,"station_id":"ce4bh0p2rcd13ifvqd80","pricing_plan_id":"cebpf4jnsgd1na2vs0mg"},{"bike_id":"1def4d9e-ba54-4554-8279-72b57c0de750","system_id":"levelo_inurba_marseille","lat":43.337444,"lon":5.374475,"is_reserved":false,"is_disabled":false,"rental_uris":{"android":"levelo://app?vid=1def4d9e-ba54-4554-8279-72b57c0de750","ios":"levelo://app?vid=1def4d9e-ba54-4554-8279-72b57c0de750"},"vehicle_type_id":"4","last_reported":1747253363,"current_range_meters":18000,"station_id":"","pricing_plan_id":"cebpf4jnsgd1na2vs0mg"},{"bike_id":"b064664a-37e6-4027-8d08-cb54eda1e955","system_id":"levelo_inurba_marseille","lat":43.32673,"lon":5.42965,"is_reserved":false,"is_disabled":false,"rental_uris":{"android":"levelo://app?vid=b064664a-37e6-4027-8d08-cb54eda1e955","ios":"levelo://app?vid=b064664a-37e6-4027-8d08-cb54eda1e955"},"vehicle_type_id":"4","last_reported":1747253363,"current_range_meters":18000,"station_id":"","pricing_plan_id":"cebpf4jnsgd1na2vs0mg"},{"bike_id":"0cc46be0-cda7-4d84-a24a-b567a36e5f7e","system_id":"levelo_inurba_marseille","lat":43.30273,"lon":5.36859,"is_reserved":false,"is_disabled":false,"rental_uris":{"android":"levelo://app?vid=0cc46be0-cda7-4d84-a24a-b567a36e5f7e","ios":"levelo://app?vid=0cc46be0-cda7-4d84-a24a-b567a36e5f7e"},"vehicle_type_id":"4","last_reported":1747253363,"current_range_meters":18000,"station_id":"","pricing_plan_id":"cebpf4jnsgd1na2vs0mg"},{"bike_id":"97ed3aec-55a2-47ef-b9b2-8ef392c79675","system_id":"levelo_inurba_marseille","lat":43.27994,"lon":5.4166,"is_reserved":false,"is_disabled":false,"rental_uris":{"android":"levelo://app?vid=97ed3aec-55a2-47ef-b9b2-8ef392c79675","ios":"levelo://app?vid=97ed3aec-55a2-47ef-b9b2-8ef392c79675"},"vehicle_type_id":"4","last_reported":1747253363,"current_range_meters":18800,"station_id":"ce4bho12rcd13ifvqh1g","pricing_plan_id":"cebpf4jnsgd1na2vs0mg"},{"bike_id":"3c3f6038-e4f8-49da-a5af-ec4ee872dfcb","system_id":"levelo_inurba_marseille","lat":43.28462,"lon":5.35879,"is_reserved":false,"is_disabled":false,"rental_uris":{"android":"levelo://app?vid=3c3f6038-e4f8-49da-a5af-ec4ee872dfcb","ios":"levelo://app?vid=3c3f6038-e4f8-49da-a5af-ec4ee872dfcb"},"vehicle_type_id":"4","last_reported":1747253363,"current_range_meters":18800,"station_id":"ce4bhah2rcd13ifvqei0","pricing_plan_id":"cebpf4jnsgd1na2vs0mg"},{"bike_id":"5b4d94d5-d1fb-4594-8ced-01262346e7e4","system_id":"levelo_inurba_marseille","lat":43.286169,"lon":5.370587,"is_reserved":false,"is_disabled":false,"rental_uris":{"android":"levelo://app?vid=5b4d94d5-d1fb-4594-8ced-01262346e7e4","ios":"levelo://app?vid=5b4d94d5-d1fb-4594-8ced-01262346e7e4"},