{"last_updated":1748020192,"ttl":60,"version":"2.2","data":{"bikes":[{"bike_id":"c0b9fd4f-e181-46ce-b0bf-f5119973334f","system_id":"levelo_inurba_marseille","lat":43.33771,"lon":5.37424,"is_reserved":false,"is_disabled":true,"rental_uris":{"android":"levelo://app?vid=c0b9fd4f-e181-46ce-b0bf-f5119973334f","ios":"levelo://app?vid=c0b9fd4f-e181-46ce-b0bf-f5119973334f"},"vehicle_type_id":"4","last_reported":1748020192,"current_range_meters":0,"station_id":"","pricing_plan_id":"cebpf4jnsgd1na2vs0mg"},{"bike_id":"d4150556-b601-4cc0-b77e-49c2d38938cf","system_id":"levelo_inurba_marseille","lat":43.2886,"lon":5.45539,"is_reserved":false,"is_disabled":true,"rental_uris":{"android":"levelo://app?vid=d4150556-b601-4cc0-b77e-49c2d38938cf","ios":"levelo://app?vid=d4150556-b601-4cc0-b77e-49c2d38938cf"},"vehicle_type_id":"4","last_reported":1748020192,"current_range_meters":0,"station_id":"","pricing_plan_id":"cebpf4jnsgd1na2vs0mg"},{"bike_id":"e8162579-a5ad-485f-ad83-fec8a2ebe7e1","system_id":"levelo_inurba_marseille","lat":43.2683,"lon":5.39113,"is_reserved":false,"is_disabled":true,"rental_uris":{"android":"levelo://app?vid=e8162579-a5ad-485f-ad83-fec8a2ebe7e1","ios":"levelo://app?vid=e8162579-a5ad-485f-ad83-fec8a2ebe7e1"},"vehicle_type_id":"4","last_reported":1748020192,"current_range_meters":0,"station_id":"","pricing_plan_id":"cebpf4jnsgd1na2vs0mg"},{"bike_id":"c4b55004-c014-4bfa-a092-f7c7649b87ca","system_id":"levelo_inurba_marseille","lat":43.2629,"lon":5.39297,"is_reserved":false,"is_disabled":true,"rental_uris":{"android":"levelo://app?vid=c4b55004-c014-4bfa-a092-f7c7649b87ca","ios":"levelo://app?vid=c4b55004-c014-4bfa-a092-f7c7649b87ca"},"vehicle_type_id":"4","last_reported":1748020192,"current_range_meters":0,"station_id":"","pricing_plan_id":"cebpf4jnsgd1na2vs0mg"},{"bike_id":"a9d86a3e-ff61-4b3c-b1d6-cb137b96f17c","system_id":"levelo_inurba_marseille","lat":43.28883,"lon":5.43043,"is_reserved":false,"is_disabled":true,"rental_uris":{"android":"levelo://app?vid=a9d86a3e-ff61-4b3c-b1d6-cb137b96f17c","ios":"levelo://app?vid=a9d86a3e-ff61-4b3c-b1d6-cb137b96f17c"},"vehicle_type_id":"4","last_reported":1748020192,"current_range_meters":0,"station_id":"","pricing_plan_id":"cebpf4jnsgd1na2vs0mg"},{"bike_id":"15dcdbbd-a41e-43eb-9ed6-26ec15ce7a50","system_id":"levelo_inurba_marseille","lat":43.21414,"lon":5.34119,"is_reserved":false,"is_disabled":true,"rental_uris":{"android":"levelo://app?vid=15dcdbbd-a41e-43eb-9ed6-26ec15ce7a50","ios":"levelo://app?vid=15dcdbbd-a41e-43eb-9ed6-26ec15ce7a50"},"vehicle_type_id":"4","last_reported":1748020192,"current_range_meters":0,"station_id":"","pricing_plan_id":"cebpf4jnsgd1na2vs0mg"},{"bike_id":"e9dd3aa4-b5e7-4480-926d-d7f537719bfa","system_id":"levelo_inurba_marseille","lat":43.230331,"lon":5.401847,"is_reserved":false,"is_disabled":true,"rental_uris":{"android":"levelo://app?vid=e9dd3aa4-b5e7-4480-926d-d7f537719bfa","ios":"levelo://app?vid=e9dd3aa4-b5e7-4480-926d-d7f537719bfa"},"vehicle_type_id":"4","last_reported":1748020192,"current_range_meters":0,"station_id":"","pricing_plan_id":"cebpf4jnsgd1na2vs0mg"},{"bike_id":"3ebe6ed7-4635-41a4-9562-86cc7c8a9536","system_id":"levelo_inurba_marseille","lat":43.29795,"lon":5.38095,"is_reserved":false,"is_disabled":true,"rental_uris":{"android":"levelo://app?vid=3ebe6ed7-4635-41a4-9562-86cc7c8a9536","ios":"levelo://app?vid=3ebe6ed7-4635-41a4-9562-86cc7c8a9536"},"vehicle_type_id":"4","last_reported":1748020192,"current_range_meters":0,"station_id":"ce4bgip2rcd13ifvqbb0","pricing_plan_id":"cebpf4jnsgd1na2vs0mg"},{"bike_id":"2e80e4e5-f2e5-4fea-886a-b6b350cd5581","system_id":"levelo_inurba_marseille","lat":43.301961,"lon":5.366301,"is_reserved":false,"is_disabled":true,"rental_uris":{"android":"levelo://app?vid=2e80e4e5-f2e5-4fea-886a-b6b350cd5581","ios":"levelo://app?vid=2e80e4e5-f2e5-4fea-886a-b6b350cd5581"},"vehicle_type_id":"4","last_reported":1748020192,"current_range_meters":0,"station_id":"ce4bgrh2rcd13ifvqc8g","pricing_plan_id":"cebpf4jnsgd1na2vs0mg"},{"bike_id":"16fc555e-44fe-4734-8cbd-01b7dc8cd3e3","system_id":"levelo_inurba_marseille","lat":43.31709,"lon":5.40441,"is_reserved":false,"is_disabled":true,"rental_uris":{"android":"levelo://app?vid=16fc555e-44fe-4734-8cbd-01b7dc8cd3e3","ios":"levelo://app?vid=16fc555e-44fe-4734-8cbd-01b7dc8cd3e3"},"vehicle_type_id":"4","last_reported":1748020192,"current_range_meters":0,"station_id":"ce4bh012rcd13ifvqd00","pricing_plan_id":"cebpf4jnsgd1na2vs0mg"},{"bike_id":"bd1d93ab-0678-42e9-92e2-07007da44115","system_id":"levelo_inurba_marseille","lat":43.29015,"lon":5.38153,"is_reserved":false,"is_disabled":true,"rental_uris":{"android":"levelo://app?vid=bd1d93ab-0678-42e9-92e2-07007da44115","ios":"levelo://app?vid=bd1d93ab-0678-42e9-92e2-07007da44115"},"vehicle_type_id":"4","last_reported":1748020192,"current_range_meters":0,"station_id":"ce4bh4p2rcd13ifvqe1g","pricing_plan_id":"cebpf4jnsgd1na2vs0mg"},{"bike_id":"09d5c1da-d8d3-4d44-9ebb-689de296085a","system_id":"levelo_inurba_marseille","lat":43.28969,"lon":5.37844,"is_reserved":false,"is_disabled":true,"rental_uris":{"android":"levelo://app?vid=09d5c1da-d8d3-4d44-9ebb-689de296085a","ios":"levelo://app?vid=09d5c1da-d8d3-4d44-9ebb-689de296085a"},"vehicle_type_id":"4","last_reported":1748020192,"current_range_meters":0,"station_id":"ce4bh9p2rcd13ifvqed0","pricing_plan_id":"cebpf4jnsgd1na2vs0mg"},{"bike_id":"066a7246-bbc5-4674-8407-40743c13b9e0","system_id":"levelo_inurba_marseille","lat":43.28275,"lon":5.35071,"is_reserved":false,"is_disabled":true,"rental_uris":{"android":"levelo://app?vid=066a7246-bbc5-4674-8407-40743c13b9e0","ios":"levelo://app?vid=066a7246-bbc5-4674-8407-40743c13b9e0"},"vehicle_type_id":"4","last_reported":1748020192,"current_range_meters":0,"station_id":"ce4bhbp2rcd13ifvqerg","pricing_plan_id":"cebpf4jnsgd1na2vs0mg"},{"bike_id":"b2b1f7e5-9643-43dc-8567-37da359cab34","system_id":"levelo_inurba_marseille","lat":43.27916,"lon":5.39582,"is_reserved":false,"is_disabled":true,"rental_uris":{"android":"levelo://app?vid=b2b1f7e5-9643-43dc-8567-37da359cab34","ios":"levelo://app?vid=b2b1f7e5-9643-43dc-8567-37da359cab34"},"vehicle_type_id":"4","last_reported":1748020192,"current_range_meters":0,"station_id":"ce4bhf92rcd13ifvqf40","pricing_plan_id":"cebpf4jnsgd1na2vs0mg"},{"bike_id":"d0c1667c-20f5-413c-b34a-4af00ea1246e","system_id":"levelo_inurba_marseille","lat":43.26029,"lon":5.37539,"is_reserved":false,"is_disabled":true,"rental_uris":{"android":"levelo://app?vid=d0c1667c-20f5-413c-b34a-4af00ea1246e","ios":"levelo://app?vid=d0c1667c-20f5-413c-b34a-4af00ea1246e"},"vehicle_type_id":"4","last_reported":1748020192,"current_range_meters":0,"station_id":"ce4bhgh2rcd13ifvqfa0","pricing_plan_id":"cebpf4jnsgd1na2vs0mg"},{"bike_id":"100cc0c6-a769-4671-8fc4-915d1c9ddbe0","system_id":"levelo_inurba_marseille","lat":43.27315,"lon":5.39072,"is_reserved":false,"is_disabled":true,"rental_uris":{"android":"levelo://app?vid=100cc0c6-a769-4671-8fc4-915d1c9ddbe0","ios":"levelo://app?vid=100cc0c6-a769-4671-8fc4-915d1c9ddbe0"},"vehicle_type_id":"4","last_reported":1748020192,"current_range_meters":0,"station_id":"ce4bhgp2rcd13ifvqfe0","pricing_plan_id":"cebpf4jnsgd1na2vs0mg"},{"bike_id":"32c0a92c-ef27-4c4d-8f24-e0106542916e","system_id":"levelo_inurba_marseille","lat":43.27313,"lon":5.390819,"is_reserved":false,"is_disabled":true,"rental_uris":{"android":"levelo://app?vid=32c0a92c-ef27-4c4d-8f24-e0106542916e","ios":"levelo://app?vid=32c0a92c-ef27-4c4d-8f24-e0106542916e"},"vehicle_type_id":"4","last_reported":1748020192,"current_range_meters":0,"station_id":"ce4bhgp2rcd13ifvqfe0","pricing_plan_id":"cebpf4jnsgd1na2vs0mg"},{"bike_id":"bd61d938-8554-45ea-a9b9-0728f6d73400","system_id":"levelo_inurba_marseille","lat":43.23952,"lon":5.36632,"is_reserved":false,"is_disabled":true,"rental_uris":{"android":"levelo://app?vid=bd61d938-8554-45ea-a9b9-0728f6d73400","ios":"levelo://app?vid=bd61d938-8554-45ea-a9b9-0728f6d73400"},"vehicle_type_id":"4","last_reported":1748020192,"current_range_meters":0,"station_id":"ce4bhi12rcd13ifvqfp0","pricing_plan_id":"cebpf4jnsgd1na2vs0mg"},{"bike_id":"4b81e971-e774-4c57-8b2d-9dc884fc33bb","system_id":"levelo_inurba_marseille","lat":43.2784,"lon":5.39194,"is_reserved":false,"is_disabled":true,"rental_uris":{"android":"levelo://app?vid=4b81e971-e774-4c57-8b2d-9dc884fc33bb","ios":"levelo://app?vid=4b81e971-e774-4c57-8b2d-9dc884fc33bb"},"vehicle_type_id":"4","last_reported":1748020192,"current_range_meters":0,"station_id":"ce4bhjp2rcd13ifvqga0","pricing_plan_id":"cebpf4jnsgd1na2vs0mg"},{"bike_id":"b0a52626-cbf0-4764-97ae-22b06579790e","system_id":"levelo_inurba_marseille","lat":43.27048,"lon":5.40258,"is_reserved":false,"is_disabled":true,"rental_uris":{"android":"levelo://app?vid=b0a52626-cbf0-4764-97ae-22b06579790e","ios":"levelo://app?vid=b0a52626-cbf0-4764-97ae-22b06579790e"},"vehicle_type_id":"4","last_reported":1748020192,"current_range_meters":0,"station_id":"ce4bhk92rcd13ifvqgc0","pricing_plan_id":"cebpf4jnsgd1na2vs0mg"},{"bike_id":"c88cd536-5384-4654-9fc9-07ecdadb95d6","system_id":"levelo_inurba_marseille","lat":43.28151,"lon":5.42637,"is_reserved":false,"is_disabled":true,"rental_uris":{"android":"levelo://app?vid=c88cd536-5384-4654-9fc9-07ecdadb95d6","ios":"levelo://app?vid=c88cd536-5384-4654-9fc9-07ecdadb95d6"},"vehicle_type_id":"4","last_reported":1748020192,"current_range_meters":0,"station_id":"ce4bhnh2rcd13ifvqgug","pricing_plan_id":"cebpf4jnsgd1na2vs0mg"},{"bike_id":"2a15fe38-9ec9-4dbe-a191-96b858903f42","system_id":"levelo_inurba_marseille","lat":43.3042,"lon":5.41273,"is_reserved":false,"is_disabled":true,"rental_uris":{"android":"levelo://app?vid=2a15fe38-9ec9-4dbe-a191-96b858903f42","ios":"levelo://app?vid=2a15fe38-9ec9-4dbe-a191-96b858903f42"},"vehicle_type_id":"4","last_reported":1748020192,"current_range_meters":0,"station_id":"ce4bhop2rcd13ifvqh8g","pricing_plan_id":"cebpf4jnsgd1na2vs0mg"},{"bike_id":"1b94685f-a9c5-4405-b0b5-fa06db0022f4","system_id":"levelo_inurba_marseille","lat":43.31082,"lon":5.42427,"is_reserved":false,"is_disabled":true,"rental_uris":{"android":"levelo://app?vid=1b94685f-a9c5-4405-b0b5-fa06db0022f4","ios":"levelo://app?vid=1b94685f-a9c5-4405-b0b5-fa06db0022f4"},"vehicle_type_id":"4","last_reported":1748020192,"current_range_meters":0,"station_id":"ce4bhp92rcd13ifvqhag","pricing_plan_id":"cebpf4jnsgd1na2vs0mg"},{"bike_id":"fed22d71-0a64-45c8-97c1-5a4ced8f0302","system_id":"levelo_inurba_marseille","lat":43.21755,"lon":5.34605,"is_reserved":false,"is_disabled":true,"rental_uris":{"android":"levelo://app?vid=fed22d71-0a64-45c8-97c1-5a4ced8f0302","ios":"levelo://app?vid=fed22d71-0a64-45c8-97c1-5a4ced8f0302"},"vehicle_type_id":"4","last_reported":1748020192,"current_range_meters":0,"station_id":"st_cvj6r9ubvosntc0bgbag","pricing_plan_id":"cebpf4jnsgd1na2vs0mg"},{"bike_id":"141be7c1-ff1e-4304-aaf1-a6b26a8f3ffc","system_id":"levelo_inurba_marseille","lat":43.30892,"lon":5.39638,"is_reserved":false,"is_disabled":true,"rental_uris":{"android":"levelo://app?vid=141be7c1-ff1e-4304-aaf1-a6b26a8f3ffc","ios":"levelo://app?vid=141be7c1-ff1e-4304-aaf1-a6b26a8f3ffc"},"vehicle_type_id":"4","last_reported":1748020192,"current_range_meters":400,"station_id":"ce4bh012rcd13ifvqcv0","pricing_plan_id":"cebpf4jnsgd1na2vs0mg"},{"bike_id":"d947264e-14cc-4acf-a6ff-a3243b88ea8d","system_id":"levelo_inurba_marseille","lat":43.30325,"lon":5.40438,"is_reserved":false,"is_disabled":true,"rental_uris":{"android":"levelo://app?vid=d947264e-14cc-4acf-a6ff-a3243b88ea8d","ios":"levelo://app?vid=d947264e-14cc-4acf-a6ff-a3243b88ea8d"},"vehicle_type_id":"4","last_reported":1748020192,"current_range_meters":400,"station_id":"ce4bh012rcd13ifvqd10","pricing_plan_id":"cebpf4jnsgd1na2vs0mg"},{"bike_id":"195f4c90-8ea1-4551-a80c-4b51e4cb7553","system_id":"levelo_inurba_marseille","lat":43.28032,"lon":5.36957,"is_reserved":false,"is_disabled":true,"rental_uris":{"android":"levelo://app?vid=195f4c90-8ea1-4551-a80c-4b51e4cb7553","ios":"levelo://app?vid=195f4c90-8ea1-4551-a80c-4b51e4cb7553"},"vehicle_type_id":"4","last_reported":1748020192,"current_range_meters":400,"station_id":"ce4bha12rcd13ifvqef0","pricing_plan_id":"cebpf4jnsgd1na2vs0mg"},{"bike_id":"8e0bd30d-55cd-44b6-ab77-c2c7900a65f0","system_id":"levelo_inurba_marseille","lat":43.27224,"lon":5.39138,"is_reserved":false,"is_disabled":true,"rental_uris":{"android":"levelo://app?vid=8e0bd30d-55cd-44b6-ab77-c2c7900a65f0","ios":"levelo://app?vid=8e0bd30d-55cd-44b6-ab77-c2c7900a65f0"},"vehicle_type_id":"4","last_reported":1748020192,"current_range_meters":400,"station_id":"ce4bhhp2rcd13ifvqfm0","pricing_plan_id":"cebpf4jnsgd1na2vs0mg"},{"bike_id":"37d081d6-c286-4392-868e-ea236e1ab7a5","system_id":"levelo_inurba_marseille","lat":43.23969,"lon":5.36625,"is_reserved":false,"is_disabled":true,"rental_uris":{"android":"levelo://app?vid=37d081d6-c286-4392-868e-ea236e1ab7a5","ios":"levelo://app?vid=37d081d6-c286-4392-868e-ea236e1ab7a5"},"vehicle_type_id":"4","last_reported":1748020192,"current_range_meters":400,"station_id":"ce4bhi12rcd13ifvqfp0","pricing_plan_id":"cebpf4jnsgd1na2vs0mg"},{"bike_id":"ccf0d95a-2692-431f-aece-b7fa133733d3","system_id":"levelo_inurba_marseille","lat":43.25118,"lon":5.40321,"is_reserved":false,"is_disabled":true,"rental_uris":{"android":"levelo://app?vid=ccf0d95a-2692-431f-aece-b7fa133733d3","ios":"levelo://app?vid=ccf0d95a-2692-431f-aece-b7fa133733d3"},"vehicle_type_id":"4","last_reported":1748020192,"current_range_meters":400,"station_id":"ce4bhlh2rcd13ifvqgig","pricing_plan_id":"cebpf4jnsgd1na2vs0mg"},{"bike_id":"f3e82300-7ced-4920-9c92-e20285042260","system_id":"levelo_inurba_marseille","lat":43.33024,"lon":5.39039,"is_reserved":false,"is_disabled":true,"rental_uris":{"android":"levelo://app?vid=f3e82300-7ced-4920-9c92-e20285042260","ios":"levelo://app?vid=f3e82300-7ced-4920-9c92-e20285042260"},"vehicle_type_id":"4","last_reported":1748020192,"current_range_meters":400,"station_id":"ce4bhr92rcd13ifvqhrg","pricing_plan_id":"cebpf4jnsgd1na2vs0mg"},{"bike_id":"abd5ca49-c697-49d1-9911-f0da07b2a6c4","system_id":"levelo_inurba_marseille","lat":43.3136,"lon":5.38495,"is_reserved":false,"is_disabled":true,"rental_uris":{"android":"levelo://app?vid=abd5ca49-c697-49d1-9911-f0da07b2a6c4","ios":"levelo://app?vid=abd5ca49-c697-49d1-9911-f0da07b2a6c4"},"vehicle_type_id":"4","last_reported":1748020192,"current_range_meters":800,"station_id":"ce4bgt92rcd13ifvqcf0","pricing_plan_id":"cebpf4jnsgd1na2vs0mg"},{"bike_id":"e147f4f1-f0f9-4c3c-9b6f-781bb264437f","system_id":"levelo_inurba_marseille","lat":43.27311,"lon":5.39085,"is_reserved":false,"is_disabled":false,"rental_uris":{"android":"levelo://app?vid=e147f4f1-f0f9-4c3c-9b6f-781bb264437f","ios":"levelo://app?vid=e147f4f1-f0f9-4c3c-9b6f-781bb264437f"},"vehicle_type_id":"4","last_reported":1748020192,"current_range_meters":800,"station_id":"ce4bhgp2rcd13ifvqfe0","pricing_plan_id":"cebpf4jnsgd1na2vs0mg"},{"bike_id":"5f101d6f-9e60-4e30-b619-e05cb65c4662","system_id":"levelo_inurba_marseille","lat":43.25508,"lon":5.37635,"is_reserved":false,"is_disabled":true,"rental_uris":{"android":"levelo://app?vid=5f101d6f-9e60-4e30-b619-e05cb65c4662","ios":"levelo://app?vid=5f101d6f-9e60-4e30-b619-e05cb65c4662"},"vehicle_type_id":"4","last_reported":1748020192,"current_range_meters":800,"station_id":"ce4bhh12rcd13ifvqff0","pricing_plan_id":"cebpf4jnsgd1na2vs0mg"},{"bike_id":"d03d9e9e-c9ac-40f1-943d-79761ceac006","system_id":"levelo_inurba_marseille","lat":43.27208,"lon":5.3918,"is_reserved":false,"is_disabled":true,"rental_uris":{"android":"levelo://app?vid=d03d9e9e-c9ac-40f1-943d-79761ceac006","ios":"levelo://app?vid=d03d9e9e-c9ac-40f1-943d-79761ceac006"},"vehicle_type_id":"4","last_reported":1748020192,"current_range_meters":800,"station_id":"ce4bhhp2rcd13ifvqfm0","pricing_plan_id":"cebpf4jnsgd1na2vs0mg"},{"bike_id":"c10089a1-a1f6-4df8-9e1c-2a6c3b10c038","system_id":"levelo_inurba_marseille","lat":43.21744,"lon":5.34601,"is_reserved":false,"is_disabled":true,"rental_uris":{"android":"levelo://app?vid=c10089a1-a1f6-4df8-9e1c-2a6c3b10c038","ios":"levelo://app?vid=c10089a1-a1f6-4df8-9e1c-2a6c3b10c038"},"vehicle_type_id":"4","last_reported":1748020192,"current_range_meters":800,"station_id":"st_cvj6r9ubvosntc0bgbag","pricing_plan_id":"cebpf4jnsgd1na2vs0mg"},{"bike_id":"4321015c-142b-46b0-b98b-243358fb8183","system_id":"levelo_inurba_marseille","lat":43.27912,"lon":5.3958,"is_reserved":false,"is_disabled":true,"rental_uris":{"android":"levelo://app?vid=4321015c-142b-46b0-b98b-243358fb8183","ios":"levelo://app?vid=4321015c-142b-46b0-b98b-243358fb8183"},"vehicle_type_id":"4","last_reported":1748020192,"current_range_meters":1200,"station_id":"ce4bhf92rcd13ifvqf40","pricing_plan_id":"cebpf4jnsgd1na2vs0mg"},{"bike_id":"dea94bae-0219-4b6d-bdb8-7a77b2ca5afd","system_id":"levelo_inurba_marseille","lat":43.26961,"lon":5.40248,"is_reserved":false,"is_disabled":true,"rental_uris":{"android":"levelo://app?vid=dea94bae-0219-4b6d-bdb8-7a77b2ca5afd","ios":"levelo://app?vid=dea94bae-0219-4b6d-bdb8-7a77b2ca5afd"},"vehicle_type_id":"4","last_reported":1748020192,"current_range_meters":1200,"station_id":"cjm6bp8fraef2m0cb0m0","pricing_plan_id":"cebpf4jnsgd1na2vs0mg"},{"bike_id":"b29597ed-2aec-42c3-aebc-ae9a1765e5bf","system_id":"levelo_inurba_marseille","lat":43.30316,"lon":5.3689,"is_reserved":false,"is_disabled":true,"rental_uris":{"android":"levelo://app?vid=b29597ed-2aec-42c3-aebc-ae9a1765e5bf","ios":"levelo://app?vid=b29597ed-2aec-42c3-aebc-ae9a1765e5bf"},"vehicle_type_id":"4","last_reported":1748020192,"current_range_meters":1600,"station_id":"ce4bgqh2rcd13ifvqc5g","pricing_plan_id":"cebpf4jnsgd1na2vs0mg"},{"bike_id":"9a64695f-b39c-4e21-b0aa-43fbf80f8ffe","system_id":"levelo_inurba_marseille","lat":43.29168,"lon":5.37157,"is_reserved":false,"is_disabled":true,"rental_uris":{"android":"levelo://app?vid=9a64695f-b39c-4e21-b0aa-43fbf80f8ffe","ios":"levelo://app?vid=9a64695f-b39c-4e21-b0aa-43fbf80f8ffe"},"vehicle_type_id":"4","last_reported":1748020192,"current_range_meters":1600,"station_id":"ce4bha92rcd13ifvqeh0","pricing_plan_id":"cebpf4jnsgd1na2vs0mg"},{"bike_id":"07c0cc76-9d02-41ba-a265-b129bc269f4a","system_id":"levelo_inurba_marseille","lat":43.28272,"lon":5.3508,"is_reserved":false,"is_disabled":true,"rental_uris":{"android":"levelo://app?vid=07c0cc76-9d02-41ba-a265-b129bc269f4a","ios":"levelo://app?vid=07c0cc76-9d02-41ba-a265-b129bc269f4a"},"vehicle_type_id":"4","last_reported":1748020192,"current_range_meters":1600,"station_id":"ce4bhbp2rcd13ifvqerg","pricing_plan_id":"cebpf4jnsgd1na2vs0mg"},{"bike_id":"d8b74a30-819e-4b50-bb8a-aaa77cfb3b00","system_id":"levelo_inurba_marseille","lat":43.27303,"lon":5.39091,"is_reserved":false,"is_disabled":true,"rental_uris":{"android":"levelo://app?vid=d8b74a30-819e-4b50-bb8a-aaa77cfb3b00","ios":"levelo://app?vid=d8b74a30-819e-4b50-bb8a-aaa77cfb3b00"},"vehicle_type_id":"4","last_reported":1748020192,"current_range_meters":1600,"station_id":"ce4bhgp2rcd13ifvqfe0","pricing_plan_id":"cebpf4jnsgd1na2vs0mg"},{"bike_id":"7e1c6d2b-9db2-4dbf-8f45-2f5134846033","system_id":"levelo_inurba_marseille","lat":43.28153,"lon":5.42646,"is_reserved":false,"is_disabled":true,"rental_uris":{"android":"levelo://app?vid=7e1c6d2b-9db2-4dbf-8f45-2f5134846033","ios":"levelo://app?vid=7e1c6d2b-9db2-4dbf-8f45-2f5134846033"},"vehicle_type_id":"4","last_reported":1748020192,"current_range_meters":1600,"station_id":"ce4bhnh2rcd13ifvqgug","pricing_plan_id":"cebpf4jnsgd1na2vs0mg"},{"bike_id":"df369b23-8fd2-4d59-b23a-35f6f0c34bcd","system_id":"levelo_inurba_marseille","lat":43.2871,"lon":5.39984,"is_reserved":false,"is_disabled":true,"rental_uris":{"android":"levelo://app?vid=df369b23-8fd2-4d59-b23a-35f6f0c34bcd","ios":"levelo://app?vid=df369b23-8fd2-4d59-b23a-35f6f0c34bcd"},"vehicle_type_id":"4","last_reported":1748020192,"current_range_meters":1600,"station_id":"ce4bho92rcd13ifvqh3g","pricing_plan_id":"cebpf4jnsgd1na2vs0mg"},{"bike_id":"8782c64e-b662-4f10-8029-e8a70519632d","system_id":"levelo_inurba_marseille","lat":43.306,"lon":5.39368,"is_reserved":false,"is_disabled":true,"rental_uris":{"android":"levelo://app?vid=8782c64e-b662-4f10-8029-e8a70519632d","ios":"levelo://app?vid=8782c64e-b662-4f10-8029-e8a70519632d"},"vehicle_type_id":"4","last_reported":1748020192,"current_range_meters":2000,"station_id":"ce4bh0p2rcd13ifvqd80","pricing_plan_id":"cebpf4jnsgd1na2vs0mg"},{"bike_id":"99bf2399-f8c2-4d7d-ba0e-224503c9e665","system_id":"levelo_inurba_marseille","lat":43.28997,"lon":5.37591,"is_reserved":false,"is_disabled":true,"rental_uris":{"android":"levelo://app?vid=99bf2399-f8c2-4d7d-ba0e-224503c9e665","ios":"levelo://app?vid=99bf2399-f8c2-4d7d-ba0e-224503c9e665"},"vehicle_type_id":"4","last_reported":1748020192,"current_range_meters":2000,"station_id":"ce4bh692rcd13ifvqe90","pricing_plan_id":"cebpf4jnsgd1na2vs0mg"},{"bike_id":"8dad3d2b-e2b8-46de-8eec-66107891ae57","system_id":"levelo_inurba_marseille","lat":43.25868,"lon":5.39896,"is_reserved":false,"is_disabled":false,"rental_uris":{"android":"levelo://app?vid=8dad3d2b-e2b8-46de-8eec-66107891ae57","ios":"levelo://app?vid=8dad3d2b-e2b8-46de-8eec-66107891ae57"},"vehicle_type_id":"4","last_reported":1748020192,"current_range_meters":2800,"station_id":"ce4bhl92rcd13ifvqghg","pricing_plan_id":"cebpf4jnsgd1na2vs0mg"},{"bike_id":"b3602979-436e-45e3-9b6a-acfe34836bb3","system_id":"levelo_inurba_marseille","lat":43.281494,"lon":5.426407,"is_reserved":false,"is_disabled":false,"rental_uris":{"android":"levelo://app?vid=b3602979-436e-45e3-9b6a-acfe34836bb3","ios":"levelo://app?vid=b3602979-436e-45e3-9b6a-acfe34836bb3"},"vehicle_type_id":"4","last_reported":1748020192,"current_range_meters":2800,"station_id":"ce4bhnh2rcd13ifvqgug","pricing_plan_id":"cebpf4jnsgd1na2vs0mg"},{"bike_id":"c3c7ae58-40dc-49fe-91c8-045c830c98b8","system_id":"levelo_inurba_marseille","lat":43.31961,"lon":5.44969,"is_reserved":false,"is_disabled":false,"rental_uris":{"android":"levelo://app?vid=c3c7ae58-40dc-49fe-91c8-045c830c98b8","ios":"levelo://app?vid=c3c7ae58-40dc-49fe-91c8-045c830c98b8"},"vehicle_type_id":"4","last_reported":1748020192,"current_range_meters":3200,"station_id":"","pricing_plan_id":"cebpf4jnsgd1na2vs0mg"},{"bike_id":"54e4b086-1d0d-46a7-b1bc-1ecae5d19ff7","system_id":"levelo_inurba_marseille","lat":43.30545,"lon":5.36799,"is_reserved":false,"is_disabled":false,"rental_uris":{"android":"levelo://app?vid=54e4b086-1d0d-46a7-b1bc-1ecae5d19ff7","ios":"levelo://app?vid=54e4b086-1d0d-46a7-b1bc-1ecae5d19ff7"},"vehicle_type_id":"4","last_reported":1748020192,"current_range_meters":3200,"station_id":"","pricing_plan_id":"cebpf4jnsgd1na2vs0mg"},{"bike_id":"068e5067-183b-407f-880c-ea2b494bca4c","system_id":"levelo_inurba_marseille","lat":43.30945,"lon":5.39043,"is_reserved":false,"is_disabled":false,"rental_uris":{"android":"levelo://app?vid=068e5067-183b-407f-880c-ea2b494bca4c","ios":"levelo://app?vid=068e5067-183b-407f-880c-ea2b494bca4c"},"vehicle_type_id":"4","last_reported":1748020192,"current_range_meters":3200,"station_id":"ce4bgup2rcd13ifvqco0","pricing_plan_id":"cebpf4jnsgd1na2vs0mg"},{"bike_id":"42e200e3-c69d-4c66-9b49-fa8d5063be49","system_id":"levelo_inurba_marseille","lat":43.29871,"lon":5.39738,"is_reserved":false,"is_disabled":false,"rental_uris":{"android":"levelo://app?vid=42e200e3-c69d-4c66-9b49-fa8d5063be49","ios":"levelo://app?vid=42e200e3-c69d-4c66-9b49-fa8d5063be49"},"vehicle_type_id":"4","last_reported":1748020192,"current_range_meters":3200,"station_id":"ce4bh0h2rcd13ifvqd50","pricing_plan_id":"cebpf4jnsgd1na2vs0mg"},{"bike_id":"e2659551-ebcb-49a1-b15e-0498827fc4c1","system_id":"levelo_inurba_marseille","lat":43.27211,"lon":5.39186,"is_reserved":false,"is_disabled":false,"rental_uris":{"android":"levelo://app?vid=e2659551-ebcb-49a1-b15e-0498827fc4c1","ios":"levelo://app?vid=e2659551-ebcb-49a1-b15e-0498827fc4c1"},"vehicle_type_id":"4","last_reported":1748020192,"current_range_meters":3200,"station_id":"ce4bhhp2rcd13ifvqfm0","pricing_plan_id":"cebpf4jnsgd1na2vs0mg"},{"bike_id":"2ac58fa5-8197-4eff-a115-23fe49e74316","system_id":"levelo_inurba_marseille","lat":43.2293,"lon":5.35377,"is_reserved":false,"is_disabled":false,"rental_uris":{"android":"levelo://app?vid=2ac58fa5-8197-4eff-a115-23fe49e74316","ios":"levelo://app?vid=2ac58fa5-8197-4eff-a115-23fe49e74316"},"vehicle_type_id":"4","last_reported":1748020192,"current_range_meters":3200,"station_id":"cpo3532slgdg3j2ikp40","pricing_plan_id":"cebpf4jnsgd1na2vs0mg"},{"bike_id":"3fe3d6c4-138a-47df-b6b4-e6f19e8f7d46","system_id":"levelo_inurba_marseille","lat":43.21404,"lon":5.34125,"is_reserved":false,"is_disabled":false,"rental_uris":{"android":"levelo://app?vid=3fe3d6c4-138a-47df-b6b4-e6f19e8f7d46","ios":"levelo://app?vid=3fe3d6c4-138a-47df-b6b4-e6f19e8f7d46"},"vehicle_type_id":"4","last_reported":1748020192,"current_range_meters":3600,"station_id":"","pricing_plan_id":"cebpf4jnsgd1na2vs0mg"},{"bike_id":"6abb9ab4-3976-4e3e-b994-f2f72ee02055","system_id":"levelo_inurba_marseille","lat":43.309071,"lon":5.368517,"is_reserved":false,"is_disabled":false,"rental_uris":{"android":"levelo://app?vid=6abb9ab4-3976-4e3e-b994-f2f72ee02055","ios":"levelo://app?vid=6abb9ab4-3976-4e3e-b994-f2f72ee02055"},"vehicle_type_id":"4","last_reported":1748020192,"current_range_meters":3600,"station_id":"","pricing_plan_id":"cebpf4jnsgd1na2vs0mg"},{"bike_id":"cb9fa513-00ae-4197-80b0-4d16eb9d76b3","system_id":"levelo_inurba_marseille","lat":43.29975,"lon":5.38493,"is_reserved":false,"is_disabled":false,"rental_uris":{"android":"levelo://app?vid=cb9fa513-00ae-4197-80b0-4d16eb9d76b3","ios":"levelo://app?vid=cb9fa513-00ae-4197-80b0-4d16eb9d76b3"},"vehicle_type_id":"4","last_reported":1748020192,"current_range_meters":3600,"station_id":"ce4bgj92rcd13ifvqbd0","pricing_plan_id":"cebpf4jnsgd1na2vs0mg"},{"bike_id":"3ad96106-61f6-40d3-a0ac-2111bbbda52d","system_id":"levelo_inurba_marseille","lat":43.30539,"lon":5.36562,"is_reserved":false,"is_disabled":false,"rental_uris":{"android":"levelo://app?vid=3ad96106-61f6-40d3-a0ac-2111bbbda52d","ios":"levelo://app?vid=3ad96106-61f6-40d3-a0ac-2111bbbda52d"},"vehicle_type_id":"4","last_reported":1748020192,"current_range_meters":3600,"station_id":"ce4bgs12rcd13ifvqcag","pricing_plan_id":"cebpf4jnsgd1na2vs0mg"},{"bike_id":"929aa90e-3390-4698-a458-e10c02dec6c8","system_id":"levelo_inurba_marseille","lat":43.27921,"lon":5.39577,"is_reserved":false,"is_disabled":false,"rental_uris":{"android":"levelo://app?vid=929aa90e-3390-4698-a458-e10c02dec6c8","ios":"levelo://app?vid=929aa90e-3390-4698-a458-e10c02dec6c8"},"vehicle_type_id":"4","last_reported":1748020192,"current_range_meters":3600,"station_id":"ce4bhf92rcd13ifvqf40","pricing_plan_id":"cebpf4jnsgd1na2vs0mg"},{"bike_id":"5dc7fea5-2a02-4c7d-a634-33feda377898","system_id":"levelo_inurba_marseille","lat":43.2694,"lon":5.40247,"is_reserved":false,"is_disabled":false,"rental_uris":{"android":"levelo://app?vid=5dc7fea5-2a02-4c7d-a634-33feda377898","ios":"levelo://app?vid=5dc7fea5-2a02-4c7d-a634-33feda377898"},"vehicle_type_id":"4","last_reported":1748020192,"current_range_meters":3600,"station_id":"cjm6bp8fraef2m0cb0m0","pricing_plan_id":"cebpf4jnsgd1na2vs0mg"},{"bike_id":"d54ce2d0-c2b6-41b3-a1f5-e2c64fa88180","system_id":"levelo_inurba_marseille","lat":43.293571,"lon":5.378441,"is_reserved":false,"is_disabled":false,"rental_uris":{"android":"levelo://app?vid=d54ce2d0-c2b6-41b3-a1f5-e2c64fa88180","ios":"levelo://app?vid=d54ce2d0-c2b6-41b3-a1f5-e2c64fa88180"},"vehicle_type_id":"4","last_reported":1748020192,"current_range_meters":4000,"station_id":"","pricing_plan_id":"cebpf4jnsgd1na2vs0mg"},{"bike_id":"663fc025-6fc1-4004-895e-f0f1709c8797","system_id":"levelo_inurba_marseille","lat":43.265218,"lon":5.369906,"is_reserved":false,"is_disabled":false,"rental_uris":{"android":"levelo://app?vid=663fc025-6fc1-4004-895e-f0f1709c8797","ios":"levelo://app?vid=663fc025-6fc1-4004-895e-f0f1709c8797"},"vehicle_type_id":"4","last_reported":1748020192,"current_range_meters":4000,"station_id":"","pricing_plan_id":"cebpf4jnsgd1na2vs0mg"},{"bike_id":"1ca16103-630b-470f-9853-5b2c5a58ddb3","system_id":"levelo_inurba_marseille","lat":43.28616,"lon":5.35102,"is_reserved":false,"is_disabled":false,"rental_uris":{"android":"levelo://app?vid=1ca16103-630b-470f-9853-5b2c5a58ddb3","ios":"levelo://app?vid=1ca16103-630b-470f-9853-5b2c5a58ddb3"},"vehicle_type_id":"4","last_reported":1748020192,"current_range_meters":4000,"station_id":"ce4bhch2rcd13ifvqeug","pricing_plan_id":"cebpf4jnsgd1na2vs0mg"},{"bike_id":"279420fe-fe4f-4d70-b571-26e0ddaae42e","system_id":"levelo_inurba_marseille","lat":43.26681,"lon":5.38273,"is_reserved":false,"is_disabled":false,"rental_uris":{"android":"levelo://app?vid=279420fe-fe4f-4d70-b571-26e0ddaae42e","ios":"levelo://app?vid=279420fe-fe4f-4d70-b571-26e0ddaae42e"},"vehicle_type_id":"4","last_reported":1748020192,"current_range_meters":4000,"station_id":"ce4bhg92rcd13ifvqf90","pricing_plan_id":"cebpf4jnsgd1na2vs0mg"},{"bike_id":"43da5f61-6ff8-44a0-91e6-3c33e07e3276","system_id":"levelo_inurba_marseille","lat":43.23987,"lon":5.36598,"is_reserved":false,"is_disabled":false,"rental_uris":{"android":"levelo://app?vid=43da5f61-6ff8-44a0-91e6-3c33e07e3276","ios":"levelo://app?vid=43da5f61-6ff8-44a0-91e6-3c33e07e3276"},"vehicle_type_id":"4","last_reported":1748020192,"current_range_meters":4000,"station_id":"ce4bhi12rcd13ifvqfp0","pricing_plan_id":"cebpf4jnsgd1na2vs0mg"},{"bike_id":"a331e4d5-efc4-4063-a359-63eb7d6b5993","system_id":"levelo_inurba_marseille","lat":43.30358,"lon":5.41881,"is_reserved":false,"is_disabled":false,"rental_uris":{"android":"levelo://app?vid=a331e4d5-efc4-4063-a359-63eb7d6b5993","ios":"levelo://app?vid=a331e4d5-efc4-4063-a359-63eb7d6b5993"},"vehicle_type_id":"4","last_reported":1748020192,"current_range_meters":4000,"station_id":"ce4bhop2rcd13ifvqh7g","pricing_plan_id":"cebpf4jnsgd1na2vs0mg"},{"bike_id":"e49456fc-669f-4653-a20b-0cdf8e3163cb","system_id":"levelo_inurba_marseille","lat":43.30354,"lon":5.41875,"is_reserved":false,"is_disabled":false,"rental_uris":{"android":"levelo://app?vid=e49456fc-669f-4653-a20b-0cdf8e3163cb","ios":"levelo://app?vid=e49456fc-669f-4653-a20b-0cdf8e3163cb"},"vehicle_type_id":"4","last_reported":1748020192,"current_range_meters":4000,"station_id":"ce4bhop2rcd13ifvqh7g","pricing_plan_id":"cebpf4jnsgd1na2vs0mg"},{"bike_id":"d877fc90-a2fd-451a-8240-23d3bc648f43","system_id":"levelo_inurba_marseille","lat":43.23207,"lon":5.35554,"is_reserved":false,"is_disabled":false,"rental_uris":{"android":"levelo://app?vid=d877fc90-a2fd-451a-8240-23d3bc648f43","ios":"levelo://app?vid=d877fc90-a2fd-451a-8240-23d3bc648f43"},"vehicle_type_id":"4","last_reported":1748020192,"current_range_meters":4000,"station_id":"ce4bhu92rcd13ifvqi70","pricing_plan_id":"cebpf4jnsgd1na2vs0mg"},{"bike_id":"0da1da0a-9bf1-4dbe-a8f3-fc3c5620e60e","system_id":"levelo_inurba_marseille","lat":43.31971,"lon":5.38059,"is_reserved":false,"is_disabled":false,"rental_uris":{"android":"levelo://app?vid=0da1da0a-9bf1-4dbe-a8f3-fc3c5620e60e","ios":"levelo://app?vid=0da1da0a-9bf1-4dbe-a8f3-fc3c5620e60e"},"vehicle_type_id":"4","last_reported":1748020192,"current_range_meters":4400,"station_id":"","pricing_plan_id":"cebpf4jnsgd1na2vs0mg"},{"bike_id":"ad4d8099-03a6-43ca-966f-189fb83ff678","system_id":"levelo_inurba_marseille","lat":43.31278,"lon":5.37397,"is_reserved":false,"is_disabled":false,"rental_uris":{"android":"levelo://app?vid=ad4d8099-03a6-43ca-966f-189fb83ff678","ios":"levelo://app?vid=ad4d8099-03a6-43ca-966f-189fb83ff678"},"vehicle_type_id":"4","last_reported":1748020192,"current_range_meters":4400,"station_id":"","pricing_plan_id":"cebpf4jnsgd1na2vs0mg"},{"bike_id":"f9fb40c0-1fcd-48cb-8e26-3f2dc0fb2451","system_id":"levelo_inurba_marseille","lat":43.33751,"lon":5.37509,"is_reserved":false,"is_disabled":false,"rental_uris":{"android":"levelo://app?vid=f9fb40c0-1fcd-48cb-8e26-3f2dc0fb2451","ios":"levelo://app?vid=f9fb40c0-1fcd-48cb-8e26-3f2dc0fb2451"},"vehicle_type_id":"4","last_reported":1748020192,"current_range_meters":4400,"station_id":"","pricing_plan_id":"cebpf4jnsgd1na2vs0mg"},{"bike_id":"891e7fe9-fab3-423b-9aa7-42cc079f5882","system_id":"levelo_inurba_marseille","lat":43.29604,"lon":5.38102,"is_reserved":false,"is_disabled":false,"rental_uris":{"android":"levelo://app?vid=891e7fe9-fab3-423b-9aa7-42cc079f5882","ios":"levelo://app?vid=891e7fe9-fab3-423b-9aa7-42cc079f5882"},"vehicle_type_id":"4","last_reported":1748020192,"current_range_meters":4400,"station_id":"ce4bgl12rcd13ifvqbo0","pricing_plan_id":"cebpf4jnsgd1na2vs0mg"},{"bike_id":"0d8de568-d241-449e-b47c-d7ac5d1b45de","system_id":"levelo_inurba_marseille","lat":43.28108,"lon":5.37832,"is_reserved":false,"is_disabled":false,"rental_uris":{"android":"levelo://app?vid=0d8de568-d241-449e-b47c-d7ac5d1b45de","ios":"levelo://app?vid=0d8de568-d241-449e-b47c-d7ac5d1b45de"},"vehicle_type_id":"4","last_reported":1748020192,"current_range_meters":4400,"station_id":"ce4bha12rcd13ifvqee0","pricing_plan_id":"cebpf4jnsgd1na2vs0mg"},{"bike_id":"b4373012-8249-48f4-9bcd-74bed8259617","system_id":"levelo_inurba_marseille","lat":43.28042,"lon":5.36943,"is_reserved":false,"is_disabled":false,"rental_uris":{"android":"levelo://app?vid=b4373012-8249-48f4-9bcd-74bed8259617","ios":"levelo://app?vid=b4373012-8249-48f4-9bcd-74bed8259617"},"vehicle_type_id":"4","last_reported":1748020192,"current_range_meters":4400,"station_id":"ce4bha12rcd13ifvqef0","pricing_plan_id":"cebpf4jnsgd1na2vs0mg"},{"bike_id":"b5521c52-33b5-47be-b743-a004aa22c215","system_id":"levelo_inurba_marseille","lat":43.25494,"lon":5.37649,"is_reserved":false,"is_disabled":false,"rental_uris":{"android":"levelo://app?vid=b5521c52-33b5-47be-b743-a004aa22c215","ios":"levelo://app?vid=b5521c52-33b5-47be-b743-a004aa22c215"},"vehicle_type_id":"4","last_reported":1748020192,"current_range_meters":4400,"station_id":"ce4bhh12rcd13ifvqff0","pricing_plan_id":"cebpf4jnsgd1na2vs0mg"},{"bike_id":"5ec14d0e-46b9-4858-a749-8034228116ef","system_id":"levelo_inurba_marseille","lat":43.25864,"lon":5.39912,"is_reserved":false,"is_disabled":false,"rental_uris":{"android":"levelo://app?vid=5ec14d0e-46b9-4858-a749-8034228116ef","ios":"levelo://app?vid=5ec14d0e-46b9-4858-a749-8034228116ef"},"vehicle_type_id":"4","last_reported":1748020192,"current_range_meters":4400,"station_id":"ce4bhl92rcd13ifvqghg","pricing_plan_id":"cebpf4jnsgd1na2vs0mg"},{"bike_id":"80481db6-5092-4fdb-a834-5b16c330428d","system_id":"levelo_inurba_marseille","lat":43.28157,"lon":5.42639,"is_reserved":false,"is_disabled":false,"rental_uris":{"android":"levelo://app?vid=80481db6-5092-4fdb-a834-5b16c330428d","ios":"levelo://app?vid=80481db6-5092-4fdb-a834-5b16c330428d"},"vehicle_type_id":"4","last_reported":1748020192,"current_range_meters":4400,"station_id":"ce4bhnh2rcd13ifvqgug","pricing_plan_id":"cebpf4jnsgd1na2vs0mg"},{"bike_id":"70227254-6f9b-4aa9-a695-07f0b718a606","system_id":"levelo_inurba_marseille","lat":43.2972,"lon":5.36601,"is_reserved":false,"is_disabled":false,"rental_uris":{"android":"levelo://app?vid=70227254-6f9b-4aa9-a695-07f0b718a606","ios":"levelo://app?vid=70227254-6f9b-4aa9-a695-07f0b718a606"},"vehicle_type_id":"4","last_reported":1748020192,"current_range_meters":4800,"station_id":"ce4bgn12rcd13ifvqbt0","pricing_plan_id":"cebpf4jnsgd1na2vs0mg"},{"bike_id":"f5b7cf4c-147c-4b5e-9549-f9807eb57534","system_id":"levelo_inurba_marseille","lat":43.28369,"lon":5.38635,"is_reserved":false,"is_disabled":false,"rental_uris":{"android":"levelo://app?vid=f5b7cf4c-147c-4b5e-9549-f9807eb57534","ios":"levelo://app?vid=f5b7cf4c-147c-4b5e-9549-f9807eb57534"},"vehicle_type_id":"4","last_reported":1748020192,"current_range_meters":4800,"station_id":"ce4bh492rcd13ifvqdvg","pricing_plan_id":"cebpf4jnsgd1na2vs0mg"},{"bike_id":"34573539-e613-4d08-b11f-19d334c22675","system_id":"levelo_inurba_marseille","lat":43.28935,"lon":5.38397,"is_reserved":false,"is_disabled":false,"rental_uris":{"android":"levelo://app?vid=34573539-e613-4d08-b11f-19d334c22675","ios":"levelo://app?vid=34573539-e613-4d08-b11f-19d334c22675"},"vehicle_type_id":"4","last_reported":1748020192,"current_range_meters":4800,"station_id":"ce4bh612rcd13ifvqe6g","pricing_plan_id":"cebpf4jnsgd1na2vs0mg"},{"bike_id":"6b829a7c-f3b1-4637-8971-418c29d5fa4a","system_id":"levelo_inurba_marseille","lat":43.26788,"lon":5.39406,"is_reserved":false,"is_disabled":false,"rental_uris":{"android":"levelo://app?vid=6b829a7c-f3b1-4637-8971-418c29d5fa4a","ios":"levelo://app?vid=6b829a7c-f3b1-4637-8971-418c29d5fa4a"},"vehicle_type_id":"4","last_reported":1748020192,"current_range_meters":4800,"station_id":"ce4bhh12rcd13ifvqfg0","pricing_plan_id":"cebpf4jnsgd1na2vs0mg"},{"bike_id":"6237efe6-e96f-450b-a659-4a0752e223dd","system_id":"levelo_inurba_marseille","lat":43.26913,"lon":5.40243,"is_reserved":false,"is_disabled":false,"rental_uris":{"android":"levelo://app?vid=6237efe6-e96f-450b-a659-4a0752e223dd","ios":"levelo://app?vid=6237efe6-e96f-450b-a659-4a0752e223dd"},"vehicle_type_id":"4","last_reported":1748020192,"current_range_meters":4800,"station_id":"cjm6bp8fraef2m0cb0m0","pricing_plan_id":"cebpf4jnsgd1na2vs0mg"},{"bike_id":"85158d21-d487-409b-aaf3-e5e08dfb89b4","system_id":"levelo_inurba_marseille","lat":43.30655,"lon":5.40094,"is_reserved":false,"is_disabled":false,"rental_uris":{"android":"levelo://app?vid=85158d21-d487-409b-aaf3-e5e08dfb89b4","ios":"levelo://app?vid=85158d21-d487-409b-aaf3-e5e08dfb89b4"},"vehicle_type_id":"4","last_reported":1748020192,"current_range_meters":5600,"station_id":"ce4bh112rcd13ifvqda0","pricing_plan_id":"cebpf4jnsgd1na2vs0mg"},{"bike_id":"59f10329-c5ed-4b9e-9c35-ad3f68156a4a","system_id":"levelo_inurba_marseille","lat":43.24799,"lon":5.37452,"is_reserved":false,"is_disabled":false,"rental_uris":{"android":"levelo://app?vid=59f10329-c5ed-4b9e-9c35-ad3f68156a4a","ios":"levelo://app?vid=59f10329-c5ed-4b9e-9c35-ad3f68156a4a"},"vehicle_type_id":"4","last_reported":1748020192,"current_range_meters":5600,"station_id":"ce4bhgh2rcd13ifvqfb0","pricing_plan_id":"cebpf4jnsgd1na2vs0mg"},{"bike_id":"0045c9b7-9b2a-437b-939a-a1c67c13fbb7","system_id":"levelo_inurba_marseille","lat":43.25507,"lon":5.37656,"is_reserved":false,"is_disabled":false,"rental_uris":{"android":"levelo://app?vid=0045c9b7-9b2a-437b-939a-a1c67c13fbb7","ios":"levelo://app?vid=0045c9b7-9b2a-437b-939a-a1c67c13fbb7"},"vehicle_type_id":"4","last_reported":1748020192,"current_range_meters":5600,"station_id":"ce4bhh12rcd13ifvqff0","pricing_plan_id":"cebpf4jnsgd1na2vs0mg"},{"bike_id":"9ecdc04a-9bb3-4f09-aab1-1d6c3e4b305c","system_id":"levelo_inurba_marseille","lat":43.26786,"lon":5.39424,"is_reserved":false,"is_disabled":false,"rental_uris":{"android":"levelo://app?vid=9ecdc04a-9bb3-4f09-aab1-1d6c3e4b305c","ios":"levelo://app?vid=9ecdc04a-9bb3-4f09-aab1-1d6c3e4b305c"},"vehicle_type_id":"4","last_reported":1748020192,"current_range_meters":5600,"station_id":"ce4bhh12rcd13ifvqfg0","pricing_plan_id":"cebpf4jnsgd1na2vs0mg"},{"bike_id":"46c34e26-66bd-466d-8c35-35356b882959","system_id":"levelo_inurba_marseille","lat":43.28603,"lon":5.37064,"is_reserved":false,"is_disabled":false,"rental_uris":{"android":"levelo://app?vid=46c34e26-66bd-466d-8c35-35356b882959","ios":"levelo://app?vid=46c34e26-66bd-466d-8c35-35356b882959"},"vehicle_type_id":"4","last_reported":1748020192,"current_range_meters":5600,"station_id":"ce4bht12rcd13ifvqi60","pricing_plan_id":"cebpf4jnsgd1na2vs0mg"},{"bike_id":"27653dcd-dec9-4f13-b172-8968c20c1725","system_id":"levelo_inurba_marseille","lat":43.238559,"lon":5.430982,"is_reserved":false,"is_disabled":false,"rental_uris":{"android":"levelo://app?vid=27653dcd-dec9-4f13-b172-8968c20c1725","ios":"levelo://app?vid=27653dcd-dec9-4f13-b172-8968c20c1725"},"vehicle_type_id":"4","last_reported":1748020192,"current_range_meters":6000,"station_id":"","pricing_plan_id":"cebpf4jnsgd1na2vs0mg"},{"bike_id":"7793726a-5c67-47cc-b94d-84d68a198f08","system_id":"levelo_inurba_marseille","lat":43.29968,"lon":5.38495,"is_reserved":false,"is_disabled":false,"rental_uris":{"android":"levelo://app?vid=7793726a-5c67-47cc-b94d-84d68a198f08","ios":"levelo://app?vid=7793726a-5c67-47cc-b94d-84d68a198f08"},"vehicle_type_id":"4","last_reported":1748020192,"current_range_meters":6000,"station_id":"ce4bgj92rcd13ifvqbd0","pricing_plan_id":"cebpf4jnsgd1na2vs0mg"},{"bike_id":"bbeca185-970c-4c21-8876-db762bf47d67","system_id":"levelo_inurba_marseille","lat":43.31175,"lon":5.38714,"is_reserved":false,"is_disabled":false,"rental_uris":{"android":"levelo://app?vid=bbeca185-970c-4c21-8876-db762bf47d67","ios":"levelo://app?vid=bbeca185-970c-4c21-8876-db762bf47d67"},"vehicle_type_id":"4","last_reported":1748020192,"current_range_meters":6000,"station_id":"ce4bgv12rcd13ifvqcp0","pricing_plan_id":"cebpf4jnsgd1na2vs0mg"},{"bike_id":"c91b84dc-5c73-41b8-8ddc-69c7bc95c3db","system_id":"levelo_inurba_marseille","lat":43.30933,"lon":5.4014,"is_reserved":false,"is_disabled":false,"rental_uris":{"android":"levelo://app?vid=c91b84dc-5c73-41b8-8ddc-69c7bc95c3db","ios":"levelo://app?vid=c91b84dc-5c73-41b8-8ddc-69c7bc95c3db"},"vehicle_type_id":"4","last_reported":1748020192,"current_range_meters":6000,"station_id":"ce4bgvp2rcd13ifvqct0","pricing_plan_id":"cebpf4jnsgd1na2vs0mg"},{"bike_id":"7bb8426d-dd3c-49b4-819f-f5cd23d73082","system_id":"levelo_inurba_marseille","lat":43.29418,"lon":5.3862,"is_reserved":false,"is_disabled":false,"rental_uris":{"android":"levelo://app?vid=7bb8426d-dd3c-49b4-819f-f5cd23d73082","ios":"levelo://app?vid=7bb8426d-dd3c-49b4-819f-f5cd23d73082"},"vehicle_type_id":"4","last_reported":1748020192,"current_range_meters":6000,"station_id":"ce4bh2h2rcd13ifvqdh0","pricing_plan_id":"cebpf4jnsgd1na2vs0mg"},{"bike_id":"3c721735-3ee7-462b-ae42-e0d07bfefcc6","system_id":"levelo_inurba_marseille","lat":43.27305,"lon":5.39102,"is_reserved":false,"is_disabled":false,"rental_uris":{"android":"levelo://app?vid=3c721735-3ee7-462b-ae42-e0d07bfefcc6","ios":"levelo://app?vid=3c721735-3ee7-462b-ae42-e0d07bfefcc6"},"vehicle_type_id":"4","last_reported":1748020192,"current_range_meters":6000,"station_id":"ce4bhgp2rcd13ifvqfe0","pricing_plan_id":"cebpf4jnsgd1na2vs0mg"},{"bike_id":"1ed0dcf4-f8ab-4d5b-ae7e-d072097d22db","system_id":"levelo_inurba_marseille","lat":43.23965,"lon":5.36619,"is_reserved":false,"is_disabled":false,"rental_uris":{"android":"levelo://app?vid=1ed0dcf4-f8ab-4d5b-ae7e-d072097d22db","ios":"levelo://app?vid=1ed0dcf4-f8ab-4d5b-ae7e-d072097d22db"},"vehicle_type_id":"4","last_reported":1748020192,"current_range_meters":6000,"station_id":"ce4bhi12rcd13ifvqfp0","pricing_plan_id":"cebpf4jnsgd1na2vs0mg"},{"bike_id":"2beacbd4-9ba8-4aa5-99c8-d3c30bd9fb89","system_id":"levelo_inurba_marseille","lat":43.28004,"lon":5.40002,"is_reserved":false,"is_disabled":false,"rental_uris":{"android":"levelo://app?vid=2beacbd4-9ba8-4aa5-99c8-d3c30bd9fb89","ios":"levelo://app?vid=2beacbd4-9ba8-4aa5-99c8-d3c30bd9fb89"},"vehicle_type_id":"4","last_reported":1748020192,"current_range_meters":6000,"station_id":"ce4bho92rcd13ifvqh4g","pricing_plan_id":"cebpf4jnsgd1na2vs0mg"},{"bike_id":"13880683-4769-4e24-920e-1731350633e5","system_id":"levelo_inurba_marseille","lat":43.315332,"lon":5.380377,"is_reserved":false,"is_disabled":false,"rental_uris":{"android":"levelo://app?vid=13880683-4769-4e24-920e-1731350633e5","ios":"levelo://app?vid=13880683-4769-4e24-920e-1731350633e5"},"vehicle_type_id":"4","last_reported":1748020192,"current_range_meters":6000,"station_id":"ce4bhsp2rcd13ifvqi50","pricing_plan_id":"cebpf4jnsgd1na2vs0mg"},{"bike_id":"31110881-d64f-45f8-9810-bbf84a002836","system_id":"levelo_inurba_marseille","lat":43.28337,"lon":5.46126,"is_reserved":false,"is_disabled":false,"rental_uris":{"android":"levelo://app?vid=31110881-d64f-45f8-9810-bbf84a002836","ios":"levelo://app?vid=31110881-d64f-45f8-9810-bbf84a002836"},"vehicle_type_id":"4","last_reported":1748020192,"current_range_meters":6400,"station_id":"","pricing_plan_id":"cebpf4jnsgd1na2vs0mg"},{"bike_id":"3b5eb8a4-0aaf-45c6-a416-f3acb904c0b1","system_id":"levelo_inurba_marseille","lat":43.29965,"lon":5.38496,"is_reserved":false,"is_disabled":false,"rental_uris":{"android":"levelo://app?vid=3b5eb8a4-0aaf-45c6-a416-f3acb904c0b1","ios":"levelo://app?vid=3b5eb8a4-0aaf-45c6-a416-f3acb904c0b1"},"vehicle_type_id":"4","last_reported":1748020192,"current_range_meters":6400,"station_id":"ce4bgj92rcd13ifvqbd0","pricing_plan_id":"cebpf4jnsgd1na2vs0mg"},{"bike_id":"e4a0a7aa-315e-4665-830a-a4989c0bc72b","system_id":"levelo_inurba_marseille","lat":43.27324,"lon":5.39087,"is_reserved":false,"is_disabled":false,"rental_uris":{"android":"levelo://app?vid=e4a0a7aa-315e-4665-830a-a4989c0bc72b","ios":"levelo://app?vid=e4a0a7aa-315e-4665-830a-a4989c0bc72b"},"vehicle_type_id":"4","last_reported":1748020192,"current_range_meters":6400,"station_id":"ce4bhgp2rcd13ifvqfe0","pricing_plan_id":"cebpf4jnsgd1na2vs0mg"},{"bike_id":"5a8b80b8-88dd-4ea2-afa0-df90dbbdc588","system_id":"levelo_inurba_marseille","lat":43.241805,"lon":5.397281,"is_reserved":false,"is_disabled":false,"rental_uris":{"android":"levelo://app?vid=5a8b80b8-88dd-4ea2-afa0-df90dbbdc588","ios":"levelo://app?vid=5a8b80b8-88dd-4ea2-afa0-df90dbbdc588"},"vehicle_type_id":"4","last_reported":1748020192,"current_range_meters":6400,"station_id":"ce4bhn12rcd13ifvqgpg","pricing_plan_id":"cebpf4jnsgd1na2vs0mg"},{"bike_id":"93a344e6-8243-4070-bf43-270634e364fe","system_id":"levelo_inurba_marseille","lat":43.279995,"lon":5.400095,"is_reserved":false,"is_disabled":false,"rental_uris":{"android":"levelo://app?vid=93a344e6-8243-4070-bf43-270634e364fe","ios":"levelo://app?vid=93a344e6-8243-4070-bf43-270634e364fe"},"vehicle_type_id":"4","last_reported":1748020192,"current_range_meters":6400,"station_id":"ce4bho92rcd13ifvqh4g","pricing_plan_id":"cebpf4jnsgd1na2vs0mg"},{"bike_id":"bc409db9-8a12-4d53-bab4-001367099efe","system_id":"levelo_inurba_marseille","lat":43.26942,"lon":5.40248,"is_reserved":false,"is_disabled":false,"rental_uris":{"android":"levelo://app?vid=bc409db9-8a12-4d53-bab4-001367099efe","ios":"levelo://app?vid=bc409db9-8a12-4d53-bab4-001367099efe"},"vehicle_type_id":"4","last_reported":1748020192,"current_range_meters":6400,"station_id":"cjm6bp8fraef2m0cb0m0","pricing_plan_id":"cebpf4jnsgd1na2vs0mg"},{"bike_id":"b46d86cc-34fb-4230-ab30-500b91ee952d","system_id":"levelo_inurba_marseille","lat":43.27081,"lon":5.40016,"is_reserved":false,"is_disabled":false,"rental_uris":{"android":"levelo://app?vid=b46d86cc-34fb-4230-ab30-500b91ee952d","ios":"levelo://app?vid=b46d86cc-34fb-4230-ab30-500b91ee952d"},"vehicle_type_id":"4","last_reported":1748020192,"current_range_meters":6800,"station_id":"","pricing_plan_id":"cebpf4jnsgd1na2vs0mg"},{"bike_id":"a34d964a-2bb2-49a8-85bd-baed48c39661","system_id":"levelo_inurba_marseille","lat":43.26778,"lon":5.39412,"is_reserved":false,"is_disabled":false,"rental_uris":{"android":"levelo://app?vid=a34d964a-2bb2-49a8-85bd-baed48c39661","ios":"levelo://app?vid=a34d964a-2bb2-49a8-85bd-baed48c39661"},"vehicle_type_id":"4","last_reported":1748020192,"current_range_meters":6800,"station_id":"ce4bhh12rcd13ifvqfg0","pricing_plan_id":"cebpf4jnsgd1na2vs0mg"},{"bike_id":"d256c6a4-d35b-4c32-b7db-2bac8ab63b70","system_id":"levelo_inurba_marseille","lat":43.23194,"lon":5.35551,"is_reserved":false,"is_disabled":false,"rental_uris":{"android":"levelo://app?vid=d256c6a4-d35b-4c32-b7db-2bac8ab63b70","ios":"levelo://app?vid=d256c6a4-d35b-4c32-b7db-2bac8ab63b70"},"vehicle_type_id":"4","last_reported":1748020192,"current_range_meters":6800,"station_id":"ce4bhu92rcd13ifvqi70","pricing_plan_id":"cebpf4jnsgd1na2vs0mg"},{"bike_id":"7dfdfdc8-9c79-46b6-9a4b-924773b53f29","system_id":"levelo_inurba_marseille","lat":43.26873,"lon":5.39162,"is_reserved":false,"is_disabled":false,"rental_uris":{"android":"levelo://app?vid=7dfdfdc8-9c79-46b6-9a4b-924773b53f29","ios":"levelo://app?vid=7dfdfdc8-9c79-46b6-9a4b-924773b53f29"},"vehicle_type_id":"4","last_reported":1748020192,"current_range_meters":7200,"station_id":"","pricing_plan_id":"cebpf4jnsgd1na2vs0mg"},{"bike_id":"950cad50-4e47-43b4-ba8e-d97ac6386634","system_id":"levelo_inurba_marseille","lat":43.255774,"lon":5.382209,"is_reserved":false,"is_disabled":false,"rental_uris":{"android":"levelo://app?vid=950cad50-4e47-43b4-ba8e-d97ac6386634","ios":"levelo://app?vid=950cad50-4e47-43b4-ba8e-d97ac6386634"},"vehicle_type_id":"4","last_reported":1748020192,"current_range_meters":7200,"station_id":"","pricing_plan_id":"cebpf4jnsgd1na2vs0mg"},{"bike_id":"3bfe024a-3b05-4824-8899-04472ff42c8e","system_id":"levelo_inurba_marseille","lat":43.30779,"lon":5.37656,"is_reserved":false,"is_disabled":false,"rental_uris":{"android":"levelo://app?vid=3bfe024a-3b05-4824-8899-04472ff42c8e","ios":"levelo://app?vid=3bfe024a-3b05-4824-8899-04472ff42c8e"},"vehicle_type_id":"4","last_reported":1748020192,"current_range_meters":7200,"station_id":"ce4bgv92rcd13ifvqcq0","pricing_plan_id":"cebpf4jnsgd1na2vs0mg"},{"bike_id":"ed2cf830-f66c-4f38-bad6-e67801d11931","system_id":"levelo_inurba_marseille","lat":43.27437,"lon":5.39396,"is_reserved":false,"is_disabled":false,"rental_uris":{"android":"levelo://app?vid=ed2cf830-f66c-4f38-bad6-e67801d11931","ios":"levelo://app?vid=ed2cf830-f66c-4f38-bad6-e67801d11931"},"vehicle_type_id":"4","last_reported":1748020192,"current_range_meters":7200,"station_id":"ce4bhdp2rcd13ifvqf20","pricing_plan_id":"cebpf4jnsgd1na2vs0mg"},{"bike_id":"8f2916e8-d10c-4a05-8b2b-ebe68ba16b36","system_id":"levelo_inurba_marseille","lat":43.26687,"lon":5.38246,"is_reserved":false,"is_disabled":false,"rental_uris":{"android":"levelo://app?vid=8f2916e8-d10c-4a05-8b2b-ebe68ba16b36","ios":"levelo://app?vid=8f2916e8-d10c-4a05-8b2b-ebe68ba16b36"},"vehicle_type_id":"4","last_reported":1748020192,"current_range_meters":7200,"station_id":"ce4bhg92rcd13ifvqf90","pricing_plan_id":"cebpf4jnsgd1na2vs0mg"},{"bike_id":"ef3c4886-d9f4-4c03-81f9-f922060fbfdb","system_id":"levelo_inurba_marseille","lat":43.273057,"lon":5.390593,"is_reserved":false,"is_disabled":false,"rental_uris":{"android":"levelo://app?vid=ef3c4886-d9f4-4c03-81f9-f922060fbfdb","ios":"levelo://app?vid=ef3c4886-d9f4-4c03-81f9-f922060fbfdb"},"vehicle_type_id":"4","last_reported":1748020192,"current_range_meters":7200,"station_id":"ce4bhgp2rcd13ifvqfe0","pricing_plan_id":"cebpf4jnsgd1na2vs0mg"},{"bike_id":"00f328f3-f80b-4ffb-ba58-7c5e7bd25b54","system_id":"levelo_inurba_marseille","lat":43.239698,"lon":5.366147,"is_reserved":false,"is_disabled":false,"rental_uris":{"android":"levelo://app?vid=00f328f3-f80b-4ffb-ba58-7c5e7bd25b54","ios":"levelo://app?vid=00f328f3-f80b-4ffb-ba58-7c5e7bd25b54"},"vehicle_type_id":"4","last_reported":1748020192,"current_range_meters":7200,"station_id":"ce4bhi12rcd13ifvqfp0","pricing_plan_id":"cebpf4jnsgd1na2vs0mg"},{"bike_id":"b2d30996-786c-4a8a-99ba-a4a841f0273a","system_id":"levelo_inurba_marseille","lat":43.26507,"lon":5.39581,"is_reserved":false,"is_disabled":false,"rental_uris":{"android":"levelo://app?vid=b2d30996-786c-4a8a-99ba-a4a841f0273a","ios":"levelo://app?vid=b2d30996-786c-4a8a-99ba-a4a841f0273a"},"vehicle_type_id":"4","last_reported":1748020192,"current_range_meters":7200,"station_id":"ce4bhi12rcd13ifvqfq0","pricing_plan_id":"cebpf4jnsgd1na2vs0mg"},{"bike_id":"90c667ab-28e0-43bd-a854-060ba0f89c0a","system_id":"levelo_inurba_marseille","lat":43.2558,"lon":5.38239,"is_reserved":false,"is_disabled":false,"rental_uris":{"android":"levelo://app?vid=90c667ab-28e0-43bd-a854-060ba0f89c0a","ios":"levelo://app?vid=90c667ab-28e0-43bd-a854-060ba0f89c0a"},"vehicle_type_id":"4","last_reported":1748020192,"current_range_meters":7200,"station_id":"ce4bhih2rcd13ifvqfs0","pricing_plan_id":"cebpf4jnsgd1na2vs0mg"},{"bike_id":"26334d86-364e-4d22-a413-f9a21e544fa4","system_id":"levelo_inurba_marseille","lat":43.27496,"lon":5.42445,"is_reserved":false,"is_disabled":false,"rental_uris":{"android":"levelo://app?vid=26334d86-364e-4d22-a413-f9a21e544fa4","ios":"levelo://app?vid=26334d86-364e-4d22-a413-f9a21e544fa4"},"vehicle_type_id":"4","last_reported":1748020192,"current_range_meters":7200,"station_id":"ce4bhn92rcd13ifvqgrg","pricing_plan_id":"cebpf4jnsgd1na2vs0mg"},{"bike_id":"19894f63-916c-4d0c-8f05-fc7d43032177","system_id":"levelo_inurba_marseille","lat":43.28152,"lon":5.42653,"is_reserved":false,"is_disabled":false,"rental_uris":{"android":"levelo://app?vid=19894f63-916c-4d0c-8f05-fc7d43032177","ios":"levelo://app?vid=19894f63-916c-4d0c-8f05-fc7d43032177"},"vehicle_type_id":"4","last_reported":1748020192,"current_range_meters":7200,"station_id":"ce4bhnh2rcd13ifvqgug","pricing_plan_id":"cebpf4jnsgd1na2vs0mg"},{"bike_id":"5534ddc0-a330-4b61-8542-95fa62c320b9","system_id":"levelo_inurba_marseille","lat":43.23195,"lon":5.35551,"is_reserved":false,"is_disabled":false,"rental_uris":{"android":"levelo://app?vid=5534ddc0-a330-4b61-8542-95fa62c320b9","ios":"levelo://app?vid=5534ddc0-a330-4b61-8542-95fa62c320b9"},"vehicle_type_id":"4","last_reported":1748020192,"current_range_meters":7200,"station_id":"ce4bhu92rcd13ifvqi70","pricing_plan_id":"cebpf4jnsgd1na2vs0mg"},{"bike_id":"4e59ae72-b083-4788-93c1-a7e324b89ef1","system_id":"levelo_inurba_marseille","lat":43.291261,"lon":5.382963,"is_reserved":false,"is_disabled":false,"rental_uris":{"android":"levelo://app?vid=4e59ae72-b083-4788-93c1-a7e324b89ef1","ios":"levelo://app?vid=4e59ae72-b083-4788-93c1-a7e324b89ef1"},"vehicle_type_id":"4","last_reported":1748020192,"current_range_meters":8000,"station_id":"","pricing_plan_id":"cebpf4jnsgd1na2vs0mg"},{"bike_id":"9cd22fed-04c4-474a-9727-f7f9467c9f14","system_id":"levelo_inurba_marseille","lat":43.26024,"lon":5.37546,"is_reserved":false,"is_disabled":false,"rental_uris":{"android":"levelo://app?vid=9cd22fed-04c4-474a-9727-f7f9467c9f14","ios":"levelo://app?vid=9cd22fed-04c4-474a-9727-f7f9467c9f14"},"vehicle_type_id":"4","last_reported":1748020192,"current_range_meters":8000,"station_id":"ce4bhgh2rcd13ifvqfa0","pricing_plan_id":"cebpf4jnsgd1na2vs0mg"},{"bike_id":"08ee356c-5e7f-411a-92fa-743c60587785","system_id":"levelo_inurba_marseille","lat":43.26034,"lon":5.37545,"is_reserved":false,"is_disabled":false,"rental_uris":{"android":"levelo://app?vid=08ee356c-5e7f-411a-92fa-743c60587785","ios":"levelo://app?vid=08ee356c-5e7f-411a-92fa-743c60587785"},"vehicle_type_id":"4","last_reported":1748020192,"current_range_meters":8000,"station_id":"ce4bhgh2rcd13ifvqfa0","pricing_plan_id":"cebpf4jnsgd1na2vs0mg"},{"bike_id":"769c3939-f275-406f-a98a-62526338776d","system_id":"levelo_inurba_marseille","lat":43.27322,"lon":5.3908,"is_reserved":false,"is_disabled":false,"rental_uris":{"android":"levelo://app?vid=769c3939-f275-406f-a98a-62526338776d","ios":"levelo://app?vid=769c3939-f275-406f-a98a-62526338776d"},"vehicle_type_id":"4","last_reported":1748020192,"current_range_meters":8000,"station_id":"ce4bhgp2rcd13ifvqfe0","pricing_plan_id":"cebpf4jnsgd1na2vs0mg"},{"bike_id":"642cb7b7-e7c4-4185-b975-0e4bd47c9f56","system_id":"levelo_inurba_marseille","lat":43.25597,"lon":5.38225,"is_reserved":false,"is_disabled":false,"rental_uris":{"android":"levelo://app?vid=642cb7b7-e7c4-4185-b975-0e4bd47c9f56","ios":"levelo://app?vid=642cb7b7-e7c4-4185-b975-0e4bd47c9f56"},"vehicle_type_id":"4","last_reported":1748020192,"current_range_meters":8000,"station_id":"ce4bhih2rcd13ifvqfs0","pricing_plan_id":"cebpf4jnsgd1na2vs0mg"},{"bike_id":"9cfc900a-8da9-4017-b928-d31fa73b24b7","system_id":"levelo_inurba_marseille","lat":43.27995,"lon":5.40013,"is_reserved":false,"is_disabled":false,"rental_uris":{"android":"levelo://app?vid=9cfc900a-8da9-4017-b928-d31fa73b24b7","ios":"levelo://app?vid=9cfc900a-8da9-4017-b928-d31fa73b24b7"},"vehicle_type_id":"4","last_reported":1748020192,"current_range_meters":8000,"station_id":"ce4bho92rcd13ifvqh4g","pricing_plan_id":"cebpf4jnsgd1na2vs0mg"},{"bike_id":"30d49d23-f08a-4506-b918-c39e5ce750b9","system_id":"levelo_inurba_marseille","lat":43.268067,"lon":5.402739,"is_reserved":false,"is_disabled":false,"rental_uris":{"android":"levelo://app?vid=30d49d23-f08a-4506-b918-c39e5ce750b9","ios":"levelo://app?vid=30d49d23-f08a-4506-b918-c39e5ce750b9"},"vehicle_type_id":"4","last_reported":1748020192,"current_range_meters":8000,"station_id":"ce501612rcd8frsf0b60","pricing_plan_id":"cebpf4jnsgd1na2vs0mg"},{"bike_id":"025730a1-3559-474f-887d-ec599ae24b9f","system_id":"levelo_inurba_marseille","lat":43.26916,"lon":5.40242,"is_reserved":false,"is_disabled":false,"rental_uris":{"android":"levelo://app?vid=025730a1-3559-474f-887d-ec599ae24b9f","ios":"levelo://app?vid=025730a1-3559-474f-887d-ec599ae24b9f"},"vehicle_type_id":"4","last_reported":1748020192,"current_range_meters":8000,"station_id":"cjm6bp8fraef2m0cb0m0","pricing_plan_id":"cebpf4jnsgd1na2vs0mg"},{"bike_id":"6352eed5-eb32-4a64-ba7a-74e58cdf6fc0","system_id":"levelo_inurba_marseille","lat":43.23059,"lon":5.35492,"is_reserved":false,"is_disabled":false,"rental_uris":{"android":"levelo://app?vid=6352eed5-eb32-4a64-ba7a-74e58cdf6fc0","ios":"levelo://app?vid=6352eed5-eb32-4a64-ba7a-74e58cdf6fc0"},"vehicle_type_id":"4","last_reported":1748020192,"current_range_meters":8000,"station_id":"cpo3342slgdg3j2ifvpg","pricing_plan_id":"cebpf4jnsgd1na2vs0mg"},{"bike_id":"afdf90c6-5b9d-4aaf-ae57-9e04bcff99b4","system_id":"levelo_inurba_marseille","lat":43.29744,"lon":5.38005,"is_reserved":false,"is_disabled":false,"rental_uris":{"android":"levelo://app?vid=afdf90c6-5b9d-4aaf-ae57-9e04bcff99b4","ios":"levelo://app?vid=afdf90c6-5b9d-4aaf-ae57-9e04bcff99b4"},"vehicle_type_id":"4","last_reported":1748020192,"current_range_meters":8400,"station_id":"","pricing_plan_id":"cebpf4jnsgd1na2vs0mg"},{"bike_id":"01ddaa1a-eb5e-48a6-afd1-086e21b7bd9f","system_id":"levelo_inurba_marseille","lat":43.29326,"lon":5.41167,"is_reserved":false,"is_disabled":false,"rental_uris":{"android":"levelo://app?vid=01ddaa1a-eb5e-48a6-afd1-086e21b7bd9f","ios":"levelo://app?vid=01ddaa1a-eb5e-48a6-afd1-086e21b7bd9f"},"vehicle_type_id":"4","last_reported":1748020192,"current_range_meters":8400,"station_id":"","pricing_plan_id":"cebpf4jnsgd1na2vs0mg"},{"bike_id":"c75fc4e4-a42d-4781-ae3f-3511a3f43004","system_id":"levelo_inurba_marseille","lat":43.29807,"lon":5.3811,"is_reserved":false,"is_disabled":false,"rental_uris":{"android":"levelo://app?vid=c75fc4e4-a42d-4781-ae3f-3511a3f43004","ios":"levelo://app?vid=c75fc4e4-a42d-4781-ae3f-3511a3f43004"},"vehicle_type_id":"4","last_reported":1748020192,"current_range_meters":8400,"station_id":"ce4bgip2rcd13ifvqbb0","pricing_plan_id":"cebpf4jnsgd1na2vs0mg"},{"bike_id":"65a8775f-932b-4704-b8e4-c4fcaf2a8a57","system_id":"levelo_inurba_marseille","lat":43.26789,"lon":5.39407,"is_reserved":false,"is_disabled":false,"rental_uris":{"android":"levelo://app?vid=65a8775f-932b-4704-b8e4-c4fcaf2a8a57","ios":"levelo://app?vid=65a8775f-932b-4704-b8e4-c4fcaf2a8a57"},"vehicle_type_id":"4","last_reported":1748020192,"current_range_meters":8400,"station_id":"ce4bhh12rcd13ifvqfg0","pricing_plan_id":"cebpf4jnsgd1na2vs0mg"},{"bike_id":"89266451-ef74-4ad7-a504-de9dc7f25f77","system_id":"levelo_inurba_marseille","lat":43.27209,"lon":5.391755,"is_reserved":false,"is_disabled":false,"rental_uris":{"android":"levelo://app?vid=89266451-ef74-4ad7-a504-de9dc7f25f77","ios":"levelo://app?vid=89266451-ef74-4ad7-a504-de9dc7f25f77"},"vehicle_type_id":"4","last_reported":1748020192,"current_range_meters":8400,"station_id":"ce4bhhp2rcd13ifvqfm0","pricing_plan_id":"cebpf4jnsgd1na2vs0mg"},{"bike_id":"9bf7af8e-d2ee-45d1-8b60-78f3c08f1aff","system_id":"levelo_inurba_marseille","lat":43.23058,"lon":5.35489,"is_reserved":false,"is_disabled":false,"rental_uris":{"android":"levelo://app?vid=9bf7af8e-d2ee-45d1-8b60-78f3c08f1aff","ios":"levelo://app?vid=9bf7af8e-d2ee-45d1-8b60-78f3c08f1aff"},"vehicle_type_id":"4","last_reported":1748020192,"current_range_meters":8400,"station_id":"cpo3342slgdg3j2ifvpg","pricing_plan_id":"cebpf4jnsgd1na2vs0mg"},{"bike_id":"c6453a3a-abe2-4188-af95-7d8b25db4ab4","system_id":"levelo_inurba_marseille","lat":43.22931,"lon":5.35377,"is_reserved":false,"is_disabled":false,"rental_uris":{"android":"levelo://app?vid=c6453a3a-abe2-4188-af95-7d8b25db4ab4","ios":"levelo://app?vid=c6453a3a-abe2-4188-af95-7d8b25db4ab4"},"vehicle_type_id":"4","last_reported":1748020192,"current_range_meters":8400,"station_id":"cpo3532slgdg3j2ikp40","pricing_plan_id":"cebpf4jnsgd1na2vs0mg"},{"bike_id":"f89cc70d-a0d8-4af6-a424-04e5f37ffd13","system_id":"levelo_inurba_marseille","lat":43.294221,"lon":5.386127,"is_reserved":false,"is_disabled":false,"rental_uris":{"android":"levelo://app?vid=f89cc70d-a0d8-4af6-a424-04e5f37ffd13","ios":"levelo://app?vid=f89cc70d-a0d8-4af6-a424-04e5f37ffd13"},"vehicle_type_id":"4","last_reported":1748020192,"current_range_meters":8800,"station_id":"ce4bh2h2rcd13ifvqdh0","pricing_plan_id":"cebpf4jnsgd1na2vs0mg"},{"bike_id":"68bfc4cb-61ab-43c3-ab88-17645cafe6e7","system_id":"levelo_inurba_marseille","lat":43.3179,"lon":5.37575,"is_reserved":false,"is_disabled":false,"rental_uris":{"android":"levelo://app?vid=68bfc4cb-61ab-43c3-ab88-17645cafe6e7","ios":"levelo://app?vid=68bfc4cb-61ab-43c3-ab88-17645cafe6e7"},"vehicle_type_id":"4","last_reported":1748020192,"current_range_meters":9200,"station_id":"","pricing_plan_id":"cebpf4jnsgd1na2vs0mg"},{"bike_id":"20eb6e16-4b91-4c66-aff4-464aa8474f52","system_id":"levelo_inurba_marseille","lat":43.29519,"lon":5.37515,"is_reserved":false,"is_disabled":false,"rental_uris":{"android":"levelo://app?vid=20eb6e16-4b91-4c66-aff4-464aa8474f52","ios":"levelo://app?vid=20eb6e16-4b91-4c66-aff4-464aa8474f52"},"vehicle_type_id":"4","last_reported":1748020192,"current_range_meters":9200,"station_id":"ce4bgkp2rcd13ifvqbmg","pricing_plan_id":"cebpf4jnsgd1na2vs0mg"},{"bike_id":"9239dd73-7ba3-4460-b117-4aca574b33de","system_id":"levelo_inurba_marseille","lat":43.29201,"lon":5.35786,"is_reserved":false,"is_disabled":false,"rental_uris":{"android":"levelo://app?vid=9239dd73-7ba3-4460-b117-4aca574b33de","ios":"levelo://app?vid=9239dd73-7ba3-4460-b117-4aca574b33de"},"vehicle_type_id":"4","last_reported":1748020192,"current_range_meters":9200,"station_id":"ce4bhb12rcd13ifvqel0","pricing_plan_id":"cebpf4jnsgd1na2vs0mg"},{"bike_id":"b9bc7c0d-43cd-4195-a7d5-6ff1b810d251","system_id":"levelo_inurba_marseille","lat":43.28418,"lon":5.34979,"is_reserved":false,"is_disabled":false,"rental_uris":{"android":"levelo://app?vid=b9bc7c0d-43cd-4195-a7d5-6ff1b810d251","ios":"levelo://app?vid=b9bc7c0d-43cd-4195-a7d5-6ff1b810d251"},"vehicle_type_id":"4","last_reported":1748020192,"current_range_meters":9200,"station_id":"ce4bhbh2rcd13ifvqepg","pricing_plan_id":"cebpf4jnsgd1na2vs0mg"},{"bike_id":"54457e6a-6c27-4e4f-b078-0bea3d2c3214","system_id":"levelo_inurba_marseille","lat":43.28617,"lon":5.35101,"is_reserved":false,"is_disabled":false,"rental_uris":{"android":"levelo://app?vid=54457e6a-6c27-4e4f-b078-0bea3d2c3214","ios":"levelo://app?vid=54457e6a-6c27-4e4f-b078-0bea3d2c3214"},"vehicle_type_id":"4","last_reported":1748020192,"current_range_meters":9200,"station_id":"ce4bhch2rcd13ifvqeug","pricing_plan_id":"cebpf4jnsgd1na2vs0mg"},{"bike_id":"c59fa5bc-5283-453c-bc94-593a9e740689","system_id":"levelo_inurba_marseille","lat":43.286177,"lon":5.351057,"is_reserved":false,"is_disabled":false,"rental_uris":{"android":"levelo://app?vid=c59fa5bc-5283-453c-bc94-593a9e740689","ios":"levelo://app?vid=c59fa5bc-5283-453c-bc94-593a9e740689"},"vehicle_type_id":"4","last_reported":1748020192,"current_range_meters":9200,"station_id":"ce4bhch2rcd13ifvqeug","pricing_plan_id":"cebpf4jnsgd1na2vs0mg"},{"bike_id":"6df3e5fd-cc66-442e-b1b6-86e028c0a94f","system_id":"levelo_inurba_marseille","lat":43.24386,"lon":5.37055,"is_reserved":false,"is_disabled":false,"rental_uris":{"android":"levelo://app?vid=6df3e5fd-cc66-442e-b1b6-86e028c0a94f","ios":"levelo://app?vid=6df3e5fd-cc66-442e-b1b6-86e028c0a94f"},"vehicle_type_id":"4","last_reported":1748020192,"current_range_meters":9200,"station_id":"ce4bhhh2rcd13ifvqfk0","pricing_plan_id":"cebpf4jnsgd1na2vs0mg"},{"bike_id":"f6c79825-dc6a-4b57-ad35-7771b8d50bf8","system_id":"levelo_inurba_marseille","lat":43.272179,"lon":5.391747,"is_reserved":false,"is_disabled":false,"rental_uris":{"android":"levelo://app?vid=f6c79825-dc6a-4b57-ad35-7771b8d50bf8","ios":"levelo://app?vid=f6c79825-dc6a-4b57-ad35-7771b8d50bf8"},"vehicle_type_id":"4","last_reported":1748020192,"current_range_meters":9200,"station_id":"ce4bhhp2rcd13ifvqfm0","pricing_plan_id":"cebpf4jnsgd1na2vs0mg"},{"bike_id":"5ebd0d5c-932f-409d-ae09-5031f757f6cd","system_id":"levelo_inurba_marseille","lat":43.24665,"lon":5.38165,"is_reserved":false,"is_disabled":false,"rental_uris":{"android":"levelo://app?vid=5ebd0d5c-932f-409d-ae09-5031f757f6cd","ios":"levelo://app?vid=5ebd0d5c-932f-409d-ae09-5031f757f6cd"},"vehicle_type_id":"4","last_reported":1748020192,"current_range_meters":9200,"station_id":"ce4bhih2rcd13ifvqfr0","pricing_plan_id":"cebpf4jnsgd1na2vs0mg"},{"bike_id":"e3e19b90-9823-4b53-b8a7-4c599b3176c2","system_id":"levelo_inurba_marseille","lat":43.25133,"lon":5.40315,"is_reserved":false,"is_disabled":false,"rental_uris":{"android":"levelo://app?vid=e3e19b90-9823-4b53-b8a7-4c599b3176c2","ios":"levelo://app?vid=e3e19b90-9823-4b53-b8a7-4c599b3176c2"},"vehicle_type_id":"4","last_reported":1748020192,"current_range_meters":9200,"station_id":"ce4bhlh2rcd13ifvqgig","pricing_plan_id":"cebpf4jnsgd1na2vs0mg"},{"bike_id":"780d44ea-9dfa-4892-93ef-998d12415c0d","system_id":"levelo_inurba_marseille","lat":43.26924,"lon":5.40255,"is_reserved":false,"is_disabled":false,"rental_uris":{"android":"levelo://app?vid=780d44ea-9dfa-4892-93ef-998d12415c0d","ios":"levelo://app?vid=780d44ea-9dfa-4892-93ef-998d12415c0d"},"vehicle_type_id":"4","last_reported":1748020192,"current_range_meters":9200,"station_id":"cjm6bp8fraef2m0cb0m0","pricing_plan_id":"cebpf4jnsgd1na2vs0mg"},{"bike_id":"d212ad20-625e-4ecb-8914-e8f325b78175","system_id":"levelo_inurba_marseille","lat":43.26941,"lon":5.40249,"is_reserved":false,"is_disabled":false,"rental_uris":{"android":"levelo://app?vid=d212ad20-625e-4ecb-8914-e8f325b78175","ios":"levelo://app?vid=d212ad20-625e-4ecb-8914-e8f325b78175"},"vehicle_type_id":"4","last_reported":1748020192,"current_range_meters":9200,"station_id":"cjm6bp8fraef2m0cb0m0","pricing_plan_id":"cebpf4jnsgd1na2vs0mg"},{"bike_id":"2d5f7454-a4a6-4e8b-9495-8d6b94c61ba5","system_id":"levelo_inurba_marseille","lat":43.229349,"lon":5.353796,"is_reserved":false,"is_disabled":false,"rental_uris":{"android":"levelo://app?vid=2d5f7454-a4a6-4e8b-9495-8d6b94c61ba5","ios":"levelo://app?vid=2d5f7454-a4a6-4e8b-9495-8d6b94c61ba5"},"vehicle_type_id":"4","last_reported":1748020192,"current_range_meters":9200,"station_id":"cpo3532slgdg3j2ikp40","pricing_plan_id":"cebpf4jnsgd1na2vs0mg"},{"bike_id":"137ae8d8-31e8-462a-bf08-d6edd5982e4f","system_id":"levelo_inurba_marseille","lat":43.30194,"lon":5.36617,"is_reserved":false,"is_disabled":false,"rental_uris":{"android":"levelo://app?vid=137ae8d8-31e8-462a-bf08-d6edd5982e4f","ios":"levelo://app?vid=137ae8d8-31e8-462a-bf08-d6edd5982e4f"},"vehicle_type_id":"4","last_reported":1748020192,"current_range_meters":9600,"station_id":"ce4bgrh2rcd13ifvqc8g","pricing_plan_id":"cebpf4jnsgd1na2vs0mg"},{"bike_id":"141d7d47-92b9-4ac3-96f4-58c3e22182cf","system_id":"levelo_inurba_marseille","lat":43.28921,"lon":5.3839,"is_reserved":false,"is_disabled":false,"rental_uris":{"android":"levelo://app?vid=141d7d47-92b9-4ac3-96f4-58c3e22182cf","ios":"levelo://app?vid=141d7d47-92b9-4ac3-96f4-58c3e22182cf"},"vehicle_type_id":"4","last_reported":1748020192,"current_range_meters":9600,"station_id":"ce4bh612rcd13ifvqe6g","pricing_plan_id":"cebpf4jnsgd1na2vs0mg"},{"bike_id":"28136e2a-e870-4f8d-8186-41229211cab4","system_id":"levelo_inurba_marseille","lat":43.29196,"lon":5.35802,"is_reserved":false,"is_disabled":false,"rental_uris":{"android":"levelo://app?vid=28136e2a-e870-4f8d-8186-41229211cab4","ios":"levelo://app?vid=28136e2a-e870-4f8d-8186-41229211cab4"},"vehicle_type_id":"4","last_reported":1748020192,"current_range_meters":9600,"station_id":"ce4bhb12rcd13ifvqel0","pricing_plan_id":"cebpf4jnsgd1na2vs0mg"},{"bike_id":"e42b1051-5ede-4349-816b-680b651ff51a","system_id":"levelo_inurba_marseille","lat":43.28621,"lon":5.35103,"is_reserved":false,"is_disabled":false,"rental_uris":{"android":"levelo://app?vid=e42b1051-5ede-4349-816b-680b651ff51a","ios":"levelo://app?vid=e42b1051-5ede-4349-816b-680b651ff51a"},"vehicle_type_id":"4","last_reported":1748020192,"current_range_meters":9600,"station_id":"ce4bhch2rcd13ifvqeug","pricing_plan_id":"cebpf4jnsgd1na2vs0mg"},{"bike_id":"767688b4-41f0-42c7-98ac-c1b5ad7cd885","system_id":"levelo_inurba_marseille","lat":43.25572,"lon":5.38249,"is_reserved":false,"is_disabled":false,"rental_uris":{"android":"levelo://app?vid=767688b4-41f0-42c7-98ac-c1b5ad7cd885","ios":"levelo://app?vid=767688b4-41f0-42c7-98ac-c1b5ad7cd885"},"vehicle_type_id":"4","last_reported":1748020192,"current_range_meters":9600,"station_id":"ce4bhih2rcd13ifvqfs0","pricing_plan_id":"cebpf4jnsgd1na2vs0mg"},{"bike_id":"9344fe9f-1b42-4291-b728-59eaa355fbf6","system_id":"levelo_inurba_marseille","lat":43.28004,"lon":5.40007,"is_reserved":false,"is_disabled":false,"rental_uris":{"android":"levelo://app?vid=9344fe9f-1b42-4291-b728-59eaa355fbf6","ios":"levelo://app?vid=9344fe9f-1b42-4291-b728-59eaa355fbf6"},"vehicle_type_id":"4","last_reported":1748020192,"current_range_meters":9600,"station_id":"ce4bho92rcd13ifvqh4g","pricing_plan_id":"cebpf4jnsgd1na2vs0mg"},{"bike_id":"a4057515-01d7-4e21-80cf-dd72f2854816","system_id":"levelo_inurba_marseille","lat":43.308956,"lon":5.371897,"is_reserved":false,"is_disabled":false,"rental_uris":{"android":"levelo://app?vid=a4057515-01d7-4e21-80cf-dd72f2854816","ios":"levelo://app?vid=a4057515-01d7-4e21-80cf-dd72f2854816"},"vehicle_type_id":"4","last_reported":1748020192,"current_range_meters":10000,"station_id":"ce4bguh2rcd13ifvqckg","pricing_plan_id":"cebpf4jnsgd1na2vs0mg"},{"bike_id":"fead304d-8a75-47c8-9a48-ac8af3a41971","system_id":"levelo_inurba_marseille","lat":43.27307,"lon":5.39089,"is_reserved":false,"is_disabled":false,"rental_uris":{"android":"levelo://app?vid=fead304d-8a75-47c8-9a48-ac8af3a41971","ios":"levelo://app?vid=fead304d-8a75-47c8-9a48-ac8af3a41971"},"vehicle_type_id":"4","last_reported":1748020192,"current_range_meters":10000,"station_id":"ce4bhgp2rcd13ifvqfe0","pricing_plan_id":"cebpf4jnsgd1na2vs0mg"},{"bike_id":"cacfae92-97f5-45bd-aea0-05030149cdbb","system_id":"levelo_inurba_marseille","lat":43.26795,"lon":5.39398,"is_reserved":false,"is_disabled":false,"rental_uris":{"android":"levelo://app?vid=cacfae92-97f5-45bd-aea0-05030149cdbb","ios":"levelo://app?vid=cacfae92-97f5-45bd-aea0-05030149cdbb"},"vehicle_type_id":"4","last_reported":1748020192,"current_range_meters":10000,"station_id":"ce4bhh12rcd13ifvqfg0","pricing_plan_id":"cebpf4jnsgd1na2vs0mg"},{"bike_id":"fbba7d0e-f8c3-4bf7-abc5-dc425608d66e","system_id":"levelo_inurba_marseille","lat":43.25122,"lon":5.40298,"is_reserved":false,"is_disabled":false,"rental_uris":{"android":"levelo://app?vid=fbba7d0e-f8c3-4bf7-abc5-dc425608d66e","ios":"levelo://app?vid=fbba7d0e-f8c3-4bf7-abc5-dc425608d66e"},"vehicle_type_id":"4","last_reported":1748020192,"current_range_meters":10000,"station_id":"ce4bhlh2rcd13ifvqgig","pricing_plan_id":"cebpf4jnsgd1na2vs0mg"},{"bike_id":"1f8f2cf8-e258-4b66-9b66-66da44b9c55c","system_id":"levelo_inurba_marseille","lat":43.30989,"lon":5.40222,"is_reserved":false,"is_disabled":false,"rental_uris":{"android":"levelo://app?vid=1f8f2cf8-e258-4b66-9b66-66da44b9c55c","ios":"levelo://app?vid=1f8f2cf8-e258-4b66-9b66-66da44b9c55c"},"vehicle_type_id":"4","last_reported":1748020192,"current_range_meters":10800,"station_id":"","pricing_plan_id":"cebpf4jnsgd1na2vs0mg"},{"bike_id":"8fb3d020-e972-4c5a-8b3c-2532003681bf","system_id":"levelo_inurba_marseille","lat":43.28628,"lon":5.35108,"is_reserved":false,"is_disabled":false,"rental_uris":{"android":"levelo://app?vid=8fb3d020-e972-4c5a-8b3c-2532003681bf","ios":"levelo://app?vid=8fb3d020-e972-4c5a-8b3c-2532003681bf"},"vehicle_type_id":"4","last_reported":1748020192,"current_range_meters":10800,"station_id":"ce4bhch2rcd13ifvqeug","pricing_plan_id":"cebpf4jnsgd1na2vs0mg"},{"bike_id":"96da3d96-3d43-40f4-98b2-06d56fa56f0b","system_id":"levelo_inurba_marseille","lat":43.23181,"lon":5.39987,"is_reserved":false,"is_disabled":false,"rental_uris":{"android":"levelo://app?vid=96da3d96-3d43-40f4-98b2-06d56fa56f0b","ios":"levelo://app?vid=96da3d96-3d43-40f4-98b2-06d56fa56f0b"},"vehicle_type_id":"4","last_reported":1748020192,"current_range_meters":10800,"station_id":"ce4bhn12rcd13ifvqgqg","pricing_plan_id":"cebpf4jnsgd1na2vs0mg"},{"bike_id":"18b5d2c9-75cf-41da-8d77-0ed7751f60bd","system_id":"levelo_inurba_marseille","lat":43.32656,"lon":5.40988,"is_reserved":false,"is_disabled":false,"rental_uris":{"android":"levelo://app?vid=18b5d2c9-75cf-41da-8d77-0ed7751f60bd","ios":"levelo://app?vid=18b5d2c9-75cf-41da-8d77-0ed7751f60bd"},"vehicle_type_id":"4","last_reported":1748020192,"current_range_meters":10800,"station_id":"ce4bhpp2rcd13ifvqhgg","pricing_plan_id":"cebpf4jnsgd1na2vs0mg"},{"bike_id":"900926bd-c178-4fb1-9ad6-ba459192fc5c","system_id":"levelo_inurba_marseille","lat":43.24166,"lon":5.36397,"is_reserved":false,"is_disabled":false,"rental_uris":{"android":"levelo://app?vid=900926bd-c178-4fb1-9ad6-ba459192fc5c","ios":"levelo://app?vid=900926bd-c178-4fb1-9ad6-ba459192fc5c"},"vehicle_type_id":"4","last_reported":1748020192,"current_range_meters":10800,"station_id":"cpo36qri1sfpv3e86is0","pricing_plan_id":"cebpf4jnsgd1na2vs0mg"},{"bike_id":"1e164eaf-2ffb-4814-9442-b43f6b5c9f80","system_id":"levelo_inurba_marseille","lat":43.2417,"lon":5.36384,"is_reserved":false,"is_disabled":false,"rental_uris":{"android":"levelo://app?vid=1e164eaf-2ffb-4814-9442-b43f6b5c9f80","ios":"levelo://app?vid=1e164eaf-2ffb-4814-9442-b43f6b5c9f80"},"vehicle_type_id":"4","last_reported":1748020192,"current_range_meters":11200,"station_id":"cpo36qri1sfpv3e86is0","pricing_plan_id":"cebpf4jnsgd1na2vs0mg"},{"bike_id":"23db366d-5590-4314-b4b8-a404bc4f2a2e","system_id":"levelo_inurba_marseille","lat":43.30897,"lon":5.36844,"is_reserved":false,"is_disabled":false,"rental_uris":{"android":"levelo://app?vid=23db366d-5590-4314-b4b8-a404bc4f2a2e","ios":"levelo://app?vid=23db366d-5590-4314-b4b8-a404bc4f2a2e"},"vehicle_type_id":"4","last_reported":1748020192,"current_range_meters":11600,"station_id":"ce4bgn92rcd13ifvqbvg","pricing_plan_id":"cebpf4jnsgd1na2vs0mg"},{"bike_id":"15a748ee-9f14-415d-94be-e59fd285ba3b","system_id":"levelo_inurba_marseille","lat":43.30947,"lon":5.39028,"is_reserved":false,"is_disabled":false,"rental_uris":{"android":"levelo://app?vid=15a748ee-9f14-415d-94be-e59fd285ba3b","ios":"levelo://app?vid=15a748ee-9f14-415d-94be-e59fd285ba3b"},"vehicle_type_id":"4","last_reported":1748020192,"current_range_meters":11600,"station_id":"ce4bgup2rcd13ifvqco0","pricing_plan_id":"cebpf4jnsgd1na2vs0mg"},{"bike_id":"1734ddc3-49f9-4403-ba29-78a1d078cf63","system_id":"levelo_inurba_marseille","lat":43.2815,"lon":5.42644,"is_reserved":false,"is_disabled":false,"rental_uris":{"android":"levelo://app?vid=1734ddc3-49f9-4403-ba29-78a1d078cf63","ios":"levelo://app?vid=1734ddc3-49f9-4403-ba29-78a1d078cf63"},"vehicle_type_id":"4","last_reported":1748020192,"current_range_meters":11600,"station_id":"ce4bhnh2rcd13ifvqgug","pricing_plan_id":"cebpf4jnsgd1na2vs0mg"},{"bike_id":"2ea50577-1176-467c-8d1f-ce07d6571fb8","system_id":"levelo_inurba_marseille","lat":43.231931,"lon":5.355548,"is_reserved":false,"is_disabled":false,"rental_uris":{"android":"levelo://app?vid=2ea50577-1176-467c-8d1f-ce07d6571fb8","ios":"levelo://app?vid=2ea50577-1176-467c-8d1f-ce07d6571fb8"},"vehicle_type_id":"4","last_reported":1748020192,"current_range_meters":11600,"station_id":"ce4bhu92rcd13ifvqi70","pricing_plan_id":"cebpf4jnsgd1na2vs0mg"},{"bike_id":"bf662ae0-26e4-4bb7-9f9e-d0df53c116b8","system_id":"levelo_inurba_marseille","lat":43.23189,"lon":5.35551,"is_reserved":false,"is_disabled":false,"rental_uris":{"android":"levelo://app?vid=bf662ae0-26e4-4bb7-9f9e-d0df53c116b8","ios":"levelo://app?vid=bf662ae0-26e4-4bb7-9f9e-d0df53c116b8"},"vehicle_type_id":"4","last_reported":1748020192,"current_range_meters":11600,"station_id":"ce4bhu92rcd13ifvqi70","pricing_plan_id":"cebpf4jnsgd1na2vs0mg"},{"bike_id":"c8dc0021-2d24-4104-98cd-c934a1bbfd98","system_id":"levelo_inurba_marseille","lat":43.29256,"lon":5.40901,"is_reserved":false,"is_disabled":false,"rental_uris":{"android":"levelo://app?vid=c8dc0021-2d24-4104-98cd-c934a1bbfd98","ios":"levelo://app?vid=c8dc0021-2d24-4104-98cd-c934a1bbfd98"},"vehicle_type_id":"4","last_reported":1748020192,"current_range_meters":12000,"station_id":"ce4bh192rcd13ifvqdc0","pricing_plan_id":"cebpf4jnsgd1na2vs0mg"},{"bike_id":"254f54f2-c782-42fa-941e-2df8d21aba46","system_id":"levelo_inurba_marseille","lat":43.28423,"lon":5.34983,"is_reserved":false,"is_disabled":false,"rental_uris":{"android":"levelo://app?vid=254f54f2-c782-42fa-941e-2df8d21aba46","ios":"levelo://app?vid=254f54f2-c782-42fa-941e-2df8d21aba46"},"vehicle_type_id":"4","last_reported":1748020192,"current_range_meters":12000,"station_id":"ce4bhbh2rcd13ifvqepg","pricing_plan_id":"cebpf4jnsgd1na2vs0mg"},{"bike_id":"cacf60b0-0f1d-4a30-bcb2-b172f45f20e9","system_id":"levelo_inurba_marseille","lat":43.28629,"lon":5.35101,"is_reserved":false,"is_disabled":false,"rental_uris":{"android":"levelo://app?vid=cacf60b0-0f1d-4a30-bcb2-b172f45f20e9","ios":"levelo://app?vid=cacf60b0-0f1d-4a30-bcb2-b172f45f20e9"},"vehicle_type_id":"4","last_reported":1748020192,"current_range_meters":12000,"station_id":"ce4bhch2rcd13ifvqeug","pricing_plan_id":"cebpf4jnsgd1na2vs0mg"},{"bike_id":"a4a9531e-6f5f-4447-903a-bd6b7c157441","system_id":"levelo_inurba_marseille","lat":43.28614,"lon":5.35105,"is_reserved":false,"is_disabled":false,"rental_uris":{"android":"levelo://app?vid=a4a9531e-6f5f-4447-903a-bd6b7c157441","ios":"levelo://app?vid=a4a9531e-6f5f-4447-903a-bd6b7c157441"},"vehicle_type_id":"4","last_reported":1748020192,"current_range_meters":12000,"station_id":"ce4bhch2rcd13ifvqeug","pricing_plan_id":"cebpf4jnsgd1na2vs0mg"},{"bike_id":"f41c8321-1d79-4ab1-834a-b948f4f6cdb1","system_id":"levelo_inurba_marseille","lat":43.26677,"lon":5.38267,"is_reserved":false,"is_disabled":false,"rental_uris":{"android":"levelo://app?vid=f41c8321-1d79-4ab1-834a-b948f4f6cdb1","ios":"levelo://app?vid=f41c8321-1d79-4ab1-834a-b948f4f6cdb1"},"vehicle_type_id":"4","last_reported":1748020192,"current_range_meters":12000,"station_id":"ce4bhg92rcd13ifvqf90","pricing_plan_id":"cebpf4jnsgd1na2vs0mg"},{"bike_id":"fa529a29-8d21-4f13-9783-e1708a99c344","system_id":"levelo_inurba_marseille","lat":43.246516,"lon":5.388955,"is_reserved":false,"is_disabled":false,"rental_uris":{"android":"levelo://app?vid=fa529a29-8d21-4f13-9783-e1708a99c344","ios":"levelo://app?vid=fa529a29-8d21-4f13-9783-e1708a99c344"},"vehicle_type_id":"4","last_reported":1748020192,"current_range_meters":12000,"station_id":"ce4bhlh2rcd13ifvqgig","pricing_plan_id":"cebpf4jnsgd1na2vs0mg"},{"bike_id":"2dd3fbf0-ee55-43bc-9a5b-52cfd8632452","system_id":"levelo_inurba_marseille","lat":43.2942,"lon":5.3862,"is_reserved":false,"is_disabled":false,"rental_uris":{"android":"levelo://app?vid=2dd3fbf0-ee55-43bc-9a5b-52cfd8632452","ios":"levelo://app?vid=2dd3fbf0-ee55-43bc-9a5b-52cfd8632452"},"vehicle_type_id":"4","last_reported":1748020192,"current_range_meters":12400,"station_id":"ce4bh2h2rcd13ifvqdh0","pricing_plan_id":"cebpf4jnsgd1na2vs0mg"},{"bike_id":"ad04624c-8795-4dee-8c56-0b1afdb0221f","system_id":"levelo_inurba_marseille","lat":43.255,"lon":5.37646,"is_reserved":false,"is_disabled":false,"rental_uris":{"android":"levelo://app?vid=ad04624c-8795-4dee-8c56-0b1afdb0221f","ios":"levelo://app?vid=ad04624c-8795-4dee-8c56-0b1afdb0221f"},"vehicle_type_id":"4","last_reported":1748020192,"current_range_meters":12400,"station_id":"ce4bhh12rcd13ifvqff0","pricing_plan_id":"cebpf4jnsgd1na2vs0mg"},{"bike_id":"0b980cb7-3745-4cd4-8228-9948aced363f","system_id":"levelo_inurba_marseille","lat":43.27204,"lon":5.39181,"is_reserved":false,"is_disabled":false,"rental_uris":{"android":"levelo://app?vid=0b980cb7-3745-4cd4-8228-9948aced363f","ios":"levelo://app?vid=0b980cb7-3745-4cd4-8228-9948aced363f"},"vehicle_type_id":"4","last_reported":1748020192,"current_range_meters":12400,"station_id":"ce4bhhp2rcd13ifvqfm0","pricing_plan_id":"cebpf4jnsgd1na2vs0mg"},{"bike_id":"3af1902c-c1d0-49b2-ab59-6dd7ff411dd2","system_id":"levelo_inurba_marseille","lat":43.25865,"lon":5.39902,"is_reserved":false,"is_disabled":false,"rental_uris":{"android":"levelo://app?vid=3af1902c-c1d0-49b2-ab59-6dd7ff411dd2","ios":"levelo://app?vid=3af1902c-c1d0-49b2-ab59-6dd7ff411dd2"},"vehicle_type_id":"4","last_reported":1748020192,"current_range_meters":12400,"station_id":"ce4bhl92rcd13ifvqghg","pricing_plan_id":"cebpf4jnsgd1na2vs0mg"},{"bike_id":"e0a57f25-d2f9-46a3-9843-0a4fa18cf4fb","system_id":"levelo_inurba_marseille","lat":43.29257,"lon":5.38446,"is_reserved":false,"is_disabled":false,"rental_uris":{"android":"levelo://app?vid=e0a57f25-d2f9-46a3-9843-0a4fa18cf4fb","ios":"levelo://app?vid=e0a57f25-d2f9-46a3-9843-0a4fa18cf4fb"},"vehicle_type_id":"4","last_reported":1748020192,"current_range_meters":12800,"station_id":"ce4bh692rcd13ifvqea0","pricing_plan_id":"cebpf4jnsgd1na2vs0mg"},{"bike_id":"71432bf2-393f-491a-b3b3-712c8446457c","system_id":"levelo_inurba_marseille","lat":43.24387,"lon":5.3706,"is_reserved":false,"is_disabled":false,"rental_uris":{"android":"levelo://app?vid=71432bf2-393f-491a-b3b3-712c8446457c","ios":"levelo://app?vid=71432bf2-393f-491a-b3b3-712c8446457c"},"vehicle_type_id":"4","last_reported":1748020192,"current_range_meters":12800,"station_id":"ce4bhhh2rcd13ifvqfk0","pricing_plan_id":"cebpf4jnsgd1na2vs0mg"},{"bike_id":"f4163e34-8e1a-4e10-afcf-74f40a048831","system_id":"levelo_inurba_marseille","lat":43.28457,"lon":5.35891,"is_reserved":false,"is_disabled":false,"rental_uris":{"android":"levelo://app?vid=f4163e34-8e1a-4e10-afcf-74f40a048831","ios":"levelo://app?vid=f4163e34-8e1a-4e10-afcf-74f40a048831"},"vehicle_type_id":"4","last_reported":1748020192,"current_range_meters":13600,"station_id":"ce4bhah2rcd13ifvqei0","pricing_plan_id":"cebpf4jnsgd1na2vs0mg"},{"bike_id":"bbccda08-199e-40d0-86ec-b86854648adc","system_id":"levelo_inurba_marseille","lat":43.28999,"lon":5.356,"is_reserved":false,"is_disabled":false,"rental_uris":{"android":"levelo://app?vid=bbccda08-199e-40d0-86ec-b86854648adc","ios":"levelo://app?vid=bbccda08-199e-40d0-86ec-b86854648adc"},"vehicle_type_id":"4","last_reported":1748020192,"current_range_meters":13600,"station_id":"ce4bhb92rcd13ifvqen0","pricing_plan_id":"cebpf4jnsgd1na2vs0mg"},{"bike_id":"02bc823b-9277-409f-a36d-18fb29a0ece1","system_id":"levelo_inurba_marseille","lat":43.27366,"lon":5.36235,"is_reserved":false,"is_disabled":false,"rental_uris":{"android":"levelo://app?vid=02bc823b-9277-409f-a36d-18fb29a0ece1","ios":"levelo://app?vid=02bc823b-9277-409f-a36d-18fb29a0ece1"},"vehicle_type_id":"4","last_reported":1748020192,"current_range_meters":13600,"station_id":"ce4bhbh2rcd13ifvqeo0","pricing_plan_id":"cebpf4jnsgd1na2vs0mg"},{"bike_id":"9f656134-943d-4837-90af-a36d99e02dad","system_id":"levelo_inurba_marseille","lat":43.30207,"lon":5.45374,"is_reserved":false,"is_disabled":false,"rental_uris":{"android":"levelo://app?vid=9f656134-943d-4837-90af-a36d99e02dad","ios":"levelo://app?vid=9f656134-943d-4837-90af-a36d99e02dad"},"vehicle_type_id":"4","last_reported":1748020192,"current_range_meters":14000,"station_id":"","pricing_plan_id":"cebpf4jnsgd1na2vs0mg"},{"bike_id":"f9b8de3e-f216-4a97-a31c-9c85d23db479","system_id":"levelo_inurba_marseille","lat":43.286492,"lon":5.35125,"is_reserved":false,"is_disabled":false,"rental_uris":{"android":"levelo://app?vid=f9b8de3e-f216-4a97-a31c-9c85d23db479","ios":"levelo://app?vid=f9b8de3e-f216-4a97-a31c-9c85d23db479"},"vehicle_type_id":"4","last_reported":1748020192,"current_range_meters":14000,"station_id":"ce4bhch2rcd13ifvqeug","pricing_plan_id":"cebpf4jnsgd1na2vs0mg"},{"bike_id":"e20c23e7-a959-46f5-8695-90cce15f54ce","system_id":"levelo_inurba_marseille","lat":43.26201,"lon":5.379267,"is_reserved":false,"is_disabled":false,"rental_uris":{"android":"levelo://app?vid=e20c23e7-a959-46f5-8695-90cce15f54ce","ios":"levelo://app?vid=e20c23e7-a959-46f5-8695-90cce15f54ce"},"vehicle_type_id":"4","last_reported":1748020192,"current_range_meters":14000,"station_id":"ce4bhjp2rcd13ifvqg90","pricing_plan_id":"cebpf4jnsgd1na2vs0mg"},{"bike_id":"2d4aacad-b0cd-459c-9901-fcfc83ed04e7","system_id":"levelo_inurba_marseille","lat":43.27056,"lon":5.42283,"is_reserved":false,"is_disabled":false,"rental_uris":{"android":"levelo://app?vid=2d4aacad-b0cd-459c-9901-fcfc83ed04e7","ios":"levelo://app?vid=2d4aacad-b0cd-459c-9901-fcfc83ed04e7"},"vehicle_type_id":"4","last_reported":1748020192,"current_range_meters":14000,"station_id":"ce4bhk92rcd13ifvqgb0","pricing_plan_id":"cebpf4jnsgd1na2vs0mg"},{"bike_id":"3da04a3a-16dd-46bd-a906-a6561bf763a8","system_id":"levelo_inurba_marseille","lat":43.32972,"lon":5.39383,"is_reserved":false,"is_disabled":false,"rental_uris":{"android":"levelo://app?vid=3da04a3a-16dd-46bd-a906-a6561bf763a8","ios":"levelo://app?vid=3da04a3a-16dd-46bd-a906-a6561bf763a8"},"vehicle_type_id":"4","last_reported":1748020192,"current_range_meters":14400,"station_id":"","pricing_plan_id":"cebpf4jnsgd1na2vs0mg"},{"bike_id":"5239da60-466a-4ed3-a3c5-714fb94560a7","system_id":"levelo_inurba_marseille","lat":43.3078,"lon":5.37643,"is_reserved":false,"is_disabled":false,"rental_uris":{"android":"levelo://app?vid=5239da60-466a-4ed3-a3c5-714fb94560a7","ios":"levelo://app?vid=5239da60-466a-4ed3-a3c5-714fb94560a7"},"vehicle_type_id":"4","last_reported":1748020192,"current_range_meters":14400,"station_id":"ce4bgv92rcd13ifvqcq0","pricing_plan_id":"cebpf4jnsgd1na2vs0mg"},{"bike_id":"887db284-2b25-47f9-8bf9-46d7d8b2c380","system_id":"levelo_inurba_marseille","lat":43.27303,"lon":5.39088,"is_reserved":false,"is_disabled":false,"rental_uris":{"android":"levelo://app?vid=887db284-2b25-47f9-8bf9-46d7d8b2c380","ios":"levelo://app?vid=887db284-2b25-47f9-8bf9-46d7d8b2c380"},"vehicle_type_id":"4","last_reported":1748020192,"current_range_meters":14400,"station_id":"ce4bhgp2rcd13ifvqfe0","pricing_plan_id":"cebpf4jnsgd1na2vs0mg"},{"bike_id":"2c594e09-996e-4c83-bf42-528d148a96dd","system_id":"levelo_inurba_marseille","lat":43.262,"lon":5.37941,"is_reserved":false,"is_disabled":false,"rental_uris":{"android":"levelo://app?vid=2c594e09-996e-4c83-bf42-528d148a96dd","ios":"levelo://app?vid=2c594e09-996e-4c83-bf42-528d148a96dd"},"vehicle_type_id":"4","last_reported":1748020192,"current_range_meters":14400,"station_id":"ce4bhjp2rcd13ifvqg90","pricing_plan_id":"cebpf4jnsgd1na2vs0mg"},{"bike_id":"fc8c72ad-ca61-42c6-ae90-f61b57e45328","system_id":"levelo_inurba_marseille","lat":43.279025,"lon":5.418556,"is_reserved":false,"is_disabled":false,"rental_uris":{"android":"levelo://app?vid=fc8c72ad-ca61-42c6-ae90-f61b57e45328","ios":"levelo://app?vid=fc8c72ad-ca61-42c6-ae90-f61b57e45328"},"vehicle_type_id":"4","last_reported":1748020192,"current_range_meters":14800,"station_id":"","pricing_plan_id":"cebpf4jnsgd1na2vs0mg"},{"bike_id":"87a4e89e-465c-41d2-92ef-bbaf6dc0d3ad","system_id":"levelo_inurba_marseille","lat":43.30593,"lon":5.37235,"is_reserved":false,"is_disabled":false,"rental_uris":{"android":"levelo://app?vid=87a4e89e-465c-41d2-92ef-bbaf6dc0d3ad","ios":"levelo://app?vid=87a4e89e-465c-41d2-92ef-bbaf6dc0d3ad"},"vehicle_type_id":"4","last_reported":1748020192,"current_range_meters":14800,"station_id":"ce4bgqh2rcd13ifvqc4g","pricing_plan_id":"cebpf4jnsgd1na2vs0mg"},{"bike_id":"39c1f89e-f2c8-48da-8456-d94c7128734d","system_id":"levelo_inurba_marseille","lat":43.27371,"lon":5.36253,"is_reserved":false,"is_disabled":false,"rental_uris":{"android":"levelo://app?vid=39c1f89e-f2c8-48da-8456-d94c7128734d","ios":"levelo://app?vid=39c1f89e-f2c8-48da-8456-d94c7128734d"},"vehicle_type_id":"4","last_reported":1748020192,"current_range_meters":14800,"station_id":"ce4bhbh2rcd13ifvqeo0","pricing_plan_id":"cebpf4jnsgd1na2vs0mg"},{"bike_id":"01c0716b-8957-4246-bdf6-67b363ea8382","system_id":"levelo_inurba_marseille","lat":43.28621,"lon":5.35104,"is_reserved":false,"is_disabled":false,"rental_uris":{"android":"levelo://app?vid=01c0716b-8957-4246-bdf6-67b363ea8382","ios":"levelo://app?vid=01c0716b-8957-4246-bdf6-67b363ea8382"},"vehicle_type_id":"4","last_reported":1748020192,"current_range_meters":14800,"station_id":"ce4bhch2rcd13ifvqeug","pricing_plan_id":"cebpf4jnsgd1na2vs0mg"},{"bike_id":"d856fbf8-c8cf-45dd-b5f7-cbe6e12787e1","system_id":"levelo_inurba_marseille","lat":43.23966,"lon":5.36627,"is_reserved":false,"is_disabled":false,"rental_uris":{"android":"levelo://app?vid=d856fbf8-c8cf-45dd-b5f7-cbe6e12787e1","ios":"levelo://app?vid=d856fbf8-c8cf-45dd-b5f7-cbe6e12787e1"},"vehicle_type_id":"4","last_reported":1748020192,"current_range_meters":14800,"station_id":"ce4bhi12rcd13ifvqfp0","pricing_plan_id":"cebpf4jnsgd1na2vs0mg"},{"bike_id":"272e9523-4403-4752-a922-81cc618233c1","system_id":"levelo_inurba_marseille","lat":43.2572,"lon":5.41111,"is_reserved":false,"is_disabled":false,"rental_uris":{"android":"levelo://app?vid=272e9523-4403-4752-a922-81cc618233c1","ios":"levelo://app?vid=272e9523-4403-4752-a922-81cc618233c1"},"vehicle_type_id":"4","last_reported":1748020192,"current_range_meters":14800,"station_id":"ce4bhkp2rcd13ifvqgd0","pricing_plan_id":"cebpf4jnsgd1na2vs0mg"},{"bike_id":"293d61e5-2bb1-407f-9e33-e203d0ecedbf","system_id":"levelo_inurba_marseille","lat":43.28,"lon":5.40034,"is_reserved":false,"is_disabled":false,"rental_uris":{"android":"levelo://app?vid=293d61e5-2bb1-407f-9e33-e203d0ecedbf","ios":"levelo://app?vid=293d61e5-2bb1-407f-9e33-e203d0ecedbf"},"vehicle_type_id":"4","last_reported":1748020192,"current_range_meters":14800,"station_id":"ce4bho92rcd13ifvqh4g","pricing_plan_id":"cebpf4jnsgd1na2vs0mg"},{"bike_id":"b959a865-fc01-4964-9b1d-7e25b047370d","system_id":"levelo_inurba_marseille","lat":43.23184,"lon":5.35544,"is_reserved":false,"is_disabled":false,"rental_uris":{"android":"levelo://app?vid=b959a865-fc01-4964-9b1d-7e25b047370d","ios":"levelo://app?vid=b959a865-fc01-4964-9b1d-7e25b047370d"},"vehicle_type_id":"4","last_reported":1748020192,"current_range_meters":14800,"station_id":"ce4bhu92rcd13ifvqi70","pricing_plan_id":"cebpf4jnsgd1na2vs0mg"},{"bike_id":"8bf531c8-63c9-4599-a836-ffb8cfe6db01","system_id":"levelo_inurba_marseille","lat":43.24165,"lon":5.3638,"is_reserved":false,"is_disabled":false,"rental_uris":{"android":"levelo://app?vid=8bf531c8-63c9-4599-a836-ffb8cfe6db01","ios":"levelo://app?vid=8bf531c8-63c9-4599-a836-ffb8cfe6db01"},"vehicle_type_id":"4","last_reported":1748020192,"current_range_meters":14800,"station_id":"cpo36qri1sfpv3e86is0","pricing_plan_id":"cebpf4jnsgd1na2vs0mg"},{"bike_id":"75e91607-f093-41b1-947a-69b62fe724b6","system_id":"levelo_inurba_marseille","lat":43.34729,"lon":5.34462,"is_reserved":false,"is_disabled":false,"rental_uris":{"android":"levelo://app?vid=75e91607-f093-41b1-947a-69b62fe724b6","ios":"levelo://app?vid=75e91607-f093-41b1-947a-69b62fe724b6"},"vehicle_type_id":"4","last_reported":1748020192,"current_range_meters":15200,"station_id":"","pricing_plan_id":"cebpf4jnsgd1na2vs0mg"},{"bike_id":"46201b0c-e503-497a-93f7-d29c867b3b15","system_id":"levelo_inurba_marseille","lat":43.28479,"lon":5.38531,"is_reserved":false,"is_disabled":false,"rental_uris":{"android":"levelo://app?vid=46201b0c-e503-497a-93f7-d29c867b3b15","ios":"levelo://app?vid=46201b0c-e503-497a-93f7-d29c867b3b15"},"vehicle_type_id":"4","last_reported":1748020192,"current_range_meters":15200,"station_id":"ce4bh8p2rcd13ifvqeb0","pricing_plan_id":"cebpf4jnsgd1na2vs0mg"},{"bike_id":"853d672a-807f-44d6-a3f8-43f56b8b3db2","system_id":"levelo_inurba_marseille","lat":43.29275,"lon":5.36844,"is_reserved":false,"is_disabled":false,"rental_uris":{"android":"levelo://app?vid=853d672a-807f-44d6-a3f8-43f56b8b3db2","ios":"levelo://app?vid=853d672a-807f-44d6-a3f8-43f56b8b3db2"},"vehicle_type_id":"4","last_reported":1748020192,"current_range_meters":15200,"station_id":"ce4bhbp2rcd13ifvqesg","pricing_plan_id":"cebpf4jnsgd1na2vs0mg"},{"bike_id":"49de7268-0b1b-4af7-8c76-8fb0da81bd1b","system_id":"levelo_inurba_marseille","lat":43.27312,"lon":5.390708,"is_reserved":false,"is_disabled":false,"rental_uris":{"android":"levelo://app?vid=49de7268-0b1b-4af7-8c76-8fb0da81bd1b","ios":"levelo://app?vid=49de7268-0b1b-4af7-8c76-8fb0da81bd1b"},"vehicle_type_id":"4","last_reported":1748020192,"current_range_meters":15200,"station_id":"ce4bhgp2rcd13ifvqfe0","pricing_plan_id":"cebpf4jnsgd1na2vs0mg"},{"bike_id":"741ecc7e-6c07-4455-a632-cdeb3c04a998","system_id":"levelo_inurba_marseille","lat":43.25577,"lon":5.38244,"is_reserved":false,"is_disabled":false,"rental_uris":{"android":"levelo://app?vid=741ecc7e-6c07-4455-a632-cdeb3c04a998","ios":"levelo://app?vid=741ecc7e-6c07-4455-a632-cdeb3c04a998"},"vehicle_type_id":"4","last_reported":1748020192,"current_range_meters":15200,"station_id":"ce4bhih2rcd13ifvqfs0","pricing_plan_id":"cebpf4jnsgd1na2vs0mg"},{"bike_id":"1eb44469-a0e3-4aba-8034-e346081203cb","system_id":"levelo_inurba_marseille","lat":43.25719,"lon":5.41112,"is_reserved":false,"is_disabled":false,"rental_uris":{"android":"levelo://app?vid=1eb44469-a0e3-4aba-8034-e346081203cb","ios":"levelo://app?vid=1eb44469-a0e3-4aba-8034-e346081203cb"},"vehicle_type_id":"4","last_reported":1748020192,"current_range_meters":15200,"station_id":"ce4bhkp2rcd13ifvqgd0","pricing_plan_id":"cebpf4jnsgd1na2vs0mg"},{"bike_id":"c0b1ba3b-5a5f-4006-92f2-e0b5fde61a71","system_id":"levelo_inurba_marseille","lat":43.26936,"lon":5.40252,"is_reserved":false,"is_disabled":false,"rental_uris":{"android":"levelo://app?vid=c0b1ba3b-5a5f-4006-92f2-e0b5fde61a71","ios":"levelo://app?vid=c0b1ba3b-5a5f-4006-92f2-e0b5fde61a71"},"vehicle_type_id":"4","last_reported":1748020192,"current_range_meters":15200,"station_id":"cjm6bp8fraef2m0cb0m0","pricing_plan_id":"cebpf4jnsgd1na2vs0mg"},{"bike_id":"bdcf9ed8-e973-4e64-a4d0-10e0424a7cc5","system_id":"levelo_inurba_marseille","lat":43.3046,"lon":5.37902,"is_reserved":false,"is_disabled":false,"rental_uris":{"android":"levelo://app?vid=bdcf9ed8-e973-4e64-a4d0-10e0424a7cc5","ios":"levelo://app?vid=bdcf9ed8-e973-4e64-a4d0-10e0424a7cc5"},"vehicle_type_id":"4","last_reported":1748020192,"current_range_meters":16000,"station_id":"ce4bgup2rcd13ifvqcn0","pricing_plan_id":"cebpf4jnsgd1na2vs0mg"},{"bike_id":"95f97224-1616-448e-aaab-7642fd82bbb8","system_id":"levelo_inurba_marseille","lat":43.2678,"lon":5.39423,"is_reserved":false,"is_disabled":false,"rental_uris":{"android":"levelo://app?vid=95f97224-1616-448e-aaab-7642fd82bbb8","ios":"levelo://app?vid=95f97224-1616-448e-aaab-7642fd82bbb8"},"vehicle_type_id":"4","last_reported":1748020192,"current_range_meters":16000,"station_id":"ce4bhh12rcd13ifvqfg0","pricing_plan_id":"cebpf4jnsgd1na2vs0mg"},{"bike_id":"b5f3d0c7-9ede-4329-a9b9-096aaf824960","system_id":"levelo_inurba_marseille","lat":43.27206,"lon":5.3919,"is_reserved":false,"is_disabled":false,"rental_uris":{"android":"levelo://app?vid=b5f3d0c7-9ede-4329-a9b9-096aaf824960","ios":"levelo://app?vid=b5f3d0c7-9ede-4329-a9b9-096aaf824960"},"vehicle_type_id":"4","last_reported":1748020192,"current_range_meters":16000,"station_id":"ce4bhhp2rcd13ifvqfm0","pricing_plan_id":"cebpf4jnsgd1na2vs0mg"},{"bike_id":"f3ab7247-11d1-4c53-8fc5-2ff319cb0cf1","system_id":"levelo_inurba_marseille","lat":43.29092,"lon":5.38137,"is_reserved":false,"is_disabled":false,"rental_uris":{"android":"levelo://app?vid=f3ab7247-11d1-4c53-8fc5-2ff319cb0cf1","ios":"levelo://app?vid=f3ab7247-11d1-4c53-8fc5-2ff319cb0cf1"},"vehicle_type_id":"4","last_reported":1748020192,"current_range_meters":16400,"station_id":"ce4bh512rcd13ifvqe2g","pricing_plan_id":"cebpf4jnsgd1na2vs0mg"},{"bike_id":"2a196e42-357e-4906-b777-710b3b3bdc04","system_id":"levelo_inurba_marseille","lat":43.27904,"lon":5.38017,"is_reserved":false,"is_disabled":false,"rental_uris":{"android":"levelo://app?vid=2a196e42-357e-4906-b777-710b3b3bdc04","ios":"levelo://app?vid=2a196e42-357e-4906-b777-710b3b3bdc04"},"vehicle_type_id":"4","last_reported":1748020192,"current_range_meters":16400,"station_id":"ce4bhf92rcd13ifvqf50","pricing_plan_id":"cebpf4jnsgd1na2vs0mg"},{"bike_id":"65260a2d-7e65-44a5-81ae-1662e5228daf","system_id":"levelo_inurba_marseille","lat":43.25487,"lon":5.37666,"is_reserved":false,"is_disabled":false,"rental_uris":{"android":"levelo://app?vid=65260a2d-7e65-44a5-81ae-1662e5228daf","ios":"levelo://app?vid=65260a2d-7e65-44a5-81ae-1662e5228daf"},"vehicle_type_id":"4","last_reported":1748020192,"current_range_meters":16400,"station_id":"ce4bhh12rcd13ifvqff0","pricing_plan_id":"cebpf4jnsgd1na2vs0mg"},{"bike_id":"a400c536-922a-40d9-9360-1c4451dfbf71","system_id":"levelo_inurba_marseille","lat":43.27221,"lon":5.39165,"is_reserved":false,"is_disabled":false,"rental_uris":{"android":"levelo://app?vid=a400c536-922a-40d9-9360-1c4451dfbf71","ios":"levelo://app?vid=a400c536-922a-40d9-9360-1c4451dfbf71"},"vehicle_type_id":"4","last_reported":1748020192,"current_range_meters":16400,"station_id":"ce4bhhp2rcd13ifvqfm0","pricing_plan_id":"cebpf4jnsgd1na2vs0mg"},{"bike_id":"32232c2e-5158-4f56-bdad-c27d240ecf28","system_id":"levelo_inurba_marseille","lat":43.26896,"lon":5.4028,"is_reserved":false,"is_disabled":false,"rental_uris":{"android":"levelo://app?vid=32232c2e-5158-4f56-bdad-c27d240ecf28","ios":"levelo://app?vid=32232c2e-5158-4f56-bdad-c27d240ecf28"},"vehicle_type_id":"4","last_reported":1748020192,"current_range_meters":16800,"station_id":"","pricing_plan_id":"cebpf4jnsgd1na2vs0mg"},{"bike_id":"f070fcb7-e403-4d53-a8e1-4ce2dbe76c0e","system_id":"levelo_inurba_marseille","lat":43.30209,"lon":5.39464,"is_reserved":false,"is_disabled":false,"rental_uris":{"android":"levelo://app?vid=f070fcb7-e403-4d53-a8e1-4ce2dbe76c0e","ios":"levelo://app?vid=f070fcb7-e403-4d53-a8e1-4ce2dbe76c0e"},"vehicle_type_id":"4","last_reported":1748020192,"current_range_meters":16800,"station_id":"ce4bh0p2rcd13ifvqd70","pricing_plan_id":"cebpf4jnsgd1na2vs0mg"},{"bike_id":"3faeeef2-afdd-404a-a017-e94a8a79e665","system_id":"levelo_inurba_marseille","lat":43.292032,"lon":5.35792,"is_reserved":false,"is_disabled":false,"rental_uris":{"android":"levelo://app?vid=3faeeef2-afdd-404a-a017-e94a8a79e665","ios":"levelo://app?vid=3faeeef2-afdd-404a-a017-e94a8a79e665"},"vehicle_type_id":"4","last_reported":1748020192,"current_range_meters":16800,"station_id":"ce4bhb12rcd13ifvqel0","pricing_plan_id":"cebpf4jnsgd1na2vs0mg"},{"bike_id":"7fd131a4-6c0b-43b1-b910-144d336812bc","system_id":"levelo_inurba_marseille","lat":43.25098,"lon":5.39482,"is_reserved":false,"is_disabled":false,"rental_uris":{"android":"levelo://app?vid=7fd131a4-6c0b-43b1-b910-144d336812bc","ios":"levelo://app?vid=7fd131a4-6c0b-43b1-b910-144d336812bc"},"vehicle_type_id":"4","last_reported":1748020192,"current_range_meters":16800,"station_id":"ce4bhm12rcd13ifvqgkg","pricing_plan_id":"cebpf4jnsgd1na2vs0mg"},{"bike_id":"2237bca0-87e5-46f1-981f-68d66086b021","system_id":"levelo_inurba_marseille","lat":43.28148,"lon":5.42645,"is_reserved":false,"is_disabled":false,"rental_uris":{"android":"levelo://app?vid=2237bca0-87e5-46f1-981f-68d66086b021","ios":"levelo://app?vid=2237bca0-87e5-46f1-981f-68d66086b021"},"vehicle_type_id":"4","last_reported":1748020192,"current_range_meters":16800,"station_id":"ce4bhnh2rcd13ifvqgug","pricing_plan_id":"cebpf4jnsgd1na2vs0mg"},{"bike_id":"8e1f5fe8-e514-4fd5-b4ef-31aae23aea99","system_id":"levelo_inurba_marseille","lat":43.26935,"lon":5.40267,"is_reserved":false,"is_disabled":false,"rental_uris":{"android":"levelo://app?vid=8e1f5fe8-e514-4fd5-b4ef-31aae23aea99","ios":"levelo://app?vid=8e1f5fe8-e514-4fd5-b4ef-31aae23aea99"},"vehicle_type_id":"4","last_reported":1748020192,"current_range_meters":16800,"station_id":"cjm6bp8fraef2m0cb0m0","pricing_plan_id":"cebpf4jnsgd1na2vs0mg"},