{"last_updated":1718453636,"ttl":30,"version":"2.2","data":{"bikes":[{"bike_id":"348f4e51-985c-4261-a065-bee226ee7011","system_id":"levelo_inurba_marseille","lat":43.313391,"lon":5.36706,"is_reserved":false,"is_disabled":false,"rental_uris":{"android":"levelo://app?vid=348f4e51-985c-4261-a065-bee226ee7011","ios":"levelo://app?vid=348f4e51-985c-4261-a065-bee226ee7011"},"vehicle_type_id":"4","last_reported":1718453637,"current_range_meters":14400,"station_id":"ce4bgr92rcd13ifvqc6g","pricing_plan_id":"cebpf4jnsgd1na2vs0mg"},{"bike_id":"2c4c519b-880e-4045-b470-672ead85d6ba","system_id":"levelo_inurba_marseille","lat":43.31341,"lon":5.367098,"is_reserved":false,"is_disabled":false,"rental_uris":{"android":"levelo://app?vid=2c4c519b-880e-4045-b470-672ead85d6ba","ios":"levelo://app?vid=2c4c519b-880e-4045-b470-672ead85d6ba"},"vehicle_type_id":"4","last_reported":1718453637,"current_range_meters":4800,"station_id":"ce4bgr92rcd13ifvqc6g","pricing_plan_id":"cebpf4jnsgd1na2vs0mg"},{"bike_id":"276d0274-ccf3-41c4-8d25-ed7a61b9d90e","system_id":"levelo_inurba_marseille","lat":43.312239,"lon":5.368562,"is_reserved":false,"is_disabled":false,"rental_uris":{"android":"levelo://app?vid=276d0274-ccf3-41c4-8d25-ed7a61b9d90e","ios":"levelo://app?vid=276d0274-ccf3-41c4-8d25-ed7a61b9d90e"},"vehicle_type_id":"4","last_reported":1718453637,"current_range_meters":20000,"station_id":"ce4bgl92rcd13ifvqbq0","pricing_plan_id":"cebpf4jnsgd1na2vs0mg"},{"bike_id":"db5f5bca-0a6b-4abe-b401-1c964c4e70b1","system_id":"levelo_inurba_marseille","lat":43.309076,"lon":5.368465,"is_reserved":false,"is_disabled":false,"rental_uris":{"android":"levelo://app?vid=db5f5bca-0a6b-4abe-b401-1c964c4e70b1","ios":"levelo://app?vid=db5f5bca-0a6b-4abe-b401-1c964c4e70b1"},"vehicle_type_id":"4","last_reported":1718453637,"current_range_meters":27200,"station_id":"ce4bgn92rcd13ifvqbvg","pricing_plan_id":"cebpf4jnsgd1na2vs0mg"},{"bike_id":"7dc3fe19-819c-4536-b303-c74e65a7cf11","system_id":"levelo_inurba_marseille","lat":43.31491,"lon":5.37293,"is_reserved":false,"is_disabled":false,"rental_uris":{"android":"levelo://app?vid=7dc3fe19-819c-4536-b303-c74e65a7cf11","ios":"levelo://app?vid=7dc3fe19-819c-4536-b303-c74e65a7cf11"},"vehicle_type_id":"4","last_reported":1718453637,"current_range_meters":1600,"station_id":"ce4bgt12rcd13ifvqcd0","pricing_plan_id":"cebpf4jnsgd1na2vs0mg"},{"bike_id":"0f3d5c0d-910e-4506-ad13-37f3ce1dc7d1","system_id":"levelo_inurba_marseille","lat":43.31482,"lon":5.37311,"is_reserved":false,"is_disabled":false,"rental_uris":{"android":"levelo://app?vid=0f3d5c0d-910e-4506-ad13-37f3ce1dc7d1","ios":"levelo://app?vid=0f3d5c0d-910e-4506-ad13-37f3ce1dc7d1"},"vehicle_type_id":"4","last_reported":1718453637,"current_range_meters":1600,"station_id":"ce4bgt12rcd13ifvqcd0","pricing_plan_id":"cebpf4jnsgd1na2vs0mg"},{"bike_id":"e1859cfb-3bed-41dc-bd44-1686bee67c54","system_id":"levelo_inurba_marseille","lat":43.314811,"lon":5.373103,"is_reserved":false,"is_disabled":false,"rental_uris":{"android":"levelo://app?vid=e1859cfb-3bed-41dc-bd44-1686bee67c54","ios":"levelo://app?vid=e1859cfb-3bed-41dc-bd44-1686bee67c54"},"vehicle_type_id":"4","last_reported":1718453637,"current_range_meters":28800,"station_id":"ce4bgt12rcd13ifvqcd0","pricing_plan_id":"cebpf4jnsgd1na2vs0mg"},{"bike_id":"df8b6c93-bf01-4631-af2b-d114d9306efd","system_id":"levelo_inurba_marseille","lat":43.314811,"lon":5.373104,"is_reserved":false,"is_disabled":false,"rental_uris":{"android":"levelo://app?vid=df8b6c93-bf01-4631-af2b-d114d9306efd","ios":"levelo://app?vid=df8b6c93-bf01-4631-af2b-d114d9306efd"},"vehicle_type_id":"4","last_reported":1718453637,"current_range_meters":13600,"station_id":"ce4bgt12rcd13ifvqcd0","pricing_plan_id":"cebpf4jnsgd1na2vs0mg"},{"bike_id":"ddbf20ec-9467-43c1-bab3-1a53a174bd8c","system_id":"levelo_inurba_marseille","lat":43.314811,"lon":5.373104,"is_reserved":false,"is_disabled":false,"rental_uris":{"android":"levelo://app?vid=ddbf20ec-9467-43c1-bab3-1a53a174bd8c","ios":"levelo://app?vid=ddbf20ec-9467-43c1-bab3-1a53a174bd8c"},"vehicle_type_id":"4","last_reported":1718453637,"current_range_meters":16000,"station_id":"ce4bgt12rcd13ifvqcd0","pricing_plan_id":"cebpf4jnsgd1na2vs0mg"},{"bike_id":"72da5da6-58f0-4fd7-9c34-d3966f0eaf12","system_id":"levelo_inurba_marseille","lat":43.314941,"lon":5.373083,"is_reserved":false,"is_disabled":false,"rental_uris":{"android":"levelo://app?vid=72da5da6-58f0-4fd7-9c34-d3966f0eaf12","ios":"levelo://app?vid=72da5da6-58f0-4fd7-9c34-d3966f0eaf12"},"vehicle_type_id":"4","last_reported":1718453637,"current_range_meters":30000,"station_id":"ce4bgt12rcd13ifvqcd0","pricing_plan_id":"cebpf4jnsgd1na2vs0mg"},{"bike_id":"e25a7e5d-9962-41fe-b13a-2bbd74bc079d","system_id":"levelo_inurba_marseille","lat":43.314811,"lon":5.373104,"is_reserved":false,"is_disabled":false,"rental_uris":{"android":"levelo://app?vid=e25a7e5d-9962-41fe-b13a-2bbd74bc079d","ios":"levelo://app?vid=e25a7e5d-9962-41fe-b13a-2bbd74bc079d"},"vehicle_type_id":"4","last_reported":1718453637,"current_range_meters":21600,"station_id":"ce4bgt12rcd13ifvqcd0","pricing_plan_id":"cebpf4jnsgd1na2vs0mg"},{"bike_id":"d01c2d3b-9a03-4b0c-9f42-116179a1cef8","system_id":"levelo_inurba_marseille","lat":43.314811,"lon":5.373104,"is_reserved":false,"is_disabled":false,"rental_uris":{"android":"levelo://app?vid=d01c2d3b-9a03-4b0c-9f42-116179a1cef8","ios":"levelo://app?vid=d01c2d3b-9a03-4b0c-9f42-116179a1cef8"},"vehicle_type_id":"4","last_reported":1718453637,"current_range_meters":21200,"station_id":"ce4bgt12rcd13ifvqcd0","pricing_plan_id":"cebpf4jnsgd1na2vs0mg"},{"bike_id":"0ce6fc1f-d4b9-4d73-ba43-e494db775e5c","system_id":"levelo_inurba_marseille","lat":43.31497,"lon":5.37313,"is_reserved":false,"is_disabled":false,"rental_uris":{"android":"levelo://app?vid=0ce6fc1f-d4b9-4d73-ba43-e494db775e5c","ios":"levelo://app?vid=0ce6fc1f-d4b9-4d73-ba43-e494db775e5c"},"vehicle_type_id":"4","last_reported":1718453637,"current_range_meters":10800,"station_id":"ce4bgt12rcd13ifvqcd0","pricing_plan_id":"cebpf4jnsgd1na2vs0mg"},{"bike_id":"fa06b8e7-e4cb-4c41-b719-4464b6d7a936","system_id":"levelo_inurba_marseille","lat":43.309034,"lon":5.371783,"is_reserved":false,"is_disabled":false,"rental_uris":{"android":"levelo://app?vid=fa06b8e7-e4cb-4c41-b719-4464b6d7a936","ios":"levelo://app?vid=fa06b8e7-e4cb-4c41-b719-4464b6d7a936"},"vehicle_type_id":"4","last_reported":1718453637,"current_range_meters":22800,"station_id":"ce4bguh2rcd13ifvqckg","pricing_plan_id":"cebpf4jnsgd1na2vs0mg"},{"bike_id":"342b9f6b-7236-47c1-9247-2c0c19ae23dd","system_id":"levelo_inurba_marseille","lat":43.30537,"lon":5.367345,"is_reserved":false,"is_disabled":false,"rental_uris":{"android":"levelo://app?vid=342b9f6b-7236-47c1-9247-2c0c19ae23dd","ios":"levelo://app?vid=342b9f6b-7236-47c1-9247-2c0c19ae23dd"},"vehicle_type_id":"4","last_reported":1718453637,"current_range_meters":13200,"station_id":"ce4bgrp2rcd13ifvqc9g","pricing_plan_id":"cebpf4jnsgd1na2vs0mg"},{"bike_id":"0849461c-b6fe-4db9-9207-c54db901315a","system_id":"levelo_inurba_marseille","lat":43.30549,"lon":5.36546,"is_reserved":false,"is_disabled":false,"rental_uris":{"android":"levelo://app?vid=0849461c-b6fe-4db9-9207-c54db901315a","ios":"levelo://app?vid=0849461c-b6fe-4db9-9207-c54db901315a"},"vehicle_type_id":"4","last_reported":1718453637,"current_range_meters":14400,"station_id":"ce4bgs12rcd13ifvqcag","pricing_plan_id":"cebpf4jnsgd1na2vs0mg"},{"bike_id":"44791751-feb8-4e21-a00e-d0c8ded2c78e","system_id":"levelo_inurba_marseille","lat":43.305714,"lon":5.365633,"is_reserved":false,"is_disabled":false,"rental_uris":{"android":"levelo://app?vid=44791751-feb8-4e21-a00e-d0c8ded2c78e","ios":"levelo://app?vid=44791751-feb8-4e21-a00e-d0c8ded2c78e"},"vehicle_type_id":"4","last_reported":1718453637,"current_range_meters":22000,"station_id":"ce4bgs12rcd13ifvqcag","pricing_plan_id":"cebpf4jnsgd1na2vs0mg"},{"bike_id":"be22afe8-d2c8-4095-9214-08d1f8ea84fd","system_id":"levelo_inurba_marseille","lat":43.296263,"lon":5.377094,"is_reserved":false,"is_disabled":false,"rental_uris":{"android":"levelo://app?vid=be22afe8-d2c8-4095-9214-08d1f8ea84fd","ios":"levelo://app?vid=be22afe8-d2c8-4095-9214-08d1f8ea84fd"},"vehicle_type_id":"4","last_reported":1718453637,"current_range_meters":6800,"station_id":"ce4bgi92rcd13ifvqb90","pricing_plan_id":"cebpf4jnsgd1na2vs0mg"},{"bike_id":"c73695d6-6b81-4731-944c-c5661b4fcd32","system_id":"levelo_inurba_marseille","lat":43.30543,"lon":5.36543,"is_reserved":false,"is_disabled":false,"rental_uris":{"android":"levelo://app?vid=c73695d6-6b81-4731-944c-c5661b4fcd32","ios":"levelo://app?vid=c73695d6-6b81-4731-944c-c5661b4fcd32"},"vehicle_type_id":"4","last_reported":1718453637,"current_range_meters":29200,"station_id":"ce4bgs12rcd13ifvqcag","pricing_plan_id":"cebpf4jnsgd1na2vs0mg"},{"bike_id":"4866d6d5-01b3-4c11-a5ea-4c554ff1da57","system_id":"levelo_inurba_marseille","lat":43.30543,"lon":5.36536,"is_reserved":false,"is_disabled":false,"rental_uris":{"android":"levelo://app?vid=4866d6d5-01b3-4c11-a5ea-4c554ff1da57","ios":"levelo://app?vid=4866d6d5-01b3-4c11-a5ea-4c554ff1da57"},"vehicle_type_id":"4","last_reported":1718453637,"current_range_meters":24800,"station_id":"ce4bgs12rcd13ifvqcag","pricing_plan_id":"cebpf4jnsgd1na2vs0mg"},{"bike_id":"074c1e27-f20a-44af-9b96-6e8ba66ded71","system_id":"levelo_inurba_marseille","lat":43.305706,"lon":5.365654,"is_reserved":false,"is_disabled":false,"rental_uris":{"android":"levelo://app?vid=074c1e27-f20a-44af-9b96-6e8ba66ded71","ios":"levelo://app?vid=074c1e27-f20a-44af-9b96-6e8ba66ded71"},"vehicle_type_id":"4","last_reported":1718453637,"current_range_meters":25600,"station_id":"ce4bgs12rcd13ifvqcag","pricing_plan_id":"cebpf4jnsgd1na2vs0mg"},{"bike_id":"c6899bf0-dc5b-4d2c-b3a0-ca1abf495c41","system_id":"levelo_inurba_marseille","lat":43.30539,"lon":5.36546,"is_reserved":false,"is_disabled":false,"rental_uris":{"android":"levelo://app?vid=c6899bf0-dc5b-4d2c-b3a0-ca1abf495c41","ios":"levelo://app?vid=c6899bf0-dc5b-4d2c-b3a0-ca1abf495c41"},"vehicle_type_id":"4","last_reported":1718453637,"current_range_meters":18400,"station_id":"ce4bgs12rcd13ifvqcag","pricing_plan_id":"cebpf4jnsgd1na2vs0mg"},{"bike_id":"4e4724ae-6b70-4080-8cc2-2d0f6ebfb531","system_id":"levelo_inurba_marseille","lat":43.305712,"lon":5.365641,"is_reserved":false,"is_disabled":false,"rental_uris":{"android":"levelo://app?vid=4e4724ae-6b70-4080-8cc2-2d0f6ebfb531","ios":"levelo://app?vid=4e4724ae-6b70-4080-8cc2-2d0f6ebfb531"},"vehicle_type_id":"4","last_reported":1718453637,"current_range_meters":2000,"station_id":"ce4bgs12rcd13ifvqcag","pricing_plan_id":"cebpf4jnsgd1na2vs0mg"},{"bike_id":"59f09277-9814-440d-86e2-8a9e947395b5","system_id":"levelo_inurba_marseille","lat":43.305714,"lon":5.365633,"is_reserved":false,"is_disabled":false,"rental_uris":{"android":"levelo://app?vid=59f09277-9814-440d-86e2-8a9e947395b5","ios":"levelo://app?vid=59f09277-9814-440d-86e2-8a9e947395b5"},"vehicle_type_id":"4","last_reported":1718453637,"current_range_meters":0,"station_id":"ce4bgs12rcd13ifvqcag","pricing_plan_id":"cebpf4jnsgd1na2vs0mg"},{"bike_id":"a7dc068e-a4d4-405c-a988-39a72d9289ec","system_id":"levelo_inurba_marseille","lat":43.30534,"lon":5.36532,"is_reserved":false,"is_disabled":false,"rental_uris":{"android":"levelo://app?vid=a7dc068e-a4d4-405c-a988-39a72d9289ec","ios":"levelo://app?vid=a7dc068e-a4d4-405c-a988-39a72d9289ec"},"vehicle_type_id":"4","last_reported":1718453637,"current_range_meters":31200,"station_id":"ce4bgs12rcd13ifvqcag","pricing_plan_id":"cebpf4jnsgd1na2vs0mg"},{"bike_id":"d37d46d3-06db-434d-8b8a-5d1c6b599241","system_id":"levelo_inurba_marseille","lat":43.305706,"lon":5.365654,"is_reserved":false,"is_disabled":false,"rental_uris":{"android":"levelo://app?vid=d37d46d3-06db-434d-8b8a-5d1c6b599241","ios":"levelo://app?vid=d37d46d3-06db-434d-8b8a-5d1c6b599241"},"vehicle_type_id":"4","last_reported":1718453637,"current_range_meters":31200,"station_id":"ce4bgs12rcd13ifvqcag","pricing_plan_id":"cebpf4jnsgd1na2vs0mg"},{"bike_id":"ec21adea-6966-4e89-b956-8b284dba32ac","system_id":"levelo_inurba_marseille","lat":43.307945,"lon":5.376487,"is_reserved":false,"is_disabled":false,"rental_uris":{"android":"levelo://app?vid=ec21adea-6966-4e89-b956-8b284dba32ac","ios":"levelo://app?vid=ec21adea-6966-4e89-b956-8b284dba32ac"},"vehicle_type_id":"4","last_reported":1718453637,"current_range_meters":21600,"station_id":"ce4bgv92rcd13ifvqcq0","pricing_plan_id":"cebpf4jnsgd1na2vs0mg"},{"bike_id":"947dd0c9-fbd2-4d17-a739-b3e795d24d8c","system_id":"levelo_inurba_marseille","lat":43.316994,"lon":5.37719,"is_reserved":false,"is_disabled":false,"rental_uris":{"android":"levelo://app?vid=947dd0c9-fbd2-4d17-a739-b3e795d24d8c","ios":"levelo://app?vid=947dd0c9-fbd2-4d17-a739-b3e795d24d8c"},"vehicle_type_id":"4","last_reported":1718453637,"current_range_meters":16000,"station_id":"ce4bgth2rcd13ifvqch0","pricing_plan_id":"cebpf4jnsgd1na2vs0mg"},{"bike_id":"7d86725e-debb-424d-ac46-bd84c7b06f50","system_id":"levelo_inurba_marseille","lat":43.317075,"lon":5.377367,"is_reserved":false,"is_disabled":false,"rental_uris":{"android":"levelo://app?vid=7d86725e-debb-424d-ac46-bd84c7b06f50","ios":"levelo://app?vid=7d86725e-debb-424d-ac46-bd84c7b06f50"},"vehicle_type_id":"4","last_reported":1718453637,"current_range_meters":31200,"station_id":"ce4bgth2rcd13ifvqch0","pricing_plan_id":"cebpf4jnsgd1na2vs0mg"},{"bike_id":"2dd9b2d4-bb20-4d7b-9def-48d17cfd457d","system_id":"levelo_inurba_marseille","lat":43.317075,"lon":5.377367,"is_reserved":false,"is_disabled":false,"rental_uris":{"android":"levelo://app?vid=2dd9b2d4-bb20-4d7b-9def-48d17cfd457d","ios":"levelo://app?vid=2dd9b2d4-bb20-4d7b-9def-48d17cfd457d"},"vehicle_type_id":"4","last_reported":1718453637,"current_range_meters":31200,"station_id":"ce4bgth2rcd13ifvqch0","pricing_plan_id":"cebpf4jnsgd1na2vs0mg"},{"bike_id":"975604bd-74d0-48fc-8a96-3e02e171e0a0","system_id":"levelo_inurba_marseille","lat":43.317075,"lon":5.377367,"is_reserved":false,"is_disabled":false,"rental_uris":{"android":"levelo://app?vid=975604bd-74d0-48fc-8a96-3e02e171e0a0","ios":"levelo://app?vid=975604bd-74d0-48fc-8a96-3e02e171e0a0"},"vehicle_type_id":"4","last_reported":1718453637,"current_range_meters":31200,"station_id":"ce4bgth2rcd13ifvqch0","pricing_plan_id":"cebpf4jnsgd1na2vs0mg"},{"bike_id":"e4143937-dc7b-46a1-8ebd-0d34ddc42678","system_id":"levelo_inurba_marseille","lat":43.317075,"lon":5.377367,"is_reserved":false,"is_disabled":false,"rental_uris":{"android":"levelo://app?vid=e4143937-dc7b-46a1-8ebd-0d34ddc42678","ios":"levelo://app?vid=e4143937-dc7b-46a1-8ebd-0d34ddc42678"},"vehicle_type_id":"4","last_reported":1718453637,"current_range_meters":26800,"station_id":"ce4bgth2rcd13ifvqch0","pricing_plan_id":"cebpf4jnsgd1na2vs0mg"},{"bike_id":"d533ecb6-7b2f-4639-97b0-9cef4975d955","system_id":"levelo_inurba_marseille","lat":43.317075,"lon":5.377367,"is_reserved":false,"is_disabled":false,"rental_uris":{"android":"levelo://app?vid=d533ecb6-7b2f-4639-97b0-9cef4975d955","ios":"levelo://app?vid=d533ecb6-7b2f-4639-97b0-9cef4975d955"},"vehicle_type_id":"4","last_reported":1718453637,"current_range_meters":27200,"station_id":"ce4bgth2rcd13ifvqch0","pricing_plan_id":"cebpf4jnsgd1na2vs0mg"},{"bike_id":"e2a0830b-3111-4be7-9ddc-491150982b3f","system_id":"levelo_inurba_marseille","lat":43.317075,"lon":5.377367,"is_reserved":false,"is_disabled":false,"rental_uris":{"android":"levelo://app?vid=e2a0830b-3111-4be7-9ddc-491150982b3f","ios":"levelo://app?vid=e2a0830b-3111-4be7-9ddc-491150982b3f"},"vehicle_type_id":"4","last_reported":1718453637,"current_range_meters":20800,"station_id":"ce4bgth2rcd13ifvqch0","pricing_plan_id":"cebpf4jnsgd1na2vs0mg"},{"bike_id":"3351cd17-1258-4844-8810-ecead2676fc2","system_id":"levelo_inurba_marseille","lat":43.317075,"lon":5.377367,"is_reserved":false,"is_disabled":false,"rental_uris":{"android":"levelo://app?vid=3351cd17-1258-4844-8810-ecead2676fc2","ios":"levelo://app?vid=3351cd17-1258-4844-8810-ecead2676fc2"},"vehicle_type_id":"4","last_reported":1718453637,"current_range_meters":24400,"station_id":"ce4bgth2rcd13ifvqch0","pricing_plan_id":"cebpf4jnsgd1na2vs0mg"},{"bike_id":"19dbe415-d5e6-4fb1-bfab-b695f1fae53e","system_id":"levelo_inurba_marseille","lat":43.317075,"lon":5.377367,"is_reserved":false,"is_disabled":false,"rental_uris":{"android":"levelo://app?vid=19dbe415-d5e6-4fb1-bfab-b695f1fae53e","ios":"levelo://app?vid=19dbe415-d5e6-4fb1-bfab-b695f1fae53e"},"vehicle_type_id":"4","last_reported":1718453637,"current_range_meters":17600,"station_id":"ce4bgth2rcd13ifvqch0","pricing_plan_id":"cebpf4jnsgd1na2vs0mg"},{"bike_id":"a4fae0a5-8e70-4ffa-beaf-8f66fe87f400","system_id":"levelo_inurba_marseille","lat":43.317075,"lon":5.377367,"is_reserved":false,"is_disabled":false,"rental_uris":{"android":"levelo://app?vid=a4fae0a5-8e70-4ffa-beaf-8f66fe87f400","ios":"levelo://app?vid=a4fae0a5-8e70-4ffa-beaf-8f66fe87f400"},"vehicle_type_id":"4","last_reported":1718453637,"current_range_meters":17600,"station_id":"ce4bgth2rcd13ifvqch0","pricing_plan_id":"cebpf4jnsgd1na2vs0mg"},{"bike_id":"de8cec5b-166a-42ac-a0a1-9d313f08350f","system_id":"levelo_inurba_marseille","lat":43.30188,"lon":5.36607,"is_reserved":false,"is_disabled":false,"rental_uris":{"android":"levelo://app?vid=de8cec5b-166a-42ac-a0a1-9d313f08350f","ios":"levelo://app?vid=de8cec5b-166a-42ac-a0a1-9d313f08350f"},"vehicle_type_id":"4","last_reported":1718453637,"current_range_meters":18800,"station_id":"ce4bgrh2rcd13ifvqc8g","pricing_plan_id":"cebpf4jnsgd1na2vs0mg"},{"bike_id":"9154dfbd-335b-42cb-ab28-2ac982adb428","system_id":"levelo_inurba_marseille","lat":43.304606,"lon":5.379026,"is_reserved":false,"is_disabled":false,"rental_uris":{"android":"levelo://app?vid=9154dfbd-335b-42cb-ab28-2ac982adb428","ios":"levelo://app?vid=9154dfbd-335b-42cb-ab28-2ac982adb428"},"vehicle_type_id":"4","last_reported":1718453637,"current_range_meters":25600,"station_id":"ce4bgup2rcd13ifvqcn0","pricing_plan_id":"cebpf4jnsgd1na2vs0mg"},{"bike_id":"c04a1d0f-46ad-42d8-b92b-e4561166af9e","system_id":"levelo_inurba_marseille","lat":43.304606,"lon":5.379026,"is_reserved":false,"is_disabled":false,"rental_uris":{"android":"levelo://app?vid=c04a1d0f-46ad-42d8-b92b-e4561166af9e","ios":"levelo://app?vid=c04a1d0f-46ad-42d8-b92b-e4561166af9e"},"vehicle_type_id":"4","last_reported":1718453637,"current_range_meters":28000,"station_id":"ce4bgup2rcd13ifvqcn0","pricing_plan_id":"cebpf4jnsgd1na2vs0mg"},{"bike_id":"c3ab44e7-4053-46c6-b50a-74597fdd1498","system_id":"levelo_inurba_marseille","lat":43.304606,"lon":5.379026,"is_reserved":false,"is_disabled":false,"rental_uris":{"android":"levelo://app?vid=c3ab44e7-4053-46c6-b50a-74597fdd1498","ios":"levelo://app?vid=c3ab44e7-4053-46c6-b50a-74597fdd1498"},"vehicle_type_id":"4","last_reported":1718453637,"current_range_meters":29200,"station_id":"ce4bgup2rcd13ifvqcn0","pricing_plan_id":"cebpf4jnsgd1na2vs0mg"},{"bike_id":"5bd941be-2064-475d-bd95-7536379d2271","system_id":"levelo_inurba_marseille","lat":43.304606,"lon":5.379026,"is_reserved":false,"is_disabled":false,"rental_uris":{"android":"levelo://app?vid=5bd941be-2064-475d-bd95-7536379d2271","ios":"levelo://app?vid=5bd941be-2064-475d-bd95-7536379d2271"},"vehicle_type_id":"4","last_reported":1718453637,"current_range_meters":12800,"station_id":"ce4bgup2rcd13ifvqcn0","pricing_plan_id":"cebpf4jnsgd1na2vs0mg"},{"bike_id":"e3352aca-9352-4f4f-a109-3ba725ac3adf","system_id":"levelo_inurba_marseille","lat":43.304606,"lon":5.379026,"is_reserved":false,"is_disabled":false,"rental_uris":{"android":"levelo://app?vid=e3352aca-9352-4f4f-a109-3ba725ac3adf","ios":"levelo://app?vid=e3352aca-9352-4f4f-a109-3ba725ac3adf"},"vehicle_type_id":"4","last_reported":1718453637,"current_range_meters":15600,"station_id":"ce4bgup2rcd13ifvqcn0","pricing_plan_id":"cebpf4jnsgd1na2vs0mg"},{"bike_id":"826b4e98-6b33-4f36-9151-e60aadb9f9ba","system_id":"levelo_inurba_marseille","lat":43.304606,"lon":5.379026,"is_reserved":false,"is_disabled":false,"rental_uris":{"android":"levelo://app?vid=826b4e98-6b33-4f36-9151-e60aadb9f9ba","ios":"levelo://app?vid=826b4e98-6b33-4f36-9151-e60aadb9f9ba"},"vehicle_type_id":"4","last_reported":1718453637,"current_range_meters":31200,"station_id":"ce4bgup2rcd13ifvqcn0","pricing_plan_id":"cebpf4jnsgd1na2vs0mg"},{"bike_id":"2848b02e-2208-4ab3-b3b1-736bd829e18d","system_id":"levelo_inurba_marseille","lat":43.304606,"lon":5.379026,"is_reserved":false,"is_disabled":false,"rental_uris":{"android":"levelo://app?vid=2848b02e-2208-4ab3-b3b1-736bd829e18d","ios":"levelo://app?vid=2848b02e-2208-4ab3-b3b1-736bd829e18d"},"vehicle_type_id":"4","last_reported":1718453637,"current_range_meters":31200,"station_id":"ce4bgup2rcd13ifvqcn0","pricing_plan_id":"cebpf4jnsgd1na2vs0mg"},{"bike_id":"47716a6c-bc1f-4e01-bd3b-ff3116845e6c","system_id":"levelo_inurba_marseille","lat":43.324771,"lon":5.36557,"is_reserved":false,"is_disabled":false,"rental_uris":{"android":"levelo://app?vid=47716a6c-bc1f-4e01-bd3b-ff3116845e6c","ios":"levelo://app?vid=47716a6c-bc1f-4e01-bd3b-ff3116845e6c"},"vehicle_type_id":"4","last_reported":1718453637,"current_range_meters":0,"station_id":"ce4bhs12rcd13ifvqhvg","pricing_plan_id":"cebpf4jnsgd1na2vs0mg"},{"bike_id":"eb083c4e-1afa-452d-ad72-d47eebf178a0","system_id":"levelo_inurba_marseille","lat":43.324771,"lon":5.36557,"is_reserved":false,"is_disabled":false,"rental_uris":{"android":"levelo://app?vid=eb083c4e-1afa-452d-ad72-d47eebf178a0","ios":"levelo://app?vid=eb083c4e-1afa-452d-ad72-d47eebf178a0"},"vehicle_type_id":"4","last_reported":1718453637,"current_range_meters":16400,"station_id":"ce4bhs12rcd13ifvqhvg","pricing_plan_id":"cebpf4jnsgd1na2vs0mg"},{"bike_id":"cc53f804-4da6-44f2-9824-97ff032b8f8f","system_id":"levelo_inurba_marseille","lat":43.324771,"lon":5.36557,"is_reserved":false,"is_disabled":false,"rental_uris":{"android":"levelo://app?vid=cc53f804-4da6-44f2-9824-97ff032b8f8f","ios":"levelo://app?vid=cc53f804-4da6-44f2-9824-97ff032b8f8f"},"vehicle_type_id":"4","last_reported":1718453637,"current_range_meters":4000,"station_id":"ce4bhs12rcd13ifvqhvg","pricing_plan_id":"cebpf4jnsgd1na2vs0mg"},{"bike_id":"4d668344-5a36-4537-9717-da18f25f32bd","system_id":"levelo_inurba_marseille","lat":43.30143,"lon":5.37413,"is_reserved":false,"is_disabled":false,"rental_uris":{"android":"levelo://app?vid=4d668344-5a36-4537-9717-da18f25f32bd","ios":"levelo://app?vid=4d668344-5a36-4537-9717-da18f25f32bd"},"vehicle_type_id":"4","last_reported":1718453637,"current_range_meters":21200,"station_id":"ce4bgs92rcd13ifvqcc0","pricing_plan_id":"cebpf4jnsgd1na2vs0mg"},{"bike_id":"2a085611-244a-48fb-a58d-6a83750d88c6","system_id":"levelo_inurba_marseille","lat":43.302784,"lon":5.377158,"is_reserved":false,"is_disabled":false,"rental_uris":{"android":"levelo://app?vid=2a085611-244a-48fb-a58d-6a83750d88c6","ios":"levelo://app?vid=2a085611-244a-48fb-a58d-6a83750d88c6"},"vehicle_type_id":"4","last_reported":1718453637,"current_range_meters":21200,"station_id":"ce4bguh2rcd13ifvqcj0","pricing_plan_id":"cebpf4jnsgd1na2vs0mg"},{"bike_id":"5ecc2608-74aa-46ae-9ab2-68c0d36486dc","system_id":"levelo_inurba_marseille","lat":43.302784,"lon":5.377158,"is_reserved":false,"is_disabled":false,"rental_uris":{"android":"levelo://app?vid=5ecc2608-74aa-46ae-9ab2-68c0d36486dc","ios":"levelo://app?vid=5ecc2608-74aa-46ae-9ab2-68c0d36486dc"},"vehicle_type_id":"4","last_reported":1718453637,"current_range_meters":12000,"station_id":"ce4bguh2rcd13ifvqcj0","pricing_plan_id":"cebpf4jnsgd1na2vs0mg"},{"bike_id":"bee11bac-aa47-4d36-b892-b3ae0d15ae7e","system_id":"levelo_inurba_marseille","lat":43.301429,"lon":5.37413,"is_reserved":false,"is_disabled":false,"rental_uris":{"android":"levelo://app?vid=bee11bac-aa47-4d36-b892-b3ae0d15ae7e","ios":"levelo://app?vid=bee11bac-aa47-4d36-b892-b3ae0d15ae7e"},"vehicle_type_id":"4","last_reported":1718453637,"current_range_meters":14400,"station_id":"ce4bgs92rcd13ifvqcc0","pricing_plan_id":"cebpf4jnsgd1na2vs0mg"},{"bike_id":"be2e2e4e-a498-4e94-bdd4-932e04215a5c","system_id":"levelo_inurba_marseille","lat":43.30143,"lon":5.37413,"is_reserved":false,"is_disabled":false,"rental_uris":{"android":"levelo://app?vid=be2e2e4e-a498-4e94-bdd4-932e04215a5c","ios":"levelo://app?vid=be2e2e4e-a498-4e94-bdd4-932e04215a5c"},"vehicle_type_id":"4","last_reported":1718453637,"current_range_meters":6800,"station_id":"ce4bgs92rcd13ifvqcc0","pricing_plan_id":"cebpf4jnsgd1na2vs0mg"},{"bike_id":"cc2bd713-2704-4d67-8189-996dcd66b93c","system_id":"levelo_inurba_marseille","lat":43.30143,"lon":5.37413,"is_reserved":false,"is_disabled":false,"rental_uris":{"android":"levelo://app?vid=cc2bd713-2704-4d67-8189-996dcd66b93c","ios":"levelo://app?vid=cc2bd713-2704-4d67-8189-996dcd66b93c"},"vehicle_type_id":"4","last_reported":1718453637,"current_range_meters":18000,"station_id":"ce4bgs92rcd13ifvqcc0","pricing_plan_id":"cebpf4jnsgd1na2vs0mg"},{"bike_id":"8e8879c5-af84-4f29-bc7f-5844341102cf","system_id":"levelo_inurba_marseille","lat":43.299222,"lon":5.365554,"is_reserved":false,"is_disabled":false,"rental_uris":{"android":"levelo://app?vid=8e8879c5-af84-4f29-bc7f-5844341102cf","ios":"levelo://app?vid=8e8879c5-af84-4f29-bc7f-5844341102cf"},"vehicle_type_id":"4","last_reported":1718453637,"current_range_meters":30400,"station_id":"ce4bgm92rcd13ifvqbr0","pricing_plan_id":"cebpf4jnsgd1na2vs0mg"},{"bike_id":"d701469c-7993-4252-9833-19fdd2b27f73","system_id":"levelo_inurba_marseille","lat":43.31999,"lon":5.38154,"is_reserved":false,"is_disabled":false,"rental_uris":{"android":"levelo://app?vid=d701469c-7993-4252-9833-19fdd2b27f73","ios":"levelo://app?vid=d701469c-7993-4252-9833-19fdd2b27f73"},"vehicle_type_id":"4","last_reported":1718453637,"current_range_meters":0,"station_id":"ce4bhr12rcd13ifvqhpg","pricing_plan_id":"cebpf4jnsgd1na2vs0mg"},{"bike_id":"5326dd92-6ff9-4434-8c3d-0c51d188e8da","system_id":"levelo_inurba_marseille","lat":43.32008,"lon":5.38152,"is_reserved":false,"is_disabled":false,"rental_uris":{"android":"levelo://app?vid=5326dd92-6ff9-4434-8c3d-0c51d188e8da","ios":"levelo://app?vid=5326dd92-6ff9-4434-8c3d-0c51d188e8da"},"vehicle_type_id":"4","last_reported":1718453637,"current_range_meters":12800,"station_id":"ce4bhr12rcd13ifvqhpg","pricing_plan_id":"cebpf4jnsgd1na2vs0mg"},{"bike_id":"37471f4c-741d-4423-ad28-3beb8104ff11","system_id":"levelo_inurba_marseille","lat":43.299821,"lon":5.370086,"is_reserved":false,"is_disabled":false,"rental_uris":{"android":"levelo://app?vid=37471f4c-741d-4423-ad28-3beb8104ff11","ios":"levelo://app?vid=37471f4c-741d-4423-ad28-3beb8104ff11"},"vehicle_type_id":"4","last_reported":1718453637,"current_range_meters":11600,"station_id":"","pricing_plan_id":"cebpf4jnsgd1na2vs0mg"},{"bike_id":"1d69c251-28bf-4402-b751-23576f7fce91","system_id":"levelo_inurba_marseille","lat":43.299724,"lon":5.371829,"is_reserved":false,"is_disabled":false,"rental_uris":{"android":"levelo://app?vid=1d69c251-28bf-4402-b751-23576f7fce91","ios":"levelo://app?vid=1d69c251-28bf-4402-b751-23576f7fce91"},"vehicle_type_id":"4","last_reported":1718453637,"current_range_meters":20000,"station_id":"ce4bgr92rcd13ifvqc7g","pricing_plan_id":"cebpf4jnsgd1na2vs0mg"},{"bike_id":"7106114d-1587-4d7c-9204-08573ba48ac2","system_id":"levelo_inurba_marseille","lat":43.299724,"lon":5.371829,"is_reserved":false,"is_disabled":false,"rental_uris":{"android":"levelo://app?vid=7106114d-1587-4d7c-9204-08573ba48ac2","ios":"levelo://app?vid=7106114d-1587-4d7c-9204-08573ba48ac2"},"vehicle_type_id":"4","last_reported":1718453637,"current_range_meters":24800,"station_id":"ce4bgr92rcd13ifvqc7g","pricing_plan_id":"cebpf4jnsgd1na2vs0mg"},{"bike_id":"569eae7a-c1b5-45d5-8b7f-da51f15596bc","system_id":"levelo_inurba_marseille","lat":43.299724,"lon":5.371829,"is_reserved":false,"is_disabled":false,"rental_uris":{"android":"levelo://app?vid=569eae7a-c1b5-45d5-8b7f-da51f15596bc","ios":"levelo://app?vid=569eae7a-c1b5-45d5-8b7f-da51f15596bc"},"vehicle_type_id":"4","last_reported":1718453637,"current_range_meters":17200,"station_id":"ce4bgr92rcd13ifvqc7g","pricing_plan_id":"cebpf4jnsgd1na2vs0mg"},{"bike_id":"f707003d-fa52-4403-b08e-456ff96c35e0","system_id":"levelo_inurba_marseille","lat":43.299724,"lon":5.371829,"is_reserved":false,"is_disabled":false,"rental_uris":{"android":"levelo://app?vid=f707003d-fa52-4403-b08e-456ff96c35e0","ios":"levelo://app?vid=f707003d-fa52-4403-b08e-456ff96c35e0"},"vehicle_type_id":"4","last_reported":1718453637,"current_range_meters":31200,"station_id":"ce4bgr92rcd13ifvqc7g","pricing_plan_id":"cebpf4jnsgd1na2vs0mg"},{"bike_id":"333b4f93-8324-4354-8aac-de5d853032ef","system_id":"levelo_inurba_marseille","lat":43.299222,"lon":5.365554,"is_reserved":false,"is_disabled":false,"rental_uris":{"android":"levelo://app?vid=333b4f93-8324-4354-8aac-de5d853032ef","ios":"levelo://app?vid=333b4f93-8324-4354-8aac-de5d853032ef"},"vehicle_type_id":"4","last_reported":1718453637,"current_range_meters":15200,"station_id":"ce4bgm92rcd13ifvqbr0","pricing_plan_id":"cebpf4jnsgd1na2vs0mg"},{"bike_id":"21acfb37-3040-4a67-9edc-b75d4d224e11","system_id":"levelo_inurba_marseille","lat":43.299724,"lon":5.371829,"is_reserved":false,"is_disabled":false,"rental_uris":{"android":"levelo://app?vid=21acfb37-3040-4a67-9edc-b75d4d224e11","ios":"levelo://app?vid=21acfb37-3040-4a67-9edc-b75d4d224e11"},"vehicle_type_id":"4","last_reported":1718453637,"current_range_meters":31600,"station_id":"ce4bgr92rcd13ifvqc7g","pricing_plan_id":"cebpf4jnsgd1na2vs0mg"},{"bike_id":"e819f063-04d9-4b99-aa26-c82295eaa603","system_id":"levelo_inurba_marseille","lat":43.299222,"lon":5.365554,"is_reserved":false,"is_disabled":false,"rental_uris":{"android":"levelo://app?vid=e819f063-04d9-4b99-aa26-c82295eaa603","ios":"levelo://app?vid=e819f063-04d9-4b99-aa26-c82295eaa603"},"vehicle_type_id":"4","last_reported":1718453637,"current_range_meters":5600,"station_id":"ce4bgm92rcd13ifvqbr0","pricing_plan_id":"cebpf4jnsgd1na2vs0mg"},{"bike_id":"f11b8548-e7ab-4b85-abd3-a58b40454cfc","system_id":"levelo_inurba_marseille","lat":43.299724,"lon":5.371829,"is_reserved":false,"is_disabled":false,"rental_uris":{"android":"levelo://app?vid=f11b8548-e7ab-4b85-abd3-a58b40454cfc","ios":"levelo://app?vid=f11b8548-e7ab-4b85-abd3-a58b40454cfc"},"vehicle_type_id":"4","last_reported":1718453637,"current_range_meters":8400,"station_id":"ce4bgr92rcd13ifvqc7g","pricing_plan_id":"cebpf4jnsgd1na2vs0mg"},{"bike_id":"926f6f64-36af-4d9c-8d37-1c588fb5e832","system_id":"levelo_inurba_marseille","lat":43.298433,"lon":5.362774,"is_reserved":false,"is_disabled":false,"rental_uris":{"android":"levelo://app?vid=926f6f64-36af-4d9c-8d37-1c588fb5e832","ios":"levelo://app?vid=926f6f64-36af-4d9c-8d37-1c588fb5e832"},"vehicle_type_id":"4","last_reported":1718453637,"current_range_meters":15200,"station_id":"ce4bgpp2rcd13ifvqc3g","pricing_plan_id":"cebpf4jnsgd1na2vs0mg"},{"bike_id":"0478a370-2ea7-49cd-9f76-373c77634bbb","system_id":"levelo_inurba_marseille","lat":43.298433,"lon":5.362774,"is_reserved":false,"is_disabled":false,"rental_uris":{"android":"levelo://app?vid=0478a370-2ea7-49cd-9f76-373c77634bbb","ios":"levelo://app?vid=0478a370-2ea7-49cd-9f76-373c77634bbb"},"vehicle_type_id":"4","last_reported":1718453637,"current_range_meters":25600,"station_id":"ce4bgpp2rcd13ifvqc3g","pricing_plan_id":"cebpf4jnsgd1na2vs0mg"},{"bike_id":"7ab72ee7-b888-409f-8eb6-05924abfe5fb","system_id":"levelo_inurba_marseille","lat":43.298433,"lon":5.362774,"is_reserved":false,"is_disabled":false,"rental_uris":{"android":"levelo://app?vid=7ab72ee7-b888-409f-8eb6-05924abfe5fb","ios":"levelo://app?vid=7ab72ee7-b888-409f-8eb6-05924abfe5fb"},"vehicle_type_id":"4","last_reported":1718453637,"current_range_meters":22400,"station_id":"ce4bgpp2rcd13ifvqc3g","pricing_plan_id":"cebpf4jnsgd1na2vs0mg"},{"bike_id":"e3a98106-9b47-499c-9a72-f5efb6c88cb4","system_id":"levelo_inurba_marseille","lat":43.29851,"lon":5.36275,"is_reserved":false,"is_disabled":false,"rental_uris":{"android":"levelo://app?vid=e3a98106-9b47-499c-9a72-f5efb6c88cb4","ios":"levelo://app?vid=e3a98106-9b47-499c-9a72-f5efb6c88cb4"},"vehicle_type_id":"4","last_reported":1718453637,"current_range_meters":26000,"station_id":"ce4bgpp2rcd13ifvqc3g","pricing_plan_id":"cebpf4jnsgd1na2vs0mg"},{"bike_id":"4dd47af9-71e1-4c7a-a913-5a3eafd8a3cb","system_id":"levelo_inurba_marseille","lat":43.298433,"lon":5.362774,"is_reserved":false,"is_disabled":false,"rental_uris":{"android":"levelo://app?vid=4dd47af9-71e1-4c7a-a913-5a3eafd8a3cb","ios":"levelo://app?vid=4dd47af9-71e1-4c7a-a913-5a3eafd8a3cb"},"vehicle_type_id":"4","last_reported":1718453637,"current_range_meters":18000,"station_id":"ce4bgpp2rcd13ifvqc3g","pricing_plan_id":"cebpf4jnsgd1na2vs0mg"},{"bike_id":"dd9da9df-402a-4e74-8b6f-3504874604e7","system_id":"levelo_inurba_marseille","lat":43.2985,"lon":5.362726,"is_reserved":false,"is_disabled":false,"rental_uris":{"android":"levelo://app?vid=dd9da9df-402a-4e74-8b6f-3504874604e7","ios":"levelo://app?vid=dd9da9df-402a-4e74-8b6f-3504874604e7"},"vehicle_type_id":"4","last_reported":1718453637,"current_range_meters":16000,"station_id":"ce4bgpp2rcd13ifvqc3g","pricing_plan_id":"cebpf4jnsgd1na2vs0mg"},{"bike_id":"611711f1-efaf-426d-a0fa-ce6897dfdbb9","system_id":"levelo_inurba_marseille","lat":43.29849,"lon":5.36272,"is_reserved":false,"is_disabled":false,"rental_uris":{"android":"levelo://app?vid=611711f1-efaf-426d-a0fa-ce6897dfdbb9","ios":"levelo://app?vid=611711f1-efaf-426d-a0fa-ce6897dfdbb9"},"vehicle_type_id":"4","last_reported":1718453637,"current_range_meters":26800,"station_id":"ce4bgpp2rcd13ifvqc3g","pricing_plan_id":"cebpf4jnsgd1na2vs0mg"},{"bike_id":"62b52d05-037c-46a9-9334-fbe0ec59f5cb","system_id":"levelo_inurba_marseille","lat":43.29848,"lon":5.36278,"is_reserved":false,"is_disabled":false,"rental_uris":{"android":"levelo://app?vid=62b52d05-037c-46a9-9334-fbe0ec59f5cb","ios":"levelo://app?vid=62b52d05-037c-46a9-9334-fbe0ec59f5cb"},"vehicle_type_id":"4","last_reported":1718453637,"current_range_meters":31200,"station_id":"ce4bgpp2rcd13ifvqc3g","pricing_plan_id":"cebpf4jnsgd1na2vs0mg"},{"bike_id":"e1067a52-dd70-4385-b50f-427b0b86af61","system_id":"levelo_inurba_marseille","lat":43.29848,"lon":5.36277,"is_reserved":false,"is_disabled":false,"rental_uris":{"android":"levelo://app?vid=e1067a52-dd70-4385-b50f-427b0b86af61","ios":"levelo://app?vid=e1067a52-dd70-4385-b50f-427b0b86af61"},"vehicle_type_id":"4","last_reported":1718453637,"current_range_meters":26000,"station_id":"ce4bgpp2rcd13ifvqc3g","pricing_plan_id":"cebpf4jnsgd1na2vs0mg"},{"bike_id":"bdf86790-c632-444f-b61b-3b94243eb7dc","system_id":"levelo_inurba_marseille","lat":43.29849,"lon":5.36269,"is_reserved":false,"is_disabled":false,"rental_uris":{"android":"levelo://app?vid=bdf86790-c632-444f-b61b-3b94243eb7dc","ios":"levelo://app?vid=bdf86790-c632-444f-b61b-3b94243eb7dc"},"vehicle_type_id":"4","last_reported":1718453637,"current_range_meters":18400,"station_id":"ce4bgpp2rcd13ifvqc3g","pricing_plan_id":"cebpf4jnsgd1na2vs0mg"},{"bike_id":"72630a53-c43a-44f0-b0c3-da964ac32448","system_id":"levelo_inurba_marseille","lat":43.298433,"lon":5.362774,"is_reserved":false,"is_disabled":false,"rental_uris":{"android":"levelo://app?vid=72630a53-c43a-44f0-b0c3-da964ac32448","ios":"levelo://app?vid=72630a53-c43a-44f0-b0c3-da964ac32448"},"vehicle_type_id":"4","last_reported":1718453637,"current_range_meters":18400,"station_id":"ce4bgpp2rcd13ifvqc3g","pricing_plan_id":"cebpf4jnsgd1na2vs0mg"},{"bike_id":"58b250a6-67b7-4946-b1ce-cc29d4840668","system_id":"levelo_inurba_marseille","lat":43.298433,"lon":5.362774,"is_reserved":false,"is_disabled":false,"rental_uris":{"android":"levelo://app?vid=58b250a6-67b7-4946-b1ce-cc29d4840668","ios":"levelo://app?vid=58b250a6-67b7-4946-b1ce-cc29d4840668"},"vehicle_type_id":"4","last_reported":1718453637,"current_range_meters":22800,"station_id":"ce4bgpp2rcd13ifvqc3g","pricing_plan_id":"cebpf4jnsgd1na2vs0mg"},{"bike_id":"001c81aa-80b1-4c0c-a4bb-130aa132bf36","system_id":"levelo_inurba_marseille","lat":43.29847,"lon":5.36274,"is_reserved":false,"is_disabled":false,"rental_uris":{"android":"levelo://app?vid=001c81aa-80b1-4c0c-a4bb-130aa132bf36","ios":"levelo://app?vid=001c81aa-80b1-4c0c-a4bb-130aa132bf36"},"vehicle_type_id":"4","last_reported":1718453637,"current_range_meters":14800,"station_id":"ce4bgpp2rcd13ifvqc3g","pricing_plan_id":"cebpf4jnsgd1na2vs0mg"},{"bike_id":"1664517c-94b5-4b88-b6e8-4ae23ed5e419","system_id":"levelo_inurba_marseille","lat":43.298433,"lon":5.362774,"is_reserved":false,"is_disabled":false,"rental_uris":{"android":"levelo://app?vid=1664517c-94b5-4b88-b6e8-4ae23ed5e419","ios":"levelo://app?vid=1664517c-94b5-4b88-b6e8-4ae23ed5e419"},"vehicle_type_id":"4","last_reported":1718453637,"current_range_meters":31200,"station_id":"ce4bgpp2rcd13ifvqc3g","pricing_plan_id":"cebpf4jnsgd1na2vs0mg"},{"bike_id":"419cc81e-5520-4ebb-9e50-342c8de2d093","system_id":"levelo_inurba_marseille","lat":43.298433,"lon":5.362774,"is_reserved":false,"is_disabled":false,"rental_uris":{"android":"levelo://app?vid=419cc81e-5520-4ebb-9e50-342c8de2d093","ios":"levelo://app?vid=419cc81e-5520-4ebb-9e50-342c8de2d093"},"vehicle_type_id":"4","last_reported":1718453637,"current_range_meters":20800,"station_id":"ce4bgpp2rcd13ifvqc3g","pricing_plan_id":"cebpf4jnsgd1na2vs0mg"},{"bike_id":"a9d49dc3-73fa-4c46-b938-9d4e324c3f15","system_id":"levelo_inurba_marseille","lat":43.298433,"lon":5.362774,"is_reserved":false,"is_disabled":false,"rental_uris":{"android":"levelo://app?vid=a9d49dc3-73fa-4c46-b938-9d4e324c3f15","ios":"levelo://app?vid=a9d49dc3-73fa-4c46-b938-9d4e324c3f15"},"vehicle_type_id":"4","last_reported":1718453637,"current_range_meters":24800,"station_id":"ce4bgpp2rcd13ifvqc3g","pricing_plan_id":"cebpf4jnsgd1na2vs0mg"},{"bike_id":"a37cb4dd-e30a-4e8b-91b0-1843e6cdc78b","system_id":"levelo_inurba_marseille","lat":43.298433,"lon":5.362774,"is_reserved":false,"is_disabled":false,"rental_uris":{"android":"levelo://app?vid=a37cb4dd-e30a-4e8b-91b0-1843e6cdc78b","ios":"levelo://app?vid=a37cb4dd-e30a-4e8b-91b0-1843e6cdc78b"},"vehicle_type_id":"4","last_reported":1718453637,"current_range_meters":16800,"station_id":"ce4bgpp2rcd13ifvqc3g","pricing_plan_id":"cebpf4jnsgd1na2vs0mg"},{"bike_id":"9025e045-1dc7-45d3-bb79-9aeb66e61c86","system_id":"levelo_inurba_marseille","lat":43.29842,"lon":5.3627,"is_reserved":false,"is_disabled":false,"rental_uris":{"android":"levelo://app?vid=9025e045-1dc7-45d3-bb79-9aeb66e61c86","ios":"levelo://app?vid=9025e045-1dc7-45d3-bb79-9aeb66e61c86"},"vehicle_type_id":"4","last_reported":1718453637,"current_range_meters":23200,"station_id":"ce4bgpp2rcd13ifvqc3g","pricing_plan_id":"cebpf4jnsgd1na2vs0mg"},{"bike_id":"35a2ddde-b250-4ff7-83cd-38a4dcadbcb9","system_id":"levelo_inurba_marseille","lat":43.298433,"lon":5.362774,"is_reserved":false,"is_disabled":false,"rental_uris":{"android":"levelo://app?vid=35a2ddde-b250-4ff7-83cd-38a4dcadbcb9","ios":"levelo://app?vid=35a2ddde-b250-4ff7-83cd-38a4dcadbcb9"},"vehicle_type_id":"4","last_reported":1718453637,"current_range_meters":12000,"station_id":"ce4bgpp2rcd13ifvqc3g","pricing_plan_id":"cebpf4jnsgd1na2vs0mg"},{"bike_id":"ec0191c4-561f-4b2c-aed8-df47fffc414e","system_id":"levelo_inurba_marseille","lat":43.299243,"lon":5.37481,"is_reserved":false,"is_disabled":false,"rental_uris":{"android":"levelo://app?vid=ec0191c4-561f-4b2c-aed8-df47fffc414e","ios":"levelo://app?vid=ec0191c4-561f-4b2c-aed8-df47fffc414e"},"vehicle_type_id":"4","last_reported":1718453637,"current_range_meters":18400,"station_id":"ce4bgjh2rcd13ifvqbg0","pricing_plan_id":"cebpf4jnsgd1na2vs0mg"},{"bike_id":"affb9b36-c32a-4970-9d3d-45fae20a8c66","system_id":"levelo_inurba_marseille","lat":43.299243,"lon":5.374807,"is_reserved":false,"is_disabled":false,"rental_uris":{"android":"levelo://app?vid=affb9b36-c32a-4970-9d3d-45fae20a8c66","ios":"levelo://app?vid=affb9b36-c32a-4970-9d3d-45fae20a8c66"},"vehicle_type_id":"4","last_reported":1718453637,"current_range_meters":24800,"station_id":"ce4bgjh2rcd13ifvqbg0","pricing_plan_id":"cebpf4jnsgd1na2vs0mg"},{"bike_id":"c98e4a66-3919-417d-a388-f293689c3289","system_id":"levelo_inurba_marseille","lat":43.298076,"lon":5.371242,"is_reserved":false,"is_disabled":false,"rental_uris":{"android":"levelo://app?vid=c98e4a66-3919-417d-a388-f293689c3289","ios":"levelo://app?vid=c98e4a66-3919-417d-a388-f293689c3289"},"vehicle_type_id":"4","last_reported":1718453637,"current_range_meters":8000,"station_id":"ce4bgop2rcd13ifvqc1g","pricing_plan_id":"cebpf4jnsgd1na2vs0mg"},{"bike_id":"a4914229-a5f3-4b6d-a4f4-7747019a52c3","system_id":"levelo_inurba_marseille","lat":43.297794,"lon":5.370888,"is_reserved":false,"is_disabled":false,"rental_uris":{"android":"levelo://app?vid=a4914229-a5f3-4b6d-a4f4-7747019a52c3","ios":"levelo://app?vid=a4914229-a5f3-4b6d-a4f4-7747019a52c3"},"vehicle_type_id":"4","last_reported":1718453637,"current_range_meters":21200,"station_id":"ce4bgop2rcd13ifvqc1g","pricing_plan_id":"cebpf4jnsgd1na2vs0mg"},{"bike_id":"6d33782a-36b4-4f12-87b3-3f96ed90361c","system_id":"levelo_inurba_marseille","lat":43.299243,"lon":5.37481,"is_reserved":false,"is_disabled":false,"rental_uris":{"android":"levelo://app?vid=6d33782a-36b4-4f12-87b3-3f96ed90361c","ios":"levelo://app?vid=6d33782a-36b4-4f12-87b3-3f96ed90361c"},"vehicle_type_id":"4","last_reported":1718453637,"current_range_meters":8400,"station_id":"ce4bgjh2rcd13ifvqbg0","pricing_plan_id":"cebpf4jnsgd1na2vs0mg"},{"bike_id":"f80fd0a6-32fa-4720-8f11-ee09a86ca0ea","system_id":"levelo_inurba_marseille","lat":43.322872,"lon":5.382756,"is_reserved":false,"is_disabled":false,"rental_uris":{"android":"levelo://app?vid=f80fd0a6-32fa-4720-8f11-ee09a86ca0ea","ios":"levelo://app?vid=f80fd0a6-32fa-4720-8f11-ee09a86ca0ea"},"vehicle_type_id":"4","last_reported":1718453637,"current_range_meters":22000,"station_id":"ce4bhr12rcd13ifvqhqg","pricing_plan_id":"cebpf4jnsgd1na2vs0mg"},{"bike_id":"2bfc85ae-9b5c-42e7-be12-19f5aff4171b","system_id":"levelo_inurba_marseille","lat":43.322872,"lon":5.382756,"is_reserved":false,"is_disabled":false,"rental_uris":{"android":"levelo://app?vid=2bfc85ae-9b5c-42e7-be12-19f5aff4171b","ios":"levelo://app?vid=2bfc85ae-9b5c-42e7-be12-19f5aff4171b"},"vehicle_type_id":"4","last_reported":1718453637,"current_range_meters":24000,"station_id":"ce4bhr12rcd13ifvqhqg","pricing_plan_id":"cebpf4jnsgd1na2vs0mg"},{"bike_id":"e025e930-8f82-4879-b09c-3202c4ca43ad","system_id":"levelo_inurba_marseille","lat":43.32295,"lon":5.3826,"is_reserved":false,"is_disabled":false,"rental_uris":{"android":"levelo://app?vid=e025e930-8f82-4879-b09c-3202c4ca43ad","ios":"levelo://app?vid=e025e930-8f82-4879-b09c-3202c4ca43ad"},"vehicle_type_id":"4","last_reported":1718453637,"current_range_meters":20800,"station_id":"ce4bhr12rcd13ifvqhqg","pricing_plan_id":"cebpf4jnsgd1na2vs0mg"},{"bike_id":"ca3517cf-ff91-4e5f-9053-451a67a6f4da","system_id":"levelo_inurba_marseille","lat":43.32296,"lon":5.38265,"is_reserved":false,"is_disabled":false,"rental_uris":{"android":"levelo://app?vid=ca3517cf-ff91-4e5f-9053-451a67a6f4da","ios":"levelo://app?vid=ca3517cf-ff91-4e5f-9053-451a67a6f4da"},"vehicle_type_id":"4","last_reported":1718453637,"current_range_meters":31200,"station_id":"ce4bhr12rcd13ifvqhqg","pricing_plan_id":"cebpf4jnsgd1na2vs0mg"},{"bike_id":"17efe64d-eade-452a-8ce5-2feb84530547","system_id":"levelo_inurba_marseille","lat":43.322872,"lon":5.382756,"is_reserved":false,"is_disabled":false,"rental_uris":{"android":"levelo://app?vid=17efe64d-eade-452a-8ce5-2feb84530547","ios":"levelo://app?vid=17efe64d-eade-452a-8ce5-2feb84530547"},"vehicle_type_id":"4","last_reported":1718453637,"current_range_meters":11600,"station_id":"ce4bhr12rcd13ifvqhqg","pricing_plan_id":"cebpf4jnsgd1na2vs0mg"},{"bike_id":"7d627aae-a31e-4171-9501-6897788ca956","system_id":"levelo_inurba_marseille","lat":43.322872,"lon":5.382756,"is_reserved":false,"is_disabled":false,"rental_uris":{"android":"levelo://app?vid=7d627aae-a31e-4171-9501-6897788ca956","ios":"levelo://app?vid=7d627aae-a31e-4171-9501-6897788ca956"},"vehicle_type_id":"4","last_reported":1718453637,"current_range_meters":26400,"station_id":"ce4bhr12rcd13ifvqhqg","pricing_plan_id":"cebpf4jnsgd1na2vs0mg"},{"bike_id":"df67289d-927f-4cbf-914f-29731392c5da","system_id":"levelo_inurba_marseille","lat":43.297163,"lon":5.365866,"is_reserved":false,"is_disabled":false,"rental_uris":{"android":"levelo://app?vid=df67289d-927f-4cbf-914f-29731392c5da","ios":"levelo://app?vid=df67289d-927f-4cbf-914f-29731392c5da"},"vehicle_type_id":"4","last_reported":1718453637,"current_range_meters":18400,"station_id":"ce4bgn12rcd13ifvqbt0","pricing_plan_id":"cebpf4jnsgd1na2vs0mg"},{"bike_id":"d1a51dc9-6127-411e-803a-831ee36069bc","system_id":"levelo_inurba_marseille","lat":43.297163,"lon":5.365866,"is_reserved":false,"is_disabled":false,"rental_uris":{"android":"levelo://app?vid=d1a51dc9-6127-411e-803a-831ee36069bc","ios":"levelo://app?vid=d1a51dc9-6127-411e-803a-831ee36069bc"},"vehicle_type_id":"4","last_reported":1718453637,"current_range_meters":19200,"station_id":"ce4bgn12rcd13ifvqbt0","pricing_plan_id":"cebpf4jnsgd1na2vs0mg"},{"bike_id":"2d1ccd4b-6c27-446d-881e-83725ff7febc","system_id":"levelo_inurba_marseille","lat":43.297163,"lon":5.365866,"is_reserved":false,"is_disabled":false,"rental_uris":{"android":"levelo://app?vid=2d1ccd4b-6c27-446d-881e-83725ff7febc","ios":"levelo://app?vid=2d1ccd4b-6c27-446d-881e-83725ff7febc"},"vehicle_type_id":"4","last_reported":1718453637,"current_range_meters":24400,"station_id":"ce4bgn12rcd13ifvqbt0","pricing_plan_id":"cebpf4jnsgd1na2vs0mg"},{"bike_id":"9ab6e617-93e5-4023-85f1-9d1ac82a6a41","system_id":"levelo_inurba_marseille","lat":43.2968,"lon":5.37291,"is_reserved":false,"is_disabled":false,"rental_uris":{"android":"levelo://app?vid=9ab6e617-93e5-4023-85f1-9d1ac82a6a41","ios":"levelo://app?vid=9ab6e617-93e5-4023-85f1-9d1ac82a6a41"},"vehicle_type_id":"4","last_reported":1718453637,"current_range_meters":19200,"station_id":"ce4bgk12rcd13ifvqbj0","pricing_plan_id":"cebpf4jnsgd1na2vs0mg"},{"bike_id":"616a28e0-ac2a-4f41-a96d-0e40449eb1f0","system_id":"levelo_inurba_marseille","lat":43.2968,"lon":5.37291,"is_reserved":false,"is_disabled":false,"rental_uris":{"android":"levelo://app?vid=616a28e0-ac2a-4f41-a96d-0e40449eb1f0","ios":"levelo://app?vid=616a28e0-ac2a-4f41-a96d-0e40449eb1f0"},"vehicle_type_id":"4","last_reported":1718453637,"current_range_meters":30000,"station_id":"ce4bgk12rcd13ifvqbj0","pricing_plan_id":"cebpf4jnsgd1na2vs0mg"},{"bike_id":"98f03eb3-e169-46c8-9b44-5cf5c694ec46","system_id":"levelo_inurba_marseille","lat":43.29573,"lon":5.367355,"is_reserved":false,"is_disabled":false,"rental_uris":{"android":"levelo://app?vid=98f03eb3-e169-46c8-9b44-5cf5c694ec46","ios":"levelo://app?vid=98f03eb3-e169-46c8-9b44-5cf5c694ec46"},"vehicle_type_id":"4","last_reported":1718453637,"current_range_meters":24000,"station_id":"ce4bgph2rcd13ifvqc2g","pricing_plan_id":"cebpf4jnsgd1na2vs0mg"},{"bike_id":"f58aa875-1133-4331-95ad-63c98c5d689f","system_id":"levelo_inurba_marseille","lat":43.296131,"lon":5.370791,"is_reserved":false,"is_disabled":false,"rental_uris":{"android":"levelo://app?vid=f58aa875-1133-4331-95ad-63c98c5d689f","ios":"levelo://app?vid=f58aa875-1133-4331-95ad-63c98c5d689f"},"vehicle_type_id":"4","last_reported":1718453637,"current_range_meters":30400,"station_id":"ce4bgnh2rcd13ifvqc0g","pricing_plan_id":"cebpf4jnsgd1na2vs0mg"},{"bike_id":"041e44ee-217d-430e-99b7-82bfcf61285c","system_id":"levelo_inurba_marseille","lat":43.296131,"lon":5.370791,"is_reserved":false,"is_disabled":false,"rental_uris":{"android":"levelo://app?vid=041e44ee-217d-430e-99b7-82bfcf61285c","ios":"levelo://app?vid=041e44ee-217d-430e-99b7-82bfcf61285c"},"vehicle_type_id":"4","last_reported":1718453637,"current_range_meters":20800,"station_id":"ce4bgnh2rcd13ifvqc0g","pricing_plan_id":"cebpf4jnsgd1na2vs0mg"},{"bike_id":"0756b3e0-f2ff-4357-a81a-3ac5f5df5bc5","system_id":"levelo_inurba_marseille","lat":43.29588,"lon":5.36731,"is_reserved":false,"is_disabled":false,"rental_uris":{"android":"levelo://app?vid=0756b3e0-f2ff-4357-a81a-3ac5f5df5bc5","ios":"levelo://app?vid=0756b3e0-f2ff-4357-a81a-3ac5f5df5bc5"},"vehicle_type_id":"4","last_reported":1718453637,"current_range_meters":18800,"station_id":"ce4bgph2rcd13ifvqc2g","pricing_plan_id":"cebpf4jnsgd1na2vs0mg"},{"bike_id":"85cd2f0d-2de9-49a5-9cf5-374d36a071d7","system_id":"levelo_inurba_marseille","lat":43.296131,"lon":5.370791,"is_reserved":false,"is_disabled":false,"rental_uris":{"android":"levelo://app?vid=85cd2f0d-2de9-49a5-9cf5-374d36a071d7","ios":"levelo://app?vid=85cd2f0d-2de9-49a5-9cf5-374d36a071d7"},"vehicle_type_id":"4","last_reported":1718453637,"current_range_meters":2800,"station_id":"ce4bgnh2rcd13ifvqc0g","pricing_plan_id":"cebpf4jnsgd1na2vs0mg"},{"bike_id":"bcca00d8-a964-4501-a4f9-6466cd6073fc","system_id":"levelo_inurba_marseille","lat":43.296129,"lon":5.370777,"is_reserved":false,"is_disabled":false,"rental_uris":{"android":"levelo://app?vid=bcca00d8-a964-4501-a4f9-6466cd6073fc","ios":"levelo://app?vid=bcca00d8-a964-4501-a4f9-6466cd6073fc"},"vehicle_type_id":"4","last_reported":1718453637,"current_range_meters":27200,"station_id":"ce4bgnh2rcd13ifvqc0g","pricing_plan_id":"cebpf4jnsgd1na2vs0mg"},{"bike_id":"14e2697b-79e8-407f-898d-cbd7bd2c154a","system_id":"levelo_inurba_marseille","lat":43.296131,"lon":5.370791,"is_reserved":false,"is_disabled":false,"rental_uris":{"android":"levelo://app?vid=14e2697b-79e8-407f-898d-cbd7bd2c154a","ios":"levelo://app?vid=14e2697b-79e8-407f-898d-cbd7bd2c154a"},"vehicle_type_id":"4","last_reported":1718453637,"current_range_meters":29600,"station_id":"ce4bgnh2rcd13ifvqc0g","pricing_plan_id":"cebpf4jnsgd1na2vs0mg"},{"bike_id":"c4879cd9-f2c2-4266-9cc6-2714da9fcdd5","system_id":"levelo_inurba_marseille","lat":43.296131,"lon":5.370791,"is_reserved":false,"is_disabled":false,"rental_uris":{"android":"levelo://app?vid=c4879cd9-f2c2-4266-9cc6-2714da9fcdd5","ios":"levelo://app?vid=c4879cd9-f2c2-4266-9cc6-2714da9fcdd5"},"vehicle_type_id":"4","last_reported":1718453637,"current_range_meters":31200,"station_id":"ce4bgnh2rcd13ifvqc0g","pricing_plan_id":"cebpf4jnsgd1na2vs0mg"},{"bike_id":"51612245-6244-42e2-b7db-949bae9502d5","system_id":"levelo_inurba_marseille","lat":43.296131,"lon":5.370791,"is_reserved":false,"is_disabled":false,"rental_uris":{"android":"levelo://app?vid=51612245-6244-42e2-b7db-949bae9502d5","ios":"levelo://app?vid=51612245-6244-42e2-b7db-949bae9502d5"},"vehicle_type_id":"4","last_reported":1718453637,"current_range_meters":31200,"station_id":"ce4bgnh2rcd13ifvqc0g","pricing_plan_id":"cebpf4jnsgd1na2vs0mg"},{"bike_id":"9320f9ca-8521-49d7-bb17-bbe71435ee9e","system_id":"levelo_inurba_marseille","lat":43.29573,"lon":5.367355,"is_reserved":false,"is_disabled":false,"rental_uris":{"android":"levelo://app?vid=9320f9ca-8521-49d7-bb17-bbe71435ee9e","ios":"levelo://app?vid=9320f9ca-8521-49d7-bb17-bbe71435ee9e"},"vehicle_type_id":"4","last_reported":1718453637,"current_range_meters":4400,"station_id":"ce4bgph2rcd13ifvqc2g","pricing_plan_id":"cebpf4jnsgd1na2vs0mg"},{"bike_id":"b3104920-beed-4900-af22-98fbbc2bd5f3","system_id":"levelo_inurba_marseille","lat":43.29573,"lon":5.367355,"is_reserved":false,"is_disabled":false,"rental_uris":{"android":"levelo://app?vid=b3104920-beed-4900-af22-98fbbc2bd5f3","ios":"levelo://app?vid=b3104920-beed-4900-af22-98fbbc2bd5f3"},"vehicle_type_id":"4","last_reported":1718453637,"current_range_meters":26400,"station_id":"ce4bgph2rcd13ifvqc2g","pricing_plan_id":"cebpf4jnsgd1na2vs0mg"},{"bike_id":"fbe5827b-00f0-48d8-b6c2-34554ccd2afc","system_id":"levelo_inurba_marseille","lat":43.29585,"lon":5.36739,"is_reserved":false,"is_disabled":false,"rental_uris":{"android":"levelo://app?vid=fbe5827b-00f0-48d8-b6c2-34554ccd2afc","ios":"levelo://app?vid=fbe5827b-00f0-48d8-b6c2-34554ccd2afc"},"vehicle_type_id":"4","last_reported":1718453637,"current_range_meters":20800,"station_id":"ce4bgph2rcd13ifvqc2g","pricing_plan_id":"cebpf4jnsgd1na2vs0mg"},{"bike_id":"12cece4e-d940-4773-b9af-009667fc0e81","system_id":"levelo_inurba_marseille","lat":43.29584,"lon":5.36739,"is_reserved":false,"is_disabled":false,"rental_uris":{"android":"levelo://app?vid=12cece4e-d940-4773-b9af-009667fc0e81","ios":"levelo://app?vid=12cece4e-d940-4773-b9af-009667fc0e81"},"vehicle_type_id":"4","last_reported":1718453637,"current_range_meters":4000,"station_id":"ce4bgph2rcd13ifvqc2g","pricing_plan_id":"cebpf4jnsgd1na2vs0mg"},{"bike_id":"87cd2f5b-7fe7-4846-8135-eaeacee2f6ae","system_id":"levelo_inurba_marseille","lat":43.296131,"lon":5.370791,"is_reserved":false,"is_disabled":false,"rental_uris":{"android":"levelo://app?vid=87cd2f5b-7fe7-4846-8135-eaeacee2f6ae","ios":"levelo://app?vid=87cd2f5b-7fe7-4846-8135-eaeacee2f6ae"},"vehicle_type_id":"4","last_reported":1718453637,"current_range_meters":31200,"station_id":"ce4bgnh2rcd13ifvqc0g","pricing_plan_id":"cebpf4jnsgd1na2vs0mg"},{"bike_id":"dec71cac-33cd-4d02-a358-a2d1975bb909","system_id":"levelo_inurba_marseille","lat":43.29583,"lon":5.36735,"is_reserved":false,"is_disabled":false,"rental_uris":{"android":"levelo://app?vid=dec71cac-33cd-4d02-a358-a2d1975bb909","ios":"levelo://app?vid=dec71cac-33cd-4d02-a358-a2d1975bb909"},"vehicle_type_id":"4","last_reported":1718453637,"current_range_meters":18000,"station_id":"ce4bgph2rcd13ifvqc2g","pricing_plan_id":"cebpf4jnsgd1na2vs0mg"},{"bike_id":"6453ea77-99cb-42ab-8568-f811fc857eb1","system_id":"levelo_inurba_marseille","lat":43.29583,"lon":5.36738,"is_reserved":false,"is_disabled":false,"rental_uris":{"android":"levelo://app?vid=6453ea77-99cb-42ab-8568-f811fc857eb1","ios":"levelo://app?vid=6453ea77-99cb-42ab-8568-f811fc857eb1"},"vehicle_type_id":"4","last_reported":1718453637,"current_range_meters":27600,"station_id":"ce4bgph2rcd13ifvqc2g","pricing_plan_id":"cebpf4jnsgd1na2vs0mg"},{"bike_id":"abec3424-b8e5-401c-ad0f-c7b09dd96970","system_id":"levelo_inurba_marseille","lat":43.29573,"lon":5.367355,"is_reserved":false,"is_disabled":false,"rental_uris":{"android":"levelo://app?vid=abec3424-b8e5-401c-ad0f-c7b09dd96970","ios":"levelo://app?vid=abec3424-b8e5-401c-ad0f-c7b09dd96970"},"vehicle_type_id":"4","last_reported":1718453637,"current_range_meters":8400,"station_id":"ce4bgph2rcd13ifvqc2g","pricing_plan_id":"cebpf4jnsgd1na2vs0mg"},{"bike_id":"37c16efd-9b84-490a-b3b4-5e95101df89f","system_id":"levelo_inurba_marseille","lat":43.29583,"lon":5.36741,"is_reserved":false,"is_disabled":false,"rental_uris":{"android":"levelo://app?vid=37c16efd-9b84-490a-b3b4-5e95101df89f","ios":"levelo://app?vid=37c16efd-9b84-490a-b3b4-5e95101df89f"},"vehicle_type_id":"4","last_reported":1718453637,"current_range_meters":6800,"station_id":"ce4bgph2rcd13ifvqc2g","pricing_plan_id":"cebpf4jnsgd1na2vs0mg"},{"bike_id":"01e998b6-1cb3-482b-89c7-e47577158636","system_id":"levelo_inurba_marseille","lat":43.295825,"lon":5.36733,"is_reserved":false,"is_disabled":false,"rental_uris":{"android":"levelo://app?vid=01e998b6-1cb3-482b-89c7-e47577158636","ios":"levelo://app?vid=01e998b6-1cb3-482b-89c7-e47577158636"},"vehicle_type_id":"4","last_reported":1718453637,"current_range_meters":30400,"station_id":"ce4bgph2rcd13ifvqc2g","pricing_plan_id":"cebpf4jnsgd1na2vs0mg"},{"bike_id":"7e54946a-542c-408b-8014-58f5509676fd","system_id":"levelo_inurba_marseille","lat":43.29573,"lon":5.367355,"is_reserved":false,"is_disabled":false,"rental_uris":{"android":"levelo://app?vid=7e54946a-542c-408b-8014-58f5509676fd","ios":"levelo://app?vid=7e54946a-542c-408b-8014-58f5509676fd"},"vehicle_type_id":"4","last_reported":1718453637,"current_range_meters":25600,"station_id":"ce4bgph2rcd13ifvqc2g","pricing_plan_id":"cebpf4jnsgd1na2vs0mg"},{"bike_id":"ad91b7b9-f81c-476e-8540-08434a7d3eb8","system_id":"levelo_inurba_marseille","lat":43.29573,"lon":5.367355,"is_reserved":false,"is_disabled":false,"rental_uris":{"android":"levelo://app?vid=ad91b7b9-f81c-476e-8540-08434a7d3eb8","ios":"levelo://app?vid=ad91b7b9-f81c-476e-8540-08434a7d3eb8"},"vehicle_type_id":"4","last_reported":1718453637,"current_range_meters":15600,"station_id":"ce4bgph2rcd13ifvqc2g","pricing_plan_id":"cebpf4jnsgd1na2vs0mg"},{"bike_id":"c969906f-5f98-4543-ad12-1a1655b15330","system_id":"levelo_inurba_marseille","lat":43.29573,"lon":5.367355,"is_reserved":false,"is_disabled":false,"rental_uris":{"android":"levelo://app?vid=c969906f-5f98-4543-ad12-1a1655b15330","ios":"levelo://app?vid=c969906f-5f98-4543-ad12-1a1655b15330"},"vehicle_type_id":"4","last_reported":1718453637,"current_range_meters":25600,"station_id":"ce4bgph2rcd13ifvqc2g","pricing_plan_id":"cebpf4jnsgd1na2vs0mg"},{"bike_id":"aca9c774-04af-4a09-849c-687c4a05fdb9","system_id":"levelo_inurba_marseille","lat":43.29581,"lon":5.36735,"is_reserved":false,"is_disabled":false,"rental_uris":{"android":"levelo://app?vid=aca9c774-04af-4a09-849c-687c4a05fdb9","ios":"levelo://app?vid=aca9c774-04af-4a09-849c-687c4a05fdb9"},"vehicle_type_id":"4","last_reported":1718453637,"current_range_meters":31200,"station_id":"ce4bgph2rcd13ifvqc2g","pricing_plan_id":"cebpf4jnsgd1na2vs0mg"},{"bike_id":"f317a32a-0d79-4bfb-814a-e6e574e800ec","system_id":"levelo_inurba_marseille","lat":43.29573,"lon":5.367355,"is_reserved":false,"is_disabled":false,"rental_uris":{"android":"levelo://app?vid=f317a32a-0d79-4bfb-814a-e6e574e800ec","ios":"levelo://app?vid=f317a32a-0d79-4bfb-814a-e6e574e800ec"},"vehicle_type_id":"4","last_reported":1718453637,"current_range_meters":8800,"station_id":"ce4bgph2rcd13ifvqc2g","pricing_plan_id":"cebpf4jnsgd1na2vs0mg"},{"bike_id":"d7a68ac8-56f1-4b31-8892-8ca4a75b259e","system_id":"levelo_inurba_marseille","lat":43.29573,"lon":5.367355,"is_reserved":false,"is_disabled":false,"rental_uris":{"android":"levelo://app?vid=d7a68ac8-56f1-4b31-8892-8ca4a75b259e","ios":"levelo://app?vid=d7a68ac8-56f1-4b31-8892-8ca4a75b259e"},"vehicle_type_id":"4","last_reported":1718453637,"current_range_meters":25200,"station_id":"ce4bgph2rcd13ifvqc2g","pricing_plan_id":"cebpf4jnsgd1na2vs0mg"},{"bike_id":"8eaca749-3878-4d1e-9b80-3d8ec1a445f3","system_id":"levelo_inurba_marseille","lat":43.29573,"lon":5.367355,"is_reserved":false,"is_disabled":false,"rental_uris":{"android":"levelo://app?vid=8eaca749-3878-4d1e-9b80-3d8ec1a445f3","ios":"levelo://app?vid=8eaca749-3878-4d1e-9b80-3d8ec1a445f3"},"vehicle_type_id":"4","last_reported":1718453637,"current_range_meters":25200,"station_id":"ce4bgph2rcd13ifvqc2g","pricing_plan_id":"cebpf4jnsgd1na2vs0mg"},{"bike_id":"4cba3d06-d15d-4805-bc70-f4c478dd1b51","system_id":"levelo_inurba_marseille","lat":43.29722,"lon":5.37686,"is_reserved":false,"is_disabled":false,"rental_uris":{"android":"levelo://app?vid=4cba3d06-d15d-4805-bc70-f4c478dd1b51","ios":"levelo://app?vid=4cba3d06-d15d-4805-bc70-f4c478dd1b51"},"vehicle_type_id":"4","last_reported":1718453637,"current_range_meters":8800,"station_id":"ce4bgkh2rcd13ifvqbl0","pricing_plan_id":"cebpf4jnsgd1na2vs0mg"},{"bike_id":"7d8ac8a4-a10f-43e9-8876-91ec68a0444b","system_id":"levelo_inurba_marseille","lat":43.296921,"lon":5.376579,"is_reserved":false,"is_disabled":false,"rental_uris":{"android":"levelo://app?vid=7d8ac8a4-a10f-43e9-8876-91ec68a0444b","ios":"levelo://app?vid=7d8ac8a4-a10f-43e9-8876-91ec68a0444b"},"vehicle_type_id":"4","last_reported":1718453637,"current_range_meters":20400,"station_id":"ce4bgkh2rcd13ifvqbl0","pricing_plan_id":"cebpf4jnsgd1na2vs0mg"},{"bike_id":"71f194fa-46d5-4b35-ad74-6c967b688dc2","system_id":"levelo_inurba_marseille","lat":43.296935,"lon":5.376544,"is_reserved":false,"is_disabled":false,"rental_uris":{"android":"levelo://app?vid=71f194fa-46d5-4b35-ad74-6c967b688dc2","ios":"levelo://app?vid=71f194fa-46d5-4b35-ad74-6c967b688dc2"},"vehicle_type_id":"4","last_reported":1718453637,"current_range_meters":23600,"station_id":"ce4bgkh2rcd13ifvqbl0","pricing_plan_id":"cebpf4jnsgd1na2vs0mg"},{"bike_id":"011ad10f-46b5-42ab-a5c2-eaac3581f5b6","system_id":"levelo_inurba_marseille","lat":43.296935,"lon":5.376544,"is_reserved":false,"is_disabled":false,"rental_uris":{"android":"levelo://app?vid=011ad10f-46b5-42ab-a5c2-eaac3581f5b6","ios":"levelo://app?vid=011ad10f-46b5-42ab-a5c2-eaac3581f5b6"},"vehicle_type_id":"4","last_reported":1718453637,"current_range_meters":27600,"station_id":"ce4bgkh2rcd13ifvqbl0","pricing_plan_id":"cebpf4jnsgd1na2vs0mg"},{"bike_id":"14ebe0bf-6815-4117-a2f6-b7dcaf3b0fe6","system_id":"levelo_inurba_marseille","lat":43.296921,"lon":5.376579,"is_reserved":false,"is_disabled":false,"rental_uris":{"android":"levelo://app?vid=14ebe0bf-6815-4117-a2f6-b7dcaf3b0fe6","ios":"levelo://app?vid=14ebe0bf-6815-4117-a2f6-b7dcaf3b0fe6"},"vehicle_type_id":"4","last_reported":1718453637,"current_range_meters":10400,"station_id":"ce4bgkh2rcd13ifvqbl0","pricing_plan_id":"cebpf4jnsgd1na2vs0mg"},{"bike_id":"054b72f5-00ad-4656-9daf-cecae40a7695","system_id":"levelo_inurba_marseille","lat":43.29908,"lon":5.38135,"is_reserved":false,"is_disabled":false,"rental_uris":{"android":"levelo://app?vid=054b72f5-00ad-4656-9daf-cecae40a7695","ios":"levelo://app?vid=054b72f5-00ad-4656-9daf-cecae40a7695"},"vehicle_type_id":"4","last_reported":1718453637,"current_range_meters":27200,"station_id":"ce4bgj12rcd13ifvqbc0","pricing_plan_id":"cebpf4jnsgd1na2vs0mg"},{"bike_id":"582f81e4-d72a-4c4a-82ba-075561a92222","system_id":"levelo_inurba_marseille","lat":43.299028,"lon":5.381509,"is_reserved":false,"is_disabled":false,"rental_uris":{"android":"levelo://app?vid=582f81e4-d72a-4c4a-82ba-075561a92222","ios":"levelo://app?vid=582f81e4-d72a-4c4a-82ba-075561a92222"},"vehicle_type_id":"4","last_reported":1718453637,"current_range_meters":15200,"station_id":"ce4bgj12rcd13ifvqbc0","pricing_plan_id":"cebpf4jnsgd1na2vs0mg"},{"bike_id":"30382265-249e-490b-a75f-7be1ddb7f219","system_id":"levelo_inurba_marseille","lat":43.296935,"lon":5.376544,"is_reserved":false,"is_disabled":false,"rental_uris":{"android":"levelo://app?vid=30382265-249e-490b-a75f-7be1ddb7f219","ios":"levelo://app?vid=30382265-249e-490b-a75f-7be1ddb7f219"},"vehicle_type_id":"4","last_reported":1718453637,"current_range_meters":5200,"station_id":"ce4bgkh2rcd13ifvqbl0","pricing_plan_id":"cebpf4jnsgd1na2vs0mg"},{"bike_id":"18f5cd7c-8d00-4fe8-bd00-4e54aac906ee","system_id":"levelo_inurba_marseille","lat":43.296921,"lon":5.376579,"is_reserved":false,"is_disabled":false,"rental_uris":{"android":"levelo://app?vid=18f5cd7c-8d00-4fe8-bd00-4e54aac906ee","ios":"levelo://app?vid=18f5cd7c-8d00-4fe8-bd00-4e54aac906ee"},"vehicle_type_id":"4","last_reported":1718453637,"current_range_meters":12400,"station_id":"ce4bgkh2rcd13ifvqbl0","pricing_plan_id":"cebpf4jnsgd1na2vs0mg"},{"bike_id":"85f7bca7-ab45-40ca-803a-b75017deef9c","system_id":"levelo_inurba_marseille","lat":43.296921,"lon":5.376579,"is_reserved":false,"is_disabled":false,"rental_uris":{"android":"levelo://app?vid=85f7bca7-ab45-40ca-803a-b75017deef9c","ios":"levelo://app?vid=85f7bca7-ab45-40ca-803a-b75017deef9c"},"vehicle_type_id":"4","last_reported":1718453637,"current_range_meters":4800,"station_id":"ce4bgkh2rcd13ifvqbl0","pricing_plan_id":"cebpf4jnsgd1na2vs0mg"},{"bike_id":"f9eec04f-d08a-4b9b-8704-6a75d04c6891","system_id":"levelo_inurba_marseille","lat":43.296921,"lon":5.376579,"is_reserved":false,"is_disabled":false,"rental_uris":{"android":"levelo://app?vid=f9eec04f-d08a-4b9b-8704-6a75d04c6891","ios":"levelo://app?vid=f9eec04f-d08a-4b9b-8704-6a75d04c6891"},"vehicle_type_id":"4","last_reported":1718453637,"current_range_meters":22000,"station_id":"ce4bgkh2rcd13ifvqbl0","pricing_plan_id":"cebpf4jnsgd1na2vs0mg"},{"bike_id":"47d521ed-1cb9-4769-8719-b80ec8c4b2cb","system_id":"levelo_inurba_marseille","lat":43.29901,"lon":5.38154,"is_reserved":false,"is_disabled":false,"rental_uris":{"android":"levelo://app?vid=47d521ed-1cb9-4769-8719-b80ec8c4b2cb","ios":"levelo://app?vid=47d521ed-1cb9-4769-8719-b80ec8c4b2cb"},"vehicle_type_id":"4","last_reported":1718453637,"current_range_meters":4400,"station_id":"ce4bgj12rcd13ifvqbc0","pricing_plan_id":"cebpf4jnsgd1na2vs0mg"},{"bike_id":"6ef0fa75-3f48-452e-8494-4f6460dd1ef4","system_id":"levelo_inurba_marseille","lat":43.295748,"lon":5.37522,"is_reserved":false,"is_disabled":false,"rental_uris":{"android":"levelo://app?vid=6ef0fa75-3f48-452e-8494-4f6460dd1ef4","ios":"levelo://app?vid=6ef0fa75-3f48-452e-8494-4f6460dd1ef4"},"vehicle_type_id":"4","last_reported":1718453637,"current_range_meters":16800,"station_id":"ce4bgh92rcd13ifvqb50","pricing_plan_id":"cebpf4jnsgd1na2vs0mg"},{"bike_id":"1c3ccd1a-9719-4fbb-ad41-dbf778ef7fe0","system_id":"levelo_inurba_marseille","lat":43.295748,"lon":5.37522,"is_reserved":false,"is_disabled":false,"rental_uris":{"android":"levelo://app?vid=1c3ccd1a-9719-4fbb-ad41-dbf778ef7fe0","ios":"levelo://app?vid=1c3ccd1a-9719-4fbb-ad41-dbf778ef7fe0"},"vehicle_type_id":"4","last_reported":1718453637,"current_range_meters":18800,"station_id":"ce4bgh92rcd13ifvqb50","pricing_plan_id":"cebpf4jnsgd1na2vs0mg"},{"bike_id":"16a9b1c6-0b1f-478d-9d38-de6686a6dac3","system_id":"levelo_inurba_marseille","lat":43.295748,"lon":5.37522,"is_reserved":false,"is_disabled":false,"rental_uris":{"android":"levelo://app?vid=16a9b1c6-0b1f-478d-9d38-de6686a6dac3","ios":"levelo://app?vid=16a9b1c6-0b1f-478d-9d38-de6686a6dac3"},"vehicle_type_id":"4","last_reported":1718453637,"current_range_meters":11600,"station_id":"ce4bgh92rcd13ifvqb50","pricing_plan_id":"cebpf4jnsgd1na2vs0mg"},{"bike_id":"b309e20c-648a-446c-8e47-0a33f1f70dda","system_id":"levelo_inurba_marseille","lat":43.295748,"lon":5.37522,"is_reserved":false,"is_disabled":false,"rental_uris":{"android":"levelo://app?vid=b309e20c-648a-446c-8e47-0a33f1f70dda","ios":"levelo://app?vid=b309e20c-648a-446c-8e47-0a33f1f70dda"},"vehicle_type_id":"4","last_reported":1718453637,"current_range_meters":0,"station_id":"ce4bgh92rcd13ifvqb50","pricing_plan_id":"cebpf4jnsgd1na2vs0mg"},{"bike_id":"300b6615-177c-4cd5-9e3c-6d27e8444bda","system_id":"levelo_inurba_marseille","lat":43.295748,"lon":5.37522,"is_reserved":false,"is_disabled":false,"rental_uris":{"android":"levelo://app?vid=300b6615-177c-4cd5-9e3c-6d27e8444bda","ios":"levelo://app?vid=300b6615-177c-4cd5-9e3c-6d27e8444bda"},"vehicle_type_id":"4","last_reported":1718453637,"current_range_meters":28000,"station_id":"ce4bgh92rcd13ifvqb50","pricing_plan_id":"cebpf4jnsgd1na2vs0mg"},{"bike_id":"e07a70c6-445a-43d9-9c4b-bab722567089","system_id":"levelo_inurba_marseille","lat":43.29574,"lon":5.37509,"is_reserved":false,"is_disabled":false,"rental_uris":{"android":"levelo://app?vid=e07a70c6-445a-43d9-9c4b-bab722567089","ios":"levelo://app?vid=e07a70c6-445a-43d9-9c4b-bab722567089"},"vehicle_type_id":"4","last_reported":1718453637,"current_range_meters":5200,"station_id":"ce4bgh92rcd13ifvqb50","pricing_plan_id":"cebpf4jnsgd1na2vs0mg"},{"bike_id":"ca448b0d-4d96-42e2-acbc-338b584a28a3","system_id":"levelo_inurba_marseille","lat":43.29795,"lon":5.38107,"is_reserved":false,"is_disabled":false,"rental_uris":{"android":"levelo://app?vid=ca448b0d-4d96-42e2-acbc-338b584a28a3","ios":"levelo://app?vid=ca448b0d-4d96-42e2-acbc-338b584a28a3"},"vehicle_type_id":"4","last_reported":1718453637,"current_range_meters":28400,"station_id":"ce4bgip2rcd13ifvqbb0","pricing_plan_id":"cebpf4jnsgd1na2vs0mg"},{"bike_id":"61ff0898-de29-41c9-82fd-4c5f987cd03d","system_id":"levelo_inurba_marseille","lat":43.295748,"lon":5.37522,"is_reserved":false,"is_disabled":false,"rental_uris":{"android":"levelo://app?vid=61ff0898-de29-41c9-82fd-4c5f987cd03d","ios":"levelo://app?vid=61ff0898-de29-41c9-82fd-4c5f987cd03d"},"vehicle_type_id":"4","last_reported":1718453637,"current_range_meters":15200,"station_id":"ce4bgh92rcd13ifvqb50","pricing_plan_id":"cebpf4jnsgd1na2vs0mg"},{"bike_id":"b6ccdad4-08e7-48a9-bf24-f7b1b76c3c08","system_id":"levelo_inurba_marseille","lat":43.295748,"lon":5.37522,"is_reserved":false,"is_disabled":false,"rental_uris":{"android":"levelo://app?vid=b6ccdad4-08e7-48a9-bf24-f7b1b76c3c08","ios":"levelo://app?vid=b6ccdad4-08e7-48a9-bf24-f7b1b76c3c08"},"vehicle_type_id":"4","last_reported":1718453637,"current_range_meters":5600,"station_id":"ce4bgh92rcd13ifvqb50","pricing_plan_id":"cebpf4jnsgd1na2vs0mg"},{"bike_id":"840e2df4-14d1-4774-8b90-0a84584a9237","system_id":"levelo_inurba_marseille","lat":43.29794,"lon":5.38107,"is_reserved":false,"is_disabled":false,"rental_uris":{"android":"levelo://app?vid=840e2df4-14d1-4774-8b90-0a84584a9237","ios":"levelo://app?vid=840e2df4-14d1-4774-8b90-0a84584a9237"},"vehicle_type_id":"4","last_reported":1718453637,"current_range_meters":24400,"station_id":"ce4bgip2rcd13ifvqbb0","pricing_plan_id":"cebpf4jnsgd1na2vs0mg"},{"bike_id":"5041b439-3e67-40da-a8af-0971ac300c2e","system_id":"levelo_inurba_marseille","lat":43.295748,"lon":5.37522,"is_reserved":false,"is_disabled":false,"rental_uris":{"android":"levelo://app?vid=5041b439-3e67-40da-a8af-0971ac300c2e","ios":"levelo://app?vid=5041b439-3e67-40da-a8af-0971ac300c2e"},"vehicle_type_id":"4","last_reported":1718453637,"current_range_meters":19600,"station_id":"ce4bgh92rcd13ifvqb50","pricing_plan_id":"cebpf4jnsgd1na2vs0mg"},{"bike_id":"43560ab0-8203-46ae-beb9-c1d64d2c3918","system_id":"levelo_inurba_marseille","lat":43.296277,"lon":5.377108,"is_reserved":false,"is_disabled":false,"rental_uris":{"android":"levelo://app?vid=43560ab0-8203-46ae-beb9-c1d64d2c3918","ios":"levelo://app?vid=43560ab0-8203-46ae-beb9-c1d64d2c3918"},"vehicle_type_id":"4","last_reported":1718453637,"current_range_meters":21200,"station_id":"ce4bgi92rcd13ifvqb90","pricing_plan_id":"cebpf4jnsgd1na2vs0mg"},{"bike_id":"05e88a55-d0fb-44b8-828a-705f9f15f124","system_id":"levelo_inurba_marseille","lat":43.296263,"lon":5.377094,"is_reserved":false,"is_disabled":false,"rental_uris":{"android":"levelo://app?vid=05e88a55-d0fb-44b8-828a-705f9f15f124","ios":"levelo://app?vid=05e88a55-d0fb-44b8-828a-705f9f15f124"},"vehicle_type_id":"4","last_reported":1718453637,"current_range_meters":18400,"station_id":"ce4bgi92rcd13ifvqb90","pricing_plan_id":"cebpf4jnsgd1na2vs0mg"},{"bike_id":"43b8269d-94c9-4077-a752-c2b280ca3afa","system_id":"levelo_inurba_marseille","lat":43.295748,"lon":5.37522,"is_reserved":false,"is_disabled":false,"rental_uris":{"android":"levelo://app?vid=43b8269d-94c9-4077-a752-c2b280ca3afa","ios":"levelo://app?vid=43b8269d-94c9-4077-a752-c2b280ca3afa"},"vehicle_type_id":"4","last_reported":1718453637,"current_range_meters":800,"station_id":"ce4bgh92rcd13ifvqb50","pricing_plan_id":"cebpf4jnsgd1na2vs0mg"},{"bike_id":"66991252-6c6b-4bdb-8bde-659b353c2f14","system_id":"levelo_inurba_marseille","lat":43.295748,"lon":5.37522,"is_reserved":false,"is_disabled":false,"rental_uris":{"android":"levelo://app?vid=66991252-6c6b-4bdb-8bde-659b353c2f14","ios":"levelo://app?vid=66991252-6c6b-4bdb-8bde-659b353c2f14"},"vehicle_type_id":"4","last_reported":1718453637,"current_range_meters":24000,"station_id":"ce4bgh92rcd13ifvqb50","pricing_plan_id":"cebpf4jnsgd1na2vs0mg"},{"bike_id":"a7e22e1a-3e8f-41cb-9680-53f44363ce0e","system_id":"levelo_inurba_marseille","lat":43.296263,"lon":5.377094,"is_reserved":false,"is_disabled":false,"rental_uris":{"android":"levelo://app?vid=a7e22e1a-3e8f-41cb-9680-53f44363ce0e","ios":"levelo://app?vid=a7e22e1a-3e8f-41cb-9680-53f44363ce0e"},"vehicle_type_id":"4","last_reported":1718453637,"current_range_meters":31200,"station_id":"ce4bgi92rcd13ifvqb90","pricing_plan_id":"cebpf4jnsgd1na2vs0mg"},{"bike_id":"4710dcbc-45f6-4ac3-9293-1b22c847e57e","system_id":"levelo_inurba_marseille","lat":43.295748,"lon":5.37522,"is_reserved":false,"is_disabled":false,"rental_uris":{"android":"levelo://app?vid=4710dcbc-45f6-4ac3-9293-1b22c847e57e","ios":"levelo://app?vid=4710dcbc-45f6-4ac3-9293-1b22c847e57e"},"vehicle_type_id":"4","last_reported":1718453637,"current_range_meters":21200,"station_id":"ce4bgh92rcd13ifvqb50","pricing_plan_id":"cebpf4jnsgd1na2vs0mg"},{"bike_id":"6af1534f-c832-42e4-81ba-cb7dc171b1cb","system_id":"levelo_inurba_marseille","lat":43.29626,"lon":5.37723,"is_reserved":false,"is_disabled":false,"rental_uris":{"android":"levelo://app?vid=6af1534f-c832-42e4-81ba-cb7dc171b1cb","ios":"levelo://app?vid=6af1534f-c832-42e4-81ba-cb7dc171b1cb"},"vehicle_type_id":"4","last_reported":1718453637,"current_range_meters":12000,"station_id":"ce4bgi92rcd13ifvqb90","pricing_plan_id":"cebpf4jnsgd1na2vs0mg"},{"bike_id":"ff482dea-e7a6-4376-931c-363f7d6ebb56","system_id":"levelo_inurba_marseille","lat":43.296277,"lon":5.377108,"is_reserved":false,"is_disabled":false,"rental_uris":{"android":"levelo://app?vid=ff482dea-e7a6-4376-931c-363f7d6ebb56","ios":"levelo://app?vid=ff482dea-e7a6-4376-931c-363f7d6ebb56"},"vehicle_type_id":"4","last_reported":1718453637,"current_range_meters":13200,"station_id":"ce4bgi92rcd13ifvqb90","pricing_plan_id":"cebpf4jnsgd1na2vs0mg"},{"bike_id":"f49ec123-0862-4524-b158-5c24d0f65f6e","system_id":"levelo_inurba_marseille","lat":43.296277,"lon":5.377108,"is_reserved":false,"is_disabled":false,"rental_uris":{"android":"levelo://app?vid=f49ec123-0862-4524-b158-5c24d0f65f6e","ios":"levelo://app?vid=f49ec123-0862-4524-b158-5c24d0f65f6e"},"vehicle_type_id":"4","last_reported":1718453637,"current_range_meters":15200,"station_id":"ce4bgi92rcd13ifvqb90","pricing_plan_id":"cebpf4jnsgd1na2vs0mg"},{"bike_id":"0cccd927-7b7c-4055-850c-cb2750e3aa45","system_id":"levelo_inurba_marseille","lat":43.296263,"lon":5.377094,"is_reserved":false,"is_disabled":false,"rental_uris":{"android":"levelo://app?vid=0cccd927-7b7c-4055-850c-cb2750e3aa45","ios":"levelo://app?vid=0cccd927-7b7c-4055-850c-cb2750e3aa45"},"vehicle_type_id":"4","last_reported":1718453637,"current_range_meters":4000,"station_id":"ce4bgi92rcd13ifvqb90","pricing_plan_id":"cebpf4jnsgd1na2vs0mg"},{"bike_id":"5e16426a-5d9e-4c07-aa22-9904c5acf664","system_id":"levelo_inurba_marseille","lat":43.296277,"lon":5.377108,"is_reserved":false,"is_disabled":false,"rental_uris":{"android":"levelo://app?vid=5e16426a-5d9e-4c07-aa22-9904c5acf664","ios":"levelo://app?vid=5e16426a-5d9e-4c07-aa22-9904c5acf664"},"vehicle_type_id":"4","last_reported":1718453637,"current_range_meters":12000,"station_id":"ce4bgi92rcd13ifvqb90","pricing_plan_id":"cebpf4jnsgd1na2vs0mg"},{"bike_id":"2948130b-216a-4e7c-bed4-bb5744650ff0","system_id":"levelo_inurba_marseille","lat":43.296277,"lon":5.377108,"is_reserved":false,"is_disabled":false,"rental_uris":{"android":"levelo://app?vid=2948130b-216a-4e7c-bed4-bb5744650ff0","ios":"levelo://app?vid=2948130b-216a-4e7c-bed4-bb5744650ff0"},"vehicle_type_id":"4","last_reported":1718453637,"current_range_meters":10800,"station_id":"ce4bgi92rcd13ifvqb90","pricing_plan_id":"cebpf4jnsgd1na2vs0mg"},{"bike_id":"97a02770-8a10-4cd1-b44a-7d5e77fd0bb6","system_id":"levelo_inurba_marseille","lat":43.296277,"lon":5.377108,"is_reserved":false,"is_disabled":false,"rental_uris":{"android":"levelo://app?vid=97a02770-8a10-4cd1-b44a-7d5e77fd0bb6","ios":"levelo://app?vid=97a02770-8a10-4cd1-b44a-7d5e77fd0bb6"},"vehicle_type_id":"4","last_reported":1718453637,"current_range_meters":10400,"station_id":"ce4bgi92rcd13ifvqb90","pricing_plan_id":"cebpf4jnsgd1na2vs0mg"},{"bike_id":"ac956840-7855-4aa7-8a4b-4e1640a9d798","system_id":"levelo_inurba_marseille","lat":43.296263,"lon":5.377094,"is_reserved":false,"is_disabled":false,"rental_uris":{"android":"levelo://app?vid=ac956840-7855-4aa7-8a4b-4e1640a9d798","ios":"levelo://app?vid=ac956840-7855-4aa7-8a4b-4e1640a9d798"},"vehicle_type_id":"4","last_reported":1718453637,"current_range_meters":15200,"station_id":"ce4bgi92rcd13ifvqb90","pricing_plan_id":"cebpf4jnsgd1na2vs0mg"},{"bike_id":"cdf12eb7-360f-45a0-8e2f-e97fb79284f0","system_id":"levelo_inurba_marseille","lat":43.295279,"lon":5.375048,"is_reserved":false,"is_disabled":false,"rental_uris":{"android":"levelo://app?vid=cdf12eb7-360f-45a0-8e2f-e97fb79284f0","ios":"levelo://app?vid=cdf12eb7-360f-45a0-8e2f-e97fb79284f0"},"vehicle_type_id":"4","last_reported":1718453637,"current_range_meters":800,"station_id":"ce4bgkp2rcd13ifvqbmg","pricing_plan_id":"cebpf4jnsgd1na2vs0mg"},{"bike_id":"4b17f06e-516f-490e-891c-0f72d52a3202","system_id":"levelo_inurba_marseille","lat":43.295279,"lon":5.375048,"is_reserved":false,"is_disabled":false,"rental_uris":{"android":"levelo://app?vid=4b17f06e-516f-490e-891c-0f72d52a3202","ios":"levelo://app?vid=4b17f06e-516f-490e-891c-0f72d52a3202"},"vehicle_type_id":"4","last_reported":1718453637,"current_range_meters":0,"station_id":"ce4bgkp2rcd13ifvqbmg","pricing_plan_id":"cebpf4jnsgd1na2vs0mg"},{"bike_id":"1397e016-cb54-4f77-8cc8-0c9715a113d7","system_id":"levelo_inurba_marseille","lat":43.295279,"lon":5.375048,"is_reserved":false,"is_disabled":false,"rental_uris":{"android":"levelo://app?vid=1397e016-cb54-4f77-8cc8-0c9715a113d7","ios":"levelo://app?vid=1397e016-cb54-4f77-8cc8-0c9715a113d7"},"vehicle_type_id":"4","last_reported":1718453637,"current_range_meters":15200,"station_id":"ce4bgkp2rcd13ifvqbmg","pricing_plan_id":"cebpf4jnsgd1na2vs0mg"},{"bike_id":"c0316ffb-3726-49b7-b9d0-c9c6f47eec86","system_id":"levelo_inurba_marseille","lat":43.295279,"lon":5.375048,"is_reserved":false,"is_disabled":false,"rental_uris":{"android":"levelo://app?vid=c0316ffb-3726-49b7-b9d0-c9c6f47eec86","ios":"levelo://app?vid=c0316ffb-3726-49b7-b9d0-c9c6f47eec86"},"vehicle_type_id":"4","last_reported":1718453637,"current_range_meters":18800,"station_id":"ce4bgkp2rcd13ifvqbmg","pricing_plan_id":"cebpf4jnsgd1na2vs0mg"},{"bike_id":"02517135-f250-42e9-a10f-2b38920722f3","system_id":"levelo_inurba_marseille","lat":43.295279,"lon":5.375048,"is_reserved":false,"is_disabled":false,"rental_uris":{"android":"levelo://app?vid=02517135-f250-42e9-a10f-2b38920722f3","ios":"levelo://app?vid=02517135-f250-42e9-a10f-2b38920722f3"},"vehicle_type_id":"4","last_reported":1718453637,"current_range_meters":6400,"station_id":"ce4bgkp2rcd13ifvqbmg","pricing_plan_id":"cebpf4jnsgd1na2vs0mg"},{"bike_id":"9882b892-ca48-4dfc-9f3e-c8f1106a73e1","system_id":"levelo_inurba_marseille","lat":43.295279,"lon":5.375048,"is_reserved":false,"is_disabled":false,"rental_uris":{"android":"levelo://app?vid=9882b892-ca48-4dfc-9f3e-c8f1106a73e1","ios":"levelo://app?vid=9882b892-ca48-4dfc-9f3e-c8f1106a73e1"},"vehicle_type_id":"4","last_reported":1718453637,"current_range_meters":18000,"station_id":"ce4bgkp2rcd13ifvqbmg","pricing_plan_id":"cebpf4jnsgd1na2vs0mg"},{"bike_id":"6175ddef-3422-4bef-a112-14de9f07669e","system_id":"levelo_inurba_marseille","lat":43.295279,"lon":5.375048,"is_reserved":false,"is_disabled":false,"rental_uris":{"android":"levelo://app?vid=6175ddef-3422-4bef-a112-14de9f07669e","ios":"levelo://app?vid=6175ddef-3422-4bef-a112-14de9f07669e"},"vehicle_type_id":"4","last_reported":1718453637,"current_range_meters":5600,"station_id":"ce4bgkp2rcd13ifvqbmg","pricing_plan_id":"cebpf4jnsgd1na2vs0mg"},{"bike_id":"0ce5ec42-7747-4f05-b200-3966a5c88d1b","system_id":"levelo_inurba_marseille","lat":43.295279,"lon":5.375048,"is_reserved":false,"is_disabled":false,"rental_uris":{"android":"levelo://app?vid=0ce5ec42-7747-4f05-b200-3966a5c88d1b","ios":"levelo://app?vid=0ce5ec42-7747-4f05-b200-3966a5c88d1b"},"vehicle_type_id":"4","last_reported":1718453637,"current_range_meters":22000,"station_id":"ce4bgkp2rcd13ifvqbmg","pricing_plan_id":"cebpf4jnsgd1na2vs0mg"},{"bike_id":"e07bdd8b-0f1a-4e8d-b580-f88a8adef100","system_id":"levelo_inurba_marseille","lat":43.295279,"lon":5.375048,"is_reserved":false,"is_disabled":false,"rental_uris":{"android":"levelo://app?vid=e07bdd8b-0f1a-4e8d-b580-f88a8adef100","ios":"levelo://app?vid=e07bdd8b-0f1a-4e8d-b580-f88a8adef100"},"vehicle_type_id":"4","last_reported":1718453637,"current_range_meters":24800,"station_id":"ce4bgkp2rcd13ifvqbmg","pricing_plan_id":"cebpf4jnsgd1na2vs0mg"},{"bike_id":"6fff5fcb-ea23-4b2f-a19a-88c2d47fdf4c","system_id":"levelo_inurba_marseille","lat":43.299288,"lon":5.385299,"is_reserved":false,"is_disabled":false,"rental_uris":{"android":"levelo://app?vid=6fff5fcb-ea23-4b2f-a19a-88c2d47fdf4c","ios":"levelo://app?vid=6fff5fcb-ea23-4b2f-a19a-88c2d47fdf4c"},"vehicle_type_id":"4","last_reported":1718453637,"current_range_meters":7600,"station_id":"ce4bgkp2rcd13ifvqbmg","pricing_plan_id":"cebpf4jnsgd1na2vs0mg"},{"bike_id":"710902d1-82aa-4e1e-95af-8cbe32030356","system_id":"levelo_inurba_marseille","lat":43.29602,"lon":5.381084,"is_reserved":false,"is_disabled":false,"rental_uris":{"android":"levelo://app?vid=710902d1-82aa-4e1e-95af-8cbe32030356","ios":"levelo://app?vid=710902d1-82aa-4e1e-95af-8cbe32030356"},"vehicle_type_id":"4","last_reported":1718453637,"current_range_meters":19600,"station_id":"ce4bgl12rcd13ifvqbo0","pricing_plan_id":"cebpf4jnsgd1na2vs0mg"},{"bike_id":"27d3fd79-1d9b-4f56-9161-458bf5a8e013","system_id":"levelo_inurba_marseille","lat":43.29602,"lon":5.381084,"is_reserved":false,"is_disabled":false,"rental_uris":{"android":"levelo://app?vid=27d3fd79-1d9b-4f56-9161-458bf5a8e013","ios":"levelo://app?vid=27d3fd79-1d9b-4f56-9161-458bf5a8e013"},"vehicle_type_id":"4","last_reported":1718453637,"current_range_meters":13600,"station_id":"ce4bgl12rcd13ifvqbo0","pricing_plan_id":"cebpf4jnsgd1na2vs0mg"},{"bike_id":"d2a5575f-856f-4899-b4af-89a61b3fd5a2","system_id":"levelo_inurba_marseille","lat":43.293249,"lon":5.371578,"is_reserved":false,"is_disabled":false,"rental_uris":{"android":"levelo://app?vid=d2a5575f-856f-4899-b4af-89a61b3fd5a2","ios":"levelo://app?vid=d2a5575f-856f-4899-b4af-89a61b3fd5a2"},"vehicle_type_id":"4","last_reported":1718453637,"current_range_meters":26400,"station_id":"ce4bgh92rcd13ifvqb40","pricing_plan_id":"cebpf4jnsgd1na2vs0mg"},{"bike_id":"dd04ed6b-4c09-4d71-a2c1-d417b6d4994c","system_id":"levelo_inurba_marseille","lat":43.292749,"lon":5.368398,"is_reserved":false,"is_disabled":false,"rental_uris":{"android":"levelo://app?vid=dd04ed6b-4c09-4d71-a2c1-d417b6d4994c","ios":"levelo://app?vid=dd04ed6b-4c09-4d71-a2c1-d417b6d4994c"},"vehicle_type_id":"4","last_reported":1718453637,"current_range_meters":12400,"station_id":"ce4bhbp2rcd13ifvqesg","pricing_plan_id":"cebpf4jnsgd1na2vs0mg"},{"bike_id":"070cffc8-b28a-46df-be02-b4fd7615894f","system_id":"levelo_inurba_marseille","lat":43.293259,"lon":5.371586,"is_reserved":false,"is_disabled":false,"rental_uris":{"android":"levelo://app?vid=070cffc8-b28a-46df-be02-b4fd7615894f","ios":"levelo://app?vid=070cffc8-b28a-46df-be02-b4fd7615894f"},"vehicle_type_id":"4","last_reported":1718453637,"current_range_meters":24800,"station_id":"ce4bgh92rcd13ifvqb40","pricing_plan_id":"cebpf4jnsgd1na2vs0mg"},{"bike_id":"00e68533-c007-48fd-b73b-a8c7e4fb0c1e","system_id":"levelo_inurba_marseille","lat":43.291671,"lon":5.371575,"is_reserved":false,"is_disabled":false,"rental_uris":{"android":"levelo://app?vid=00e68533-c007-48fd-b73b-a8c7e4fb0c1e","ios":"levelo://app?vid=00e68533-c007-48fd-b73b-a8c7e4fb0c1e"},"vehicle_type_id":"4","last_reported":1718453637,"current_range_meters":21200,"station_id":"ce4bha92rcd13ifvqeh0","pricing_plan_id":"cebpf4jnsgd1na2vs0mg"},{"bike_id":"e9f65188-609a-46cd-8a4b-a85aa1c8d104","system_id":"levelo_inurba_marseille","lat":43.292749,"lon":5.368398,"is_reserved":false,"is_disabled":false,"rental_uris":{"android":"levelo://app?vid=e9f65188-609a-46cd-8a4b-a85aa1c8d104","ios":"levelo://app?vid=e9f65188-609a-46cd-8a4b-a85aa1c8d104"},"vehicle_type_id":"4","last_reported":1718453637,"current_range_meters":4800,"station_id":"ce4bhbp2rcd13ifvqesg","pricing_plan_id":"cebpf4jnsgd1na2vs0mg"},{"bike_id":"0123b5fc-5835-4ce8-97dd-fea662ba6959","system_id":"levelo_inurba_marseille","lat":43.292749,"lon":5.368398,"is_reserved":false,"is_disabled":false,"rental_uris":{"android":"levelo://app?vid=0123b5fc-5835-4ce8-97dd-fea662ba6959","ios":"levelo://app?vid=0123b5fc-5835-4ce8-97dd-fea662ba6959"},"vehicle_type_id":"4","last_reported":1718453637,"current_range_meters":21600,"station_id":"ce4bhbp2rcd13ifvqesg","pricing_plan_id":"cebpf4jnsgd1na2vs0mg"},{"bike_id":"64179c95-4d18-4109-b5f3-1aad994d684f","system_id":"levelo_inurba_marseille","lat":43.29273,"lon":5.36841,"is_reserved":false,"is_disabled":false,"rental_uris":{"android":"levelo://app?vid=64179c95-4d18-4109-b5f3-1aad994d684f","ios":"levelo://app?vid=64179c95-4d18-4109-b5f3-1aad994d684f"},"vehicle_type_id":"4","last_reported":1718453637,"current_range_meters":13600,"station_id":"ce4bhbp2rcd13ifvqesg","pricing_plan_id":"cebpf4jnsgd1na2vs0mg"},{"bike_id":"4d5bebf4-1ad2-461c-a7db-60448e4727d9","system_id":"levelo_inurba_marseille","lat":43.29302,"lon":5.37412,"is_reserved":false,"is_disabled":false,"rental_uris":{"android":"levelo://app?vid=4d5bebf4-1ad2-461c-a7db-60448e4727d9","ios":"levelo://app?vid=4d5bebf4-1ad2-461c-a7db-60448e4727d9"},"vehicle_type_id":"4","last_reported":1718453637,"current_range_meters":26000,"station_id":"ce4bgi12rcd13ifvqb70","pricing_plan_id":"cebpf4jnsgd1na2vs0mg"},{"bike_id":"a96e9c24-0a6a-42cd-ab52-046e3755b71c","system_id":"levelo_inurba_marseille","lat":43.293009,"lon":5.374584,"is_reserved":false,"is_disabled":false,"rental_uris":{"android":"levelo://app?vid=a96e9c24-0a6a-42cd-ab52-046e3755b71c","ios":"levelo://app?vid=a96e9c24-0a6a-42cd-ab52-046e3755b71c"},"vehicle_type_id":"4","last_reported":1718453637,"current_range_meters":19200,"station_id":"ce4bgi12rcd13ifvqb70","pricing_plan_id":"cebpf4jnsgd1na2vs0mg"},{"bike_id":"8efe4190-a6d9-4547-9391-7ca159226be7","system_id":"levelo_inurba_marseille","lat":43.29306,"lon":5.37462,"is_reserved":false,"is_disabled":false,"rental_uris":{"android":"levelo://app?vid=8efe4190-a6d9-4547-9391-7ca159226be7","ios":"levelo://app?vid=8efe4190-a6d9-4547-9391-7ca159226be7"},"vehicle_type_id":"4","last_reported":1718453637,"current_range_meters":30000,"station_id":"ce4bgi12rcd13ifvqb70","pricing_plan_id":"cebpf4jnsgd1na2vs0mg"},{"bike_id":"3241de76-14e3-4db5-8fe1-157641876689","system_id":"levelo_inurba_marseille","lat":43.29306,"lon":5.37464,"is_reserved":false,"is_disabled":false,"rental_uris":{"android":"levelo://app?vid=3241de76-14e3-4db5-8fe1-157641876689","ios":"levelo://app?vid=3241de76-14e3-4db5-8fe1-157641876689"},"vehicle_type_id":"4","last_reported":1718453637,"current_range_meters":18800,"station_id":"ce4bgi12rcd13ifvqb70","pricing_plan_id":"cebpf4jnsgd1na2vs0mg"},{"bike_id":"99527c21-47ca-44d6-ace3-5f3fe8f9602c","system_id":"levelo_inurba_marseille","lat":43.29304,"lon":5.37461,"is_reserved":false,"is_disabled":false,"rental_uris":{"android":"levelo://app?vid=99527c21-47ca-44d6-ace3-5f3fe8f9602c","ios":"levelo://app?vid=99527c21-47ca-44d6-ace3-5f3fe8f9602c"},"vehicle_type_id":"4","last_reported":1718453637,"current_range_meters":7200,"station_id":"ce4bgi12rcd13ifvqb70","pricing_plan_id":"cebpf4jnsgd1na2vs0mg"},{"bike_id":"543dfa91-53b3-46f9-ad39-d10bcf8e71c5","system_id":"levelo_inurba_marseille","lat":43.29299,"lon":5.37456,"is_reserved":false,"is_disabled":false,"rental_uris":{"android":"levelo://app?vid=543dfa91-53b3-46f9-ad39-d10bcf8e71c5","ios":"levelo://app?vid=543dfa91-53b3-46f9-ad39-d10bcf8e71c5"},"vehicle_type_id":"4","last_reported":1718453637,"current_range_meters":2400,"station_id":"ce4bgi12rcd13ifvqb70","pricing_plan_id":"cebpf4jnsgd1na2vs0mg"},{"bike_id":"41425783-895c-4c47-9943-6226f8264cfd","system_id":"levelo_inurba_marseille","lat":43.29298,"lon":5.37454,"is_reserved":false,"is_disabled":false,"rental_uris":{"android":"levelo://app?vid=41425783-895c-4c47-9943-6226f8264cfd","ios":"levelo://app?vid=41425783-895c-4c47-9943-6226f8264cfd"},"vehicle_type_id":"4","last_reported":1718453637,"current_range_meters":20400,"station_id":"ce4bgi12rcd13ifvqb70","pricing_plan_id":"cebpf4jnsgd1na2vs0mg"},{"bike_id":"fc599027-3389-4d68-af95-5d9ef7df45e4","system_id":"levelo_inurba_marseille","lat":43.29296,"lon":5.37455,"is_reserved":false,"is_disabled":false,"rental_uris":{"android":"levelo://app?vid=fc599027-3389-4d68-af95-5d9ef7df45e4","ios":"levelo://app?vid=fc599027-3389-4d68-af95-5d9ef7df45e4"},"vehicle_type_id":"4","last_reported":1718453637,"current_range_meters":0,"station_id":"ce4bgi12rcd13ifvqb70","pricing_plan_id":"cebpf4jnsgd1na2vs0mg"},{"bike_id":"a99774a0-2a84-4b1f-bba3-d625f4adcc2c","system_id":"levelo_inurba_marseille","lat":43.29294,"lon":5.37453,"is_reserved":false,"is_disabled":false,"rental_uris":{"android":"levelo://app?vid=a99774a0-2a84-4b1f-bba3-d625f4adcc2c","ios":"levelo://app?vid=a99774a0-2a84-4b1f-bba3-d625f4adcc2c"},"vehicle_type_id":"4","last_reported":1718453637,"current_range_meters":14800,"station_id":"ce4bgi12rcd13ifvqb70","pricing_plan_id":"cebpf4jnsgd1na2vs0mg"},{"bike_id":"e9fb7b1b-3ceb-4db3-9dd8-08619783fca9","system_id":"levelo_inurba_marseille","lat":43.303002,"lon":5.392142,"is_reserved":false,"is_disabled":false,"rental_uris":{"android":"levelo://app?vid=e9fb7b1b-3ceb-4db3-9dd8-08619783fca9","ios":"levelo://app?vid=e9fb7b1b-3ceb-4db3-9dd8-08619783fca9"},"vehicle_type_id":"4","last_reported":1718453637,"current_range_meters":15600,"station_id":"ce4bgkh2rcd13ifvqbk0","pricing_plan_id":"cebpf4jnsgd1na2vs0mg"},{"bike_id":"9f86854c-b689-42e0-bf36-8791e17d8f98","system_id":"levelo_inurba_marseille","lat":43.302992,"lon":5.392136,"is_reserved":false,"is_disabled":false,"rental_uris":{"android":"levelo://app?vid=9f86854c-b689-42e0-bf36-8791e17d8f98","ios":"levelo://app?vid=9f86854c-b689-42e0-bf36-8791e17d8f98"},"vehicle_type_id":"4","last_reported":1718453637,"current_range_meters":16000,"station_id":"ce4bgkh2rcd13ifvqbk0","pricing_plan_id":"cebpf4jnsgd1na2vs0mg"},{"bike_id":"bd331c2d-f05a-4681-b2c4-9ccbb1105165","system_id":"levelo_inurba_marseille","lat":43.30085,"lon":5.390856,"is_reserved":false,"is_disabled":false,"rental_uris":{"android":"levelo://app?vid=bd331c2d-f05a-4681-b2c4-9ccbb1105165","ios":"levelo://app?vid=bd331c2d-f05a-4681-b2c4-9ccbb1105165"},"vehicle_type_id":"4","last_reported":1718453637,"current_range_meters":21200,"station_id":"ce4bh192rcd13ifvqdb0","pricing_plan_id":"cebpf4jnsgd1na2vs0mg"},{"bike_id":"6d5bdea9-f153-4c27-9273-4f7ad48b6cb4","system_id":"levelo_inurba_marseille","lat":43.2923,"lon":5.36063,"is_reserved":false,"is_disabled":false,"rental_uris":{"android":"levelo://app?vid=6d5bdea9-f153-4c27-9273-4f7ad48b6cb4","ios":"levelo://app?vid=6d5bdea9-f153-4c27-9273-4f7ad48b6cb4"},"vehicle_type_id":"4","last_reported":1718453637,"current_range_meters":0,"station_id":"ce4bhbh2rcd13ifvqeqg","pricing_plan_id":"cebpf4jnsgd1na2vs0mg"},{"bike_id":"eaf89e8b-e5ae-4a5f-a5bf-4adef81d3446","system_id":"levelo_inurba_marseille","lat":43.29228,"lon":5.36073,"is_reserved":false,"is_disabled":false,"rental_uris":{"android":"levelo://app?vid=eaf89e8b-e5ae-4a5f-a5bf-4adef81d3446","ios":"levelo://app?vid=eaf89e8b-e5ae-4a5f-a5bf-4adef81d3446"},"vehicle_type_id":"4","last_reported":1718453637,"current_range_meters":6000,"station_id":"","pricing_plan_id":"cebpf4jnsgd1na2vs0mg"},{"bike_id":"75f36da5-4d98-44a4-8c36-115e6c31a9bf","system_id":"levelo_inurba_marseille","lat":43.292311,"lon":5.360731,"is_reserved":false,"is_disabled":false,"rental_uris":{"android":"levelo://app?vid=75f36da5-4d98-44a4-8c36-115e6c31a9bf","ios":"levelo://app?vid=75f36da5-4d98-44a4-8c36-115e6c31a9bf"},"vehicle_type_id":"4","last_reported":1718453637,"current_range_meters":11200,"station_id":"ce4bhbh2rcd13ifvqeqg","pricing_plan_id":"cebpf4jnsgd1na2vs0mg"},{"bike_id":"5047b3a7-f77a-47bc-9e6a-93a08ee6b8b1","system_id":"levelo_inurba_marseille","lat":43.30104,"lon":5.39095,"is_reserved":false,"is_disabled":false,"rental_uris":{"android":"levelo://app?vid=5047b3a7-f77a-47bc-9e6a-93a08ee6b8b1","ios":"levelo://app?vid=5047b3a7-f77a-47bc-9e6a-93a08ee6b8b1"},"vehicle_type_id":"4","last_reported":1718453637,"current_range_meters":3200,"station_id":"ce4bh192rcd13ifvqdb0","pricing_plan_id":"cebpf4jnsgd1na2vs0mg"},{"bike_id":"591c0049-84aa-4bac-b919-4af21a7f7549","system_id":"levelo_inurba_marseille","lat":43.309047,"lon":5.396551,"is_reserved":false,"is_disabled":false,"rental_uris":{"android":"levelo://app?vid=591c0049-84aa-4bac-b919-4af21a7f7549","ios":"levelo://app?vid=591c0049-84aa-4bac-b919-4af21a7f7549"},"vehicle_type_id":"4","last_reported":1718453637,"current_range_meters":3200,"station_id":"ce4bh012rcd13ifvqcv0","pricing_plan_id":"cebpf4jnsgd1na2vs0mg"},{"bike_id":"b134975c-c227-4fdb-b57d-b025d6ed6960","system_id":"levelo_inurba_marseille","lat":43.309038,"lon":5.396546,"is_reserved":false,"is_disabled":false,"rental_uris":{"android":"levelo://app?vid=b134975c-c227-4fdb-b57d-b025d6ed6960","ios":"levelo://app?vid=b134975c-c227-4fdb-b57d-b025d6ed6960"},"vehicle_type_id":"4","last_reported":1718453637,"current_range_meters":6800,"station_id":"ce4bh012rcd13ifvqcv0","pricing_plan_id":"cebpf4jnsgd1na2vs0mg"},{"bike_id":"ae544c8b-cac6-45e4-a51c-75f0b2d3dc21","system_id":"levelo_inurba_marseille","lat":43.309038,"lon":5.396546,"is_reserved":false,"is_disabled":false,"rental_uris":{"android":"levelo://app?vid=ae544c8b-cac6-45e4-a51c-75f0b2d3dc21","ios":"levelo://app?vid=ae544c8b-cac6-45e4-a51c-75f0b2d3dc21"},"vehicle_type_id":"4","last_reported":1718453637,"current_range_meters":14400,"station_id":"ce4bh012rcd13ifvqcv0","pricing_plan_id":"cebpf4jnsgd1na2vs0mg"},{"bike_id":"f7c7e6d0-2c4d-4b80-a965-b66f8dd96629","system_id":"levelo_inurba_marseille","lat":43.290779,"lon":5.371482,"is_reserved":false,"is_disabled":false,"rental_uris":{"android":"levelo://app?vid=f7c7e6d0-2c4d-4b80-a965-b66f8dd96629","ios":"levelo://app?vid=f7c7e6d0-2c4d-4b80-a965-b66f8dd96629"},"vehicle_type_id":"4","last_reported":1718453637,"current_range_meters":16000,"station_id":"ce4bh5p2rcd13ifvqe4g","pricing_plan_id":"cebpf4jnsgd1na2vs0mg"},{"bike_id":"3665e276-92e9-41c9-800b-43520a83fd78","system_id":"levelo_inurba_marseille","lat":43.290319,"lon":5.375732,"is_reserved":false,"is_disabled":false,"rental_uris":{"android":"levelo://app?vid=3665e276-92e9-41c9-800b-43520a83fd78","ios":"levelo://app?vid=3665e276-92e9-41c9-800b-43520a83fd78"},"vehicle_type_id":"4","last_reported":1718453637,"current_range_meters":27600,"station_id":"ce4bh692rcd13ifvqe90","pricing_plan_id":"cebpf4jnsgd1na2vs0mg"},{"bike_id":"bfcff13b-9377-47da-a056-8a242511cc86","system_id":"levelo_inurba_marseille","lat":43.290327,"lon":5.375711,"is_reserved":false,"is_disabled":false,"rental_uris":{"android":"levelo://app?vid=bfcff13b-9377-47da-a056-8a242511cc86","ios":"levelo://app?vid=bfcff13b-9377-47da-a056-8a242511cc86"},"vehicle_type_id":"4","last_reported":1718453637,"current_range_meters":12400,"station_id":"ce4bh692rcd13ifvqe90","pricing_plan_id":"cebpf4jnsgd1na2vs0mg"},{"bike_id":"f9e9f56b-74e7-472f-8dfe-a20844b3ef62","system_id":"levelo_inurba_marseille","lat":43.290327,"lon":5.375711,"is_reserved":false,"is_disabled":false,"rental_uris":{"android":"levelo://app?vid=f9e9f56b-74e7-472f-8dfe-a20844b3ef62","ios":"levelo://app?vid=f9e9f56b-74e7-472f-8dfe-a20844b3ef62"},"vehicle_type_id":"4","last_reported":1718453637,"current_range_meters":10000,"station_id":"ce4bh692rcd13ifvqe90","pricing_plan_id":"cebpf4jnsgd1na2vs0mg"},{"bike_id":"b860b82c-f950-4c90-9af6-abdc95b77824","system_id":"levelo_inurba_marseille","lat":43.289184,"lon":5.366408,"is_reserved":false,"is_disabled":false,"rental_uris":{"android":"levelo://app?vid=b860b82c-f950-4c90-9af6-abdc95b77824","ios":"levelo://app?vid=b860b82c-f950-4c90-9af6-abdc95b77824"},"vehicle_type_id":"4","last_reported":1718453637,"current_range_meters":31200,"station_id":"ce4bhap2rcd13ifvqek0","pricing_plan_id":"cebpf4jnsgd1na2vs0mg"},{"bike_id":"981bbfc6-4a02-423c-bdb5-26c76946aa99","system_id":"levelo_inurba_marseille","lat":43.289184,"lon":5.366408,"is_reserved":false,"is_disabled":false,"rental_uris":{"android":"levelo://app?vid=981bbfc6-4a02-423c-bdb5-26c76946aa99","ios":"levelo://app?vid=981bbfc6-4a02-423c-bdb5-26c76946aa99"},"vehicle_type_id":"4","last_reported":1718453637,"current_range_meters":0,"station_id":"ce4bhap2rcd13ifvqek0","pricing_plan_id":"cebpf4jnsgd1na2vs0mg"},{"bike_id":"f8233647-9d34-41dc-b787-4ec49bca5b05","system_id":"levelo_inurba_marseille","lat":43.29057,"lon":5.35585,"is_reserved":false,"is_disabled":false,"rental_uris":{"android":"levelo://app?vid=f8233647-9d34-41dc-b787-4ec49bca5b05","ios":"levelo://app?vid=f8233647-9d34-41dc-b787-4ec49bca5b05"},"vehicle_type_id":"4","last_reported":1718453637,"current_range_meters":15600,"station_id":"","pricing_plan_id":"cebpf4jnsgd1na2vs0mg"},{"bike_id":"653dd7a9-d381-4958-8af0-e0e556ddd4e2","system_id":"levelo_inurba_marseille","lat":43.32758,"lon":5.3924,"is_reserved":false,"is_disabled":false,"rental_uris":{"android":"levelo://app?vid=653dd7a9-d381-4958-8af0-e0e556ddd4e2","ios":"levelo://app?vid=653dd7a9-d381-4958-8af0-e0e556ddd4e2"},"vehicle_type_id":"4","last_reported":1718453637,"current_range_meters":5600,"station_id":"","pricing_plan_id":"cebpf4jnsgd1na2vs0mg"},{"bike_id":"16566138-045e-4092-a5d6-64a5290847b4","system_id":"levelo_inurba_marseille","lat":43.290104,"lon":5.356111,"is_reserved":false,"is_disabled":false,"rental_uris":{"android":"levelo://app?vid=16566138-045e-4092-a5d6-64a5290847b4","ios":"levelo://app?vid=16566138-045e-4092-a5d6-64a5290847b4"},"vehicle_type_id":"4","last_reported":1718453637,"current_range_meters":20400,"station_id":"ce4bhb92rcd13ifvqen0","pricing_plan_id":"cebpf4jnsgd1na2vs0mg"},{"bike_id":"1eb9e4cc-3b38-4de5-a3be-c04c3b243010","system_id":"levelo_inurba_marseille","lat":43.290104,"lon":5.356111,"is_reserved":false,"is_disabled":false,"rental_uris":{"android":"levelo://app?vid=1eb9e4cc-3b38-4de5-a3be-c04c3b243010","ios":"levelo://app?vid=1eb9e4cc-3b38-4de5-a3be-c04c3b243010"},"vehicle_type_id":"4","last_reported":1718453637,"current_range_meters":13200,"station_id":"ce4bhb92rcd13ifvqen0","pricing_plan_id":"cebpf4jnsgd1na2vs0mg"},{"bike_id":"043e546a-9387-4026-b607-87bfbceb4659","system_id":"levelo_inurba_marseille","lat":43.290104,"lon":5.356111,"is_reserved":false,"is_disabled":false,"rental_uris":{"android":"levelo://app?vid=043e546a-9387-4026-b607-87bfbceb4659","ios":"levelo://app?vid=043e546a-9387-4026-b607-87bfbceb4659"},"vehicle_type_id":"4","last_reported":1718453637,"current_range_meters":1600,"station_id":"ce4bhb92rcd13ifvqen0","pricing_plan_id":"cebpf4jnsgd1na2vs0mg"},{"bike_id":"175cfe25-c604-4459-b522-e983aee41c44","system_id":"levelo_inurba_marseille","lat":43.290104,"lon":5.356111,"is_reserved":false,"is_disabled":false,"rental_uris":{"android":"levelo://app?vid=175cfe25-c604-4459-b522-e983aee41c44","ios":"levelo://app?vid=175cfe25-c604-4459-b522-e983aee41c44"},"vehicle_type_id":"4","last_reported":1718453637,"current_range_meters":10400,"station_id":"ce4bhb92rcd13ifvqen0","pricing_plan_id":"cebpf4jnsgd1na2vs0mg"},{"bike_id":"a435646d-dca3-4417-935c-e462d9eb70cd","system_id":"levelo_inurba_marseille","lat":43.290103,"lon":5.356114,"is_reserved":false,"is_disabled":false,"rental_uris":{"android":"levelo://app?vid=a435646d-dca3-4417-935c-e462d9eb70cd","ios":"levelo://app?vid=a435646d-dca3-4417-935c-e462d9eb70cd"},"vehicle_type_id":"4","last_reported":1718453637,"current_range_meters":5200,"station_id":"ce4bhb92rcd13ifvqen0","pricing_plan_id":"cebpf4jnsgd1na2vs0mg"},{"bike_id":"c5d34f76-e917-43d9-b11a-99b0b26620fc","system_id":"levelo_inurba_marseille","lat":43.290104,"lon":5.356111,"is_reserved":false,"is_disabled":false,"rental_uris":{"android":"levelo://app?vid=c5d34f76-e917-43d9-b11a-99b0b26620fc","ios":"levelo://app?vid=c5d34f76-e917-43d9-b11a-99b0b26620fc"},"vehicle_type_id":"4","last_reported":1718453637,"current_range_meters":17200,"station_id":"ce4bhb92rcd13ifvqen0","pricing_plan_id":"cebpf4jnsgd1na2vs0mg"},{"bike_id":"348ee65d-8eb9-4386-94fa-6ad8964f838d","system_id":"levelo_inurba_marseille","lat":43.290103,"lon":5.356114,"is_reserved":false,"is_disabled":false,"rental_uris":{"android":"levelo://app?vid=348ee65d-8eb9-4386-94fa-6ad8964f838d","ios":"levelo://app?vid=348ee65d-8eb9-4386-94fa-6ad8964f838d"},"vehicle_type_id":"4","last_reported":1718453637,"current_range_meters":2400,"station_id":"ce4bhb92rcd13ifvqen0","pricing_plan_id":"cebpf4jnsgd1na2vs0mg"},{"bike_id":"b589ee49-5bd1-4c4a-9478-072a45f294b8","system_id":"levelo_inurba_marseille","lat":43.29108,"lon":5.38148,"is_reserved":false,"is_disabled":false,"rental_uris":{"android":"levelo://app?vid=b589ee49-5bd1-4c4a-9478-072a45f294b8","ios":"levelo://app?vid=b589ee49-5bd1-4c4a-9478-072a45f294b8"},"vehicle_type_id":"4","last_reported":1718453637,"current_range_meters":8400,"station_id":"ce4bh512rcd13ifvqe2g","pricing_plan_id":"cebpf4jnsgd1na2vs0mg"},