{"last_updated":1749488978,"ttl":60,"version":"2.2","data":{"bikes":[{"bike_id":"cd95a68c-9b88-4e59-9d11-83ce66caaf4c","system_id":"levelo_inurba_marseille","lat":43.29562,"lon":5.37512,"is_reserved":false,"is_disabled":false,"rental_uris":{"android":"levelo://app?vid=cd95a68c-9b88-4e59-9d11-83ce66caaf4c","ios":"levelo://app?vid=cd95a68c-9b88-4e59-9d11-83ce66caaf4c"},"vehicle_type_id":"4","last_reported":1749488979,"current_range_meters":2800,"station_id":"ce4bgh92rcd13ifvqb50","pricing_plan_id":"cebpf4jnsgd1na2vs0mg"},{"bike_id":"77518126-e0b5-45ea-9445-389eb34c4ee1","system_id":"levelo_inurba_marseille","lat":43.29023,"lon":5.38655,"is_reserved":false,"is_disabled":false,"rental_uris":{"android":"levelo://app?vid=77518126-e0b5-45ea-9445-389eb34c4ee1","ios":"levelo://app?vid=77518126-e0b5-45ea-9445-389eb34c4ee1"},"vehicle_type_id":"4","last_reported":1749488979,"current_range_meters":2800,"station_id":"ce4bh4p2rcd13ifvqe0g","pricing_plan_id":"cebpf4jnsgd1na2vs0mg"},{"bike_id":"ce125979-d084-4305-9038-2c1c2c1daeec","system_id":"levelo_inurba_marseille","lat":43.28274,"lon":5.35081,"is_reserved":false,"is_disabled":false,"rental_uris":{"android":"levelo://app?vid=ce125979-d084-4305-9038-2c1c2c1daeec","ios":"levelo://app?vid=ce125979-d084-4305-9038-2c1c2c1daeec"},"vehicle_type_id":"4","last_reported":1749488979,"current_range_meters":2800,"station_id":"ce4bhbp2rcd13ifvqerg","pricing_plan_id":"cebpf4jnsgd1na2vs0mg"},{"bike_id":"c159e3f1-7e55-496d-bd3f-737335934946","system_id":"levelo_inurba_marseille","lat":43.23209,"lon":5.35546,"is_reserved":false,"is_disabled":false,"rental_uris":{"android":"levelo://app?vid=c159e3f1-7e55-496d-bd3f-737335934946","ios":"levelo://app?vid=c159e3f1-7e55-496d-bd3f-737335934946"},"vehicle_type_id":"4","last_reported":1749488979,"current_range_meters":2800,"station_id":"ce4bhu92rcd13ifvqi70","pricing_plan_id":"cebpf4jnsgd1na2vs0mg"},{"bike_id":"9bc57a42-228f-4121-8e6c-26029eb56397","system_id":"levelo_inurba_marseille","lat":43.28756,"lon":5.3527,"is_reserved":false,"is_disabled":false,"rental_uris":{"android":"levelo://app?vid=9bc57a42-228f-4121-8e6c-26029eb56397","ios":"levelo://app?vid=9bc57a42-228f-4121-8e6c-26029eb56397"},"vehicle_type_id":"4","last_reported":1749488979,"current_range_meters":3200,"station_id":"","pricing_plan_id":"cebpf4jnsgd1na2vs0mg"},{"bike_id":"25b13b76-1c27-4e0f-9b54-3d71467fd342","system_id":"levelo_inurba_marseille","lat":43.27563,"lon":5.38434,"is_reserved":false,"is_disabled":false,"rental_uris":{"android":"levelo://app?vid=25b13b76-1c27-4e0f-9b54-3d71467fd342","ios":"levelo://app?vid=25b13b76-1c27-4e0f-9b54-3d71467fd342"},"vehicle_type_id":"4","last_reported":1749488979,"current_range_meters":3200,"station_id":"ce4bhh92rcd13ifvqfi0","pricing_plan_id":"cebpf4jnsgd1na2vs0mg"},{"bike_id":"edb37134-f8c4-4d47-a89d-93cf511a2fbc","system_id":"levelo_inurba_marseille","lat":43.29422,"lon":5.38612,"is_reserved":false,"is_disabled":true,"rental_uris":{"android":"levelo://app?vid=edb37134-f8c4-4d47-a89d-93cf511a2fbc","ios":"levelo://app?vid=edb37134-f8c4-4d47-a89d-93cf511a2fbc"},"vehicle_type_id":"4","last_reported":1749488979,"current_range_meters":3200,"station_id":"ce4bh2h2rcd13ifvqdh0","pricing_plan_id":"cebpf4jnsgd1na2vs0mg"},{"bike_id":"0e205692-ba16-455d-b184-7fa2f8581f85","system_id":"levelo_inurba_marseille","lat":43.29635,"lon":5.40593,"is_reserved":false,"is_disabled":false,"rental_uris":{"android":"levelo://app?vid=0e205692-ba16-455d-b184-7fa2f8581f85","ios":"levelo://app?vid=0e205692-ba16-455d-b184-7fa2f8581f85"},"vehicle_type_id":"4","last_reported":1749488979,"current_range_meters":3600,"station_id":"ce4bh0h2rcd13ifvqd60","pricing_plan_id":"cebpf4jnsgd1na2vs0mg"},{"bike_id":"b2c0fbea-059d-46d6-8b90-d9a9eb8be871","system_id":"levelo_inurba_marseille","lat":43.30605,"lon":5.37184,"is_reserved":false,"is_disabled":false,"rental_uris":{"android":"levelo://app?vid=b2c0fbea-059d-46d6-8b90-d9a9eb8be871","ios":"levelo://app?vid=b2c0fbea-059d-46d6-8b90-d9a9eb8be871"},"vehicle_type_id":"4","last_reported":1749488979,"current_range_meters":3600,"station_id":"ce4bgqh2rcd13ifvqc4g","pricing_plan_id":"cebpf4jnsgd1na2vs0mg"},{"bike_id":"661c6a28-dd9a-4d92-ba52-5ba6947850d9","system_id":"levelo_inurba_marseille","lat":43.31286,"lon":5.36895,"is_reserved":false,"is_disabled":false,"rental_uris":{"android":"levelo://app?vid=661c6a28-dd9a-4d92-ba52-5ba6947850d9","ios":"levelo://app?vid=661c6a28-dd9a-4d92-ba52-5ba6947850d9"},"vehicle_type_id":"4","last_reported":1749488979,"current_range_meters":3600,"station_id":"ce4bgl92rcd13ifvqbq0","pricing_plan_id":"cebpf4jnsgd1na2vs0mg"},{"bike_id":"713971af-d5e6-46f6-ab3c-9295dfb1da5f","system_id":"levelo_inurba_marseille","lat":43.26482,"lon":5.39238,"is_reserved":false,"is_disabled":false,"rental_uris":{"android":"levelo://app?vid=713971af-d5e6-46f6-ab3c-9295dfb1da5f","ios":"levelo://app?vid=713971af-d5e6-46f6-ab3c-9295dfb1da5f"},"vehicle_type_id":"4","last_reported":1749488979,"current_range_meters":3600,"station_id":"","pricing_plan_id":"cebpf4jnsgd1na2vs0mg"},{"bike_id":"af7b0efc-de38-4083-a33f-47ef554e5de0","system_id":"levelo_inurba_marseille","lat":43.2953,"lon":5.37504,"is_reserved":false,"is_disabled":false,"rental_uris":{"android":"levelo://app?vid=af7b0efc-de38-4083-a33f-47ef554e5de0","ios":"levelo://app?vid=af7b0efc-de38-4083-a33f-47ef554e5de0"},"vehicle_type_id":"4","last_reported":1749488979,"current_range_meters":3600,"station_id":"ce4bgkp2rcd13ifvqbmg","pricing_plan_id":"cebpf4jnsgd1na2vs0mg"},{"bike_id":"13fd9ab4-97cc-4557-ab74-224291369eef","system_id":"levelo_inurba_marseille","lat":43.29675,"lon":5.37285,"is_reserved":false,"is_disabled":false,"rental_uris":{"android":"levelo://app?vid=13fd9ab4-97cc-4557-ab74-224291369eef","ios":"levelo://app?vid=13fd9ab4-97cc-4557-ab74-224291369eef"},"vehicle_type_id":"4","last_reported":1749488979,"current_range_meters":4000,"station_id":"ce4bgk12rcd13ifvqbj0","pricing_plan_id":"cebpf4jnsgd1na2vs0mg"},{"bike_id":"1ea4d901-280f-4050-a043-0b37afe86b03","system_id":"levelo_inurba_marseille","lat":43.21186,"lon":5.35066,"is_reserved":false,"is_disabled":false,"rental_uris":{"android":"levelo://app?vid=1ea4d901-280f-4050-a043-0b37afe86b03","ios":"levelo://app?vid=1ea4d901-280f-4050-a043-0b37afe86b03"},"vehicle_type_id":"4","last_reported":1749488979,"current_range_meters":4000,"station_id":"st_cvj6sg6p6f1abm77japg","pricing_plan_id":"cebpf4jnsgd1na2vs0mg"},{"bike_id":"f129e053-da49-48f7-8b2d-1ce6af40af02","system_id":"levelo_inurba_marseille","lat":43.28863,"lon":5.35842,"is_reserved":false,"is_disabled":false,"rental_uris":{"android":"levelo://app?vid=f129e053-da49-48f7-8b2d-1ce6af40af02","ios":"levelo://app?vid=f129e053-da49-48f7-8b2d-1ce6af40af02"},"vehicle_type_id":"4","last_reported":1749488979,"current_range_meters":4400,"station_id":"ce4bhb12rcd13ifvqem0","pricing_plan_id":"cebpf4jnsgd1na2vs0mg"},{"bike_id":"67d4735d-a812-4e55-90bc-5641f4e35931","system_id":"levelo_inurba_marseille","lat":43.21208,"lon":5.35063,"is_reserved":false,"is_disabled":false,"rental_uris":{"android":"levelo://app?vid=67d4735d-a812-4e55-90bc-5641f4e35931","ios":"levelo://app?vid=67d4735d-a812-4e55-90bc-5641f4e35931"},"vehicle_type_id":"4","last_reported":1749488979,"current_range_meters":4400,"station_id":"st_cvj6sg6p6f1abm77japg","pricing_plan_id":"cebpf4jnsgd1na2vs0mg"},{"bike_id":"c775baf6-8b89-4d93-a5e9-ff00878c65a3","system_id":"levelo_inurba_marseille","lat":43.29719,"lon":5.37704,"is_reserved":false,"is_disabled":false,"rental_uris":{"android":"levelo://app?vid=c775baf6-8b89-4d93-a5e9-ff00878c65a3","ios":"levelo://app?vid=c775baf6-8b89-4d93-a5e9-ff00878c65a3"},"vehicle_type_id":"4","last_reported":1749488979,"current_range_meters":4400,"station_id":"ce4bgkh2rcd13ifvqbl0","pricing_plan_id":"cebpf4jnsgd1na2vs0mg"},{"bike_id":"d7a4f115-e57b-4ba1-8e6d-d14014b54336","system_id":"levelo_inurba_marseille","lat":43.293118,"lon":5.371839,"is_reserved":false,"is_disabled":false,"rental_uris":{"android":"levelo://app?vid=d7a4f115-e57b-4ba1-8e6d-d14014b54336","ios":"levelo://app?vid=d7a4f115-e57b-4ba1-8e6d-d14014b54336"},"vehicle_type_id":"4","last_reported":1749488979,"current_range_meters":4400,"station_id":"ce4bgh92rcd13ifvqb40","pricing_plan_id":"cebpf4jnsgd1na2vs0mg"},{"bike_id":"19b9d581-3680-42d2-9b05-5c990c0fe3c8","system_id":"levelo_inurba_marseille","lat":43.31543,"lon":5.37477,"is_reserved":false,"is_disabled":false,"rental_uris":{"android":"levelo://app?vid=19b9d581-3680-42d2-9b05-5c990c0fe3c8","ios":"levelo://app?vid=19b9d581-3680-42d2-9b05-5c990c0fe3c8"},"vehicle_type_id":"4","last_reported":1749488979,"current_range_meters":4400,"station_id":"","pricing_plan_id":"cebpf4jnsgd1na2vs0mg"},{"bike_id":"cc7ecbae-28ea-4031-a5df-2ea4ab60f6a4","system_id":"levelo_inurba_marseille","lat":43.30133,"lon":5.39862,"is_reserved":false,"is_disabled":false,"rental_uris":{"android":"levelo://app?vid=cc7ecbae-28ea-4031-a5df-2ea4ab60f6a4","ios":"levelo://app?vid=cc7ecbae-28ea-4031-a5df-2ea4ab60f6a4"},"vehicle_type_id":"4","last_reported":1749488979,"current_range_meters":4400,"station_id":"ce4bh0h2rcd13ifvqd40","pricing_plan_id":"cebpf4jnsgd1na2vs0mg"},{"bike_id":"a2d73be7-868a-4600-9834-af16b43b12ad","system_id":"levelo_inurba_marseille","lat":43.24481,"lon":5.42522,"is_reserved":false,"is_disabled":false,"rental_uris":{"android":"levelo://app?vid=a2d73be7-868a-4600-9834-af16b43b12ad","ios":"levelo://app?vid=a2d73be7-868a-4600-9834-af16b43b12ad"},"vehicle_type_id":"4","last_reported":1749488979,"current_range_meters":4800,"station_id":"","pricing_plan_id":"cebpf4jnsgd1na2vs0mg"},{"bike_id":"2504ccef-0384-4334-a4c8-a986d9abfdb8","system_id":"levelo_inurba_marseille","lat":43.26553,"lon":5.39019,"is_reserved":false,"is_disabled":false,"rental_uris":{"android":"levelo://app?vid=2504ccef-0384-4334-a4c8-a986d9abfdb8","ios":"levelo://app?vid=2504ccef-0384-4334-a4c8-a986d9abfdb8"},"vehicle_type_id":"4","last_reported":1749488979,"current_range_meters":4800,"station_id":"ce4bhe12rcd13ifvqf30","pricing_plan_id":"cebpf4jnsgd1na2vs0mg"},{"bike_id":"6369fb18-e729-425c-be17-2b8f5deab506","system_id":"levelo_inurba_marseille","lat":43.29227,"lon":5.36074,"is_reserved":false,"is_disabled":false,"rental_uris":{"android":"levelo://app?vid=6369fb18-e729-425c-be17-2b8f5deab506","ios":"levelo://app?vid=6369fb18-e729-425c-be17-2b8f5deab506"},"vehicle_type_id":"4","last_reported":1749488979,"current_range_meters":4800,"station_id":"ce4bhbh2rcd13ifvqeqg","pricing_plan_id":"cebpf4jnsgd1na2vs0mg"},{"bike_id":"a13a1b7d-a4b6-4468-9d4d-8c43a04477a9","system_id":"levelo_inurba_marseille","lat":43.29576,"lon":5.37528,"is_reserved":false,"is_disabled":false,"rental_uris":{"android":"levelo://app?vid=a13a1b7d-a4b6-4468-9d4d-8c43a04477a9","ios":"levelo://app?vid=a13a1b7d-a4b6-4468-9d4d-8c43a04477a9"},"vehicle_type_id":"4","last_reported":1749488979,"current_range_meters":4800,"station_id":"ce4bgh92rcd13ifvqb50","pricing_plan_id":"cebpf4jnsgd1na2vs0mg"},{"bike_id":"5f453f27-9a31-48de-971a-badf4f4f18b7","system_id":"levelo_inurba_marseille","lat":43.26682,"lon":5.38264,"is_reserved":false,"is_disabled":false,"rental_uris":{"android":"levelo://app?vid=5f453f27-9a31-48de-971a-badf4f4f18b7","ios":"levelo://app?vid=5f453f27-9a31-48de-971a-badf4f4f18b7"},"vehicle_type_id":"4","last_reported":1749488979,"current_range_meters":5600,"station_id":"ce4bhg92rcd13ifvqf90","pricing_plan_id":"cebpf4jnsgd1na2vs0mg"},{"bike_id":"083d84d3-ffee-4a21-8c60-740352b1d374","system_id":"levelo_inurba_marseille","lat":43.29524,"lon":5.39403,"is_reserved":false,"is_disabled":false,"rental_uris":{"android":"levelo://app?vid=083d84d3-ffee-4a21-8c60-740352b1d374","ios":"levelo://app?vid=083d84d3-ffee-4a21-8c60-740352b1d374"},"vehicle_type_id":"4","last_reported":1749488979,"current_range_meters":5600,"station_id":"ce4bh292rcd13ifvqdf0","pricing_plan_id":"cebpf4jnsgd1na2vs0mg"},{"bike_id":"1a70dd71-2592-4658-9ad9-ffaa0c27c9a9","system_id":"levelo_inurba_marseille","lat":43.29568,"lon":5.37525,"is_reserved":false,"is_disabled":false,"rental_uris":{"android":"levelo://app?vid=1a70dd71-2592-4658-9ad9-ffaa0c27c9a9","ios":"levelo://app?vid=1a70dd71-2592-4658-9ad9-ffaa0c27c9a9"},"vehicle_type_id":"4","last_reported":1749488979,"current_range_meters":5600,"station_id":"ce4bgh92rcd13ifvqb50","pricing_plan_id":"cebpf4jnsgd1na2vs0mg"},{"bike_id":"8d8dc954-af65-4912-a5f5-3e4948572b99","system_id":"levelo_inurba_marseille","lat":43.25493,"lon":5.37647,"is_reserved":false,"is_disabled":false,"rental_uris":{"android":"levelo://app?vid=8d8dc954-af65-4912-a5f5-3e4948572b99","ios":"levelo://app?vid=8d8dc954-af65-4912-a5f5-3e4948572b99"},"vehicle_type_id":"4","last_reported":1749488979,"current_range_meters":5600,"station_id":"ce4bhh12rcd13ifvqff0","pricing_plan_id":"cebpf4jnsgd1na2vs0mg"},{"bike_id":"b975e157-4fc3-4e61-aaad-7a45f8aaacc7","system_id":"levelo_inurba_marseille","lat":43.29706,"lon":5.37705,"is_reserved":false,"is_disabled":false,"rental_uris":{"android":"levelo://app?vid=b975e157-4fc3-4e61-aaad-7a45f8aaacc7","ios":"levelo://app?vid=b975e157-4fc3-4e61-aaad-7a45f8aaacc7"},"vehicle_type_id":"4","last_reported":1749488979,"current_range_meters":5600,"station_id":"ce4bgkh2rcd13ifvqbl0","pricing_plan_id":"cebpf4jnsgd1na2vs0mg"},{"bike_id":"47dd8831-9db9-4986-ac4c-3b95f182d3c9","system_id":"levelo_inurba_marseille","lat":43.23191,"lon":5.3555,"is_reserved":false,"is_disabled":false,"rental_uris":{"android":"levelo://app?vid=47dd8831-9db9-4986-ac4c-3b95f182d3c9","ios":"levelo://app?vid=47dd8831-9db9-4986-ac4c-3b95f182d3c9"},"vehicle_type_id":"4","last_reported":1749488979,"current_range_meters":5600,"station_id":"ce4bhu92rcd13ifvqi70","pricing_plan_id":"cebpf4jnsgd1na2vs0mg"},{"bike_id":"31430c8e-27c8-4599-9853-7c121ab041dc","system_id":"levelo_inurba_marseille","lat":43.28613,"lon":5.35093,"is_reserved":false,"is_disabled":false,"rental_uris":{"android":"levelo://app?vid=31430c8e-27c8-4599-9853-7c121ab041dc","ios":"levelo://app?vid=31430c8e-27c8-4599-9853-7c121ab041dc"},"vehicle_type_id":"4","last_reported":1749488979,"current_range_meters":5600,"station_id":"ce4bhch2rcd13ifvqeug","pricing_plan_id":"cebpf4jnsgd1na2vs0mg"},{"bike_id":"36c7141e-2820-4f46-8f63-374b088c3165","system_id":"levelo_inurba_marseille","lat":43.28695,"lon":5.37396,"is_reserved":false,"is_disabled":false,"rental_uris":{"android":"levelo://app?vid=36c7141e-2820-4f46-8f63-374b088c3165","ios":"levelo://app?vid=36c7141e-2820-4f46-8f63-374b088c3165"},"vehicle_type_id":"4","last_reported":1749488979,"current_range_meters":5600,"station_id":"ce4bh3p2rcd13ifvqdq0","pricing_plan_id":"cebpf4jnsgd1na2vs0mg"},{"bike_id":"a61242dd-8369-4520-9963-a504224e1a30","system_id":"levelo_inurba_marseille","lat":43.23187,"lon":5.40733,"is_reserved":false,"is_disabled":false,"rental_uris":{"android":"levelo://app?vid=a61242dd-8369-4520-9963-a504224e1a30","ios":"levelo://app?vid=a61242dd-8369-4520-9963-a504224e1a30"},"vehicle_type_id":"4","last_reported":1749488979,"current_range_meters":6000,"station_id":"","pricing_plan_id":"cebpf4jnsgd1na2vs0mg"},{"bike_id":"68679c61-8da3-4e44-a5e6-7c477dd3601a","system_id":"levelo_inurba_marseille","lat":43.2481,"lon":5.37457,"is_reserved":false,"is_disabled":false,"rental_uris":{"android":"levelo://app?vid=68679c61-8da3-4e44-a5e6-7c477dd3601a","ios":"levelo://app?vid=68679c61-8da3-4e44-a5e6-7c477dd3601a"},"vehicle_type_id":"4","last_reported":1749488979,"current_range_meters":6400,"station_id":"ce4bhgh2rcd13ifvqfb0","pricing_plan_id":"cebpf4jnsgd1na2vs0mg"},{"bike_id":"994fbbd1-7b7a-4973-8b72-780a5cbeda75","system_id":"levelo_inurba_marseille","lat":43.28971,"lon":5.37828,"is_reserved":false,"is_disabled":true,"rental_uris":{"android":"levelo://app?vid=994fbbd1-7b7a-4973-8b72-780a5cbeda75","ios":"levelo://app?vid=994fbbd1-7b7a-4973-8b72-780a5cbeda75"},"vehicle_type_id":"4","last_reported":1749488979,"current_range_meters":6400,"station_id":"ce4bh9p2rcd13ifvqed0","pricing_plan_id":"cebpf4jnsgd1na2vs0mg"},{"bike_id":"e9465b73-c7ee-496c-af6b-db74e8d4fd9a","system_id":"levelo_inurba_marseille","lat":43.29228,"lon":5.36072,"is_reserved":false,"is_disabled":false,"rental_uris":{"android":"levelo://app?vid=e9465b73-c7ee-496c-af6b-db74e8d4fd9a","ios":"levelo://app?vid=e9465b73-c7ee-496c-af6b-db74e8d4fd9a"},"vehicle_type_id":"4","last_reported":1749488979,"current_range_meters":6400,"station_id":"ce4bhbh2rcd13ifvqeqg","pricing_plan_id":"cebpf4jnsgd1na2vs0mg"},{"bike_id":"d6a7e6ad-ebf0-4ece-93c4-b0dc94544297","system_id":"levelo_inurba_marseille","lat":43.26682,"lon":5.38266,"is_reserved":false,"is_disabled":false,"rental_uris":{"android":"levelo://app?vid=d6a7e6ad-ebf0-4ece-93c4-b0dc94544297","ios":"levelo://app?vid=d6a7e6ad-ebf0-4ece-93c4-b0dc94544297"},"vehicle_type_id":"4","last_reported":1749488979,"current_range_meters":6800,"station_id":"ce4bhg92rcd13ifvqf90","pricing_plan_id":"cebpf4jnsgd1na2vs0mg"},{"bike_id":"83f61f29-3f1a-4872-90f0-542ff24c23f2","system_id":"levelo_inurba_marseille","lat":43.26786,"lon":5.39418,"is_reserved":false,"is_disabled":false,"rental_uris":{"android":"levelo://app?vid=83f61f29-3f1a-4872-90f0-542ff24c23f2","ios":"levelo://app?vid=83f61f29-3f1a-4872-90f0-542ff24c23f2"},"vehicle_type_id":"4","last_reported":1749488979,"current_range_meters":6800,"station_id":"ce4bhh12rcd13ifvqfg0","pricing_plan_id":"cebpf4jnsgd1na2vs0mg"},{"bike_id":"d425de15-1bd7-4abd-8abe-aa1ae0db838d","system_id":"levelo_inurba_marseille","lat":43.31709,"lon":5.42415,"is_reserved":false,"is_disabled":false,"rental_uris":{"android":"levelo://app?vid=d425de15-1bd7-4abd-8abe-aa1ae0db838d","ios":"levelo://app?vid=d425de15-1bd7-4abd-8abe-aa1ae0db838d"},"vehicle_type_id":"4","last_reported":1749488979,"current_range_meters":6800,"station_id":"ce4bhp92rcd13ifvqhbg","pricing_plan_id":"cebpf4jnsgd1na2vs0mg"},{"bike_id":"d31c524b-694c-4297-aaec-30cbc4a88189","system_id":"levelo_inurba_marseille","lat":43.28658,"lon":5.36353,"is_reserved":false,"is_disabled":true,"rental_uris":{"android":"levelo://app?vid=d31c524b-694c-4297-aaec-30cbc4a88189","ios":"levelo://app?vid=d31c524b-694c-4297-aaec-30cbc4a88189"},"vehicle_type_id":"4","last_reported":1749488979,"current_range_meters":6800,"station_id":"ce4bhah2rcd13ifvqej0","pricing_plan_id":"cebpf4jnsgd1na2vs0mg"},{"bike_id":"4c4d3614-2c30-4c33-be0a-0a290259caf9","system_id":"levelo_inurba_marseille","lat":43.29526,"lon":5.37498,"is_reserved":false,"is_disabled":false,"rental_uris":{"android":"levelo://app?vid=4c4d3614-2c30-4c33-be0a-0a290259caf9","ios":"levelo://app?vid=4c4d3614-2c30-4c33-be0a-0a290259caf9"},"vehicle_type_id":"4","last_reported":1749488979,"current_range_meters":6800,"station_id":"ce4bgkp2rcd13ifvqbmg","pricing_plan_id":"cebpf4jnsgd1na2vs0mg"},{"bike_id":"71858de6-7558-4794-94a1-54b03f630654","system_id":"levelo_inurba_marseille","lat":43.32355,"lon":5.36976,"is_reserved":false,"is_disabled":false,"rental_uris":{"android":"levelo://app?vid=71858de6-7558-4794-94a1-54b03f630654","ios":"levelo://app?vid=71858de6-7558-4794-94a1-54b03f630654"},"vehicle_type_id":"4","last_reported":1749488979,"current_range_meters":7200,"station_id":"","pricing_plan_id":"cebpf4jnsgd1na2vs0mg"},{"bike_id":"a34aa760-19cf-4750-9133-b676aeeef362","system_id":"levelo_inurba_marseille","lat":43.295209,"lon":5.37501,"is_reserved":false,"is_disabled":true,"rental_uris":{"android":"levelo://app?vid=a34aa760-19cf-4750-9133-b676aeeef362","ios":"levelo://app?vid=a34aa760-19cf-4750-9133-b676aeeef362"},"vehicle_type_id":"4","last_reported":1749488979,"current_range_meters":7200,"station_id":"ce4bgkp2rcd13ifvqbmg","pricing_plan_id":"cebpf4jnsgd1na2vs0mg"},{"bike_id":"26b898cc-11a0-4c85-a890-8a9bb099fecf","system_id":"levelo_inurba_marseille","lat":43.32304,"lon":5.38268,"is_reserved":false,"is_disabled":false,"rental_uris":{"android":"levelo://app?vid=26b898cc-11a0-4c85-a890-8a9bb099fecf","ios":"levelo://app?vid=26b898cc-11a0-4c85-a890-8a9bb099fecf"},"vehicle_type_id":"4","last_reported":1749488979,"current_range_meters":7200,"station_id":"ce4bhr12rcd13ifvqhqg","pricing_plan_id":"cebpf4jnsgd1na2vs0mg"},{"bike_id":"d0201705-0ba8-4d93-8a59-145182a58683","system_id":"levelo_inurba_marseille","lat":43.29588,"lon":5.37491,"is_reserved":false,"is_disabled":false,"rental_uris":{"android":"levelo://app?vid=d0201705-0ba8-4d93-8a59-145182a58683","ios":"levelo://app?vid=d0201705-0ba8-4d93-8a59-145182a58683"},"vehicle_type_id":"4","last_reported":1749488979,"current_range_meters":7200,"station_id":"ce4bgh92rcd13ifvqb50","pricing_plan_id":"cebpf4jnsgd1na2vs0mg"},{"bike_id":"7672e6d4-9f83-44b4-971b-61379d26a9a3","system_id":"levelo_inurba_marseille","lat":43.28934,"lon":5.366433,"is_reserved":false,"is_disabled":false,"rental_uris":{"android":"levelo://app?vid=7672e6d4-9f83-44b4-971b-61379d26a9a3","ios":"levelo://app?vid=7672e6d4-9f83-44b4-971b-61379d26a9a3"},"vehicle_type_id":"4","last_reported":1749488979,"current_range_meters":7200,"station_id":"ce4bhap2rcd13ifvqek0","pricing_plan_id":"cebpf4jnsgd1na2vs0mg"},{"bike_id":"d515329d-8945-4f07-8f93-970e687154c7","system_id":"levelo_inurba_marseille","lat":43.34148,"lon":5.40906,"is_reserved":false,"is_disabled":false,"rental_uris":{"android":"levelo://app?vid=d515329d-8945-4f07-8f93-970e687154c7","ios":"levelo://app?vid=d515329d-8945-4f07-8f93-970e687154c7"},"vehicle_type_id":"4","last_reported":1749488979,"current_range_meters":7200,"station_id":"ce4bhqh2rcd13ifvqhlg","pricing_plan_id":"cebpf4jnsgd1na2vs0mg"},{"bike_id":"46ad0958-a2d7-473e-8aeb-a02bfd147679","system_id":"levelo_inurba_marseille","lat":43.23958,"lon":5.36624,"is_reserved":false,"is_disabled":true,"rental_uris":{"android":"levelo://app?vid=46ad0958-a2d7-473e-8aeb-a02bfd147679","ios":"levelo://app?vid=46ad0958-a2d7-473e-8aeb-a02bfd147679"},"vehicle_type_id":"4","last_reported":1749488979,"current_range_meters":7200,"station_id":"ce4bhi12rcd13ifvqfp0","pricing_plan_id":"cebpf4jnsgd1na2vs0mg"},{"bike_id":"7ad9af31-f84f-494d-848a-c7f04e91d9ba","system_id":"levelo_inurba_marseille","lat":43.29613,"lon":5.37707,"is_reserved":false,"is_disabled":false,"rental_uris":{"android":"levelo://app?vid=7ad9af31-f84f-494d-848a-c7f04e91d9ba","ios":"levelo://app?vid=7ad9af31-f84f-494d-848a-c7f04e91d9ba"},"vehicle_type_id":"4","last_reported":1749488979,"current_range_meters":8000,"station_id":"ce4bgi92rcd13ifvqb90","pricing_plan_id":"cebpf4jnsgd1na2vs0mg"},{"bike_id":"a3bc16f3-f521-4258-a602-cf5523dd876f","system_id":"levelo_inurba_marseille","lat":43.29522,"lon":5.37508,"is_reserved":false,"is_disabled":false,"rental_uris":{"android":"levelo://app?vid=a3bc16f3-f521-4258-a602-cf5523dd876f","ios":"levelo://app?vid=a3bc16f3-f521-4258-a602-cf5523dd876f"},"vehicle_type_id":"4","last_reported":1749488979,"current_range_meters":8000,"station_id":"ce4bgkp2rcd13ifvqbmg","pricing_plan_id":"cebpf4jnsgd1na2vs0mg"},{"bike_id":"25f2ba62-2910-48a0-98d4-6a407a15da79","system_id":"levelo_inurba_marseille","lat":43.23064,"lon":5.35492,"is_reserved":false,"is_disabled":false,"rental_uris":{"android":"levelo://app?vid=25f2ba62-2910-48a0-98d4-6a407a15da79","ios":"levelo://app?vid=25f2ba62-2910-48a0-98d4-6a407a15da79"},"vehicle_type_id":"4","last_reported":1749488979,"current_range_meters":8000,"station_id":"cpo3342slgdg3j2ifvpg","pricing_plan_id":"cebpf4jnsgd1na2vs0mg"},{"bike_id":"781bcf50-52ca-4350-bf0f-8071b3b2b128","system_id":"levelo_inurba_marseille","lat":43.2993,"lon":5.43665,"is_reserved":false,"is_disabled":false,"rental_uris":{"android":"levelo://app?vid=781bcf50-52ca-4350-bf0f-8071b3b2b128","ios":"levelo://app?vid=781bcf50-52ca-4350-bf0f-8071b3b2b128"},"vehicle_type_id":"4","last_reported":1749488979,"current_range_meters":8000,"station_id":"","pricing_plan_id":"cebpf4jnsgd1na2vs0mg"},{"bike_id":"32787e23-fecf-49f0-b9c1-431654c35ab3","system_id":"levelo_inurba_marseille","lat":43.29511,"lon":5.375,"is_reserved":false,"is_disabled":false,"rental_uris":{"android":"levelo://app?vid=32787e23-fecf-49f0-b9c1-431654c35ab3","ios":"levelo://app?vid=32787e23-fecf-49f0-b9c1-431654c35ab3"},"vehicle_type_id":"4","last_reported":1749488979,"current_range_meters":8000,"station_id":"ce4bgkp2rcd13ifvqbmg","pricing_plan_id":"cebpf4jnsgd1na2vs0mg"},{"bike_id":"5fc1c957-b1db-4a3e-8052-ad23cd277c97","system_id":"levelo_inurba_marseille","lat":43.29525,"lon":5.39041,"is_reserved":false,"is_disabled":false,"rental_uris":{"android":"levelo://app?vid=5fc1c957-b1db-4a3e-8052-ad23cd277c97","ios":"levelo://app?vid=5fc1c957-b1db-4a3e-8052-ad23cd277c97"},"vehicle_type_id":"4","last_reported":1749488979,"current_range_meters":8400,"station_id":"ce4bh3p2rcd13ifvqdp0","pricing_plan_id":"cebpf4jnsgd1na2vs0mg"},{"bike_id":"6faf94b0-e996-4a4e-b08a-7ad9011694e3","system_id":"levelo_inurba_marseille","lat":43.29269,"lon":5.36839,"is_reserved":false,"is_disabled":false,"rental_uris":{"android":"levelo://app?vid=6faf94b0-e996-4a4e-b08a-7ad9011694e3","ios":"levelo://app?vid=6faf94b0-e996-4a4e-b08a-7ad9011694e3"},"vehicle_type_id":"4","last_reported":1749488979,"current_range_meters":8400,"station_id":"ce4bhbp2rcd13ifvqesg","pricing_plan_id":"cebpf4jnsgd1na2vs0mg"},{"bike_id":"8b4caff4-6ee7-47a5-a64f-5ccaa83c132f","system_id":"levelo_inurba_marseille","lat":43.2953,"lon":5.4252,"is_reserved":false,"is_disabled":false,"rental_uris":{"android":"levelo://app?vid=8b4caff4-6ee7-47a5-a64f-5ccaa83c132f","ios":"levelo://app?vid=8b4caff4-6ee7-47a5-a64f-5ccaa83c132f"},"vehicle_type_id":"4","last_reported":1749488979,"current_range_meters":8400,"station_id":"","pricing_plan_id":"cebpf4jnsgd1na2vs0mg"},{"bike_id":"e77150ea-b131-4c9f-ab20-fa9ed00f5b63","system_id":"levelo_inurba_marseille","lat":43.266811,"lon":5.382727,"is_reserved":false,"is_disabled":false,"rental_uris":{"android":"levelo://app?vid=e77150ea-b131-4c9f-ab20-fa9ed00f5b63","ios":"levelo://app?vid=e77150ea-b131-4c9f-ab20-fa9ed00f5b63"},"vehicle_type_id":"4","last_reported":1749488979,"current_range_meters":8400,"station_id":"ce4bhg92rcd13ifvqf90","pricing_plan_id":"cebpf4jnsgd1na2vs0mg"},{"bike_id":"023747ab-2077-4aac-8034-87f2710700af","system_id":"levelo_inurba_marseille","lat":43.297,"lon":5.37702,"is_reserved":false,"is_disabled":false,"rental_uris":{"android":"levelo://app?vid=023747ab-2077-4aac-8034-87f2710700af","ios":"levelo://app?vid=023747ab-2077-4aac-8034-87f2710700af"},"vehicle_type_id":"4","last_reported":1749488979,"current_range_meters":8400,"station_id":"ce4bgkh2rcd13ifvqbl0","pricing_plan_id":"cebpf4jnsgd1na2vs0mg"},{"bike_id":"2ecefff0-e8d9-4122-b6dc-59c6a437ae26","system_id":"levelo_inurba_marseille","lat":43.29562,"lon":5.37527,"is_reserved":false,"is_disabled":false,"rental_uris":{"android":"levelo://app?vid=2ecefff0-e8d9-4122-b6dc-59c6a437ae26","ios":"levelo://app?vid=2ecefff0-e8d9-4122-b6dc-59c6a437ae26"},"vehicle_type_id":"4","last_reported":1749488979,"current_range_meters":8400,"station_id":"ce4bgh92rcd13ifvqb50","pricing_plan_id":"cebpf4jnsgd1na2vs0mg"},{"bike_id":"1e7acffe-24db-4414-80cd-b1d6a41755a2","system_id":"levelo_inurba_marseille","lat":43.29217,"lon":5.36075,"is_reserved":false,"is_disabled":false,"rental_uris":{"android":"levelo://app?vid=1e7acffe-24db-4414-80cd-b1d6a41755a2","ios":"levelo://app?vid=1e7acffe-24db-4414-80cd-b1d6a41755a2"},"vehicle_type_id":"4","last_reported":1749488979,"current_range_meters":8400,"station_id":"ce4bhbh2rcd13ifvqeqg","pricing_plan_id":"cebpf4jnsgd1na2vs0mg"},{"bike_id":"7388fcb7-25cb-4bb7-b94d-cf4e7e497358","system_id":"levelo_inurba_marseille","lat":43.270713,"lon":5.42277,"is_reserved":false,"is_disabled":false,"rental_uris":{"android":"levelo://app?vid=7388fcb7-25cb-4bb7-b94d-cf4e7e497358","ios":"levelo://app?vid=7388fcb7-25cb-4bb7-b94d-cf4e7e497358"},"vehicle_type_id":"4","last_reported":1749488979,"current_range_meters":8400,"station_id":"ce4bhk92rcd13ifvqgb0","pricing_plan_id":"cebpf4jnsgd1na2vs0mg"},{"bike_id":"89e61be4-479c-4cec-a748-e4051ae578a2","system_id":"levelo_inurba_marseille","lat":43.32345,"lon":5.38923,"is_reserved":false,"is_disabled":false,"rental_uris":{"android":"levelo://app?vid=89e61be4-479c-4cec-a748-e4051ae578a2","ios":"levelo://app?vid=89e61be4-479c-4cec-a748-e4051ae578a2"},"vehicle_type_id":"4","last_reported":1749488979,"current_range_meters":8400,"station_id":"ce4bhqp2rcd13ifvqhog","pricing_plan_id":"cebpf4jnsgd1na2vs0mg"},{"bike_id":"7eedcc0e-33d2-492d-876b-2852803d9891","system_id":"levelo_inurba_marseille","lat":43.26485,"lon":5.3923,"is_reserved":false,"is_disabled":false,"rental_uris":{"android":"levelo://app?vid=7eedcc0e-33d2-492d-876b-2852803d9891","ios":"levelo://app?vid=7eedcc0e-33d2-492d-876b-2852803d9891"},"vehicle_type_id":"4","last_reported":1749488979,"current_range_meters":8400,"station_id":"","pricing_plan_id":"cebpf4jnsgd1na2vs0mg"},{"bike_id":"5478c1b4-4c7d-476f-b8e4-102490ff70cd","system_id":"levelo_inurba_marseille","lat":43.31895,"lon":5.37307,"is_reserved":false,"is_disabled":false,"rental_uris":{"android":"levelo://app?vid=5478c1b4-4c7d-476f-b8e4-102490ff70cd","ios":"levelo://app?vid=5478c1b4-4c7d-476f-b8e4-102490ff70cd"},"vehicle_type_id":"4","last_reported":1749488979,"current_range_meters":8800,"station_id":"","pricing_plan_id":"cebpf4jnsgd1na2vs0mg"},{"bike_id":"11d99533-1239-4522-b0b5-f8a3bff696e7","system_id":"levelo_inurba_marseille","lat":43.30176,"lon":5.42436,"is_reserved":false,"is_disabled":false,"rental_uris":{"android":"levelo://app?vid=11d99533-1239-4522-b0b5-f8a3bff696e7","ios":"levelo://app?vid=11d99533-1239-4522-b0b5-f8a3bff696e7"},"vehicle_type_id":"4","last_reported":1749488979,"current_range_meters":8800,"station_id":"","pricing_plan_id":"cebpf4jnsgd1na2vs0mg"},{"bike_id":"9ab5dcb2-22af-49e2-b2c1-32117ad578dc","system_id":"levelo_inurba_marseille","lat":43.29514,"lon":5.42574,"is_reserved":false,"is_disabled":false,"rental_uris":{"android":"levelo://app?vid=9ab5dcb2-22af-49e2-b2c1-32117ad578dc","ios":"levelo://app?vid=9ab5dcb2-22af-49e2-b2c1-32117ad578dc"},"vehicle_type_id":"4","last_reported":1749488979,"current_range_meters":8800,"station_id":"","pricing_plan_id":"cebpf4jnsgd1na2vs0mg"},{"bike_id":"14643dc4-5f80-4ee1-8b12-d5e670ede0a1","system_id":"levelo_inurba_marseille","lat":43.29885,"lon":5.38897,"is_reserved":false,"is_disabled":false,"rental_uris":{"android":"levelo://app?vid=14643dc4-5f80-4ee1-8b12-d5e670ede0a1","ios":"levelo://app?vid=14643dc4-5f80-4ee1-8b12-d5e670ede0a1"},"vehicle_type_id":"4","last_reported":1749488979,"current_range_meters":8800,"station_id":"ce4bh392rcd13ifvqdl0","pricing_plan_id":"cebpf4jnsgd1na2vs0mg"},{"bike_id":"0f90ef01-a935-46ab-a7f4-38c3f57895c9","system_id":"levelo_inurba_marseille","lat":43.25492,"lon":5.37648,"is_reserved":false,"is_disabled":false,"rental_uris":{"android":"levelo://app?vid=0f90ef01-a935-46ab-a7f4-38c3f57895c9","ios":"levelo://app?vid=0f90ef01-a935-46ab-a7f4-38c3f57895c9"},"vehicle_type_id":"4","last_reported":1749488979,"current_range_meters":8800,"station_id":"ce4bhh12rcd13ifvqff0","pricing_plan_id":"cebpf4jnsgd1na2vs0mg"},{"bike_id":"9d073130-46db-46c4-affb-6564e2de5a50","system_id":"levelo_inurba_marseille","lat":43.32374,"lon":5.38812,"is_reserved":false,"is_disabled":false,"rental_uris":{"android":"levelo://app?vid=9d073130-46db-46c4-affb-6564e2de5a50","ios":"levelo://app?vid=9d073130-46db-46c4-affb-6564e2de5a50"},"vehicle_type_id":"4","last_reported":1749488979,"current_range_meters":8800,"station_id":"","pricing_plan_id":"cebpf4jnsgd1na2vs0mg"},{"bike_id":"fd202778-071d-4bc9-9740-738b2a957959","system_id":"levelo_inurba_marseille","lat":43.29621,"lon":5.37171,"is_reserved":false,"is_disabled":false,"rental_uris":{"android":"levelo://app?vid=fd202778-071d-4bc9-9740-738b2a957959","ios":"levelo://app?vid=fd202778-071d-4bc9-9740-738b2a957959"},"vehicle_type_id":"4","last_reported":1749488979,"current_range_meters":8800,"station_id":"ce4bgnh2rcd13ifvqc0g","pricing_plan_id":"cebpf4jnsgd1na2vs0mg"},{"bike_id":"4a7dd8d8-6f34-40f3-b17b-ffd9c02baa4b","system_id":"levelo_inurba_marseille","lat":43.30418,"lon":5.4129,"is_reserved":false,"is_disabled":false,"rental_uris":{"android":"levelo://app?vid=4a7dd8d8-6f34-40f3-b17b-ffd9c02baa4b","ios":"levelo://app?vid=4a7dd8d8-6f34-40f3-b17b-ffd9c02baa4b"},"vehicle_type_id":"4","last_reported":1749488979,"current_range_meters":8800,"station_id":"ce4bhop2rcd13ifvqh8g","pricing_plan_id":"cebpf4jnsgd1na2vs0mg"},{"bike_id":"ee7a2e6a-3e65-41f6-b8b3-501fb42682dc","system_id":"levelo_inurba_marseille","lat":43.275477,"lon":5.384393,"is_reserved":false,"is_disabled":true,"rental_uris":{"android":"levelo://app?vid=ee7a2e6a-3e65-41f6-b8b3-501fb42682dc","ios":"levelo://app?vid=ee7a2e6a-3e65-41f6-b8b3-501fb42682dc"},"vehicle_type_id":"4","last_reported":1749488979,"current_range_meters":8800,"station_id":"ce4bhh92rcd13ifvqfi0","pricing_plan_id":"cebpf4jnsgd1na2vs0mg"},{"bike_id":"3bb87db6-8022-418f-a4aa-7c455834f81e","system_id":"levelo_inurba_marseille","lat":43.23587,"lon":5.37907,"is_reserved":false,"is_disabled":false,"rental_uris":{"android":"levelo://app?vid=3bb87db6-8022-418f-a4aa-7c455834f81e","ios":"levelo://app?vid=3bb87db6-8022-418f-a4aa-7c455834f81e"},"vehicle_type_id":"4","last_reported":1749488979,"current_range_meters":9200,"station_id":"","pricing_plan_id":"cebpf4jnsgd1na2vs0mg"},{"bike_id":"dd67f108-95bf-4a1e-b619-4bb77e009c5b","system_id":"levelo_inurba_marseille","lat":43.29061,"lon":5.42759,"is_reserved":false,"is_disabled":false,"rental_uris":{"android":"levelo://app?vid=dd67f108-95bf-4a1e-b619-4bb77e009c5b","ios":"levelo://app?vid=dd67f108-95bf-4a1e-b619-4bb77e009c5b"},"vehicle_type_id":"4","last_reported":1749488979,"current_range_meters":9200,"station_id":"","pricing_plan_id":"cebpf4jnsgd1na2vs0mg"},{"bike_id":"2b74abfb-1262-40a3-bda3-f22e67504377","system_id":"levelo_inurba_marseille","lat":43.30457,"lon":5.36872,"is_reserved":false,"is_disabled":false,"rental_uris":{"android":"levelo://app?vid=2b74abfb-1262-40a3-bda3-f22e67504377","ios":"levelo://app?vid=2b74abfb-1262-40a3-bda3-f22e67504377"},"vehicle_type_id":"4","last_reported":1749488979,"current_range_meters":9200,"station_id":"","pricing_plan_id":"cebpf4jnsgd1na2vs0mg"},{"bike_id":"6246825d-02f4-4b98-9ee0-336fe2684f68","system_id":"levelo_inurba_marseille","lat":43.316558,"lon":5.389625,"is_reserved":false,"is_disabled":false,"rental_uris":{"android":"levelo://app?vid=6246825d-02f4-4b98-9ee0-336fe2684f68","ios":"levelo://app?vid=6246825d-02f4-4b98-9ee0-336fe2684f68"},"vehicle_type_id":"4","last_reported":1749488979,"current_range_meters":9200,"station_id":"","pricing_plan_id":"cebpf4jnsgd1na2vs0mg"},{"bike_id":"7101e620-cc76-4028-b91a-a52aa997ec1d","system_id":"levelo_inurba_marseille","lat":43.30624,"lon":5.37355,"is_reserved":false,"is_disabled":false,"rental_uris":{"android":"levelo://app?vid=7101e620-cc76-4028-b91a-a52aa997ec1d","ios":"levelo://app?vid=7101e620-cc76-4028-b91a-a52aa997ec1d"},"vehicle_type_id":"4","last_reported":1749488979,"current_range_meters":9200,"station_id":"","pricing_plan_id":"cebpf4jnsgd1na2vs0mg"},{"bike_id":"fdf3940a-fe8f-49ad-93a5-54b40b8097af","system_id":"levelo_inurba_marseille","lat":43.29979,"lon":5.38492,"is_reserved":false,"is_disabled":false,"rental_uris":{"android":"levelo://app?vid=fdf3940a-fe8f-49ad-93a5-54b40b8097af","ios":"levelo://app?vid=fdf3940a-fe8f-49ad-93a5-54b40b8097af"},"vehicle_type_id":"4","last_reported":1749488979,"current_range_meters":9200,"station_id":"ce4bgj92rcd13ifvqbd0","pricing_plan_id":"cebpf4jnsgd1na2vs0mg"},{"bike_id":"39cdf7ed-89dc-4de2-aafe-6c9905ce3698","system_id":"levelo_inurba_marseille","lat":43.29782,"lon":5.36782,"is_reserved":false,"is_disabled":false,"rental_uris":{"android":"levelo://app?vid=39cdf7ed-89dc-4de2-aafe-6c9905ce3698","ios":"levelo://app?vid=39cdf7ed-89dc-4de2-aafe-6c9905ce3698"},"vehicle_type_id":"4","last_reported":1749488979,"current_range_meters":9600,"station_id":"","pricing_plan_id":"cebpf4jnsgd1na2vs0mg"},{"bike_id":"25a253ad-7ee7-4c2e-bab0-87a81f95e00c","system_id":"levelo_inurba_marseille","lat":43.28402,"lon":5.34993,"is_reserved":false,"is_disabled":true,"rental_uris":{"android":"levelo://app?vid=25a253ad-7ee7-4c2e-bab0-87a81f95e00c","ios":"levelo://app?vid=25a253ad-7ee7-4c2e-bab0-87a81f95e00c"},"vehicle_type_id":"4","last_reported":1749488979,"current_range_meters":9600,"station_id":"ce4bhbh2rcd13ifvqepg","pricing_plan_id":"cebpf4jnsgd1na2vs0mg"},{"bike_id":"087457e2-d061-4041-9702-692b62293993","system_id":"levelo_inurba_marseille","lat":43.296679,"lon":5.379464,"is_reserved":false,"is_disabled":false,"rental_uris":{"android":"levelo://app?vid=087457e2-d061-4041-9702-692b62293993","ios":"levelo://app?vid=087457e2-d061-4041-9702-692b62293993"},"vehicle_type_id":"4","last_reported":1749488979,"current_range_meters":9600,"station_id":"ce4bgi92rcd13ifvqb90","pricing_plan_id":"cebpf4jnsgd1na2vs0mg"},{"bike_id":"127a6583-81fe-45ab-be67-86d289bbba13","system_id":"levelo_inurba_marseille","lat":43.29574,"lon":5.37517,"is_reserved":false,"is_disabled":false,"rental_uris":{"android":"levelo://app?vid=127a6583-81fe-45ab-be67-86d289bbba13","ios":"levelo://app?vid=127a6583-81fe-45ab-be67-86d289bbba13"},"vehicle_type_id":"4","last_reported":1749488979,"current_range_meters":9600,"station_id":"ce4bgh92rcd13ifvqb50","pricing_plan_id":"cebpf4jnsgd1na2vs0mg"},{"bike_id":"cb990818-444e-4c31-908c-0ac881770dbf","system_id":"levelo_inurba_marseille","lat":43.33097,"lon":5.38252,"is_reserved":false,"is_disabled":false,"rental_uris":{"android":"levelo://app?vid=cb990818-444e-4c31-908c-0ac881770dbf","ios":"levelo://app?vid=cb990818-444e-4c31-908c-0ac881770dbf"},"vehicle_type_id":"4","last_reported":1749488979,"current_range_meters":9600,"station_id":"","pricing_plan_id":"cebpf4jnsgd1na2vs0mg"},{"bike_id":"112205fc-97ec-440d-b64f-48d2d80248b9","system_id":"levelo_inurba_marseille","lat":43.26055,"lon":5.39403,"is_reserved":false,"is_disabled":false,"rental_uris":{"android":"levelo://app?vid=112205fc-97ec-440d-b64f-48d2d80248b9","ios":"levelo://app?vid=112205fc-97ec-440d-b64f-48d2d80248b9"},"vehicle_type_id":"4","last_reported":1749488979,"current_range_meters":9200,"station_id":"ce4bhh92rcd13ifvqfj0","pricing_plan_id":"cebpf4jnsgd1na2vs0mg"},{"bike_id":"e9898dc7-42e0-4694-b77d-fc1e20fd6b3f","system_id":"levelo_inurba_marseille","lat":43.3211,"lon":5.36767,"is_reserved":false,"is_disabled":false,"rental_uris":{"android":"levelo://app?vid=e9898dc7-42e0-4694-b77d-fc1e20fd6b3f","ios":"levelo://app?vid=e9898dc7-42e0-4694-b77d-fc1e20fd6b3f"},"vehicle_type_id":"4","last_reported":1749488979,"current_range_meters":9600,"station_id":"ce4bhrh2rcd13ifvqhug","pricing_plan_id":"cebpf4jnsgd1na2vs0mg"},{"bike_id":"7a286b17-17df-491a-a381-1330c2f7a715","system_id":"levelo_inurba_marseille","lat":43.29922,"lon":5.4365,"is_reserved":false,"is_disabled":false,"rental_uris":{"android":"levelo://app?vid=7a286b17-17df-491a-a381-1330c2f7a715","ios":"levelo://app?vid=7a286b17-17df-491a-a381-1330c2f7a715"},"vehicle_type_id":"4","last_reported":1749488979,"current_range_meters":10000,"station_id":"ce4bhpp2rcd13ifvqhfg","pricing_plan_id":"cebpf4jnsgd1na2vs0mg"},{"bike_id":"b08636c0-2a7d-41ca-8db6-04bf35c7450d","system_id":"levelo_inurba_marseille","lat":43.28697,"lon":5.3998,"is_reserved":false,"is_disabled":false,"rental_uris":{"android":"levelo://app?vid=b08636c0-2a7d-41ca-8db6-04bf35c7450d","ios":"levelo://app?vid=b08636c0-2a7d-41ca-8db6-04bf35c7450d"},"vehicle_type_id":"4","last_reported":1749488979,"current_range_meters":10000,"station_id":"ce4bho92rcd13ifvqh3g","pricing_plan_id":"cebpf4jnsgd1na2vs0mg"},{"bike_id":"95d79e5e-4056-477e-b85c-600348f5cea7","system_id":"levelo_inurba_marseille","lat":43.29584,"lon":5.37495,"is_reserved":false,"is_disabled":false,"rental_uris":{"android":"levelo://app?vid=95d79e5e-4056-477e-b85c-600348f5cea7","ios":"levelo://app?vid=95d79e5e-4056-477e-b85c-600348f5cea7"},"vehicle_type_id":"4","last_reported":1749488979,"current_range_meters":10000,"station_id":"ce4bgh92rcd13ifvqb50","pricing_plan_id":"cebpf4jnsgd1na2vs0mg"},{"bike_id":"0badbce2-1d00-45ea-8a28-e6245bc42e4e","system_id":"levelo_inurba_marseille","lat":43.300323,"lon":5.389072,"is_reserved":false,"is_disabled":false,"rental_uris":{"android":"levelo://app?vid=0badbce2-1d00-45ea-8a28-e6245bc42e4e","ios":"levelo://app?vid=0badbce2-1d00-45ea-8a28-e6245bc42e4e"},"vehicle_type_id":"4","last_reported":1749488979,"current_range_meters":10000,"station_id":"ce4bh192rcd13ifvqdb0","pricing_plan_id":"cebpf4jnsgd1na2vs0mg"},{"bike_id":"7b1a23e4-2a0f-4dda-84d1-7608a173fa4b","system_id":"levelo_inurba_marseille","lat":43.29272,"lon":5.36838,"is_reserved":false,"is_disabled":false,"rental_uris":{"android":"levelo://app?vid=7b1a23e4-2a0f-4dda-84d1-7608a173fa4b","ios":"levelo://app?vid=7b1a23e4-2a0f-4dda-84d1-7608a173fa4b"},"vehicle_type_id":"4","last_reported":1749488979,"current_range_meters":10800,"station_id":"ce4bhbp2rcd13ifvqesg","pricing_plan_id":"cebpf4jnsgd1na2vs0mg"},{"bike_id":"01b5269c-2f3c-4721-aa27-24b1da508a62","system_id":"levelo_inurba_marseille","lat":43.29615,"lon":5.3773,"is_reserved":false,"is_disabled":false,"rental_uris":{"android":"levelo://app?vid=01b5269c-2f3c-4721-aa27-24b1da508a62","ios":"levelo://app?vid=01b5269c-2f3c-4721-aa27-24b1da508a62"},"vehicle_type_id":"4","last_reported":1749488979,"current_range_meters":10800,"station_id":"ce4bgi92rcd13ifvqb90","pricing_plan_id":"cebpf4jnsgd1na2vs0mg"},{"bike_id":"6784dac5-7abf-4fe1-b7bd-a840d72eea96","system_id":"levelo_inurba_marseille","lat":43.28408,"lon":5.37525,"is_reserved":false,"is_disabled":false,"rental_uris":{"android":"levelo://app?vid=6784dac5-7abf-4fe1-b7bd-a840d72eea96","ios":"levelo://app?vid=6784dac5-7abf-4fe1-b7bd-a840d72eea96"},"vehicle_type_id":"4","last_reported":1749488979,"current_range_meters":10800,"station_id":"ce4bh412rcd13ifvqds0","pricing_plan_id":"cebpf4jnsgd1na2vs0mg"},{"bike_id":"157faabe-1c39-4525-9165-0e995813703e","system_id":"levelo_inurba_marseille","lat":43.29524,"lon":5.3749,"is_reserved":false,"is_disabled":false,"rental_uris":{"android":"levelo://app?vid=157faabe-1c39-4525-9165-0e995813703e","ios":"levelo://app?vid=157faabe-1c39-4525-9165-0e995813703e"},"vehicle_type_id":"4","last_reported":1749488979,"current_range_meters":10800,"station_id":"ce4bgkp2rcd13ifvqbmg","pricing_plan_id":"cebpf4jnsgd1na2vs0mg"},{"bike_id":"2c441bbf-d288-4d72-9ee1-76e95c230117","system_id":"levelo_inurba_marseille","lat":43.27628,"lon":5.36112,"is_reserved":false,"is_disabled":false,"rental_uris":{"android":"levelo://app?vid=2c441bbf-d288-4d72-9ee1-76e95c230117","ios":"levelo://app?vid=2c441bbf-d288-4d72-9ee1-76e95c230117"},"vehicle_type_id":"4","last_reported":1749488979,"current_range_meters":10800,"station_id":"ce4bgj92rcd13ifvqbe0","pricing_plan_id":"cebpf4jnsgd1na2vs0mg"},{"bike_id":"800dc539-7985-4266-99c7-b03914285a03","system_id":"levelo_inurba_marseille","lat":43.2318,"lon":5.39989,"is_reserved":false,"is_disabled":false,"rental_uris":{"android":"levelo://app?vid=800dc539-7985-4266-99c7-b03914285a03","ios":"levelo://app?vid=800dc539-7985-4266-99c7-b03914285a03"},"vehicle_type_id":"4","last_reported":1749488979,"current_range_meters":10800,"station_id":"ce4bhn12rcd13ifvqgqg","pricing_plan_id":"cebpf4jnsgd1na2vs0mg"},{"bike_id":"80c1ccfd-6670-4819-bec9-d8c0b8cb9de2","system_id":"levelo_inurba_marseille","lat":43.31247,"lon":5.36827,"is_reserved":false,"is_disabled":false,"rental_uris":{"android":"levelo://app?vid=80c1ccfd-6670-4819-bec9-d8c0b8cb9de2","ios":"levelo://app?vid=80c1ccfd-6670-4819-bec9-d8c0b8cb9de2"},"vehicle_type_id":"4","last_reported":1749488979,"current_range_meters":10800,"station_id":"ce4bgl92rcd13ifvqbq0","pricing_plan_id":"cebpf4jnsgd1na2vs0mg"},{"bike_id":"0e4421f5-195e-4921-86ef-ee7498a6ca13","system_id":"levelo_inurba_marseille","lat":43.262031,"lon":5.379344,"is_reserved":false,"is_disabled":false,"rental_uris":{"android":"levelo://app?vid=0e4421f5-195e-4921-86ef-ee7498a6ca13","ios":"levelo://app?vid=0e4421f5-195e-4921-86ef-ee7498a6ca13"},"vehicle_type_id":"4","last_reported":1749488979,"current_range_meters":10800,"station_id":"ce4bhjp2rcd13ifvqg90","pricing_plan_id":"cebpf4jnsgd1na2vs0mg"},{"bike_id":"da14da1f-7442-42b5-98f6-365f4fbd4c56","system_id":"levelo_inurba_marseille","lat":43.31852,"lon":5.38702,"is_reserved":false,"is_disabled":false,"rental_uris":{"android":"levelo://app?vid=da14da1f-7442-42b5-98f6-365f4fbd4c56","ios":"levelo://app?vid=da14da1f-7442-42b5-98f6-365f4fbd4c56"},"vehicle_type_id":"4","last_reported":1749488979,"current_range_meters":10800,"station_id":"","pricing_plan_id":"cebpf4jnsgd1na2vs0mg"},{"bike_id":"e557140f-f8ac-4e16-9896-9cff10f1b45c","system_id":"levelo_inurba_marseille","lat":43.29631,"lon":5.37721,"is_reserved":false,"is_disabled":false,"rental_uris":{"android":"levelo://app?vid=e557140f-f8ac-4e16-9896-9cff10f1b45c","ios":"levelo://app?vid=e557140f-f8ac-4e16-9896-9cff10f1b45c"},"vehicle_type_id":"4","last_reported":1749488979,"current_range_meters":10800,"station_id":"ce4bgi92rcd13ifvqb90","pricing_plan_id":"cebpf4jnsgd1na2vs0mg"},{"bike_id":"62bea32f-b147-4070-b162-523f879a2a9c","system_id":"levelo_inurba_marseille","lat":43.25339,"lon":5.3934,"is_reserved":false,"is_disabled":false,"rental_uris":{"android":"levelo://app?vid=62bea32f-b147-4070-b162-523f879a2a9c","ios":"levelo://app?vid=62bea32f-b147-4070-b162-523f879a2a9c"},"vehicle_type_id":"4","last_reported":1749488979,"current_range_meters":10800,"station_id":"","pricing_plan_id":"cebpf4jnsgd1na2vs0mg"},{"bike_id":"ed323210-f62e-4146-aa99-ff2e90f69f03","system_id":"levelo_inurba_marseille","lat":43.29568,"lon":5.37503,"is_reserved":false,"is_disabled":false,"rental_uris":{"android":"levelo://app?vid=ed323210-f62e-4146-aa99-ff2e90f69f03","ios":"levelo://app?vid=ed323210-f62e-4146-aa99-ff2e90f69f03"},"vehicle_type_id":"4","last_reported":1749488979,"current_range_meters":11200,"station_id":"ce4bgh92rcd13ifvqb50","pricing_plan_id":"cebpf4jnsgd1na2vs0mg"},{"bike_id":"ec6f23f1-4435-4f03-b947-be2326a2502a","system_id":"levelo_inurba_marseille","lat":43.27618,"lon":5.3611,"is_reserved":false,"is_disabled":false,"rental_uris":{"android":"levelo://app?vid=ec6f23f1-4435-4f03-b947-be2326a2502a","ios":"levelo://app?vid=ec6f23f1-4435-4f03-b947-be2326a2502a"},"vehicle_type_id":"4","last_reported":1749488979,"current_range_meters":11200,"station_id":"ce4bgj92rcd13ifvqbe0","pricing_plan_id":"cebpf4jnsgd1na2vs0mg"},{"bike_id":"03aa5204-cd73-49e4-8101-2d02b1fce08c","system_id":"levelo_inurba_marseille","lat":43.29519,"lon":5.37511,"is_reserved":false,"is_disabled":false,"rental_uris":{"android":"levelo://app?vid=03aa5204-cd73-49e4-8101-2d02b1fce08c","ios":"levelo://app?vid=03aa5204-cd73-49e4-8101-2d02b1fce08c"},"vehicle_type_id":"4","last_reported":1749488979,"current_range_meters":11200,"station_id":"ce4bgkp2rcd13ifvqbmg","pricing_plan_id":"cebpf4jnsgd1na2vs0mg"},{"bike_id":"c09b1c1e-6d5b-4a72-8f97-eccd430a9e54","system_id":"levelo_inurba_marseille","lat":43.26677,"lon":5.38264,"is_reserved":false,"is_disabled":false,"rental_uris":{"android":"levelo://app?vid=c09b1c1e-6d5b-4a72-8f97-eccd430a9e54","ios":"levelo://app?vid=c09b1c1e-6d5b-4a72-8f97-eccd430a9e54"},"vehicle_type_id":"4","last_reported":1749488979,"current_range_meters":11200,"station_id":"ce4bhgp2rcd13ifvqfc0","pricing_plan_id":"cebpf4jnsgd1na2vs0mg"},{"bike_id":"898adc08-6852-494f-92e0-a15241901b70","system_id":"levelo_inurba_marseille","lat":43.26217,"lon":5.37545,"is_reserved":false,"is_disabled":false,"rental_uris":{"android":"levelo://app?vid=898adc08-6852-494f-92e0-a15241901b70","ios":"levelo://app?vid=898adc08-6852-494f-92e0-a15241901b70"},"vehicle_type_id":"4","last_reported":1749488979,"current_range_meters":11600,"station_id":"","pricing_plan_id":"cebpf4jnsgd1na2vs0mg"},{"bike_id":"fbb9b34c-7031-4d75-9691-342c610b2101","system_id":"levelo_inurba_marseille","lat":43.28398,"lon":5.36461,"is_reserved":false,"is_disabled":false,"rental_uris":{"android":"levelo://app?vid=fbb9b34c-7031-4d75-9691-342c610b2101","ios":"levelo://app?vid=fbb9b34c-7031-4d75-9691-342c610b2101"},"vehicle_type_id":"4","last_reported":1749488979,"current_range_meters":11600,"station_id":"","pricing_plan_id":"cebpf4jnsgd1na2vs0mg"},{"bike_id":"d0b72d65-79b0-4986-805e-066fa2089486","system_id":"levelo_inurba_marseille","lat":43.231933,"lon":5.355557,"is_reserved":false,"is_disabled":false,"rental_uris":{"android":"levelo://app?vid=d0b72d65-79b0-4986-805e-066fa2089486","ios":"levelo://app?vid=d0b72d65-79b0-4986-805e-066fa2089486"},"vehicle_type_id":"4","last_reported":1749488979,"current_range_meters":11600,"station_id":"ce4bhu92rcd13ifvqi70","pricing_plan_id":"cebpf4jnsgd1na2vs0mg"},{"bike_id":"a8650cfe-a31a-4ec8-a221-8f99bc0f054c","system_id":"levelo_inurba_marseille","lat":43.21194,"lon":5.35071,"is_reserved":false,"is_disabled":false,"rental_uris":{"android":"levelo://app?vid=a8650cfe-a31a-4ec8-a221-8f99bc0f054c","ios":"levelo://app?vid=a8650cfe-a31a-4ec8-a221-8f99bc0f054c"},"vehicle_type_id":"4","last_reported":1749488979,"current_range_meters":11600,"station_id":"st_cvj6sg6p6f1abm77japg","pricing_plan_id":"cebpf4jnsgd1na2vs0mg"},{"bike_id":"67c827d5-f883-4ab9-9708-5c914eb41bb9","system_id":"levelo_inurba_marseille","lat":43.29614,"lon":5.37723,"is_reserved":false,"is_disabled":false,"rental_uris":{"android":"levelo://app?vid=67c827d5-f883-4ab9-9708-5c914eb41bb9","ios":"levelo://app?vid=67c827d5-f883-4ab9-9708-5c914eb41bb9"},"vehicle_type_id":"4","last_reported":1749488979,"current_range_meters":11600,"station_id":"ce4bgi92rcd13ifvqb90","pricing_plan_id":"cebpf4jnsgd1na2vs0mg"},{"bike_id":"6ea40021-080d-481c-adc1-25f6f09df8f7","system_id":"levelo_inurba_marseille","lat":43.25725,"lon":5.41109,"is_reserved":false,"is_disabled":false,"rental_uris":{"android":"levelo://app?vid=6ea40021-080d-481c-adc1-25f6f09df8f7","ios":"levelo://app?vid=6ea40021-080d-481c-adc1-25f6f09df8f7"},"vehicle_type_id":"4","last_reported":1749488979,"current_range_meters":11600,"station_id":"ce4bhkp2rcd13ifvqgd0","pricing_plan_id":"cebpf4jnsgd1na2vs0mg"},{"bike_id":"12fcbdd4-70ad-4634-ab49-07c0dabe8cd7","system_id":"levelo_inurba_marseille","lat":43.2952,"lon":5.37509,"is_reserved":false,"is_disabled":false,"rental_uris":{"android":"levelo://app?vid=12fcbdd4-70ad-4634-ab49-07c0dabe8cd7","ios":"levelo://app?vid=12fcbdd4-70ad-4634-ab49-07c0dabe8cd7"},"vehicle_type_id":"4","last_reported":1749488979,"current_range_meters":11600,"station_id":"ce4bgkp2rcd13ifvqbmg","pricing_plan_id":"cebpf4jnsgd1na2vs0mg"},{"bike_id":"914cdd45-b41c-4e49-bb22-8a5e8762a3e7","system_id":"levelo_inurba_marseille","lat":43.29611,"lon":5.37712,"is_reserved":false,"is_disabled":false,"rental_uris":{"android":"levelo://app?vid=914cdd45-b41c-4e49-bb22-8a5e8762a3e7","ios":"levelo://app?vid=914cdd45-b41c-4e49-bb22-8a5e8762a3e7"},"vehicle_type_id":"4","last_reported":1749488979,"current_range_meters":11600,"station_id":"ce4bgi92rcd13ifvqb90","pricing_plan_id":"cebpf4jnsgd1na2vs0mg"},{"bike_id":"edfb49dd-bc86-4d78-bf06-d5b25f0a9dae","system_id":"levelo_inurba_marseille","lat":43.28855,"lon":5.35854,"is_reserved":false,"is_disabled":false,"rental_uris":{"android":"levelo://app?vid=edfb49dd-bc86-4d78-bf06-d5b25f0a9dae","ios":"levelo://app?vid=edfb49dd-bc86-4d78-bf06-d5b25f0a9dae"},"vehicle_type_id":"4","last_reported":1749488979,"current_range_meters":12000,"station_id":"ce4bhb12rcd13ifvqem0","pricing_plan_id":"cebpf4jnsgd1na2vs0mg"},{"bike_id":"52d5c0a8-6b11-4615-a281-9636deb83f79","system_id":"levelo_inurba_marseille","lat":43.32338,"lon":5.40621,"is_reserved":false,"is_disabled":false,"rental_uris":{"android":"levelo://app?vid=52d5c0a8-6b11-4615-a281-9636deb83f79","ios":"levelo://app?vid=52d5c0a8-6b11-4615-a281-9636deb83f79"},"vehicle_type_id":"4","last_reported":1749488979,"current_range_meters":12000,"station_id":"ce4bhq92rcd13ifvqhjg","pricing_plan_id":"cebpf4jnsgd1na2vs0mg"},{"bike_id":"2f32b755-3ca4-4102-8e33-37fff5e1ff8d","system_id":"levelo_inurba_marseille","lat":43.27163,"lon":5.40211,"is_reserved":false,"is_disabled":false,"rental_uris":{"android":"levelo://app?vid=2f32b755-3ca4-4102-8e33-37fff5e1ff8d","ios":"levelo://app?vid=2f32b755-3ca4-4102-8e33-37fff5e1ff8d"},"vehicle_type_id":"4","last_reported":1749488979,"current_range_meters":12000,"station_id":"","pricing_plan_id":"cebpf4jnsgd1na2vs0mg"},{"bike_id":"5aee6e98-5d72-4a58-8068-559ee9f9703d","system_id":"levelo_inurba_marseille","lat":43.21211,"lon":5.35069,"is_reserved":false,"is_disabled":false,"rental_uris":{"android":"levelo://app?vid=5aee6e98-5d72-4a58-8068-559ee9f9703d","ios":"levelo://app?vid=5aee6e98-5d72-4a58-8068-559ee9f9703d"},"vehicle_type_id":"4","last_reported":1749488979,"current_range_meters":12000,"station_id":"st_cvj6sg6p6f1abm77japg","pricing_plan_id":"cebpf4jnsgd1na2vs0mg"},{"bike_id":"c8c4af1d-070c-484a-a3f7-babd17d99646","system_id":"levelo_inurba_marseille","lat":43.3373,"lon":5.39204,"is_reserved":false,"is_disabled":false,"rental_uris":{"android":"levelo://app?vid=c8c4af1d-070c-484a-a3f7-babd17d99646","ios":"levelo://app?vid=c8c4af1d-070c-484a-a3f7-babd17d99646"},"vehicle_type_id":"4","last_reported":1749488979,"current_range_meters":12000,"station_id":"ce4bhr92rcd13ifvqhsg","pricing_plan_id":"cebpf4jnsgd1na2vs0mg"},{"bike_id":"b79fa85d-9d19-4dde-b3cd-c7dddd2e57f0","system_id":"levelo_inurba_marseille","lat":43.29617,"lon":5.37725,"is_reserved":false,"is_disabled":false,"rental_uris":{"android":"levelo://app?vid=b79fa85d-9d19-4dde-b3cd-c7dddd2e57f0","ios":"levelo://app?vid=b79fa85d-9d19-4dde-b3cd-c7dddd2e57f0"},"vehicle_type_id":"4","last_reported":1749488979,"current_range_meters":12000,"station_id":"ce4bgi92rcd13ifvqb90","pricing_plan_id":"cebpf4jnsgd1na2vs0mg"},{"bike_id":"caf16ba4-f2ed-49ee-8cdf-c084285901a4","system_id":"levelo_inurba_marseille","lat":43.29519,"lon":5.37509,"is_reserved":false,"is_disabled":false,"rental_uris":{"android":"levelo://app?vid=caf16ba4-f2ed-49ee-8cdf-c084285901a4","ios":"levelo://app?vid=caf16ba4-f2ed-49ee-8cdf-c084285901a4"},"vehicle_type_id":"4","last_reported":1749488979,"current_range_meters":12400,"station_id":"ce4bgkp2rcd13ifvqbmg","pricing_plan_id":"cebpf4jnsgd1na2vs0mg"},{"bike_id":"ad6c329c-2135-419b-93d2-3080b8444257","system_id":"levelo_inurba_marseille","lat":43.28343,"lon":5.38104,"is_reserved":false,"is_disabled":true,"rental_uris":{"android":"levelo://app?vid=ad6c329c-2135-419b-93d2-3080b8444257","ios":"levelo://app?vid=ad6c329c-2135-419b-93d2-3080b8444257"},"vehicle_type_id":"4","last_reported":1749488979,"current_range_meters":12400,"station_id":"ce4bh412rcd13ifvqdr0","pricing_plan_id":"cebpf4jnsgd1na2vs0mg"},{"bike_id":"e65900ca-ffc7-450d-bf19-17b57baee6dc","system_id":"levelo_inurba_marseille","lat":43.32339,"lon":5.40604,"is_reserved":false,"is_disabled":false,"rental_uris":{"android":"levelo://app?vid=e65900ca-ffc7-450d-bf19-17b57baee6dc","ios":"levelo://app?vid=e65900ca-ffc7-450d-bf19-17b57baee6dc"},"vehicle_type_id":"4","last_reported":1749488979,"current_range_meters":12400,"station_id":"ce4bhq92rcd13ifvqhjg","pricing_plan_id":"cebpf4jnsgd1na2vs0mg"},{"bike_id":"52e11bbb-a437-4ee9-acbf-b148d56cd568","system_id":"levelo_inurba_marseille","lat":43.24804,"lon":5.37455,"is_reserved":false,"is_disabled":false,"rental_uris":{"android":"levelo://app?vid=52e11bbb-a437-4ee9-acbf-b148d56cd568","ios":"levelo://app?vid=52e11bbb-a437-4ee9-acbf-b148d56cd568"},"vehicle_type_id":"4","last_reported":1749488979,"current_range_meters":12800,"station_id":"ce4bhgh2rcd13ifvqfb0","pricing_plan_id":"cebpf4jnsgd1na2vs0mg"},{"bike_id":"c0be4db1-642d-48fb-bfe8-9c126d5ebcc3","system_id":"levelo_inurba_marseille","lat":43.30925,"lon":5.40143,"is_reserved":false,"is_disabled":false,"rental_uris":{"android":"levelo://app?vid=c0be4db1-642d-48fb-bfe8-9c126d5ebcc3","ios":"levelo://app?vid=c0be4db1-642d-48fb-bfe8-9c126d5ebcc3"},"vehicle_type_id":"4","last_reported":1749488979,"current_range_meters":12800,"station_id":"ce4bgvp2rcd13ifvqct0","pricing_plan_id":"cebpf4jnsgd1na2vs0mg"},{"bike_id":"3e4fc74a-b4a3-4eca-bc2b-5b8ae5bfe555","system_id":"levelo_inurba_marseille","lat":43.29303,"lon":5.37462,"is_reserved":false,"is_disabled":false,"rental_uris":{"android":"levelo://app?vid=3e4fc74a-b4a3-4eca-bc2b-5b8ae5bfe555","ios":"levelo://app?vid=3e4fc74a-b4a3-4eca-bc2b-5b8ae5bfe555"},"vehicle_type_id":"4","last_reported":1749488979,"current_range_meters":12800,"station_id":"ce4bgi12rcd13ifvqb70","pricing_plan_id":"cebpf4jnsgd1na2vs0mg"},{"bike_id":"1e586377-e5cd-4379-a2f0-02b4a6a16d45","system_id":"levelo_inurba_marseille","lat":43.26051,"lon":5.37538,"is_reserved":false,"is_disabled":true,"rental_uris":{"android":"levelo://app?vid=1e586377-e5cd-4379-a2f0-02b4a6a16d45","ios":"levelo://app?vid=1e586377-e5cd-4379-a2f0-02b4a6a16d45"},"vehicle_type_id":"4","last_reported":1749488979,"current_range_meters":12800,"station_id":"ce4bhgh2rcd13ifvqfa0","pricing_plan_id":"cebpf4jnsgd1na2vs0mg"},{"bike_id":"267dd6fd-b35a-4fec-adfd-1956937a8702","system_id":"levelo_inurba_marseille","lat":43.28838,"lon":5.35885,"is_reserved":false,"is_disabled":false,"rental_uris":{"android":"levelo://app?vid=267dd6fd-b35a-4fec-adfd-1956937a8702","ios":"levelo://app?vid=267dd6fd-b35a-4fec-adfd-1956937a8702"},"vehicle_type_id":"4","last_reported":1749488979,"current_range_meters":12800,"station_id":"ce4bhb12rcd13ifvqem0","pricing_plan_id":"cebpf4jnsgd1na2vs0mg"},{"bike_id":"3b365583-f8ad-4a22-8db0-7a4456b4bb9f","system_id":"levelo_inurba_marseille","lat":43.30414,"lon":5.4129,"is_reserved":false,"is_disabled":false,"rental_uris":{"android":"levelo://app?vid=3b365583-f8ad-4a22-8db0-7a4456b4bb9f","ios":"levelo://app?vid=3b365583-f8ad-4a22-8db0-7a4456b4bb9f"},"vehicle_type_id":"4","last_reported":1749488979,"current_range_meters":12800,"station_id":"ce4bhop2rcd13ifvqh8g","pricing_plan_id":"cebpf4jnsgd1na2vs0mg"},{"bike_id":"cf031b2a-64a8-4dce-801e-4c04b55514ef","system_id":"levelo_inurba_marseille","lat":43.29554,"lon":5.375,"is_reserved":false,"is_disabled":false,"rental_uris":{"android":"levelo://app?vid=cf031b2a-64a8-4dce-801e-4c04b55514ef","ios":"levelo://app?vid=cf031b2a-64a8-4dce-801e-4c04b55514ef"},"vehicle_type_id":"4","last_reported":1749488979,"current_range_meters":13600,"station_id":"ce4bgh92rcd13ifvqb50","pricing_plan_id":"cebpf4jnsgd1na2vs0mg"},{"bike_id":"d9c4fd3e-d3c9-4356-a9fe-ae28c4aeaaec","system_id":"levelo_inurba_marseille","lat":43.2904,"lon":5.37572,"is_reserved":false,"is_disabled":false,"rental_uris":{"android":"levelo://app?vid=d9c4fd3e-d3c9-4356-a9fe-ae28c4aeaaec","ios":"levelo://app?vid=d9c4fd3e-d3c9-4356-a9fe-ae28c4aeaaec"},"vehicle_type_id":"4","last_reported":1749488979,"current_range_meters":13600,"station_id":"ce4bh692rcd13ifvqe90","pricing_plan_id":"cebpf4jnsgd1na2vs0mg"},{"bike_id":"7facd0d3-e088-4a5a-a896-d77e8e818ab6","system_id":"levelo_inurba_marseille","lat":43.29206,"lon":5.36048,"is_reserved":false,"is_disabled":true,"rental_uris":{"android":"levelo://app?vid=7facd0d3-e088-4a5a-a896-d77e8e818ab6","ios":"levelo://app?vid=7facd0d3-e088-4a5a-a896-d77e8e818ab6"},"vehicle_type_id":"4","last_reported":1749488979,"current_range_meters":13600,"station_id":"ce4bhbh2rcd13ifvqeqg","pricing_plan_id":"cebpf4jnsgd1na2vs0mg"},{"bike_id":"5fda9a87-2b68-4421-b415-520c832f56e9","system_id":"levelo_inurba_marseille","lat":43.21191,"lon":5.35053,"is_reserved":false,"is_disabled":false,"rental_uris":{"android":"levelo://app?vid=5fda9a87-2b68-4421-b415-520c832f56e9","ios":"levelo://app?vid=5fda9a87-2b68-4421-b415-520c832f56e9"},"vehicle_type_id":"4","last_reported":1749488979,"current_range_meters":13600,"station_id":"st_cvj6sg6p6f1abm77japg","pricing_plan_id":"cebpf4jnsgd1na2vs0mg"},{"bike_id":"cdae63da-7d0b-4de1-993e-1cba167ce7d3","system_id":"levelo_inurba_marseille","lat":43.29544,"lon":5.37491,"is_reserved":false,"is_disabled":false,"rental_uris":{"android":"levelo://app?vid=cdae63da-7d0b-4de1-993e-1cba167ce7d3","ios":"levelo://app?vid=cdae63da-7d0b-4de1-993e-1cba167ce7d3"},"vehicle_type_id":"4","last_reported":1749488979,"current_range_meters":13600,"station_id":"ce4bgkp2rcd13ifvqbmg","pricing_plan_id":"cebpf4jnsgd1na2vs0mg"},{"bike_id":"38732871-8503-466e-a980-ace2b8f5936b","system_id":"levelo_inurba_marseille","lat":43.2707,"lon":5.42278,"is_reserved":false,"is_disabled":false,"rental_uris":{"android":"levelo://app?vid=38732871-8503-466e-a980-ace2b8f5936b","ios":"levelo://app?vid=38732871-8503-466e-a980-ace2b8f5936b"},"vehicle_type_id":"4","last_reported":1749488979,"current_range_meters":14000,"station_id":"ce4bhk92rcd13ifvqgb0","pricing_plan_id":"cebpf4jnsgd1na2vs0mg"},{"bike_id":"b1428231-f7d0-41b4-82e6-611a90031269","system_id":"levelo_inurba_marseille","lat":43.298852,"lon":5.436554,"is_reserved":false,"is_disabled":false,"rental_uris":{"android":"levelo://app?vid=b1428231-f7d0-41b4-82e6-611a90031269","ios":"levelo://app?vid=b1428231-f7d0-41b4-82e6-611a90031269"},"vehicle_type_id":"4","last_reported":1749488979,"current_range_meters":14000,"station_id":"ce4bhpp2rcd13ifvqhfg","pricing_plan_id":"cebpf4jnsgd1na2vs0mg"},{"bike_id":"3db5acf8-d9a1-45b8-86b3-472a8c6816ff","system_id":"levelo_inurba_marseille","lat":43.26476,"lon":5.39243,"is_reserved":false,"is_disabled":false,"rental_uris":{"android":"levelo://app?vid=3db5acf8-d9a1-45b8-86b3-472a8c6816ff","ios":"levelo://app?vid=3db5acf8-d9a1-45b8-86b3-472a8c6816ff"},"vehicle_type_id":"4","last_reported":1749488979,"current_range_meters":14000,"station_id":"","pricing_plan_id":"cebpf4jnsgd1na2vs0mg"},{"bike_id":"df7ae405-d3d9-4ff7-ad79-afd2828470f6","system_id":"levelo_inurba_marseille","lat":43.22928,"lon":5.35366,"is_reserved":false,"is_disabled":true,"rental_uris":{"android":"levelo://app?vid=df7ae405-d3d9-4ff7-ad79-afd2828470f6","ios":"levelo://app?vid=df7ae405-d3d9-4ff7-ad79-afd2828470f6"},"vehicle_type_id":"4","last_reported":1749488979,"current_range_meters":14000,"station_id":"cpo3532slgdg3j2ikp40","pricing_plan_id":"cebpf4jnsgd1na2vs0mg"},{"bike_id":"299c7c86-485d-4327-ab7a-710380f7f8d6","system_id":"levelo_inurba_marseille","lat":43.31363,"lon":5.38481,"is_reserved":false,"is_disabled":false,"rental_uris":{"android":"levelo://app?vid=299c7c86-485d-4327-ab7a-710380f7f8d6","ios":"levelo://app?vid=299c7c86-485d-4327-ab7a-710380f7f8d6"},"vehicle_type_id":"4","last_reported":1749488979,"current_range_meters":14400,"station_id":"ce4bgt92rcd13ifvqcf0","pricing_plan_id":"cebpf4jnsgd1na2vs0mg"},{"bike_id":"b31ae79a-f22c-4d15-95d3-28c3334c4de4","system_id":"levelo_inurba_marseille","lat":43.29788,"lon":5.39332,"is_reserved":false,"is_disabled":false,"rental_uris":{"android":"levelo://app?vid=b31ae79a-f22c-4d15-95d3-28c3334c4de4","ios":"levelo://app?vid=b31ae79a-f22c-4d15-95d3-28c3334c4de4"},"vehicle_type_id":"4","last_reported":1749488979,"current_range_meters":14400,"station_id":"chh1huq6cuj3fo74tm60","pricing_plan_id":"cebpf4jnsgd1na2vs0mg"},{"bike_id":"48faceba-c918-435b-8450-37309543f608","system_id":"levelo_inurba_marseille","lat":43.251118,"lon":5.39811,"is_reserved":false,"is_disabled":false,"rental_uris":{"android":"levelo://app?vid=48faceba-c918-435b-8450-37309543f608","ios":"levelo://app?vid=48faceba-c918-435b-8450-37309543f608"},"vehicle_type_id":"4","last_reported":1749488979,"current_range_meters":14400,"station_id":"ce4bhn12rcd13ifvqgpg","pricing_plan_id":"cebpf4jnsgd1na2vs0mg"},{"bike_id":"9455d38b-6f8c-4442-87c1-499e849fe884","system_id":"levelo_inurba_marseille","lat":43.28429,"lon":5.34978,"is_reserved":false,"is_disabled":true,"rental_uris":{"android":"levelo://app?vid=9455d38b-6f8c-4442-87c1-499e849fe884","ios":"levelo://app?vid=9455d38b-6f8c-4442-87c1-499e849fe884"},"vehicle_type_id":"4","last_reported":1749488979,"current_range_meters":14400,"station_id":"ce4bhbh2rcd13ifvqepg","pricing_plan_id":"cebpf4jnsgd1na2vs0mg"},{"bike_id":"b53ff0c2-c951-4ac4-9419-e2a17aa6e95f","system_id":"levelo_inurba_marseille","lat":43.25932,"lon":5.40918,"is_reserved":false,"is_disabled":false,"rental_uris":{"android":"levelo://app?vid=b53ff0c2-c951-4ac4-9419-e2a17aa6e95f","ios":"levelo://app?vid=b53ff0c2-c951-4ac4-9419-e2a17aa6e95f"},"vehicle_type_id":"4","last_reported":1749488979,"current_range_meters":14400,"station_id":"ce4bhm92rcd13ifvqglg","pricing_plan_id":"cebpf4jnsgd1na2vs0mg"},{"bike_id":"2f345639-26ee-4207-be81-ef367fba8586","system_id":"levelo_inurba_marseille","lat":43.25113,"lon":5.40324,"is_reserved":false,"is_disabled":false,"rental_uris":{"android":"levelo://app?vid=2f345639-26ee-4207-be81-ef367fba8586","ios":"levelo://app?vid=2f345639-26ee-4207-be81-ef367fba8586"},"vehicle_type_id":"4","last_reported":1749488979,"current_range_meters":14800,"station_id":"ce4bhlh2rcd13ifvqgig","pricing_plan_id":"cebpf4jnsgd1na2vs0mg"},{"bike_id":"495384ad-3bb2-4b87-aab9-41e6b4649afd","system_id":"levelo_inurba_marseille","lat":43.25131,"lon":5.40314,"is_reserved":false,"is_disabled":false,"rental_uris":{"android":"levelo://app?vid=495384ad-3bb2-4b87-aab9-41e6b4649afd","ios":"levelo://app?vid=495384ad-3bb2-4b87-aab9-41e6b4649afd"},"vehicle_type_id":"4","last_reported":1749488979,"current_range_meters":14800,"station_id":"ce4bhlh2rcd13ifvqgig","pricing_plan_id":"cebpf4jnsgd1na2vs0mg"},{"bike_id":"7b70201d-eb69-496e-916d-9d11503fea94","system_id":"levelo_inurba_marseille","lat":43.225049,"lon":5.347874,"is_reserved":false,"is_disabled":false,"rental_uris":{"android":"levelo://app?vid=7b70201d-eb69-496e-916d-9d11503fea94","ios":"levelo://app?vid=7b70201d-eb69-496e-916d-9d11503fea94"},"vehicle_type_id":"4","last_reported":1749488979,"current_range_meters":14800,"station_id":"","pricing_plan_id":"cebpf4jnsgd1na2vs0mg"},{"bike_id":"b2810e58-f0af-48a9-b208-95cfdcce2360","system_id":"levelo_inurba_marseille","lat":43.29262,"lon":5.38445,"is_reserved":false,"is_disabled":false,"rental_uris":{"android":"levelo://app?vid=b2810e58-f0af-48a9-b208-95cfdcce2360","ios":"levelo://app?vid=b2810e58-f0af-48a9-b208-95cfdcce2360"},"vehicle_type_id":"4","last_reported":1749488979,"current_range_meters":14800,"station_id":"ce4bh692rcd13ifvqea0","pricing_plan_id":"cebpf4jnsgd1na2vs0mg"},{"bike_id":"42740611-1fad-4326-b574-5abe783061fa","system_id":"levelo_inurba_marseille","lat":43.294378,"lon":5.397954,"is_reserved":false,"is_disabled":false,"rental_uris":{"android":"levelo://app?vid=42740611-1fad-4326-b574-5abe783061fa","ios":"levelo://app?vid=42740611-1fad-4326-b574-5abe783061fa"},"vehicle_type_id":"4","last_reported":1749488979,"current_range_meters":14800,"station_id":"ce4bh3h2rcd13ifvqdo0","pricing_plan_id":"cebpf4jnsgd1na2vs0mg"},{"bike_id":"88113087-f0bb-4133-ab2a-bbfce1f3d99a","system_id":"levelo_inurba_marseille","lat":43.317322,"lon":5.404731,"is_reserved":false,"is_disabled":true,"rental_uris":{"android":"levelo://app?vid=88113087-f0bb-4133-ab2a-bbfce1f3d99a","ios":"levelo://app?vid=88113087-f0bb-4133-ab2a-bbfce1f3d99a"},"vehicle_type_id":"4","last_reported":1749488979,"current_range_meters":14800,"station_id":"","pricing_plan_id":"cebpf4jnsgd1na2vs0mg"},{"bike_id":"8e317286-d121-41fb-88b8-5b957116b9fe","system_id":"levelo_inurba_marseille","lat":43.21165,"lon":5.35092,"is_reserved":false,"is_disabled":false,"rental_uris":{"android":"levelo://app?vid=8e317286-d121-41fb-88b8-5b957116b9fe","ios":"levelo://app?vid=8e317286-d121-41fb-88b8-5b957116b9fe"},"vehicle_type_id":"4","last_reported":1749488979,"current_range_meters":14800,"station_id":"st_cvj6sg6p6f1abm77japg","pricing_plan_id":"cebpf4jnsgd1na2vs0mg"},{"bike_id":"3b33593f-98f0-4b12-b11c-8ecbf0798666","system_id":"levelo_inurba_marseille","lat":43.27094,"lon":5.39252,"is_reserved":false,"is_disabled":false,"rental_uris":{"android":"levelo://app?vid=3b33593f-98f0-4b12-b11c-8ecbf0798666","ios":"levelo://app?vid=3b33593f-98f0-4b12-b11c-8ecbf0798666"},"vehicle_type_id":"4","last_reported":1749488979,"current_range_meters":14800,"station_id":"","pricing_plan_id":"cebpf4jnsgd1na2vs0mg"},{"bike_id":"543d49f7-43b7-43a5-8c43-d70e1849905c","system_id":"levelo_inurba_marseille","lat":43.28615,"lon":5.35101,"is_reserved":false,"is_disabled":false,"rental_uris":{"android":"levelo://app?vid=543d49f7-43b7-43a5-8c43-d70e1849905c","ios":"levelo://app?vid=543d49f7-43b7-43a5-8c43-d70e1849905c"},"vehicle_type_id":"4","last_reported":1749488979,"current_range_meters":14800,"station_id":"ce4bhch2rcd13ifvqeug","pricing_plan_id":"cebpf4jnsgd1na2vs0mg"},{"bike_id":"00a34ec1-a7d5-42cc-9e3c-b079c9f1ae9f","system_id":"levelo_inurba_marseille","lat":43.289882,"lon":5.366373,"is_reserved":false,"is_disabled":false,"rental_uris":{"android":"levelo://app?vid=00a34ec1-a7d5-42cc-9e3c-b079c9f1ae9f","ios":"levelo://app?vid=00a34ec1-a7d5-42cc-9e3c-b079c9f1ae9f"},"vehicle_type_id":"4","last_reported":1749488979,"current_range_meters":14800,"station_id":"ce4bhap2rcd13ifvqek0","pricing_plan_id":"cebpf4jnsgd1na2vs0mg"},{"bike_id":"7b9bf67a-203e-4f1e-bb14-834f5d6defc0","system_id":"levelo_inurba_marseille","lat":43.31216,"lon":5.36858,"is_reserved":false,"is_disabled":false,"rental_uris":{"android":"levelo://app?vid=7b9bf67a-203e-4f1e-bb14-834f5d6defc0","ios":"levelo://app?vid=7b9bf67a-203e-4f1e-bb14-834f5d6defc0"},"vehicle_type_id":"4","last_reported":1749488979,"current_range_meters":15200,"station_id":"ce4bgl92rcd13ifvqbq0","pricing_plan_id":"cebpf4jnsgd1na2vs0mg"},{"bike_id":"5077581b-cebb-46fc-ba69-4fa8272d4810","system_id":"levelo_inurba_marseille","lat":43.21364,"lon":5.35513,"is_reserved":false,"is_disabled":false,"rental_uris":{"android":"levelo://app?vid=5077581b-cebb-46fc-ba69-4fa8272d4810","ios":"levelo://app?vid=5077581b-cebb-46fc-ba69-4fa8272d4810"},"vehicle_type_id":"4","last_reported":1749488979,"current_range_meters":15200,"station_id":"","pricing_plan_id":"cebpf4jnsgd1na2vs0mg"},{"bike_id":"c9681fb1-b442-4e20-9ad4-2a24e091d61a","system_id":"levelo_inurba_marseille","lat":43.30255,"lon":5.40056,"is_reserved":false,"is_disabled":false,"rental_uris":{"android":"levelo://app?vid=c9681fb1-b442-4e20-9ad4-2a24e091d61a","ios":"levelo://app?vid=c9681fb1-b442-4e20-9ad4-2a24e091d61a"},"vehicle_type_id":"4","last_reported":1749488979,"current_range_meters":15200,"station_id":"ce4bgvh2rcd13ifvqcs0","pricing_plan_id":"cebpf4jnsgd1na2vs0mg"},{"bike_id":"bfe75052-9f1e-4a14-b969-81581c757218","system_id":"levelo_inurba_marseille","lat":43.293109,"lon":5.371822,"is_reserved":false,"is_disabled":false,"rental_uris":{"android":"levelo://app?vid=bfe75052-9f1e-4a14-b969-81581c757218","ios":"levelo://app?vid=bfe75052-9f1e-4a14-b969-81581c757218"},"vehicle_type_id":"4","last_reported":1749488979,"current_range_meters":15200,"station_id":"ce4bgh92rcd13ifvqb40","pricing_plan_id":"cebpf4jnsgd1na2vs0mg"},{"bike_id":"da2da734-7a3f-4bcf-8ec8-5df4a5de383d","system_id":"levelo_inurba_marseille","lat":43.26563,"lon":5.39023,"is_reserved":false,"is_disabled":false,"rental_uris":{"android":"levelo://app?vid=da2da734-7a3f-4bcf-8ec8-5df4a5de383d","ios":"levelo://app?vid=da2da734-7a3f-4bcf-8ec8-5df4a5de383d"},"vehicle_type_id":"4","last_reported":1749488979,"current_range_meters":15200,"station_id":"ce4bhe12rcd13ifvqf30","pricing_plan_id":"cebpf4jnsgd1na2vs0mg"},{"bike_id":"0053f0bd-3481-4f8f-a19e-7dd7a6624507","system_id":"levelo_inurba_marseille","lat":43.29891,"lon":5.43663,"is_reserved":false,"is_disabled":false,"rental_uris":{"android":"levelo://app?vid=0053f0bd-3481-4f8f-a19e-7dd7a6624507","ios":"levelo://app?vid=0053f0bd-3481-4f8f-a19e-7dd7a6624507"},"vehicle_type_id":"4","last_reported":1749488979,"current_range_meters":15200,"station_id":"ce4bhpp2rcd13ifvqhfg","pricing_plan_id":"cebpf4jnsgd1na2vs0mg"},{"bike_id":"074012b6-f687-4d17-9a3e-84bf2a90e995","system_id":"levelo_inurba_marseille","lat":43.24648,"lon":5.389,"is_reserved":false,"is_disabled":false,"rental_uris":{"android":"levelo://app?vid=074012b6-f687-4d17-9a3e-84bf2a90e995","ios":"levelo://app?vid=074012b6-f687-4d17-9a3e-84bf2a90e995"},"vehicle_type_id":"4","last_reported":1749488979,"current_range_meters":15200,"station_id":"ce4bhg12rcd13ifvqf60","pricing_plan_id":"cebpf4jnsgd1na2vs0mg"},{"bike_id":"28f3a5a7-1660-4216-8c3a-3e58f0f129aa","system_id":"levelo_inurba_marseille","lat":43.24183,"lon":5.39732,"is_reserved":false,"is_disabled":false,"rental_uris":{"android":"levelo://app?vid=28f3a5a7-1660-4216-8c3a-3e58f0f129aa","ios":"levelo://app?vid=28f3a5a7-1660-4216-8c3a-3e58f0f129aa"},"vehicle_type_id":"4","last_reported":1749488979,"current_range_meters":15200,"station_id":"ce4bhn12rcd13ifvqgpg","pricing_plan_id":"cebpf4jnsgd1na2vs0mg"},{"bike_id":"6fd4cd93-a409-4da9-ad4b-b6025023458d","system_id":"levelo_inurba_marseille","lat":43.30111,"lon":5.37109,"is_reserved":false,"is_disabled":false,"rental_uris":{"android":"levelo://app?vid=6fd4cd93-a409-4da9-ad4b-b6025023458d","ios":"levelo://app?vid=6fd4cd93-a409-4da9-ad4b-b6025023458d"},"vehicle_type_id":"4","last_reported":1749488979,"current_range_meters":16000,"station_id":"","pricing_plan_id":"cebpf4jnsgd1na2vs0mg"},{"bike_id":"623522e8-4212-4ef0-8a21-ceb0c27bdbe3","system_id":"levelo_inurba_marseille","lat":43.29567,"lon":5.37513,"is_reserved":false,"is_disabled":false,"rental_uris":{"android":"levelo://app?vid=623522e8-4212-4ef0-8a21-ceb0c27bdbe3","ios":"levelo://app?vid=623522e8-4212-4ef0-8a21-ceb0c27bdbe3"},"vehicle_type_id":"4","last_reported":1749488979,"current_range_meters":16000,"station_id":"ce4bgh92rcd13ifvqb50","pricing_plan_id":"cebpf4jnsgd1na2vs0mg"},{"bike_id":"4eada35f-a65e-4d4e-b60d-b88e9a624416","system_id":"levelo_inurba_marseille","lat":43.2439,"lon":5.37058,"is_reserved":false,"is_disabled":true,"rental_uris":{"android":"levelo://app?vid=4eada35f-a65e-4d4e-b60d-b88e9a624416","ios":"levelo://app?vid=4eada35f-a65e-4d4e-b60d-b88e9a624416"},"vehicle_type_id":"4","last_reported":1749488979,"current_range_meters":16000,"station_id":"ce4bhhh2rcd13ifvqfk0","pricing_plan_id":"cebpf4jnsgd1na2vs0mg"},{"bike_id":"a2824cfe-99fd-4677-ab2b-2ca7e09b9260","system_id":"levelo_inurba_marseille","lat":43.32366,"lon":5.36731,"is_reserved":false,"is_disabled":false,"rental_uris":{"android":"levelo://app?vid=a2824cfe-99fd-4677-ab2b-2ca7e09b9260","ios":"levelo://app?vid=a2824cfe-99fd-4677-ab2b-2ca7e09b9260"},"vehicle_type_id":"4","last_reported":1749488979,"current_range_meters":16000,"station_id":"ce4bhsh2rcd13ifvqi2g","pricing_plan_id":"cebpf4jnsgd1na2vs0mg"},{"bike_id":"e5e2ee53-1226-462a-82b9-a66f590d38b2","system_id":"levelo_inurba_marseille","lat":43.26205,"lon":5.37437,"is_reserved":false,"is_disabled":false,"rental_uris":{"android":"levelo://app?vid=e5e2ee53-1226-462a-82b9-a66f590d38b2","ios":"levelo://app?vid=e5e2ee53-1226-462a-82b9-a66f590d38b2"},"vehicle_type_id":"4","last_reported":1749488979,"current_range_meters":16000,"station_id":"ce4bhgp2rcd13ifvqfc0","pricing_plan_id":"cebpf4jnsgd1na2vs0mg"},{"bike_id":"e885c9a5-2145-4fe2-b227-30d4c27a64af","system_id":"levelo_inurba_marseille","lat":43.29184,"lon":5.35795,"is_reserved":false,"is_disabled":false,"rental_uris":{"android":"levelo://app?vid=e885c9a5-2145-4fe2-b227-30d4c27a64af","ios":"levelo://app?vid=e885c9a5-2145-4fe2-b227-30d4c27a64af"},"vehicle_type_id":"4","last_reported":1749488979,"current_range_meters":16000,"station_id":"ce4bhb12rcd13ifvqel0","pricing_plan_id":"cebpf4jnsgd1na2vs0mg"},{"bike_id":"f4d39fe3-afe9-4d85-87f9-457d9f9c136e","system_id":"levelo_inurba_marseille","lat":43.27619,"lon":5.3612,"is_reserved":false,"is_disabled":false,"rental_uris":{"android":"levelo://app?vid=f4d39fe3-afe9-4d85-87f9-457d9f9c136e","ios":"levelo://app?vid=f4d39fe3-afe9-4d85-87f9-457d9f9c136e"},"vehicle_type_id":"4","last_reported":1749488979,"current_range_meters":16000,"station_id":"ce4bgj92rcd13ifvqbe0","pricing_plan_id":"cebpf4jnsgd1na2vs0mg"},{"bike_id":"e1d9ab8a-de6e-4a59-815a-0c6ebde2cf3b","system_id":"levelo_inurba_marseille","lat":43.31741,"lon":5.42403,"is_reserved":false,"is_disabled":false,"rental_uris":{"android":"levelo://app?vid=e1d9ab8a-de6e-4a59-815a-0c6ebde2cf3b","ios":"levelo://app?vid=e1d9ab8a-de6e-4a59-815a-0c6ebde2cf3b"},"vehicle_type_id":"4","last_reported":1749488979,"current_range_meters":16000,"station_id":"ce4bhp92rcd13ifvqhbg","pricing_plan_id":"cebpf4jnsgd1na2vs0mg"},{"bike_id":"09ab4a54-fcd9-43d2-8580-67fcce44fb18","system_id":"levelo_inurba_marseille","lat":43.255864,"lon":5.382378,"is_reserved":false,"is_disabled":false,"rental_uris":{"android":"levelo://app?vid=09ab4a54-fcd9-43d2-8580-67fcce44fb18","ios":"levelo://app?vid=09ab4a54-fcd9-43d2-8580-67fcce44fb18"},"vehicle_type_id":"4","last_reported":1749488979,"current_range_meters":16000,"station_id":"ce4bhih2rcd13ifvqfs0","pricing_plan_id":"cebpf4jnsgd1na2vs0mg"},{"bike_id":"49ad1c74-2a2e-4c01-ae4b-46bd1e2d78a3","system_id":"levelo_inurba_marseille","lat":43.29315,"lon":5.37172,"is_reserved":false,"is_disabled":false,"rental_uris":{"android":"levelo://app?vid=49ad1c74-2a2e-4c01-ae4b-46bd1e2d78a3","ios":"levelo://app?vid=49ad1c74-2a2e-4c01-ae4b-46bd1e2d78a3"},"vehicle_type_id":"4","last_reported":1749488979,"current_range_meters":16000,"station_id":"ce4bgh92rcd13ifvqb40","pricing_plan_id":"cebpf4jnsgd1na2vs0mg"},{"bike_id":"60a8540b-0b97-4e6a-b532-b4cdb1bca662","system_id":"levelo_inurba_marseille","lat":43.25978,"lon":5.3875,"is_reserved":false,"is_disabled":false,"rental_uris":{"android":"levelo://app?vid=60a8540b-0b97-4e6a-b532-b4cdb1bca662","ios":"levelo://app?vid=60a8540b-0b97-4e6a-b532-b4cdb1bca662"},"vehicle_type_id":"4","last_reported":1749488979,"current_range_meters":16000,"station_id":"","pricing_plan_id":"cebpf4jnsgd1na2vs0mg"},{"bike_id":"e83c1c2a-1fcf-46e1-adbb-09f634aa3f06","system_id":"levelo_inurba_marseille","lat":43.28999,"lon":5.35631,"is_reserved":false,"is_disabled":true,"rental_uris":{"android":"levelo://app?vid=e83c1c2a-1fcf-46e1-adbb-09f634aa3f06","ios":"levelo://app?vid=e83c1c2a-1fcf-46e1-adbb-09f634aa3f06"},"vehicle_type_id":"4","last_reported":1749488979,"current_range_meters":16000,"station_id":"ce4bhb92rcd13ifvqen0","pricing_plan_id":"cebpf4jnsgd1na2vs0mg"},{"bike_id":"6f5e2ae1-704e-47d7-8df4-a21571bbea82","system_id":"levelo_inurba_marseille","lat":43.3242,"lon":5.37439,"is_reserved":false,"is_disabled":false,"rental_uris":{"android":"levelo://app?vid=6f5e2ae1-704e-47d7-8df4-a21571bbea82","ios":"levelo://app?vid=6f5e2ae1-704e-47d7-8df4-a21571bbea82"},"vehicle_type_id":"4","last_reported":1749488979,"current_range_meters":16000,"station_id":"","pricing_plan_id":"cebpf4jnsgd1na2vs0mg"},{"bike_id":"402b268f-51d8-4319-85da-3f411d4d5d91","system_id":"levelo_inurba_marseille","lat":43.21195,"lon":5.35062,"is_reserved":false,"is_disabled":false,"rental_uris":{"android":"levelo://app?vid=402b268f-51d8-4319-85da-3f411d4d5d91","ios":"levelo://app?vid=402b268f-51d8-4319-85da-3f411d4d5d91"},"vehicle_type_id":"4","last_reported":1749488979,"current_range_meters":16000,"station_id":"st_cvj6sg6p6f1abm77japg","pricing_plan_id":"cebpf4jnsgd1na2vs0mg"},{"bike_id":"3cf41622-89ca-4e95-8b77-d79cdb6f4c42","system_id":"levelo_inurba_marseille","lat":43.33025,"lon":5.39037,"is_reserved":false,"is_disabled":false,"rental_uris":{"android":"levelo://app?vid=3cf41622-89ca-4e95-8b77-d79cdb6f4c42","ios":"levelo://app?vid=3cf41622-89ca-4e95-8b77-d79cdb6f4c42"},"vehicle_type_id":"4","last_reported":1749488979,"current_range_meters":16400,"station_id":"ce4bhr92rcd13ifvqhrg","pricing_plan_id":"cebpf4jnsgd1na2vs0mg"},{"bike_id":"77287101-1d17-45cf-a88a-545235d16352","system_id":"levelo_inurba_marseille","lat":43.2804,"lon":5.36949,"is_reserved":false,"is_disabled":false,"rental_uris":{"android":"levelo://app?vid=77287101-1d17-45cf-a88a-545235d16352","ios":"levelo://app?vid=77287101-1d17-45cf-a88a-545235d16352"},"vehicle_type_id":"4","last_reported":1749488979,"current_range_meters":16400,"station_id":"ce4bha12rcd13ifvqef0","pricing_plan_id":"cebpf4jnsgd1na2vs0mg"},{"bike_id":"6ddb5fa7-4997-4324-ab7f-5f095f4365f3","system_id":"levelo_inurba_marseille","lat":43.26834,"lon":5.42764,"is_reserved":false,"is_disabled":false,"rental_uris":{"android":"levelo://app?vid=6ddb5fa7-4997-4324-ab7f-5f095f4365f3","ios":"levelo://app?vid=6ddb5fa7-4997-4324-ab7f-5f095f4365f3"},"vehicle_type_id":"4","last_reported":1749488979,"current_range_meters":16400,"station_id":"","pricing_plan_id":"cebpf4jnsgd1na2vs0mg"},{"bike_id":"aaa8c06c-aa0d-4a4d-a06a-5070d8a12fda","system_id":"levelo_inurba_marseille","lat":43.29526,"lon":5.39399,"is_reserved":false,"is_disabled":false,"rental_uris":{"android":"levelo://app?vid=aaa8c06c-aa0d-4a4d-a06a-5070d8a12fda","ios":"levelo://app?vid=aaa8c06c-aa0d-4a4d-a06a-5070d8a12fda"},"vehicle_type_id":"4","last_reported":1749488979,"current_range_meters":16400,"station_id":"ce4bh292rcd13ifvqdf0","pricing_plan_id":"cebpf4jnsgd1na2vs0mg"},{"bike_id":"52f19b3b-c9b4-4cf7-aa39-cf08a2103e99","system_id":"levelo_inurba_marseille","lat":43.29957,"lon":5.38503,"is_reserved":false,"is_disabled":false,"rental_uris":{"android":"levelo://app?vid=52f19b3b-c9b4-4cf7-aa39-cf08a2103e99","ios":"levelo://app?vid=52f19b3b-c9b4-4cf7-aa39-cf08a2103e99"},"vehicle_type_id":"4","last_reported":1749488979,"current_range_meters":16400,"station_id":"ce4bgj92rcd13ifvqbd0","pricing_plan_id":"cebpf4jnsgd1na2vs0mg"},{"bike_id":"4edd3ac5-a9ce-4681-8371-2e2ceef563b7","system_id":"levelo_inurba_marseille","lat":43.32283,"lon":5.38282,"is_reserved":false,"is_disabled":false,"rental_uris":{"android":"levelo://app?vid=4edd3ac5-a9ce-4681-8371-2e2ceef563b7","ios":"levelo://app?vid=4edd3ac5-a9ce-4681-8371-2e2ceef563b7"},"vehicle_type_id":"4","last_reported":1749488979,"current_range_meters":16400,"station_id":"ce4bhr12rcd13ifvqhqg","pricing_plan_id":"cebpf4jnsgd1na2vs0mg"},{"bike_id":"fbc95619-26c5-4e2c-b874-545337d7a322","system_id":"levelo_inurba_marseille","lat":43.29533,"lon":5.37496,"is_reserved":false,"is_disabled":false,"rental_uris":{"android":"levelo://app?vid=fbc95619-26c5-4e2c-b874-545337d7a322","ios":"levelo://app?vid=fbc95619-26c5-4e2c-b874-545337d7a322"},"vehicle_type_id":"4","last_reported":1749488979,"current_range_meters":16400,"station_id":"ce4bgkp2rcd13ifvqbmg","pricing_plan_id":"cebpf4jnsgd1na2vs0mg"},{"bike_id":"2f832c6c-5ba3-4f85-b4f1-16c261a0bb26","system_id":"levelo_inurba_marseille","lat":43.31231,"lon":5.36833,"is_reserved":false,"is_disabled":false,"rental_uris":{"android":"levelo://app?vid=2f832c6c-5ba3-4f85-b4f1-16c261a0bb26","ios":"levelo://app?vid=2f832c6c-5ba3-4f85-b4f1-16c261a0bb26"},"vehicle_type_id":"4","last_reported":1749488979,"current_range_meters":16400,"station_id":"ce4bgl92rcd13ifvqbq0","pricing_plan_id":"cebpf4jnsgd1na2vs0mg"},{"bike_id":"9735de13-93f8-4d48-b72b-31d63f3902ed","system_id":"levelo_inurba_marseille","lat":43.31752,"lon":5.39017,"is_reserved":false,"is_disabled":false,"rental_uris":{"android":"levelo://app?vid=9735de13-93f8-4d48-b72b-31d63f3902ed","ios":"levelo://app?vid=9735de13-93f8-4d48-b72b-31d63f3902ed"},"vehicle_type_id":"4","last_reported":1749488979,"current_range_meters":16400,"station_id":"ce4bhqp2rcd13ifvqhng","pricing_plan_id":"cebpf4jnsgd1na2vs0mg"},{"bike_id":"29dccb10-a472-4cff-aaac-6a6d2d9bbb3c","system_id":"levelo_inurba_marseille","lat":43.28716,"lon":5.36104,"is_reserved":false,"is_disabled":false,"rental_uris":{"android":"levelo://app?vid=29dccb10-a472-4cff-aaac-6a6d2d9bbb3c","ios":"levelo://app?vid=29dccb10-a472-4cff-aaac-6a6d2d9bbb3c"},"vehicle_type_id":"4","last_reported":1749488979,"current_range_meters":16800,"station_id":"cki0cbj6b192h4jlfktg","pricing_plan_id":"cebpf4jnsgd1na2vs0mg"},{"bike_id":"b7651752-8eb3-4b67-91fc-0a6e006c8d1f","system_id":"levelo_inurba_marseille","lat":43.21187,"lon":5.35066,"is_reserved":false,"is_disabled":false,"rental_uris":{"android":"levelo://app?vid=b7651752-8eb3-4b67-91fc-0a6e006c8d1f","ios":"levelo://app?vid=b7651752-8eb3-4b67-91fc-0a6e006c8d1f"},"vehicle_type_id":"4","last_reported":1749488979,"current_range_meters":16800,"station_id":"st_cvj6sg6p6f1abm77japg","pricing_plan_id":"cebpf4jnsgd1na2vs0mg"},{"bike_id":"e2711fed-4dd0-478c-8de7-ee16ec7c7e3b","system_id":"levelo_inurba_marseille","lat":43.28456,"lon":5.35895,"is_reserved":false,"is_disabled":false,"rental_uris":{"android":"levelo://app?vid=e2711fed-4dd0-478c-8de7-ee16ec7c7e3b","ios":"levelo://app?vid=e2711fed-4dd0-478c-8de7-ee16ec7c7e3b"},"vehicle_type_id":"4","last_reported":1749488979,"current_range_meters":16800,"station_id":"ce4bhah2rcd13ifvqei0","pricing_plan_id":"cebpf4jnsgd1na2vs0mg"},{"bike_id":"f082d289-66ee-4564-b3a4-31093df04f3b","system_id":"levelo_inurba_marseille","lat":43.23064,"lon":5.35489,"is_reserved":false,"is_disabled":false,"rental_uris":{"android":"levelo://app?vid=f082d289-66ee-4564-b3a4-31093df04f3b","ios":"levelo://app?vid=f082d289-66ee-4564-b3a4-31093df04f3b"},"vehicle_type_id":"4","last_reported":1749488979,"current_range_meters":16800,"station_id":"cpo3342slgdg3j2ifvpg","pricing_plan_id":"cebpf4jnsgd1na2vs0mg"},{"bike_id":"ca27e12a-1f2d-4cf2-be29-12a2b9ff1547","system_id":"levelo_inurba_marseille","lat":43.31713,"lon":5.42421,"is_reserved":false,"is_disabled":false,"rental_uris":{"android":"levelo://app?vid=ca27e12a-1f2d-4cf2-be29-12a2b9ff1547","ios":"levelo://app?vid=ca27e12a-1f2d-4cf2-be29-12a2b9ff1547"},"vehicle_type_id":"4","last_reported":1749488979,"current_range_meters":16800,"station_id":"ce4bhp92rcd13ifvqhbg","pricing_plan_id":"cebpf4jnsgd1na2vs0mg"},{"bike_id":"1723c118-496f-47d6-8a4e-564ebbd77e6c","system_id":"levelo_inurba_marseille","lat":43.298765,"lon":5.397338,"is_reserved":false,"is_disabled":false,"rental_uris":{"android":"levelo://app?vid=1723c118-496f-47d6-8a4e-564ebbd77e6c","ios":"levelo://app?vid=1723c118-496f-47d6-8a4e-564ebbd77e6c"},"vehicle_type_id":"4","last_reported":1749488979,"current_range_meters":16800,"station_id":"ce4bh0h2rcd13ifvqd50","pricing_plan_id":"cebpf4jnsgd1na2vs0mg"},{"bike_id":"23e89bac-e2bf-4e89-8e08-1f432b7a4188","system_id":"levelo_inurba_marseille","lat":43.21183,"lon":5.35066,"is_reserved":false,"is_disabled":true,"rental_uris":{"android":"levelo://app?vid=23e89bac-e2bf-4e89-8e08-1f432b7a4188","ios":"levelo://app?vid=23e89bac-e2bf-4e89-8e08-1f432b7a4188"},"vehicle_type_id":"4","last_reported":1749488979,"current_range_meters":17200,"station_id":"st_cvj6sg6p6f1abm77japg","pricing_plan_id":"cebpf4jnsgd1na2vs0mg"},{"bike_id":"03c0db53-7bee-41cf-9720-4c41e24c0048","system_id":"levelo_inurba_marseille","lat":43.28306,"lon":5.35091,"is_reserved":false,"is_disabled":true,"rental_uris":{"android":"levelo://app?vid=03c0db53-7bee-41cf-9720-4c41e24c0048","ios":"levelo://app?vid=03c0db53-7bee-41cf-9720-4c41e24c0048"},"vehicle_type_id":"4","last_reported":1749488979,"current_range_meters":17200,"station_id":"ce4bhbp2rcd13ifvqerg","pricing_plan_id":"cebpf4jnsgd1na2vs0mg"},{"bike_id":"2138ff97-c5bf-410d-b7b3-dbef5874d459","system_id":"levelo_inurba_marseille","lat":43.21215,"lon":5.35076,"is_reserved":false,"is_disabled":false,"rental_uris":{"android":"levelo://app?vid=2138ff97-c5bf-410d-b7b3-dbef5874d459","ios":"levelo://app?vid=2138ff97-c5bf-410d-b7b3-dbef5874d459"},"vehicle_type_id":"4","last_reported":1749488979,"current_range_meters":17200,"station_id":"st_cvj6sg6p6f1abm77japg","pricing_plan_id":"cebpf4jnsgd1na2vs0mg"},{"bike_id":"74438881-2737-4df4-b1ff-df284f1bab22","system_id":"levelo_inurba_marseille","lat":43.25118,"lon":5.4032,"is_reserved":false,"is_disabled":false,"rental_uris":{"android":"levelo://app?vid=74438881-2737-4df4-b1ff-df284f1bab22","ios":"levelo://app?vid=74438881-2737-4df4-b1ff-df284f1bab22"},"vehicle_type_id":"4","last_reported":1749488979,"current_range_meters":17200,"station_id":"ce4bhlh2rcd13ifvqgig","pricing_plan_id":"cebpf4jnsgd1na2vs0mg"},{"bike_id":"b2a55171-9e11-4eba-beeb-f2e7c5d27df2","system_id":"levelo_inurba_marseille","lat":43.21191,"lon":5.35076,"is_reserved":false,"is_disabled":false,"rental_uris":{"android":"levelo://app?vid=b2a55171-9e11-4eba-beeb-f2e7c5d27df2","ios":"levelo://app?vid=b2a55171-9e11-4eba-beeb-f2e7c5d27df2"},"vehicle_type_id":"4","last_reported":1749488979,"current_range_meters":17200,"station_id":"st_cvj6sg6p6f1abm77japg","pricing_plan_id":"cebpf4jnsgd1na2vs0mg"},{"bike_id":"90380885-080f-43e2-aa64-47651013eefb","system_id":"levelo_inurba_marseille","lat":43.29565,"lon":5.37527,"is_reserved":false,"is_disabled":false,"rental_uris":{"android":"levelo://app?vid=90380885-080f-43e2-aa64-47651013eefb","ios":"levelo://app?vid=90380885-080f-43e2-aa64-47651013eefb"},"vehicle_type_id":"4","last_reported":1749488979,"current_range_meters":17200,"station_id":"ce4bgh92rcd13ifvqb50","pricing_plan_id":"cebpf4jnsgd1na2vs0mg"},{"bike_id":"e925ed2b-babc-4cf9-b75b-bac898fd5635","system_id":"levelo_inurba_marseille","lat":43.21192,"lon":5.35062,"is_reserved":false,"is_disabled":false,"rental_uris":{"android":"levelo://app?vid=e925ed2b-babc-4cf9-b75b-bac898fd5635","ios":"levelo://app?vid=e925ed2b-babc-4cf9-b75b-bac898fd5635"},"vehicle_type_id":"4","last_reported":1749488979,"current_range_meters":17200,"station_id":"st_cvj6sg6p6f1abm77japg","pricing_plan_id":"cebpf4jnsgd1na2vs0mg"},{"bike_id":"7c2ad8a5-4b30-4eca-a016-b09bc7c4cfd5","system_id":"levelo_inurba_marseille","lat":43.33157,"lon":5.38047,"is_reserved":false,"is_disabled":false,"rental_uris":{"android":"levelo://app?vid=7c2ad8a5-4b30-4eca-a016-b09bc7c4cfd5","ios":"levelo://app?vid=7c2ad8a5-4b30-4eca-a016-b09bc7c4cfd5"},"vehicle_type_id":"4","last_reported":1749488979,"current_range_meters":17600,"station_id":"","pricing_plan_id":"cebpf4jnsgd1na2vs0mg"},{"bike_id":"0401a861-1e09-4400-af90-5826430bfe59","system_id":"levelo_inurba_marseille","lat":43.32288,"lon":5.382772,"is_reserved":false,"is_disabled":false,"rental_uris":{"android":"levelo://app?vid=0401a861-1e09-4400-af90-5826430bfe59","ios":"levelo://app?vid=0401a861-1e09-4400-af90-5826430bfe59"},"vehicle_type_id":"4","last_reported":1749488979,"current_range_meters":17600,"station_id":"ce4bhr12rcd13ifvqhqg","pricing_plan_id":"cebpf4jnsgd1na2vs0mg"},{"bike_id":"8238f8b5-fabc-4ceb-9e46-c0245dbd9993","system_id":"levelo_inurba_marseille","lat":43.26789,"lon":5.39409,"is_reserved":false,"is_disabled":false,"rental_uris":{"android":"levelo://app?vid=8238f8b5-fabc-4ceb-9e46-c0245dbd9993","ios":"levelo://app?vid=8238f8b5-fabc-4ceb-9e46-c0245dbd9993"},"vehicle_type_id":"4","last_reported":1749488979,"current_range_meters":17600,"station_id":"ce4bhh12rcd13ifvqfg0","pricing_plan_id":"cebpf4jnsgd1na2vs0mg"},{"bike_id":"f9242a45-3b1d-4735-8953-e91a1d38760f","system_id":"levelo_inurba_marseille","lat":43.29222,"lon":5.36071,"is_reserved":false,"is_disabled":false,"rental_uris":{"android":"levelo://app?vid=f9242a45-3b1d-4735-8953-e91a1d38760f","ios":"levelo://app?vid=f9242a45-3b1d-4735-8953-e91a1d38760f"},"vehicle_type_id":"4","last_reported":1749488979,"current_range_meters":17600,"station_id":"ce4bhbh2rcd13ifvqeqg","pricing_plan_id":"cebpf4jnsgd1na2vs0mg"},{"bike_id":"7fbb8cf5-f563-4c4a-90cf-1a5ac10b01c4","system_id":"levelo_inurba_marseille","lat":43.21188,"lon":5.35078,"is_reserved":false,"is_disabled":false,"rental_uris":{"android":"levelo://app?vid=7fbb8cf5-f563-4c4a-90cf-1a5ac10b01c4","ios":"levelo://app?vid=7fbb8cf5-f563-4c4a-90cf-1a5ac10b01c4"},"vehicle_type_id":"4","last_reported":1749488979,"current_range_meters":17600,"station_id":"st_cvj6sg6p6f1abm77japg","pricing_plan_id":"cebpf4jnsgd1na2vs0mg"},{"bike_id":"24bc7c87-9132-4ac4-9aca-4693a0fab78f","system_id":"levelo_inurba_marseille","lat":43.30419,"lon":5.41281,"is_reserved":false,"is_disabled":false,"rental_uris":{"android":"levelo://app?vid=24bc7c87-9132-4ac4-9aca-4693a0fab78f","ios":"levelo://app?vid=24bc7c87-9132-4ac4-9aca-4693a0fab78f"},"vehicle_type_id":"4","last_reported":1749488979,"current_range_meters":17600,"station_id":"ce4bhop2rcd13ifvqh8g","pricing_plan_id":"cebpf4jnsgd1na2vs0mg"},{"bike_id":"424c0f98-f838-4b5b-82e5-bb73ae7faa9d","system_id":"levelo_inurba_marseille","lat":43.2893,"lon":5.36649,"is_reserved":false,"is_disabled":false,"rental_uris":{"android":"levelo://app?vid=424c0f98-f838-4b5b-82e5-bb73ae7faa9d","ios":"levelo://app?vid=424c0f98-f838-4b5b-82e5-bb73ae7faa9d"},"vehicle_type_id":"4","last_reported":1749488979,"current_range_meters":17600,"station_id":"ce4bhap2rcd13ifvqek0","pricing_plan_id":"cebpf4jnsgd1na2vs0mg"},{"bike_id":"14fc0823-c07f-4cbc-a811-64447ab9f2cc","system_id":"levelo_inurba_marseille","lat":43.29516,"lon":5.37502,"is_reserved":false,"is_disabled":false,"rental_uris":{"android":"levelo://app?vid=14fc0823-c07f-4cbc-a811-64447ab9f2cc","ios":"levelo://app?vid=14fc0823-c07f-4cbc-a811-64447ab9f2cc"},"vehicle_type_id":"4","last_reported":1749488979,"current_range_meters":17600,"station_id":"ce4bgkp2rcd13ifvqbmg","pricing_plan_id":"cebpf4jnsgd1na2vs0mg"},{"bike_id":"dbeeae7e-610b-46bc-bcaa-7414ee142b9c","system_id":"levelo_inurba_marseille","lat":43.22956,"lon":5.3537,"is_reserved":false,"is_disabled":false,"rental_uris":{"android":"levelo://app?vid=dbeeae7e-610b-46bc-bcaa-7414ee142b9c","ios":"levelo://app?vid=dbeeae7e-610b-46bc-bcaa-7414ee142b9c"},"vehicle_type_id":"4","last_reported":1749488979,"current_range_meters":17600,"station_id":"cpo3532slgdg3j2ikp40","pricing_plan_id":"cebpf4jnsgd1na2vs0mg"},{"bike_id":"83380085-4759-48a7-ba74-f4441d24c92d","system_id":"levelo_inurba_marseille","lat":43.2956,"lon":5.37526,"is_reserved":false,"is_disabled":false,"rental_uris":{"android":"levelo://app?vid=83380085-4759-48a7-ba74-f4441d24c92d","ios":"levelo://app?vid=83380085-4759-48a7-ba74-f4441d24c92d"},"vehicle_type_id":"4","last_reported":1749488979,"current_range_meters":17600,"station_id":"ce4bgh92rcd13ifvqb50","pricing_plan_id":"cebpf4jnsgd1na2vs0mg"},{"bike_id":"c6830c0d-e468-46fa-b9c2-96c1aec56a2d","system_id":"levelo_inurba_marseille","lat":43.27254,"lon":5.43125,"is_reserved":false,"is_disabled":false,"rental_uris":{"android":"levelo://app?vid=c6830c0d-e468-46fa-b9c2-96c1aec56a2d","ios":"levelo://app?vid=c6830c0d-e468-46fa-b9c2-96c1aec56a2d"},"vehicle_type_id":"4","last_reported":1749488979,"current_range_meters":17600,"station_id":"","pricing_plan_id":"cebpf4jnsgd1na2vs0mg"},{"bike_id":"32c6c430-0677-4630-9cec-b1ec0d5a282e","system_id":"levelo_inurba_marseille","lat":43.2957,"lon":5.37524,"is_reserved":false,"is_disabled":false,"rental_uris":{"android":"levelo://app?vid=32c6c430-0677-4630-9cec-b1ec0d5a282e","ios":"levelo://app?vid=32c6c430-0677-4630-9cec-b1ec0d5a282e"},"vehicle_type_id":"4","last_reported":1749488979,"current_range_meters":17600,"station_id":"ce4bgh92rcd13ifvqb50","pricing_plan_id":"cebpf4jnsgd1na2vs0mg"},{"bike_id":"ed19b723-24bc-40b3-b2e8-62f940ce0c06","system_id":"levelo_inurba_marseille","lat":43.30273,"lon":5.37065,"is_reserved":false,"is_disabled":false,"rental_uris":{"android":"levelo://app?vid=ed19b723-24bc-40b3-b2e8-62f940ce0c06","ios":"levelo://app?vid=ed19b723-24bc-40b3-b2e8-62f940ce0c06"},"vehicle_type_id":"4","last_reported":1749488979,"current_range_meters":17600,"station_id":"","pricing_plan_id":"cebpf4jnsgd1na2vs0mg"},{"bike_id":"0b1328cd-b140-41fb-988f-29934f2cd3e6","system_id":"levelo_inurba_marseille","lat":43.28699,"lon":5.39981,"is_reserved":false,"is_disabled":false,"rental_uris":{"android":"levelo://app?vid=0b1328cd-b140-41fb-988f-29934f2cd3e6","ios":"levelo://app?vid=0b1328cd-b140-41fb-988f-29934f2cd3e6"},"vehicle_type_id":"4","last_reported":1749488979,"current_range_meters":17600,"station_id":"ce4bho92rcd13ifvqh3g","pricing_plan_id":"cebpf4jnsgd1na2vs0mg"},{"bike_id":"0cf43a71-46c4-4b0d-b1e8-b5d2e538af02","system_id":"levelo_inurba_marseille","lat":43.270692,"lon":5.422809,"is_reserved":false,"is_disabled":false,"rental_uris":{"android":"levelo://app?vid=0cf43a71-46c4-4b0d-b1e8-b5d2e538af02","ios":"levelo://app?vid=0cf43a71-46c4-4b0d-b1e8-b5d2e538af02"},"vehicle_type_id":"4","last_reported":1749488979,"current_range_meters":18000,"station_id":"ce4bhk92rcd13ifvqgb0","pricing_plan_id":"cebpf4jnsgd1na2vs0mg"},{"bike_id":"690b5f11-36ad-4936-91eb-0f3a8fb79919","system_id":"levelo_inurba_marseille","lat":43.25109,"lon":5.40323,"is_reserved":false,"is_disabled":false,"rental_uris":{"android":"levelo://app?vid=690b5f11-36ad-4936-91eb-0f3a8fb79919","ios":"levelo://app?vid=690b5f11-36ad-4936-91eb-0f3a8fb79919"},"vehicle_type_id":"4","last_reported":1749488979,"current_range_meters":18000,"station_id":"ce4bhlh2rcd13ifvqgig","pricing_plan_id":"cebpf4jnsgd1na2vs0mg"},{"bike_id":"21d5718b-bb5d-45d2-bacd-ba0967d38a76","system_id":"levelo_inurba_marseille","lat":43.29512,"lon":5.37499,"is_reserved":false,"is_disabled":false,"rental_uris":{"android":"levelo://app?vid=21d5718b-bb5d-45d2-bacd-ba0967d38a76","ios":"levelo://app?vid=21d5718b-bb5d-45d2-bacd-ba0967d38a76"},"vehicle_type_id":"4","last_reported":1749488979,"current_range_meters":18000,"station_id":"ce4bgkp2rcd13ifvqbmg","pricing_plan_id":"cebpf4jnsgd1na2vs0mg"},{"bike_id":"7702b3f7-6b2d-446a-b086-3b082076f633","system_id":"levelo_inurba_marseille","lat":43.27604,"lon":5.36108,"is_reserved":false,"is_disabled":false,"rental_uris":{"android":"levelo://app?vid=7702b3f7-6b2d-446a-b086-3b082076f633","ios":"levelo://app?vid=7702b3f7-6b2d-446a-b086-3b082076f633"},"vehicle_type_id":"4","last_reported":1749488979,"current_range_meters":18000,"station_id":"ce4bgj92rcd13ifvqbe0","pricing_plan_id":"cebpf4jnsgd1na2vs0mg"},{"bike_id":"5d767fc6-6e65-4f55-bf59-def7dc8ae8f0","system_id":"levelo_inurba_marseille","lat":43.32359,"lon":5.38884,"is_reserved":false,"is_disabled":false,"rental_uris":{"android":"levelo://app?vid=5d767fc6-6e65-4f55-bf59-def7dc8ae8f0","ios":"levelo://app?vid=5d767fc6-6e65-4f55-bf59-def7dc8ae8f0"},"vehicle_type_id":"4","last_reported":1749488979,"current_range_meters":18000,"station_id":"ce4bhqp2rcd13ifvqhog","pricing_plan_id":"cebpf4jnsgd1na2vs0mg"},{"bike_id":"c14b01ca-1b83-4844-ab03-96d8dffa93bf","system_id":"levelo_inurba_marseille","lat":43.29504,"lon":5.375,"is_reserved":false,"is_disabled":false,"rental_uris":{"android":"levelo://app?vid=c14b01ca-1b83-4844-ab03-96d8dffa93bf","ios":"levelo://app?vid=c14b01ca-1b83-4844-ab03-96d8dffa93bf"},"vehicle_type_id":"4","last_reported":1749488979,"current_range_meters":18000,"station_id":"ce4bgkp2rcd13ifvqbmg","pricing_plan_id":"cebpf4jnsgd1na2vs0mg"},{"bike_id":"46c32037-b1c1-4d92-9549-0977c6365be3","system_id":"levelo_inurba_marseille","lat":43.28033,"lon":5.36952,"is_reserved":false,"is_disabled":false,"rental_uris":{"android":"levelo://app?vid=46c32037-b1c1-4d92-9549-0977c6365be3","ios":"levelo://app?vid=46c32037-b1c1-4d92-9549-0977c6365be3"},"vehicle_type_id":"4","last_reported":1749488979,"current_range_meters":18000,"station_id":"ce4bha12rcd13ifvqef0","pricing_plan_id":"cebpf4jnsgd1na2vs0mg"},{"bike_id":"a9634beb-7e06-4647-863c-3e6672fff746","system_id":"levelo_inurba_marseille","lat":43.29565,"lon":5.37519,"is_reserved":false,"is_disabled":false,"rental_uris":{"android":"levelo://app?vid=a9634beb-7e06-4647-863c-3e6672fff746","ios":"levelo://app?vid=a9634beb-7e06-4647-863c-3e6672fff746"},"vehicle_type_id":"4","last_reported":1749488979,"current_range_meters":18800,"station_id":"ce4bgh92rcd13ifvqb50","pricing_plan_id":"cebpf4jnsgd1na2vs0mg"},{"bike_id":"042c250e-a710-4871-8d81-0da461cc4b3c","system_id":"levelo_inurba_marseille","lat":43.29623,"lon":5.37726,"is_reserved":false,"is_disabled":false,"rental_uris":{"android":"levelo://app?vid=042c250e-a710-4871-8d81-0da461cc4b3c","ios":"levelo://app?vid=042c250e-a710-4871-8d81-0da461cc4b3c"},"vehicle_type_id":"4","last_reported":1749488979,"current_range_meters":18800,"station_id":"ce4bgi92rcd13ifvqb90","pricing_plan_id":"cebpf4jnsgd1na2vs0mg"},{"bike_id":"a87a0f3a-ee24-4735-a7de-287b9d433587","system_id":"levelo_inurba_marseille","lat":43.22935,"lon":5.35384,"is_reserved":false,"is_disabled":false,"rental_uris":{"android":"levelo://app?vid=a87a0f3a-ee24-4735-a7de-287b9d433587","ios":"levelo://app?vid=a87a0f3a-ee24-4735-a7de-287b9d433587"},"vehicle_type_id":"4","last_reported":1749488979,"current_range_meters":18800,"station_id":"cpo3532slgdg3j2ikp40","pricing_plan_id":"cebpf4jnsgd1na2vs0mg"},{"bike_id":"87316a42-447e-4c56-969a-d8de26f0f602","system_id":"levelo_inurba_marseille","lat":43.292606,"lon":5.40901,"is_reserved":false,"is_disabled":false,"rental_uris":{"android":"levelo://app?vid=87316a42-447e-4c56-969a-d8de26f0f602","ios":"levelo://app?vid=87316a42-447e-4c56-969a-d8de26f0f602"},"vehicle_type_id":"4","last_reported":1749488979,"current_range_meters":18800,"station_id":"ce4bh192rcd13ifvqdc0","pricing_plan_id":"cebpf4jnsgd1na2vs0mg"},