{"last_updated":1746710623,"ttl":60,"version":"2.2","data":{"bikes":[{"bike_id":"d004630d-350a-43b5-813a-910095525474","system_id":"levelo_inurba_marseille","lat":43.29975,"lon":5.37175,"is_reserved":false,"is_disabled":false,"rental_uris":{"android":"levelo://app?vid=d004630d-350a-43b5-813a-910095525474","ios":"levelo://app?vid=d004630d-350a-43b5-813a-910095525474"},"vehicle_type_id":"4","last_reported":1746710624,"current_range_meters":2800,"station_id":"ce4bgr92rcd13ifvqc7g","pricing_plan_id":"cebpf4jnsgd1na2vs0mg"},{"bike_id":"da7b03bf-05dc-4f90-b4bb-2a859ddf6c3b","system_id":"levelo_inurba_marseille","lat":43.23063,"lon":5.35487,"is_reserved":false,"is_disabled":false,"rental_uris":{"android":"levelo://app?vid=da7b03bf-05dc-4f90-b4bb-2a859ddf6c3b","ios":"levelo://app?vid=da7b03bf-05dc-4f90-b4bb-2a859ddf6c3b"},"vehicle_type_id":"4","last_reported":1746710624,"current_range_meters":2800,"station_id":"cpo3342slgdg3j2ifvpg","pricing_plan_id":"cebpf4jnsgd1na2vs0mg"},{"bike_id":"ff347725-9167-4e3f-917f-01dd126ba263","system_id":"levelo_inurba_marseille","lat":43.26032,"lon":5.37548,"is_reserved":false,"is_disabled":false,"rental_uris":{"android":"levelo://app?vid=ff347725-9167-4e3f-917f-01dd126ba263","ios":"levelo://app?vid=ff347725-9167-4e3f-917f-01dd126ba263"},"vehicle_type_id":"4","last_reported":1746710624,"current_range_meters":2800,"station_id":"ce4bhgh2rcd13ifvqfa0","pricing_plan_id":"cebpf4jnsgd1na2vs0mg"},{"bike_id":"bdd4cd1f-5b7d-4dd9-af26-d1483ab23d58","system_id":"levelo_inurba_marseille","lat":43.25587,"lon":5.38234,"is_reserved":false,"is_disabled":false,"rental_uris":{"android":"levelo://app?vid=bdd4cd1f-5b7d-4dd9-af26-d1483ab23d58","ios":"levelo://app?vid=bdd4cd1f-5b7d-4dd9-af26-d1483ab23d58"},"vehicle_type_id":"4","last_reported":1746710624,"current_range_meters":2800,"station_id":"ce4bhih2rcd13ifvqfs0","pricing_plan_id":"cebpf4jnsgd1na2vs0mg"},{"bike_id":"f14e1e79-3c85-4e73-8f95-5ac8fcc068de","system_id":"levelo_inurba_marseille","lat":43.28435,"lon":5.39208,"is_reserved":false,"is_disabled":false,"rental_uris":{"android":"levelo://app?vid=f14e1e79-3c85-4e73-8f95-5ac8fcc068de","ios":"levelo://app?vid=f14e1e79-3c85-4e73-8f95-5ac8fcc068de"},"vehicle_type_id":"4","last_reported":1746710624,"current_range_meters":2800,"station_id":"ce4bhoh2rcd13ifvqh5g","pricing_plan_id":"cebpf4jnsgd1na2vs0mg"},{"bike_id":"e3e2192f-f61d-4d1e-b6d6-84fc9ff176ca","system_id":"levelo_inurba_marseille","lat":43.24384,"lon":5.37057,"is_reserved":false,"is_disabled":false,"rental_uris":{"android":"levelo://app?vid=e3e2192f-f61d-4d1e-b6d6-84fc9ff176ca","ios":"levelo://app?vid=e3e2192f-f61d-4d1e-b6d6-84fc9ff176ca"},"vehicle_type_id":"4","last_reported":1746710624,"current_range_meters":2800,"station_id":"ce4bhhh2rcd13ifvqfk0","pricing_plan_id":"cebpf4jnsgd1na2vs0mg"},{"bike_id":"816291c8-2f32-44fd-b4ba-a1747a2d0e04","system_id":"levelo_inurba_marseille","lat":43.25496,"lon":5.37647,"is_reserved":false,"is_disabled":false,"rental_uris":{"android":"levelo://app?vid=816291c8-2f32-44fd-b4ba-a1747a2d0e04","ios":"levelo://app?vid=816291c8-2f32-44fd-b4ba-a1747a2d0e04"},"vehicle_type_id":"4","last_reported":1746710624,"current_range_meters":2800,"station_id":"ce4bhh12rcd13ifvqff0","pricing_plan_id":"cebpf4jnsgd1na2vs0mg"},{"bike_id":"bb510fb8-9db8-408b-a690-1a400b064efe","system_id":"levelo_inurba_marseille","lat":43.24657,"lon":5.38913,"is_reserved":false,"is_disabled":false,"rental_uris":{"android":"levelo://app?vid=bb510fb8-9db8-408b-a690-1a400b064efe","ios":"levelo://app?vid=bb510fb8-9db8-408b-a690-1a400b064efe"},"vehicle_type_id":"4","last_reported":1746710624,"current_range_meters":2800,"station_id":"ce4bhg12rcd13ifvqf60","pricing_plan_id":"cebpf4jnsgd1na2vs0mg"},{"bike_id":"be037950-501b-4cab-89bb-e2e737a2965d","system_id":"levelo_inurba_marseille","lat":43.34152,"lon":5.40909,"is_reserved":false,"is_disabled":false,"rental_uris":{"android":"levelo://app?vid=be037950-501b-4cab-89bb-e2e737a2965d","ios":"levelo://app?vid=be037950-501b-4cab-89bb-e2e737a2965d"},"vehicle_type_id":"4","last_reported":1746710624,"current_range_meters":6800,"station_id":"ce4bhqh2rcd13ifvqhlg","pricing_plan_id":"cebpf4jnsgd1na2vs0mg"},{"bike_id":"db604c58-83e4-46fd-83f7-665cebe46b2c","system_id":"levelo_inurba_marseille","lat":43.29274,"lon":5.36844,"is_reserved":false,"is_disabled":false,"rental_uris":{"android":"levelo://app?vid=db604c58-83e4-46fd-83f7-665cebe46b2c","ios":"levelo://app?vid=db604c58-83e4-46fd-83f7-665cebe46b2c"},"vehicle_type_id":"4","last_reported":1746710624,"current_range_meters":3600,"station_id":"ce4bhbp2rcd13ifvqesg","pricing_plan_id":"cebpf4jnsgd1na2vs0mg"},{"bike_id":"2306782a-d272-4eff-8aa6-4c2c0227e78d","system_id":"levelo_inurba_marseille","lat":43.230621,"lon":5.354908,"is_reserved":false,"is_disabled":false,"rental_uris":{"android":"levelo://app?vid=2306782a-d272-4eff-8aa6-4c2c0227e78d","ios":"levelo://app?vid=2306782a-d272-4eff-8aa6-4c2c0227e78d"},"vehicle_type_id":"4","last_reported":1746710624,"current_range_meters":3600,"station_id":"cpo3342slgdg3j2ifvpg","pricing_plan_id":"cebpf4jnsgd1na2vs0mg"},{"bike_id":"131f5361-d71b-4d19-978d-034fb64e13e7","system_id":"levelo_inurba_marseille","lat":43.24679,"lon":5.38156,"is_reserved":false,"is_disabled":false,"rental_uris":{"android":"levelo://app?vid=131f5361-d71b-4d19-978d-034fb64e13e7","ios":"levelo://app?vid=131f5361-d71b-4d19-978d-034fb64e13e7"},"vehicle_type_id":"4","last_reported":1746710624,"current_range_meters":4000,"station_id":"ce4bhih2rcd13ifvqfr0","pricing_plan_id":"cebpf4jnsgd1na2vs0mg"},{"bike_id":"d53f71b4-3d98-49dd-9669-b16d566d02b6","system_id":"levelo_inurba_marseille","lat":43.29544,"lon":5.36533,"is_reserved":false,"is_disabled":false,"rental_uris":{"android":"levelo://app?vid=d53f71b4-3d98-49dd-9669-b16d566d02b6","ios":"levelo://app?vid=d53f71b4-3d98-49dd-9669-b16d566d02b6"},"vehicle_type_id":"4","last_reported":1746710624,"current_range_meters":5600,"station_id":"","pricing_plan_id":"cebpf4jnsgd1na2vs0mg"},{"bike_id":"bdaf62d1-0467-4963-a5a4-4898b43fb117","system_id":"levelo_inurba_marseille","lat":43.241676,"lon":5.363941,"is_reserved":false,"is_disabled":false,"rental_uris":{"android":"levelo://app?vid=bdaf62d1-0467-4963-a5a4-4898b43fb117","ios":"levelo://app?vid=bdaf62d1-0467-4963-a5a4-4898b43fb117"},"vehicle_type_id":"4","last_reported":1746710624,"current_range_meters":4800,"station_id":"cpo36qri1sfpv3e86is0","pricing_plan_id":"cebpf4jnsgd1na2vs0mg"},{"bike_id":"c72e9ab1-a289-41a0-a26c-6ae657643ab4","system_id":"levelo_inurba_marseille","lat":43.23163,"lon":5.43725,"is_reserved":false,"is_disabled":false,"rental_uris":{"android":"levelo://app?vid=c72e9ab1-a289-41a0-a26c-6ae657643ab4","ios":"levelo://app?vid=c72e9ab1-a289-41a0-a26c-6ae657643ab4"},"vehicle_type_id":"4","last_reported":1746710624,"current_range_meters":5600,"station_id":"ce4bhmp2rcd13ifvqgog","pricing_plan_id":"cebpf4jnsgd1na2vs0mg"},{"bike_id":"8548cb73-456b-4d6e-b84c-82d3978737f9","system_id":"levelo_inurba_marseille","lat":43.27814,"lon":5.40706,"is_reserved":false,"is_disabled":false,"rental_uris":{"android":"levelo://app?vid=8548cb73-456b-4d6e-b84c-82d3978737f9","ios":"levelo://app?vid=8548cb73-456b-4d6e-b84c-82d3978737f9"},"vehicle_type_id":"4","last_reported":1746710624,"current_range_meters":5600,"station_id":"ce4bhnh2rcd13ifvqgtg","pricing_plan_id":"cebpf4jnsgd1na2vs0mg"},{"bike_id":"16aa8862-559f-48a2-81f4-54f66f7f53ae","system_id":"levelo_inurba_marseille","lat":43.24391,"lon":5.37057,"is_reserved":false,"is_disabled":false,"rental_uris":{"android":"levelo://app?vid=16aa8862-559f-48a2-81f4-54f66f7f53ae","ios":"levelo://app?vid=16aa8862-559f-48a2-81f4-54f66f7f53ae"},"vehicle_type_id":"4","last_reported":1746710624,"current_range_meters":6800,"station_id":"ce4bhhh2rcd13ifvqfk0","pricing_plan_id":"cebpf4jnsgd1na2vs0mg"},{"bike_id":"837f5b58-9905-4ed9-b7ec-ca2598ac3e75","system_id":"levelo_inurba_marseille","lat":43.30947,"lon":5.39033,"is_reserved":false,"is_disabled":false,"rental_uris":{"android":"levelo://app?vid=837f5b58-9905-4ed9-b7ec-ca2598ac3e75","ios":"levelo://app?vid=837f5b58-9905-4ed9-b7ec-ca2598ac3e75"},"vehicle_type_id":"4","last_reported":1746710624,"current_range_meters":8000,"station_id":"ce4bgup2rcd13ifvqco0","pricing_plan_id":"cebpf4jnsgd1na2vs0mg"},{"bike_id":"3ebe4fbd-8376-42e5-9166-bb2a7b77c53f","system_id":"levelo_inurba_marseille","lat":43.28674,"lon":5.38664,"is_reserved":false,"is_disabled":false,"rental_uris":{"android":"levelo://app?vid=3ebe4fbd-8376-42e5-9166-bb2a7b77c53f","ios":"levelo://app?vid=3ebe4fbd-8376-42e5-9166-bb2a7b77c53f"},"vehicle_type_id":"4","last_reported":1746710624,"current_range_meters":4800,"station_id":"ce4bh492rcd13ifvqdug","pricing_plan_id":"cebpf4jnsgd1na2vs0mg"},{"bike_id":"e07a4576-9080-4697-9d6b-9a11e8bf2b19","system_id":"levelo_inurba_marseille","lat":43.21186,"lon":5.35076,"is_reserved":false,"is_disabled":false,"rental_uris":{"android":"levelo://app?vid=e07a4576-9080-4697-9d6b-9a11e8bf2b19","ios":"levelo://app?vid=e07a4576-9080-4697-9d6b-9a11e8bf2b19"},"vehicle_type_id":"4","last_reported":1746710624,"current_range_meters":6000,"station_id":"st_cvj6sg6p6f1abm77japg","pricing_plan_id":"cebpf4jnsgd1na2vs0mg"},{"bike_id":"2dbca010-e32a-4eb5-ae6c-76e433009b4f","system_id":"levelo_inurba_marseille","lat":43.24803,"lon":5.37452,"is_reserved":false,"is_disabled":false,"rental_uris":{"android":"levelo://app?vid=2dbca010-e32a-4eb5-ae6c-76e433009b4f","ios":"levelo://app?vid=2dbca010-e32a-4eb5-ae6c-76e433009b4f"},"vehicle_type_id":"4","last_reported":1746710624,"current_range_meters":6000,"station_id":"ce4bhgh2rcd13ifvqfb0","pricing_plan_id":"cebpf4jnsgd1na2vs0mg"},{"bike_id":"c997e643-6204-48b2-bbf1-275585c0bad1","system_id":"levelo_inurba_marseille","lat":43.29581,"lon":5.36737,"is_reserved":false,"is_disabled":false,"rental_uris":{"android":"levelo://app?vid=c997e643-6204-48b2-bbf1-275585c0bad1","ios":"levelo://app?vid=c997e643-6204-48b2-bbf1-275585c0bad1"},"vehicle_type_id":"4","last_reported":1746710624,"current_range_meters":6000,"station_id":"ce4bgph2rcd13ifvqc2g","pricing_plan_id":"cebpf4jnsgd1na2vs0mg"},{"bike_id":"b56b1bd8-0e95-4379-9296-c3cdef8c7c23","system_id":"levelo_inurba_marseille","lat":43.2938,"lon":5.37848,"is_reserved":false,"is_disabled":false,"rental_uris":{"android":"levelo://app?vid=b56b1bd8-0e95-4379-9296-c3cdef8c7c23","ios":"levelo://app?vid=b56b1bd8-0e95-4379-9296-c3cdef8c7c23"},"vehicle_type_id":"4","last_reported":1746710624,"current_range_meters":6400,"station_id":"ce4bgjh2rcd13ifvqbf0","pricing_plan_id":"cebpf4jnsgd1na2vs0mg"},{"bike_id":"0e367d35-fe8b-40dc-82b6-6001fd44ca0b","system_id":"levelo_inurba_marseille","lat":43.24392,"lon":5.37055,"is_reserved":false,"is_disabled":false,"rental_uris":{"android":"levelo://app?vid=0e367d35-fe8b-40dc-82b6-6001fd44ca0b","ios":"levelo://app?vid=0e367d35-fe8b-40dc-82b6-6001fd44ca0b"},"vehicle_type_id":"4","last_reported":1746710624,"current_range_meters":6400,"station_id":"ce4bhhh2rcd13ifvqfk0","pricing_plan_id":"cebpf4jnsgd1na2vs0mg"},{"bike_id":"bb6685c6-8835-42f7-8cdb-57288ab49efe","system_id":"levelo_inurba_marseille","lat":43.21197,"lon":5.35078,"is_reserved":false,"is_disabled":false,"rental_uris":{"android":"levelo://app?vid=bb6685c6-8835-42f7-8cdb-57288ab49efe","ios":"levelo://app?vid=bb6685c6-8835-42f7-8cdb-57288ab49efe"},"vehicle_type_id":"4","last_reported":1746710624,"current_range_meters":6400,"station_id":"st_cvj6sg6p6f1abm77japg","pricing_plan_id":"cebpf4jnsgd1na2vs0mg"},{"bike_id":"5d97afa3-75c8-4720-9690-7157f6b19de8","system_id":"levelo_inurba_marseille","lat":43.33622,"lon":5.40936,"is_reserved":false,"is_disabled":false,"rental_uris":{"android":"levelo://app?vid=5d97afa3-75c8-4720-9690-7157f6b19de8","ios":"levelo://app?vid=5d97afa3-75c8-4720-9690-7157f6b19de8"},"vehicle_type_id":"4","last_reported":1746710624,"current_range_meters":6800,"station_id":"","pricing_plan_id":"cebpf4jnsgd1na2vs0mg"},{"bike_id":"ddda1e7e-2780-4187-b2fe-c09599a440f7","system_id":"levelo_inurba_marseille","lat":43.23149,"lon":5.43718,"is_reserved":false,"is_disabled":false,"rental_uris":{"android":"levelo://app?vid=ddda1e7e-2780-4187-b2fe-c09599a440f7","ios":"levelo://app?vid=ddda1e7e-2780-4187-b2fe-c09599a440f7"},"vehicle_type_id":"4","last_reported":1746710624,"current_range_meters":6800,"station_id":"ce4bhmp2rcd13ifvqgog","pricing_plan_id":"cebpf4jnsgd1na2vs0mg"},{"bike_id":"987655ec-a7f1-4ccb-a365-fbb2689f2d7b","system_id":"levelo_inurba_marseille","lat":43.24666,"lon":5.38165,"is_reserved":false,"is_disabled":false,"rental_uris":{"android":"levelo://app?vid=987655ec-a7f1-4ccb-a365-fbb2689f2d7b","ios":"levelo://app?vid=987655ec-a7f1-4ccb-a365-fbb2689f2d7b"},"vehicle_type_id":"4","last_reported":1746710624,"current_range_meters":6800,"station_id":"ce4bhih2rcd13ifvqfr0","pricing_plan_id":"cebpf4jnsgd1na2vs0mg"},{"bike_id":"a297e50c-bb28-4d8d-97f5-57738833cd8f","system_id":"levelo_inurba_marseille","lat":43.22502,"lon":5.347987,"is_reserved":false,"is_disabled":false,"rental_uris":{"android":"levelo://app?vid=a297e50c-bb28-4d8d-97f5-57738833cd8f","ios":"levelo://app?vid=a297e50c-bb28-4d8d-97f5-57738833cd8f"},"vehicle_type_id":"4","last_reported":1746710624,"current_range_meters":6800,"station_id":"st_cvj5dfep6f1abm77gieg","pricing_plan_id":"cebpf4jnsgd1na2vs0mg"},{"bike_id":"b7bdbe3a-b7ec-4256-908f-dfa71835a5d1","system_id":"levelo_inurba_marseille","lat":43.2917,"lon":5.381053,"is_reserved":false,"is_disabled":false,"rental_uris":{"android":"levelo://app?vid=b7bdbe3a-b7ec-4256-908f-dfa71835a5d1","ios":"levelo://app?vid=b7bdbe3a-b7ec-4256-908f-dfa71835a5d1"},"vehicle_type_id":"4","last_reported":1746710624,"current_range_meters":6800,"station_id":"","pricing_plan_id":"cebpf4jnsgd1na2vs0mg"},{"bike_id":"bbcc8fc5-21c7-4edc-99c3-26164db0542a","system_id":"levelo_inurba_marseille","lat":43.259088,"lon":5.384943,"is_reserved":false,"is_disabled":false,"rental_uris":{"android":"levelo://app?vid=bbcc8fc5-21c7-4edc-99c3-26164db0542a","ios":"levelo://app?vid=bbcc8fc5-21c7-4edc-99c3-26164db0542a"},"vehicle_type_id":"4","last_reported":1746710624,"current_range_meters":7200,"station_id":"ce4bhih2rcd13ifvqfr0","pricing_plan_id":"cebpf4jnsgd1na2vs0mg"},{"bike_id":"37784623-e150-42af-98c7-91fbb6c53df5","system_id":"levelo_inurba_marseille","lat":43.30314,"lon":5.3921,"is_reserved":false,"is_disabled":false,"rental_uris":{"android":"levelo://app?vid=37784623-e150-42af-98c7-91fbb6c53df5","ios":"levelo://app?vid=37784623-e150-42af-98c7-91fbb6c53df5"},"vehicle_type_id":"4","last_reported":1746710624,"current_range_meters":7200,"station_id":"ce4bgkh2rcd13ifvqbk0","pricing_plan_id":"cebpf4jnsgd1na2vs0mg"},{"bike_id":"2f333e1d-f3e5-4828-84d0-6d5fbaee3fae","system_id":"levelo_inurba_marseille","lat":43.26557,"lon":5.39025,"is_reserved":false,"is_disabled":false,"rental_uris":{"android":"levelo://app?vid=2f333e1d-f3e5-4828-84d0-6d5fbaee3fae","ios":"levelo://app?vid=2f333e1d-f3e5-4828-84d0-6d5fbaee3fae"},"vehicle_type_id":"4","last_reported":1746710624,"current_range_meters":7200,"station_id":"ce4bhe12rcd13ifvqf30","pricing_plan_id":"cebpf4jnsgd1na2vs0mg"},{"bike_id":"7ea51322-62fc-4e9e-8623-aabf66da7b46","system_id":"levelo_inurba_marseille","lat":43.25581,"lon":5.38255,"is_reserved":false,"is_disabled":false,"rental_uris":{"android":"levelo://app?vid=7ea51322-62fc-4e9e-8623-aabf66da7b46","ios":"levelo://app?vid=7ea51322-62fc-4e9e-8623-aabf66da7b46"},"vehicle_type_id":"4","last_reported":1746710624,"current_range_meters":6800,"station_id":"ce4bhih2rcd13ifvqfs0","pricing_plan_id":"cebpf4jnsgd1na2vs0mg"},{"bike_id":"3bad184a-1567-45eb-bc31-e7ea1f0e01fc","system_id":"levelo_inurba_marseille","lat":43.22931,"lon":5.35379,"is_reserved":false,"is_disabled":false,"rental_uris":{"android":"levelo://app?vid=3bad184a-1567-45eb-bc31-e7ea1f0e01fc","ios":"levelo://app?vid=3bad184a-1567-45eb-bc31-e7ea1f0e01fc"},"vehicle_type_id":"4","last_reported":1746710624,"current_range_meters":7200,"station_id":"cpo3532slgdg3j2ikp40","pricing_plan_id":"cebpf4jnsgd1na2vs0mg"},{"bike_id":"0a280348-dd0f-406a-a66d-ad334fdce2f7","system_id":"levelo_inurba_marseille","lat":43.30463,"lon":5.37901,"is_reserved":false,"is_disabled":false,"rental_uris":{"android":"levelo://app?vid=0a280348-dd0f-406a-a66d-ad334fdce2f7","ios":"levelo://app?vid=0a280348-dd0f-406a-a66d-ad334fdce2f7"},"vehicle_type_id":"4","last_reported":1746710624,"current_range_meters":12800,"station_id":"ce4bgup2rcd13ifvqcn0","pricing_plan_id":"cebpf4jnsgd1na2vs0mg"},{"bike_id":"3bcffddb-f495-4fde-ab59-c90c69f11bcc","system_id":"levelo_inurba_marseille","lat":43.26942,"lon":5.40273,"is_reserved":false,"is_disabled":true,"rental_uris":{"android":"levelo://app?vid=3bcffddb-f495-4fde-ab59-c90c69f11bcc","ios":"levelo://app?vid=3bcffddb-f495-4fde-ab59-c90c69f11bcc"},"vehicle_type_id":"4","last_reported":1746710624,"current_range_meters":7200,"station_id":"cjm6bp8fraef2m0cb0m0","pricing_plan_id":"cebpf4jnsgd1na2vs0mg"},{"bike_id":"f7c0691e-b2a3-40f7-87eb-ab7bde533771","system_id":"levelo_inurba_marseille","lat":43.29557,"lon":5.42293,"is_reserved":false,"is_disabled":false,"rental_uris":{"android":"levelo://app?vid=f7c0691e-b2a3-40f7-87eb-ab7bde533771","ios":"levelo://app?vid=f7c0691e-b2a3-40f7-87eb-ab7bde533771"},"vehicle_type_id":"4","last_reported":1746710624,"current_range_meters":7200,"station_id":"ce4bhph2rcd13ifvqhdg","pricing_plan_id":"cebpf4jnsgd1na2vs0mg"},{"bike_id":"b618347d-a734-430b-9211-a656cd2dc3c9","system_id":"levelo_inurba_marseille","lat":43.30439,"lon":5.39744,"is_reserved":false,"is_disabled":false,"rental_uris":{"android":"levelo://app?vid=b618347d-a734-430b-9211-a656cd2dc3c9","ios":"levelo://app?vid=b618347d-a734-430b-9211-a656cd2dc3c9"},"vehicle_type_id":"4","last_reported":1746710624,"current_range_meters":7200,"station_id":"ce4bh092rcd13ifvqd20","pricing_plan_id":"cebpf4jnsgd1na2vs0mg"},{"bike_id":"be3a2ed9-e107-46dc-8066-89cfcff50847","system_id":"levelo_inurba_marseille","lat":43.29228,"lon":5.37113,"is_reserved":false,"is_disabled":false,"rental_uris":{"android":"levelo://app?vid=be3a2ed9-e107-46dc-8066-89cfcff50847","ios":"levelo://app?vid=be3a2ed9-e107-46dc-8066-89cfcff50847"},"vehicle_type_id":"4","last_reported":1746710624,"current_range_meters":8000,"station_id":"","pricing_plan_id":"cebpf4jnsgd1na2vs0mg"},{"bike_id":"896d3462-4257-48d2-a1bc-723f0dd22e77","system_id":"levelo_inurba_marseille","lat":43.24384,"lon":5.37062,"is_reserved":false,"is_disabled":false,"rental_uris":{"android":"levelo://app?vid=896d3462-4257-48d2-a1bc-723f0dd22e77","ios":"levelo://app?vid=896d3462-4257-48d2-a1bc-723f0dd22e77"},"vehicle_type_id":"4","last_reported":1746710624,"current_range_meters":8000,"station_id":"ce4bhhh2rcd13ifvqfk0","pricing_plan_id":"cebpf4jnsgd1na2vs0mg"},{"bike_id":"ffaf7abf-4cb1-4866-ac3c-102e314cafc8","system_id":"levelo_inurba_marseille","lat":43.24182,"lon":5.39714,"is_reserved":false,"is_disabled":false,"rental_uris":{"android":"levelo://app?vid=ffaf7abf-4cb1-4866-ac3c-102e314cafc8","ios":"levelo://app?vid=ffaf7abf-4cb1-4866-ac3c-102e314cafc8"},"vehicle_type_id":"4","last_reported":1746710624,"current_range_meters":8000,"station_id":"ce4bhn12rcd13ifvqgpg","pricing_plan_id":"cebpf4jnsgd1na2vs0mg"},{"bike_id":"142ae4bd-07d0-4c98-9bb0-a4ee761416fd","system_id":"levelo_inurba_marseille","lat":43.30137,"lon":5.38784,"is_reserved":false,"is_disabled":false,"rental_uris":{"android":"levelo://app?vid=142ae4bd-07d0-4c98-9bb0-a4ee761416fd","ios":"levelo://app?vid=142ae4bd-07d0-4c98-9bb0-a4ee761416fd"},"vehicle_type_id":"4","last_reported":1746710624,"current_range_meters":10800,"station_id":"ce4bghh2rcd13ifvqb60","pricing_plan_id":"cebpf4jnsgd1na2vs0mg"},{"bike_id":"abedcb24-96c4-4b9b-8e4a-f78b8ea6468f","system_id":"levelo_inurba_marseille","lat":43.23192,"lon":5.3558,"is_reserved":false,"is_disabled":false,"rental_uris":{"android":"levelo://app?vid=abedcb24-96c4-4b9b-8e4a-f78b8ea6468f","ios":"levelo://app?vid=abedcb24-96c4-4b9b-8e4a-f78b8ea6468f"},"vehicle_type_id":"4","last_reported":1746710624,"current_range_meters":8400,"station_id":"ce4bhu92rcd13ifvqi70","pricing_plan_id":"cebpf4jnsgd1na2vs0mg"},{"bike_id":"4ae7a83c-4508-4420-bdfc-fc011c19b67a","system_id":"levelo_inurba_marseille","lat":43.337699,"lon":5.374899,"is_reserved":false,"is_disabled":false,"rental_uris":{"android":"levelo://app?vid=4ae7a83c-4508-4420-bdfc-fc011c19b67a","ios":"levelo://app?vid=4ae7a83c-4508-4420-bdfc-fc011c19b67a"},"vehicle_type_id":"4","last_reported":1746710624,"current_range_meters":8400,"station_id":"","pricing_plan_id":"cebpf4jnsgd1na2vs0mg"},{"bike_id":"f2265f2b-0eb3-47c5-81df-72d4c60e9b77","system_id":"levelo_inurba_marseille","lat":43.23204,"lon":5.39969,"is_reserved":false,"is_disabled":false,"rental_uris":{"android":"levelo://app?vid=f2265f2b-0eb3-47c5-81df-72d4c60e9b77","ios":"levelo://app?vid=f2265f2b-0eb3-47c5-81df-72d4c60e9b77"},"vehicle_type_id":"4","last_reported":1746710624,"current_range_meters":8400,"station_id":"ce4bhn12rcd13ifvqgqg","pricing_plan_id":"cebpf4jnsgd1na2vs0mg"},{"bike_id":"c461bae5-c90a-41bf-a070-193814deff2e","system_id":"levelo_inurba_marseille","lat":43.2926,"lon":5.40916,"is_reserved":false,"is_disabled":false,"rental_uris":{"android":"levelo://app?vid=c461bae5-c90a-41bf-a070-193814deff2e","ios":"levelo://app?vid=c461bae5-c90a-41bf-a070-193814deff2e"},"vehicle_type_id":"4","last_reported":1746710624,"current_range_meters":8800,"station_id":"ce4bh192rcd13ifvqdc0","pricing_plan_id":"cebpf4jnsgd1na2vs0mg"},{"bike_id":"9e48197a-a1a4-456e-8229-7bbe1bb71309","system_id":"levelo_inurba_marseille","lat":43.23184,"lon":5.39983,"is_reserved":false,"is_disabled":false,"rental_uris":{"android":"levelo://app?vid=9e48197a-a1a4-456e-8229-7bbe1bb71309","ios":"levelo://app?vid=9e48197a-a1a4-456e-8229-7bbe1bb71309"},"vehicle_type_id":"4","last_reported":1746710624,"current_range_meters":8800,"station_id":"ce4bhn12rcd13ifvqgqg","pricing_plan_id":"cebpf4jnsgd1na2vs0mg"},{"bike_id":"5a6db143-4498-48d8-9b5c-8994d3ba704a","system_id":"levelo_inurba_marseille","lat":43.21186,"lon":5.35083,"is_reserved":false,"is_disabled":false,"rental_uris":{"android":"levelo://app?vid=5a6db143-4498-48d8-9b5c-8994d3ba704a","ios":"levelo://app?vid=5a6db143-4498-48d8-9b5c-8994d3ba704a"},"vehicle_type_id":"4","last_reported":1746710624,"current_range_meters":8800,"station_id":"st_cvj6sg6p6f1abm77japg","pricing_plan_id":"cebpf4jnsgd1na2vs0mg"},{"bike_id":"e2dc1361-624b-4267-86dd-7d5d8668fc4b","system_id":"levelo_inurba_marseille","lat":43.32345,"lon":5.40617,"is_reserved":false,"is_disabled":false,"rental_uris":{"android":"levelo://app?vid=e2dc1361-624b-4267-86dd-7d5d8668fc4b","ios":"levelo://app?vid=e2dc1361-624b-4267-86dd-7d5d8668fc4b"},"vehicle_type_id":"4","last_reported":1746710624,"current_range_meters":8800,"station_id":"ce4bhq92rcd13ifvqhjg","pricing_plan_id":"cebpf4jnsgd1na2vs0mg"},{"bike_id":"31f79961-ef7d-43a7-836f-5186f737d09b","system_id":"levelo_inurba_marseille","lat":43.28271,"lon":5.35068,"is_reserved":false,"is_disabled":false,"rental_uris":{"android":"levelo://app?vid=31f79961-ef7d-43a7-836f-5186f737d09b","ios":"levelo://app?vid=31f79961-ef7d-43a7-836f-5186f737d09b"},"vehicle_type_id":"4","last_reported":1746710624,"current_range_meters":8800,"station_id":"ce4bhbp2rcd13ifvqerg","pricing_plan_id":"cebpf4jnsgd1na2vs0mg"},{"bike_id":"b15fe93b-1059-4d75-abd3-040e349ce402","system_id":"levelo_inurba_marseille","lat":43.30104,"lon":5.37011,"is_reserved":false,"is_disabled":false,"rental_uris":{"android":"levelo://app?vid=b15fe93b-1059-4d75-abd3-040e349ce402","ios":"levelo://app?vid=b15fe93b-1059-4d75-abd3-040e349ce402"},"vehicle_type_id":"4","last_reported":1746710624,"current_range_meters":8800,"station_id":"","pricing_plan_id":"cebpf4jnsgd1na2vs0mg"},{"bike_id":"57c40290-2458-4bb6-8c86-404e2badfe80","system_id":"levelo_inurba_marseille","lat":43.28107,"lon":5.37834,"is_reserved":false,"is_disabled":false,"rental_uris":{"android":"levelo://app?vid=57c40290-2458-4bb6-8c86-404e2badfe80","ios":"levelo://app?vid=57c40290-2458-4bb6-8c86-404e2badfe80"},"vehicle_type_id":"4","last_reported":1746710624,"current_range_meters":8800,"station_id":"ce4bha12rcd13ifvqee0","pricing_plan_id":"cebpf4jnsgd1na2vs0mg"},{"bike_id":"10e0630b-f32e-414e-a112-acd9a0b41e87","system_id":"levelo_inurba_marseille","lat":43.27811,"lon":5.40713,"is_reserved":false,"is_disabled":false,"rental_uris":{"android":"levelo://app?vid=10e0630b-f32e-414e-a112-acd9a0b41e87","ios":"levelo://app?vid=10e0630b-f32e-414e-a112-acd9a0b41e87"},"vehicle_type_id":"4","last_reported":1746710624,"current_range_meters":8800,"station_id":"ce4bhnh2rcd13ifvqgtg","pricing_plan_id":"cebpf4jnsgd1na2vs0mg"},{"bike_id":"2be647d5-519c-42b3-9c07-2bdea29d5767","system_id":"levelo_inurba_marseille","lat":43.26693,"lon":5.38272,"is_reserved":false,"is_disabled":false,"rental_uris":{"android":"levelo://app?vid=2be647d5-519c-42b3-9c07-2bdea29d5767","ios":"levelo://app?vid=2be647d5-519c-42b3-9c07-2bdea29d5767"},"vehicle_type_id":"4","last_reported":1746710624,"current_range_meters":9200,"station_id":"ce4bhg92rcd13ifvqf90","pricing_plan_id":"cebpf4jnsgd1na2vs0mg"},{"bike_id":"da7c0f32-6def-4ecb-880b-77b9711f990c","system_id":"levelo_inurba_marseille","lat":43.30148,"lon":5.38068,"is_reserved":false,"is_disabled":false,"rental_uris":{"android":"levelo://app?vid=da7c0f32-6def-4ecb-880b-77b9711f990c","ios":"levelo://app?vid=da7c0f32-6def-4ecb-880b-77b9711f990c"},"vehicle_type_id":"4","last_reported":1746710624,"current_range_meters":9200,"station_id":"ce4bgjp2rcd13ifvqbh0","pricing_plan_id":"cebpf4jnsgd1na2vs0mg"},{"bike_id":"1b34466f-a118-46f6-a5f5-227f007ae3a7","system_id":"levelo_inurba_marseille","lat":43.23196,"lon":5.35562,"is_reserved":false,"is_disabled":false,"rental_uris":{"android":"levelo://app?vid=1b34466f-a118-46f6-a5f5-227f007ae3a7","ios":"levelo://app?vid=1b34466f-a118-46f6-a5f5-227f007ae3a7"},"vehicle_type_id":"4","last_reported":1746710624,"current_range_meters":9200,"station_id":"ce4bhu92rcd13ifvqi70","pricing_plan_id":"cebpf4jnsgd1na2vs0mg"},{"bike_id":"e85ed4de-8b9d-4ca1-a0a4-4df471fc85a5","system_id":"levelo_inurba_marseille","lat":43.25585,"lon":5.38239,"is_reserved":false,"is_disabled":false,"rental_uris":{"android":"levelo://app?vid=e85ed4de-8b9d-4ca1-a0a4-4df471fc85a5","ios":"levelo://app?vid=e85ed4de-8b9d-4ca1-a0a4-4df471fc85a5"},"vehicle_type_id":"4","last_reported":1746710624,"current_range_meters":9200,"station_id":"ce4bhih2rcd13ifvqfs0","pricing_plan_id":"cebpf4jnsgd1na2vs0mg"},{"bike_id":"ca4671e9-a2f0-4a5c-973e-6e3cd6a8ccc4","system_id":"levelo_inurba_marseille","lat":43.273764,"lon":5.362638,"is_reserved":false,"is_disabled":false,"rental_uris":{"android":"levelo://app?vid=ca4671e9-a2f0-4a5c-973e-6e3cd6a8ccc4","ios":"levelo://app?vid=ca4671e9-a2f0-4a5c-973e-6e3cd6a8ccc4"},"vehicle_type_id":"4","last_reported":1746710624,"current_range_meters":9600,"station_id":"","pricing_plan_id":"cebpf4jnsgd1na2vs0mg"},{"bike_id":"96b8010e-e85b-4858-89b1-1a23165cf390","system_id":"levelo_inurba_marseille","lat":43.21748,"lon":5.34602,"is_reserved":false,"is_disabled":false,"rental_uris":{"android":"levelo://app?vid=96b8010e-e85b-4858-89b1-1a23165cf390","ios":"levelo://app?vid=96b8010e-e85b-4858-89b1-1a23165cf390"},"vehicle_type_id":"4","last_reported":1746710624,"current_range_meters":9600,"station_id":"st_cvj6r9ubvosntc0bgbag","pricing_plan_id":"cebpf4jnsgd1na2vs0mg"},{"bike_id":"f2a7b915-03ae-4dc0-8649-e3c206af0129","system_id":"levelo_inurba_marseille","lat":43.28437,"lon":5.34982,"is_reserved":false,"is_disabled":false,"rental_uris":{"android":"levelo://app?vid=f2a7b915-03ae-4dc0-8649-e3c206af0129","ios":"levelo://app?vid=f2a7b915-03ae-4dc0-8649-e3c206af0129"},"vehicle_type_id":"4","last_reported":1746710624,"current_range_meters":9600,"station_id":"ce4bhbh2rcd13ifvqepg","pricing_plan_id":"cebpf4jnsgd1na2vs0mg"},{"bike_id":"6e93f1d6-ba81-442b-b809-e743c6abf513","system_id":"levelo_inurba_marseille","lat":43.30147,"lon":5.38076,"is_reserved":false,"is_disabled":false,"rental_uris":{"android":"levelo://app?vid=6e93f1d6-ba81-442b-b809-e743c6abf513","ios":"levelo://app?vid=6e93f1d6-ba81-442b-b809-e743c6abf513"},"vehicle_type_id":"4","last_reported":1746710624,"current_range_meters":9600,"station_id":"ce4bgjp2rcd13ifvqbh0","pricing_plan_id":"cebpf4jnsgd1na2vs0mg"},{"bike_id":"f7c20756-0ea8-4a32-8575-25679b52684e","system_id":"levelo_inurba_marseille","lat":43.30539,"lon":5.36549,"is_reserved":false,"is_disabled":false,"rental_uris":{"android":"levelo://app?vid=f7c20756-0ea8-4a32-8575-25679b52684e","ios":"levelo://app?vid=f7c20756-0ea8-4a32-8575-25679b52684e"},"vehicle_type_id":"4","last_reported":1746710624,"current_range_meters":12400,"station_id":"ce4bgs12rcd13ifvqcag","pricing_plan_id":"cebpf4jnsgd1na2vs0mg"},{"bike_id":"c19ac314-2bee-4511-afb6-2eeb47358495","system_id":"levelo_inurba_marseille","lat":43.24394,"lon":5.37065,"is_reserved":false,"is_disabled":false,"rental_uris":{"android":"levelo://app?vid=c19ac314-2bee-4511-afb6-2eeb47358495","ios":"levelo://app?vid=c19ac314-2bee-4511-afb6-2eeb47358495"},"vehicle_type_id":"4","last_reported":1746710624,"current_range_meters":9600,"station_id":"ce4bhhh2rcd13ifvqfk0","pricing_plan_id":"cebpf4jnsgd1na2vs0mg"},{"bike_id":"a9f3c931-d45d-4d3c-a1dc-04cd7b247917","system_id":"levelo_inurba_marseille","lat":43.21753,"lon":5.34607,"is_reserved":false,"is_disabled":false,"rental_uris":{"android":"levelo://app?vid=a9f3c931-d45d-4d3c-a1dc-04cd7b247917","ios":"levelo://app?vid=a9f3c931-d45d-4d3c-a1dc-04cd7b247917"},"vehicle_type_id":"4","last_reported":1746710624,"current_range_meters":10000,"station_id":"st_cvj6r9ubvosntc0bgbag","pricing_plan_id":"cebpf4jnsgd1na2vs0mg"},{"bike_id":"89e0bf27-f3f4-4c48-899e-43928dff0d19","system_id":"levelo_inurba_marseille","lat":43.21192,"lon":5.35077,"is_reserved":false,"is_disabled":false,"rental_uris":{"android":"levelo://app?vid=89e0bf27-f3f4-4c48-899e-43928dff0d19","ios":"levelo://app?vid=89e0bf27-f3f4-4c48-899e-43928dff0d19"},"vehicle_type_id":"4","last_reported":1746710624,"current_range_meters":10000,"station_id":"st_cvj6sg6p6f1abm77japg","pricing_plan_id":"cebpf4jnsgd1na2vs0mg"},{"bike_id":"764f7530-c324-4cb7-bc97-9325e8135a76","system_id":"levelo_inurba_marseille","lat":43.23191,"lon":5.39982,"is_reserved":false,"is_disabled":false,"rental_uris":{"android":"levelo://app?vid=764f7530-c324-4cb7-bc97-9325e8135a76","ios":"levelo://app?vid=764f7530-c324-4cb7-bc97-9325e8135a76"},"vehicle_type_id":"4","last_reported":1746710624,"current_range_meters":10800,"station_id":"ce4bhn12rcd13ifvqgqg","pricing_plan_id":"cebpf4jnsgd1na2vs0mg"},{"bike_id":"05fc3b3e-72e8-4167-b3c2-79b736232862","system_id":"levelo_inurba_marseille","lat":43.28941,"lon":5.36641,"is_reserved":false,"is_disabled":false,"rental_uris":{"android":"levelo://app?vid=05fc3b3e-72e8-4167-b3c2-79b736232862","ios":"levelo://app?vid=05fc3b3e-72e8-4167-b3c2-79b736232862"},"vehicle_type_id":"4","last_reported":1746710624,"current_range_meters":10000,"station_id":"ce4bhap2rcd13ifvqek0","pricing_plan_id":"cebpf4jnsgd1na2vs0mg"},{"bike_id":"82b70d31-5e65-49ec-a303-a26b8f5941a4","system_id":"levelo_inurba_marseille","lat":43.21198,"lon":5.35072,"is_reserved":false,"is_disabled":false,"rental_uris":{"android":"levelo://app?vid=82b70d31-5e65-49ec-a303-a26b8f5941a4","ios":"levelo://app?vid=82b70d31-5e65-49ec-a303-a26b8f5941a4"},"vehicle_type_id":"4","last_reported":1746710624,"current_range_meters":11200,"station_id":"st_cvj6sg6p6f1abm77japg","pricing_plan_id":"cebpf4jnsgd1na2vs0mg"},{"bike_id":"68ef74da-7dfb-419f-8d59-e745a0890e28","system_id":"levelo_inurba_marseille","lat":43.29173,"lon":5.37163,"is_reserved":false,"is_disabled":false,"rental_uris":{"android":"levelo://app?vid=68ef74da-7dfb-419f-8d59-e745a0890e28","ios":"levelo://app?vid=68ef74da-7dfb-419f-8d59-e745a0890e28"},"vehicle_type_id":"4","last_reported":1746710624,"current_range_meters":11600,"station_id":"ce4bha92rcd13ifvqeh0","pricing_plan_id":"cebpf4jnsgd1na2vs0mg"},{"bike_id":"7d9c7a52-1440-42f0-ac97-48a24f937a18","system_id":"levelo_inurba_marseille","lat":43.257269,"lon":5.411132,"is_reserved":false,"is_disabled":false,"rental_uris":{"android":"levelo://app?vid=7d9c7a52-1440-42f0-ac97-48a24f937a18","ios":"levelo://app?vid=7d9c7a52-1440-42f0-ac97-48a24f937a18"},"vehicle_type_id":"4","last_reported":1746710624,"current_range_meters":11600,"station_id":"ce4bhkp2rcd13ifvqgd0","pricing_plan_id":"cebpf4jnsgd1na2vs0mg"},{"bike_id":"66649348-1e94-4d03-a0d9-f2f39be9a152","system_id":"levelo_inurba_marseille","lat":43.2894,"lon":5.36636,"is_reserved":false,"is_disabled":false,"rental_uris":{"android":"levelo://app?vid=66649348-1e94-4d03-a0d9-f2f39be9a152","ios":"levelo://app?vid=66649348-1e94-4d03-a0d9-f2f39be9a152"},"vehicle_type_id":"4","last_reported":1746710624,"current_range_meters":11600,"station_id":"ce4bhap2rcd13ifvqek0","pricing_plan_id":"cebpf4jnsgd1na2vs0mg"},{"bike_id":"b993bfc3-7b06-4f3c-acf1-d5ff0d7234ba","system_id":"levelo_inurba_marseille","lat":43.21749,"lon":5.346007,"is_reserved":false,"is_disabled":false,"rental_uris":{"android":"levelo://app?vid=b993bfc3-7b06-4f3c-acf1-d5ff0d7234ba","ios":"levelo://app?vid=b993bfc3-7b06-4f3c-acf1-d5ff0d7234ba"},"vehicle_type_id":"4","last_reported":1746710624,"current_range_meters":11600,"station_id":"st_cvj6r9ubvosntc0bgbag","pricing_plan_id":"cebpf4jnsgd1na2vs0mg"},{"bike_id":"cc4a90ad-8d54-45e8-afef-0cec98b92d25","system_id":"levelo_inurba_marseille","lat":43.28622,"lon":5.35107,"is_reserved":false,"is_disabled":false,"rental_uris":{"android":"levelo://app?vid=cc4a90ad-8d54-45e8-afef-0cec98b92d25","ios":"levelo://app?vid=cc4a90ad-8d54-45e8-afef-0cec98b92d25"},"vehicle_type_id":"4","last_reported":1746710624,"current_range_meters":11600,"station_id":"ce4bhch2rcd13ifvqeug","pricing_plan_id":"cebpf4jnsgd1na2vs0mg"},{"bike_id":"809c8673-c032-46b9-aa07-62c38e26d44e","system_id":"levelo_inurba_marseille","lat":43.2505,"lon":5.38789,"is_reserved":false,"is_disabled":false,"rental_uris":{"android":"levelo://app?vid=809c8673-c032-46b9-aa07-62c38e26d44e","ios":"levelo://app?vid=809c8673-c032-46b9-aa07-62c38e26d44e"},"vehicle_type_id":"4","last_reported":1746710624,"current_range_meters":12000,"station_id":"","pricing_plan_id":"cebpf4jnsgd1na2vs0mg"},{"bike_id":"5966a493-613f-4419-a9c9-06aa5a23dfad","system_id":"levelo_inurba_marseille","lat":43.23187,"lon":5.39976,"is_reserved":false,"is_disabled":false,"rental_uris":{"android":"levelo://app?vid=5966a493-613f-4419-a9c9-06aa5a23dfad","ios":"levelo://app?vid=5966a493-613f-4419-a9c9-06aa5a23dfad"},"vehicle_type_id":"4","last_reported":1746710624,"current_range_meters":12000,"station_id":"ce4bhn12rcd13ifvqgqg","pricing_plan_id":"cebpf4jnsgd1na2vs0mg"},{"bike_id":"ebad05e8-f447-4538-81dc-2edb600ef8bc","system_id":"levelo_inurba_marseille","lat":43.285892,"lon":5.370515,"is_reserved":false,"is_disabled":false,"rental_uris":{"android":"levelo://app?vid=ebad05e8-f447-4538-81dc-2edb600ef8bc","ios":"levelo://app?vid=ebad05e8-f447-4538-81dc-2edb600ef8bc"},"vehicle_type_id":"4","last_reported":1746710624,"current_range_meters":12000,"station_id":"ce4bht12rcd13ifvqi60","pricing_plan_id":"cebpf4jnsgd1na2vs0mg"},{"bike_id":"27c30134-07cf-43cc-be8b-1965864c310d","system_id":"levelo_inurba_marseille","lat":43.23064,"lon":5.35488,"is_reserved":false,"is_disabled":false,"rental_uris":{"android":"levelo://app?vid=27c30134-07cf-43cc-be8b-1965864c310d","ios":"levelo://app?vid=27c30134-07cf-43cc-be8b-1965864c310d"},"vehicle_type_id":"4","last_reported":1746710624,"current_range_meters":12400,"station_id":"cpo3342slgdg3j2ifvpg","pricing_plan_id":"cebpf4jnsgd1na2vs0mg"},{"bike_id":"1dbca2d8-f38d-4a6f-b699-a509361b20e3","system_id":"levelo_inurba_marseille","lat":43.23968,"lon":5.36626,"is_reserved":false,"is_disabled":false,"rental_uris":{"android":"levelo://app?vid=1dbca2d8-f38d-4a6f-b699-a509361b20e3","ios":"levelo://app?vid=1dbca2d8-f38d-4a6f-b699-a509361b20e3"},"vehicle_type_id":"4","last_reported":1746710624,"current_range_meters":12400,"station_id":"ce4bhi12rcd13ifvqfp0","pricing_plan_id":"cebpf4jnsgd1na2vs0mg"},{"bike_id":"c835f726-2c36-423a-be88-d89aa9588968","system_id":"levelo_inurba_marseille","lat":43.27435,"lon":5.39415,"is_reserved":false,"is_disabled":false,"rental_uris":{"android":"levelo://app?vid=c835f726-2c36-423a-be88-d89aa9588968","ios":"levelo://app?vid=c835f726-2c36-423a-be88-d89aa9588968"},"vehicle_type_id":"4","last_reported":1746710624,"current_range_meters":12400,"station_id":"ce4bhdp2rcd13ifvqf20","pricing_plan_id":"cebpf4jnsgd1na2vs0mg"},{"bike_id":"3ae17bcc-1fcf-4ab5-8d2b-77b621afe84b","system_id":"levelo_inurba_marseille","lat":43.26779,"lon":5.39414,"is_reserved":false,"is_disabled":false,"rental_uris":{"android":"levelo://app?vid=3ae17bcc-1fcf-4ab5-8d2b-77b621afe84b","ios":"levelo://app?vid=3ae17bcc-1fcf-4ab5-8d2b-77b621afe84b"},"vehicle_type_id":"4","last_reported":1746710624,"current_range_meters":12400,"station_id":"ce4bhh12rcd13ifvqfg0","pricing_plan_id":"cebpf4jnsgd1na2vs0mg"},{"bike_id":"d46c7dbf-57db-48cc-95df-56a370b26607","system_id":"levelo_inurba_marseille","lat":43.28273,"lon":5.35072,"is_reserved":false,"is_disabled":false,"rental_uris":{"android":"levelo://app?vid=d46c7dbf-57db-48cc-95df-56a370b26607","ios":"levelo://app?vid=d46c7dbf-57db-48cc-95df-56a370b26607"},"vehicle_type_id":"4","last_reported":1746710624,"current_range_meters":12800,"station_id":"ce4bhbp2rcd13ifvqerg","pricing_plan_id":"cebpf4jnsgd1na2vs0mg"},{"bike_id":"d74564cb-cbd2-49b1-aebe-f1291528a118","system_id":"levelo_inurba_marseille","lat":43.28269,"lon":5.35066,"is_reserved":false,"is_disabled":false,"rental_uris":{"android":"levelo://app?vid=d74564cb-cbd2-49b1-aebe-f1291528a118","ios":"levelo://app?vid=d74564cb-cbd2-49b1-aebe-f1291528a118"},"vehicle_type_id":"4","last_reported":1746710624,"current_range_meters":12800,"station_id":"ce4bhbp2rcd13ifvqerg","pricing_plan_id":"cebpf4jnsgd1na2vs0mg"},{"bike_id":"6971f759-8594-489e-a8f6-9153c9a9c438","system_id":"levelo_inurba_marseille","lat":43.27692,"lon":5.41966,"is_reserved":false,"is_disabled":false,"rental_uris":{"android":"levelo://app?vid=6971f759-8594-489e-a8f6-9153c9a9c438","ios":"levelo://app?vid=6971f759-8594-489e-a8f6-9153c9a9c438"},"vehicle_type_id":"4","last_reported":1746710624,"current_range_meters":12800,"station_id":"","pricing_plan_id":"cebpf4jnsgd1na2vs0mg"},{"bike_id":"9c005499-0aea-42f5-b306-f952f291a10c","system_id":"levelo_inurba_marseille","lat":43.273826,"lon":5.362601,"is_reserved":false,"is_disabled":false,"rental_uris":{"android":"levelo://app?vid=9c005499-0aea-42f5-b306-f952f291a10c","ios":"levelo://app?vid=9c005499-0aea-42f5-b306-f952f291a10c"},"vehicle_type_id":"4","last_reported":1746710624,"current_range_meters":12800,"station_id":"ce4bhbh2rcd13ifvqeo0","pricing_plan_id":"cebpf4jnsgd1na2vs0mg"},{"bike_id":"b3ec4808-0fa3-48cb-b47f-cdcc7a341742","system_id":"levelo_inurba_marseille","lat":43.28268,"lon":5.35071,"is_reserved":false,"is_disabled":false,"rental_uris":{"android":"levelo://app?vid=b3ec4808-0fa3-48cb-b47f-cdcc7a341742","ios":"levelo://app?vid=b3ec4808-0fa3-48cb-b47f-cdcc7a341742"},"vehicle_type_id":"4","last_reported":1746710624,"current_range_meters":13600,"station_id":"ce4bhbp2rcd13ifvqerg","pricing_plan_id":"cebpf4jnsgd1na2vs0mg"},{"bike_id":"c35362b0-18fb-4094-8d7a-a39ea7abadfa","system_id":"levelo_inurba_marseille","lat":43.27379,"lon":5.36262,"is_reserved":false,"is_disabled":false,"rental_uris":{"android":"levelo://app?vid=c35362b0-18fb-4094-8d7a-a39ea7abadfa","ios":"levelo://app?vid=c35362b0-18fb-4094-8d7a-a39ea7abadfa"},"vehicle_type_id":"4","last_reported":1746710624,"current_range_meters":13600,"station_id":"ce4bhbh2rcd13ifvqeo0","pricing_plan_id":"cebpf4jnsgd1na2vs0mg"},{"bike_id":"ad03c535-6f9f-43a4-8fb8-de73a608e3e8","system_id":"levelo_inurba_marseille","lat":43.21754,"lon":5.34611,"is_reserved":false,"is_disabled":false,"rental_uris":{"android":"levelo://app?vid=ad03c535-6f9f-43a4-8fb8-de73a608e3e8","ios":"levelo://app?vid=ad03c535-6f9f-43a4-8fb8-de73a608e3e8"},"vehicle_type_id":"4","last_reported":1746710624,"current_range_meters":14000,"station_id":"st_cvj6r9ubvosntc0bgbag","pricing_plan_id":"cebpf4jnsgd1na2vs0mg"},{"bike_id":"caccb556-2ad0-45b8-84b8-819024dd44e6","system_id":"levelo_inurba_marseille","lat":43.29792,"lon":5.36775,"is_reserved":false,"is_disabled":false,"rental_uris":{"android":"levelo://app?vid=caccb556-2ad0-45b8-84b8-819024dd44e6","ios":"levelo://app?vid=caccb556-2ad0-45b8-84b8-819024dd44e6"},"vehicle_type_id":"4","last_reported":1746710624,"current_range_meters":14000,"station_id":"","pricing_plan_id":"cebpf4jnsgd1na2vs0mg"},{"bike_id":"570a1e75-38fd-4522-855f-913bcc105472","system_id":"levelo_inurba_marseille","lat":43.264985,"lon":5.395411,"is_reserved":false,"is_disabled":false,"rental_uris":{"android":"levelo://app?vid=570a1e75-38fd-4522-855f-913bcc105472","ios":"levelo://app?vid=570a1e75-38fd-4522-855f-913bcc105472"},"vehicle_type_id":"4","last_reported":1746710624,"current_range_meters":14000,"station_id":"ce4bhi12rcd13ifvqfq0","pricing_plan_id":"cebpf4jnsgd1na2vs0mg"},{"bike_id":"e6282093-23fb-41a9-859d-c0d9ad966535","system_id":"levelo_inurba_marseille","lat":43.31711,"lon":5.37773,"is_reserved":false,"is_disabled":false,"rental_uris":{"android":"levelo://app?vid=e6282093-23fb-41a9-859d-c0d9ad966535","ios":"levelo://app?vid=e6282093-23fb-41a9-859d-c0d9ad966535"},"vehicle_type_id":"4","last_reported":1746710624,"current_range_meters":14400,"station_id":"ce4bgth2rcd13ifvqch0","pricing_plan_id":"cebpf4jnsgd1na2vs0mg"},{"bike_id":"0cc4c5b6-30ce-4cee-9a91-39e4ac7c5115","system_id":"levelo_inurba_marseille","lat":43.28274,"lon":5.35055,"is_reserved":false,"is_disabled":false,"rental_uris":{"android":"levelo://app?vid=0cc4c5b6-30ce-4cee-9a91-39e4ac7c5115","ios":"levelo://app?vid=0cc4c5b6-30ce-4cee-9a91-39e4ac7c5115"},"vehicle_type_id":"4","last_reported":1746710624,"current_range_meters":14400,"station_id":"ce4bhbp2rcd13ifvqerg","pricing_plan_id":"cebpf4jnsgd1na2vs0mg"},{"bike_id":"fcb60d48-d01d-4d33-be73-0d8b5f6f848e","system_id":"levelo_inurba_marseille","lat":43.211957,"lon":5.350733,"is_reserved":false,"is_disabled":false,"rental_uris":{"android":"levelo://app?vid=fcb60d48-d01d-4d33-be73-0d8b5f6f848e","ios":"levelo://app?vid=fcb60d48-d01d-4d33-be73-0d8b5f6f848e"},"vehicle_type_id":"4","last_reported":1746710624,"current_range_meters":14400,"station_id":"","pricing_plan_id":"cebpf4jnsgd1na2vs0mg"},{"bike_id":"5c00bf00-d2ca-4e22-abd7-2d3041c20d5e","system_id":"levelo_inurba_marseille","lat":43.32339,"lon":5.40622,"is_reserved":false,"is_disabled":false,"rental_uris":{"android":"levelo://app?vid=5c00bf00-d2ca-4e22-abd7-2d3041c20d5e","ios":"levelo://app?vid=5c00bf00-d2ca-4e22-abd7-2d3041c20d5e"},"vehicle_type_id":"4","last_reported":1746710624,"current_range_meters":14400,"station_id":"ce4bhq92rcd13ifvqhjg","pricing_plan_id":"cebpf4jnsgd1na2vs0mg"},{"bike_id":"a2309e80-b2ba-42c9-9c60-147f0babf9f9","system_id":"levelo_inurba_marseille","lat":43.30834,"lon":5.37029,"is_reserved":false,"is_disabled":false,"rental_uris":{"android":"levelo://app?vid=a2309e80-b2ba-42c9-9c60-147f0babf9f9","ios":"levelo://app?vid=a2309e80-b2ba-42c9-9c60-147f0babf9f9"},"vehicle_type_id":"4","last_reported":1746710624,"current_range_meters":14800,"station_id":"","pricing_plan_id":"cebpf4jnsgd1na2vs0mg"},{"bike_id":"2d5a8321-5bee-4d7f-8c32-ea1fb72d9485","system_id":"levelo_inurba_marseille","lat":43.32034,"lon":5.41562,"is_reserved":false,"is_disabled":false,"rental_uris":{"android":"levelo://app?vid=2d5a8321-5bee-4d7f-8c32-ea1fb72d9485","ios":"levelo://app?vid=2d5a8321-5bee-4d7f-8c32-ea1fb72d9485"},"vehicle_type_id":"4","last_reported":1746710624,"current_range_meters":14400,"station_id":"ce4bhq92rcd13ifvqhkg","pricing_plan_id":"cebpf4jnsgd1na2vs0mg"},{"bike_id":"89f953df-2061-408d-8f0d-6a2938e5443a","system_id":"levelo_inurba_marseille","lat":43.23673,"lon":5.40347,"is_reserved":false,"is_disabled":false,"rental_uris":{"android":"levelo://app?vid=89f953df-2061-408d-8f0d-6a2938e5443a","ios":"levelo://app?vid=89f953df-2061-408d-8f0d-6a2938e5443a"},"vehicle_type_id":"4","last_reported":1746710624,"current_range_meters":14800,"station_id":"","pricing_plan_id":"cebpf4jnsgd1na2vs0mg"},{"bike_id":"b045e8f7-ea56-48fb-90db-293374f80546","system_id":"levelo_inurba_marseille","lat":43.29959,"lon":5.41318,"is_reserved":false,"is_disabled":false,"rental_uris":{"android":"levelo://app?vid=b045e8f7-ea56-48fb-90db-293374f80546","ios":"levelo://app?vid=b045e8f7-ea56-48fb-90db-293374f80546"},"vehicle_type_id":"4","last_reported":1746710624,"current_range_meters":14800,"station_id":"ce4bhp12rcd13ifvqh9g","pricing_plan_id":"cebpf4jnsgd1na2vs0mg"},{"bike_id":"22d1f17c-ac80-4ec2-a4f8-cbc0680016c4","system_id":"levelo_inurba_marseille","lat":43.21754,"lon":5.34602,"is_reserved":false,"is_disabled":false,"rental_uris":{"android":"levelo://app?vid=22d1f17c-ac80-4ec2-a4f8-cbc0680016c4","ios":"levelo://app?vid=22d1f17c-ac80-4ec2-a4f8-cbc0680016c4"},"vehicle_type_id":"4","last_reported":1746710624,"current_range_meters":14800,"station_id":"st_cvj6r9ubvosntc0bgbag","pricing_plan_id":"cebpf4jnsgd1na2vs0mg"},{"bike_id":"8b752d83-1a18-4262-ae41-999759213c34","system_id":"levelo_inurba_marseille","lat":43.28273,"lon":5.35064,"is_reserved":false,"is_disabled":false,"rental_uris":{"android":"levelo://app?vid=8b752d83-1a18-4262-ae41-999759213c34","ios":"levelo://app?vid=8b752d83-1a18-4262-ae41-999759213c34"},"vehicle_type_id":"4","last_reported":1746710624,"current_range_meters":14800,"station_id":"ce4bhbp2rcd13ifvqerg","pricing_plan_id":"cebpf4jnsgd1na2vs0mg"},{"bike_id":"3ec06d76-bcc2-45e1-b3d2-5c8128038fa8","system_id":"levelo_inurba_marseille","lat":43.30214,"lon":5.39468,"is_reserved":false,"is_disabled":false,"rental_uris":{"android":"levelo://app?vid=3ec06d76-bcc2-45e1-b3d2-5c8128038fa8","ios":"levelo://app?vid=3ec06d76-bcc2-45e1-b3d2-5c8128038fa8"},"vehicle_type_id":"4","last_reported":1746710624,"current_range_meters":14800,"station_id":"ce4bh0p2rcd13ifvqd70","pricing_plan_id":"cebpf4jnsgd1na2vs0mg"},{"bike_id":"559f7bd6-474c-49fb-b398-8188b8b4014a","system_id":"levelo_inurba_marseille","lat":43.21746,"lon":5.34613,"is_reserved":false,"is_disabled":false,"rental_uris":{"android":"levelo://app?vid=559f7bd6-474c-49fb-b398-8188b8b4014a","ios":"levelo://app?vid=559f7bd6-474c-49fb-b398-8188b8b4014a"},"vehicle_type_id":"4","last_reported":1746710624,"current_range_meters":14800,"station_id":"st_cvj6r9ubvosntc0bgbag","pricing_plan_id":"cebpf4jnsgd1na2vs0mg"},{"bike_id":"dda8f694-4a14-439f-9bd1-c8dda3f84319","system_id":"levelo_inurba_marseille","lat":43.3149,"lon":5.37313,"is_reserved":false,"is_disabled":false,"rental_uris":{"android":"levelo://app?vid=dda8f694-4a14-439f-9bd1-c8dda3f84319","ios":"levelo://app?vid=dda8f694-4a14-439f-9bd1-c8dda3f84319"},"vehicle_type_id":"4","last_reported":1746710624,"current_range_meters":15200,"station_id":"ce4bgt12rcd13ifvqcd0","pricing_plan_id":"cebpf4jnsgd1na2vs0mg"},{"bike_id":"b07ce343-6009-45d4-9896-9a4630c08bfb","system_id":"levelo_inurba_marseille","lat":43.231571,"lon":5.437003,"is_reserved":false,"is_disabled":false,"rental_uris":{"android":"levelo://app?vid=b07ce343-6009-45d4-9896-9a4630c08bfb","ios":"levelo://app?vid=b07ce343-6009-45d4-9896-9a4630c08bfb"},"vehicle_type_id":"4","last_reported":1746710624,"current_range_meters":14800,"station_id":"ce4bhmp2rcd13ifvqgog","pricing_plan_id":"cebpf4jnsgd1na2vs0mg"},{"bike_id":"579169cd-fd04-4495-a109-f2f1a71bf9a4","system_id":"levelo_inurba_marseille","lat":43.21752,"lon":5.34603,"is_reserved":false,"is_disabled":false,"rental_uris":{"android":"levelo://app?vid=579169cd-fd04-4495-a109-f2f1a71bf9a4","ios":"levelo://app?vid=579169cd-fd04-4495-a109-f2f1a71bf9a4"},"vehicle_type_id":"4","last_reported":1746710624,"current_range_meters":15200,"station_id":"st_cvj6r9ubvosntc0bgbag","pricing_plan_id":"cebpf4jnsgd1na2vs0mg"},{"bike_id":"a95a792f-9880-41fd-ae62-ca56077c52bf","system_id":"levelo_inurba_marseille","lat":43.27379,"lon":5.36252,"is_reserved":false,"is_disabled":false,"rental_uris":{"android":"levelo://app?vid=a95a792f-9880-41fd-ae62-ca56077c52bf","ios":"levelo://app?vid=a95a792f-9880-41fd-ae62-ca56077c52bf"},"vehicle_type_id":"4","last_reported":1746710624,"current_range_meters":16000,"station_id":"","pricing_plan_id":"cebpf4jnsgd1na2vs0mg"},{"bike_id":"3b6a002c-bad0-472d-84bc-96f2657ce65b","system_id":"levelo_inurba_marseille","lat":43.24391,"lon":5.37048,"is_reserved":false,"is_disabled":false,"rental_uris":{"android":"levelo://app?vid=3b6a002c-bad0-472d-84bc-96f2657ce65b","ios":"levelo://app?vid=3b6a002c-bad0-472d-84bc-96f2657ce65b"},"vehicle_type_id":"4","last_reported":1746710624,"current_range_meters":16000,"station_id":"ce4bhhh2rcd13ifvqfk0","pricing_plan_id":"cebpf4jnsgd1na2vs0mg"},{"bike_id":"1e455aef-bcfd-48ba-9af3-cc9b4f4f6e84","system_id":"levelo_inurba_marseille","lat":43.21745,"lon":5.3461,"is_reserved":false,"is_disabled":false,"rental_uris":{"android":"levelo://app?vid=1e455aef-bcfd-48ba-9af3-cc9b4f4f6e84","ios":"levelo://app?vid=1e455aef-bcfd-48ba-9af3-cc9b4f4f6e84"},"vehicle_type_id":"4","last_reported":1746710624,"current_range_meters":16000,"station_id":"st_cvj6r9ubvosntc0bgbag","pricing_plan_id":"cebpf4jnsgd1na2vs0mg"},{"bike_id":"8f929bfb-a5f6-403d-be56-d2c53a62ebb5","system_id":"levelo_inurba_marseille","lat":43.27047,"lon":5.42279,"is_reserved":false,"is_disabled":false,"rental_uris":{"android":"levelo://app?vid=8f929bfb-a5f6-403d-be56-d2c53a62ebb5","ios":"levelo://app?vid=8f929bfb-a5f6-403d-be56-d2c53a62ebb5"},"vehicle_type_id":"4","last_reported":1746710624,"current_range_meters":16000,"station_id":"ce4bhk92rcd13ifvqgb0","pricing_plan_id":"cebpf4jnsgd1na2vs0mg"},{"bike_id":"386441d1-d0cd-4783-a499-3625d3e469b1","system_id":"levelo_inurba_marseille","lat":43.28182,"lon":5.36347,"is_reserved":false,"is_disabled":true,"rental_uris":{"android":"levelo://app?vid=386441d1-d0cd-4783-a499-3625d3e469b1","ios":"levelo://app?vid=386441d1-d0cd-4783-a499-3625d3e469b1"},"vehicle_type_id":"4","last_reported":1746710624,"current_range_meters":16000,"station_id":"","pricing_plan_id":"cebpf4jnsgd1na2vs0mg"},{"bike_id":"c3aa2d50-52a7-4e80-ac2c-e4c1dae8ac6b","system_id":"levelo_inurba_marseille","lat":43.27215,"lon":5.39181,"is_reserved":false,"is_disabled":false,"rental_uris":{"android":"levelo://app?vid=c3aa2d50-52a7-4e80-ac2c-e4c1dae8ac6b","ios":"levelo://app?vid=c3aa2d50-52a7-4e80-ac2c-e4c1dae8ac6b"},"vehicle_type_id":"4","last_reported":1746710624,"current_range_meters":16400,"station_id":"ce4bhhp2rcd13ifvqfm0","pricing_plan_id":"cebpf4jnsgd1na2vs0mg"},{"bike_id":"60cd2f4f-b304-472c-b5c8-0500abf83815","system_id":"levelo_inurba_marseille","lat":43.3013,"lon":5.39873,"is_reserved":false,"is_disabled":false,"rental_uris":{"android":"levelo://app?vid=60cd2f4f-b304-472c-b5c8-0500abf83815","ios":"levelo://app?vid=60cd2f4f-b304-472c-b5c8-0500abf83815"},"vehicle_type_id":"4","last_reported":1746710624,"current_range_meters":16800,"station_id":"ce4bh0h2rcd13ifvqd40","pricing_plan_id":"cebpf4jnsgd1na2vs0mg"},{"bike_id":"94c8e291-f555-45b0-ba60-ec8c02cd13e1","system_id":"levelo_inurba_marseille","lat":43.26029,"lon":5.37549,"is_reserved":false,"is_disabled":false,"rental_uris":{"android":"levelo://app?vid=94c8e291-f555-45b0-ba60-ec8c02cd13e1","ios":"levelo://app?vid=94c8e291-f555-45b0-ba60-ec8c02cd13e1"},"vehicle_type_id":"4","last_reported":1746710624,"current_range_meters":16400,"station_id":"ce4bhgh2rcd13ifvqfa0","pricing_plan_id":"cebpf4jnsgd1na2vs0mg"},{"bike_id":"b293da7e-1d20-4842-8858-008790b2596d","system_id":"levelo_inurba_marseille","lat":43.30151,"lon":5.38103,"is_reserved":false,"is_disabled":false,"rental_uris":{"android":"levelo://app?vid=b293da7e-1d20-4842-8858-008790b2596d","ios":"levelo://app?vid=b293da7e-1d20-4842-8858-008790b2596d"},"vehicle_type_id":"4","last_reported":1746710624,"current_range_meters":16800,"station_id":"ce4bgjp2rcd13ifvqbh0","pricing_plan_id":"cebpf4jnsgd1na2vs0mg"},{"bike_id":"5d35a5ff-55c7-43a8-a1a6-ca0e67436609","system_id":"levelo_inurba_marseille","lat":43.28427,"lon":5.34988,"is_reserved":false,"is_disabled":false,"rental_uris":{"android":"levelo://app?vid=5d35a5ff-55c7-43a8-a1a6-ca0e67436609","ios":"levelo://app?vid=5d35a5ff-55c7-43a8-a1a6-ca0e67436609"},"vehicle_type_id":"4","last_reported":1746710624,"current_range_meters":16800,"station_id":"ce4bhbh2rcd13ifvqepg","pricing_plan_id":"cebpf4jnsgd1na2vs0mg"},{"bike_id":"38bdd155-492a-488c-a7fa-0a1c1a34eecf","system_id":"levelo_inurba_marseille","lat":43.2294,"lon":5.35379,"is_reserved":false,"is_disabled":false,"rental_uris":{"android":"levelo://app?vid=38bdd155-492a-488c-a7fa-0a1c1a34eecf","ios":"levelo://app?vid=38bdd155-492a-488c-a7fa-0a1c1a34eecf"},"vehicle_type_id":"4","last_reported":1746710624,"current_range_meters":16800,"station_id":"cpo3532slgdg3j2ikp40","pricing_plan_id":"cebpf4jnsgd1na2vs0mg"},{"bike_id":"d752d281-bdb4-49b2-9201-78fb677db6ec","system_id":"levelo_inurba_marseille","lat":43.28617,"lon":5.351,"is_reserved":false,"is_disabled":false,"rental_uris":{"android":"levelo://app?vid=d752d281-bdb4-49b2-9201-78fb677db6ec","ios":"levelo://app?vid=d752d281-bdb4-49b2-9201-78fb677db6ec"},"vehicle_type_id":"4","last_reported":1746710624,"current_range_meters":16800,"station_id":"ce4bhch2rcd13ifvqeug","pricing_plan_id":"cebpf4jnsgd1na2vs0mg"},{"bike_id":"cb66b0bb-b708-4c07-af18-bb5249a5bfe1","system_id":"levelo_inurba_marseille","lat":43.21753,"lon":5.34605,"is_reserved":false,"is_disabled":false,"rental_uris":{"android":"levelo://app?vid=cb66b0bb-b708-4c07-af18-bb5249a5bfe1","ios":"levelo://app?vid=cb66b0bb-b708-4c07-af18-bb5249a5bfe1"},"vehicle_type_id":"4","last_reported":1746710624,"current_range_meters":16800,"station_id":"st_cvj6r9ubvosntc0bgbag","pricing_plan_id":"cebpf4jnsgd1na2vs0mg"},{"bike_id":"54aaa696-b6ce-43a9-8d1b-fbbae9522957","system_id":"levelo_inurba_marseille","lat":43.3096,"lon":5.39051,"is_reserved":false,"is_disabled":false,"rental_uris":{"android":"levelo://app?vid=54aaa696-b6ce-43a9-8d1b-fbbae9522957","ios":"levelo://app?vid=54aaa696-b6ce-43a9-8d1b-fbbae9522957"},"vehicle_type_id":"4","last_reported":1746710624,"current_range_meters":17200,"station_id":"ce4bgup2rcd13ifvqco0","pricing_plan_id":"cebpf4jnsgd1na2vs0mg"},{"bike_id":"cb5561fb-3ed2-49bf-bd58-7c8862116c78","system_id":"levelo_inurba_marseille","lat":43.21195,"lon":5.35073,"is_reserved":false,"is_disabled":false,"rental_uris":{"android":"levelo://app?vid=cb5561fb-3ed2-49bf-bd58-7c8862116c78","ios":"levelo://app?vid=cb5561fb-3ed2-49bf-bd58-7c8862116c78"},"vehicle_type_id":"4","last_reported":1746710624,"current_range_meters":17200,"station_id":"st_cvj6sg6p6f1abm77japg","pricing_plan_id":"cebpf4jnsgd1na2vs0mg"},{"bike_id":"816d59ce-b037-4f9a-90f3-36e9176088ff","system_id":"levelo_inurba_marseille","lat":43.287199,"lon":5.399647,"is_reserved":false,"is_disabled":false,"rental_uris":{"android":"levelo://app?vid=816d59ce-b037-4f9a-90f3-36e9176088ff","ios":"levelo://app?vid=816d59ce-b037-4f9a-90f3-36e9176088ff"},"vehicle_type_id":"4","last_reported":1746710624,"current_range_meters":17200,"station_id":"ce4bho92rcd13ifvqh3g","pricing_plan_id":"cebpf4jnsgd1na2vs0mg"},{"bike_id":"b3d5f702-96b7-4836-83bf-bbca60f76380","system_id":"levelo_inurba_marseille","lat":43.23204,"lon":5.39932,"is_reserved":false,"is_disabled":false,"rental_uris":{"android":"levelo://app?vid=b3d5f702-96b7-4836-83bf-bbca60f76380","ios":"levelo://app?vid=b3d5f702-96b7-4836-83bf-bbca60f76380"},"vehicle_type_id":"4","last_reported":1746710624,"current_range_meters":17200,"station_id":"","pricing_plan_id":"cebpf4jnsgd1na2vs0mg"},{"bike_id":"cc8a958b-3981-4554-84a1-98f7b670dd3b","system_id":"levelo_inurba_marseille","lat":43.30356,"lon":5.41876,"is_reserved":false,"is_disabled":false,"rental_uris":{"android":"levelo://app?vid=cc8a958b-3981-4554-84a1-98f7b670dd3b","ios":"levelo://app?vid=cc8a958b-3981-4554-84a1-98f7b670dd3b"},"vehicle_type_id":"4","last_reported":1746710624,"current_range_meters":16800,"station_id":"ce4bhop2rcd13ifvqh7g","pricing_plan_id":"cebpf4jnsgd1na2vs0mg"},{"bike_id":"ff807334-3ad3-4e40-bbde-648eb2b1c45b","system_id":"levelo_inurba_marseille","lat":43.21194,"lon":5.35086,"is_reserved":false,"is_disabled":false,"rental_uris":{"android":"levelo://app?vid=ff807334-3ad3-4e40-bbde-648eb2b1c45b","ios":"levelo://app?vid=ff807334-3ad3-4e40-bbde-648eb2b1c45b"},"vehicle_type_id":"4","last_reported":1746710624,"current_range_meters":17200,"station_id":"st_cvj6sg6p6f1abm77japg","pricing_plan_id":"cebpf4jnsgd1na2vs0mg"},{"bike_id":"a71a0dfc-7de8-44ee-9bb2-1e81dadd19e0","system_id":"levelo_inurba_marseille","lat":43.317097,"lon":5.437033,"is_reserved":false,"is_disabled":false,"rental_uris":{"android":"levelo://app?vid=a71a0dfc-7de8-44ee-9bb2-1e81dadd19e0","ios":"levelo://app?vid=a71a0dfc-7de8-44ee-9bb2-1e81dadd19e0"},"vehicle_type_id":"4","last_reported":1746710624,"current_range_meters":17200,"station_id":"ce4bhp92rcd13ifvqhcg","pricing_plan_id":"cebpf4jnsgd1na2vs0mg"},{"bike_id":"13dcf47e-4a64-4b90-9425-15abaa7b6175","system_id":"levelo_inurba_marseille","lat":43.21225,"lon":5.35097,"is_reserved":false,"is_disabled":false,"rental_uris":{"android":"levelo://app?vid=13dcf47e-4a64-4b90-9425-15abaa7b6175","ios":"levelo://app?vid=13dcf47e-4a64-4b90-9425-15abaa7b6175"},"vehicle_type_id":"4","last_reported":1746710624,"current_range_meters":17600,"station_id":"","pricing_plan_id":"cebpf4jnsgd1na2vs0mg"},{"bike_id":"3db7f799-e55f-4d99-b32b-ac9d82ccbc8e","system_id":"levelo_inurba_marseille","lat":43.23062,"lon":5.35482,"is_reserved":false,"is_disabled":false,"rental_uris":{"android":"levelo://app?vid=3db7f799-e55f-4d99-b32b-ac9d82ccbc8e","ios":"levelo://app?vid=3db7f799-e55f-4d99-b32b-ac9d82ccbc8e"},"vehicle_type_id":"4","last_reported":1746710624,"current_range_meters":17600,"station_id":"cpo3342slgdg3j2ifvpg","pricing_plan_id":"cebpf4jnsgd1na2vs0mg"},{"bike_id":"4bc17db0-6255-48bf-b84a-b96630fb97d3","system_id":"levelo_inurba_marseille","lat":43.30318,"lon":5.40442,"is_reserved":false,"is_disabled":false,"rental_uris":{"android":"levelo://app?vid=4bc17db0-6255-48bf-b84a-b96630fb97d3","ios":"levelo://app?vid=4bc17db0-6255-48bf-b84a-b96630fb97d3"},"vehicle_type_id":"4","last_reported":1746710624,"current_range_meters":17600,"station_id":"ce4bh012rcd13ifvqd10","pricing_plan_id":"cebpf4jnsgd1na2vs0mg"},{"bike_id":"6c3d6142-3219-47ff-9165-f1e3f9530c60","system_id":"levelo_inurba_marseille","lat":43.25583,"lon":5.38224,"is_reserved":false,"is_disabled":false,"rental_uris":{"android":"levelo://app?vid=6c3d6142-3219-47ff-9165-f1e3f9530c60","ios":"levelo://app?vid=6c3d6142-3219-47ff-9165-f1e3f9530c60"},"vehicle_type_id":"4","last_reported":1746710624,"current_range_meters":17600,"station_id":"ce4bhih2rcd13ifvqfs0","pricing_plan_id":"cebpf4jnsgd1na2vs0mg"},{"bike_id":"95407fdd-6b53-4c42-85f7-ee3e66f21b13","system_id":"levelo_inurba_marseille","lat":43.24331,"lon":5.38005,"is_reserved":false,"is_disabled":false,"rental_uris":{"android":"levelo://app?vid=95407fdd-6b53-4c42-85f7-ee3e66f21b13","ios":"levelo://app?vid=95407fdd-6b53-4c42-85f7-ee3e66f21b13"},"vehicle_type_id":"4","last_reported":1746710624,"current_range_meters":18000,"station_id":"","pricing_plan_id":"cebpf4jnsgd1na2vs0mg"},{"bike_id":"c821e32e-d925-441c-80d2-d5a984744aba","system_id":"levelo_inurba_marseille","lat":43.21223,"lon":5.35079,"is_reserved":false,"is_disabled":false,"rental_uris":{"android":"levelo://app?vid=c821e32e-d925-441c-80d2-d5a984744aba","ios":"levelo://app?vid=c821e32e-d925-441c-80d2-d5a984744aba"},"vehicle_type_id":"4","last_reported":1746710624,"current_range_meters":18000,"station_id":"st_cvj6sg6p6f1abm77japg","pricing_plan_id":"cebpf4jnsgd1na2vs0mg"},{"bike_id":"dd41344d-bcef-4994-b557-bac5def93c05","system_id":"levelo_inurba_marseille","lat":43.30546,"lon":5.38433,"is_reserved":false,"is_disabled":false,"rental_uris":{"android":"levelo://app?vid=dd41344d-bcef-4994-b557-bac5def93c05","ios":"levelo://app?vid=dd41344d-bcef-4994-b557-bac5def93c05"},"vehicle_type_id":"4","last_reported":1746710624,"current_range_meters":18000,"station_id":"ce4bgg92rcd13ifvqb30","pricing_plan_id":"cebpf4jnsgd1na2vs0mg"},{"bike_id":"b7113626-2de8-442f-b6ab-b881876f48d3","system_id":"levelo_inurba_marseille","lat":43.25114,"lon":5.4032,"is_reserved":false,"is_disabled":false,"rental_uris":{"android":"levelo://app?vid=b7113626-2de8-442f-b6ab-b881876f48d3","ios":"levelo://app?vid=b7113626-2de8-442f-b6ab-b881876f48d3"},"vehicle_type_id":"4","last_reported":1746710624,"current_range_meters":18000,"station_id":"ce4bhlh2rcd13ifvqgig","pricing_plan_id":"cebpf4jnsgd1na2vs0mg"},{"bike_id":"7a773fdb-18ae-4893-bd8d-ab64278f6461","system_id":"levelo_inurba_marseille","lat":43.28274,"lon":5.3506,"is_reserved":false,"is_disabled":false,"rental_uris":{"android":"levelo://app?vid=7a773fdb-18ae-4893-bd8d-ab64278f6461","ios":"levelo://app?vid=7a773fdb-18ae-4893-bd8d-ab64278f6461"},"vehicle_type_id":"4","last_reported":1746710624,"current_range_meters":15200,"station_id":"ce4bhbp2rcd13ifvqerg","pricing_plan_id":"cebpf4jnsgd1na2vs0mg"},{"bike_id":"523c3d96-bf1a-4eb8-84fd-8447d5a10803","system_id":"levelo_inurba_marseille","lat":43.3095,"lon":5.39039,"is_reserved":false,"is_disabled":false,"rental_uris":{"android":"levelo://app?vid=523c3d96-bf1a-4eb8-84fd-8447d5a10803","ios":"levelo://app?vid=523c3d96-bf1a-4eb8-84fd-8447d5a10803"},"vehicle_type_id":"4","last_reported":1746710624,"current_range_meters":17600,"station_id":"ce4bgup2rcd13ifvqco0","pricing_plan_id":"cebpf4jnsgd1na2vs0mg"},{"bike_id":"797f6efa-776c-4a0d-bcd0-261afc8194ab","system_id":"levelo_inurba_marseille","lat":43.23169,"lon":5.43709,"is_reserved":false,"is_disabled":false,"rental_uris":{"android":"levelo://app?vid=797f6efa-776c-4a0d-bcd0-261afc8194ab","ios":"levelo://app?vid=797f6efa-776c-4a0d-bcd0-261afc8194ab"},"vehicle_type_id":"4","last_reported":1746710624,"current_range_meters":18000,"station_id":"ce4bhmp2rcd13ifvqgog","pricing_plan_id":"cebpf4jnsgd1na2vs0mg"},{"bike_id":"577911b5-2dfb-4e8c-8e61-c74ee46eaa95","system_id":"levelo_inurba_marseille","lat":43.24393,"lon":5.37056,"is_reserved":false,"is_disabled":false,"rental_uris":{"android":"levelo://app?vid=577911b5-2dfb-4e8c-8e61-c74ee46eaa95","ios":"levelo://app?vid=577911b5-2dfb-4e8c-8e61-c74ee46eaa95"},"vehicle_type_id":"4","last_reported":1746710624,"current_range_meters":18800,"station_id":"ce4bhhh2rcd13ifvqfk0","pricing_plan_id":"cebpf4jnsgd1na2vs0mg"},{"bike_id":"f1346ab1-68e2-4da3-94fe-98fd5973be2a","system_id":"levelo_inurba_marseille","lat":43.27978,"lon":5.41659,"is_reserved":false,"is_disabled":false,"rental_uris":{"android":"levelo://app?vid=f1346ab1-68e2-4da3-94fe-98fd5973be2a","ios":"levelo://app?vid=f1346ab1-68e2-4da3-94fe-98fd5973be2a"},"vehicle_type_id":"4","last_reported":1746710624,"current_range_meters":18800,"station_id":"ce4bho12rcd13ifvqh1g","pricing_plan_id":"cebpf4jnsgd1na2vs0mg"},{"bike_id":"90dd7ece-e0e3-4e3f-8585-4f4f345a0f96","system_id":"levelo_inurba_marseille","lat":43.31692,"lon":5.40483,"is_reserved":false,"is_disabled":false,"rental_uris":{"android":"levelo://app?vid=90dd7ece-e0e3-4e3f-8585-4f4f345a0f96","ios":"levelo://app?vid=90dd7ece-e0e3-4e3f-8585-4f4f345a0f96"},"vehicle_type_id":"4","last_reported":1746710624,"current_range_meters":18800,"station_id":"ce4bh012rcd13ifvqd00","pricing_plan_id":"cebpf4jnsgd1na2vs0mg"},{"bike_id":"1dd622ec-7717-4e16-9b33-5fae65b6d06d","system_id":"levelo_inurba_marseille","lat":43.2508,"lon":5.39532,"is_reserved":false,"is_disabled":false,"rental_uris":{"android":"levelo://app?vid=1dd622ec-7717-4e16-9b33-5fae65b6d06d","ios":"levelo://app?vid=1dd622ec-7717-4e16-9b33-5fae65b6d06d"},"vehicle_type_id":"4","last_reported":1746710624,"current_range_meters":18800,"station_id":"ce4bhm12rcd13ifvqgkg","pricing_plan_id":"cebpf4jnsgd1na2vs0mg"},{"bike_id":"6f8524ed-07a7-4f76-bdfa-fe438e886c6d","system_id":"levelo_inurba_marseille","lat":43.29966,"lon":5.37161,"is_reserved":false,"is_disabled":false,"rental_uris":{"android":"levelo://app?vid=6f8524ed-07a7-4f76-bdfa-fe438e886c6d","ios":"levelo://app?vid=6f8524ed-07a7-4f76-bdfa-fe438e886c6d"},"vehicle_type_id":"4","last_reported":1746710624,"current_range_meters":18000,"station_id":"ce4bgr92rcd13ifvqc7g","pricing_plan_id":"cebpf4jnsgd1na2vs0mg"},{"bike_id":"568ade89-84eb-46d8-b9a2-cf4e4d6171d9","system_id":"levelo_inurba_marseille","lat":43.22504,"lon":5.34784,"is_reserved":false,"is_disabled":false,"rental_uris":{"android":"levelo://app?vid=568ade89-84eb-46d8-b9a2-cf4e4d6171d9","ios":"levelo://app?vid=568ade89-84eb-46d8-b9a2-cf4e4d6171d9"},"vehicle_type_id":"4","last_reported":1746710624,"current_range_meters":18800,"station_id":"st_cvj5dfep6f1abm77gieg","pricing_plan_id":"cebpf4jnsgd1na2vs0mg"},{"bike_id":"8840d6b7-d60a-4ecd-90f6-ffb9bb7144ed","system_id":"levelo_inurba_marseille","lat":43.24079,"lon":5.37757,"is_reserved":false,"is_disabled":false,"rental_uris":{"android":"levelo://app?vid=8840d6b7-d60a-4ecd-90f6-ffb9bb7144ed","ios":"levelo://app?vid=8840d6b7-d60a-4ecd-90f6-ffb9bb7144ed"},"vehicle_type_id":"4","last_reported":1746710624,"current_range_meters":18800,"station_id":"ce4bhnp2rcd13ifvqgvg","pricing_plan_id":"cebpf4jnsgd1na2vs0mg"},{"bike_id":"a5e93638-fd65-4041-acd2-1fa408a23755","system_id":"levelo_inurba_marseille","lat":43.306297,"lon":5.37198,"is_reserved":false,"is_disabled":false,"rental_uris":{"android":"levelo://app?vid=a5e93638-fd65-4041-acd2-1fa408a23755","ios":"levelo://app?vid=a5e93638-fd65-4041-acd2-1fa408a23755"},"vehicle_type_id":"4","last_reported":1746710624,"current_range_meters":18800,"station_id":"ce4bgqh2rcd13ifvqc4g","pricing_plan_id":"cebpf4jnsgd1na2vs0mg"},{"bike_id":"104122ec-f5e7-4e52-9725-d84a898defff","system_id":"levelo_inurba_marseille","lat":43.32342,"lon":5.40593,"is_reserved":false,"is_disabled":false,"rental_uris":{"android":"levelo://app?vid=104122ec-f5e7-4e52-9725-d84a898defff","ios":"levelo://app?vid=104122ec-f5e7-4e52-9725-d84a898defff"},"vehicle_type_id":"4","last_reported":1746710624,"current_range_meters":19200,"station_id":"ce4bhq92rcd13ifvqhjg","pricing_plan_id":"cebpf4jnsgd1na2vs0mg"},{"bike_id":"72c714fe-a0de-42e3-a30e-f198dc7536fd","system_id":"levelo_inurba_marseille","lat":43.21759,"lon":5.34598,"is_reserved":false,"is_disabled":false,"rental_uris":{"android":"levelo://app?vid=72c714fe-a0de-42e3-a30e-f198dc7536fd","ios":"levelo://app?vid=72c714fe-a0de-42e3-a30e-f198dc7536fd"},"vehicle_type_id":"4","last_reported":1746710624,"current_range_meters":19200,"station_id":"st_cvj6r9ubvosntc0bgbag","pricing_plan_id":"cebpf4jnsgd1na2vs0mg"},{"bike_id":"03a00e6c-993c-490a-90a9-ea8486bbb8b0","system_id":"levelo_inurba_marseille","lat":43.24389,"lon":5.37059,"is_reserved":false,"is_disabled":false,"rental_uris":{"android":"levelo://app?vid=03a00e6c-993c-490a-90a9-ea8486bbb8b0","ios":"levelo://app?vid=03a00e6c-993c-490a-90a9-ea8486bbb8b0"},"vehicle_type_id":"4","last_reported":1746710624,"current_range_meters":19200,"station_id":"ce4bhhh2rcd13ifvqfk0","pricing_plan_id":"cebpf4jnsgd1na2vs0mg"},{"bike_id":"6cc77014-be96-467c-8ae9-a1019ee36bb3","system_id":"levelo_inurba_marseille","lat":43.25828,"lon":5.39438,"is_reserved":false,"is_disabled":false,"rental_uris":{"android":"levelo://app?vid=6cc77014-be96-467c-8ae9-a1019ee36bb3","ios":"levelo://app?vid=6cc77014-be96-467c-8ae9-a1019ee36bb3"},"vehicle_type_id":"4","last_reported":1746710624,"current_range_meters":19200,"station_id":"ce4bhip2rcd13ifvqft0","pricing_plan_id":"cebpf4jnsgd1na2vs0mg"},{"bike_id":"5755c318-0dff-4b65-a43c-2c53bcecf4f9","system_id":"levelo_inurba_marseille","lat":43.28617,"lon":5.35102,"is_reserved":false,"is_disabled":false,"rental_uris":{"android":"levelo://app?vid=5755c318-0dff-4b65-a43c-2c53bcecf4f9","ios":"levelo://app?vid=5755c318-0dff-4b65-a43c-2c53bcecf4f9"},"vehicle_type_id":"4","last_reported":1746710624,"current_range_meters":19200,"station_id":"ce4bhch2rcd13ifvqeug","pricing_plan_id":"cebpf4jnsgd1na2vs0mg"},{"bike_id":"03123b32-b53c-4733-bee0-b34f617be08d","system_id":"levelo_inurba_marseille","lat":43.27367,"lon":5.36256,"is_reserved":false,"is_disabled":false,"rental_uris":{"android":"levelo://app?vid=03123b32-b53c-4733-bee0-b34f617be08d","ios":"levelo://app?vid=03123b32-b53c-4733-bee0-b34f617be08d"},"vehicle_type_id":"4","last_reported":1746710624,"current_range_meters":19200,"station_id":"ce4bhbh2rcd13ifvqeo0","pricing_plan_id":"cebpf4jnsgd1na2vs0mg"},{"bike_id":"5ed18b6b-f0db-4f69-a428-8608a651fb52","system_id":"levelo_inurba_marseille","lat":43.30815,"lon":5.36964,"is_reserved":false,"is_disabled":false,"rental_uris":{"android":"levelo://app?vid=5ed18b6b-f0db-4f69-a428-8608a651fb52","ios":"levelo://app?vid=5ed18b6b-f0db-4f69-a428-8608a651fb52"},"vehicle_type_id":"4","last_reported":1746710624,"current_range_meters":19600,"station_id":"","pricing_plan_id":"cebpf4jnsgd1na2vs0mg"},{"bike_id":"18401c92-65d0-4fc5-b3b9-feb42aa3a715","system_id":"levelo_inurba_marseille","lat":43.28041,"lon":5.36951,"is_reserved":false,"is_disabled":false,"rental_uris":{"android":"levelo://app?vid=18401c92-65d0-4fc5-b3b9-feb42aa3a715","ios":"levelo://app?vid=18401c92-65d0-4fc5-b3b9-feb42aa3a715"},"vehicle_type_id":"4","last_reported":1746710624,"current_range_meters":19600,"station_id":"ce4bha12rcd13ifvqef0","pricing_plan_id":"cebpf4jnsgd1na2vs0mg"},{"bike_id":"fc6b34a1-0c69-4976-96d0-b3b9c56a43be","system_id":"levelo_inurba_marseille","lat":43.27372,"lon":5.36258,"is_reserved":false,"is_disabled":false,"rental_uris":{"android":"levelo://app?vid=fc6b34a1-0c69-4976-96d0-b3b9c56a43be","ios":"levelo://app?vid=fc6b34a1-0c69-4976-96d0-b3b9c56a43be"},"vehicle_type_id":"4","last_reported":1746710624,"current_range_meters":19600,"station_id":"ce4bhbh2rcd13ifvqeo0","pricing_plan_id":"cebpf4jnsgd1na2vs0mg"},{"bike_id":"8909d45b-5ec6-4b31-bbb7-55e12301d5eb","system_id":"levelo_inurba_marseille","lat":43.21198,"lon":5.35079,"is_reserved":false,"is_disabled":false,"rental_uris":{"android":"levelo://app?vid=8909d45b-5ec6-4b31-bbb7-55e12301d5eb","ios":"levelo://app?vid=8909d45b-5ec6-4b31-bbb7-55e12301d5eb"},"vehicle_type_id":"4","last_reported":1746710624,"current_range_meters":19600,"station_id":"st_cvj6sg6p6f1abm77japg","pricing_plan_id":"cebpf4jnsgd1na2vs0mg"},{"bike_id":"de59fb44-d61e-420b-9551-6ffb77a5b113","system_id":"levelo_inurba_marseille","lat":43.24166,"lon":5.39719,"is_reserved":false,"is_disabled":false,"rental_uris":{"android":"levelo://app?vid=de59fb44-d61e-420b-9551-6ffb77a5b113","ios":"levelo://app?vid=de59fb44-d61e-420b-9551-6ffb77a5b113"},"vehicle_type_id":"4","last_reported":1746710624,"current_range_meters":20000,"station_id":"ce4bhn12rcd13ifvqgpg","pricing_plan_id":"cebpf4jnsgd1na2vs0mg"},{"bike_id":"91e162dc-df90-4b10-94c0-748de28a9b55","system_id":"levelo_inurba_marseille","lat":43.278,"lon":5.39993,"is_reserved":false,"is_disabled":false,"rental_uris":{"android":"levelo://app?vid=91e162dc-df90-4b10-94c0-748de28a9b55","ios":"levelo://app?vid=91e162dc-df90-4b10-94c0-748de28a9b55"},"vehicle_type_id":"4","last_reported":1746710624,"current_range_meters":20000,"station_id":"","pricing_plan_id":"cebpf4jnsgd1na2vs0mg"},{"bike_id":"f1dd7bf4-aed1-47a1-a798-92e38ddd2af5","system_id":"levelo_inurba_marseille","lat":43.26545,"lon":5.37304,"is_reserved":false,"is_disabled":false,"rental_uris":{"android":"levelo://app?vid=f1dd7bf4-aed1-47a1-a798-92e38ddd2af5","ios":"levelo://app?vid=f1dd7bf4-aed1-47a1-a798-92e38ddd2af5"},"vehicle_type_id":"4","last_reported":1746710624,"current_range_meters":20000,"station_id":"ce4bhg12rcd13ifvqf70","pricing_plan_id":"cebpf4jnsgd1na2vs0mg"},{"bike_id":"95793904-2959-49ee-94ea-d665c6a2342b","system_id":"levelo_inurba_marseille","lat":43.28614,"lon":5.35099,"is_reserved":false,"is_disabled":false,"rental_uris":{"android":"levelo://app?vid=95793904-2959-49ee-94ea-d665c6a2342b","ios":"levelo://app?vid=95793904-2959-49ee-94ea-d665c6a2342b"},"vehicle_type_id":"4","last_reported":1746710624,"current_range_meters":20400,"station_id":"ce4bhch2rcd13ifvqeug","pricing_plan_id":"cebpf4jnsgd1na2vs0mg"},{"bike_id":"bbdb76e5-64e7-4ce9-aff4-c5bb0c088427","system_id":"levelo_inurba_marseille","lat":43.21199,"lon":5.35078,"is_reserved":false,"is_disabled":false,"rental_uris":{"android":"levelo://app?vid=bbdb76e5-64e7-4ce9-aff4-c5bb0c088427","ios":"levelo://app?vid=bbdb76e5-64e7-4ce9-aff4-c5bb0c088427"},"vehicle_type_id":"4","last_reported":1746710624,"current_range_meters":20400,"station_id":"","pricing_plan_id":"cebpf4jnsgd1na2vs0mg"},{"bike_id":"e49353df-8cc6-4c59-9272-3a9b8dd7b7f0","system_id":"levelo_inurba_marseille","lat":43.29275,"lon":5.40914,"is_reserved":false,"is_disabled":false,"rental_uris":{"android":"levelo://app?vid=e49353df-8cc6-4c59-9272-3a9b8dd7b7f0","ios":"levelo://app?vid=e49353df-8cc6-4c59-9272-3a9b8dd7b7f0"},"vehicle_type_id":"4","last_reported":1746710624,"current_range_meters":20400,"station_id":"ce4bh192rcd13ifvqdc0","pricing_plan_id":"cebpf4jnsgd1na2vs0mg"},{"bike_id":"8e1f30d9-bb21-4482-9811-ac1d7d71c326","system_id":"levelo_inurba_marseille","lat":43.21755,"lon":5.34596,"is_reserved":false,"is_disabled":false,"rental_uris":{"android":"levelo://app?vid=8e1f30d9-bb21-4482-9811-ac1d7d71c326","ios":"levelo://app?vid=8e1f30d9-bb21-4482-9811-ac1d7d71c326"},"vehicle_type_id":"4","last_reported":1746710624,"current_range_meters":20400,"station_id":"st_cvj6r9ubvosntc0bgbag","pricing_plan_id":"cebpf4jnsgd1na2vs0mg"},{"bike_id":"a93e13e2-0bea-4cbd-a9d4-6c33c87d0781","system_id":"levelo_inurba_marseille","lat":43.27368,"lon":5.36254,"is_reserved":false,"is_disabled":false,"rental_uris":{"android":"levelo://app?vid=a93e13e2-0bea-4cbd-a9d4-6c33c87d0781","ios":"levelo://app?vid=a93e13e2-0bea-4cbd-a9d4-6c33c87d0781"},"vehicle_type_id":"4","last_reported":1746710624,"current_range_meters":20400,"station_id":"ce4bhbh2rcd13ifvqeo0","pricing_plan_id":"cebpf4jnsgd1na2vs0mg"},{"bike_id":"3f002198-c861-4db7-8360-b400db50769d","system_id":"levelo_inurba_marseille","lat":43.25588,"lon":5.38233,"is_reserved":false,"is_disabled":false,"rental_uris":{"android":"levelo://app?vid=3f002198-c861-4db7-8360-b400db50769d","ios":"levelo://app?vid=3f002198-c861-4db7-8360-b400db50769d"},"vehicle_type_id":"4","last_reported":1746710624,"current_range_meters":20400,"station_id":"ce4bhih2rcd13ifvqfs0","pricing_plan_id":"cebpf4jnsgd1na2vs0mg"},{"bike_id":"3427fae7-21fe-4bd1-a64d-1116c547f792","system_id":"levelo_inurba_marseille","lat":43.29578,"lon":5.36737,"is_reserved":false,"is_disabled":false,"rental_uris":{"android":"levelo://app?vid=3427fae7-21fe-4bd1-a64d-1116c547f792","ios":"levelo://app?vid=3427fae7-21fe-4bd1-a64d-1116c547f792"},"vehicle_type_id":"4","last_reported":1746710624,"current_range_meters":20800,"station_id":"ce4bgph2rcd13ifvqc2g","pricing_plan_id":"cebpf4jnsgd1na2vs0mg"},{"bike_id":"4057c94e-3384-425c-974e-d5a1504c85ce","system_id":"levelo_inurba_marseille","lat":43.22504,"lon":5.34778,"is_reserved":false,"is_disabled":false,"rental_uris":{"android":"levelo://app?vid=4057c94e-3384-425c-974e-d5a1504c85ce","ios":"levelo://app?vid=4057c94e-3384-425c-974e-d5a1504c85ce"},"vehicle_type_id":"4","last_reported":1746710624,"current_range_meters":20800,"station_id":"st_cvj5dfep6f1abm77gieg","pricing_plan_id":"cebpf4jnsgd1na2vs0mg"},{"bike_id":"faaba613-54c3-49f4-907d-b05d702c1334","system_id":"levelo_inurba_marseille","lat":43.2439,"lon":5.37064,"is_reserved":false,"is_disabled":false,"rental_uris":{"android":"levelo://app?vid=faaba613-54c3-49f4-907d-b05d702c1334","ios":"levelo://app?vid=faaba613-54c3-49f4-907d-b05d702c1334"},"vehicle_type_id":"4","last_reported":1746710624,"current_range_meters":19600,"station_id":"ce4bhhh2rcd13ifvqfk0","pricing_plan_id":"cebpf4jnsgd1na2vs0mg"},{"bike_id":"74b2f8db-c70f-429c-9425-7efcef878e93","system_id":"levelo_inurba_marseille","lat":43.29581,"lon":5.36743,"is_reserved":false,"is_disabled":false,"rental_uris":{"android":"levelo://app?vid=74b2f8db-c70f-429c-9425-7efcef878e93","ios":"levelo://app?vid=74b2f8db-c70f-429c-9425-7efcef878e93"},"vehicle_type_id":"4","last_reported":1746710624,"current_range_meters":20800,"station_id":"ce4bgph2rcd13ifvqc2g","pricing_plan_id":"cebpf4jnsgd1na2vs0mg"},{"bike_id":"3e4bba79-b135-4ee2-a4ca-154c2ff99705","system_id":"levelo_inurba_marseille","lat":43.25582,"lon":5.38228,"is_reserved":false,"is_disabled":false,"rental_uris":{"android":"levelo://app?vid=3e4bba79-b135-4ee2-a4ca-154c2ff99705","ios":"levelo://app?vid=3e4bba79-b135-4ee2-a4ca-154c2ff99705"},"vehicle_type_id":"4","last_reported":1746710624,"current_range_meters":20800,"station_id":"ce4bhih2rcd13ifvqfs0","pricing_plan_id":"cebpf4jnsgd1na2vs0mg"},{"bike_id":"42299668-bf93-4a8a-92d8-c81055f2faa5","system_id":"levelo_inurba_marseille","lat":43.229334,"lon":5.353782,"is_reserved":false,"is_disabled":false,"rental_uris":{"android":"levelo://app?vid=42299668-bf93-4a8a-92d8-c81055f2faa5","ios":"levelo://app?vid=42299668-bf93-4a8a-92d8-c81055f2faa5"},"vehicle_type_id":"4","last_reported":1746710624,"current_range_meters":20800,"station_id":"cpo3532slgdg3j2ikp40","pricing_plan_id":"cebpf4jnsgd1na2vs0mg"},{"bike_id":"dc959d20-47ef-4160-9d57-84c3d54d8bdb","system_id":"levelo_inurba_marseille","lat":43.34143,"lon":5.40911,"is_reserved":false,"is_disabled":false,"rental_uris":{"android":"levelo://app?vid=dc959d20-47ef-4160-9d57-84c3d54d8bdb","ios":"levelo://app?vid=dc959d20-47ef-4160-9d57-84c3d54d8bdb"},"vehicle_type_id":"4","last_reported":1746710624,"current_range_meters":18000,"station_id":"ce4bhqh2rcd13ifvqhlg","pricing_plan_id":"cebpf4jnsgd1na2vs0mg"},{"bike_id":"c3420a47-cc28-4c01-ad9d-d914e1e604bc","system_id":"levelo_inurba_marseille","lat":43.23182,"lon":5.39989,"is_reserved":false,"is_disabled":false,"rental_uris":{"android":"levelo://app?vid=c3420a47-cc28-4c01-ad9d-d914e1e604bc","ios":"levelo://app?vid=c3420a47-cc28-4c01-ad9d-d914e1e604bc"},"vehicle_type_id":"4","last_reported":1746710624,"current_range_meters":21600,"station_id":"ce4bhn12rcd13ifvqgqg","pricing_plan_id":"cebpf4jnsgd1na2vs0mg"},{"bike_id":"5cfe4fe1-c43b-4872-a506-754506bbf97e","system_id":"levelo_inurba_marseille","lat":43.28429,"lon":5.34995,"is_reserved":false,"is_disabled":false,"rental_uris":{"android":"levelo://app?vid=5cfe4fe1-c43b-4872-a506-754506bbf97e","ios":"levelo://app?vid=5cfe4fe1-c43b-4872-a506-754506bbf97e"},"vehicle_type_id":"4","last_reported":1746710624,"current_range_meters":21600,"station_id":"ce4bhbh2rcd13ifvqepg","pricing_plan_id":"cebpf4jnsgd1na2vs0mg"},{"bike_id":"571530f7-ca3a-4978-991c-73585f8e3eb3","system_id":"levelo_inurba_marseille","lat":43.25493,"lon":5.3765,"is_reserved":false,"is_disabled":false,"rental_uris":{"android":"levelo://app?vid=571530f7-ca3a-4978-991c-73585f8e3eb3","ios":"levelo://app?vid=571530f7-ca3a-4978-991c-73585f8e3eb3"},"vehicle_type_id":"4","last_reported":1746710624,"current_range_meters":20800,"station_id":"ce4bhh12rcd13ifvqff0","pricing_plan_id":"cebpf4jnsgd1na2vs0mg"},{"bike_id":"5e0b5bac-5dd4-43af-a9ec-a57f36fa5948","system_id":"levelo_inurba_marseille","lat":43.32109,"lon":5.36767,"is_reserved":false,"is_disabled":false,"rental_uris":{"android":"levelo://app?vid=5e0b5bac-5dd4-43af-a9ec-a57f36fa5948","ios":"levelo://app?vid=5e0b5bac-5dd4-43af-a9ec-a57f36fa5948"},"vehicle_type_id":"4","last_reported":1746710624,"current_range_meters":21600,"station_id":"ce4bhrh2rcd13ifvqhug","pricing_plan_id":"cebpf4jnsgd1na2vs0mg"},{"bike_id":"4bdd378f-a994-41e6-9d8b-830acbd7067c","system_id":"levelo_inurba_marseille","lat":43.29714,"lon":5.36613,"is_reserved":false,"is_disabled":false,"rental_uris":{"android":"levelo://app?vid=4bdd378f-a994-41e6-9d8b-830acbd7067c","ios":"levelo://app?vid=4bdd378f-a994-41e6-9d8b-830acbd7067c"},"vehicle_type_id":"4","last_reported":1746710624,"current_range_meters":21600,"station_id":"ce4bgn12rcd13ifvqbt0","pricing_plan_id":"cebpf4jnsgd1na2vs0mg"},{"bike_id":"94f123b5-46c6-4ca2-a512-0f9908fea193","system_id":"levelo_inurba_marseille","lat":43.21749,"lon":5.34603,"is_reserved":false,"is_disabled":false,"rental_uris":{"android":"levelo://app?vid=94f123b5-46c6-4ca2-a512-0f9908fea193","ios":"levelo://app?vid=94f123b5-46c6-4ca2-a512-0f9908fea193"},"vehicle_type_id":"4","last_reported":1746710624,"current_range_meters":22000,"station_id":"st_cvj6r9ubvosntc0bgbag","pricing_plan_id":"cebpf4jnsgd1na2vs0mg"},{"bike_id":"c1041c9f-2085-470a-b13c-f88fd8323115","system_id":"levelo_inurba_marseille","lat":43.277514,"lon":5.386739,"is_reserved":false,"is_disabled":false,"rental_uris":{"android":"levelo://app?vid=c1041c9f-2085-470a-b13c-f88fd8323115","ios":"levelo://app?vid=c1041c9f-2085-470a-b13c-f88fd8323115"},"vehicle_type_id":"4","last_reported":1746710624,"current_range_meters":22000,"station_id":"","pricing_plan_id":"cebpf4jnsgd1na2vs0mg"},{"bike_id":"d1107ecd-be4f-458d-a1cd-17553b1323a8","system_id":"levelo_inurba_marseille","lat":43.21493,"lon":5.34816,"is_reserved":false,"is_disabled":false,"rental_uris":{"android":"levelo://app?vid=d1107ecd-be4f-458d-a1cd-17553b1323a8","ios":"levelo://app?vid=d1107ecd-be4f-458d-a1cd-17553b1323a8"},"vehicle_type_id":"4","last_reported":1746710624,"current_range_meters":22000,"station_id":"","pricing_plan_id":"cebpf4jnsgd1na2vs0mg"},{"bike_id":"71bc2987-45dd-41d0-9f23-6f725dd3ea2a","system_id":"levelo_inurba_marseille","lat":43.27626,"lon":5.36099,"is_reserved":false,"is_disabled":false,"rental_uris":{"android":"levelo://app?vid=71bc2987-45dd-41d0-9f23-6f725dd3ea2a","ios":"levelo://app?vid=71bc2987-45dd-41d0-9f23-6f725dd3ea2a"},"vehicle_type_id":"4","last_reported":1746710624,"current_range_meters":22000,"station_id":"ce4bgj92rcd13ifvqbe0","pricing_plan_id":"cebpf4jnsgd1na2vs0mg"},{"bike_id":"0c78f221-6ded-4793-93f3-a35458d83dfb","system_id":"levelo_inurba_marseille","lat":43.27372,"lon":5.36261,"is_reserved":false,"is_disabled":false,"rental_uris":{"android":"levelo://app?vid=0c78f221-6ded-4793-93f3-a35458d83dfb","ios":"levelo://app?vid=0c78f221-6ded-4793-93f3-a35458d83dfb"},"vehicle_type_id":"4","last_reported":1746710624,"current_range_meters":22000,"station_id":"ce4bhbh2rcd13ifvqeo0","pricing_plan_id":"cebpf4jnsgd1na2vs0mg"},{"bike_id":"5daafd42-e735-42e8-8785-d195e4386318","system_id":"levelo_inurba_marseille","lat":43.2439,"lon":5.3706,"is_reserved":false,"is_disabled":false,"rental_uris":{"android":"levelo://app?vid=5daafd42-e735-42e8-8785-d195e4386318","ios":"levelo://app?vid=5daafd42-e735-42e8-8785-d195e4386318"},"vehicle_type_id":"4","last_reported":1746710624,"current_range_meters":22000,"station_id":"ce4bhhh2rcd13ifvqfk0","pricing_plan_id":"cebpf4jnsgd1na2vs0mg"},{"bike_id":"5bf33cfb-caef-4e2f-a396-d050db667cd1","system_id":"levelo_inurba_marseille","lat":43.290039,"lon":5.356192,"is_reserved":false,"is_disabled":false,"rental_uris":{"android":"levelo://app?vid=5bf33cfb-caef-4e2f-a396-d050db667cd1","ios":"levelo://app?vid=5bf33cfb-caef-4e2f-a396-d050db667cd1"},"vehicle_type_id":"4","last_reported":1746710624,"current_range_meters":22000,"station_id":"ce4bhb92rcd13ifvqen0","pricing_plan_id":"cebpf4jnsgd1na2vs0mg"},{"bike_id":"b675b51d-5fb9-4dea-85fe-a391168ccb97","system_id":"levelo_inurba_marseille","lat":43.28921,"lon":5.38385,"is_reserved":false,"is_disabled":false,"rental_uris":{"android":"levelo://app?vid=b675b51d-5fb9-4dea-85fe-a391168ccb97","ios":"levelo://app?vid=b675b51d-5fb9-4dea-85fe-a391168ccb97"},"vehicle_type_id":"4","last_reported":1746710624,"current_range_meters":22000,"station_id":"ce4bh612rcd13ifvqe6g","pricing_plan_id":"cebpf4jnsgd1na2vs0mg"},{"bike_id":"3d642e24-6947-45b9-9843-bea1dc94b26a","system_id":"levelo_inurba_marseille","lat":43.28617,"lon":5.35113,"is_reserved":false,"is_disabled":false,"rental_uris":{"android":"levelo://app?vid=3d642e24-6947-45b9-9843-bea1dc94b26a","ios":"levelo://app?vid=3d642e24-6947-45b9-9843-bea1dc94b26a"},"vehicle_type_id":"4","last_reported":1746710624,"current_range_meters":22400,"station_id":"ce4bhch2rcd13ifvqeug","pricing_plan_id":"cebpf4jnsgd1na2vs0mg"},{"bike_id":"e20796c6-fb69-495f-8806-cb4abe497320","system_id":"levelo_inurba_marseille","lat":43.26564,"lon":5.37296,"is_reserved":false,"is_disabled":false,"rental_uris":{"android":"levelo://app?vid=e20796c6-fb69-495f-8806-cb4abe497320","ios":"levelo://app?vid=e20796c6-fb69-495f-8806-cb4abe497320"},"vehicle_type_id":"4","last_reported":1746710624,"current_range_meters":22400,"station_id":"ce4bhg12rcd13ifvqf70","pricing_plan_id":"cebpf4jnsgd1na2vs0mg"},{"bike_id":"3a39e163-e54f-480b-9235-2925cad399f5","system_id":"levelo_inurba_marseille","lat":43.31709,"lon":5.37726,"is_reserved":false,"is_disabled":false,"rental_uris":{"android":"levelo://app?vid=3a39e163-e54f-480b-9235-2925cad399f5","ios":"levelo://app?vid=3a39e163-e54f-480b-9235-2925cad399f5"},"vehicle_type_id":"4","last_reported":1746710624,"current_range_meters":22400,"station_id":"ce4bgth2rcd13ifvqch0","pricing_plan_id":"cebpf4jnsgd1na2vs0mg"},{"bike_id":"da814782-d390-4d2a-a7aa-5fb002216e4d","system_id":"levelo_inurba_marseille","lat":43.27211,"lon":5.39175,"is_reserved":false,"is_disabled":false,"rental_uris":{"android":"levelo://app?vid=da814782-d390-4d2a-a7aa-5fb002216e4d","ios":"levelo://app?vid=da814782-d390-4d2a-a7aa-5fb002216e4d"},"vehicle_type_id":"4","last_reported":1746710624,"current_range_meters":22400,"station_id":"ce4bhhp2rcd13ifvqfm0","pricing_plan_id":"cebpf4jnsgd1na2vs0mg"},{"bike_id":"98b85f72-ced3-4027-9275-d7f154e51dc8","system_id":"levelo_inurba_marseille","lat":43.27373,"lon":5.36249,"is_reserved":false,"is_disabled":false,"rental_uris":{"android":"levelo://app?vid=98b85f72-ced3-4027-9275-d7f154e51dc8","ios":"levelo://app?vid=98b85f72-ced3-4027-9275-d7f154e51dc8"},"vehicle_type_id":"4","last_reported":1746710624,"current_range_meters":22400,"station_id":"ce4bhbh2rcd13ifvqeo0","pricing_plan_id":"cebpf4jnsgd1na2vs0mg"},{"bike_id":"6e90ec0b-1d7d-4b84-a40e-d1c647e5f377","system_id":"levelo_inurba_marseille","lat":43.29088,"lon":5.38119,"is_reserved":false,"is_disabled":false,"rental_uris":{"android":"levelo://app?vid=6e90ec0b-1d7d-4b84-a40e-d1c647e5f377","ios":"levelo://app?vid=6e90ec0b-1d7d-4b84-a40e-d1c647e5f377"},"vehicle_type_id":"4","last_reported":1746710624,"current_range_meters":22800,"station_id":"ce4bh512rcd13ifvqe2g","pricing_plan_id":"cebpf4jnsgd1na2vs0mg"},{"bike_id":"7eef83d3-0d93-48ba-8ab6-f35c087af3a1","system_id":"levelo_inurba_marseille","lat":43.28266,"lon":5.35078,"is_reserved":false,"is_disabled":false,"rental_uris":{"android":"levelo://app?vid=7eef83d3-0d93-48ba-8ab6-f35c087af3a1","ios":"levelo://app?vid=7eef83d3-0d93-48ba-8ab6-f35c087af3a1"},"vehicle_type_id":"4","last_reported":1746710624,"current_range_meters":22800,"station_id":"ce4bhbp2rcd13ifvqerg","pricing_plan_id":"cebpf4jnsgd1na2vs0mg"},{"bike_id":"66b5157c-ae17-4fda-8952-52d9d4de28d0","system_id":"levelo_inurba_marseille","lat":43.28357,"lon":5.38107,"is_reserved":false,"is_disabled":false,"rental_uris":{"android":"levelo://app?vid=66b5157c-ae17-4fda-8952-52d9d4de28d0","ios":"levelo://app?vid=66b5157c-ae17-4fda-8952-52d9d4de28d0"},"vehicle_type_id":"4","last_reported":1746710624,"current_range_meters":22800,"station_id":"ce4bh412rcd13ifvqdr0","pricing_plan_id":"cebpf4jnsgd1na2vs0mg"},{"bike_id":"e6c78a5f-38c0-461c-be9c-4ec508342459","system_id":"levelo_inurba_marseille","lat":43.284197,"lon":5.349916,"is_reserved":false,"is_disabled":false,"rental_uris":{"android":"levelo://app?vid=e6c78a5f-38c0-461c-be9c-4ec508342459","ios":"levelo://app?vid=e6c78a5f-38c0-461c-be9c-4ec508342459"},"vehicle_type_id":"4","last_reported":1746710624,"current_range_meters":22800,"station_id":"ce4bhbh2rcd13ifvqepg","pricing_plan_id":"cebpf4jnsgd1na2vs0mg"},{"bike_id":"d5ceca40-7910-4044-9175-fd197bd2a157","system_id":"levelo_inurba_marseille","lat":43.2293,"lon":5.35375,"is_reserved":false,"is_disabled":false,"rental_uris":{"android":"levelo://app?vid=d5ceca40-7910-4044-9175-fd197bd2a157","ios":"levelo://app?vid=d5ceca40-7910-4044-9175-fd197bd2a157"},"vehicle_type_id":"4","last_reported":1746710624,"current_range_meters":22800,"station_id":"cpo3532slgdg3j2ikp40","pricing_plan_id":"cebpf4jnsgd1na2vs0mg"},{"bike_id":"8330e13c-c3e3-4563-9d30-6e56bf6c340b","system_id":"levelo_inurba_marseille","lat":43.30806,"lon":5.38162,"is_reserved":false,"is_disabled":false,"rental_uris":{"android":"levelo://app?vid=8330e13c-c3e3-4563-9d30-6e56bf6c340b","ios":"levelo://app?vid=8330e13c-c3e3-4563-9d30-6e56bf6c340b"},"vehicle_type_id":"4","last_reported":1746710624,"current_range_meters":22800,"station_id":"ce4bgt12rcd13ifvqce0","pricing_plan_id":"cebpf4jnsgd1na2vs0mg"},{"bike_id":"679502ea-e209-4ef7-803c-369dd3d971bf","system_id":"levelo_inurba_marseille","lat":43.23192,"lon":5.355442,"is_reserved":false,"is_disabled":false,"rental_uris":{"android":"levelo://app?vid=679502ea-e209-4ef7-803c-369dd3d971bf","ios":"levelo://app?vid=679502ea-e209-4ef7-803c-369dd3d971bf"},"vehicle_type_id":"4","last_reported":1746710624,"current_range_meters":22800,"station_id":"ce4bhu92rcd13ifvqi70","pricing_plan_id":"cebpf4jnsgd1na2vs0mg"},{"bike_id":"ad3a7ffd-1b02-437d-b7e3-55baa21e2c56","system_id":"levelo_inurba_marseille","lat":43.31085,"lon":5.42436,"is_reserved":false,"is_disabled":false,"rental_uris":{"android":"levelo://app?vid=ad3a7ffd-1b02-437d-b7e3-55baa21e2c56","ios":"levelo://app?vid=ad3a7ffd-1b02-437d-b7e3-55baa21e2c56"},"vehicle_type_id":"4","last_reported":1746710624,"current_range_meters":22800,"station_id":"ce4bhp92rcd13ifvqhag","pricing_plan_id":"cebpf4jnsgd1na2vs0mg"},{"bike_id":"111d138f-d812-4e19-8820-1f400e69b266","system_id":"levelo_inurba_marseille","lat":43.28615,"lon":5.35105,"is_reserved":false,"is_disabled":false,"rental_uris":{"android":"levelo://app?vid=111d138f-d812-4e19-8820-1f400e69b266","ios":"levelo://app?vid=111d138f-d812-4e19-8820-1f400e69b266"},"vehicle_type_id":"4","last_reported":1746710624,"current_range_meters":22800,"station_id":"ce4bhch2rcd13ifvqeug","pricing_plan_id":"cebpf4jnsgd1na2vs0mg"},{"bike_id":"70646830-7348-4afb-9305-a878bbdaa257","system_id":"levelo_inurba_marseille","lat":43.31379,"lon":5.38493,"is_reserved":false,"is_disabled":false,"rental_uris":{"android":"levelo://app?vid=70646830-7348-4afb-9305-a878bbdaa257","ios":"levelo://app?vid=70646830-7348-4afb-9305-a878bbdaa257"},"vehicle_type_id":"4","last_reported":1746710624,"current_range_meters":23200,"station_id":"ce4bgt92rcd13ifvqcf0","pricing_plan_id":"cebpf4jnsgd1na2vs0mg"},{"bike_id":"2eb8dc8a-5422-4a49-9e5b-7b1ea59dd4ea","system_id":"levelo_inurba_marseille","lat":43.21756,"lon":5.34612,"is_reserved":false,"is_disabled":false,"rental_uris":{"android":"levelo://app?vid=2eb8dc8a-5422-4a49-9e5b-7b1ea59dd4ea","ios":"levelo://app?vid=2eb8dc8a-5422-4a49-9e5b-7b1ea59dd4ea"},"vehicle_type_id":"4","last_reported":1746710624,"current_range_meters":23200,"station_id":"st_cvj6r9ubvosntc0bgbag","pricing_plan_id":"cebpf4jnsgd1na2vs0mg"},{"bike_id":"53f238b0-2e73-4822-b1a4-36a10ab327dc","system_id":"levelo_inurba_marseille","lat":43.231815,"lon":5.399895,"is_reserved":false,"is_disabled":false,"rental_uris":{"android":"levelo://app?vid=53f238b0-2e73-4822-b1a4-36a10ab327dc","ios":"levelo://app?vid=53f238b0-2e73-4822-b1a4-36a10ab327dc"},"vehicle_type_id":"4","last_reported":1746710624,"current_range_meters":23200,"station_id":"ce4bhn12rcd13ifvqgqg","pricing_plan_id":"cebpf4jnsgd1na2vs0mg"},{"bike_id":"bc01eef1-0c31-4fe3-8c3b-c0f85c668c12","system_id":"levelo_inurba_marseille","lat":43.21751,"lon":5.34611,"is_reserved":false,"is_disabled":false,"rental_uris":{"android":"levelo://app?vid=bc01eef1-0c31-4fe3-8c3b-c0f85c668c12","ios":"levelo://app?vid=bc01eef1-0c31-4fe3-8c3b-c0f85c668c12"},"vehicle_type_id":"4","last_reported":1746710624,"current_range_meters":23200,"station_id":"st_cvj6r9ubvosntc0bgbag","pricing_plan_id":"cebpf4jnsgd1na2vs0mg"},{"bike_id":"12f59c06-06af-4522-b54c-76e77353c401","system_id":"levelo_inurba_marseille","lat":43.32662,"lon":5.40992,"is_reserved":false,"is_disabled":false,"rental_uris":{"android":"levelo://app?vid=12f59c06-06af-4522-b54c-76e77353c401","ios":"levelo://app?vid=12f59c06-06af-4522-b54c-76e77353c401"},"vehicle_type_id":"4","last_reported":1746710624,"current_range_meters":23200,"station_id":"ce4bhpp2rcd13ifvqhgg","pricing_plan_id":"cebpf4jnsgd1na2vs0mg"},{"bike_id":"545e5687-b7df-4883-81be-75a8925d5f91","system_id":"levelo_inurba_marseille","lat":43.337444,"lon":5.374475,"is_reserved":false,"is_disabled":false,"rental_uris":{"android":"levelo://app?vid=545e5687-b7df-4883-81be-75a8925d5f91","ios":"levelo://app?vid=545e5687-b7df-4883-81be-75a8925d5f91"},"vehicle_type_id":"4","last_reported":1746710624,"current_range_meters":23200,"station_id":"","pricing_plan_id":"cebpf4jnsgd1na2vs0mg"},{"bike_id":"847fe2a1-e4d5-4b39-83b3-2a38a32f136d","system_id":"levelo_inurba_marseille","lat":43.27372,"lon":5.36259,"is_reserved":false,"is_disabled":false,"rental_uris":{"android":"levelo://app?vid=847fe2a1-e4d5-4b39-83b3-2a38a32f136d","ios":"levelo://app?vid=847fe2a1-e4d5-4b39-83b3-2a38a32f136d"},"vehicle_type_id":"4","last_reported":1746710624,"current_range_meters":23200,"station_id":"","pricing_plan_id":"cebpf4jnsgd1na2vs0mg"},{"bike_id":"a3220723-4386-4e7a-8680-13c9435277c8","system_id":"levelo_inurba_marseille","lat":43.3082,"lon":5.3735,"is_reserved":false,"is_disabled":false,"rental_uris":{"android":"levelo://app?vid=a3220723-4386-4e7a-8680-13c9435277c8","ios":"levelo://app?vid=a3220723-4386-4e7a-8680-13c9435277c8"},"vehicle_type_id":"4","last_reported":1746710624,"current_range_meters":23200,"station_id":"","pricing_plan_id":"cebpf4jnsgd1na2vs0mg"},{"bike_id":"388270c6-9dce-4c50-8fec-eb57943acfd3","system_id":"levelo_inurba_marseille","lat":43.2406,"lon":5.37755,"is_reserved":false,"is_disabled":false,"rental_uris":{"android":"levelo://app?vid=388270c6-9dce-4c50-8fec-eb57943acfd3","ios":"levelo://app?vid=388270c6-9dce-4c50-8fec-eb57943acfd3"},"vehicle_type_id":"4","last_reported":1746710624,"current_range_meters":23200,"station_id":"ce4bhnp2rcd13ifvqgvg","pricing_plan_id":"cebpf4jnsgd1na2vs0mg"},{"bike_id":"907e8f8c-839c-481b-9061-4e6a72052ad8","system_id":"levelo_inurba_marseille","lat":43.25502,"lon":5.37647,"is_reserved":false,"is_disabled":false,"rental_uris":{"android":"levelo://app?vid=907e8f8c-839c-481b-9061-4e6a72052ad8","ios":"levelo://app?vid=907e8f8c-839c-481b-9061-4e6a72052ad8"},"vehicle_type_id":"4","last_reported":1746710624,"current_range_meters":22800,"station_id":"ce4bhh12rcd13ifvqff0","pricing_plan_id":"cebpf4jnsgd1na2vs0mg"},{"bike_id":"34b7fecd-bbb8-4ae4-9200-266314404121","system_id":"levelo_inurba_marseille","lat":43.26568,"lon":5.39014,"is_reserved":false,"is_disabled":false,"rental_uris":{"android":"levelo://app?vid=34b7fecd-bbb8-4ae4-9200-266314404121","ios":"levelo://app?vid=34b7fecd-bbb8-4ae4-9200-266314404121"},"vehicle_type_id":"4","last_reported":1746710624,"current_range_meters":23200,"station_id":"ce4bhe12rcd13ifvqf30","pricing_plan_id":"cebpf4jnsgd1na2vs0mg"},{"bike_id":"fc2577e7-1497-425b-9d4f-ab8d7dc843c6","system_id":"levelo_inurba_marseille","lat":43.33771,"lon":5.37485,"is_reserved":false,"is_disabled":false,"rental_uris":{"android":"levelo://app?vid=fc2577e7-1497-425b-9d4f-ab8d7dc843c6","ios":"levelo://app?vid=fc2577e7-1497-425b-9d4f-ab8d7dc843c6"},"vehicle_type_id":"4","last_reported":1746710624,"current_range_meters":24000,"station_id":"","pricing_plan_id":"cebpf4jnsgd1na2vs0mg"},{"bike_id":"19f23ac2-74ac-4b9b-b951-6d97dd0a9910","system_id":"levelo_inurba_marseille","lat":43.26957,"lon":5.38624,"is_reserved":false,"is_disabled":false,"rental_uris":{"android":"levelo://app?vid=19f23ac2-74ac-4b9b-b951-6d97dd0a9910","ios":"levelo://app?vid=19f23ac2-74ac-4b9b-b951-6d97dd0a9910"},"vehicle_type_id":"4","last_reported":1746710624,"current_range_meters":24000,"station_id":"ce4bhh92rcd13ifvqfh0","pricing_plan_id":"cebpf4jnsgd1na2vs0mg"},{"bike_id":"cfcf0a27-3831-4e84-9bea-34b38798a087","system_id":"levelo_inurba_marseille","lat":43.211967,"lon":5.350659,"is_reserved":false,"is_disabled":false,"rental_uris":{"android":"levelo://app?vid=cfcf0a27-3831-4e84-9bea-34b38798a087","ios":"levelo://app?vid=cfcf0a27-3831-4e84-9bea-34b38798a087"},"vehicle_type_id":"4","last_reported":1746710624,"current_range_meters":24000,"station_id":"st_cvj6sg6p6f1abm77japg","pricing_plan_id":"cebpf4jnsgd1na2vs0mg"},{"bike_id":"3bd68188-9fc6-4261-9313-5fd9214eed18","system_id":"levelo_inurba_marseille","lat":43.23182,"lon":5.39983,"is_reserved":false,"is_disabled":false,"rental_uris":{"android":"levelo://app?vid=3bd68188-9fc6-4261-9313-5fd9214eed18","ios":"levelo://app?vid=3bd68188-9fc6-4261-9313-5fd9214eed18"},"vehicle_type_id":"4","last_reported":1746710624,"current_range_meters":24000,"station_id":"ce4bhn12rcd13ifvqgqg","pricing_plan_id":"cebpf4jnsgd1na2vs0mg"},{"bike_id":"a12850ee-1d66-48f8-9ce1-9b0f8f6c3b39","system_id":"levelo_inurba_marseille","lat":43.24388,"lon":5.37065,"is_reserved":false,"is_disabled":false,"rental_uris":{"android":"levelo://app?vid=a12850ee-1d66-48f8-9ce1-9b0f8f6c3b39","ios":"levelo://app?vid=a12850ee-1d66-48f8-9ce1-9b0f8f6c3b39"},"vehicle_type_id":"4","last_reported":1746710624,"current_range_meters":24000,"station_id":"ce4bhhh2rcd13ifvqfk0","pricing_plan_id":"cebpf4jnsgd1na2vs0mg"},{"bike_id":"07da6f96-fb88-4a40-9077-290e24dde904","system_id":"levelo_inurba_marseille","lat":43.23058,"lon":5.35485,"is_reserved":false,"is_disabled":false,"rental_uris":{"android":"levelo://app?vid=07da6f96-fb88-4a40-9077-290e24dde904","ios":"levelo://app?vid=07da6f96-fb88-4a40-9077-290e24dde904"},"vehicle_type_id":"4","last_reported":1746710624,"current_range_meters":24000,"station_id":"cpo3342slgdg3j2ifvpg","pricing_plan_id":"cebpf4jnsgd1na2vs0mg"},{"bike_id":"15070180-248d-4ee5-8aac-1692f0be39ad","system_id":"levelo_inurba_marseille","lat":43.277157,"lon":5.389237,"is_reserved":false,"is_disabled":false,"rental_uris":{"android":"levelo://app?vid=15070180-248d-4ee5-8aac-1692f0be39ad","ios":"levelo://app?vid=15070180-248d-4ee5-8aac-1692f0be39ad"},"vehicle_type_id":"4","last_reported":1746710624,"current_range_meters":23200,"station_id":"ce4bhi12rcd13ifvqfo0","pricing_plan_id":"cebpf4jnsgd1na2vs0mg"},{"bike_id":"64378ed5-2f0c-45c8-bd12-7b1222fe2322","system_id":"levelo_inurba_marseille","lat":43.29082,"lon":5.37161,"is_reserved":false,"is_disabled":false,"rental_uris":{"android":"levelo://app?vid=64378ed5-2f0c-45c8-bd12-7b1222fe2322","ios":"levelo://app?vid=64378ed5-2f0c-45c8-bd12-7b1222fe2322"},"vehicle_type_id":"4","last_reported":1746710624,"current_range_meters":24000,"station_id":"ce4bh5p2rcd13ifvqe4g","pricing_plan_id":"cebpf4jnsgd1na2vs0mg"},{"bike_id":"97befefa-5a57-41c3-b05f-992b5ed1c603","system_id":"levelo_inurba_marseille","lat":43.24069,"lon":5.37768,"is_reserved":false,"is_disabled":false,"rental_uris":{"android":"levelo://app?vid=97befefa-5a57-41c3-b05f-992b5ed1c603","ios":"levelo://app?vid=97befefa-5a57-41c3-b05f-992b5ed1c603"},"vehicle_type_id":"4","last_reported":1746710624,"current_range_meters":24000,"station_id":"ce4bhnp2rcd13ifvqgvg","pricing_plan_id":"cebpf4jnsgd1na2vs0mg"},{"bike_id":"168197fd-f38c-4575-834b-c0c6113bfb37","system_id":"levelo_inurba_marseille","lat":43.275292,"lon":5.389971,"is_reserved":false,"is_disabled":false,"rental_uris":{"android":"levelo://app?vid=168197fd-f38c-4575-834b-c0c6113bfb37","ios":"levelo://app?vid=168197fd-f38c-4575-834b-c0c6113bfb37"},"vehicle_type_id":"4","last_reported":1746710624,"current_range_meters":24400,"station_id":"ce4bhg12rcd13ifvqf80","pricing_plan_id":"cebpf4jnsgd1na2vs0mg"},{"bike_id":"7e4bf6fe-4f2e-4fb9-83ec-a1484b3676c9","system_id":"levelo_inurba_marseille","lat":43.32365,"lon":5.38876,"is_reserved":false,"is_disabled":false,"rental_uris":{"android":"levelo://app?vid=7e4bf6fe-4f2e-4fb9-83ec-a1484b3676c9","ios":"levelo://app?vid=7e4bf6fe-4f2e-4fb9-83ec-a1484b3676c9"},"vehicle_type_id":"4","last_reported":1746710624,"current_range_meters":24400,"station_id":"ce4bhqp2rcd13ifvqhog","pricing_plan_id":"cebpf4jnsgd1na2vs0mg"},{"bike_id":"d01b71c1-dfdd-4387-ac14-2871774ca730","system_id":"levelo_inurba_marseille","lat":43.31328,"lon":5.397,"is_reserved":false,"is_disabled":false,"rental_uris":{"android":"levelo://app?vid=d01b71c1-dfdd-4387-ac14-2871774ca730","ios":"levelo://app?vid=d01b71c1-dfdd-4387-ac14-2871774ca730"},