{"last_updated":1744038659,"ttl":60,"version":"2.2","data":{"bikes":[{"bike_id":"eb79d1f9-7c91-4ea2-b5f8-796189743e1a","system_id":"levelo_inurba_marseille","lat":43.34286,"lon":5.38075,"is_reserved":false,"is_disabled":false,"rental_uris":{"android":"levelo://app?vid=eb79d1f9-7c91-4ea2-b5f8-796189743e1a","ios":"levelo://app?vid=eb79d1f9-7c91-4ea2-b5f8-796189743e1a"},"vehicle_type_id":"4","last_reported":1744038660,"current_range_meters":3600,"station_id":"","pricing_plan_id":"cebpf4jnsgd1na2vs0mg"},{"bike_id":"9cffca19-a1fc-49fa-b7f1-4fd87d3862e1","system_id":"levelo_inurba_marseille","lat":43.27964,"lon":5.4105,"is_reserved":false,"is_disabled":false,"rental_uris":{"android":"levelo://app?vid=9cffca19-a1fc-49fa-b7f1-4fd87d3862e1","ios":"levelo://app?vid=9cffca19-a1fc-49fa-b7f1-4fd87d3862e1"},"vehicle_type_id":"4","last_reported":1744038660,"current_range_meters":3600,"station_id":"ce4bhnp2rcd13ifvqh0g","pricing_plan_id":"cebpf4jnsgd1na2vs0mg"},{"bike_id":"46aaf249-f504-46ae-93ce-7245839b78b5","system_id":"levelo_inurba_marseille","lat":43.26196,"lon":5.37884,"is_reserved":false,"is_disabled":true,"rental_uris":{"android":"levelo://app?vid=46aaf249-f504-46ae-93ce-7245839b78b5","ios":"levelo://app?vid=46aaf249-f504-46ae-93ce-7245839b78b5"},"vehicle_type_id":"4","last_reported":1744038660,"current_range_meters":3600,"station_id":"ce4bhjp2rcd13ifvqg90","pricing_plan_id":"cebpf4jnsgd1na2vs0mg"},{"bike_id":"9431a32b-2919-45be-b7b2-1ca0df770de9","system_id":"levelo_inurba_marseille","lat":43.30436,"lon":5.39736,"is_reserved":false,"is_disabled":false,"rental_uris":{"android":"levelo://app?vid=9431a32b-2919-45be-b7b2-1ca0df770de9","ios":"levelo://app?vid=9431a32b-2919-45be-b7b2-1ca0df770de9"},"vehicle_type_id":"4","last_reported":1744038660,"current_range_meters":3600,"station_id":"ce4bh092rcd13ifvqd20","pricing_plan_id":"cebpf4jnsgd1na2vs0mg"},{"bike_id":"19f4b683-a5f9-4999-ae41-fc7c70ec2f45","system_id":"levelo_inurba_marseille","lat":43.28478,"lon":5.38427,"is_reserved":false,"is_disabled":false,"rental_uris":{"android":"levelo://app?vid=19f4b683-a5f9-4999-ae41-fc7c70ec2f45","ios":"levelo://app?vid=19f4b683-a5f9-4999-ae41-fc7c70ec2f45"},"vehicle_type_id":"4","last_reported":1744038660,"current_range_meters":4000,"station_id":"ce4bh512rcd13ifvqe3g","pricing_plan_id":"cebpf4jnsgd1na2vs0mg"},{"bike_id":"4815b711-7def-4ca4-828f-f82d5b3e3191","system_id":"levelo_inurba_marseille","lat":43.23138,"lon":5.43717,"is_reserved":false,"is_disabled":false,"rental_uris":{"android":"levelo://app?vid=4815b711-7def-4ca4-828f-f82d5b3e3191","ios":"levelo://app?vid=4815b711-7def-4ca4-828f-f82d5b3e3191"},"vehicle_type_id":"4","last_reported":1744038660,"current_range_meters":4000,"station_id":"ce4bhmp2rcd13ifvqgog","pricing_plan_id":"cebpf4jnsgd1na2vs0mg"},{"bike_id":"6b415071-2f25-4efb-b8c3-1a28ae129551","system_id":"levelo_inurba_marseille","lat":43.26933,"lon":5.38919,"is_reserved":false,"is_disabled":false,"rental_uris":{"android":"levelo://app?vid=6b415071-2f25-4efb-b8c3-1a28ae129551","ios":"levelo://app?vid=6b415071-2f25-4efb-b8c3-1a28ae129551"},"vehicle_type_id":"4","last_reported":1744038660,"current_range_meters":4000,"station_id":"ce4bhhh2rcd13ifvqfl0","pricing_plan_id":"cebpf4jnsgd1na2vs0mg"},{"bike_id":"6999dc1a-b389-4810-b09b-8ed3ffc6cdc6","system_id":"levelo_inurba_marseille","lat":43.28442,"lon":5.39201,"is_reserved":false,"is_disabled":false,"rental_uris":{"android":"levelo://app?vid=6999dc1a-b389-4810-b09b-8ed3ffc6cdc6","ios":"levelo://app?vid=6999dc1a-b389-4810-b09b-8ed3ffc6cdc6"},"vehicle_type_id":"4","last_reported":1744038660,"current_range_meters":4000,"station_id":"ce4bhoh2rcd13ifvqh5g","pricing_plan_id":"cebpf4jnsgd1na2vs0mg"},{"bike_id":"49368b2b-3ffa-490a-be22-044141c376dd","system_id":"levelo_inurba_marseille","lat":43.26551,"lon":5.37291,"is_reserved":false,"is_disabled":false,"rental_uris":{"android":"levelo://app?vid=49368b2b-3ffa-490a-be22-044141c376dd","ios":"levelo://app?vid=49368b2b-3ffa-490a-be22-044141c376dd"},"vehicle_type_id":"4","last_reported":1744038660,"current_range_meters":4400,"station_id":"ce4bhg12rcd13ifvqf70","pricing_plan_id":"cebpf4jnsgd1na2vs0mg"},{"bike_id":"d8f4b5cc-f622-4be4-8e75-b4675000b1ff","system_id":"levelo_inurba_marseille","lat":43.28681,"lon":5.38664,"is_reserved":false,"is_disabled":false,"rental_uris":{"android":"levelo://app?vid=d8f4b5cc-f622-4be4-8e75-b4675000b1ff","ios":"levelo://app?vid=d8f4b5cc-f622-4be4-8e75-b4675000b1ff"},"vehicle_type_id":"4","last_reported":1744038660,"current_range_meters":4800,"station_id":"ce4bh492rcd13ifvqdug","pricing_plan_id":"cebpf4jnsgd1na2vs0mg"},{"bike_id":"eb79a3d0-909f-4ad7-8b29-4370b77d2212","system_id":"levelo_inurba_marseille","lat":43.31489,"lon":5.37302,"is_reserved":false,"is_disabled":false,"rental_uris":{"android":"levelo://app?vid=eb79a3d0-909f-4ad7-8b29-4370b77d2212","ios":"levelo://app?vid=eb79a3d0-909f-4ad7-8b29-4370b77d2212"},"vehicle_type_id":"4","last_reported":1744038660,"current_range_meters":4800,"station_id":"ce4bgt12rcd13ifvqcd0","pricing_plan_id":"cebpf4jnsgd1na2vs0mg"},{"bike_id":"3f6d7ea6-41ca-4ee8-ac08-3ebc427b70ed","system_id":"levelo_inurba_marseille","lat":43.25821,"lon":5.39431,"is_reserved":false,"is_disabled":false,"rental_uris":{"android":"levelo://app?vid=3f6d7ea6-41ca-4ee8-ac08-3ebc427b70ed","ios":"levelo://app?vid=3f6d7ea6-41ca-4ee8-ac08-3ebc427b70ed"},"vehicle_type_id":"4","last_reported":1744038660,"current_range_meters":4800,"station_id":"ce4bhip2rcd13ifvqft0","pricing_plan_id":"cebpf4jnsgd1na2vs0mg"},{"bike_id":"3e35b019-57b5-4cb6-93d7-b2bd239e554f","system_id":"levelo_inurba_marseille","lat":43.24071,"lon":5.37758,"is_reserved":false,"is_disabled":false,"rental_uris":{"android":"levelo://app?vid=3e35b019-57b5-4cb6-93d7-b2bd239e554f","ios":"levelo://app?vid=3e35b019-57b5-4cb6-93d7-b2bd239e554f"},"vehicle_type_id":"4","last_reported":1744038660,"current_range_meters":5600,"station_id":"ce4bhnp2rcd13ifvqgvg","pricing_plan_id":"cebpf4jnsgd1na2vs0mg"},{"bike_id":"991343ab-5465-4eac-bd8e-f58a2337f627","system_id":"levelo_inurba_marseille","lat":43.2933,"lon":5.37128,"is_reserved":false,"is_disabled":false,"rental_uris":{"android":"levelo://app?vid=991343ab-5465-4eac-bd8e-f58a2337f627","ios":"levelo://app?vid=991343ab-5465-4eac-bd8e-f58a2337f627"},"vehicle_type_id":"4","last_reported":1744038660,"current_range_meters":5600,"station_id":"","pricing_plan_id":"cebpf4jnsgd1na2vs0mg"},{"bike_id":"c3c98c30-a2db-4f8c-b8ac-93bd647490ba","system_id":"levelo_inurba_marseille","lat":43.27061,"lon":5.40261,"is_reserved":false,"is_disabled":false,"rental_uris":{"android":"levelo://app?vid=c3c98c30-a2db-4f8c-b8ac-93bd647490ba","ios":"levelo://app?vid=c3c98c30-a2db-4f8c-b8ac-93bd647490ba"},"vehicle_type_id":"4","last_reported":1744038660,"current_range_meters":6000,"station_id":"ce4bhk92rcd13ifvqgc0","pricing_plan_id":"cebpf4jnsgd1na2vs0mg"},{"bike_id":"0705fe63-bafa-4dce-9558-6c1c90c2f340","system_id":"levelo_inurba_marseille","lat":43.27049,"lon":5.40256,"is_reserved":false,"is_disabled":false,"rental_uris":{"android":"levelo://app?vid=0705fe63-bafa-4dce-9558-6c1c90c2f340","ios":"levelo://app?vid=0705fe63-bafa-4dce-9558-6c1c90c2f340"},"vehicle_type_id":"4","last_reported":1744038660,"current_range_meters":6000,"station_id":"ce4bhk92rcd13ifvqgc0","pricing_plan_id":"cebpf4jnsgd1na2vs0mg"},{"bike_id":"bce37b8c-258b-4fc8-86bd-d158ddf5f7a2","system_id":"levelo_inurba_marseille","lat":43.3014,"lon":5.37407,"is_reserved":false,"is_disabled":false,"rental_uris":{"android":"levelo://app?vid=bce37b8c-258b-4fc8-86bd-d158ddf5f7a2","ios":"levelo://app?vid=bce37b8c-258b-4fc8-86bd-d158ddf5f7a2"},"vehicle_type_id":"4","last_reported":1744038660,"current_range_meters":6000,"station_id":"ce4bgs92rcd13ifvqcc0","pricing_plan_id":"cebpf4jnsgd1na2vs0mg"},{"bike_id":"c1a89998-2f20-4fbd-b200-efffb4495672","system_id":"levelo_inurba_marseille","lat":43.29368,"lon":5.37837,"is_reserved":false,"is_disabled":false,"rental_uris":{"android":"levelo://app?vid=c1a89998-2f20-4fbd-b200-efffb4495672","ios":"levelo://app?vid=c1a89998-2f20-4fbd-b200-efffb4495672"},"vehicle_type_id":"4","last_reported":1744038660,"current_range_meters":6000,"station_id":"ce4bgjh2rcd13ifvqbf0","pricing_plan_id":"cebpf4jnsgd1na2vs0mg"},{"bike_id":"ce6a6d2c-e7ec-4365-a3f4-ce460c70e39d","system_id":"levelo_inurba_marseille","lat":43.27495,"lon":5.42444,"is_reserved":false,"is_disabled":false,"rental_uris":{"android":"levelo://app?vid=ce6a6d2c-e7ec-4365-a3f4-ce460c70e39d","ios":"levelo://app?vid=ce6a6d2c-e7ec-4365-a3f4-ce460c70e39d"},"vehicle_type_id":"4","last_reported":1744038660,"current_range_meters":6000,"station_id":"ce4bhn92rcd13ifvqgrg","pricing_plan_id":"cebpf4jnsgd1na2vs0mg"},{"bike_id":"2a17d626-603f-4fa8-a9ad-f1cc013877cb","system_id":"levelo_inurba_marseille","lat":43.3171,"lon":5.42394,"is_reserved":false,"is_disabled":false,"rental_uris":{"android":"levelo://app?vid=2a17d626-603f-4fa8-a9ad-f1cc013877cb","ios":"levelo://app?vid=2a17d626-603f-4fa8-a9ad-f1cc013877cb"},"vehicle_type_id":"4","last_reported":1744038660,"current_range_meters":6400,"station_id":"ce4bhp92rcd13ifvqhbg","pricing_plan_id":"cebpf4jnsgd1na2vs0mg"},{"bike_id":"ad4d36ee-4ace-4017-b1a2-48c4f7e23651","system_id":"levelo_inurba_marseille","lat":43.2592,"lon":5.40873,"is_reserved":false,"is_disabled":false,"rental_uris":{"android":"levelo://app?vid=ad4d36ee-4ace-4017-b1a2-48c4f7e23651","ios":"levelo://app?vid=ad4d36ee-4ace-4017-b1a2-48c4f7e23651"},"vehicle_type_id":"4","last_reported":1744038660,"current_range_meters":6400,"station_id":"ce4bhm92rcd13ifvqglg","pricing_plan_id":"cebpf4jnsgd1na2vs0mg"},{"bike_id":"b0d57a9a-7fa5-4c3b-a9db-86fc8a5a4813","system_id":"levelo_inurba_marseille","lat":43.23154,"lon":5.43711,"is_reserved":false,"is_disabled":false,"rental_uris":{"android":"levelo://app?vid=b0d57a9a-7fa5-4c3b-a9db-86fc8a5a4813","ios":"levelo://app?vid=b0d57a9a-7fa5-4c3b-a9db-86fc8a5a4813"},"vehicle_type_id":"4","last_reported":1744038660,"current_range_meters":6400,"station_id":"ce4bhmp2rcd13ifvqgog","pricing_plan_id":"cebpf4jnsgd1na2vs0mg"},{"bike_id":"3c3bc997-c516-4100-a005-aad2737ec818","system_id":"levelo_inurba_marseille","lat":43.29189,"lon":5.39313,"is_reserved":false,"is_disabled":false,"rental_uris":{"android":"levelo://app?vid=3c3bc997-c516-4100-a005-aad2737ec818","ios":"levelo://app?vid=3c3bc997-c516-4100-a005-aad2737ec818"},"vehicle_type_id":"4","last_reported":1744038660,"current_range_meters":6400,"station_id":"ce4bh192rcd13ifvqdd0","pricing_plan_id":"cebpf4jnsgd1na2vs0mg"},{"bike_id":"33455205-ab4a-4189-a49c-dfe86ae13355","system_id":"levelo_inurba_marseille","lat":43.25118,"lon":5.40336,"is_reserved":false,"is_disabled":false,"rental_uris":{"android":"levelo://app?vid=33455205-ab4a-4189-a49c-dfe86ae13355","ios":"levelo://app?vid=33455205-ab4a-4189-a49c-dfe86ae13355"},"vehicle_type_id":"4","last_reported":1744038660,"current_range_meters":6800,"station_id":"ce4bhlh2rcd13ifvqgig","pricing_plan_id":"cebpf4jnsgd1na2vs0mg"},{"bike_id":"599cd34c-20ae-429b-a3d3-757fcae68040","system_id":"levelo_inurba_marseille","lat":43.31199,"lon":5.36819,"is_reserved":false,"is_disabled":false,"rental_uris":{"android":"levelo://app?vid=599cd34c-20ae-429b-a3d3-757fcae68040","ios":"levelo://app?vid=599cd34c-20ae-429b-a3d3-757fcae68040"},"vehicle_type_id":"4","last_reported":1744038660,"current_range_meters":6800,"station_id":"ce4bgl92rcd13ifvqbq0","pricing_plan_id":"cebpf4jnsgd1na2vs0mg"},{"bike_id":"da2d057d-b3e2-4a7b-8f1b-e83ff2e14dcf","system_id":"levelo_inurba_marseille","lat":43.24998,"lon":5.3891,"is_reserved":false,"is_disabled":false,"rental_uris":{"android":"levelo://app?vid=da2d057d-b3e2-4a7b-8f1b-e83ff2e14dcf","ios":"levelo://app?vid=da2d057d-b3e2-4a7b-8f1b-e83ff2e14dcf"},"vehicle_type_id":"4","last_reported":1744038660,"current_range_meters":6800,"station_id":"ce4bhgp2rcd13ifvqfd0","pricing_plan_id":"cebpf4jnsgd1na2vs0mg"},{"bike_id":"00393ee2-317d-4e98-a30d-fd25773ef49f","system_id":"levelo_inurba_marseille","lat":43.35216,"lon":5.35794,"is_reserved":false,"is_disabled":false,"rental_uris":{"android":"levelo://app?vid=00393ee2-317d-4e98-a30d-fd25773ef49f","ios":"levelo://app?vid=00393ee2-317d-4e98-a30d-fd25773ef49f"},"vehicle_type_id":"4","last_reported":1744038660,"current_range_meters":6800,"station_id":"","pricing_plan_id":"cebpf4jnsgd1na2vs0mg"},{"bike_id":"9451db43-aac8-4c9f-83f8-881c49333870","system_id":"levelo_inurba_marseille","lat":43.30545,"lon":5.36541,"is_reserved":false,"is_disabled":false,"rental_uris":{"android":"levelo://app?vid=9451db43-aac8-4c9f-83f8-881c49333870","ios":"levelo://app?vid=9451db43-aac8-4c9f-83f8-881c49333870"},"vehicle_type_id":"4","last_reported":1744038660,"current_range_meters":6800,"station_id":"ce4bgs12rcd13ifvqcag","pricing_plan_id":"cebpf4jnsgd1na2vs0mg"},{"bike_id":"c5839f54-bef9-4a08-b316-2e6cff1ea8d7","system_id":"levelo_inurba_marseille","lat":43.23136,"lon":5.43713,"is_reserved":false,"is_disabled":false,"rental_uris":{"android":"levelo://app?vid=c5839f54-bef9-4a08-b316-2e6cff1ea8d7","ios":"levelo://app?vid=c5839f54-bef9-4a08-b316-2e6cff1ea8d7"},"vehicle_type_id":"4","last_reported":1744038660,"current_range_meters":6800,"station_id":"ce4bhmp2rcd13ifvqgog","pricing_plan_id":"cebpf4jnsgd1na2vs0mg"},{"bike_id":"9328c0bb-8514-4f11-b381-7069c9a74645","system_id":"levelo_inurba_marseille","lat":43.30541,"lon":5.3652,"is_reserved":false,"is_disabled":false,"rental_uris":{"android":"levelo://app?vid=9328c0bb-8514-4f11-b381-7069c9a74645","ios":"levelo://app?vid=9328c0bb-8514-4f11-b381-7069c9a74645"},"vehicle_type_id":"4","last_reported":1744038660,"current_range_meters":6800,"station_id":"ce4bgs12rcd13ifvqcag","pricing_plan_id":"cebpf4jnsgd1na2vs0mg"},{"bike_id":"1f8d1e21-f657-42c0-bf7b-10b968483646","system_id":"levelo_inurba_marseille","lat":43.31192,"lon":5.3686,"is_reserved":false,"is_disabled":false,"rental_uris":{"android":"levelo://app?vid=1f8d1e21-f657-42c0-bf7b-10b968483646","ios":"levelo://app?vid=1f8d1e21-f657-42c0-bf7b-10b968483646"},"vehicle_type_id":"4","last_reported":1744038660,"current_range_meters":6800,"station_id":"ce4bgl92rcd13ifvqbq0","pricing_plan_id":"cebpf4jnsgd1na2vs0mg"},{"bike_id":"104fa708-46b3-4372-bb3d-5a274078b566","system_id":"levelo_inurba_marseille","lat":43.23143,"lon":5.43701,"is_reserved":false,"is_disabled":false,"rental_uris":{"android":"levelo://app?vid=104fa708-46b3-4372-bb3d-5a274078b566","ios":"levelo://app?vid=104fa708-46b3-4372-bb3d-5a274078b566"},"vehicle_type_id":"4","last_reported":1744038660,"current_range_meters":6800,"station_id":"ce4bhmp2rcd13ifvqgog","pricing_plan_id":"cebpf4jnsgd1na2vs0mg"},{"bike_id":"6a37bc29-4b51-4957-aa8c-76aac2b4d218","system_id":"levelo_inurba_marseille","lat":43.29613,"lon":5.40505,"is_reserved":false,"is_disabled":false,"rental_uris":{"android":"levelo://app?vid=6a37bc29-4b51-4957-aa8c-76aac2b4d218","ios":"levelo://app?vid=6a37bc29-4b51-4957-aa8c-76aac2b4d218"},"vehicle_type_id":"4","last_reported":1744038660,"current_range_meters":3200,"station_id":"ce4bh0h2rcd13ifvqd60","pricing_plan_id":"cebpf4jnsgd1na2vs0mg"},{"bike_id":"136b6e45-ee21-453e-aa22-e07947db9071","system_id":"levelo_inurba_marseille","lat":43.2314,"lon":5.43688,"is_reserved":false,"is_disabled":true,"rental_uris":{"android":"levelo://app?vid=136b6e45-ee21-453e-aa22-e07947db9071","ios":"levelo://app?vid=136b6e45-ee21-453e-aa22-e07947db9071"},"vehicle_type_id":"4","last_reported":1744038660,"current_range_meters":6800,"station_id":"ce4bhmp2rcd13ifvqgog","pricing_plan_id":"cebpf4jnsgd1na2vs0mg"},{"bike_id":"eb3e148a-ca72-4987-82c4-a76fbd3dc65b","system_id":"levelo_inurba_marseille","lat":43.2925,"lon":5.37605,"is_reserved":false,"is_disabled":false,"rental_uris":{"android":"levelo://app?vid=eb3e148a-ca72-4987-82c4-a76fbd3dc65b","ios":"levelo://app?vid=eb3e148a-ca72-4987-82c4-a76fbd3dc65b"},"vehicle_type_id":"4","last_reported":1744038660,"current_range_meters":7200,"station_id":"ce4bgi12rcd13ifvqb80","pricing_plan_id":"cebpf4jnsgd1na2vs0mg"},{"bike_id":"e8d97f9d-0018-4c34-8373-6290975babbc","system_id":"levelo_inurba_marseille","lat":43.28392,"lon":5.37521,"is_reserved":false,"is_disabled":false,"rental_uris":{"android":"levelo://app?vid=e8d97f9d-0018-4c34-8373-6290975babbc","ios":"levelo://app?vid=e8d97f9d-0018-4c34-8373-6290975babbc"},"vehicle_type_id":"4","last_reported":1744038660,"current_range_meters":7200,"station_id":"ce4bh412rcd13ifvqds0","pricing_plan_id":"cebpf4jnsgd1na2vs0mg"},{"bike_id":"2cd7ef9b-a726-4134-9830-a54c0abc7b06","system_id":"levelo_inurba_marseille","lat":43.2418,"lon":5.39739,"is_reserved":false,"is_disabled":false,"rental_uris":{"android":"levelo://app?vid=2cd7ef9b-a726-4134-9830-a54c0abc7b06","ios":"levelo://app?vid=2cd7ef9b-a726-4134-9830-a54c0abc7b06"},"vehicle_type_id":"4","last_reported":1744038660,"current_range_meters":7200,"station_id":"ce4bhn12rcd13ifvqgpg","pricing_plan_id":"cebpf4jnsgd1na2vs0mg"},{"bike_id":"aba5e844-f429-4fca-8fbd-34616f5265a2","system_id":"levelo_inurba_marseille","lat":43.28154,"lon":5.4264,"is_reserved":false,"is_disabled":false,"rental_uris":{"android":"levelo://app?vid=aba5e844-f429-4fca-8fbd-34616f5265a2","ios":"levelo://app?vid=aba5e844-f429-4fca-8fbd-34616f5265a2"},"vehicle_type_id":"4","last_reported":1744038660,"current_range_meters":7200,"station_id":"ce4bhnh2rcd13ifvqgug","pricing_plan_id":"cebpf4jnsgd1na2vs0mg"},{"bike_id":"351b921a-1463-4cf6-859d-ca5bd51a6e76","system_id":"levelo_inurba_marseille","lat":43.31798,"lon":5.36808,"is_reserved":false,"is_disabled":false,"rental_uris":{"android":"levelo://app?vid=351b921a-1463-4cf6-859d-ca5bd51a6e76","ios":"levelo://app?vid=351b921a-1463-4cf6-859d-ca5bd51a6e76"},"vehicle_type_id":"4","last_reported":1744038660,"current_range_meters":7200,"station_id":"","pricing_plan_id":"cebpf4jnsgd1na2vs0mg"},{"bike_id":"84ab7827-d5f3-479b-9d7b-280a6b816f68","system_id":"levelo_inurba_marseille","lat":43.29304,"lon":5.37174,"is_reserved":false,"is_disabled":false,"rental_uris":{"android":"levelo://app?vid=84ab7827-d5f3-479b-9d7b-280a6b816f68","ios":"levelo://app?vid=84ab7827-d5f3-479b-9d7b-280a6b816f68"},"vehicle_type_id":"4","last_reported":1744038660,"current_range_meters":7200,"station_id":"ce4bgh92rcd13ifvqb40","pricing_plan_id":"cebpf4jnsgd1na2vs0mg"},{"bike_id":"d66890eb-a849-4361-8afb-8574c3836f73","system_id":"levelo_inurba_marseille","lat":43.26077,"lon":5.38701,"is_reserved":false,"is_disabled":false,"rental_uris":{"android":"levelo://app?vid=d66890eb-a849-4361-8afb-8574c3836f73","ios":"levelo://app?vid=d66890eb-a849-4361-8afb-8574c3836f73"},"vehicle_type_id":"4","last_reported":1744038660,"current_range_meters":7200,"station_id":"","pricing_plan_id":"cebpf4jnsgd1na2vs0mg"},{"bike_id":"3acacfbc-53a8-4149-a9d3-fff1284409cf","system_id":"levelo_inurba_marseille","lat":43.274937,"lon":5.424557,"is_reserved":false,"is_disabled":false,"rental_uris":{"android":"levelo://app?vid=3acacfbc-53a8-4149-a9d3-fff1284409cf","ios":"levelo://app?vid=3acacfbc-53a8-4149-a9d3-fff1284409cf"},"vehicle_type_id":"4","last_reported":1744038660,"current_range_meters":4800,"station_id":"ce4bhn92rcd13ifvqgrg","pricing_plan_id":"cebpf4jnsgd1na2vs0mg"},{"bike_id":"ab5ba887-8918-4173-ace0-660b6cee895b","system_id":"levelo_inurba_marseille","lat":43.23961,"lon":5.36639,"is_reserved":false,"is_disabled":false,"rental_uris":{"android":"levelo://app?vid=ab5ba887-8918-4173-ace0-660b6cee895b","ios":"levelo://app?vid=ab5ba887-8918-4173-ace0-660b6cee895b"},"vehicle_type_id":"4","last_reported":1744038660,"current_range_meters":8000,"station_id":"ce4bhi12rcd13ifvqfp0","pricing_plan_id":"cebpf4jnsgd1na2vs0mg"},{"bike_id":"f56fa8c2-6991-4db5-9b1b-225fe2c50caf","system_id":"levelo_inurba_marseille","lat":43.28162,"lon":5.42659,"is_reserved":false,"is_disabled":false,"rental_uris":{"android":"levelo://app?vid=f56fa8c2-6991-4db5-9b1b-225fe2c50caf","ios":"levelo://app?vid=f56fa8c2-6991-4db5-9b1b-225fe2c50caf"},"vehicle_type_id":"4","last_reported":1744038660,"current_range_meters":8000,"station_id":"ce4bhnh2rcd13ifvqgug","pricing_plan_id":"cebpf4jnsgd1na2vs0mg"},{"bike_id":"19341bd7-78c9-4d4d-99e4-e0937fbd6863","system_id":"levelo_inurba_marseille","lat":43.29738,"lon":5.37677,"is_reserved":false,"is_disabled":false,"rental_uris":{"android":"levelo://app?vid=19341bd7-78c9-4d4d-99e4-e0937fbd6863","ios":"levelo://app?vid=19341bd7-78c9-4d4d-99e4-e0937fbd6863"},"vehicle_type_id":"4","last_reported":1744038660,"current_range_meters":8000,"station_id":"ce4bgkh2rcd13ifvqbl0","pricing_plan_id":"cebpf4jnsgd1na2vs0mg"},{"bike_id":"c7f769a0-9ae3-4891-a95a-079fb88a4ee7","system_id":"levelo_inurba_marseille","lat":43.25107,"lon":5.40346,"is_reserved":false,"is_disabled":false,"rental_uris":{"android":"levelo://app?vid=c7f769a0-9ae3-4891-a95a-079fb88a4ee7","ios":"levelo://app?vid=c7f769a0-9ae3-4891-a95a-079fb88a4ee7"},"vehicle_type_id":"4","last_reported":1744038660,"current_range_meters":8000,"station_id":"ce4bhlh2rcd13ifvqgig","pricing_plan_id":"cebpf4jnsgd1na2vs0mg"},{"bike_id":"606675f6-9cae-427a-83c9-8a064752327b","system_id":"levelo_inurba_marseille","lat":43.32359,"lon":5.36756,"is_reserved":false,"is_disabled":false,"rental_uris":{"android":"levelo://app?vid=606675f6-9cae-427a-83c9-8a064752327b","ios":"levelo://app?vid=606675f6-9cae-427a-83c9-8a064752327b"},"vehicle_type_id":"4","last_reported":1744038660,"current_range_meters":8000,"station_id":"ce4bhsh2rcd13ifvqi2g","pricing_plan_id":"cebpf4jnsgd1na2vs0mg"},{"bike_id":"5eefb8bc-5e52-4bd3-a0df-cd6afa0d9775","system_id":"levelo_inurba_marseille","lat":43.26197,"lon":5.37932,"is_reserved":false,"is_disabled":false,"rental_uris":{"android":"levelo://app?vid=5eefb8bc-5e52-4bd3-a0df-cd6afa0d9775","ios":"levelo://app?vid=5eefb8bc-5e52-4bd3-a0df-cd6afa0d9775"},"vehicle_type_id":"4","last_reported":1744038660,"current_range_meters":8000,"station_id":"ce4bhjp2rcd13ifvqg90","pricing_plan_id":"cebpf4jnsgd1na2vs0mg"},{"bike_id":"82ced9b7-7ea1-475a-849e-92b779bc446a","system_id":"levelo_inurba_marseille","lat":43.2955,"lon":5.39399,"is_reserved":false,"is_disabled":false,"rental_uris":{"android":"levelo://app?vid=82ced9b7-7ea1-475a-849e-92b779bc446a","ios":"levelo://app?vid=82ced9b7-7ea1-475a-849e-92b779bc446a"},"vehicle_type_id":"4","last_reported":1744038660,"current_range_meters":8400,"station_id":"ce4bh292rcd13ifvqdf0","pricing_plan_id":"cebpf4jnsgd1na2vs0mg"},{"bike_id":"8a38320c-a733-4cf5-8c8e-152497fe8f8f","system_id":"levelo_inurba_marseille","lat":43.28135,"lon":5.42669,"is_reserved":false,"is_disabled":false,"rental_uris":{"android":"levelo://app?vid=8a38320c-a733-4cf5-8c8e-152497fe8f8f","ios":"levelo://app?vid=8a38320c-a733-4cf5-8c8e-152497fe8f8f"},"vehicle_type_id":"4","last_reported":1744038660,"current_range_meters":8400,"station_id":"ce4bhnh2rcd13ifvqgug","pricing_plan_id":"cebpf4jnsgd1na2vs0mg"},{"bike_id":"2e8d1dd1-9f49-4bda-8a2f-654b7665bb8f","system_id":"levelo_inurba_marseille","lat":43.25074,"lon":5.39509,"is_reserved":false,"is_disabled":false,"rental_uris":{"android":"levelo://app?vid=2e8d1dd1-9f49-4bda-8a2f-654b7665bb8f","ios":"levelo://app?vid=2e8d1dd1-9f49-4bda-8a2f-654b7665bb8f"},"vehicle_type_id":"4","last_reported":1744038660,"current_range_meters":8400,"station_id":"ce4bhm12rcd13ifvqgkg","pricing_plan_id":"cebpf4jnsgd1na2vs0mg"},{"bike_id":"95314c5d-57d1-4a7b-a884-1c2ddee6a6de","system_id":"levelo_inurba_marseille","lat":43.23149,"lon":5.43708,"is_reserved":false,"is_disabled":false,"rental_uris":{"android":"levelo://app?vid=95314c5d-57d1-4a7b-a884-1c2ddee6a6de","ios":"levelo://app?vid=95314c5d-57d1-4a7b-a884-1c2ddee6a6de"},"vehicle_type_id":"4","last_reported":1744038660,"current_range_meters":8400,"station_id":"ce4bhmp2rcd13ifvqgog","pricing_plan_id":"cebpf4jnsgd1na2vs0mg"},{"bike_id":"49d42c37-2fdc-4f8d-9bf6-5d87fcac8d17","system_id":"levelo_inurba_marseille","lat":43.30307,"lon":5.36879,"is_reserved":false,"is_disabled":false,"rental_uris":{"android":"levelo://app?vid=49d42c37-2fdc-4f8d-9bf6-5d87fcac8d17","ios":"levelo://app?vid=49d42c37-2fdc-4f8d-9bf6-5d87fcac8d17"},"vehicle_type_id":"4","last_reported":1744038660,"current_range_meters":8400,"station_id":"ce4bgqh2rcd13ifvqc5g","pricing_plan_id":"cebpf4jnsgd1na2vs0mg"},{"bike_id":"c3e6d442-6282-4c88-9f90-93d85aff9e76","system_id":"levelo_inurba_marseille","lat":43.28181,"lon":5.42633,"is_reserved":false,"is_disabled":false,"rental_uris":{"android":"levelo://app?vid=c3e6d442-6282-4c88-9f90-93d85aff9e76","ios":"levelo://app?vid=c3e6d442-6282-4c88-9f90-93d85aff9e76"},"vehicle_type_id":"4","last_reported":1744038660,"current_range_meters":8400,"station_id":"ce4bhnh2rcd13ifvqgug","pricing_plan_id":"cebpf4jnsgd1na2vs0mg"},{"bike_id":"516d1131-8d22-4c00-9743-8f8296b9be79","system_id":"levelo_inurba_marseille","lat":43.25485,"lon":5.37648,"is_reserved":false,"is_disabled":true,"rental_uris":{"android":"levelo://app?vid=516d1131-8d22-4c00-9743-8f8296b9be79","ios":"levelo://app?vid=516d1131-8d22-4c00-9743-8f8296b9be79"},"vehicle_type_id":"4","last_reported":1744038660,"current_range_meters":8400,"station_id":"ce4bhh12rcd13ifvqff0","pricing_plan_id":"cebpf4jnsgd1na2vs0mg"},{"bike_id":"656e5cdf-1254-4160-8950-9f497a53487c","system_id":"levelo_inurba_marseille","lat":43.28847,"lon":5.35849,"is_reserved":false,"is_disabled":false,"rental_uris":{"android":"levelo://app?vid=656e5cdf-1254-4160-8950-9f497a53487c","ios":"levelo://app?vid=656e5cdf-1254-4160-8950-9f497a53487c"},"vehicle_type_id":"4","last_reported":1744038660,"current_range_meters":8000,"station_id":"ce4bhb12rcd13ifvqem0","pricing_plan_id":"cebpf4jnsgd1na2vs0mg"},{"bike_id":"79537ffb-5232-4549-a0c1-44d0c11f25a2","system_id":"levelo_inurba_marseille","lat":43.31712,"lon":5.43705,"is_reserved":false,"is_disabled":false,"rental_uris":{"android":"levelo://app?vid=79537ffb-5232-4549-a0c1-44d0c11f25a2","ios":"levelo://app?vid=79537ffb-5232-4549-a0c1-44d0c11f25a2"},"vehicle_type_id":"4","last_reported":1744038660,"current_range_meters":8400,"station_id":"ce4bhp92rcd13ifvqhcg","pricing_plan_id":"cebpf4jnsgd1na2vs0mg"},{"bike_id":"377b2d4d-5fdb-40b2-86f5-a9582112642f","system_id":"levelo_inurba_marseille","lat":43.2984,"lon":5.36264,"is_reserved":false,"is_disabled":false,"rental_uris":{"android":"levelo://app?vid=377b2d4d-5fdb-40b2-86f5-a9582112642f","ios":"levelo://app?vid=377b2d4d-5fdb-40b2-86f5-a9582112642f"},"vehicle_type_id":"4","last_reported":1744038660,"current_range_meters":8000,"station_id":"ce4bgpp2rcd13ifvqc3g","pricing_plan_id":"cebpf4jnsgd1na2vs0mg"},{"bike_id":"b5c5c856-5f15-463d-bfd9-c327c1a1b6c5","system_id":"levelo_inurba_marseille","lat":43.27559,"lon":5.38426,"is_reserved":false,"is_disabled":false,"rental_uris":{"android":"levelo://app?vid=b5c5c856-5f15-463d-bfd9-c327c1a1b6c5","ios":"levelo://app?vid=b5c5c856-5f15-463d-bfd9-c327c1a1b6c5"},"vehicle_type_id":"4","last_reported":1744038660,"current_range_meters":8400,"station_id":"ce4bhh92rcd13ifvqfi0","pricing_plan_id":"cebpf4jnsgd1na2vs0mg"},{"bike_id":"03459487-5609-45d6-8672-77ad1a4c94a5","system_id":"levelo_inurba_marseille","lat":43.23149,"lon":5.43716,"is_reserved":false,"is_disabled":false,"rental_uris":{"android":"levelo://app?vid=03459487-5609-45d6-8672-77ad1a4c94a5","ios":"levelo://app?vid=03459487-5609-45d6-8672-77ad1a4c94a5"},"vehicle_type_id":"4","last_reported":1744038660,"current_range_meters":8800,"station_id":"ce4bhmp2rcd13ifvqgog","pricing_plan_id":"cebpf4jnsgd1na2vs0mg"},{"bike_id":"755acd57-59ea-49ed-ad6a-698107bd5c37","system_id":"levelo_inurba_marseille","lat":43.32347,"lon":5.36747,"is_reserved":false,"is_disabled":false,"rental_uris":{"android":"levelo://app?vid=755acd57-59ea-49ed-ad6a-698107bd5c37","ios":"levelo://app?vid=755acd57-59ea-49ed-ad6a-698107bd5c37"},"vehicle_type_id":"4","last_reported":1744038660,"current_range_meters":8800,"station_id":"ce4bhsh2rcd13ifvqi2g","pricing_plan_id":"cebpf4jnsgd1na2vs0mg"},{"bike_id":"84664750-914f-4773-92f0-ec08ad702917","system_id":"levelo_inurba_marseille","lat":43.26972,"lon":5.36616,"is_reserved":false,"is_disabled":false,"rental_uris":{"android":"levelo://app?vid=84664750-914f-4773-92f0-ec08ad702917","ios":"levelo://app?vid=84664750-914f-4773-92f0-ec08ad702917"},"vehicle_type_id":"4","last_reported":1744038660,"current_range_meters":8800,"station_id":"ce4bgvp2rcd13ifvqcu0","pricing_plan_id":"cebpf4jnsgd1na2vs0mg"},{"bike_id":"a959694d-18ce-4d80-917f-23c91ed81065","system_id":"levelo_inurba_marseille","lat":43.29904,"lon":5.43672,"is_reserved":false,"is_disabled":false,"rental_uris":{"android":"levelo://app?vid=a959694d-18ce-4d80-917f-23c91ed81065","ios":"levelo://app?vid=a959694d-18ce-4d80-917f-23c91ed81065"},"vehicle_type_id":"4","last_reported":1744038660,"current_range_meters":8800,"station_id":"ce4bhpp2rcd13ifvqhfg","pricing_plan_id":"cebpf4jnsgd1na2vs0mg"},{"bike_id":"d4e77649-28e2-4314-b058-e42346891270","system_id":"levelo_inurba_marseille","lat":43.31485,"lon":5.37299,"is_reserved":false,"is_disabled":false,"rental_uris":{"android":"levelo://app?vid=d4e77649-28e2-4314-b058-e42346891270","ios":"levelo://app?vid=d4e77649-28e2-4314-b058-e42346891270"},"vehicle_type_id":"4","last_reported":1744038660,"current_range_meters":8800,"station_id":"ce4bgt12rcd13ifvqcd0","pricing_plan_id":"cebpf4jnsgd1na2vs0mg"},{"bike_id":"9088d5e6-b73d-42e8-a162-926f97c6750b","system_id":"levelo_inurba_marseille","lat":43.27061,"lon":5.40262,"is_reserved":false,"is_disabled":false,"rental_uris":{"android":"levelo://app?vid=9088d5e6-b73d-42e8-a162-926f97c6750b","ios":"levelo://app?vid=9088d5e6-b73d-42e8-a162-926f97c6750b"},"vehicle_type_id":"4","last_reported":1744038660,"current_range_meters":8800,"station_id":"ce4bhk92rcd13ifvqgc0","pricing_plan_id":"cebpf4jnsgd1na2vs0mg"},{"bike_id":"77e79ed5-8122-4891-970e-3bde02672414","system_id":"levelo_inurba_marseille","lat":43.275396,"lon":5.423829,"is_reserved":false,"is_disabled":false,"rental_uris":{"android":"levelo://app?vid=77e79ed5-8122-4891-970e-3bde02672414","ios":"levelo://app?vid=77e79ed5-8122-4891-970e-3bde02672414"},"vehicle_type_id":"4","last_reported":1744038660,"current_range_meters":8800,"station_id":"ce4bhn92rcd13ifvqgrg","pricing_plan_id":"cebpf4jnsgd1na2vs0mg"},{"bike_id":"54561cfa-04f7-4d2e-8fca-695880a36134","system_id":"levelo_inurba_marseille","lat":43.29533,"lon":5.38534,"is_reserved":false,"is_disabled":false,"rental_uris":{"android":"levelo://app?vid=54561cfa-04f7-4d2e-8fca-695880a36134","ios":"levelo://app?vid=54561cfa-04f7-4d2e-8fca-695880a36134"},"vehicle_type_id":"4","last_reported":1744038660,"current_range_meters":8800,"station_id":"ce4bgih2rcd13ifvqba0","pricing_plan_id":"cebpf4jnsgd1na2vs0mg"},{"bike_id":"c65bf120-bd44-41f5-b4ff-6de66166c284","system_id":"levelo_inurba_marseille","lat":43.29035,"lon":5.37553,"is_reserved":false,"is_disabled":false,"rental_uris":{"android":"levelo://app?vid=c65bf120-bd44-41f5-b4ff-6de66166c284","ios":"levelo://app?vid=c65bf120-bd44-41f5-b4ff-6de66166c284"},"vehicle_type_id":"4","last_reported":1744038660,"current_range_meters":9200,"station_id":"ce4bh692rcd13ifvqe90","pricing_plan_id":"cebpf4jnsgd1na2vs0mg"},{"bike_id":"298db965-e305-4b18-8431-6a5ac8388e4d","system_id":"levelo_inurba_marseille","lat":43.30282,"lon":5.36872,"is_reserved":false,"is_disabled":false,"rental_uris":{"android":"levelo://app?vid=298db965-e305-4b18-8431-6a5ac8388e4d","ios":"levelo://app?vid=298db965-e305-4b18-8431-6a5ac8388e4d"},"vehicle_type_id":"4","last_reported":1744038660,"current_range_meters":9200,"station_id":"ce4bgqh2rcd13ifvqc5g","pricing_plan_id":"cebpf4jnsgd1na2vs0mg"},{"bike_id":"3a6cf4dd-4a04-48a6-bbfb-6b1ea18759b5","system_id":"levelo_inurba_marseille","lat":43.323654,"lon":5.367618,"is_reserved":false,"is_disabled":false,"rental_uris":{"android":"levelo://app?vid=3a6cf4dd-4a04-48a6-bbfb-6b1ea18759b5","ios":"levelo://app?vid=3a6cf4dd-4a04-48a6-bbfb-6b1ea18759b5"},"vehicle_type_id":"4","last_reported":1744038660,"current_range_meters":9200,"station_id":"ce4bhsh2rcd13ifvqi2g","pricing_plan_id":"cebpf4jnsgd1na2vs0mg"},{"bike_id":"1e81c4d2-6637-42bf-8d6d-5d37c0fe2360","system_id":"levelo_inurba_marseille","lat":43.32075,"lon":5.36789,"is_reserved":false,"is_disabled":false,"rental_uris":{"android":"levelo://app?vid=1e81c4d2-6637-42bf-8d6d-5d37c0fe2360","ios":"levelo://app?vid=1e81c4d2-6637-42bf-8d6d-5d37c0fe2360"},"vehicle_type_id":"4","last_reported":1744038660,"current_range_meters":9200,"station_id":"ce4bhrh2rcd13ifvqhug","pricing_plan_id":"cebpf4jnsgd1na2vs0mg"},{"bike_id":"d893a78a-9318-483a-996e-9bec91fd98dc","system_id":"levelo_inurba_marseille","lat":43.31702,"lon":5.43703,"is_reserved":false,"is_disabled":false,"rental_uris":{"android":"levelo://app?vid=d893a78a-9318-483a-996e-9bec91fd98dc","ios":"levelo://app?vid=d893a78a-9318-483a-996e-9bec91fd98dc"},"vehicle_type_id":"4","last_reported":1744038660,"current_range_meters":9200,"station_id":"ce4bhp92rcd13ifvqhcg","pricing_plan_id":"cebpf4jnsgd1na2vs0mg"},{"bike_id":"21ad2b20-e326-40c8-a3d6-b2092488dc26","system_id":"levelo_inurba_marseille","lat":43.24386,"lon":5.37003,"is_reserved":false,"is_disabled":false,"rental_uris":{"android":"levelo://app?vid=21ad2b20-e326-40c8-a3d6-b2092488dc26","ios":"levelo://app?vid=21ad2b20-e326-40c8-a3d6-b2092488dc26"},"vehicle_type_id":"4","last_reported":1744038660,"current_range_meters":9200,"station_id":"","pricing_plan_id":"cebpf4jnsgd1na2vs0mg"},{"bike_id":"b9029af1-1d3a-4fd8-a42d-c197bf8acfcf","system_id":"levelo_inurba_marseille","lat":43.29938,"lon":5.36533,"is_reserved":false,"is_disabled":false,"rental_uris":{"android":"levelo://app?vid=b9029af1-1d3a-4fd8-a42d-c197bf8acfcf","ios":"levelo://app?vid=b9029af1-1d3a-4fd8-a42d-c197bf8acfcf"},"vehicle_type_id":"4","last_reported":1744038660,"current_range_meters":9600,"station_id":"ce4bgm92rcd13ifvqbr0","pricing_plan_id":"cebpf4jnsgd1na2vs0mg"},{"bike_id":"fd2f06a4-2823-4523-8dc6-e5a759a1abc7","system_id":"levelo_inurba_marseille","lat":43.29246,"lon":5.37606,"is_reserved":false,"is_disabled":false,"rental_uris":{"android":"levelo://app?vid=fd2f06a4-2823-4523-8dc6-e5a759a1abc7","ios":"levelo://app?vid=fd2f06a4-2823-4523-8dc6-e5a759a1abc7"},"vehicle_type_id":"4","last_reported":1744038660,"current_range_meters":9600,"station_id":"ce4bgi12rcd13ifvqb80","pricing_plan_id":"cebpf4jnsgd1na2vs0mg"},{"bike_id":"87bda883-ac94-49fc-94c2-3a86e52b4f97","system_id":"levelo_inurba_marseille","lat":43.30722,"lon":5.38329,"is_reserved":false,"is_disabled":false,"rental_uris":{"android":"levelo://app?vid=87bda883-ac94-49fc-94c2-3a86e52b4f97","ios":"levelo://app?vid=87bda883-ac94-49fc-94c2-3a86e52b4f97"},"vehicle_type_id":"4","last_reported":1744038660,"current_range_meters":9600,"station_id":"","pricing_plan_id":"cebpf4jnsgd1na2vs0mg"},{"bike_id":"8aa6dbd8-3638-48c4-b9c1-f80fb042dae8","system_id":"levelo_inurba_marseille","lat":43.29277,"lon":5.37444,"is_reserved":false,"is_disabled":false,"rental_uris":{"android":"levelo://app?vid=8aa6dbd8-3638-48c4-b9c1-f80fb042dae8","ios":"levelo://app?vid=8aa6dbd8-3638-48c4-b9c1-f80fb042dae8"},"vehicle_type_id":"4","last_reported":1744038660,"current_range_meters":9600,"station_id":"ce4bgi12rcd13ifvqb70","pricing_plan_id":"cebpf4jnsgd1na2vs0mg"},{"bike_id":"9389f907-78e2-4c8e-b008-de9739faa63f","system_id":"levelo_inurba_marseille","lat":43.33022,"lon":5.39442,"is_reserved":false,"is_disabled":false,"rental_uris":{"android":"levelo://app?vid=9389f907-78e2-4c8e-b008-de9739faa63f","ios":"levelo://app?vid=9389f907-78e2-4c8e-b008-de9739faa63f"},"vehicle_type_id":"4","last_reported":1744038660,"current_range_meters":10000,"station_id":"","pricing_plan_id":"cebpf4jnsgd1na2vs0mg"},{"bike_id":"89771962-fe60-4144-a8a6-39dd0f7b9fb3","system_id":"levelo_inurba_marseille","lat":43.21193,"lon":5.35078,"is_reserved":false,"is_disabled":false,"rental_uris":{"android":"levelo://app?vid=89771962-fe60-4144-a8a6-39dd0f7b9fb3","ios":"levelo://app?vid=89771962-fe60-4144-a8a6-39dd0f7b9fb3"},"vehicle_type_id":"4","last_reported":1744038660,"current_range_meters":10000,"station_id":"st_cvj6sg6p6f1abm77japg","pricing_plan_id":"cebpf4jnsgd1na2vs0mg"},{"bike_id":"99740167-1d25-46a4-a145-226f9b821ee8","system_id":"levelo_inurba_marseille","lat":43.31708,"lon":5.43702,"is_reserved":false,"is_disabled":false,"rental_uris":{"android":"levelo://app?vid=99740167-1d25-46a4-a145-226f9b821ee8","ios":"levelo://app?vid=99740167-1d25-46a4-a145-226f9b821ee8"},"vehicle_type_id":"4","last_reported":1744038660,"current_range_meters":10000,"station_id":"ce4bhp92rcd13ifvqhcg","pricing_plan_id":"cebpf4jnsgd1na2vs0mg"},{"bike_id":"543e8a52-25b8-474c-a2e7-31d0c99c8646","system_id":"levelo_inurba_marseille","lat":43.24169,"lon":5.39724,"is_reserved":false,"is_disabled":false,"rental_uris":{"android":"levelo://app?vid=543e8a52-25b8-474c-a2e7-31d0c99c8646","ios":"levelo://app?vid=543e8a52-25b8-474c-a2e7-31d0c99c8646"},"vehicle_type_id":"4","last_reported":1744038660,"current_range_meters":10000,"station_id":"ce4bhn12rcd13ifvqgpg","pricing_plan_id":"cebpf4jnsgd1na2vs0mg"},{"bike_id":"cc057f14-b1e1-4dee-b107-8741c01c5964","system_id":"levelo_inurba_marseille","lat":43.3209,"lon":5.36757,"is_reserved":false,"is_disabled":true,"rental_uris":{"android":"levelo://app?vid=cc057f14-b1e1-4dee-b107-8741c01c5964","ios":"levelo://app?vid=cc057f14-b1e1-4dee-b107-8741c01c5964"},"vehicle_type_id":"4","last_reported":1744038660,"current_range_meters":10000,"station_id":"ce4bhrh2rcd13ifvqhug","pricing_plan_id":"cebpf4jnsgd1na2vs0mg"},{"bike_id":"f0d398b3-0e99-4a60-9edf-0e289b418a47","system_id":"levelo_inurba_marseille","lat":43.30519,"lon":5.36526,"is_reserved":false,"is_disabled":false,"rental_uris":{"android":"levelo://app?vid=f0d398b3-0e99-4a60-9edf-0e289b418a47","ios":"levelo://app?vid=f0d398b3-0e99-4a60-9edf-0e289b418a47"},"vehicle_type_id":"4","last_reported":1744038660,"current_range_meters":10800,"station_id":"","pricing_plan_id":"cebpf4jnsgd1na2vs0mg"},{"bike_id":"60e666a5-c72f-4ad1-8049-0e6775087d89","system_id":"levelo_inurba_marseille","lat":43.26781,"lon":5.39414,"is_reserved":false,"is_disabled":false,"rental_uris":{"android":"levelo://app?vid=60e666a5-c72f-4ad1-8049-0e6775087d89","ios":"levelo://app?vid=60e666a5-c72f-4ad1-8049-0e6775087d89"},"vehicle_type_id":"4","last_reported":1744038660,"current_range_meters":11200,"station_id":"ce4bhh12rcd13ifvqfg0","pricing_plan_id":"cebpf4jnsgd1na2vs0mg"},{"bike_id":"2a6c70b7-3280-4c58-9c17-d39c1ef6b670","system_id":"levelo_inurba_marseille","lat":43.32288,"lon":5.36669,"is_reserved":false,"is_disabled":false,"rental_uris":{"android":"levelo://app?vid=2a6c70b7-3280-4c58-9c17-d39c1ef6b670","ios":"levelo://app?vid=2a6c70b7-3280-4c58-9c17-d39c1ef6b670"},"vehicle_type_id":"4","last_reported":1744038660,"current_range_meters":10800,"station_id":"ce4bhsh2rcd13ifvqi2g","pricing_plan_id":"cebpf4jnsgd1na2vs0mg"},{"bike_id":"750bc9c2-8244-4f27-a571-77c62d7d6b92","system_id":"levelo_inurba_marseille","lat":43.3127,"lon":5.37752,"is_reserved":false,"is_disabled":false,"rental_uris":{"android":"levelo://app?vid=750bc9c2-8244-4f27-a571-77c62d7d6b92","ios":"levelo://app?vid=750bc9c2-8244-4f27-a571-77c62d7d6b92"},"vehicle_type_id":"4","last_reported":1744038660,"current_range_meters":10800,"station_id":"","pricing_plan_id":"cebpf4jnsgd1na2vs0mg"},{"bike_id":"d2aae280-bd6f-4a5e-aa26-fdac300e2d90","system_id":"levelo_inurba_marseille","lat":43.31724,"lon":5.42399,"is_reserved":false,"is_disabled":false,"rental_uris":{"android":"levelo://app?vid=d2aae280-bd6f-4a5e-aa26-fdac300e2d90","ios":"levelo://app?vid=d2aae280-bd6f-4a5e-aa26-fdac300e2d90"},"vehicle_type_id":"4","last_reported":1744038660,"current_range_meters":10800,"station_id":"ce4bhp92rcd13ifvqhbg","pricing_plan_id":"cebpf4jnsgd1na2vs0mg"},{"bike_id":"7b3646e0-cbf2-40de-92a8-c829ec618775","system_id":"levelo_inurba_marseille","lat":43.31995,"lon":5.38153,"is_reserved":false,"is_disabled":true,"rental_uris":{"android":"levelo://app?vid=7b3646e0-cbf2-40de-92a8-c829ec618775","ios":"levelo://app?vid=7b3646e0-cbf2-40de-92a8-c829ec618775"},"vehicle_type_id":"4","last_reported":1744038660,"current_range_meters":10800,"station_id":"ce4bhr12rcd13ifvqhpg","pricing_plan_id":"cebpf4jnsgd1na2vs0mg"},{"bike_id":"804b1649-85c4-4b5a-9828-678386b14395","system_id":"levelo_inurba_marseille","lat":43.26051,"lon":5.3939,"is_reserved":false,"is_disabled":false,"rental_uris":{"android":"levelo://app?vid=804b1649-85c4-4b5a-9828-678386b14395","ios":"levelo://app?vid=804b1649-85c4-4b5a-9828-678386b14395"},"vehicle_type_id":"4","last_reported":1744038660,"current_range_meters":10800,"station_id":"ce4bhh92rcd13ifvqfj0","pricing_plan_id":"cebpf4jnsgd1na2vs0mg"},{"bike_id":"cf4c939e-d716-4fc9-9fa9-b1e64036cd3a","system_id":"levelo_inurba_marseille","lat":43.24997,"lon":5.38925,"is_reserved":false,"is_disabled":false,"rental_uris":{"android":"levelo://app?vid=cf4c939e-d716-4fc9-9fa9-b1e64036cd3a","ios":"levelo://app?vid=cf4c939e-d716-4fc9-9fa9-b1e64036cd3a"},"vehicle_type_id":"4","last_reported":1744038660,"current_range_meters":10800,"station_id":"ce4bhgp2rcd13ifvqfd0","pricing_plan_id":"cebpf4jnsgd1na2vs0mg"},{"bike_id":"3cbad1fb-d71d-4e4f-90fa-c1465f9f9b65","system_id":"levelo_inurba_marseille","lat":43.21196,"lon":5.35072,"is_reserved":false,"is_disabled":false,"rental_uris":{"android":"levelo://app?vid=3cbad1fb-d71d-4e4f-90fa-c1465f9f9b65","ios":"levelo://app?vid=3cbad1fb-d71d-4e4f-90fa-c1465f9f9b65"},"vehicle_type_id":"4","last_reported":1744038660,"current_range_meters":10800,"station_id":"st_cvj6sg6p6f1abm77japg","pricing_plan_id":"cebpf4jnsgd1na2vs0mg"},{"bike_id":"75bc9335-a6df-4be2-8e1a-6141b03de27d","system_id":"levelo_inurba_marseille","lat":43.26776,"lon":5.39412,"is_reserved":false,"is_disabled":false,"rental_uris":{"android":"levelo://app?vid=75bc9335-a6df-4be2-8e1a-6141b03de27d","ios":"levelo://app?vid=75bc9335-a6df-4be2-8e1a-6141b03de27d"},"vehicle_type_id":"4","last_reported":1744038660,"current_range_meters":11200,"station_id":"ce4bhh12rcd13ifvqfg0","pricing_plan_id":"cebpf4jnsgd1na2vs0mg"},{"bike_id":"7e1b6a3d-58ec-44af-a745-ef3d905a50bb","system_id":"levelo_inurba_marseille","lat":43.26187,"lon":5.37923,"is_reserved":false,"is_disabled":false,"rental_uris":{"android":"levelo://app?vid=7e1b6a3d-58ec-44af-a745-ef3d905a50bb","ios":"levelo://app?vid=7e1b6a3d-58ec-44af-a745-ef3d905a50bb"},"vehicle_type_id":"4","last_reported":1744038660,"current_range_meters":11200,"station_id":"ce4bhjp2rcd13ifvqg90","pricing_plan_id":"cebpf4jnsgd1na2vs0mg"},{"bike_id":"90bea123-43f4-47c3-a09a-ad46c016d6e9","system_id":"levelo_inurba_marseille","lat":43.305343,"lon":5.384311,"is_reserved":false,"is_disabled":false,"rental_uris":{"android":"levelo://app?vid=90bea123-43f4-47c3-a09a-ad46c016d6e9","ios":"levelo://app?vid=90bea123-43f4-47c3-a09a-ad46c016d6e9"},"vehicle_type_id":"4","last_reported":1744038660,"current_range_meters":11200,"station_id":"ce4bgt12rcd13ifvqce0","pricing_plan_id":"cebpf4jnsgd1na2vs0mg"},{"bike_id":"e53b9e9b-ac51-4f70-ad60-ed3149b8c178","system_id":"levelo_inurba_marseille","lat":43.31287,"lon":5.37329,"is_reserved":false,"is_disabled":false,"rental_uris":{"android":"levelo://app?vid=e53b9e9b-ac51-4f70-ad60-ed3149b8c178","ios":"levelo://app?vid=e53b9e9b-ac51-4f70-ad60-ed3149b8c178"},"vehicle_type_id":"4","last_reported":1744038660,"current_range_meters":11200,"station_id":"","pricing_plan_id":"cebpf4jnsgd1na2vs0mg"},{"bike_id":"b3955141-b4e4-46ef-9f72-2d6ddb89ac2c","system_id":"levelo_inurba_marseille","lat":43.23137,"lon":5.43716,"is_reserved":false,"is_disabled":false,"rental_uris":{"android":"levelo://app?vid=b3955141-b4e4-46ef-9f72-2d6ddb89ac2c","ios":"levelo://app?vid=b3955141-b4e4-46ef-9f72-2d6ddb89ac2c"},"vehicle_type_id":"4","last_reported":1744038660,"current_range_meters":11200,"station_id":"ce4bhmp2rcd13ifvqgog","pricing_plan_id":"cebpf4jnsgd1na2vs0mg"},{"bike_id":"1473f0c8-5513-4385-809f-284d884120a1","system_id":"levelo_inurba_marseille","lat":43.291684,"lon":5.371711,"is_reserved":false,"is_disabled":false,"rental_uris":{"android":"levelo://app?vid=1473f0c8-5513-4385-809f-284d884120a1","ios":"levelo://app?vid=1473f0c8-5513-4385-809f-284d884120a1"},"vehicle_type_id":"4","last_reported":1744038660,"current_range_meters":11200,"station_id":"ce4bha92rcd13ifvqeh0","pricing_plan_id":"cebpf4jnsgd1na2vs0mg"},{"bike_id":"47ff4e22-2f19-465c-b2ee-e90fca201c2d","system_id":"levelo_inurba_marseille","lat":43.29619,"lon":5.37151,"is_reserved":false,"is_disabled":false,"rental_uris":{"android":"levelo://app?vid=47ff4e22-2f19-465c-b2ee-e90fca201c2d","ios":"levelo://app?vid=47ff4e22-2f19-465c-b2ee-e90fca201c2d"},"vehicle_type_id":"4","last_reported":1744038660,"current_range_meters":11200,"station_id":"ce4bgnh2rcd13ifvqc0g","pricing_plan_id":"cebpf4jnsgd1na2vs0mg"},{"bike_id":"d7b481fe-6365-4d7c-93c2-9ccfdf489091","system_id":"levelo_inurba_marseille","lat":43.31065,"lon":5.38353,"is_reserved":false,"is_disabled":false,"rental_uris":{"android":"levelo://app?vid=d7b481fe-6365-4d7c-93c2-9ccfdf489091","ios":"levelo://app?vid=d7b481fe-6365-4d7c-93c2-9ccfdf489091"},"vehicle_type_id":"4","last_reported":1744038660,"current_range_meters":11200,"station_id":"ce4bgv92rcd13ifvqcr0","pricing_plan_id":"cebpf4jnsgd1na2vs0mg"},{"bike_id":"dea95ecc-1480-4c1e-9eaa-f70c02eecbdd","system_id":"levelo_inurba_marseille","lat":43.29622,"lon":5.37726,"is_reserved":false,"is_disabled":false,"rental_uris":{"android":"levelo://app?vid=dea95ecc-1480-4c1e-9eaa-f70c02eecbdd","ios":"levelo://app?vid=dea95ecc-1480-4c1e-9eaa-f70c02eecbdd"},"vehicle_type_id":"4","last_reported":1744038660,"current_range_meters":11600,"station_id":"ce4bgi92rcd13ifvqb90","pricing_plan_id":"cebpf4jnsgd1na2vs0mg"},{"bike_id":"c1307e79-ca78-4bfe-8fd5-79f0ef0158c3","system_id":"levelo_inurba_marseille","lat":43.29096,"lon":5.38166,"is_reserved":false,"is_disabled":false,"rental_uris":{"android":"levelo://app?vid=c1307e79-ca78-4bfe-8fd5-79f0ef0158c3","ios":"levelo://app?vid=c1307e79-ca78-4bfe-8fd5-79f0ef0158c3"},"vehicle_type_id":"4","last_reported":1744038660,"current_range_meters":11600,"station_id":"ce4bh512rcd13ifvqe2g","pricing_plan_id":"cebpf4jnsgd1na2vs0mg"},{"bike_id":"35d2399f-9df6-401f-8881-bf19862c4387","system_id":"levelo_inurba_marseille","lat":43.2942,"lon":5.38616,"is_reserved":false,"is_disabled":false,"rental_uris":{"android":"levelo://app?vid=35d2399f-9df6-401f-8881-bf19862c4387","ios":"levelo://app?vid=35d2399f-9df6-401f-8881-bf19862c4387"},"vehicle_type_id":"4","last_reported":1744038660,"current_range_meters":11600,"station_id":"ce4bh2h2rcd13ifvqdh0","pricing_plan_id":"cebpf4jnsgd1na2vs0mg"},{"bike_id":"64a595a7-3b20-429e-b684-4a7b04ce9689","system_id":"levelo_inurba_marseille","lat":43.2942,"lon":5.38619,"is_reserved":false,"is_disabled":false,"rental_uris":{"android":"levelo://app?vid=64a595a7-3b20-429e-b684-4a7b04ce9689","ios":"levelo://app?vid=64a595a7-3b20-429e-b684-4a7b04ce9689"},"vehicle_type_id":"4","last_reported":1744038660,"current_range_meters":11600,"station_id":"ce4bh2h2rcd13ifvqdh0","pricing_plan_id":"cebpf4jnsgd1na2vs0mg"},{"bike_id":"567f5dc4-3114-478a-a98d-a83b7f08b9cf","system_id":"levelo_inurba_marseille","lat":43.299914,"lon":5.384945,"is_reserved":false,"is_disabled":false,"rental_uris":{"android":"levelo://app?vid=567f5dc4-3114-478a-a98d-a83b7f08b9cf","ios":"levelo://app?vid=567f5dc4-3114-478a-a98d-a83b7f08b9cf"},"vehicle_type_id":"4","last_reported":1744038660,"current_range_meters":12000,"station_id":"ce4bgj92rcd13ifvqbd0","pricing_plan_id":"cebpf4jnsgd1na2vs0mg"},{"bike_id":"f6badd6d-7c01-4364-a05b-585cb882162b","system_id":"levelo_inurba_marseille","lat":43.23148,"lon":5.43702,"is_reserved":false,"is_disabled":false,"rental_uris":{"android":"levelo://app?vid=f6badd6d-7c01-4364-a05b-585cb882162b","ios":"levelo://app?vid=f6badd6d-7c01-4364-a05b-585cb882162b"},"vehicle_type_id":"4","last_reported":1744038660,"current_range_meters":11600,"station_id":"ce4bhmp2rcd13ifvqgog","pricing_plan_id":"cebpf4jnsgd1na2vs0mg"},{"bike_id":"d5d997a4-92ca-4d06-a053-4e48e65e15b8","system_id":"levelo_inurba_marseille","lat":43.301,"lon":5.39078,"is_reserved":false,"is_disabled":false,"rental_uris":{"android":"levelo://app?vid=d5d997a4-92ca-4d06-a053-4e48e65e15b8","ios":"levelo://app?vid=d5d997a4-92ca-4d06-a053-4e48e65e15b8"},"vehicle_type_id":"4","last_reported":1744038660,"current_range_meters":12000,"station_id":"ce4bh192rcd13ifvqdb0","pricing_plan_id":"cebpf4jnsgd1na2vs0mg"},{"bike_id":"00aef9d3-835d-4e52-ba79-df92814ef67f","system_id":"levelo_inurba_marseille","lat":43.30531,"lon":5.36524,"is_reserved":false,"is_disabled":false,"rental_uris":{"android":"levelo://app?vid=00aef9d3-835d-4e52-ba79-df92814ef67f","ios":"levelo://app?vid=00aef9d3-835d-4e52-ba79-df92814ef67f"},"vehicle_type_id":"4","last_reported":1744038660,"current_range_meters":12000,"station_id":"ce4bgs12rcd13ifvqcag","pricing_plan_id":"cebpf4jnsgd1na2vs0mg"},{"bike_id":"5ebc597a-dc25-4816-8898-f5b9507eebc1","system_id":"levelo_inurba_marseille","lat":43.27909,"lon":5.38009,"is_reserved":false,"is_disabled":false,"rental_uris":{"android":"levelo://app?vid=5ebc597a-dc25-4816-8898-f5b9507eebc1","ios":"levelo://app?vid=5ebc597a-dc25-4816-8898-f5b9507eebc1"},"vehicle_type_id":"4","last_reported":1744038660,"current_range_meters":12000,"station_id":"ce4bhf92rcd13ifvqf50","pricing_plan_id":"cebpf4jnsgd1na2vs0mg"},{"bike_id":"bb6b71d8-5ecc-441a-b0cb-dc24b9cf5400","system_id":"levelo_inurba_marseille","lat":43.296121,"lon":5.371709,"is_reserved":false,"is_disabled":false,"rental_uris":{"android":"levelo://app?vid=bb6b71d8-5ecc-441a-b0cb-dc24b9cf5400","ios":"levelo://app?vid=bb6b71d8-5ecc-441a-b0cb-dc24b9cf5400"},"vehicle_type_id":"4","last_reported":1744038660,"current_range_meters":11600,"station_id":"ce4bgnh2rcd13ifvqc0g","pricing_plan_id":"cebpf4jnsgd1na2vs0mg"},{"bike_id":"006cc00b-8a6e-4559-ad62-40acf7f5a40b","system_id":"levelo_inurba_marseille","lat":43.30537,"lon":5.38438,"is_reserved":false,"is_disabled":false,"rental_uris":{"android":"levelo://app?vid=006cc00b-8a6e-4559-ad62-40acf7f5a40b","ios":"levelo://app?vid=006cc00b-8a6e-4559-ad62-40acf7f5a40b"},"vehicle_type_id":"4","last_reported":1744038660,"current_range_meters":12000,"station_id":"ce4bgg92rcd13ifvqb30","pricing_plan_id":"cebpf4jnsgd1na2vs0mg"},{"bike_id":"19224d95-e048-4cbb-8884-43e0e6b3db9b","system_id":"levelo_inurba_marseille","lat":43.29844,"lon":5.39758,"is_reserved":false,"is_disabled":true,"rental_uris":{"android":"levelo://app?vid=19224d95-e048-4cbb-8884-43e0e6b3db9b","ios":"levelo://app?vid=19224d95-e048-4cbb-8884-43e0e6b3db9b"},"vehicle_type_id":"4","last_reported":1744038660,"current_range_meters":12000,"station_id":"ce4bh0h2rcd13ifvqd50","pricing_plan_id":"cebpf4jnsgd1na2vs0mg"},{"bike_id":"4e63bc7f-b907-45ea-bc67-f61c9be2b9d6","system_id":"levelo_inurba_marseille","lat":43.29975,"lon":5.384899,"is_reserved":false,"is_disabled":true,"rental_uris":{"android":"levelo://app?vid=4e63bc7f-b907-45ea-bc67-f61c9be2b9d6","ios":"levelo://app?vid=4e63bc7f-b907-45ea-bc67-f61c9be2b9d6"},"vehicle_type_id":"4","last_reported":1744038660,"current_range_meters":12000,"station_id":"ce4bgj92rcd13ifvqbd0","pricing_plan_id":"cebpf4jnsgd1na2vs0mg"},{"bike_id":"8127a379-abcb-448e-b192-b2b588a12b57","system_id":"levelo_inurba_marseille","lat":43.25727,"lon":5.41106,"is_reserved":false,"is_disabled":false,"rental_uris":{"android":"levelo://app?vid=8127a379-abcb-448e-b192-b2b588a12b57","ios":"levelo://app?vid=8127a379-abcb-448e-b192-b2b588a12b57"},"vehicle_type_id":"4","last_reported":1744038660,"current_range_meters":12000,"station_id":"ce4bhkp2rcd13ifvqgd0","pricing_plan_id":"cebpf4jnsgd1na2vs0mg"},{"bike_id":"fde207f3-dd1a-42ad-a9cf-f5693629574d","system_id":"levelo_inurba_marseille","lat":43.30602,"lon":5.37231,"is_reserved":false,"is_disabled":false,"rental_uris":{"android":"levelo://app?vid=fde207f3-dd1a-42ad-a9cf-f5693629574d","ios":"levelo://app?vid=fde207f3-dd1a-42ad-a9cf-f5693629574d"},"vehicle_type_id":"4","last_reported":1744038660,"current_range_meters":12000,"station_id":"ce4bgqh2rcd13ifvqc4g","pricing_plan_id":"cebpf4jnsgd1na2vs0mg"},{"bike_id":"f3e1697d-6322-4b7c-bcd9-bfaaba5adcfb","system_id":"levelo_inurba_marseille","lat":43.31992,"lon":5.38145,"is_reserved":false,"is_disabled":true,"rental_uris":{"android":"levelo://app?vid=f3e1697d-6322-4b7c-bcd9-bfaaba5adcfb","ios":"levelo://app?vid=f3e1697d-6322-4b7c-bcd9-bfaaba5adcfb"},"vehicle_type_id":"4","last_reported":1744038660,"current_range_meters":12000,"station_id":"ce4bhr12rcd13ifvqhpg","pricing_plan_id":"cebpf4jnsgd1na2vs0mg"},{"bike_id":"6bb42352-d3ad-4a2f-9f21-9eb6cc41e5ff","system_id":"levelo_inurba_marseille","lat":43.312221,"lon":5.368657,"is_reserved":false,"is_disabled":false,"rental_uris":{"android":"levelo://app?vid=6bb42352-d3ad-4a2f-9f21-9eb6cc41e5ff","ios":"levelo://app?vid=6bb42352-d3ad-4a2f-9f21-9eb6cc41e5ff"},"vehicle_type_id":"4","last_reported":1744038660,"current_range_meters":12400,"station_id":"","pricing_plan_id":"cebpf4jnsgd1na2vs0mg"},{"bike_id":"cc04bd1a-08e4-4179-96af-ec251ae135b2","system_id":"levelo_inurba_marseille","lat":43.299608,"lon":5.401426,"is_reserved":false,"is_disabled":false,"rental_uris":{"android":"levelo://app?vid=cc04bd1a-08e4-4179-96af-ec251ae135b2","ios":"levelo://app?vid=cc04bd1a-08e4-4179-96af-ec251ae135b2"},"vehicle_type_id":"4","last_reported":1744038660,"current_range_meters":12400,"station_id":"","pricing_plan_id":"cebpf4jnsgd1na2vs0mg"},{"bike_id":"f1e4079a-9d00-4508-950d-03acc61c59df","system_id":"levelo_inurba_marseille","lat":43.31269,"lon":5.40163,"is_reserved":false,"is_disabled":false,"rental_uris":{"android":"levelo://app?vid=f1e4079a-9d00-4508-950d-03acc61c59df","ios":"levelo://app?vid=f1e4079a-9d00-4508-950d-03acc61c59df"},"vehicle_type_id":"4","last_reported":1744038660,"current_range_meters":12400,"station_id":"ce4bh092rcd13ifvqd30","pricing_plan_id":"cebpf4jnsgd1na2vs0mg"},{"bike_id":"f39be6f5-2f69-4c37-b021-559d20b299a4","system_id":"levelo_inurba_marseille","lat":43.2998,"lon":5.3765,"is_reserved":false,"is_disabled":false,"rental_uris":{"android":"levelo://app?vid=f39be6f5-2f69-4c37-b021-559d20b299a4","ios":"levelo://app?vid=f39be6f5-2f69-4c37-b021-559d20b299a4"},"vehicle_type_id":"4","last_reported":1744038660,"current_range_meters":12400,"station_id":"","pricing_plan_id":"cebpf4jnsgd1na2vs0mg"},{"bike_id":"aa175c23-2811-400b-be3d-2070a7428958","system_id":"levelo_inurba_marseille","lat":43.28934,"lon":5.38378,"is_reserved":false,"is_disabled":false,"rental_uris":{"android":"levelo://app?vid=aa175c23-2811-400b-be3d-2070a7428958","ios":"levelo://app?vid=aa175c23-2811-400b-be3d-2070a7428958"},"vehicle_type_id":"4","last_reported":1744038660,"current_range_meters":12400,"station_id":"ce4bh612rcd13ifvqe6g","pricing_plan_id":"cebpf4jnsgd1na2vs0mg"},{"bike_id":"0beba67e-5c0d-47e8-8668-1261c9dd77c6","system_id":"levelo_inurba_marseille","lat":43.3124,"lon":5.368573,"is_reserved":false,"is_disabled":false,"rental_uris":{"android":"levelo://app?vid=0beba67e-5c0d-47e8-8668-1261c9dd77c6","ios":"levelo://app?vid=0beba67e-5c0d-47e8-8668-1261c9dd77c6"},"vehicle_type_id":"4","last_reported":1744038660,"current_range_meters":12400,"station_id":"ce4bgl92rcd13ifvqbq0","pricing_plan_id":"cebpf4jnsgd1na2vs0mg"},{"bike_id":"447cacd2-d2bd-4bad-bdbb-56cf0559d47c","system_id":"levelo_inurba_marseille","lat":43.31708,"lon":5.37742,"is_reserved":false,"is_disabled":false,"rental_uris":{"android":"levelo://app?vid=447cacd2-d2bd-4bad-bdbb-56cf0559d47c","ios":"levelo://app?vid=447cacd2-d2bd-4bad-bdbb-56cf0559d47c"},"vehicle_type_id":"4","last_reported":1744038660,"current_range_meters":12400,"station_id":"ce4bgth2rcd13ifvqch0","pricing_plan_id":"cebpf4jnsgd1na2vs0mg"},{"bike_id":"268101c1-0edc-4803-969e-7ba22fd34f1c","system_id":"levelo_inurba_marseille","lat":43.28721,"lon":5.36097,"is_reserved":false,"is_disabled":false,"rental_uris":{"android":"levelo://app?vid=268101c1-0edc-4803-969e-7ba22fd34f1c","ios":"levelo://app?vid=268101c1-0edc-4803-969e-7ba22fd34f1c"},"vehicle_type_id":"4","last_reported":1744038660,"current_range_meters":12800,"station_id":"cki0cbj6b192h4jlfktg","pricing_plan_id":"cebpf4jnsgd1na2vs0mg"},{"bike_id":"91255e69-981b-489a-a8d9-c37c95664a0b","system_id":"levelo_inurba_marseille","lat":43.27971,"lon":5.387448,"is_reserved":false,"is_disabled":false,"rental_uris":{"android":"levelo://app?vid=91255e69-981b-489a-a8d9-c37c95664a0b","ios":"levelo://app?vid=91255e69-981b-489a-a8d9-c37c95664a0b"},"vehicle_type_id":"4","last_reported":1744038660,"current_range_meters":12800,"station_id":"ce4bh512rcd13ifvqe2g","pricing_plan_id":"cebpf4jnsgd1na2vs0mg"},{"bike_id":"257d1c02-5396-419e-a612-6a8a1704493e","system_id":"levelo_inurba_marseille","lat":43.29019,"lon":5.37549,"is_reserved":false,"is_disabled":true,"rental_uris":{"android":"levelo://app?vid=257d1c02-5396-419e-a612-6a8a1704493e","ios":"levelo://app?vid=257d1c02-5396-419e-a612-6a8a1704493e"},"vehicle_type_id":"4","last_reported":1744038660,"current_range_meters":12800,"station_id":"ce4bh692rcd13ifvqe90","pricing_plan_id":"cebpf4jnsgd1na2vs0mg"},{"bike_id":"a6c2b2df-d2a4-4525-881b-16258228367e","system_id":"levelo_inurba_marseille","lat":43.2953,"lon":5.38547,"is_reserved":false,"is_disabled":false,"rental_uris":{"android":"levelo://app?vid=a6c2b2df-d2a4-4525-881b-16258228367e","ios":"levelo://app?vid=a6c2b2df-d2a4-4525-881b-16258228367e"},"vehicle_type_id":"4","last_reported":1744038660,"current_range_meters":12800,"station_id":"ce4bgih2rcd13ifvqba0","pricing_plan_id":"cebpf4jnsgd1na2vs0mg"},{"bike_id":"4b0b9783-0d0b-44d9-9f49-c44a0ff379b5","system_id":"levelo_inurba_marseille","lat":43.297028,"lon":5.365978,"is_reserved":false,"is_disabled":false,"rental_uris":{"android":"levelo://app?vid=4b0b9783-0d0b-44d9-9f49-c44a0ff379b5","ios":"levelo://app?vid=4b0b9783-0d0b-44d9-9f49-c44a0ff379b5"},"vehicle_type_id":"4","last_reported":1744038660,"current_range_meters":12800,"station_id":"ce4bgn12rcd13ifvqbt0","pricing_plan_id":"cebpf4jnsgd1na2vs0mg"},{"bike_id":"cd2b8d07-8517-45fe-9fcc-ef273921cf42","system_id":"levelo_inurba_marseille","lat":43.26062,"lon":5.39393,"is_reserved":false,"is_disabled":false,"rental_uris":{"android":"levelo://app?vid=cd2b8d07-8517-45fe-9fcc-ef273921cf42","ios":"levelo://app?vid=cd2b8d07-8517-45fe-9fcc-ef273921cf42"},"vehicle_type_id":"4","last_reported":1744038660,"current_range_meters":13600,"station_id":"ce4bhh92rcd13ifvqfj0","pricing_plan_id":"cebpf4jnsgd1na2vs0mg"},{"bike_id":"3f3f4fd5-a405-4364-b114-6d3d993e5aa2","system_id":"levelo_inurba_marseille","lat":43.30557,"lon":5.36515,"is_reserved":false,"is_disabled":false,"rental_uris":{"android":"levelo://app?vid=3f3f4fd5-a405-4364-b114-6d3d993e5aa2","ios":"levelo://app?vid=3f3f4fd5-a405-4364-b114-6d3d993e5aa2"},"vehicle_type_id":"4","last_reported":1744038660,"current_range_meters":13600,"station_id":"ce4bgs12rcd13ifvqcag","pricing_plan_id":"cebpf4jnsgd1na2vs0mg"},{"bike_id":"82f28cf6-556c-431d-a12b-bd3ce5fc2f28","system_id":"levelo_inurba_marseille","lat":43.27502,"lon":5.37734,"is_reserved":false,"is_disabled":false,"rental_uris":{"android":"levelo://app?vid=82f28cf6-556c-431d-a12b-bd3ce5fc2f28","ios":"levelo://app?vid=82f28cf6-556c-431d-a12b-bd3ce5fc2f28"},"vehicle_type_id":"4","last_reported":1744038660,"current_range_meters":13600,"station_id":"","pricing_plan_id":"cebpf4jnsgd1na2vs0mg"},{"bike_id":"3576b946-70b3-456f-a60a-d98e227f015c","system_id":"levelo_inurba_marseille","lat":43.30102,"lon":5.38236,"is_reserved":false,"is_disabled":false,"rental_uris":{"android":"levelo://app?vid=3576b946-70b3-456f-a60a-d98e227f015c","ios":"levelo://app?vid=3576b946-70b3-456f-a60a-d98e227f015c"},"vehicle_type_id":"4","last_reported":1744038660,"current_range_meters":13600,"station_id":"ce4bgup2rcd13ifvqcn0","pricing_plan_id":"cebpf4jnsgd1na2vs0mg"},{"bike_id":"ddb2a2ac-bb00-4161-9f2f-3ca20c29b015","system_id":"levelo_inurba_marseille","lat":43.25118,"lon":5.40318,"is_reserved":false,"is_disabled":false,"rental_uris":{"android":"levelo://app?vid=ddb2a2ac-bb00-4161-9f2f-3ca20c29b015","ios":"levelo://app?vid=ddb2a2ac-bb00-4161-9f2f-3ca20c29b015"},"vehicle_type_id":"4","last_reported":1744038660,"current_range_meters":13600,"station_id":"ce4bhlh2rcd13ifvqgig","pricing_plan_id":"cebpf4jnsgd1na2vs0mg"},{"bike_id":"549ef925-b763-4110-bc10-a74a58cc7cc9","system_id":"levelo_inurba_marseille","lat":43.29565,"lon":5.39988,"is_reserved":false,"is_disabled":false,"rental_uris":{"android":"levelo://app?vid=549ef925-b763-4110-bc10-a74a58cc7cc9","ios":"levelo://app?vid=549ef925-b763-4110-bc10-a74a58cc7cc9"},"vehicle_type_id":"4","last_reported":1744038660,"current_range_meters":13600,"station_id":"ce4bh312rcd13ifvqdj0","pricing_plan_id":"cebpf4jnsgd1na2vs0mg"},{"bike_id":"f17ce36f-e80a-4732-89e2-7a7dfab19d87","system_id":"levelo_inurba_marseille","lat":43.29906,"lon":5.43661,"is_reserved":false,"is_disabled":false,"rental_uris":{"android":"levelo://app?vid=f17ce36f-e80a-4732-89e2-7a7dfab19d87","ios":"levelo://app?vid=f17ce36f-e80a-4732-89e2-7a7dfab19d87"},"vehicle_type_id":"4","last_reported":1744038660,"current_range_meters":14000,"station_id":"ce4bhpp2rcd13ifvqhfg","pricing_plan_id":"cebpf4jnsgd1na2vs0mg"},{"bike_id":"6c1d93a4-799f-4360-ae22-75d4736d2fbe","system_id":"levelo_inurba_marseille","lat":43.29428,"lon":5.38606,"is_reserved":false,"is_disabled":false,"rental_uris":{"android":"levelo://app?vid=6c1d93a4-799f-4360-ae22-75d4736d2fbe","ios":"levelo://app?vid=6c1d93a4-799f-4360-ae22-75d4736d2fbe"},"vehicle_type_id":"4","last_reported":1744038660,"current_range_meters":14000,"station_id":"ce4bh2h2rcd13ifvqdh0","pricing_plan_id":"cebpf4jnsgd1na2vs0mg"},{"bike_id":"7be1e7b1-85e8-4eee-a1b1-71094e53924d","system_id":"levelo_inurba_marseille","lat":43.29626,"lon":5.37718,"is_reserved":false,"is_disabled":false,"rental_uris":{"android":"levelo://app?vid=7be1e7b1-85e8-4eee-a1b1-71094e53924d","ios":"levelo://app?vid=7be1e7b1-85e8-4eee-a1b1-71094e53924d"},"vehicle_type_id":"4","last_reported":1744038660,"current_range_meters":14400,"station_id":"ce4bgi92rcd13ifvqb90","pricing_plan_id":"cebpf4jnsgd1na2vs0mg"},{"bike_id":"4d7fbbbe-256c-4cc5-9a73-9a3b503114c7","system_id":"levelo_inurba_marseille","lat":43.21745,"lon":5.34601,"is_reserved":false,"is_disabled":false,"rental_uris":{"android":"levelo://app?vid=4d7fbbbe-256c-4cc5-9a73-9a3b503114c7","ios":"levelo://app?vid=4d7fbbbe-256c-4cc5-9a73-9a3b503114c7"},"vehicle_type_id":"4","last_reported":1744038660,"current_range_meters":14000,"station_id":"st_cvj6r9ubvosntc0bgbag","pricing_plan_id":"cebpf4jnsgd1na2vs0mg"},{"bike_id":"16d9e65a-9e72-47cc-863f-55f00837580d","system_id":"levelo_inurba_marseille","lat":43.29367,"lon":5.37852,"is_reserved":false,"is_disabled":false,"rental_uris":{"android":"levelo://app?vid=16d9e65a-9e72-47cc-863f-55f00837580d","ios":"levelo://app?vid=16d9e65a-9e72-47cc-863f-55f00837580d"},"vehicle_type_id":"4","last_reported":1744038660,"current_range_meters":13600,"station_id":"ce4bgjh2rcd13ifvqbf0","pricing_plan_id":"cebpf4jnsgd1na2vs0mg"},{"bike_id":"0d137e5e-4aa9-4d4c-b4ca-556b2a058b9d","system_id":"levelo_inurba_marseille","lat":43.24734,"lon":5.39438,"is_reserved":false,"is_disabled":false,"rental_uris":{"android":"levelo://app?vid=0d137e5e-4aa9-4d4c-b4ca-556b2a058b9d","ios":"levelo://app?vid=0d137e5e-4aa9-4d4c-b4ca-556b2a058b9d"},"vehicle_type_id":"4","last_reported":1744038660,"current_range_meters":14000,"station_id":"","pricing_plan_id":"cebpf4jnsgd1na2vs0mg"},{"bike_id":"561fc01a-2ca6-4526-b310-a780b2699a12","system_id":"levelo_inurba_marseille","lat":43.29522,"lon":5.39041,"is_reserved":false,"is_disabled":false,"rental_uris":{"android":"levelo://app?vid=561fc01a-2ca6-4526-b310-a780b2699a12","ios":"levelo://app?vid=561fc01a-2ca6-4526-b310-a780b2699a12"},"vehicle_type_id":"4","last_reported":1744038660,"current_range_meters":13600,"station_id":"ce4bh3p2rcd13ifvqdp0","pricing_plan_id":"cebpf4jnsgd1na2vs0mg"},{"bike_id":"8c7e1379-c6f8-4126-a450-64198a860390","system_id":"levelo_inurba_marseille","lat":43.29623,"lon":5.37145,"is_reserved":false,"is_disabled":false,"rental_uris":{"android":"levelo://app?vid=8c7e1379-c6f8-4126-a450-64198a860390","ios":"levelo://app?vid=8c7e1379-c6f8-4126-a450-64198a860390"},"vehicle_type_id":"4","last_reported":1744038660,"current_range_meters":14000,"station_id":"ce4bgnh2rcd13ifvqc0g","pricing_plan_id":"cebpf4jnsgd1na2vs0mg"},{"bike_id":"4b9dfe05-0e60-423c-af4b-3ef6e8cad4ce","system_id":"levelo_inurba_marseille","lat":43.25111,"lon":5.40347,"is_reserved":false,"is_disabled":true,"rental_uris":{"android":"levelo://app?vid=4b9dfe05-0e60-423c-af4b-3ef6e8cad4ce","ios":"levelo://app?vid=4b9dfe05-0e60-423c-af4b-3ef6e8cad4ce"},"vehicle_type_id":"4","last_reported":1744038660,"current_range_meters":14000,"station_id":"ce4bhlh2rcd13ifvqgig","pricing_plan_id":"cebpf4jnsgd1na2vs0mg"},{"bike_id":"b3fd8bee-156f-45df-b48e-d633c7648030","system_id":"levelo_inurba_marseille","lat":43.296173,"lon":5.371699,"is_reserved":false,"is_disabled":false,"rental_uris":{"android":"levelo://app?vid=b3fd8bee-156f-45df-b48e-d633c7648030","ios":"levelo://app?vid=b3fd8bee-156f-45df-b48e-d633c7648030"},"vehicle_type_id":"4","last_reported":1744038660,"current_range_meters":14400,"station_id":"","pricing_plan_id":"cebpf4jnsgd1na2vs0mg"},{"bike_id":"ec7d3251-d53b-4874-b96d-6dae899b6aa1","system_id":"levelo_inurba_marseille","lat":43.2728,"lon":5.39044,"is_reserved":false,"is_disabled":true,"rental_uris":{"android":"levelo://app?vid=ec7d3251-d53b-4874-b96d-6dae899b6aa1","ios":"levelo://app?vid=ec7d3251-d53b-4874-b96d-6dae899b6aa1"},"vehicle_type_id":"4","last_reported":1744038660,"current_range_meters":14400,"station_id":"ce4bhgp2rcd13ifvqfe0","pricing_plan_id":"cebpf4jnsgd1na2vs0mg"},{"bike_id":"d0c50cfb-e02f-461d-8e7b-73f56d891fe6","system_id":"levelo_inurba_marseille","lat":43.30603,"lon":5.37226,"is_reserved":false,"is_disabled":false,"rental_uris":{"android":"levelo://app?vid=d0c50cfb-e02f-461d-8e7b-73f56d891fe6","ios":"levelo://app?vid=d0c50cfb-e02f-461d-8e7b-73f56d891fe6"},"vehicle_type_id":"4","last_reported":1744038660,"current_range_meters":14400,"station_id":"ce4bgqh2rcd13ifvqc4g","pricing_plan_id":"cebpf4jnsgd1na2vs0mg"},{"bike_id":"ff0e3fb4-a820-4596-9716-33225e50e3fc","system_id":"levelo_inurba_marseille","lat":43.29796,"lon":5.39345,"is_reserved":false,"is_disabled":false,"rental_uris":{"android":"levelo://app?vid=ff0e3fb4-a820-4596-9716-33225e50e3fc","ios":"levelo://app?vid=ff0e3fb4-a820-4596-9716-33225e50e3fc"},"vehicle_type_id":"4","last_reported":1744038660,"current_range_meters":14400,"station_id":"chh1huq6cuj3fo74tm60","pricing_plan_id":"cebpf4jnsgd1na2vs0mg"},{"bike_id":"aa0447db-2a03-4d4c-9db9-22b1226cc0ca","system_id":"levelo_inurba_marseille","lat":43.29363,"lon":5.378362,"is_reserved":false,"is_disabled":false,"rental_uris":{"android":"levelo://app?vid=aa0447db-2a03-4d4c-9db9-22b1226cc0ca","ios":"levelo://app?vid=aa0447db-2a03-4d4c-9db9-22b1226cc0ca"},"vehicle_type_id":"4","last_reported":1744038660,"current_range_meters":14800,"station_id":"ce4bgjh2rcd13ifvqbf0","pricing_plan_id":"cebpf4jnsgd1na2vs0mg"},{"bike_id":"fb9f6b16-b64d-4eb9-b329-0548a57bc9c5","system_id":"levelo_inurba_marseille","lat":43.30091,"lon":5.39067,"is_reserved":false,"is_disabled":false,"rental_uris":{"android":"levelo://app?vid=fb9f6b16-b64d-4eb9-b329-0548a57bc9c5","ios":"levelo://app?vid=fb9f6b16-b64d-4eb9-b329-0548a57bc9c5"},"vehicle_type_id":"4","last_reported":1744038660,"current_range_meters":14800,"station_id":"ce4bh192rcd13ifvqdb0","pricing_plan_id":"cebpf4jnsgd1na2vs0mg"},{"bike_id":"cc65c360-2c51-477e-b733-399e2ec581d2","system_id":"levelo_inurba_marseille","lat":43.27803,"lon":5.40705,"is_reserved":false,"is_disabled":false,"rental_uris":{"android":"levelo://app?vid=cc65c360-2c51-477e-b733-399e2ec581d2","ios":"levelo://app?vid=cc65c360-2c51-477e-b733-399e2ec581d2"},"vehicle_type_id":"4","last_reported":1744038660,"current_range_meters":14800,"station_id":"ce4bhnh2rcd13ifvqgtg","pricing_plan_id":"cebpf4jnsgd1na2vs0mg"},{"bike_id":"3274ecb6-bbfb-45d2-a20f-184689810142","system_id":"levelo_inurba_marseille","lat":43.30289,"lon":5.37701,"is_reserved":false,"is_disabled":false,"rental_uris":{"android":"levelo://app?vid=3274ecb6-bbfb-45d2-a20f-184689810142","ios":"levelo://app?vid=3274ecb6-bbfb-45d2-a20f-184689810142"},"vehicle_type_id":"4","last_reported":1744038660,"current_range_meters":15200,"station_id":"ce4bguh2rcd13ifvqcj0","pricing_plan_id":"cebpf4jnsgd1na2vs0mg"},{"bike_id":"67f9198a-5c42-4888-8679-ed9fff871b15","system_id":"levelo_inurba_marseille","lat":43.25108,"lon":5.40314,"is_reserved":false,"is_disabled":false,"rental_uris":{"android":"levelo://app?vid=67f9198a-5c42-4888-8679-ed9fff871b15","ios":"levelo://app?vid=67f9198a-5c42-4888-8679-ed9fff871b15"},"vehicle_type_id":"4","last_reported":1744038660,"current_range_meters":15200,"station_id":"ce4bhlh2rcd13ifvqgig","pricing_plan_id":"cebpf4jnsgd1na2vs0mg"},{"bike_id":"87e2d66b-594d-43e1-8202-0da544a6c3f1","system_id":"levelo_inurba_marseille","lat":43.30149,"lon":5.398603,"is_reserved":false,"is_disabled":false,"rental_uris":{"android":"levelo://app?vid=87e2d66b-594d-43e1-8202-0da544a6c3f1","ios":"levelo://app?vid=87e2d66b-594d-43e1-8202-0da544a6c3f1"},"vehicle_type_id":"4","last_reported":1744038660,"current_range_meters":15200,"station_id":"ce4bh0h2rcd13ifvqd40","pricing_plan_id":"cebpf4jnsgd1na2vs0mg"},{"bike_id":"2f0c8524-1f08-49e2-bb39-ddaa7e87c316","system_id":"levelo_inurba_marseille","lat":43.28459,"lon":5.35888,"is_reserved":false,"is_disabled":false,"rental_uris":{"android":"levelo://app?vid=2f0c8524-1f08-49e2-bb39-ddaa7e87c316","ios":"levelo://app?vid=2f0c8524-1f08-49e2-bb39-ddaa7e87c316"},"vehicle_type_id":"4","last_reported":1744038660,"current_range_meters":15200,"station_id":"ce4bhah2rcd13ifvqei0","pricing_plan_id":"cebpf4jnsgd1na2vs0mg"},{"bike_id":"50ce1ec9-7166-4291-b4e4-0490430b7cdd","system_id":"levelo_inurba_marseille","lat":43.26192,"lon":5.37446,"is_reserved":false,"is_disabled":false,"rental_uris":{"android":"levelo://app?vid=50ce1ec9-7166-4291-b4e4-0490430b7cdd","ios":"levelo://app?vid=50ce1ec9-7166-4291-b4e4-0490430b7cdd"},"vehicle_type_id":"4","last_reported":1744038660,"current_range_meters":16000,"station_id":"ce4bhgp2rcd13ifvqfc0","pricing_plan_id":"cebpf4jnsgd1na2vs0mg"},{"bike_id":"93e3fd92-d65f-4f36-ba40-a3e5476ebc87","system_id":"levelo_inurba_marseille","lat":43.30663,"lon":5.36593,"is_reserved":false,"is_disabled":false,"rental_uris":{"android":"levelo://app?vid=93e3fd92-d65f-4f36-ba40-a3e5476ebc87","ios":"levelo://app?vid=93e3fd92-d65f-4f36-ba40-a3e5476ebc87"},"vehicle_type_id":"4","last_reported":1744038660,"current_range_meters":16000,"station_id":"","pricing_plan_id":"cebpf4jnsgd1na2vs0mg"},{"bike_id":"0aa02c49-cbb3-4907-a588-f754056f3ba8","system_id":"levelo_inurba_marseille","lat":43.308024,"lon":5.381472,"is_reserved":false,"is_disabled":true,"rental_uris":{"android":"levelo://app?vid=0aa02c49-cbb3-4907-a588-f754056f3ba8","ios":"levelo://app?vid=0aa02c49-cbb3-4907-a588-f754056f3ba8"},"vehicle_type_id":"4","last_reported":1744038660,"current_range_meters":16000,"station_id":"ce4bgt12rcd13ifvqce0","pricing_plan_id":"cebpf4jnsgd1na2vs0mg"},{"bike_id":"140bcc9c-7a15-47b1-a546-a2322d7111c7","system_id":"levelo_inurba_marseille","lat":43.312322,"lon":5.368704,"is_reserved":false,"is_disabled":false,"rental_uris":{"android":"levelo://app?vid=140bcc9c-7a15-47b1-a546-a2322d7111c7","ios":"levelo://app?vid=140bcc9c-7a15-47b1-a546-a2322d7111c7"},"vehicle_type_id":"4","last_reported":1744038660,"current_range_meters":16000,"station_id":"ce4bgl92rcd13ifvqbq0","pricing_plan_id":"cebpf4jnsgd1na2vs0mg"},{"bike_id":"61cd41de-07c4-4597-a74e-0c712a9e4d87","system_id":"levelo_inurba_marseille","lat":43.22922,"lon":5.35375,"is_reserved":false,"is_disabled":true,"rental_uris":{"android":"levelo://app?vid=61cd41de-07c4-4597-a74e-0c712a9e4d87","ios":"levelo://app?vid=61cd41de-07c4-4597-a74e-0c712a9e4d87"},"vehicle_type_id":"4","last_reported":1744038660,"current_range_meters":16000,"station_id":"cpo3532slgdg3j2ikp40","pricing_plan_id":"cebpf4jnsgd1na2vs0mg"},{"bike_id":"5faf711e-5b6a-47b6-9cfe-d94056c3d827","system_id":"levelo_inurba_marseille","lat":43.30881,"lon":5.39658,"is_reserved":false,"is_disabled":false,"rental_uris":{"android":"levelo://app?vid=5faf711e-5b6a-47b6-9cfe-d94056c3d827","ios":"levelo://app?vid=5faf711e-5b6a-47b6-9cfe-d94056c3d827"},"vehicle_type_id":"4","last_reported":1744038660,"current_range_meters":15200,"station_id":"ce4bh012rcd13ifvqcv0","pricing_plan_id":"cebpf4jnsgd1na2vs0mg"},{"bike_id":"68d1cc33-0218-451e-8e10-d32225c21263","system_id":"levelo_inurba_marseille","lat":43.23156,"lon":5.43705,"is_reserved":false,"is_disabled":true,"rental_uris":{"android":"levelo://app?vid=68d1cc33-0218-451e-8e10-d32225c21263","ios":"levelo://app?vid=68d1cc33-0218-451e-8e10-d32225c21263"},"vehicle_type_id":"4","last_reported":1744038660,"current_range_meters":16000,"station_id":"ce4bhmp2rcd13ifvqgog","pricing_plan_id":"cebpf4jnsgd1na2vs0mg"},{"bike_id":"8d36f268-69d4-413e-a830-d0f121ad6c84","system_id":"levelo_inurba_marseille","lat":43.2508,"lon":5.39525,"is_reserved":false,"is_disabled":false,"rental_uris":{"android":"levelo://app?vid=8d36f268-69d4-413e-a830-d0f121ad6c84","ios":"levelo://app?vid=8d36f268-69d4-413e-a830-d0f121ad6c84"},"vehicle_type_id":"4","last_reported":1744038660,"current_range_meters":16400,"station_id":"ce4bhm12rcd13ifvqgkg","pricing_plan_id":"cebpf4jnsgd1na2vs0mg"},{"bike_id":"fdd01719-d588-4b93-bcd2-62faf6a7b31f","system_id":"levelo_inurba_marseille","lat":43.24087,"lon":5.37758,"is_reserved":false,"is_disabled":false,"rental_uris":{"android":"levelo://app?vid=fdd01719-d588-4b93-bcd2-62faf6a7b31f","ios":"levelo://app?vid=fdd01719-d588-4b93-bcd2-62faf6a7b31f"},"vehicle_type_id":"4","last_reported":1744038660,"current_range_meters":16400,"station_id":"ce4bhnp2rcd13ifvqgvg","pricing_plan_id":"cebpf4jnsgd1na2vs0mg"},{"bike_id":"a4c51caf-6d67-467e-ae30-70c94e36ea30","system_id":"levelo_inurba_marseille","lat":43.30414,"lon":5.41291,"is_reserved":false,"is_disabled":false,"rental_uris":{"android":"levelo://app?vid=a4c51caf-6d67-467e-ae30-70c94e36ea30","ios":"levelo://app?vid=a4c51caf-6d67-467e-ae30-70c94e36ea30"},"vehicle_type_id":"4","last_reported":1744038660,"current_range_meters":16400,"station_id":"ce4bhop2rcd13ifvqh8g","pricing_plan_id":"cebpf4jnsgd1na2vs0mg"},{"bike_id":"288538e1-d0ea-4b41-9722-51d3df847a3f","system_id":"levelo_inurba_marseille","lat":43.27678,"lon":5.38873,"is_reserved":false,"is_disabled":false,"rental_uris":{"android":"levelo://app?vid=288538e1-d0ea-4b41-9722-51d3df847a3f","ios":"levelo://app?vid=288538e1-d0ea-4b41-9722-51d3df847a3f"},"vehicle_type_id":"4","last_reported":1744038660,"current_range_meters":16400,"station_id":"ce4bhi12rcd13ifvqfo0","pricing_plan_id":"cebpf4jnsgd1na2vs0mg"},{"bike_id":"a307d199-b7a9-46d5-945a-8b70c35b6bae","system_id":"levelo_inurba_marseille","lat":43.21747,"lon":5.34604,"is_reserved":false,"is_disabled":false,"rental_uris":{"android":"levelo://app?vid=a307d199-b7a9-46d5-945a-8b70c35b6bae","ios":"levelo://app?vid=a307d199-b7a9-46d5-945a-8b70c35b6bae"},"vehicle_type_id":"4","last_reported":1744038660,"current_range_meters":16400,"station_id":"st_cvj6r9ubvosntc0bgbag","pricing_plan_id":"cebpf4jnsgd1na2vs0mg"},{"bike_id":"77dd5036-4d6e-4091-95e6-ef92716fef0c","system_id":"levelo_inurba_marseille","lat":43.27051,"lon":5.4026,"is_reserved":false,"is_disabled":false,"rental_uris":{"android":"levelo://app?vid=77dd5036-4d6e-4091-95e6-ef92716fef0c","ios":"levelo://app?vid=77dd5036-4d6e-4091-95e6-ef92716fef0c"},"vehicle_type_id":"4","last_reported":1744038660,"current_range_meters":16400,"station_id":"ce4bhk92rcd13ifvqgc0","pricing_plan_id":"cebpf4jnsgd1na2vs0mg"},{"bike_id":"3eba9bc7-1efa-4ed0-84f7-e0d8da3dd7aa","system_id":"levelo_inurba_marseille","lat":43.29614,"lon":5.37722,"is_reserved":false,"is_disabled":false,"rental_uris":{"android":"levelo://app?vid=3eba9bc7-1efa-4ed0-84f7-e0d8da3dd7aa","ios":"levelo://app?vid=3eba9bc7-1efa-4ed0-84f7-e0d8da3dd7aa"},"vehicle_type_id":"4","last_reported":1744038660,"current_range_meters":16400,"station_id":"ce4bgi92rcd13ifvqb90","pricing_plan_id":"cebpf4jnsgd1na2vs0mg"},{"bike_id":"842c5b76-7b08-41a3-b21c-74d0fdb2cbbc","system_id":"levelo_inurba_marseille","lat":43.30433,"lon":5.39749,"is_reserved":false,"is_disabled":false,"rental_uris":{"android":"levelo://app?vid=842c5b76-7b08-41a3-b21c-74d0fdb2cbbc","ios":"levelo://app?vid=842c5b76-7b08-41a3-b21c-74d0fdb2cbbc"},"vehicle_type_id":"4","last_reported":1744038660,"current_range_meters":10000,"station_id":"ce4bh092rcd13ifvqd20","pricing_plan_id":"cebpf4jnsgd1na2vs0mg"},{"bike_id":"a2b55975-55e4-4a3f-8af7-2c27ff45ed68","system_id":"levelo_inurba_marseille","lat":43.28149,"lon":5.42643,"is_reserved":false,"is_disabled":true,"rental_uris":{"android":"levelo://app?vid=a2b55975-55e4-4a3f-8af7-2c27ff45ed68","ios":"levelo://app?vid=a2b55975-55e4-4a3f-8af7-2c27ff45ed68"},"vehicle_type_id":"4","last_reported":1744038660,"current_range_meters":16800,"station_id":"ce4bhnh2rcd13ifvqgug","pricing_plan_id":"cebpf4jnsgd1na2vs0mg"},{"bike_id":"64f57cd6-3c59-43dd-b41c-87049d79c067","system_id":"levelo_inurba_marseille","lat":43.27963,"lon":5.38741,"is_reserved":false,"is_disabled":false,"rental_uris":{"android":"levelo://app?vid=64f57cd6-3c59-43dd-b41c-87049d79c067","ios":"levelo://app?vid=64f57cd6-3c59-43dd-b41c-87049d79c067"},"vehicle_type_id":"4","last_reported":1744038660,"current_range_meters":16800,"station_id":"ce4bhg12rcd13ifvqf80","pricing_plan_id":"cebpf4jnsgd1na2vs0mg"},{"bike_id":"2f48ec57-d212-4e94-8bdf-81b7a8f04386","system_id":"levelo_inurba_marseille","lat":43.27215,"lon":5.39173,"is_reserved":false,"is_disabled":true,"rental_uris":{"android":"levelo://app?vid=2f48ec57-d212-4e94-8bdf-81b7a8f04386","ios":"levelo://app?vid=2f48ec57-d212-4e94-8bdf-81b7a8f04386"},"vehicle_type_id":"4","last_reported":1744038660,"current_range_meters":16800,"station_id":"ce4bhhp2rcd13ifvqfm0","pricing_plan_id":"cebpf4jnsgd1na2vs0mg"},{"bike_id":"1fa3cf10-6860-4368-ba48-fac29f0738dd","system_id":"levelo_inurba_marseille","lat":43.289768,"lon":5.378386,"is_reserved":false,"is_disabled":false,"rental_uris":{"android":"levelo://app?vid=1fa3cf10-6860-4368-ba48-fac29f0738dd","ios":"levelo://app?vid=1fa3cf10-6860-4368-ba48-fac29f0738dd"},"vehicle_type_id":"4","last_reported":1744038660,"current_range_meters":16400,"station_id":"ce4bh9p2rcd13ifvqed0","pricing_plan_id":"cebpf4jnsgd1na2vs0mg"},{"bike_id":"351863ca-8a8c-44f1-9dd7-49fd8388172d","system_id":"levelo_inurba_marseille","lat":43.2415,"lon":5.39721,"is_reserved":false,"is_disabled":false,"rental_uris":{"android":"levelo://app?vid=351863ca-8a8c-44f1-9dd7-49fd8388172d","ios":"levelo://app?vid=351863ca-8a8c-44f1-9dd7-49fd8388172d"},"vehicle_type_id":"4","last_reported":1744038660,"current_range_meters":16800,"station_id":"ce4bhn12rcd13ifvqgpg","pricing_plan_id":"cebpf4jnsgd1na2vs0mg"},{"bike_id":"3ff419ea-3666-4816-b485-72007824b08b","system_id":"levelo_inurba_marseille","lat":43.31881,"lon":5.40717,"is_reserved":false,"is_disabled":false,"rental_uris":{"android":"levelo://app?vid=3ff419ea-3666-4816-b485-72007824b08b","ios":"levelo://app?vid=3ff419ea-3666-4816-b485-72007824b08b"},"vehicle_type_id":"4","last_reported":1744038660,"current_range_meters":16400,"station_id":"ce4bhq12rcd13ifvqhig","pricing_plan_id":"cebpf4jnsgd1na2vs0mg"},{"bike_id":"45d83681-f2eb-4a39-a20c-4022ba893ea0","system_id":"levelo_inurba_marseille","lat":43.3392,"lon":5.3922,"is_reserved":false,"is_disabled":false,"rental_uris":{"android":"levelo://app?vid=45d83681-f2eb-4a39-a20c-4022ba893ea0","ios":"levelo://app?vid=45d83681-f2eb-4a39-a20c-4022ba893ea0"},"vehicle_type_id":"4","last_reported":1744038660,"current_range_meters":16800,"station_id":"","pricing_plan_id":"cebpf4jnsgd1na2vs0mg"},{"bike_id":"69260d62-51af-43c1-a17d-c78957d35386","system_id":"levelo_inurba_marseille","lat":43.26955,"lon":5.38641,"is_reserved":false,"is_disabled":false,"rental_uris":{"android":"levelo://app?vid=69260d62-51af-43c1-a17d-c78957d35386","ios":"levelo://app?vid=69260d62-51af-43c1-a17d-c78957d35386"},"vehicle_type_id":"4","last_reported":1744038660,"current_range_meters":17200,"station_id":"ce4bhh92rcd13ifvqfh0","pricing_plan_id":"cebpf4jnsgd1na2vs0mg"},{"bike_id":"7bed7899-31c6-494e-b098-286706f032b2","system_id":"levelo_inurba_marseille","lat":43.2926,"lon":5.40907,"is_reserved":false,"is_disabled":false,"rental_uris":{"android":"levelo://app?vid=7bed7899-31c6-494e-b098-286706f032b2","ios":"levelo://app?vid=7bed7899-31c6-494e-b098-286706f032b2"},"vehicle_type_id":"4","last_reported":1744038660,"current_range_meters":16400,"station_id":"ce4bh192rcd13ifvqdc0","pricing_plan_id":"cebpf4jnsgd1na2vs0mg"},{"bike_id":"fbdd7213-7cc7-4478-ab69-42d2f4b64072","system_id":"levelo_inurba_marseille","lat":43.30654,"lon":5.40092,"is_reserved":false,"is_disabled":false,"rental_uris":{"android":"levelo://app?vid=fbdd7213-7cc7-4478-ab69-42d2f4b64072","ios":"levelo://app?vid=fbdd7213-7cc7-4478-ab69-42d2f4b64072"},"vehicle_type_id":"4","last_reported":1744038660,"current_range_meters":17200,"station_id":"ce4bh112rcd13ifvqda0","pricing_plan_id":"cebpf4jnsgd1na2vs0mg"},{"bike_id":"d01814b3-39f1-4bf5-905f-07c6028f7394","system_id":"levelo_inurba_marseille","lat":43.321034,"lon":5.367898,"is_reserved":false,"is_disabled":false,"rental_uris":{"android":"levelo://app?vid=d01814b3-39f1-4bf5-905f-07c6028f7394","ios":"levelo://app?vid=d01814b3-39f1-4bf5-905f-07c6028f7394"},"vehicle_type_id":"4","last_reported":1744038660,"current_range_meters":17200,"station_id":"ce4bhrh2rcd13ifvqhug","pricing_plan_id":"cebpf4jnsgd1na2vs0mg"},{"bike_id":"5f9d16aa-61b1-4636-8345-61a4681dbeec","system_id":"levelo_inurba_marseille","lat":43.30535,"lon":5.36528,"is_reserved":false,"is_disabled":false,"rental_uris":{"android":"levelo://app?vid=5f9d16aa-61b1-4636-8345-61a4681dbeec","ios":"levelo://app?vid=5f9d16aa-61b1-4636-8345-61a4681dbeec"},"vehicle_type_id":"4","last_reported":1744038660,"current_range_meters":17600,"station_id":"ce4bgs12rcd13ifvqcag","pricing_plan_id":"cebpf4jnsgd1na2vs0mg"},{"bike_id":"d537d032-933a-418c-9f48-18e945c4f440","system_id":"levelo_inurba_marseille","lat":43.29165,"lon":5.37153,"is_reserved":false,"is_disabled":false,"rental_uris":{"android":"levelo://app?vid=d537d032-933a-418c-9f48-18e945c4f440","ios":"levelo://app?vid=d537d032-933a-418c-9f48-18e945c4f440"},"vehicle_type_id":"4","last_reported":1744038660,"current_range_meters":17200,"station_id":"ce4bha92rcd13ifvqeh0","pricing_plan_id":"cebpf4jnsgd1na2vs0mg"},{"bike_id":"055ada27-f643-4335-b079-2b731fbde069","system_id":"levelo_inurba_marseille","lat":43.30442,"lon":5.38882,"is_reserved":false,"is_disabled":false,"rental_uris":{"android":"levelo://app?vid=055ada27-f643-4335-b079-2b731fbde069","ios":"levelo://app?vid=055ada27-f643-4335-b079-2b731fbde069"},"vehicle_type_id":"4","last_reported":1744038660,"current_range_meters":17600,"station_id":"ce4bgk12rcd13ifvqbi0","pricing_plan_id":"cebpf4jnsgd1na2vs0mg"},{"bike_id":"5963202a-9c08-4e04-9f07-c30eb7aa3bbe","system_id":"levelo_inurba_marseille","lat":43.31205,"lon":5.36838,"is_reserved":false,"is_disabled":false,"rental_uris":{"android":"levelo://app?vid=5963202a-9c08-4e04-9f07-c30eb7aa3bbe","ios":"levelo://app?vid=5963202a-9c08-4e04-9f07-c30eb7aa3bbe"},"vehicle_type_id":"4","last_reported":1744038660,"current_range_meters":17600,"station_id":"ce4bgl92rcd13ifvqbq0","pricing_plan_id":"cebpf4jnsgd1na2vs0mg"},{"bike_id":"d752b5c1-fdcf-4864-9a6e-c3cb8dab3734","system_id":"levelo_inurba_marseille","lat":43.30541,"lon":5.36554,"is_reserved":false,"is_disabled":false,"rental_uris":{"android":"levelo://app?vid=d752b5c1-fdcf-4864-9a6e-c3cb8dab3734","ios":"levelo://app?vid=d752b5c1-fdcf-4864-9a6e-c3cb8dab3734"},"vehicle_type_id":"4","last_reported":1744038660,"current_range_meters":17600,"station_id":"ce4bgs12rcd13ifvqcag","pricing_plan_id":"cebpf4jnsgd1na2vs0mg"},{"bike_id":"0b1941aa-0ef4-4726-a4cd-9bfb67efe76b","system_id":"levelo_inurba_marseille","lat":43.258522,"lon":5.394263,"is_reserved":false,"is_disabled":false,"rental_uris":{"android":"levelo://app?vid=0b1941aa-0ef4-4726-a4cd-9bfb67efe76b","ios":"levelo://app?vid=0b1941aa-0ef4-4726-a4cd-9bfb67efe76b"},"vehicle_type_id":"4","last_reported":1744038660,"current_range_meters":18000,"station_id":"ce4bhip2rcd13ifvqft0","pricing_plan_id":"cebpf4jnsgd1na2vs0mg"},{"bike_id":"b81475c5-e8ce-4b34-9cf2-b0c276305bf6","system_id":"levelo_inurba_marseille","lat":43.30217,"lon":5.39473,"is_reserved":false,"is_disabled":false,"rental_uris":{"android":"levelo://app?vid=b81475c5-e8ce-4b34-9cf2-b0c276305bf6","ios":"levelo://app?vid=b81475c5-e8ce-4b34-9cf2-b0c276305bf6"},"vehicle_type_id":"4","last_reported":1744038660,"current_range_meters":18000,"station_id":"ce4bh0p2rcd13ifvqd70","pricing_plan_id":"cebpf4jnsgd1na2vs0mg"},{"bike_id":"67f5402e-84ba-4cca-bae1-1308d8bfce95","system_id":"levelo_inurba_marseille","lat":43.32357,"lon":5.36765,"is_reserved":false,"is_disabled":false,"rental_uris":{"android":"levelo://app?vid=67f5402e-84ba-4cca-bae1-1308d8bfce95","ios":"levelo://app?vid=67f5402e-84ba-4cca-bae1-1308d8bfce95"},"vehicle_type_id":"4","last_reported":1744038660,"current_range_meters":18000,"station_id":"ce4bhsh2rcd13ifvqi2g","pricing_plan_id":"cebpf4jnsgd1na2vs0mg"},{"bike_id":"d41a164c-6af8-4344-bffb-3b3c38a6d184","system_id":"levelo_inurba_marseille","lat":43.30547,"lon":5.36531,"is_reserved":false,"is_disabled":true,"rental_uris":{"android":"levelo://app?vid=d41a164c-6af8-4344-bffb-3b3c38a6d184","ios":"levelo://app?vid=d41a164c-6af8-4344-bffb-3b3c38a6d184"},"vehicle_type_id":"4","last_reported":1744038660,"current_range_meters":18000,"station_id":"ce4bgs12rcd13ifvqcag","pricing_plan_id":"cebpf4jnsgd1na2vs0mg"},{"bike_id":"3fdcef7f-82ac-4035-9a94-d3748a8f0516","system_id":"levelo_inurba_marseille","lat":43.29539,"lon":5.38541,"is_reserved":false,"is_disabled":false,"rental_uris":{"android":"levelo://app?vid=3fdcef7f-82ac-4035-9a94-d3748a8f0516","ios":"levelo://app?vid=3fdcef7f-82ac-4035-9a94-d3748a8f0516"},"vehicle_type_id":"4","last_reported":1744038660,"current_range_meters":18000,"station_id":"ce4bgih2rcd13ifvqba0","pricing_plan_id":"cebpf4jnsgd1na2vs0mg"},{"bike_id":"fbe27213-9351-4c47-8819-a8eeb6a2201b","system_id":"levelo_inurba_marseille","lat":43.28403,"lon":5.37509,"is_reserved":false,"is_disabled":false,"rental_uris":{"android":"levelo://app?vid=fbe27213-9351-4c47-8819-a8eeb6a2201b","ios":"levelo://app?vid=fbe27213-9351-4c47-8819-a8eeb6a2201b"},"vehicle_type_id":"4","last_reported":1744038660,"current_range_meters":18000,"station_id":"ce4bh412rcd13ifvqds0","pricing_plan_id":"cebpf4jnsgd1na2vs0mg"},{"bike_id":"0924c1a5-202f-4e26-af3b-42faffa666ab","system_id":"levelo_inurba_marseille","lat":43.28473,"lon":5.3841,"is_reserved":false,"is_disabled":false,"rental_uris":{"android":"levelo://app?vid=0924c1a5-202f-4e26-af3b-42faffa666ab","ios":"levelo://app?vid=0924c1a5-202f-4e26-af3b-42faffa666ab"},"vehicle_type_id":"4","last_reported":1744038660,"current_range_meters":17600,"station_id":"ce4bh512rcd13ifvqe3g","pricing_plan_id":"cebpf4jnsgd1na2vs0mg"},{"bike_id":"e74523a3-2a93-496b-b828-b433c186e5e0","system_id":"levelo_inurba_marseille","lat":43.29968,"lon":5.37168,"is_reserved":false,"is_disabled":false,"rental_uris":{"android":"levelo://app?vid=e74523a3-2a93-496b-b828-b433c186e5e0","ios":"levelo://app?vid=e74523a3-2a93-496b-b828-b433c186e5e0"},"vehicle_type_id":"4","last_reported":1744038660,"current_range_meters":18000,"station_id":"ce4bgr92rcd13ifvqc7g","pricing_plan_id":"cebpf4jnsgd1na2vs0mg"},{"bike_id":"37db7125-2705-4529-a1d3-f184c5e0b807","system_id":"levelo_inurba_marseille","lat":43.28082,"lon":5.396,"is_reserved":false,"is_disabled":false,"rental_uris":{"android":"levelo://app?vid=37db7125-2705-4529-a1d3-f184c5e0b807","ios":"levelo://app?vid=37db7125-2705-4529-a1d3-f184c5e0b807"},"vehicle_type_id":"4","last_reported":1744038660,"current_range_meters":18000,"station_id":"","pricing_plan_id":"cebpf4jnsgd1na2vs0mg"},{"bike_id":"6062587b-83a1-442c-828d-a0c16de10eef","system_id":"levelo_inurba_marseille","lat":43.26198,"lon":5.3793,"is_reserved":false,"is_disabled":false,"rental_uris":{"android":"levelo://app?vid=6062587b-83a1-442c-828d-a0c16de10eef","ios":"levelo://app?vid=6062587b-83a1-442c-828d-a0c16de10eef"},"vehicle_type_id":"4","last_reported":1744038660,"current_range_meters":18800,"station_id":"ce4bhjp2rcd13ifvqg90","pricing_plan_id":"cebpf4jnsgd1na2vs0mg"},{"bike_id":"1ca7d0c4-b7aa-4350-ad9f-4e24c2ba029a","system_id":"levelo_inurba_marseille","lat":43.30378,"lon":5.42479,"is_reserved":false,"is_disabled":true,"rental_uris":{"android":"levelo://app?vid=1ca7d0c4-b7aa-4350-ad9f-4e24c2ba029a","ios":"levelo://app?vid=1ca7d0c4-b7aa-4350-ad9f-4e24c2ba029a"},"vehicle_type_id":"4","last_reported":1744038660,"current_range_meters":18800,"station_id":"ce4bhoh2rcd13ifvqh6g","pricing_plan_id":"cebpf4jnsgd1na2vs0mg"},{"bike_id":"47ea49ae-9954-460d-ac34-bd2be31e795b","system_id":"levelo_inurba_marseille","lat":43.31076,"lon":5.38355,"is_reserved":false,"is_disabled":false,"rental_uris":{"android":"levelo://app?vid=47ea49ae-9954-460d-ac34-bd2be31e795b","ios":"levelo://app?vid=47ea49ae-9954-460d-ac34-bd2be31e795b"},"vehicle_type_id":"4","last_reported":1744038660,"current_range_meters":18800,"station_id":"ce4bgv92rcd13ifvqcr0","pricing_plan_id":"cebpf4jnsgd1na2vs0mg"},{"bike_id":"82006036-08fc-41c9-9de5-0d53480e79f7","system_id":"levelo_inurba_marseille","lat":43.26955,"lon":5.38635,"is_reserved":false,"is_disabled":false,"rental_uris":{"android":"levelo://app?vid=82006036-08fc-41c9-9de5-0d53480e79f7","ios":"levelo://app?vid=82006036-08fc-41c9-9de5-0d53480e79f7"},"vehicle_type_id":"4","last_reported":1744038660,"current_range_meters":18800,"station_id":"ce4bhh92rcd13ifvqfh0","pricing_plan_id":"cebpf4jnsgd1na2vs0mg"},{"bike_id":"f6073a3d-aad8-424f-b765-820df6e33892","system_id":"levelo_inurba_marseille","lat":43.29532,"lon":5.375,"is_reserved":false,"is_disabled":false,"rental_uris":{"android":"levelo://app?vid=f6073a3d-aad8-424f-b765-820df6e33892","ios":"levelo://app?vid=f6073a3d-aad8-424f-b765-820df6e33892"},"vehicle_type_id":"4","last_reported":1744038660,"current_range_meters":18800,"station_id":"ce4bgkp2rcd13ifvqbmg","pricing_plan_id":"cebpf4jnsgd1na2vs0mg"},{"bike_id":"935e95c9-7948-4f0e-b6ff-d6ac1ccb04d5","system_id":"levelo_inurba_marseille","lat":43.26932,"lon":5.40261,"is_reserved":false,"is_disabled":false,"rental_uris":{"android":"levelo://app?vid=935e95c9-7948-4f0e-b6ff-d6ac1ccb04d5","ios":"levelo://app?vid=935e95c9-7948-4f0e-b6ff-d6ac1ccb04d5"},"vehicle_type_id":"4","last_reported":1744038660,"current_range_meters":18800,"station_id":"cjm6bp8fraef2m0cb0m0","pricing_plan_id":"cebpf4jnsgd1na2vs0mg"},{"bike_id":"1559da26-857d-4124-a191-868fe22d834d","system_id":"levelo_inurba_marseille","lat":43.30791,"lon":5.43513,"is_reserved":false,"is_disabled":false,"rental_uris":{"android":"levelo://app?vid=1559da26-857d-4124-a191-868fe22d834d","ios":"levelo://app?vid=1559da26-857d-4124-a191-868fe22d834d"},"vehicle_type_id":"4","last_reported":1744038660,"current_range_meters":18800,"station_id":"ce4bhph2rcd13ifvqheg","pricing_plan_id":"cebpf4jnsgd1na2vs0mg"},{"bike_id":"af24e20d-cd14-47b0-8e42-24aa1cee57db","system_id":"levelo_inurba_marseille","lat":43.27494,"lon":5.42459,"is_reserved":false,"is_disabled":false,"rental_uris":{"android":"levelo://app?vid=af24e20d-cd14-47b0-8e42-24aa1cee57db","ios":"levelo://app?vid=af24e20d-cd14-47b0-8e42-24aa1cee57db"},"vehicle_type_id":"4","last_reported":1744038660,"current_range_meters":18800,"station_id":"ce4bhn92rcd13ifvqgrg","pricing_plan_id":"cebpf4jnsgd1na2vs0mg"},{"bike_id":"e5b72971-ad8f-4449-b3af-58f05643d693","system_id":"levelo_inurba_marseille","lat":43.26206,"lon":5.37439,"is_reserved":false,"is_disabled":false,"rental_uris":{"android":"levelo://app?vid=e5b72971-ad8f-4449-b3af-58f05643d693","ios":"levelo://app?vid=e5b72971-ad8f-4449-b3af-58f05643d693"},"vehicle_type_id":"4","last_reported":1744038660,"current_range_meters":19200,"station_id":"ce4bhgp2rcd13ifvqfc0","pricing_plan_id":"cebpf4jnsgd1na2vs0mg"},{"bike_id":"97e4a1d4-d198-4744-b953-ad6a98125668","system_id":"levelo_inurba_marseille","lat":43.30112,"lon":5.39846,"is_reserved":false,"is_disabled":false,"rental_uris":{"android":"levelo://app?vid=97e4a1d4-d198-4744-b953-ad6a98125668","ios":"levelo://app?vid=97e4a1d4-d198-4744-b953-ad6a98125668"},"vehicle_type_id":"4","last_reported":1744038660,"current_range_meters":19200,"station_id":"ce4bh0h2rcd13ifvqd40","pricing_plan_id":"cebpf4jnsgd1na2vs0mg"},{"bike_id":"4575abef-0016-4220-b21b-4cd7f7d94640","system_id":"levelo_inurba_marseille","lat":43.26198,"lon":5.3793,"is_reserved":false,"is_disabled":false,"rental_uris":{"android":"levelo://app?vid=4575abef-0016-4220-b21b-4cd7f7d94640","ios":"levelo://app?vid=4575abef-0016-4220-b21b-4cd7f7d94640"},"vehicle_type_id":"4","last_reported":1744038660,"current_range_meters":18800,"station_id":"ce4bhjp2rcd13ifvqg90","pricing_plan_id":"cebpf4jnsgd1na2vs0mg"},{"bike_id":"cd43cdc7-c5e2-4f24-aab0-478f8b8d671b","system_id":"levelo_inurba_marseille","lat":43.32471,"lon":5.36567,"is_reserved":false,"is_disabled":false,"rental_uris":{"android":"levelo://app?vid=cd43cdc7-c5e2-4f24-aab0-478f8b8d671b","ios":"levelo://app?vid=cd43cdc7-c5e2-4f24-aab0-478f8b8d671b"},"vehicle_type_id":"4","last_reported":1744038660,"current_range_meters":19200,"station_id":"ce4bhs12rcd13ifvqhvg","pricing_plan_id":"cebpf4jnsgd1na2vs0mg"},{"bike_id":"1e71b6de-6f0b-43a6-b3f0-9d00a7203dba","system_id":"levelo_inurba_marseille","lat":43.24159,"lon":5.36398,"is_reserved":false,"is_disabled":false,"rental_uris":{"android":"levelo://app?vid=1e71b6de-6f0b-43a6-b3f0-9d00a7203dba","ios":"levelo://app?vid=1e71b6de-6f0b-43a6-b3f0-9d00a7203dba"},"vehicle_type_id":"4","last_reported":1744038660,"current_range_meters":19200,"station_id":"cpo36qri1sfpv3e86is0","pricing_plan_id":"cebpf4jnsgd1na2vs0mg"},{"bike_id":"e8056442-f1ba-428c-87d5-9f0626ac968e","system_id":"levelo_inurba_marseille","lat":43.29622,"lon":5.37166,"is_reserved":false,"is_disabled":false,"rental_uris":{"android":"levelo://app?vid=e8056442-f1ba-428c-87d5-9f0626ac968e","ios":"levelo://app?vid=e8056442-f1ba-428c-87d5-9f0626ac968e"},"vehicle_type_id":"4","last_reported":1744038660,"current_range_meters":19200,"station_id":"ce4bgnh2rcd13ifvqc0g","pricing_plan_id":"cebpf4jnsgd1na2vs0mg"},{"bike_id":"302b0c63-344c-4e0d-b6e7-6cb2af7663da","system_id":"levelo_inurba_marseille","lat":43.26925,"lon":5.38641,"is_reserved":false,"is_disabled":true,"rental_uris":{"android":"levelo://app?vid=302b0c63-344c-4e0d-b6e7-6cb2af7663da","ios":"levelo://app?vid=302b0c63-344c-4e0d-b6e7-6cb2af7663da"},"vehicle_type_id":"4","last_reported":1744038660,"current_range_meters":19600,"station_id":"ce4bhh92rcd13ifvqfh0","pricing_plan_id":"cebpf4jnsgd1na2vs0mg"},{"bike_id":"7b8c0e4e-0f9c-42c9-9a8f-d609708f2fa4","system_id":"levelo_inurba_marseille","lat":43.25111,"lon":5.4033,"is_reserved":false,"is_disabled":false,"rental_uris":{"android":"levelo://app?vid=7b8c0e4e-0f9c-42c9-9a8f-d609708f2fa4","ios":"levelo://app?vid=7b8c0e4e-0f9c-42c9-9a8f-d609708f2fa4"},"vehicle_type_id":"4","last_reported":1744038660,"current_range_meters":19600,"station_id":"ce4bhlh2rcd13ifvqgig","pricing_plan_id":"cebpf4jnsgd1na2vs0mg"},{"bike_id":"06cd2f9d-bedc-47ce-a5a3-69d916df1c30","system_id":"levelo_inurba_marseille","lat":43.29543,"lon":5.38538,"is_reserved":false,"is_disabled":false,"rental_uris":{"android":"levelo://app?vid=06cd2f9d-bedc-47ce-a5a3-69d916df1c30","ios":"levelo://app?vid=06cd2f9d-bedc-47ce-a5a3-69d916df1c30"},"vehicle_type_id":"4","last_reported":1744038660,"current_range_meters":19600,"station_id":"ce4bgih2rcd13ifvqba0","pricing_plan_id":"cebpf4jnsgd1na2vs0mg"},{"bike_id":"a42623f1-7d9d-4864-85d2-4a06e4d58336","system_id":"levelo_inurba_marseille","lat":43.31177,"lon":5.36829,"is_reserved":false,"is_disabled":false,"rental_uris":{"android":"levelo://app?vid=a42623f1-7d9d-4864-85d2-4a06e4d58336","ios":"levelo://app?vid=a42623f1-7d9d-4864-85d2-4a06e4d58336"},"vehicle_type_id":"4","last_reported":1744038660,"current_range_meters":19600,"station_id":"","pricing_plan_id":"cebpf4jnsgd1na2vs0mg"},{"bike_id":"7fd6ab25-e74f-4c7c-8ca8-6e7f685d3498","system_id":"levelo_inurba_marseille","lat":43.25076,"lon":5.39512,"is_reserved":false,"is_disabled":false,"rental_uris":{"android":"levelo://app?vid=7fd6ab25-e74f-4c7c-8ca8-6e7f685d3498","ios":"levelo://app?vid=7fd6ab25-e74f-4c7c-8ca8-6e7f685d3498"},"vehicle_type_id":"4","last_reported":1744038660,"current_range_meters":19600,"station_id":"ce4bhm12rcd13ifvqgkg","pricing_plan_id":"cebpf4jnsgd1na2vs0mg"},{"bike_id":"d881969e-5f73-4938-885f-d8ff4892f72f","system_id":"levelo_inurba_marseille","lat":43.30214,"lon":5.39466,"is_reserved":false,"is_disabled":false,"rental_uris":{"android":"levelo://app?vid=d881969e-5f73-4938-885f-d8ff4892f72f","ios":"levelo://app?vid=d881969e-5f73-4938-885f-d8ff4892f72f"},"vehicle_type_id":"4","last_reported":1744038660,"current_range_meters":20000,"station_id":"ce4bh0p2rcd13ifvqd70","pricing_plan_id":"cebpf4jnsgd1na2vs0mg"},{"bike_id":"3ffe50bc-c485-4a0d-af72-22b290d163ac","system_id":"levelo_inurba_marseille","lat":43.27378,"lon":5.36251,"is_reserved":false,"is_disabled":false,"rental_uris":{"android":"levelo://app?vid=3ffe50bc-c485-4a0d-af72-22b290d163ac","ios":"levelo://app?vid=3ffe50bc-c485-4a0d-af72-22b290d163ac"},"vehicle_type_id":"4","last_reported":1744038660,"current_range_meters":20000,"station_id":"ce4bhbh2rcd13ifvqeo0","pricing_plan_id":"cebpf4jnsgd1na2vs0mg"},{"bike_id":"58ee57ba-0541-4d13-9d73-bd8e0224ef67","system_id":"levelo_inurba_marseille","lat":43.231538,"lon":5.437075,"is_reserved":false,"is_disabled":false,"rental_uris":{"android":"levelo://app?vid=58ee57ba-0541-4d13-9d73-bd8e0224ef67","ios":"levelo://app?vid=58ee57ba-0541-4d13-9d73-bd8e0224ef67"},"vehicle_type_id":"4","last_reported":1744038660,"current_range_meters":19600,"station_id":"ce4bhmp2rcd13ifvqgog","pricing_plan_id":"cebpf4jnsgd1na2vs0mg"},{"bike_id":"80be704b-2f3b-44ed-b215-d16a7485ae5e","system_id":"levelo_inurba_marseille","lat":43.31118,"lon":5.37761,"is_reserved":false,"is_disabled":false,"rental_uris":{"android":"levelo://app?vid=80be704b-2f3b-44ed-b215-d16a7485ae5e","ios":"levelo://app?vid=80be704b-2f3b-44ed-b215-d16a7485ae5e"},"vehicle_type_id":"4","last_reported":1744038660,"current_range_meters":20000,"station_id":"ce4bgt92rcd13ifvqcg0","pricing_plan_id":"cebpf4jnsgd1na2vs0mg"},{"bike_id":"a3d1b739-fa7c-4d3a-81da-d8ecdf2c20bf","system_id":"levelo_inurba_marseille","lat":43.29271,"lon":5.3684,"is_reserved":false,"is_disabled":false,"rental_uris":{"android":"levelo://app?vid=a3d1b739-fa7c-4d3a-81da-d8ecdf2c20bf","ios":"levelo://app?vid=a3d1b739-fa7c-4d3a-81da-d8ecdf2c20bf"},"vehicle_type_id":"4","last_reported":1744038660,"current_range_meters":20000,"station_id":"ce4bhbp2rcd13ifvqesg","pricing_plan_id":"cebpf4jnsgd1na2vs0mg"},{"bike_id":"724babbb-e4c8-4c4e-9a07-62ae6dca5eb0","system_id":"levelo_inurba_marseille","lat":43.29635,"lon":5.37136,"is_reserved":false,"is_disabled":false,"rental_uris":{"android":"levelo://app?vid=724babbb-e4c8-4c4e-9a07-62ae6dca5eb0","ios":"levelo://app?vid=724babbb-e4c8-4c4e-9a07-62ae6dca5eb0"},"vehicle_type_id":"4","last_reported":1744038660,"current_range_meters":20000,"station_id":"ce4bgnh2rcd13ifvqc0g","pricing_plan_id":"cebpf4jnsgd1na2vs0mg"},{"bike_id":"230b73a5-e986-4f1f-933c-dca4f2cf61af","system_id":"levelo_inurba_marseille","lat":43.34734,"lon":5.34666,"is_reserved":false,"is_disabled":false,"rental_uris":{"android":"levelo://app?vid=230b73a5-e986-4f1f-933c-dca4f2cf61af","ios":"levelo://app?vid=230b73a5-e986-4f1f-933c-dca4f2cf61af"},"vehicle_type_id":"4","last_reported":1744038660,"current_range_meters":20400,"station_id":"","pricing_plan_id":"cebpf4jnsgd1na2vs0mg"},{"bike_id":"07b29ea8-032a-4fd0-bfeb-d3ea69ca1db5","system_id":"levelo_inurba_marseille","lat":43.305438,"lon":5.365311,"is_reserved":false,"is_disabled":false,"rental_uris":{"android":"levelo://app?vid=07b29ea8-032a-4fd0-bfeb-d3ea69ca1db5","ios":"levelo://app?vid=07b29ea8-032a-4fd0-bfeb-d3ea69ca1db5"},