{"last_updated":1726945599,"ttl":30,"version":"2.2","data":{"bikes":[{"bike_id":"fd84f170-c075-4570-a556-c5e617e29406","system_id":"levelo_inurba_marseille","lat":43.28285,"lon":5.40901,"is_reserved":false,"is_disabled":false,"rental_uris":{"android":"levelo://app?vid=fd84f170-c075-4570-a556-c5e617e29406","ios":"levelo://app?vid=fd84f170-c075-4570-a556-c5e617e29406"},"vehicle_type_id":"4","last_reported":1726945599,"current_range_meters":22000,"station_id":"","pricing_plan_id":"cebpf4jnsgd1na2vs0mg"},{"bike_id":"5a54b612-489f-4fbe-8501-cb9fd58c10d6","system_id":"levelo_inurba_marseille","lat":43.27992,"lon":5.40029,"is_reserved":false,"is_disabled":false,"rental_uris":{"android":"levelo://app?vid=5a54b612-489f-4fbe-8501-cb9fd58c10d6","ios":"levelo://app?vid=5a54b612-489f-4fbe-8501-cb9fd58c10d6"},"vehicle_type_id":"4","last_reported":1726945599,"current_range_meters":39200,"station_id":"ce4bho92rcd13ifvqh4g","pricing_plan_id":"cebpf4jnsgd1na2vs0mg"},{"bike_id":"91ea66f7-d575-43aa-88a0-2571c1fbb833","system_id":"levelo_inurba_marseille","lat":43.231974,"lon":5.355553,"is_reserved":false,"is_disabled":false,"rental_uris":{"android":"levelo://app?vid=91ea66f7-d575-43aa-88a0-2571c1fbb833","ios":"levelo://app?vid=91ea66f7-d575-43aa-88a0-2571c1fbb833"},"vehicle_type_id":"4","last_reported":1726945599,"current_range_meters":34800,"station_id":"ce4bhu92rcd13ifvqi70","pricing_plan_id":"cebpf4jnsgd1na2vs0mg"},{"bike_id":"1cf7adcf-5ede-48ae-9dfc-1971603eb4c1","system_id":"levelo_inurba_marseille","lat":43.284668,"lon":5.384178,"is_reserved":false,"is_disabled":false,"rental_uris":{"android":"levelo://app?vid=1cf7adcf-5ede-48ae-9dfc-1971603eb4c1","ios":"levelo://app?vid=1cf7adcf-5ede-48ae-9dfc-1971603eb4c1"},"vehicle_type_id":"4","last_reported":1726945599,"current_range_meters":17600,"station_id":"ce4bh512rcd13ifvqe3g","pricing_plan_id":"cebpf4jnsgd1na2vs0mg"},{"bike_id":"b4913533-ecaf-4356-9aa5-7b37f42c62e8","system_id":"levelo_inurba_marseille","lat":43.29794,"lon":5.37095,"is_reserved":false,"is_disabled":false,"rental_uris":{"android":"levelo://app?vid=b4913533-ecaf-4356-9aa5-7b37f42c62e8","ios":"levelo://app?vid=b4913533-ecaf-4356-9aa5-7b37f42c62e8"},"vehicle_type_id":"4","last_reported":1726945599,"current_range_meters":38800,"station_id":"ce4bgop2rcd13ifvqc1g","pricing_plan_id":"cebpf4jnsgd1na2vs0mg"},{"bike_id":"c0993040-99f3-4e65-8495-c15b103ad0e7","system_id":"levelo_inurba_marseille","lat":43.32277,"lon":5.39102,"is_reserved":false,"is_disabled":false,"rental_uris":{"android":"levelo://app?vid=c0993040-99f3-4e65-8495-c15b103ad0e7","ios":"levelo://app?vid=c0993040-99f3-4e65-8495-c15b103ad0e7"},"vehicle_type_id":"4","last_reported":1726945599,"current_range_meters":7200,"station_id":"","pricing_plan_id":"cebpf4jnsgd1na2vs0mg"},{"bike_id":"edbb5496-0c94-4700-a91b-1965b1b6dd03","system_id":"levelo_inurba_marseille","lat":43.29034,"lon":5.38641,"is_reserved":false,"is_disabled":false,"rental_uris":{"android":"levelo://app?vid=edbb5496-0c94-4700-a91b-1965b1b6dd03","ios":"levelo://app?vid=edbb5496-0c94-4700-a91b-1965b1b6dd03"},"vehicle_type_id":"4","last_reported":1726945599,"current_range_meters":27200,"station_id":"ce4bh4p2rcd13ifvqe0g","pricing_plan_id":"cebpf4jnsgd1na2vs0mg"},{"bike_id":"5fe7499e-79c3-486f-a1de-55a49d483e0f","system_id":"levelo_inurba_marseille","lat":43.29267,"lon":5.38435,"is_reserved":false,"is_disabled":false,"rental_uris":{"android":"levelo://app?vid=5fe7499e-79c3-486f-a1de-55a49d483e0f","ios":"levelo://app?vid=5fe7499e-79c3-486f-a1de-55a49d483e0f"},"vehicle_type_id":"4","last_reported":1726945599,"current_range_meters":37600,"station_id":"ce4bh692rcd13ifvqea0","pricing_plan_id":"cebpf4jnsgd1na2vs0mg"},{"bike_id":"fc818bc9-4468-43c4-97a3-e57dbd6e19fb","system_id":"levelo_inurba_marseille","lat":43.30633,"lon":5.40084,"is_reserved":false,"is_disabled":false,"rental_uris":{"android":"levelo://app?vid=fc818bc9-4468-43c4-97a3-e57dbd6e19fb","ios":"levelo://app?vid=fc818bc9-4468-43c4-97a3-e57dbd6e19fb"},"vehicle_type_id":"4","last_reported":1726945599,"current_range_meters":3200,"station_id":"ce4bh112rcd13ifvqda0","pricing_plan_id":"cebpf4jnsgd1na2vs0mg"},{"bike_id":"896f4adb-f696-426d-8e39-00a56e6476c3","system_id":"levelo_inurba_marseille","lat":43.30137,"lon":5.3879,"is_reserved":false,"is_disabled":false,"rental_uris":{"android":"levelo://app?vid=896f4adb-f696-426d-8e39-00a56e6476c3","ios":"levelo://app?vid=896f4adb-f696-426d-8e39-00a56e6476c3"},"vehicle_type_id":"4","last_reported":1726945599,"current_range_meters":38800,"station_id":"ce4bghh2rcd13ifvqb60","pricing_plan_id":"cebpf4jnsgd1na2vs0mg"},{"bike_id":"ab2553fa-9891-4245-ad53-2e7e829c621d","system_id":"levelo_inurba_marseille","lat":43.28,"lon":5.41665,"is_reserved":false,"is_disabled":false,"rental_uris":{"android":"levelo://app?vid=ab2553fa-9891-4245-ad53-2e7e829c621d","ios":"levelo://app?vid=ab2553fa-9891-4245-ad53-2e7e829c621d"},"vehicle_type_id":"4","last_reported":1726945599,"current_range_meters":33600,"station_id":"ce4bho12rcd13ifvqh1g","pricing_plan_id":"cebpf4jnsgd1na2vs0mg"},{"bike_id":"ef209b27-73c7-4b33-ba23-b197b28f6018","system_id":"levelo_inurba_marseille","lat":43.31265,"lon":5.40168,"is_reserved":false,"is_disabled":false,"rental_uris":{"android":"levelo://app?vid=ef209b27-73c7-4b33-ba23-b197b28f6018","ios":"levelo://app?vid=ef209b27-73c7-4b33-ba23-b197b28f6018"},"vehicle_type_id":"4","last_reported":1726945599,"current_range_meters":30000,"station_id":"ce4bh092rcd13ifvqd30","pricing_plan_id":"cebpf4jnsgd1na2vs0mg"},{"bike_id":"c45dd15b-1eea-4f3d-9158-01ac46c000f6","system_id":"levelo_inurba_marseille","lat":43.29423,"lon":5.38626,"is_reserved":false,"is_disabled":false,"rental_uris":{"android":"levelo://app?vid=c45dd15b-1eea-4f3d-9158-01ac46c000f6","ios":"levelo://app?vid=c45dd15b-1eea-4f3d-9158-01ac46c000f6"},"vehicle_type_id":"4","last_reported":1726945599,"current_range_meters":20000,"station_id":"ce4bh2h2rcd13ifvqdh0","pricing_plan_id":"cebpf4jnsgd1na2vs0mg"},{"bike_id":"86b88435-9c80-4330-af9a-cd2b93eafdc5","system_id":"levelo_inurba_marseille","lat":43.2985,"lon":5.36277,"is_reserved":false,"is_disabled":false,"rental_uris":{"android":"levelo://app?vid=86b88435-9c80-4330-af9a-cd2b93eafdc5","ios":"levelo://app?vid=86b88435-9c80-4330-af9a-cd2b93eafdc5"},"vehicle_type_id":"4","last_reported":1726945599,"current_range_meters":24800,"station_id":"ce4bgpp2rcd13ifvqc3g","pricing_plan_id":"cebpf4jnsgd1na2vs0mg"},{"bike_id":"2f34b6e5-6357-4119-91f5-e49f6d665541","system_id":"levelo_inurba_marseille","lat":43.29037,"lon":5.37561,"is_reserved":false,"is_disabled":false,"rental_uris":{"android":"levelo://app?vid=2f34b6e5-6357-4119-91f5-e49f6d665541","ios":"levelo://app?vid=2f34b6e5-6357-4119-91f5-e49f6d665541"},"vehicle_type_id":"4","last_reported":1726945599,"current_range_meters":11200,"station_id":"ce4bh692rcd13ifvqe90","pricing_plan_id":"cebpf4jnsgd1na2vs0mg"},{"bike_id":"7740f99f-4af0-45b4-a944-e512b5ab03d0","system_id":"levelo_inurba_marseille","lat":43.29267,"lon":5.38434,"is_reserved":false,"is_disabled":false,"rental_uris":{"android":"levelo://app?vid=7740f99f-4af0-45b4-a944-e512b5ab03d0","ios":"levelo://app?vid=7740f99f-4af0-45b4-a944-e512b5ab03d0"},"vehicle_type_id":"4","last_reported":1726945599,"current_range_meters":8400,"station_id":"ce4bh692rcd13ifvqea0","pricing_plan_id":"cebpf4jnsgd1na2vs0mg"},{"bike_id":"92c31cc6-ea5a-4e29-bcec-f84aa7a8f675","system_id":"levelo_inurba_marseille","lat":43.29421,"lon":5.38628,"is_reserved":false,"is_disabled":false,"rental_uris":{"android":"levelo://app?vid=92c31cc6-ea5a-4e29-bcec-f84aa7a8f675","ios":"levelo://app?vid=92c31cc6-ea5a-4e29-bcec-f84aa7a8f675"},"vehicle_type_id":"4","last_reported":1726945599,"current_range_meters":28800,"station_id":"ce4bh2h2rcd13ifvqdh0","pricing_plan_id":"cebpf4jnsgd1na2vs0mg"},{"bike_id":"3f3a1968-161c-4281-9dac-b1f6f3f79cd0","system_id":"levelo_inurba_marseille","lat":43.27488,"lon":5.42459,"is_reserved":false,"is_disabled":false,"rental_uris":{"android":"levelo://app?vid=3f3a1968-161c-4281-9dac-b1f6f3f79cd0","ios":"levelo://app?vid=3f3a1968-161c-4281-9dac-b1f6f3f79cd0"},"vehicle_type_id":"4","last_reported":1726945599,"current_range_meters":20400,"station_id":"ce4bhn92rcd13ifvqgrg","pricing_plan_id":"cebpf4jnsgd1na2vs0mg"},{"bike_id":"5555a5b5-088d-4c14-9b11-5b965fcc3403","system_id":"levelo_inurba_marseille","lat":43.2953,"lon":5.38547,"is_reserved":false,"is_disabled":false,"rental_uris":{"android":"levelo://app?vid=5555a5b5-088d-4c14-9b11-5b965fcc3403","ios":"levelo://app?vid=5555a5b5-088d-4c14-9b11-5b965fcc3403"},"vehicle_type_id":"4","last_reported":1726945599,"current_range_meters":24400,"station_id":"ce4bgih2rcd13ifvqba0","pricing_plan_id":"cebpf4jnsgd1na2vs0mg"},{"bike_id":"3af6ae1c-9a9d-464c-b346-cccda7f65868","system_id":"levelo_inurba_marseille","lat":43.28471,"lon":5.38428,"is_reserved":false,"is_disabled":false,"rental_uris":{"android":"levelo://app?vid=3af6ae1c-9a9d-464c-b346-cccda7f65868","ios":"levelo://app?vid=3af6ae1c-9a9d-464c-b346-cccda7f65868"},"vehicle_type_id":"4","last_reported":1726945599,"current_range_meters":4000,"station_id":"ce4bh512rcd13ifvqe3g","pricing_plan_id":"cebpf4jnsgd1na2vs0mg"},{"bike_id":"bd01e267-fc5f-4561-95c7-b72cd7e95b43","system_id":"levelo_inurba_marseille","lat":43.30212,"lon":5.39462,"is_reserved":false,"is_disabled":false,"rental_uris":{"android":"levelo://app?vid=bd01e267-fc5f-4561-95c7-b72cd7e95b43","ios":"levelo://app?vid=bd01e267-fc5f-4561-95c7-b72cd7e95b43"},"vehicle_type_id":"4","last_reported":1726945599,"current_range_meters":10000,"station_id":"ce4bh0p2rcd13ifvqd70","pricing_plan_id":"cebpf4jnsgd1na2vs0mg"},{"bike_id":"240d5ad8-8046-4c80-8d06-693b87fca668","system_id":"levelo_inurba_marseille","lat":43.3059,"lon":5.37335,"is_reserved":false,"is_disabled":false,"rental_uris":{"android":"levelo://app?vid=240d5ad8-8046-4c80-8d06-693b87fca668","ios":"levelo://app?vid=240d5ad8-8046-4c80-8d06-693b87fca668"},"vehicle_type_id":"4","last_reported":1726945599,"current_range_meters":38800,"station_id":"","pricing_plan_id":"cebpf4jnsgd1na2vs0mg"},{"bike_id":"8e2f1964-321f-4b2b-84af-b31aae8372e0","system_id":"levelo_inurba_marseille","lat":43.28478,"lon":5.38536,"is_reserved":false,"is_disabled":false,"rental_uris":{"android":"levelo://app?vid=8e2f1964-321f-4b2b-84af-b31aae8372e0","ios":"levelo://app?vid=8e2f1964-321f-4b2b-84af-b31aae8372e0"},"vehicle_type_id":"4","last_reported":1726945599,"current_range_meters":38800,"station_id":"ce4bh8p2rcd13ifvqeb0","pricing_plan_id":"cebpf4jnsgd1na2vs0mg"},{"bike_id":"1e169539-ce46-4a37-9e62-d7f676adc182","system_id":"levelo_inurba_marseille","lat":43.27494,"lon":5.42449,"is_reserved":false,"is_disabled":false,"rental_uris":{"android":"levelo://app?vid=1e169539-ce46-4a37-9e62-d7f676adc182","ios":"levelo://app?vid=1e169539-ce46-4a37-9e62-d7f676adc182"},"vehicle_type_id":"4","last_reported":1726945599,"current_range_meters":9600,"station_id":"ce4bhn92rcd13ifvqgrg","pricing_plan_id":"cebpf4jnsgd1na2vs0mg"},{"bike_id":"6cbedff5-96c9-4636-89b5-97e2cc95375b","system_id":"levelo_inurba_marseille","lat":43.336037,"lon":5.410408,"is_reserved":false,"is_disabled":false,"rental_uris":{"android":"levelo://app?vid=6cbedff5-96c9-4636-89b5-97e2cc95375b","ios":"levelo://app?vid=6cbedff5-96c9-4636-89b5-97e2cc95375b"},"vehicle_type_id":"4","last_reported":1726945599,"current_range_meters":3200,"station_id":"ce4bhpp2rcd13ifvqhgg","pricing_plan_id":"cebpf4jnsgd1na2vs0mg"},{"bike_id":"8499bc22-ddff-4db5-9c4e-aa9be05f80a8","system_id":"levelo_inurba_marseille","lat":43.28272,"lon":5.35081,"is_reserved":false,"is_disabled":false,"rental_uris":{"android":"levelo://app?vid=8499bc22-ddff-4db5-9c4e-aa9be05f80a8","ios":"levelo://app?vid=8499bc22-ddff-4db5-9c4e-aa9be05f80a8"},"vehicle_type_id":"4","last_reported":1726945599,"current_range_meters":36400,"station_id":"ce4bhbp2rcd13ifvqerg","pricing_plan_id":"cebpf4jnsgd1na2vs0mg"},{"bike_id":"36ec5cb4-740d-4331-89e2-d95e2be148b7","system_id":"levelo_inurba_marseille","lat":43.27205,"lon":5.39186,"is_reserved":false,"is_disabled":false,"rental_uris":{"android":"levelo://app?vid=36ec5cb4-740d-4331-89e2-d95e2be148b7","ios":"levelo://app?vid=36ec5cb4-740d-4331-89e2-d95e2be148b7"},"vehicle_type_id":"4","last_reported":1726945599,"current_range_meters":24400,"station_id":"ce4bhhp2rcd13ifvqfm0","pricing_plan_id":"cebpf4jnsgd1na2vs0mg"},{"bike_id":"0abbff1f-42af-4823-b16c-ab524b52f42a","system_id":"levelo_inurba_marseille","lat":43.26956,"lon":5.40205,"is_reserved":false,"is_disabled":false,"rental_uris":{"android":"levelo://app?vid=0abbff1f-42af-4823-b16c-ab524b52f42a","ios":"levelo://app?vid=0abbff1f-42af-4823-b16c-ab524b52f42a"},"vehicle_type_id":"4","last_reported":1726945599,"current_range_meters":20400,"station_id":"cjm6bp8fraef2m0cb0m0","pricing_plan_id":"cebpf4jnsgd1na2vs0mg"},{"bike_id":"d4935413-7f90-4b16-92f0-82aeaca7633e","system_id":"levelo_inurba_marseille","lat":43.24172,"lon":5.36398,"is_reserved":false,"is_disabled":false,"rental_uris":{"android":"levelo://app?vid=d4935413-7f90-4b16-92f0-82aeaca7633e","ios":"levelo://app?vid=d4935413-7f90-4b16-92f0-82aeaca7633e"},"vehicle_type_id":"4","last_reported":1726945599,"current_range_meters":10000,"station_id":"cpo36qri1sfpv3e86is0","pricing_plan_id":"cebpf4jnsgd1na2vs0mg"},{"bike_id":"2abfd0da-52ff-49fd-a5cb-a8f4dd818089","system_id":"levelo_inurba_marseille","lat":43.28158,"lon":5.42653,"is_reserved":false,"is_disabled":false,"rental_uris":{"android":"levelo://app?vid=2abfd0da-52ff-49fd-a5cb-a8f4dd818089","ios":"levelo://app?vid=2abfd0da-52ff-49fd-a5cb-a8f4dd818089"},"vehicle_type_id":"4","last_reported":1726945599,"current_range_meters":38800,"station_id":"ce4bhnh2rcd13ifvqgug","pricing_plan_id":"cebpf4jnsgd1na2vs0mg"},{"bike_id":"edfb1ff5-b81b-4225-8da9-100a9115b1e3","system_id":"levelo_inurba_marseille","lat":43.29735,"lon":5.36561,"is_reserved":false,"is_disabled":false,"rental_uris":{"android":"levelo://app?vid=edfb1ff5-b81b-4225-8da9-100a9115b1e3","ios":"levelo://app?vid=edfb1ff5-b81b-4225-8da9-100a9115b1e3"},"vehicle_type_id":"4","last_reported":1726945599,"current_range_meters":7200,"station_id":"","pricing_plan_id":"cebpf4jnsgd1na2vs0mg"},{"bike_id":"09c3f9e7-8c05-49d7-a961-b2f6be2d6b99","system_id":"levelo_inurba_marseille","lat":43.23178,"lon":5.39995,"is_reserved":false,"is_disabled":false,"rental_uris":{"android":"levelo://app?vid=09c3f9e7-8c05-49d7-a961-b2f6be2d6b99","ios":"levelo://app?vid=09c3f9e7-8c05-49d7-a961-b2f6be2d6b99"},"vehicle_type_id":"4","last_reported":1726945599,"current_range_meters":38800,"station_id":"ce4bhn12rcd13ifvqgqg","pricing_plan_id":"cebpf4jnsgd1na2vs0mg"},{"bike_id":"82f042c9-7af9-4928-aad1-82583daf206b","system_id":"levelo_inurba_marseille","lat":43.23175,"lon":5.39984,"is_reserved":false,"is_disabled":false,"rental_uris":{"android":"levelo://app?vid=82f042c9-7af9-4928-aad1-82583daf206b","ios":"levelo://app?vid=82f042c9-7af9-4928-aad1-82583daf206b"},"vehicle_type_id":"4","last_reported":1726945599,"current_range_meters":13600,"station_id":"ce4bhn12rcd13ifvqgqg","pricing_plan_id":"cebpf4jnsgd1na2vs0mg"},{"bike_id":"dda29875-4b7d-4fef-9490-32f0631d7915","system_id":"levelo_inurba_marseille","lat":43.30192,"lon":5.36604,"is_reserved":false,"is_disabled":false,"rental_uris":{"android":"levelo://app?vid=dda29875-4b7d-4fef-9490-32f0631d7915","ios":"levelo://app?vid=dda29875-4b7d-4fef-9490-32f0631d7915"},"vehicle_type_id":"4","last_reported":1726945599,"current_range_meters":38400,"station_id":"ce4bgrh2rcd13ifvqc8g","pricing_plan_id":"cebpf4jnsgd1na2vs0mg"},{"bike_id":"e4f79511-a0f2-4db6-b264-7929c40d9e58","system_id":"levelo_inurba_marseille","lat":43.27909,"lon":5.38005,"is_reserved":false,"is_disabled":false,"rental_uris":{"android":"levelo://app?vid=e4f79511-a0f2-4db6-b264-7929c40d9e58","ios":"levelo://app?vid=e4f79511-a0f2-4db6-b264-7929c40d9e58"},"vehicle_type_id":"4","last_reported":1726945599,"current_range_meters":8000,"station_id":"ce4bhf92rcd13ifvqf50","pricing_plan_id":"cebpf4jnsgd1na2vs0mg"},{"bike_id":"229d0861-9ded-45ce-8b3a-c29e32f9eeef","system_id":"levelo_inurba_marseille","lat":43.30135,"lon":5.38783,"is_reserved":false,"is_disabled":false,"rental_uris":{"android":"levelo://app?vid=229d0861-9ded-45ce-8b3a-c29e32f9eeef","ios":"levelo://app?vid=229d0861-9ded-45ce-8b3a-c29e32f9eeef"},"vehicle_type_id":"4","last_reported":1726945599,"current_range_meters":33600,"station_id":"ce4bghh2rcd13ifvqb60","pricing_plan_id":"cebpf4jnsgd1na2vs0mg"},{"bike_id":"a81353a8-e97f-435a-abf0-e190bf661920","system_id":"levelo_inurba_marseille","lat":43.29578,"lon":5.37507,"is_reserved":false,"is_disabled":false,"rental_uris":{"android":"levelo://app?vid=a81353a8-e97f-435a-abf0-e190bf661920","ios":"levelo://app?vid=a81353a8-e97f-435a-abf0-e190bf661920"},"vehicle_type_id":"4","last_reported":1726945599,"current_range_meters":10800,"station_id":"ce4bgh92rcd13ifvqb50","pricing_plan_id":"cebpf4jnsgd1na2vs0mg"},{"bike_id":"9552ea3a-8d7a-4e83-9190-2f0de0c3b37d","system_id":"levelo_inurba_marseille","lat":43.29598,"lon":5.38097,"is_reserved":false,"is_disabled":false,"rental_uris":{"android":"levelo://app?vid=9552ea3a-8d7a-4e83-9190-2f0de0c3b37d","ios":"levelo://app?vid=9552ea3a-8d7a-4e83-9190-2f0de0c3b37d"},"vehicle_type_id":"4","last_reported":1726945599,"current_range_meters":20400,"station_id":"ce4bgl12rcd13ifvqbo0","pricing_plan_id":"cebpf4jnsgd1na2vs0mg"},{"bike_id":"2a078445-4245-41e8-a2ec-aad2d864a707","system_id":"levelo_inurba_marseille","lat":43.2791,"lon":5.38004,"is_reserved":false,"is_disabled":false,"rental_uris":{"android":"levelo://app?vid=2a078445-4245-41e8-a2ec-aad2d864a707","ios":"levelo://app?vid=2a078445-4245-41e8-a2ec-aad2d864a707"},"vehicle_type_id":"4","last_reported":1726945599,"current_range_meters":14400,"station_id":"ce4bhf92rcd13ifvqf50","pricing_plan_id":"cebpf4jnsgd1na2vs0mg"},{"bike_id":"eb51972c-e901-47c9-aa4c-bb287b81e5fb","system_id":"levelo_inurba_marseille","lat":43.31757,"lon":5.3902,"is_reserved":false,"is_disabled":false,"rental_uris":{"android":"levelo://app?vid=eb51972c-e901-47c9-aa4c-bb287b81e5fb","ios":"levelo://app?vid=eb51972c-e901-47c9-aa4c-bb287b81e5fb"},"vehicle_type_id":"4","last_reported":1726945599,"current_range_meters":38400,"station_id":"ce4bhqp2rcd13ifvqhng","pricing_plan_id":"cebpf4jnsgd1na2vs0mg"},{"bike_id":"3af56387-c0a9-406d-b9ab-767e425be036","system_id":"levelo_inurba_marseille","lat":43.25496,"lon":5.37651,"is_reserved":false,"is_disabled":false,"rental_uris":{"android":"levelo://app?vid=3af56387-c0a9-406d-b9ab-767e425be036","ios":"levelo://app?vid=3af56387-c0a9-406d-b9ab-767e425be036"},"vehicle_type_id":"4","last_reported":1726945599,"current_range_meters":36400,"station_id":"ce4bhh12rcd13ifvqff0","pricing_plan_id":"cebpf4jnsgd1na2vs0mg"},{"bike_id":"b2732659-3364-4fc8-9618-71a194910f21","system_id":"levelo_inurba_marseille","lat":43.24074,"lon":5.37762,"is_reserved":false,"is_disabled":false,"rental_uris":{"android":"levelo://app?vid=b2732659-3364-4fc8-9618-71a194910f21","ios":"levelo://app?vid=b2732659-3364-4fc8-9618-71a194910f21"},"vehicle_type_id":"4","last_reported":1726945599,"current_range_meters":35600,"station_id":"ce4bhnp2rcd13ifvqgvg","pricing_plan_id":"cebpf4jnsgd1na2vs0mg"},{"bike_id":"4ec23c83-ae3d-42b7-bb08-379e61992367","system_id":"levelo_inurba_marseille","lat":43.28454,"lon":5.35898,"is_reserved":false,"is_disabled":false,"rental_uris":{"android":"levelo://app?vid=4ec23c83-ae3d-42b7-bb08-379e61992367","ios":"levelo://app?vid=4ec23c83-ae3d-42b7-bb08-379e61992367"},"vehicle_type_id":"4","last_reported":1726945599,"current_range_meters":22800,"station_id":"ce4bhah2rcd13ifvqei0","pricing_plan_id":"cebpf4jnsgd1na2vs0mg"},{"bike_id":"873543e2-dfba-45df-be6e-eb7c950ec915","system_id":"levelo_inurba_marseille","lat":43.29415,"lon":5.38624,"is_reserved":false,"is_disabled":false,"rental_uris":{"android":"levelo://app?vid=873543e2-dfba-45df-be6e-eb7c950ec915","ios":"levelo://app?vid=873543e2-dfba-45df-be6e-eb7c950ec915"},"vehicle_type_id":"4","last_reported":1726945599,"current_range_meters":30800,"station_id":"ce4bh2h2rcd13ifvqdh0","pricing_plan_id":"cebpf4jnsgd1na2vs0mg"},{"bike_id":"9e0efb9e-b74c-46c1-b670-2ef9a6e39873","system_id":"levelo_inurba_marseille","lat":43.29421,"lon":5.38623,"is_reserved":false,"is_disabled":false,"rental_uris":{"android":"levelo://app?vid=9e0efb9e-b74c-46c1-b670-2ef9a6e39873","ios":"levelo://app?vid=9e0efb9e-b74c-46c1-b670-2ef9a6e39873"},"vehicle_type_id":"4","last_reported":1726945599,"current_range_meters":12400,"station_id":"ce4bh2h2rcd13ifvqdh0","pricing_plan_id":"cebpf4jnsgd1na2vs0mg"},{"bike_id":"54b7f973-33ed-4b77-bfc3-7847058bc7a6","system_id":"levelo_inurba_marseille","lat":43.31727,"lon":5.424,"is_reserved":false,"is_disabled":false,"rental_uris":{"android":"levelo://app?vid=54b7f973-33ed-4b77-bfc3-7847058bc7a6","ios":"levelo://app?vid=54b7f973-33ed-4b77-bfc3-7847058bc7a6"},"vehicle_type_id":"4","last_reported":1726945599,"current_range_meters":38000,"station_id":"ce4bhp92rcd13ifvqhbg","pricing_plan_id":"cebpf4jnsgd1na2vs0mg"},{"bike_id":"0935c3cf-877c-424c-991f-195901d6c662","system_id":"levelo_inurba_marseille","lat":43.258076,"lon":5.394272,"is_reserved":false,"is_disabled":false,"rental_uris":{"android":"levelo://app?vid=0935c3cf-877c-424c-991f-195901d6c662","ios":"levelo://app?vid=0935c3cf-877c-424c-991f-195901d6c662"},"vehicle_type_id":"4","last_reported":1726945599,"current_range_meters":19600,"station_id":"ce4bhip2rcd13ifvqft0","pricing_plan_id":"cebpf4jnsgd1na2vs0mg"},{"bike_id":"423f020e-2129-42e2-848b-369681b4cc36","system_id":"levelo_inurba_marseille","lat":43.292023,"lon":5.393204,"is_reserved":false,"is_disabled":false,"rental_uris":{"android":"levelo://app?vid=423f020e-2129-42e2-848b-369681b4cc36","ios":"levelo://app?vid=423f020e-2129-42e2-848b-369681b4cc36"},"vehicle_type_id":"4","last_reported":1726945599,"current_range_meters":27200,"station_id":"ce4bh192rcd13ifvqdd0","pricing_plan_id":"cebpf4jnsgd1na2vs0mg"},{"bike_id":"386d7d39-d9a0-4f2f-9dfa-7b382234f940","system_id":"levelo_inurba_marseille","lat":43.2319,"lon":5.35566,"is_reserved":false,"is_disabled":false,"rental_uris":{"android":"levelo://app?vid=386d7d39-d9a0-4f2f-9dfa-7b382234f940","ios":"levelo://app?vid=386d7d39-d9a0-4f2f-9dfa-7b382234f940"},"vehicle_type_id":"4","last_reported":1726945599,"current_range_meters":19200,"station_id":"ce4bhu92rcd13ifvqi70","pricing_plan_id":"cebpf4jnsgd1na2vs0mg"},{"bike_id":"5419b1bf-d37c-4076-a34c-52ede101758e","system_id":"levelo_inurba_marseille","lat":43.337444,"lon":5.374475,"is_reserved":false,"is_disabled":false,"rental_uris":{"android":"levelo://app?vid=5419b1bf-d37c-4076-a34c-52ede101758e","ios":"levelo://app?vid=5419b1bf-d37c-4076-a34c-52ede101758e"},"vehicle_type_id":"4","last_reported":1726945599,"current_range_meters":31200,"station_id":"","pricing_plan_id":"cebpf4jnsgd1na2vs0mg"},{"bike_id":"ef900974-1fcb-416a-aea0-bd4348c010e9","system_id":"levelo_inurba_marseille","lat":43.30876,"lon":5.39647,"is_reserved":false,"is_disabled":false,"rental_uris":{"android":"levelo://app?vid=ef900974-1fcb-416a-aea0-bd4348c010e9","ios":"levelo://app?vid=ef900974-1fcb-416a-aea0-bd4348c010e9"},"vehicle_type_id":"4","last_reported":1726945599,"current_range_meters":25200,"station_id":"ce4bh012rcd13ifvqcv0","pricing_plan_id":"cebpf4jnsgd1na2vs0mg"},{"bike_id":"013a1a54-8c71-4d7d-ad66-178705a1f09a","system_id":"levelo_inurba_marseille","lat":43.2587,"lon":5.39898,"is_reserved":false,"is_disabled":false,"rental_uris":{"android":"levelo://app?vid=013a1a54-8c71-4d7d-ad66-178705a1f09a","ios":"levelo://app?vid=013a1a54-8c71-4d7d-ad66-178705a1f09a"},"vehicle_type_id":"4","last_reported":1726945599,"current_range_meters":24800,"station_id":"ce4bhl92rcd13ifvqghg","pricing_plan_id":"cebpf4jnsgd1na2vs0mg"},{"bike_id":"3d11801b-4666-46ed-99aa-aabfb05b911e","system_id":"levelo_inurba_marseille","lat":43.31992,"lon":5.38171,"is_reserved":false,"is_disabled":false,"rental_uris":{"android":"levelo://app?vid=3d11801b-4666-46ed-99aa-aabfb05b911e","ios":"levelo://app?vid=3d11801b-4666-46ed-99aa-aabfb05b911e"},"vehicle_type_id":"4","last_reported":1726945599,"current_range_meters":27200,"station_id":"ce4bhr12rcd13ifvqhpg","pricing_plan_id":"cebpf4jnsgd1na2vs0mg"},{"bike_id":"185cff02-44e9-4741-8842-ac478b45344c","system_id":"levelo_inurba_marseille","lat":43.29253,"lon":5.40903,"is_reserved":false,"is_disabled":false,"rental_uris":{"android":"levelo://app?vid=185cff02-44e9-4741-8842-ac478b45344c","ios":"levelo://app?vid=185cff02-44e9-4741-8842-ac478b45344c"},"vehicle_type_id":"4","last_reported":1726945599,"current_range_meters":36000,"station_id":"ce4bh192rcd13ifvqdc0","pricing_plan_id":"cebpf4jnsgd1na2vs0mg"},{"bike_id":"68cf61e7-0b06-4fd1-9367-a09645642add","system_id":"levelo_inurba_marseille","lat":43.29983,"lon":5.38488,"is_reserved":false,"is_disabled":false,"rental_uris":{"android":"levelo://app?vid=68cf61e7-0b06-4fd1-9367-a09645642add","ios":"levelo://app?vid=68cf61e7-0b06-4fd1-9367-a09645642add"},"vehicle_type_id":"4","last_reported":1726945599,"current_range_meters":36000,"station_id":"ce4bgj92rcd13ifvqbd0","pricing_plan_id":"cebpf4jnsgd1na2vs0mg"},{"bike_id":"0789c753-7296-4e61-9942-17d9551f6f04","system_id":"levelo_inurba_marseille","lat":43.29097,"lon":5.3812,"is_reserved":false,"is_disabled":false,"rental_uris":{"android":"levelo://app?vid=0789c753-7296-4e61-9942-17d9551f6f04","ios":"levelo://app?vid=0789c753-7296-4e61-9942-17d9551f6f04"},"vehicle_type_id":"4","last_reported":1726945599,"current_range_meters":37600,"station_id":"ce4bh512rcd13ifvqe2g","pricing_plan_id":"cebpf4jnsgd1na2vs0mg"},{"bike_id":"efe12098-1752-458d-925d-bda16cc5f089","system_id":"levelo_inurba_marseille","lat":43.29264,"lon":5.38444,"is_reserved":false,"is_disabled":false,"rental_uris":{"android":"levelo://app?vid=efe12098-1752-458d-925d-bda16cc5f089","ios":"levelo://app?vid=efe12098-1752-458d-925d-bda16cc5f089"},"vehicle_type_id":"4","last_reported":1726945599,"current_range_meters":8000,"station_id":"ce4bh692rcd13ifvqea0","pricing_plan_id":"cebpf4jnsgd1na2vs0mg"},{"bike_id":"092bee7a-001e-4288-90f2-941da215f076","system_id":"levelo_inurba_marseille","lat":43.3127,"lon":5.40169,"is_reserved":false,"is_disabled":false,"rental_uris":{"android":"levelo://app?vid=092bee7a-001e-4288-90f2-941da215f076","ios":"levelo://app?vid=092bee7a-001e-4288-90f2-941da215f076"},"vehicle_type_id":"4","last_reported":1726945599,"current_range_meters":5600,"station_id":"ce4bh092rcd13ifvqd30","pricing_plan_id":"cebpf4jnsgd1na2vs0mg"},{"bike_id":"ba2c3571-a383-437b-b9f4-9f74a0db820e","system_id":"levelo_inurba_marseille","lat":43.28676,"lon":5.3866,"is_reserved":false,"is_disabled":false,"rental_uris":{"android":"levelo://app?vid=ba2c3571-a383-437b-b9f4-9f74a0db820e","ios":"levelo://app?vid=ba2c3571-a383-437b-b9f4-9f74a0db820e"},"vehicle_type_id":"4","last_reported":1726945599,"current_range_meters":4400,"station_id":"ce4bh492rcd13ifvqdug","pricing_plan_id":"cebpf4jnsgd1na2vs0mg"},{"bike_id":"6e2fd8fb-799c-468d-a60b-38d2bf81aa37","system_id":"levelo_inurba_marseille","lat":43.23957,"lon":5.36635,"is_reserved":false,"is_disabled":false,"rental_uris":{"android":"levelo://app?vid=6e2fd8fb-799c-468d-a60b-38d2bf81aa37","ios":"levelo://app?vid=6e2fd8fb-799c-468d-a60b-38d2bf81aa37"},"vehicle_type_id":"4","last_reported":1726945599,"current_range_meters":38000,"station_id":"ce4bhi12rcd13ifvqfp0","pricing_plan_id":"cebpf4jnsgd1na2vs0mg"},{"bike_id":"e8c65b52-25be-46da-94b4-ec12aee37c94","system_id":"levelo_inurba_marseille","lat":43.323364,"lon":5.406194,"is_reserved":false,"is_disabled":false,"rental_uris":{"android":"levelo://app?vid=e8c65b52-25be-46da-94b4-ec12aee37c94","ios":"levelo://app?vid=e8c65b52-25be-46da-94b4-ec12aee37c94"},"vehicle_type_id":"4","last_reported":1726945599,"current_range_meters":33600,"station_id":"ce4bhq92rcd13ifvqhjg","pricing_plan_id":"cebpf4jnsgd1na2vs0mg"},{"bike_id":"5fc62102-b616-493a-bdcc-59810983aaf0","system_id":"levelo_inurba_marseille","lat":43.29509,"lon":5.39407,"is_reserved":false,"is_disabled":false,"rental_uris":{"android":"levelo://app?vid=5fc62102-b616-493a-bdcc-59810983aaf0","ios":"levelo://app?vid=5fc62102-b616-493a-bdcc-59810983aaf0"},"vehicle_type_id":"4","last_reported":1726945599,"current_range_meters":19200,"station_id":"ce4bh292rcd13ifvqdf0","pricing_plan_id":"cebpf4jnsgd1na2vs0mg"},{"bike_id":"f196cae4-4da8-4191-8e3a-3f8fcdaa11a6","system_id":"levelo_inurba_marseille","lat":43.31074,"lon":5.38362,"is_reserved":false,"is_disabled":false,"rental_uris":{"android":"levelo://app?vid=f196cae4-4da8-4191-8e3a-3f8fcdaa11a6","ios":"levelo://app?vid=f196cae4-4da8-4191-8e3a-3f8fcdaa11a6"},"vehicle_type_id":"4","last_reported":1726945599,"current_range_meters":36400,"station_id":"ce4bgv92rcd13ifvqcr0","pricing_plan_id":"cebpf4jnsgd1na2vs0mg"},{"bike_id":"149779fc-bc45-458a-857f-33707eedaf6a","system_id":"levelo_inurba_marseille","lat":43.2319,"lon":5.35557,"is_reserved":false,"is_disabled":false,"rental_uris":{"android":"levelo://app?vid=149779fc-bc45-458a-857f-33707eedaf6a","ios":"levelo://app?vid=149779fc-bc45-458a-857f-33707eedaf6a"},"vehicle_type_id":"4","last_reported":1726945599,"current_range_meters":19200,"station_id":"ce4bhu92rcd13ifvqi70","pricing_plan_id":"cebpf4jnsgd1na2vs0mg"},{"bike_id":"adea4142-201e-4d62-8b5f-c33b95d4ba3b","system_id":"levelo_inurba_marseille","lat":43.29434,"lon":5.39756,"is_reserved":false,"is_disabled":false,"rental_uris":{"android":"levelo://app?vid=adea4142-201e-4d62-8b5f-c33b95d4ba3b","ios":"levelo://app?vid=adea4142-201e-4d62-8b5f-c33b95d4ba3b"},"vehicle_type_id":"4","last_reported":1726945599,"current_range_meters":11600,"station_id":"ce4bh3h2rcd13ifvqdo0","pricing_plan_id":"cebpf4jnsgd1na2vs0mg"},{"bike_id":"5c58fd9c-48b2-4d13-a01d-14cfe5be4361","system_id":"levelo_inurba_marseille","lat":43.2925,"lon":5.38453,"is_reserved":false,"is_disabled":false,"rental_uris":{"android":"levelo://app?vid=5c58fd9c-48b2-4d13-a01d-14cfe5be4361","ios":"levelo://app?vid=5c58fd9c-48b2-4d13-a01d-14cfe5be4361"},"vehicle_type_id":"4","last_reported":1726945599,"current_range_meters":8400,"station_id":"ce4bh692rcd13ifvqea0","pricing_plan_id":"cebpf4jnsgd1na2vs0mg"},{"bike_id":"b349b10c-2975-4613-8968-19c31003cf8c","system_id":"levelo_inurba_marseille","lat":43.30084,"lon":5.3907,"is_reserved":false,"is_disabled":false,"rental_uris":{"android":"levelo://app?vid=b349b10c-2975-4613-8968-19c31003cf8c","ios":"levelo://app?vid=b349b10c-2975-4613-8968-19c31003cf8c"},"vehicle_type_id":"4","last_reported":1726945599,"current_range_meters":9600,"station_id":"ce4bh192rcd13ifvqdb0","pricing_plan_id":"cebpf4jnsgd1na2vs0mg"},{"bike_id":"ca6b1ca6-b285-4dc5-ae06-f1139491d957","system_id":"levelo_inurba_marseille","lat":43.29954,"lon":5.41321,"is_reserved":false,"is_disabled":false,"rental_uris":{"android":"levelo://app?vid=ca6b1ca6-b285-4dc5-ae06-f1139491d957","ios":"levelo://app?vid=ca6b1ca6-b285-4dc5-ae06-f1139491d957"},"vehicle_type_id":"4","last_reported":1726945599,"current_range_meters":7200,"station_id":"ce4bhp12rcd13ifvqh9g","pricing_plan_id":"cebpf4jnsgd1na2vs0mg"},{"bike_id":"2d992b30-575e-40af-a678-d3f9aaefc7be","system_id":"levelo_inurba_marseille","lat":43.296258,"lon":5.377112,"is_reserved":false,"is_disabled":false,"rental_uris":{"android":"levelo://app?vid=2d992b30-575e-40af-a678-d3f9aaefc7be","ios":"levelo://app?vid=2d992b30-575e-40af-a678-d3f9aaefc7be"},"vehicle_type_id":"4","last_reported":1726945599,"current_range_meters":28400,"station_id":"ce4bgi92rcd13ifvqb90","pricing_plan_id":"cebpf4jnsgd1na2vs0mg"},{"bike_id":"47647d5c-e275-479e-915e-50b703622fc8","system_id":"levelo_inurba_marseille","lat":43.24814,"lon":5.37459,"is_reserved":false,"is_disabled":false,"rental_uris":{"android":"levelo://app?vid=47647d5c-e275-479e-915e-50b703622fc8","ios":"levelo://app?vid=47647d5c-e275-479e-915e-50b703622fc8"},"vehicle_type_id":"4","last_reported":1726945599,"current_range_meters":38800,"station_id":"ce4bhgh2rcd13ifvqfb0","pricing_plan_id":"cebpf4jnsgd1na2vs0mg"},{"bike_id":"604c9531-be4f-4974-bfe2-bd7828d7386f","system_id":"levelo_inurba_marseille","lat":43.29896,"lon":5.43682,"is_reserved":false,"is_disabled":false,"rental_uris":{"android":"levelo://app?vid=604c9531-be4f-4974-bfe2-bd7828d7386f","ios":"levelo://app?vid=604c9531-be4f-4974-bfe2-bd7828d7386f"},"vehicle_type_id":"4","last_reported":1726945599,"current_range_meters":22400,"station_id":"ce4bhpp2rcd13ifvqhfg","pricing_plan_id":"cebpf4jnsgd1na2vs0mg"},{"bike_id":"bdb2384c-436a-45e2-a3aa-1af1ef13cb60","system_id":"levelo_inurba_marseille","lat":43.28783,"lon":5.39043,"is_reserved":false,"is_disabled":false,"rental_uris":{"android":"levelo://app?vid=bdb2384c-436a-45e2-a3aa-1af1ef13cb60","ios":"levelo://app?vid=bdb2384c-436a-45e2-a3aa-1af1ef13cb60"},"vehicle_type_id":"4","last_reported":1726945599,"current_range_meters":18800,"station_id":"","pricing_plan_id":"cebpf4jnsgd1na2vs0mg"},{"bike_id":"a406015f-c6e7-445e-9553-81ac04e52a78","system_id":"levelo_inurba_marseille","lat":43.25,"lon":5.38925,"is_reserved":false,"is_disabled":false,"rental_uris":{"android":"levelo://app?vid=a406015f-c6e7-445e-9553-81ac04e52a78","ios":"levelo://app?vid=a406015f-c6e7-445e-9553-81ac04e52a78"},"vehicle_type_id":"4","last_reported":1726945599,"current_range_meters":4800,"station_id":"ce4bhgp2rcd13ifvqfd0","pricing_plan_id":"cebpf4jnsgd1na2vs0mg"},{"bike_id":"9832c302-3166-43a5-a7e0-ee08981cae72","system_id":"levelo_inurba_marseille","lat":43.25492,"lon":5.37649,"is_reserved":false,"is_disabled":false,"rental_uris":{"android":"levelo://app?vid=9832c302-3166-43a5-a7e0-ee08981cae72","ios":"levelo://app?vid=9832c302-3166-43a5-a7e0-ee08981cae72"},"vehicle_type_id":"4","last_reported":1726945599,"current_range_meters":12800,"station_id":"ce4bhh12rcd13ifvqff0","pricing_plan_id":"cebpf4jnsgd1na2vs0mg"},{"bike_id":"fb195548-c218-4414-a25e-d6eb3fa5f41a","system_id":"levelo_inurba_marseille","lat":43.294128,"lon":5.386176,"is_reserved":false,"is_disabled":false,"rental_uris":{"android":"levelo://app?vid=fb195548-c218-4414-a25e-d6eb3fa5f41a","ios":"levelo://app?vid=fb195548-c218-4414-a25e-d6eb3fa5f41a"},"vehicle_type_id":"4","last_reported":1726945599,"current_range_meters":8800,"station_id":"ce4bh2h2rcd13ifvqdh0","pricing_plan_id":"cebpf4jnsgd1na2vs0mg"},{"bike_id":"b3a0f2fb-99f3-4a32-b458-c51fa5722e5e","system_id":"levelo_inurba_marseille","lat":43.29981,"lon":5.38495,"is_reserved":false,"is_disabled":false,"rental_uris":{"android":"levelo://app?vid=b3a0f2fb-99f3-4a32-b458-c51fa5722e5e","ios":"levelo://app?vid=b3a0f2fb-99f3-4a32-b458-c51fa5722e5e"},"vehicle_type_id":"4","last_reported":1726945599,"current_range_meters":6000,"station_id":"ce4bgup2rcd13ifvqco0","pricing_plan_id":"cebpf4jnsgd1na2vs0mg"},{"bike_id":"a8d42cf3-65fd-4e73-93d7-47142c435399","system_id":"levelo_inurba_marseille","lat":43.34387,"lon":5.40841,"is_reserved":false,"is_disabled":false,"rental_uris":{"android":"levelo://app?vid=a8d42cf3-65fd-4e73-93d7-47142c435399","ios":"levelo://app?vid=a8d42cf3-65fd-4e73-93d7-47142c435399"},"vehicle_type_id":"4","last_reported":1726945599,"current_range_meters":25200,"station_id":"","pricing_plan_id":"cebpf4jnsgd1na2vs0mg"},{"bike_id":"70c59413-39ae-491c-b378-e84d6bd04937","system_id":"levelo_inurba_marseille","lat":43.2953,"lon":5.38544,"is_reserved":false,"is_disabled":false,"rental_uris":{"android":"levelo://app?vid=70c59413-39ae-491c-b378-e84d6bd04937","ios":"levelo://app?vid=70c59413-39ae-491c-b378-e84d6bd04937"},"vehicle_type_id":"4","last_reported":1726945599,"current_range_meters":7200,"station_id":"ce4bgih2rcd13ifvqba0","pricing_plan_id":"cebpf4jnsgd1na2vs0mg"},{"bike_id":"eb0e566e-7d71-4cc0-bc76-de33a9fd73a8","system_id":"levelo_inurba_marseille","lat":43.23199,"lon":5.3555,"is_reserved":false,"is_disabled":false,"rental_uris":{"android":"levelo://app?vid=eb0e566e-7d71-4cc0-bc76-de33a9fd73a8","ios":"levelo://app?vid=eb0e566e-7d71-4cc0-bc76-de33a9fd73a8"},"vehicle_type_id":"4","last_reported":1726945599,"current_range_meters":38800,"station_id":"ce4bhu92rcd13ifvqi70","pricing_plan_id":"cebpf4jnsgd1na2vs0mg"},{"bike_id":"5496391c-e4a4-48ff-97cb-63ab97b1ed4f","system_id":"levelo_inurba_marseille","lat":43.30423,"lon":5.397445,"is_reserved":false,"is_disabled":false,"rental_uris":{"android":"levelo://app?vid=5496391c-e4a4-48ff-97cb-63ab97b1ed4f","ios":"levelo://app?vid=5496391c-e4a4-48ff-97cb-63ab97b1ed4f"},"vehicle_type_id":"4","last_reported":1726945599,"current_range_meters":38800,"station_id":"ce4bh092rcd13ifvqd20","pricing_plan_id":"cebpf4jnsgd1na2vs0mg"},{"bike_id":"3fbf41e5-61ac-43e4-b61d-239be8b751eb","system_id":"levelo_inurba_marseille","lat":43.29027,"lon":5.38638,"is_reserved":false,"is_disabled":false,"rental_uris":{"android":"levelo://app?vid=3fbf41e5-61ac-43e4-b61d-239be8b751eb","ios":"levelo://app?vid=3fbf41e5-61ac-43e4-b61d-239be8b751eb"},"vehicle_type_id":"4","last_reported":1726945599,"current_range_meters":38800,"station_id":"ce4bh4p2rcd13ifvqe0g","pricing_plan_id":"cebpf4jnsgd1na2vs0mg"},{"bike_id":"c90889c6-4c61-48f2-b140-89043e514d7b","system_id":"levelo_inurba_marseille","lat":43.25945,"lon":5.40903,"is_reserved":false,"is_disabled":false,"rental_uris":{"android":"levelo://app?vid=c90889c6-4c61-48f2-b140-89043e514d7b","ios":"levelo://app?vid=c90889c6-4c61-48f2-b140-89043e514d7b"},"vehicle_type_id":"4","last_reported":1726945599,"current_range_meters":6000,"station_id":"ce4bhm92rcd13ifvqglg","pricing_plan_id":"cebpf4jnsgd1na2vs0mg"},{"bike_id":"a07b2a31-769a-4281-9c10-33ad4501cf2f","system_id":"levelo_inurba_marseille","lat":43.27495,"lon":5.42453,"is_reserved":false,"is_disabled":false,"rental_uris":{"android":"levelo://app?vid=a07b2a31-769a-4281-9c10-33ad4501cf2f","ios":"levelo://app?vid=a07b2a31-769a-4281-9c10-33ad4501cf2f"},"vehicle_type_id":"4","last_reported":1726945599,"current_range_meters":20000,"station_id":"ce4bhn92rcd13ifvqgrg","pricing_plan_id":"cebpf4jnsgd1na2vs0mg"},{"bike_id":"5d991e98-79d5-4dc0-9a6a-d2306ad42c9d","system_id":"levelo_inurba_marseille","lat":43.29543,"lon":5.42259,"is_reserved":false,"is_disabled":false,"rental_uris":{"android":"levelo://app?vid=5d991e98-79d5-4dc0-9a6a-d2306ad42c9d","ios":"levelo://app?vid=5d991e98-79d5-4dc0-9a6a-d2306ad42c9d"},"vehicle_type_id":"4","last_reported":1726945599,"current_range_meters":38800,"station_id":"ce4bhph2rcd13ifvqhdg","pricing_plan_id":"cebpf4jnsgd1na2vs0mg"},{"bike_id":"4a7105d8-29bc-4106-bc28-edb2b4dc3d92","system_id":"levelo_inurba_marseille","lat":43.26941,"lon":5.40256,"is_reserved":false,"is_disabled":false,"rental_uris":{"android":"levelo://app?vid=4a7105d8-29bc-4106-bc28-edb2b4dc3d92","ios":"levelo://app?vid=4a7105d8-29bc-4106-bc28-edb2b4dc3d92"},"vehicle_type_id":"4","last_reported":1726945599,"current_range_meters":38800,"station_id":"cjm6bp8fraef2m0cb0m0","pricing_plan_id":"cebpf4jnsgd1na2vs0mg"},{"bike_id":"7b9dd459-340b-4978-bfb0-6c163a5263e8","system_id":"levelo_inurba_marseille","lat":43.23196,"lon":5.35551,"is_reserved":false,"is_disabled":false,"rental_uris":{"android":"levelo://app?vid=7b9dd459-340b-4978-bfb0-6c163a5263e8","ios":"levelo://app?vid=7b9dd459-340b-4978-bfb0-6c163a5263e8"},"vehicle_type_id":"4","last_reported":1726945599,"current_range_meters":39200,"station_id":"ce4bhu92rcd13ifvqi70","pricing_plan_id":"cebpf4jnsgd1na2vs0mg"},{"bike_id":"82596a06-ff6c-4fb5-be3f-fd6ac5718f7c","system_id":"levelo_inurba_marseille","lat":43.31327,"lon":5.39692,"is_reserved":false,"is_disabled":false,"rental_uris":{"android":"levelo://app?vid=82596a06-ff6c-4fb5-be3f-fd6ac5718f7c","ios":"levelo://app?vid=82596a06-ff6c-4fb5-be3f-fd6ac5718f7c"},"vehicle_type_id":"4","last_reported":1726945599,"current_range_meters":23200,"station_id":"ce4bgvp2rcd13ifvqcu0","pricing_plan_id":"cebpf4jnsgd1na2vs0mg"},{"bike_id":"0cdae095-b117-4e38-b931-84c839aab656","system_id":"levelo_inurba_marseille","lat":43.25246,"lon":5.40246,"is_reserved":false,"is_disabled":false,"rental_uris":{"android":"levelo://app?vid=0cdae095-b117-4e38-b931-84c839aab656","ios":"levelo://app?vid=0cdae095-b117-4e38-b931-84c839aab656"},"vehicle_type_id":"4","last_reported":1726945599,"current_range_meters":5600,"station_id":"ce4bhlh2rcd13ifvqgig","pricing_plan_id":"cebpf4jnsgd1na2vs0mg"},{"bike_id":"498fef21-a39c-43d9-bf1b-f14270a90b12","system_id":"levelo_inurba_marseille","lat":43.28482,"lon":5.3856,"is_reserved":false,"is_disabled":false,"rental_uris":{"android":"levelo://app?vid=498fef21-a39c-43d9-bf1b-f14270a90b12","ios":"levelo://app?vid=498fef21-a39c-43d9-bf1b-f14270a90b12"},"vehicle_type_id":"4","last_reported":1726945599,"current_range_meters":38800,"station_id":"ce4bh8p2rcd13ifvqeb0","pricing_plan_id":"cebpf4jnsgd1na2vs0mg"},{"bike_id":"71aa8592-ddf7-4343-aed4-c00d3433340f","system_id":"levelo_inurba_marseille","lat":43.337444,"lon":5.374475,"is_reserved":false,"is_disabled":false,"rental_uris":{"android":"levelo://app?vid=71aa8592-ddf7-4343-aed4-c00d3433340f","ios":"levelo://app?vid=71aa8592-ddf7-4343-aed4-c00d3433340f"},"vehicle_type_id":"4","last_reported":1726945599,"current_range_meters":34800,"station_id":"","pricing_plan_id":"cebpf4jnsgd1na2vs0mg"},{"bike_id":"3740c6df-06cd-419b-9ae6-b8d9e5eff548","system_id":"levelo_inurba_marseille","lat":43.2753,"lon":5.40935,"is_reserved":false,"is_disabled":false,"rental_uris":{"android":"levelo://app?vid=3740c6df-06cd-419b-9ae6-b8d9e5eff548","ios":"levelo://app?vid=3740c6df-06cd-419b-9ae6-b8d9e5eff548"},"vehicle_type_id":"4","last_reported":1726945599,"current_range_meters":16800,"station_id":"","pricing_plan_id":"cebpf4jnsgd1na2vs0mg"},{"bike_id":"dde6e198-2d4b-449a-9654-31311b80a78a","system_id":"levelo_inurba_marseille","lat":43.26563,"lon":5.37287,"is_reserved":false,"is_disabled":false,"rental_uris":{"android":"levelo://app?vid=dde6e198-2d4b-449a-9654-31311b80a78a","ios":"levelo://app?vid=dde6e198-2d4b-449a-9654-31311b80a78a"},"vehicle_type_id":"4","last_reported":1726945599,"current_range_meters":19200,"station_id":"ce4bhg12rcd13ifvqf70","pricing_plan_id":"cebpf4jnsgd1na2vs0mg"},{"bike_id":"e2995466-2a1b-4f5e-87c2-ce6119f0db27","system_id":"levelo_inurba_marseille","lat":43.2953,"lon":5.39401,"is_reserved":false,"is_disabled":false,"rental_uris":{"android":"levelo://app?vid=e2995466-2a1b-4f5e-87c2-ce6119f0db27","ios":"levelo://app?vid=e2995466-2a1b-4f5e-87c2-ce6119f0db27"},"vehicle_type_id":"4","last_reported":1726945599,"current_range_meters":38800,"station_id":"ce4bh292rcd13ifvqdf0","pricing_plan_id":"cebpf4jnsgd1na2vs0mg"},{"bike_id":"69e87ad1-6813-43d1-9e13-95c60e03a938","system_id":"levelo_inurba_marseille","lat":43.29549,"lon":5.4229,"is_reserved":false,"is_disabled":false,"rental_uris":{"android":"levelo://app?vid=69e87ad1-6813-43d1-9e13-95c60e03a938","ios":"levelo://app?vid=69e87ad1-6813-43d1-9e13-95c60e03a938"},"vehicle_type_id":"4","last_reported":1726945599,"current_range_meters":4800,"station_id":"ce4bhph2rcd13ifvqhdg","pricing_plan_id":"cebpf4jnsgd1na2vs0mg"},{"bike_id":"031c7f84-a43a-4deb-9b43-a573dd4a878e","system_id":"levelo_inurba_marseille","lat":43.30534,"lon":5.36658,"is_reserved":false,"is_disabled":false,"rental_uris":{"android":"levelo://app?vid=031c7f84-a43a-4deb-9b43-a573dd4a878e","ios":"levelo://app?vid=031c7f84-a43a-4deb-9b43-a573dd4a878e"},"vehicle_type_id":"4","last_reported":1726945599,"current_range_meters":29600,"station_id":"","pricing_plan_id":"cebpf4jnsgd1na2vs0mg"},{"bike_id":"6c16b10c-f293-4234-8d58-9537e03546ae","system_id":"levelo_inurba_marseille","lat":43.26195,"lon":5.37449,"is_reserved":false,"is_disabled":false,"rental_uris":{"android":"levelo://app?vid=6c16b10c-f293-4234-8d58-9537e03546ae","ios":"levelo://app?vid=6c16b10c-f293-4234-8d58-9537e03546ae"},"vehicle_type_id":"4","last_reported":1726945599,"current_range_meters":38400,"station_id":"ce4bhgp2rcd13ifvqfc0","pricing_plan_id":"cebpf4jnsgd1na2vs0mg"},{"bike_id":"e31d93ab-3ee3-4d27-b8b9-9b2409893879","system_id":"levelo_inurba_marseille","lat":43.29417,"lon":5.38625,"is_reserved":false,"is_disabled":false,"rental_uris":{"android":"levelo://app?vid=e31d93ab-3ee3-4d27-b8b9-9b2409893879","ios":"levelo://app?vid=e31d93ab-3ee3-4d27-b8b9-9b2409893879"},"vehicle_type_id":"4","last_reported":1726945599,"current_range_meters":3200,"station_id":"ce4bh2h2rcd13ifvqdh0","pricing_plan_id":"cebpf4jnsgd1na2vs0mg"},{"bike_id":"e0d63518-ce82-4a35-839c-d51eeb5123a2","system_id":"levelo_inurba_marseille","lat":43.28484,"lon":5.38559,"is_reserved":false,"is_disabled":false,"rental_uris":{"android":"levelo://app?vid=e0d63518-ce82-4a35-839c-d51eeb5123a2","ios":"levelo://app?vid=e0d63518-ce82-4a35-839c-d51eeb5123a2"},"vehicle_type_id":"4","last_reported":1726945599,"current_range_meters":38800,"station_id":"ce4bh8p2rcd13ifvqeb0","pricing_plan_id":"cebpf4jnsgd1na2vs0mg"},{"bike_id":"6528ea46-21d2-4392-8d15-a2e18652b29e","system_id":"levelo_inurba_marseille","lat":43.29194,"lon":5.39307,"is_reserved":false,"is_disabled":false,"rental_uris":{"android":"levelo://app?vid=6528ea46-21d2-4392-8d15-a2e18652b29e","ios":"levelo://app?vid=6528ea46-21d2-4392-8d15-a2e18652b29e"},"vehicle_type_id":"4","last_reported":1726945599,"current_range_meters":38800,"station_id":"ce4bh192rcd13ifvqdd0","pricing_plan_id":"cebpf4jnsgd1na2vs0mg"},{"bike_id":"c5e978bf-ee68-4445-afd5-e95c369b94ca","system_id":"levelo_inurba_marseille","lat":43.30249,"lon":5.400741,"is_reserved":false,"is_disabled":false,"rental_uris":{"android":"levelo://app?vid=c5e978bf-ee68-4445-afd5-e95c369b94ca","ios":"levelo://app?vid=c5e978bf-ee68-4445-afd5-e95c369b94ca"},"vehicle_type_id":"4","last_reported":1726945599,"current_range_meters":38800,"station_id":"ce4bgvh2rcd13ifvqcs0","pricing_plan_id":"cebpf4jnsgd1na2vs0mg"},{"bike_id":"4e72cd3f-3b37-41dd-95d5-fdc15881d494","system_id":"levelo_inurba_marseille","lat":43.30955,"lon":5.39046,"is_reserved":false,"is_disabled":false,"rental_uris":{"android":"levelo://app?vid=4e72cd3f-3b37-41dd-95d5-fdc15881d494","ios":"levelo://app?vid=4e72cd3f-3b37-41dd-95d5-fdc15881d494"},"vehicle_type_id":"4","last_reported":1726945599,"current_range_meters":29600,"station_id":"ce4bgup2rcd13ifvqco0","pricing_plan_id":"cebpf4jnsgd1na2vs0mg"},{"bike_id":"816bf1e4-9b9b-4fda-8c78-7f58782c59df","system_id":"levelo_inurba_marseille","lat":43.28702,"lon":5.39976,"is_reserved":false,"is_disabled":false,"rental_uris":{"android":"levelo://app?vid=816bf1e4-9b9b-4fda-8c78-7f58782c59df","ios":"levelo://app?vid=816bf1e4-9b9b-4fda-8c78-7f58782c59df"},"vehicle_type_id":"4","last_reported":1726945599,"current_range_meters":30800,"station_id":"ce4bho92rcd13ifvqh3g","pricing_plan_id":"cebpf4jnsgd1na2vs0mg"},{"bike_id":"d6ea5d9c-74c0-4ba7-8836-b846ef547067","system_id":"levelo_inurba_marseille","lat":43.26187,"lon":5.37454,"is_reserved":false,"is_disabled":false,"rental_uris":{"android":"levelo://app?vid=d6ea5d9c-74c0-4ba7-8836-b846ef547067","ios":"levelo://app?vid=d6ea5d9c-74c0-4ba7-8836-b846ef547067"},"vehicle_type_id":"4","last_reported":1726945599,"current_range_meters":38800,"station_id":"ce4bhgp2rcd13ifvqfc0","pricing_plan_id":"cebpf4jnsgd1na2vs0mg"},{"bike_id":"ae028a3c-ed03-44b5-91db-8b670bb2b74a","system_id":"levelo_inurba_marseille","lat":43.28471,"lon":5.39238,"is_reserved":false,"is_disabled":false,"rental_uris":{"android":"levelo://app?vid=ae028a3c-ed03-44b5-91db-8b670bb2b74a","ios":"levelo://app?vid=ae028a3c-ed03-44b5-91db-8b670bb2b74a"},"vehicle_type_id":"4","last_reported":1726945599,"current_range_meters":37600,"station_id":"ce4bho12rcd13ifvqh2g","pricing_plan_id":"cebpf4jnsgd1na2vs0mg"},{"bike_id":"569286d6-6177-4cf3-aa11-3aa53d0ca108","system_id":"levelo_inurba_marseille","lat":43.26208,"lon":5.37443,"is_reserved":false,"is_disabled":false,"rental_uris":{"android":"levelo://app?vid=569286d6-6177-4cf3-aa11-3aa53d0ca108","ios":"levelo://app?vid=569286d6-6177-4cf3-aa11-3aa53d0ca108"},"vehicle_type_id":"4","last_reported":1726945599,"current_range_meters":38800,"station_id":"ce4bhgp2rcd13ifvqfc0","pricing_plan_id":"cebpf4jnsgd1na2vs0mg"},{"bike_id":"7c9859c9-8112-4a2b-9458-342dd42ad995","system_id":"levelo_inurba_marseille","lat":43.24809,"lon":5.37459,"is_reserved":false,"is_disabled":false,"rental_uris":{"android":"levelo://app?vid=7c9859c9-8112-4a2b-9458-342dd42ad995","ios":"levelo://app?vid=7c9859c9-8112-4a2b-9458-342dd42ad995"},"vehicle_type_id":"4","last_reported":1726945599,"current_range_meters":14400,"station_id":"ce4bhgh2rcd13ifvqfb0","pricing_plan_id":"cebpf4jnsgd1na2vs0mg"},{"bike_id":"2dd50703-288c-426c-940e-c675ed57cefe","system_id":"levelo_inurba_marseille","lat":43.30137,"lon":5.37424,"is_reserved":false,"is_disabled":false,"rental_uris":{"android":"levelo://app?vid=2dd50703-288c-426c-940e-c675ed57cefe","ios":"levelo://app?vid=2dd50703-288c-426c-940e-c675ed57cefe"},"vehicle_type_id":"4","last_reported":1726945599,"current_range_meters":38800,"station_id":"ce4bgs92rcd13ifvqcc0","pricing_plan_id":"cebpf4jnsgd1na2vs0mg"},{"bike_id":"98928a61-20b5-4a9f-ac31-3630e14d3842","system_id":"levelo_inurba_marseille","lat":43.28669,"lon":5.38659,"is_reserved":false,"is_disabled":false,"rental_uris":{"android":"levelo://app?vid=98928a61-20b5-4a9f-ac31-3630e14d3842","ios":"levelo://app?vid=98928a61-20b5-4a9f-ac31-3630e14d3842"},"vehicle_type_id":"4","last_reported":1726945599,"current_range_meters":26800,"station_id":"ce4bh492rcd13ifvqdug","pricing_plan_id":"cebpf4jnsgd1na2vs0mg"},{"bike_id":"751146ed-28e6-47e8-9dcb-cdc404204273","system_id":"levelo_inurba_marseille","lat":43.25722,"lon":5.41114,"is_reserved":false,"is_disabled":false,"rental_uris":{"android":"levelo://app?vid=751146ed-28e6-47e8-9dcb-cdc404204273","ios":"levelo://app?vid=751146ed-28e6-47e8-9dcb-cdc404204273"},"vehicle_type_id":"4","last_reported":1726945599,"current_range_meters":38000,"station_id":"ce4bhkp2rcd13ifvqgd0","pricing_plan_id":"cebpf4jnsgd1na2vs0mg"},{"bike_id":"22eeb536-04ca-4a78-985d-130469ee37b2","system_id":"levelo_inurba_marseille","lat":43.29025,"lon":5.38645,"is_reserved":false,"is_disabled":false,"rental_uris":{"android":"levelo://app?vid=22eeb536-04ca-4a78-985d-130469ee37b2","ios":"levelo://app?vid=22eeb536-04ca-4a78-985d-130469ee37b2"},"vehicle_type_id":"4","last_reported":1726945599,"current_range_meters":8400,"station_id":"ce4bh4p2rcd13ifvqe0g","pricing_plan_id":"cebpf4jnsgd1na2vs0mg"},{"bike_id":"4f6cd953-65f5-4d4f-a052-70118d864e1d","system_id":"levelo_inurba_marseille","lat":43.29896,"lon":5.43671,"is_reserved":false,"is_disabled":false,"rental_uris":{"android":"levelo://app?vid=4f6cd953-65f5-4d4f-a052-70118d864e1d","ios":"levelo://app?vid=4f6cd953-65f5-4d4f-a052-70118d864e1d"},"vehicle_type_id":"4","last_reported":1726945599,"current_range_meters":7200,"station_id":"ce4bhpp2rcd13ifvqhfg","pricing_plan_id":"cebpf4jnsgd1na2vs0mg"},{"bike_id":"fbe2da7a-82e1-4813-b1e9-8326a780107b","system_id":"levelo_inurba_marseille","lat":43.299164,"lon":5.374641,"is_reserved":false,"is_disabled":false,"rental_uris":{"android":"levelo://app?vid=fbe2da7a-82e1-4813-b1e9-8326a780107b","ios":"levelo://app?vid=fbe2da7a-82e1-4813-b1e9-8326a780107b"},"vehicle_type_id":"4","last_reported":1726945599,"current_range_meters":38800,"station_id":"ce4bgjh2rcd13ifvqbg0","pricing_plan_id":"cebpf4jnsgd1na2vs0mg"},{"bike_id":"742fe014-1f5e-499c-bbc5-66a0cbb87904","system_id":"levelo_inurba_marseille","lat":43.23196,"lon":5.35553,"is_reserved":false,"is_disabled":false,"rental_uris":{"android":"levelo://app?vid=742fe014-1f5e-499c-bbc5-66a0cbb87904","ios":"levelo://app?vid=742fe014-1f5e-499c-bbc5-66a0cbb87904"},"vehicle_type_id":"4","last_reported":1726945599,"current_range_meters":36800,"station_id":"ce4bhu92rcd13ifvqi70","pricing_plan_id":"cebpf4jnsgd1na2vs0mg"},{"bike_id":"98fe7d81-fb73-47f2-937e-1cdd4119f42d","system_id":"levelo_inurba_marseille","lat":43.2989,"lon":5.38903,"is_reserved":false,"is_disabled":false,"rental_uris":{"android":"levelo://app?vid=98fe7d81-fb73-47f2-937e-1cdd4119f42d","ios":"levelo://app?vid=98fe7d81-fb73-47f2-937e-1cdd4119f42d"},"vehicle_type_id":"4","last_reported":1726945599,"current_range_meters":20800,"station_id":"ce4bh392rcd13ifvqdl0","pricing_plan_id":"cebpf4jnsgd1na2vs0mg"},{"bike_id":"feb42740-c719-4916-9efa-d99f861e0e6d","system_id":"levelo_inurba_marseille","lat":43.32473,"lon":5.36575,"is_reserved":false,"is_disabled":false,"rental_uris":{"android":"levelo://app?vid=feb42740-c719-4916-9efa-d99f861e0e6d","ios":"levelo://app?vid=feb42740-c719-4916-9efa-d99f861e0e6d"},"vehicle_type_id":"4","last_reported":1726945599,"current_range_meters":38800,"station_id":"ce4bhs12rcd13ifvqhvg","pricing_plan_id":"cebpf4jnsgd1na2vs0mg"},{"bike_id":"6ab6933a-1d40-4dbd-8eb1-cb7ef6a30762","system_id":"levelo_inurba_marseille","lat":43.290021,"lon":5.356138,"is_reserved":false,"is_disabled":false,"rental_uris":{"android":"levelo://app?vid=6ab6933a-1d40-4dbd-8eb1-cb7ef6a30762","ios":"levelo://app?vid=6ab6933a-1d40-4dbd-8eb1-cb7ef6a30762"},"vehicle_type_id":"4","last_reported":1726945599,"current_range_meters":2000,"station_id":"ce4bh192rcd13ifvqdd0","pricing_plan_id":"cebpf4jnsgd1na2vs0mg"},{"bike_id":"8a5f19b2-b930-44ff-ba36-e74b9e6cfce7","system_id":"levelo_inurba_marseille","lat":43.2926,"lon":5.38444,"is_reserved":false,"is_disabled":false,"rental_uris":{"android":"levelo://app?vid=8a5f19b2-b930-44ff-ba36-e74b9e6cfce7","ios":"levelo://app?vid=8a5f19b2-b930-44ff-ba36-e74b9e6cfce7"},"vehicle_type_id":"4","last_reported":1726945599,"current_range_meters":26800,"station_id":"ce4bh692rcd13ifvqea0","pricing_plan_id":"cebpf4jnsgd1na2vs0mg"},{"bike_id":"bb3a9422-915d-4488-8cc0-5cb0300a82b9","system_id":"levelo_inurba_marseille","lat":43.31686,"lon":5.4047,"is_reserved":false,"is_disabled":false,"rental_uris":{"android":"levelo://app?vid=bb3a9422-915d-4488-8cc0-5cb0300a82b9","ios":"levelo://app?vid=bb3a9422-915d-4488-8cc0-5cb0300a82b9"},"vehicle_type_id":"4","last_reported":1726945599,"current_range_meters":30800,"station_id":"ce4bh012rcd13ifvqd00","pricing_plan_id":"cebpf4jnsgd1na2vs0mg"},{"bike_id":"c775ecb7-3eaa-4b15-938b-cc10bd0e2ff0","system_id":"levelo_inurba_marseille","lat":43.29267,"lon":5.38452,"is_reserved":false,"is_disabled":false,"rental_uris":{"android":"levelo://app?vid=c775ecb7-3eaa-4b15-938b-cc10bd0e2ff0","ios":"levelo://app?vid=c775ecb7-3eaa-4b15-938b-cc10bd0e2ff0"},"vehicle_type_id":"4","last_reported":1726945599,"current_range_meters":38800,"station_id":"ce4bh692rcd13ifvqea0","pricing_plan_id":"cebpf4jnsgd1na2vs0mg"},{"bike_id":"33416e3a-9798-4749-96d0-1d44a69dc932","system_id":"levelo_inurba_marseille","lat":43.29367,"lon":5.37852,"is_reserved":false,"is_disabled":false,"rental_uris":{"android":"levelo://app?vid=33416e3a-9798-4749-96d0-1d44a69dc932","ios":"levelo://app?vid=33416e3a-9798-4749-96d0-1d44a69dc932"},"vehicle_type_id":"4","last_reported":1726945599,"current_range_meters":33600,"station_id":"ce4bgjh2rcd13ifvqbf0","pricing_plan_id":"cebpf4jnsgd1na2vs0mg"},{"bike_id":"ae96f12d-bfb4-4b28-b2b9-bbf2cc1e4184","system_id":"levelo_inurba_marseille","lat":43.30429,"lon":5.39753,"is_reserved":false,"is_disabled":false,"rental_uris":{"android":"levelo://app?vid=ae96f12d-bfb4-4b28-b2b9-bbf2cc1e4184","ios":"levelo://app?vid=ae96f12d-bfb4-4b28-b2b9-bbf2cc1e4184"},"vehicle_type_id":"4","last_reported":1726945599,"current_range_meters":27600,"station_id":"ce4bh092rcd13ifvqd20","pricing_plan_id":"cebpf4jnsgd1na2vs0mg"},{"bike_id":"f74941be-f473-4ce7-9230-0799526567ae","system_id":"levelo_inurba_marseille","lat":43.2319,"lon":5.35548,"is_reserved":false,"is_disabled":false,"rental_uris":{"android":"levelo://app?vid=f74941be-f473-4ce7-9230-0799526567ae","ios":"levelo://app?vid=f74941be-f473-4ce7-9230-0799526567ae"},"vehicle_type_id":"4","last_reported":1726945599,"current_range_meters":38800,"station_id":"ce4bhu92rcd13ifvqi70","pricing_plan_id":"cebpf4jnsgd1na2vs0mg"},{"bike_id":"3d57b6a4-c681-44d9-9d1d-eb9244d1cb05","system_id":"levelo_inurba_marseille","lat":43.2902,"lon":5.38643,"is_reserved":false,"is_disabled":false,"rental_uris":{"android":"levelo://app?vid=3d57b6a4-c681-44d9-9d1d-eb9244d1cb05","ios":"levelo://app?vid=3d57b6a4-c681-44d9-9d1d-eb9244d1cb05"},"vehicle_type_id":"4","last_reported":1726945599,"current_range_meters":38800,"station_id":"ce4bh4p2rcd13ifvqe0g","pricing_plan_id":"cebpf4jnsgd1na2vs0mg"},{"bike_id":"40f12f74-0b0b-47a1-aa19-51a04d3f7344","system_id":"levelo_inurba_marseille","lat":43.28475,"lon":5.38422,"is_reserved":false,"is_disabled":false,"rental_uris":{"android":"levelo://app?vid=40f12f74-0b0b-47a1-aa19-51a04d3f7344","ios":"levelo://app?vid=40f12f74-0b0b-47a1-aa19-51a04d3f7344"},"vehicle_type_id":"4","last_reported":1726945599,"current_range_meters":6800,"station_id":"ce4bh512rcd13ifvqe3g","pricing_plan_id":"cebpf4jnsgd1na2vs0mg"},{"bike_id":"1b0377f1-d878-4328-a741-9dcdd239aabf","system_id":"levelo_inurba_marseille","lat":43.3136,"lon":5.38496,"is_reserved":false,"is_disabled":false,"rental_uris":{"android":"levelo://app?vid=1b0377f1-d878-4328-a741-9dcdd239aabf","ios":"levelo://app?vid=1b0377f1-d878-4328-a741-9dcdd239aabf"},"vehicle_type_id":"4","last_reported":1726945599,"current_range_meters":22000,"station_id":"ce4bgt92rcd13ifvqcf0","pricing_plan_id":"cebpf4jnsgd1na2vs0mg"},{"bike_id":"856ccb8b-ebd5-465d-8319-8d89e91899c6","system_id":"levelo_inurba_marseille","lat":43.255,"lon":5.37654,"is_reserved":false,"is_disabled":false,"rental_uris":{"android":"levelo://app?vid=856ccb8b-ebd5-465d-8319-8d89e91899c6","ios":"levelo://app?vid=856ccb8b-ebd5-465d-8319-8d89e91899c6"},"vehicle_type_id":"4","last_reported":1726945599,"current_range_meters":22800,"station_id":"ce4bhh12rcd13ifvqff0","pricing_plan_id":"cebpf4jnsgd1na2vs0mg"},{"bike_id":"50f928d9-3647-4d4a-af1a-df90d51df24c","system_id":"levelo_inurba_marseille","lat":43.292725,"lon":5.368394,"is_reserved":false,"is_disabled":false,"rental_uris":{"android":"levelo://app?vid=50f928d9-3647-4d4a-af1a-df90d51df24c","ios":"levelo://app?vid=50f928d9-3647-4d4a-af1a-df90d51df24c"},"vehicle_type_id":"4","last_reported":1726945599,"current_range_meters":28800,"station_id":"ce4bhbp2rcd13ifvqesg","pricing_plan_id":"cebpf4jnsgd1na2vs0mg"},{"bike_id":"69ed2595-df42-4795-8076-69b60fe164c4","system_id":"levelo_inurba_marseille","lat":43.31756,"lon":5.39017,"is_reserved":false,"is_disabled":false,"rental_uris":{"android":"levelo://app?vid=69ed2595-df42-4795-8076-69b60fe164c4","ios":"levelo://app?vid=69ed2595-df42-4795-8076-69b60fe164c4"},"vehicle_type_id":"4","last_reported":1726945599,"current_range_meters":24800,"station_id":"ce4bhqp2rcd13ifvqhng","pricing_plan_id":"cebpf4jnsgd1na2vs0mg"},{"bike_id":"4c29bce8-a660-4d62-afb1-b347111ec47f","system_id":"levelo_inurba_marseille","lat":43.29705,"lon":5.36604,"is_reserved":false,"is_disabled":false,"rental_uris":{"android":"levelo://app?vid=4c29bce8-a660-4d62-afb1-b347111ec47f","ios":"levelo://app?vid=4c29bce8-a660-4d62-afb1-b347111ec47f"},"vehicle_type_id":"4","last_reported":1726945599,"current_range_meters":7200,"station_id":"ce4bgn12rcd13ifvqbt0","pricing_plan_id":"cebpf4jnsgd1na2vs0mg"},{"bike_id":"2ce07468-9b3e-42a6-a2fd-7625bfc9d4c1","system_id":"levelo_inurba_marseille","lat":43.28281,"lon":5.35065,"is_reserved":false,"is_disabled":false,"rental_uris":{"android":"levelo://app?vid=2ce07468-9b3e-42a6-a2fd-7625bfc9d4c1","ios":"levelo://app?vid=2ce07468-9b3e-42a6-a2fd-7625bfc9d4c1"},"vehicle_type_id":"4","last_reported":1726945599,"current_range_meters":5600,"station_id":"ce4bhbp2rcd13ifvqerg","pricing_plan_id":"cebpf4jnsgd1na2vs0mg"},{"bike_id":"e302c6f4-a1bd-4722-84ba-9b346261e759","system_id":"levelo_inurba_marseille","lat":43.29598,"lon":5.38098,"is_reserved":false,"is_disabled":false,"rental_uris":{"android":"levelo://app?vid=e302c6f4-a1bd-4722-84ba-9b346261e759","ios":"levelo://app?vid=e302c6f4-a1bd-4722-84ba-9b346261e759"},"vehicle_type_id":"4","last_reported":1726945599,"current_range_meters":38800,"station_id":"ce4bgl12rcd13ifvqbo0","pricing_plan_id":"cebpf4jnsgd1na2vs0mg"},{"bike_id":"fb2b63d9-4a26-4602-9a57-d2caab531ee7","system_id":"levelo_inurba_marseille","lat":43.33717,"lon":5.39187,"is_reserved":false,"is_disabled":false,"rental_uris":{"android":"levelo://app?vid=fb2b63d9-4a26-4602-9a57-d2caab531ee7","ios":"levelo://app?vid=fb2b63d9-4a26-4602-9a57-d2caab531ee7"},"vehicle_type_id":"4","last_reported":1726945599,"current_range_meters":37600,"station_id":"ce4bhr92rcd13ifvqhsg","pricing_plan_id":"cebpf4jnsgd1na2vs0mg"},{"bike_id":"9b973919-94ff-4bb6-8a8f-f49c8dea4648","system_id":"levelo_inurba_marseille","lat":43.2979,"lon":5.38108,"is_reserved":false,"is_disabled":false,"rental_uris":{"android":"levelo://app?vid=9b973919-94ff-4bb6-8a8f-f49c8dea4648","ios":"levelo://app?vid=9b973919-94ff-4bb6-8a8f-f49c8dea4648"},"vehicle_type_id":"4","last_reported":1726945599,"current_range_meters":38800,"station_id":"ce4bgip2rcd13ifvqbb0","pricing_plan_id":"cebpf4jnsgd1na2vs0mg"},{"bike_id":"bcf41d63-205e-40f8-96b6-dc73065ce626","system_id":"levelo_inurba_marseille","lat":43.27917,"lon":5.39577,"is_reserved":false,"is_disabled":false,"rental_uris":{"android":"levelo://app?vid=bcf41d63-205e-40f8-96b6-dc73065ce626","ios":"levelo://app?vid=bcf41d63-205e-40f8-96b6-dc73065ce626"},"vehicle_type_id":"4","last_reported":1726945599,"current_range_meters":9600,"station_id":"ce4bhf92rcd13ifvqf40","pricing_plan_id":"cebpf4jnsgd1na2vs0mg"},{"bike_id":"8eb86fac-56cd-428b-bc51-61c7217fb127","system_id":"levelo_inurba_marseille","lat":43.28656,"lon":5.386601,"is_reserved":false,"is_disabled":false,"rental_uris":{"android":"levelo://app?vid=8eb86fac-56cd-428b-bc51-61c7217fb127","ios":"levelo://app?vid=8eb86fac-56cd-428b-bc51-61c7217fb127"},"vehicle_type_id":"4","last_reported":1726945599,"current_range_meters":11200,"station_id":"ce4bhn12rcd13ifvqgqg","pricing_plan_id":"cebpf4jnsgd1na2vs0mg"},{"bike_id":"f3c781f1-96be-437e-8c24-a93d65622d71","system_id":"levelo_inurba_marseille","lat":43.25826,"lon":5.39436,"is_reserved":false,"is_disabled":false,"rental_uris":{"android":"levelo://app?vid=f3c781f1-96be-437e-8c24-a93d65622d71","ios":"levelo://app?vid=f3c781f1-96be-437e-8c24-a93d65622d71"},"vehicle_type_id":"4","last_reported":1726945599,"current_range_meters":28000,"station_id":"ce4bhip2rcd13ifvqft0","pricing_plan_id":"cebpf4jnsgd1na2vs0mg"},{"bike_id":"93db116e-03dc-445e-afc1-24502c13201e","system_id":"levelo_inurba_marseille","lat":43.29535,"lon":5.38545,"is_reserved":false,"is_disabled":false,"rental_uris":{"android":"levelo://app?vid=93db116e-03dc-445e-afc1-24502c13201e","ios":"levelo://app?vid=93db116e-03dc-445e-afc1-24502c13201e"},"vehicle_type_id":"4","last_reported":1726945599,"current_range_meters":8400,"station_id":"ce4bgih2rcd13ifvqba0","pricing_plan_id":"cebpf4jnsgd1na2vs0mg"},{"bike_id":"ef981166-d3fb-49e1-b065-5c65b2e07633","system_id":"levelo_inurba_marseille","lat":43.30308,"lon":5.39212,"is_reserved":false,"is_disabled":false,"rental_uris":{"android":"levelo://app?vid=ef981166-d3fb-49e1-b065-5c65b2e07633","ios":"levelo://app?vid=ef981166-d3fb-49e1-b065-5c65b2e07633"},"vehicle_type_id":"4","last_reported":1726945599,"current_range_meters":12000,"station_id":"ce4bgkh2rcd13ifvqbk0","pricing_plan_id":"cebpf4jnsgd1na2vs0mg"},{"bike_id":"ac433075-cea9-4f92-b444-ccd3e0887e60","system_id":"levelo_inurba_marseille","lat":43.29034,"lon":5.38645,"is_reserved":false,"is_disabled":false,"rental_uris":{"android":"levelo://app?vid=ac433075-cea9-4f92-b444-ccd3e0887e60","ios":"levelo://app?vid=ac433075-cea9-4f92-b444-ccd3e0887e60"},"vehicle_type_id":"4","last_reported":1726945599,"current_range_meters":38800,"station_id":"ce4bh4p2rcd13ifvqe0g","pricing_plan_id":"cebpf4jnsgd1na2vs0mg"},{"bike_id":"30d100a6-13f4-45af-abe4-c74491ab408b","system_id":"levelo_inurba_marseille","lat":43.28673,"lon":5.38659,"is_reserved":false,"is_disabled":false,"rental_uris":{"android":"levelo://app?vid=30d100a6-13f4-45af-abe4-c74491ab408b","ios":"levelo://app?vid=30d100a6-13f4-45af-abe4-c74491ab408b"},"vehicle_type_id":"4","last_reported":1726945599,"current_range_meters":28400,"station_id":"ce4bh492rcd13ifvqdug","pricing_plan_id":"cebpf4jnsgd1na2vs0mg"},{"bike_id":"addbc346-2436-4423-a8d6-f22c10c3f87e","system_id":"levelo_inurba_marseille","lat":43.294382,"lon":5.397453,"is_reserved":false,"is_disabled":false,"rental_uris":{"android":"levelo://app?vid=addbc346-2436-4423-a8d6-f22c10c3f87e","ios":"levelo://app?vid=addbc346-2436-4423-a8d6-f22c10c3f87e"},"vehicle_type_id":"4","last_reported":1726945599,"current_range_meters":4400,"station_id":"ce4bh3h2rcd13ifvqdo0","pricing_plan_id":"cebpf4jnsgd1na2vs0mg"},{"bike_id":"fa690805-233a-4a70-a9f3-33f1b67cdb1f","system_id":"levelo_inurba_marseille","lat":43.32294,"lon":5.38266,"is_reserved":false,"is_disabled":false,"rental_uris":{"android":"levelo://app?vid=fa690805-233a-4a70-a9f3-33f1b67cdb1f","ios":"levelo://app?vid=fa690805-233a-4a70-a9f3-33f1b67cdb1f"},"vehicle_type_id":"4","last_reported":1726945599,"current_range_meters":10800,"station_id":"ce4bhr12rcd13ifvqhqg","pricing_plan_id":"cebpf4jnsgd1na2vs0mg"},{"bike_id":"897f19b8-7bd8-4a46-b9b4-dbafaea756fb","system_id":"levelo_inurba_marseille","lat":43.24814,"lon":5.37464,"is_reserved":false,"is_disabled":false,"rental_uris":{"android":"levelo://app?vid=897f19b8-7bd8-4a46-b9b4-dbafaea756fb","ios":"levelo://app?vid=897f19b8-7bd8-4a46-b9b4-dbafaea756fb"},"vehicle_type_id":"4","last_reported":1726945599,"current_range_meters":38800,"station_id":"ce4bhgh2rcd13ifvqfb0","pricing_plan_id":"cebpf4jnsgd1na2vs0mg"},{"bike_id":"e92c245e-a57b-4795-9f95-96c3af0f6eb6","system_id":"levelo_inurba_marseille","lat":43.28721,"lon":5.36085,"is_reserved":false,"is_disabled":false,"rental_uris":{"android":"levelo://app?vid=e92c245e-a57b-4795-9f95-96c3af0f6eb6","ios":"levelo://app?vid=e92c245e-a57b-4795-9f95-96c3af0f6eb6"},"vehicle_type_id":"4","last_reported":1726945599,"current_range_meters":28800,"station_id":"cki0cbj6b192h4jlfktg","pricing_plan_id":"cebpf4jnsgd1na2vs0mg"},{"bike_id":"2180b14b-dc94-467b-8720-696dc5e9ff7f","system_id":"levelo_inurba_marseille","lat":43.27216,"lon":5.39177,"is_reserved":false,"is_disabled":false,"rental_uris":{"android":"levelo://app?vid=2180b14b-dc94-467b-8720-696dc5e9ff7f","ios":"levelo://app?vid=2180b14b-dc94-467b-8720-696dc5e9ff7f"},"vehicle_type_id":"4","last_reported":1726945599,"current_range_meters":37600,"station_id":"ce4bhhp2rcd13ifvqfm0","pricing_plan_id":"cebpf4jnsgd1na2vs0mg"},{"bike_id":"716f07ae-c32a-4cb1-9661-c039e55fa02f","system_id":"levelo_inurba_marseille","lat":43.29928,"lon":5.38547,"is_reserved":false,"is_disabled":false,"rental_uris":{"android":"levelo://app?vid=716f07ae-c32a-4cb1-9661-c039e55fa02f","ios":"levelo://app?vid=716f07ae-c32a-4cb1-9661-c039e55fa02f"},"vehicle_type_id":"4","last_reported":1726945599,"current_range_meters":16400,"station_id":"ce4bh392rcd13ifvqdl0","pricing_plan_id":"cebpf4jnsgd1na2vs0mg"},{"bike_id":"e31c90a3-6b6f-4a41-a7c1-11bf6902480d","system_id":"levelo_inurba_marseille","lat":43.296082,"lon":5.369663,"is_reserved":false,"is_disabled":false,"rental_uris":{"android":"levelo://app?vid=e31c90a3-6b6f-4a41-a7c1-11bf6902480d","ios":"levelo://app?vid=e31c90a3-6b6f-4a41-a7c1-11bf6902480d"},"vehicle_type_id":"4","last_reported":1726945599,"current_range_meters":28800,"station_id":"","pricing_plan_id":"cebpf4jnsgd1na2vs0mg"},{"bike_id":"259a79f8-16a2-45c3-af7f-f4c80675e36f","system_id":"levelo_inurba_marseille","lat":43.2816,"lon":5.38646,"is_reserved":false,"is_disabled":false,"rental_uris":{"android":"levelo://app?vid=259a79f8-16a2-45c3-af7f-f4c80675e36f","ios":"levelo://app?vid=259a79f8-16a2-45c3-af7f-f4c80675e36f"},"vehicle_type_id":"4","last_reported":1726945599,"current_range_meters":27200,"station_id":"ce4bh492rcd13ifvqdvg","pricing_plan_id":"cebpf4jnsgd1na2vs0mg"},{"bike_id":"524b08e0-9d43-49f2-b54a-4ff33de08d07","system_id":"levelo_inurba_marseille","lat":43.283539,"lon":5.381107,"is_reserved":false,"is_disabled":false,"rental_uris":{"android":"levelo://app?vid=524b08e0-9d43-49f2-b54a-4ff33de08d07","ios":"levelo://app?vid=524b08e0-9d43-49f2-b54a-4ff33de08d07"},"vehicle_type_id":"4","last_reported":1726945599,"current_range_meters":20000,"station_id":"ce4bh412rcd13ifvqdr0","pricing_plan_id":"cebpf4jnsgd1na2vs0mg"},{"bike_id":"b2763354-ec6c-4733-8de6-6c4493759ae9","system_id":"levelo_inurba_marseille","lat":43.2907,"lon":5.40164,"is_reserved":false,"is_disabled":false,"rental_uris":{"android":"levelo://app?vid=b2763354-ec6c-4733-8de6-6c4493759ae9","ios":"levelo://app?vid=b2763354-ec6c-4733-8de6-6c4493759ae9"},"vehicle_type_id":"4","last_reported":1726945599,"current_range_meters":12400,"station_id":"","pricing_plan_id":"cebpf4jnsgd1na2vs0mg"},{"bike_id":"90a939c5-a982-4ccc-8255-17639c09aeb3","system_id":"levelo_inurba_marseille","lat":43.250122,"lon":5.389235,"is_reserved":false,"is_disabled":false,"rental_uris":{"android":"levelo://app?vid=90a939c5-a982-4ccc-8255-17639c09aeb3","ios":"levelo://app?vid=90a939c5-a982-4ccc-8255-17639c09aeb3"},"vehicle_type_id":"4","last_reported":1726945599,"current_range_meters":18800,"station_id":"ce4bhgp2rcd13ifvqfd0","pricing_plan_id":"cebpf4jnsgd1na2vs0mg"},{"bike_id":"c97d84f0-eeb0-4b09-9d6e-251ca3b377de","system_id":"levelo_inurba_marseille","lat":43.309065,"lon":5.368448,"is_reserved":false,"is_disabled":false,"rental_uris":{"android":"levelo://app?vid=c97d84f0-eeb0-4b09-9d6e-251ca3b377de","ios":"levelo://app?vid=c97d84f0-eeb0-4b09-9d6e-251ca3b377de"},"vehicle_type_id":"4","last_reported":1726945599,"current_range_meters":38000,"station_id":"ce4bgn92rcd13ifvqbvg","pricing_plan_id":"cebpf4jnsgd1na2vs0mg"},{"bike_id":"e31de2a4-85fb-467d-a504-2f3cf4294688","system_id":"levelo_inurba_marseille","lat":43.25819,"lon":5.39437,"is_reserved":false,"is_disabled":false,"rental_uris":{"android":"levelo://app?vid=e31de2a4-85fb-467d-a504-2f3cf4294688","ios":"levelo://app?vid=e31de2a4-85fb-467d-a504-2f3cf4294688"},"vehicle_type_id":"4","last_reported":1726945599,"current_range_meters":12800,"station_id":"ce4bhip2rcd13ifvqft0","pricing_plan_id":"cebpf4jnsgd1na2vs0mg"},{"bike_id":"88a8116c-b259-4ea4-a49c-dc957a30d77c","system_id":"levelo_inurba_marseille","lat":43.286612,"lon":5.386705,"is_reserved":false,"is_disabled":false,"rental_uris":{"android":"levelo://app?vid=88a8116c-b259-4ea4-a49c-dc957a30d77c","ios":"levelo://app?vid=88a8116c-b259-4ea4-a49c-dc957a30d77c"},"vehicle_type_id":"4","last_reported":1726945599,"current_range_meters":29600,"station_id":"ce4bh492rcd13ifvqdug","pricing_plan_id":"cebpf4jnsgd1na2vs0mg"},{"bike_id":"d660767d-b124-438d-b9c7-03657df331ae","system_id":"levelo_inurba_marseille","lat":43.2909,"lon":5.38582,"is_reserved":false,"is_disabled":false,"rental_uris":{"android":"levelo://app?vid=d660767d-b124-438d-b9c7-03657df331ae","ios":"levelo://app?vid=d660767d-b124-438d-b9c7-03657df331ae"},"vehicle_type_id":"4","last_reported":1726945599,"current_range_meters":25200,"station_id":"","pricing_plan_id":"cebpf4jnsgd1na2vs0mg"},{"bike_id":"51ecefa1-80f3-4ed8-b057-611aa28b8f51","system_id":"levelo_inurba_marseille","lat":43.3013,"lon":5.38762,"is_reserved":false,"is_disabled":false,"rental_uris":{"android":"levelo://app?vid=51ecefa1-80f3-4ed8-b057-611aa28b8f51","ios":"levelo://app?vid=51ecefa1-80f3-4ed8-b057-611aa28b8f51"},"vehicle_type_id":"4","last_reported":1726945599,"current_range_meters":8400,"station_id":"ce4bghh2rcd13ifvqb60","pricing_plan_id":"cebpf4jnsgd1na2vs0mg"},{"bike_id":"2b40b9d7-323b-4207-b2de-d3cf4cff3e1f","system_id":"levelo_inurba_marseille","lat":43.23197,"lon":5.35552,"is_reserved":false,"is_disabled":false,"rental_uris":{"android":"levelo://app?vid=2b40b9d7-323b-4207-b2de-d3cf4cff3e1f","ios":"levelo://app?vid=2b40b9d7-323b-4207-b2de-d3cf4cff3e1f"},"vehicle_type_id":"4","last_reported":1726945599,"current_range_meters":19200,"station_id":"ce4bhu92rcd13ifvqi70","pricing_plan_id":"cebpf4jnsgd1na2vs0mg"},{"bike_id":"a374585f-0674-426b-a654-f6d8033027f5","system_id":"levelo_inurba_marseille","lat":43.29013,"lon":5.38133,"is_reserved":false,"is_disabled":false,"rental_uris":{"android":"levelo://app?vid=a374585f-0674-426b-a654-f6d8033027f5","ios":"levelo://app?vid=a374585f-0674-426b-a654-f6d8033027f5"},"vehicle_type_id":"4","last_reported":1726945599,"current_range_meters":12800,"station_id":"ce4bh4p2rcd13ifvqe1g","pricing_plan_id":"cebpf4jnsgd1na2vs0mg"},{"bike_id":"2ec26158-e872-418f-86cb-89db48234da4","system_id":"levelo_inurba_marseille","lat":43.29023,"lon":5.38649,"is_reserved":false,"is_disabled":false,"rental_uris":{"android":"levelo://app?vid=2ec26158-e872-418f-86cb-89db48234da4","ios":"levelo://app?vid=2ec26158-e872-418f-86cb-89db48234da4"},"vehicle_type_id":"4","last_reported":1726945599,"current_range_meters":38800,"station_id":"ce4bh4p2rcd13ifvqe0g","pricing_plan_id":"cebpf4jnsgd1na2vs0mg"},{"bike_id":"d2b8b2d8-b4d7-4399-8ddb-fae1aec2b6d3","system_id":"levelo_inurba_marseille","lat":43.30211,"lon":5.39469,"is_reserved":false,"is_disabled":false,"rental_uris":{"android":"levelo://app?vid=d2b8b2d8-b4d7-4399-8ddb-fae1aec2b6d3","ios":"levelo://app?vid=d2b8b2d8-b4d7-4399-8ddb-fae1aec2b6d3"},"vehicle_type_id":"4","last_reported":1726945599,"current_range_meters":31200,"station_id":"ce4bh0p2rcd13ifvqd70","pricing_plan_id":"cebpf4jnsgd1na2vs0mg"},{"bike_id":"74f512c9-a79b-462f-b398-c6ced5b41fd9","system_id":"levelo_inurba_marseille","lat":43.26207,"lon":5.37445,"is_reserved":false,"is_disabled":false,"rental_uris":{"android":"levelo://app?vid=74f512c9-a79b-462f-b398-c6ced5b41fd9","ios":"levelo://app?vid=74f512c9-a79b-462f-b398-c6ced5b41fd9"},"vehicle_type_id":"4","last_reported":1726945599,"current_range_meters":38800,"station_id":"ce4bhgp2rcd13ifvqfc0","pricing_plan_id":"cebpf4jnsgd1na2vs0mg"},{"bike_id":"f20f670c-aa2a-442b-ad2a-1debbdde948f","system_id":"levelo_inurba_marseille","lat":43.24807,"lon":5.37458,"is_reserved":false,"is_disabled":false,"rental_uris":{"android":"levelo://app?vid=f20f670c-aa2a-442b-ad2a-1debbdde948f","ios":"levelo://app?vid=f20f670c-aa2a-442b-ad2a-1debbdde948f"},"vehicle_type_id":"4","last_reported":1726945599,"current_range_meters":26000,"station_id":"ce4bhgh2rcd13ifvqfb0","pricing_plan_id":"cebpf4jnsgd1na2vs0mg"},{"bike_id":"3fc91e41-7e29-4f23-8382-6c1a4e4fc9ff","system_id":"levelo_inurba_marseille","lat":43.307914,"lon":5.376419,"is_reserved":false,"is_disabled":false,"rental_uris":{"android":"levelo://app?vid=3fc91e41-7e29-4f23-8382-6c1a4e4fc9ff","ios":"levelo://app?vid=3fc91e41-7e29-4f23-8382-6c1a4e4fc9ff"},"vehicle_type_id":"4","last_reported":1726945599,"current_range_meters":9200,"station_id":"ce4bgv92rcd13ifvqcq0","pricing_plan_id":"cebpf4jnsgd1na2vs0mg"},{"bike_id":"22eed634-451a-45fe-b30e-1df8ec92ed0a","system_id":"levelo_inurba_marseille","lat":43.298645,"lon":5.39729,"is_reserved":false,"is_disabled":false,"rental_uris":{"android":"levelo://app?vid=22eed634-451a-45fe-b30e-1df8ec92ed0a","ios":"levelo://app?vid=22eed634-451a-45fe-b30e-1df8ec92ed0a"},"vehicle_type_id":"4","last_reported":1726945599,"current_range_meters":10800,"station_id":"ce4bh0h2rcd13ifvqd50","pricing_plan_id":"cebpf4jnsgd1na2vs0mg"},{"bike_id":"fd75d0de-64a6-4bd1-ba82-21e5b5669e46","system_id":"levelo_inurba_marseille","lat":43.290278,"lon":5.386432,"is_reserved":false,"is_disabled":false,"rental_uris":{"android":"levelo://app?vid=fd75d0de-64a6-4bd1-ba82-21e5b5669e46","ios":"levelo://app?vid=fd75d0de-64a6-4bd1-ba82-21e5b5669e46"},"vehicle_type_id":"4","last_reported":1726945599,"current_range_meters":24800,"station_id":"ce4bh4p2rcd13ifvqe0g","pricing_plan_id":"cebpf4jnsgd1na2vs0mg"},{"bike_id":"df3eb09d-b508-4b53-ad98-20e73bfd2f2c","system_id":"levelo_inurba_marseille","lat":43.29523,"lon":5.39041,"is_reserved":false,"is_disabled":false,"rental_uris":{"android":"levelo://app?vid=df3eb09d-b508-4b53-ad98-20e73bfd2f2c","ios":"levelo://app?vid=df3eb09d-b508-4b53-ad98-20e73bfd2f2c"},"vehicle_type_id":"4","last_reported":1726945599,"current_range_meters":12400,"station_id":"ce4bh3p2rcd13ifvqdp0","pricing_plan_id":"cebpf4jnsgd1na2vs0mg"},{"bike_id":"da048515-ba92-4349-b7d4-e67776331e61","system_id":"levelo_inurba_marseille","lat":43.29535,"lon":5.38544,"is_reserved":false,"is_disabled":false,"rental_uris":{"android":"levelo://app?vid=da048515-ba92-4349-b7d4-e67776331e61","ios":"levelo://app?vid=da048515-ba92-4349-b7d4-e67776331e61"},"vehicle_type_id":"4","last_reported":1726945599,"current_range_meters":4000,"station_id":"ce4bgih2rcd13ifvqba0","pricing_plan_id":"cebpf4jnsgd1na2vs0mg"},{"bike_id":"5f8f423f-e585-4a17-ae92-dbe5b689a8f5","system_id":"levelo_inurba_marseille","lat":43.294202,"lon":5.386146,"is_reserved":false,"is_disabled":false,"rental_uris":{"android":"levelo://app?vid=5f8f423f-e585-4a17-ae92-dbe5b689a8f5","ios":"levelo://app?vid=5f8f423f-e585-4a17-ae92-dbe5b689a8f5"},"vehicle_type_id":"4","last_reported":1726945599,"current_range_meters":36800,"station_id":"ce4bh2h2rcd13ifvqdh0","pricing_plan_id":"cebpf4jnsgd1na2vs0mg"},{"bike_id":"2c6482fe-b8a6-47a4-b2a7-112d12d04ffd","system_id":"levelo_inurba_marseille","lat":43.30951,"lon":5.39039,"is_reserved":false,"is_disabled":false,"rental_uris":{"android":"levelo://app?vid=2c6482fe-b8a6-47a4-b2a7-112d12d04ffd","ios":"levelo://app?vid=2c6482fe-b8a6-47a4-b2a7-112d12d04ffd"},"vehicle_type_id":"4","last_reported":1726945599,"current_range_meters":38800,"station_id":"ce4bgup2rcd13ifvqco0","pricing_plan_id":"cebpf4jnsgd1na2vs0mg"},{"bike_id":"c994dc12-3a2f-473a-8afe-0932445d70f4","system_id":"levelo_inurba_marseille","lat":43.30332,"lon":5.40433,"is_reserved":false,"is_disabled":false,"rental_uris":{"android":"levelo://app?vid=c994dc12-3a2f-473a-8afe-0932445d70f4","ios":"levelo://app?vid=c994dc12-3a2f-473a-8afe-0932445d70f4"},"vehicle_type_id":"4","last_reported":1726945599,"current_range_meters":36400,"station_id":"ce4bh012rcd13ifvqd10","pricing_plan_id":"cebpf4jnsgd1na2vs0mg"},{"bike_id":"f74c9e74-fe06-4128-87bf-3d6b256af659","system_id":"levelo_inurba_marseille","lat":43.296232,"lon":5.377035,"is_reserved":false,"is_disabled":false,"rental_uris":{"android":"levelo://app?vid=f74c9e74-fe06-4128-87bf-3d6b256af659","ios":"levelo://app?vid=f74c9e74-fe06-4128-87bf-3d6b256af659"},"vehicle_type_id":"4","last_reported":1726945599,"current_range_meters":6400,"station_id":"ce4bgi92rcd13ifvqb90","pricing_plan_id":"cebpf4jnsgd1na2vs0mg"},{"bike_id":"31444d97-ada7-4c14-9ccc-e8d8f546def7","system_id":"levelo_inurba_marseille","lat":43.26934,"lon":5.36668,"is_reserved":false,"is_disabled":false,"rental_uris":{"android":"levelo://app?vid=31444d97-ada7-4c14-9ccc-e8d8f546def7","ios":"levelo://app?vid=31444d97-ada7-4c14-9ccc-e8d8f546def7"},"vehicle_type_id":"4","last_reported":1726945599,"current_range_meters":8400,"station_id":"","pricing_plan_id":"cebpf4jnsgd1na2vs0mg"},{"bike_id":"ab97f218-9f41-4ea3-89b0-ec4db0a4d3b4","system_id":"levelo_inurba_marseille","lat":43.25492,"lon":5.37652,"is_reserved":false,"is_disabled":false,"rental_uris":{"android":"levelo://app?vid=ab97f218-9f41-4ea3-89b0-ec4db0a4d3b4","ios":"levelo://app?vid=ab97f218-9f41-4ea3-89b0-ec4db0a4d3b4"},"vehicle_type_id":"4","last_reported":1726945599,"current_range_meters":38800,"station_id":"ce4bhh12rcd13ifvqff0","pricing_plan_id":"cebpf4jnsgd1na2vs0mg"},{"bike_id":"43ea0593-39e4-4bd3-9f8d-7406fdc31a34","system_id":"levelo_inurba_marseille","lat":43.30434,"lon":5.397436,"is_reserved":false,"is_disabled":false,"rental_uris":{"android":"levelo://app?vid=43ea0593-39e4-4bd3-9f8d-7406fdc31a34","ios":"levelo://app?vid=43ea0593-39e4-4bd3-9f8d-7406fdc31a34"},"vehicle_type_id":"4","last_reported":1726945599,"current_range_meters":38800,"station_id":"ce4bh092rcd13ifvqd20","pricing_plan_id":"cebpf4jnsgd1na2vs0mg"},{"bike_id":"87fc8133-e570-4829-b5e5-4da41b878b53","system_id":"levelo_inurba_marseille","lat":43.28938,"lon":5.36642,"is_reserved":false,"is_disabled":false,"rental_uris":{"android":"levelo://app?vid=87fc8133-e570-4829-b5e5-4da41b878b53","ios":"levelo://app?vid=87fc8133-e570-4829-b5e5-4da41b878b53"},"vehicle_type_id":"4","last_reported":1726945599,"current_range_meters":30000,"station_id":"ce4bhap2rcd13ifvqek0","pricing_plan_id":"cebpf4jnsgd1na2vs0mg"},{"bike_id":"27859175-ad86-4979-a4fb-832d62419b10","system_id":"levelo_inurba_marseille","lat":43.29887,"lon":5.38893,"is_reserved":false,"is_disabled":false,"rental_uris":{"android":"levelo://app?vid=27859175-ad86-4979-a4fb-832d62419b10","ios":"levelo://app?vid=27859175-ad86-4979-a4fb-832d62419b10"},"vehicle_type_id":"4","last_reported":1726945599,"current_range_meters":19200,"station_id":"ce4bh392rcd13ifvqdl0","pricing_plan_id":"cebpf4jnsgd1na2vs0mg"},{"bike_id":"7e921de0-11c5-44dc-b9ef-f8b82a4d878f","system_id":"levelo_inurba_marseille","lat":43.309296,"lon":5.368334,"is_reserved":false,"is_disabled":false,"rental_uris":{"android":"levelo://app?vid=7e921de0-11c5-44dc-b9ef-f8b82a4d878f","ios":"levelo://app?vid=7e921de0-11c5-44dc-b9ef-f8b82a4d878f"},"vehicle_type_id":"4","last_reported":1726945599,"current_range_meters":9200,"station_id":"ce4bgn92rcd13ifvqbvg","pricing_plan_id":"cebpf4jnsgd1na2vs0mg"},{"bike_id":"957e4158-2524-46bb-9f3c-09a895f9ac4d","system_id":"levelo_inurba_marseille","lat":43.29904,"lon":5.38137,"is_reserved":false,"is_disabled":false,"rental_uris":{"android":"levelo://app?vid=957e4158-2524-46bb-9f3c-09a895f9ac4d","ios":"levelo://app?vid=957e4158-2524-46bb-9f3c-09a895f9ac4d"},"vehicle_type_id":"4","last_reported":1726945599,"current_range_meters":4400,"station_id":"ce4bgj12rcd13ifvqbc0","pricing_plan_id":"cebpf4jnsgd1na2vs0mg"},{"bike_id":"78ae2fdf-e877-4b8c-851b-0c136fb972bf","system_id":"levelo_inurba_marseille","lat":43.27811,"lon":5.40717,"is_reserved":false,"is_disabled":false,"rental_uris":{"android":"levelo://app?vid=78ae2fdf-e877-4b8c-851b-0c136fb972bf","ios":"levelo://app?vid=78ae2fdf-e877-4b8c-851b-0c136fb972bf"},"vehicle_type_id":"4","last_reported":1726945599,"current_range_meters":10000,"station_id":"ce4bhnh2rcd13ifvqgtg","pricing_plan_id":"cebpf4jnsgd1na2vs0mg"},{"bike_id":"b2c5737d-fe23-4e13-8410-810c01b53443","system_id":"levelo_inurba_marseille","lat":43.28041,"lon":5.36942,"is_reserved":false,"is_disabled":false,"rental_uris":{"android":"levelo://app?vid=b2c5737d-fe23-4e13-8410-810c01b53443","ios":"levelo://app?vid=b2c5737d-fe23-4e13-8410-810c01b53443"},"vehicle_type_id":"4","last_reported":1726945599,"current_range_meters":34000,"station_id":"ce4bha12rcd13ifvqef0","pricing_plan_id":"cebpf4jnsgd1na2vs0mg"},{"bike_id":"a8f6ae9c-1b75-42c4-a985-5eae2eec407f","system_id":"levelo_inurba_marseille","lat":43.27995,"lon":5.40009,"is_reserved":false,"is_disabled":false,"rental_uris":{"android":"levelo://app?vid=a8f6ae9c-1b75-42c4-a985-5eae2eec407f","ios":"levelo://app?vid=a8f6ae9c-1b75-42c4-a985-5eae2eec407f"},"vehicle_type_id":"4","last_reported":1726945599,"current_range_meters":28000,"station_id":"ce4bho92rcd13ifvqh4g","pricing_plan_id":"cebpf4jnsgd1na2vs0mg"},{"bike_id":"ecd87928-9ce4-40b2-bd15-1cb3e0aae524","system_id":"levelo_inurba_marseille","lat":43.24169,"lon":5.36398,"is_reserved":false,"is_disabled":false,"rental_uris":{"android":"levelo://app?vid=ecd87928-9ce4-40b2-bd15-1cb3e0aae524","ios":"levelo://app?vid=ecd87928-9ce4-40b2-bd15-1cb3e0aae524"},"vehicle_type_id":"4","last_reported":1726945599,"current_range_meters":37600,"station_id":"cpo36qri1sfpv3e86is0","pricing_plan_id":"cebpf4jnsgd1na2vs0mg"},{"bike_id":"d323bc23-4105-4d98-87ab-fb3899c88f8a","system_id":"levelo_inurba_marseille","lat":43.23194,"lon":5.35551,"is_reserved":false,"is_disabled":false,"rental_uris":{"android":"levelo://app?vid=d323bc23-4105-4d98-87ab-fb3899c88f8a","ios":"levelo://app?vid=d323bc23-4105-4d98-87ab-fb3899c88f8a"},"vehicle_type_id":"4","last_reported":1726945599,"current_range_meters":36400,"station_id":"ce4bhu92rcd13ifvqi70","pricing_plan_id":"cebpf4jnsgd1na2vs0mg"},{"bike_id":"a95491f4-5ffb-470d-943d-1a4ab34cd6b4","system_id":"levelo_inurba_marseille","lat":43.28691,"lon":5.37406,"is_reserved":false,"is_disabled":false,"rental_uris":{"android":"levelo://app?vid=a95491f4-5ffb-470d-943d-1a4ab34cd6b4","ios":"levelo://app?vid=a95491f4-5ffb-470d-943d-1a4ab34cd6b4"},"vehicle_type_id":"4","last_reported":1726945599,"current_range_meters":33200,"station_id":"ce4bh3p2rcd13ifvqdq0","pricing_plan_id":"cebpf4jnsgd1na2vs0mg"},{"bike_id":"44579055-fda7-4ca9-91ba-1361f1b33c42","system_id":"levelo_inurba_marseille","lat":43.3117,"lon":5.38717,"is_reserved":false,"is_disabled":false,"rental_uris":{"android":"levelo://app?vid=44579055-fda7-4ca9-91ba-1361f1b33c42","ios":"levelo://app?vid=44579055-fda7-4ca9-91ba-1361f1b33c42"},"vehicle_type_id":"4","last_reported":1726945599,"current_range_meters":26000,"station_id":"ce4bgv12rcd13ifvqcp0","pricing_plan_id":"cebpf4jnsgd1na2vs0mg"},{"bike_id":"430848a7-fc28-4e6b-8148-2262f6e47389","system_id":"levelo_inurba_marseille","lat":43.319999,"lon":5.38183,"is_reserved":false,"is_disabled":false,"rental_uris":{"android":"levelo://app?vid=430848a7-fc28-4e6b-8148-2262f6e47389","ios":"levelo://app?vid=430848a7-fc28-4e6b-8148-2262f6e47389"},"vehicle_type_id":"4","last_reported":1726945599,"current_range_meters":11200,"station_id":"ce4bhr12rcd13ifvqhpg","pricing_plan_id":"cebpf4jnsgd1na2vs0mg"},{"bike_id":"56a3f965-4928-4290-8c7a-af669e4f4cb5","system_id":"levelo_inurba_marseille","lat":43.2871,"lon":5.37953,"is_reserved":false,"is_disabled":false,"rental_uris":{"android":"levelo://app?vid=56a3f965-4928-4290-8c7a-af669e4f4cb5","ios":"levelo://app?vid=56a3f965-4928-4290-8c7a-af669e4f4cb5"},"vehicle_type_id":"4","last_reported":1726945599,"current_range_meters":38800,"station_id":"ce4bh9p2rcd13ifvqec0","pricing_plan_id":"cebpf4jnsgd1na2vs0mg"},{"bike_id":"5de90350-eece-4dc9-8c24-5e5f8a365ac4","system_id":"levelo_inurba_marseille","lat":43.30796,"lon":5.43525,"is_reserved":false,"is_disabled":false,"rental_uris":{"android":"levelo://app?vid=5de90350-eece-4dc9-8c24-5e5f8a365ac4","ios":"levelo://app?vid=5de90350-eece-4dc9-8c24-5e5f8a365ac4"},"vehicle_type_id":"4","last_reported":1726945599,"current_range_meters":28000,"station_id":"ce4bhph2rcd13ifvqheg","pricing_plan_id":"cebpf4jnsgd1na2vs0mg"},{"bike_id":"c5119531-6e58-4ed9-911c-bdd8ca593bdc","system_id":"levelo_inurba_marseille","lat":43.27834,"lon":5.39206,"is_reserved":false,"is_disabled":false,"rental_uris":{"android":"levelo://app?vid=c5119531-6e58-4ed9-911c-bdd8ca593bdc","ios":"levelo://app?vid=c5119531-6e58-4ed9-911c-bdd8ca593bdc"},"vehicle_type_id":"4","last_reported":1726945599,"current_range_meters":38400,"station_id":"ce4bhjp2rcd13ifvqga0","pricing_plan_id":"cebpf4jnsgd1na2vs0mg"},{"bike_id":"39e9a406-0efb-4c87-84f3-a5461ab13f98","system_id":"levelo_inurba_marseille","lat":43.29294,"lon":5.37454,"is_reserved":false,"is_disabled":false,"rental_uris":{"android":"levelo://app?vid=39e9a406-0efb-4c87-84f3-a5461ab13f98","ios":"levelo://app?vid=39e9a406-0efb-4c87-84f3-a5461ab13f98"},"vehicle_type_id":"4","last_reported":1726945599,"current_range_meters":38000,"station_id":"ce4bgi12rcd13ifvqb70","pricing_plan_id":"cebpf4jnsgd1na2vs0mg"},{"bike_id":"b3be407b-7cb4-437a-a703-75754320de30","system_id":"levelo_inurba_marseille","lat":43.25494,"lon":5.3765,"is_reserved":false,"is_disabled":false,"rental_uris":{"android":"levelo://app?vid=b3be407b-7cb4-437a-a703-75754320de30","ios":"levelo://app?vid=b3be407b-7cb4-437a-a703-75754320de30"},"vehicle_type_id":"4","last_reported":1726945599,"current_range_meters":34000,"station_id":"ce4bhh12rcd13ifvqff0","pricing_plan_id":"cebpf4jnsgd1na2vs0mg"},{"bike_id":"55d2f8c0-a5c1-4d5b-9e04-3a15e5c74e3e","system_id":"levelo_inurba_marseille","lat":43.28666,"lon":5.38672,"is_reserved":false,"is_disabled":false,"rental_uris":{"android":"levelo://app?vid=55d2f8c0-a5c1-4d5b-9e04-3a15e5c74e3e","ios":"levelo://app?vid=55d2f8c0-a5c1-4d5b-9e04-3a15e5c74e3e"},"vehicle_type_id":"4","last_reported":1726945599,"current_range_meters":6400,"station_id":"ce4bh492rcd13ifvqdug","pricing_plan_id":"cebpf4jnsgd1na2vs0mg"},{"bike_id":"5e78fb85-e163-454f-b47f-06d0c000c116","system_id":"levelo_inurba_marseille","lat":43.29164,"lon":5.38606,"is_reserved":false,"is_disabled":false,"rental_uris":{"android":"levelo://app?vid=5e78fb85-e163-454f-b47f-06d0c000c116","ios":"levelo://app?vid=5e78fb85-e163-454f-b47f-06d0c000c116"},"vehicle_type_id":"4","last_reported":1726945599,"current_range_meters":19200,"station_id":"","pricing_plan_id":"cebpf4jnsgd1na2vs0mg"},{"bike_id":"15d96cbf-d6d6-422a-bf67-8a42c4d7d8d2","system_id":"levelo_inurba_marseille","lat":43.28153,"lon":5.42644,"is_reserved":false,"is_disabled":false,"rental_uris":{"android":"levelo://app?vid=15d96cbf-d6d6-422a-bf67-8a42c4d7d8d2","ios":"levelo://app?vid=15d96cbf-d6d6-422a-bf67-8a42c4d7d8d2"},"vehicle_type_id":"4","last_reported":1726945599,"current_range_meters":35600,"station_id":"ce4bhnh2rcd13ifvqgug","pricing_plan_id":"cebpf4jnsgd1na2vs0mg"},{"bike_id":"417b67da-5db6-4939-bc85-d17f1a193753","system_id":"levelo_inurba_marseille","lat":43.27904,"lon":5.38005,"is_reserved":false,"is_disabled":false,"rental_uris":{"android":"levelo://app?vid=417b67da-5db6-4939-bc85-d17f1a193753","ios":"levelo://app?vid=417b67da-5db6-4939-bc85-d17f1a193753"},"vehicle_type_id":"4","last_reported":1726945599,"current_range_meters":17200,"station_id":"ce4bhf92rcd13ifvqf50","pricing_plan_id":"cebpf4jnsgd1na2vs0mg"},{"bike_id":"bcbe6095-74c6-4e6a-9235-6041481bec8a","system_id":"levelo_inurba_marseille","lat":43.23186,"lon":5.39981,"is_reserved":false,"is_disabled":false,"rental_uris":{"android":"levelo://app?vid=bcbe6095-74c6-4e6a-9235-6041481bec8a","ios":"levelo://app?vid=bcbe6095-74c6-4e6a-9235-6041481bec8a"},"vehicle_type_id":"4","last_reported":1726945599,"current_range_meters":10800,"station_id":"ce4bhn12rcd13ifvqgqg","pricing_plan_id":"cebpf4jnsgd1na2vs0mg"},{"bike_id":"1a6f2e58-a964-4e9c-aef7-7ae314a51736","system_id":"levelo_inurba_marseille","lat":43.31353,"lon":5.38505,"is_reserved":false,"is_disabled":false,"rental_uris":{"android":"levelo://app?vid=1a6f2e58-a964-4e9c-aef7-7ae314a51736","ios":"levelo://app?vid=1a6f2e58-a964-4e9c-aef7-7ae314a51736"},"vehicle_type_id":"4","last_reported":1726945599,"current_range_meters":36000,"station_id":"ce4bgt92rcd13ifvqcf0","pricing_plan_id":"cebpf4jnsgd1na2vs0mg"},{"bike_id":"da2713a2-6928-4531-bdd8-42c9caac36c9","system_id":"levelo_inurba_marseille","lat":43.3199,"lon":5.38156,"is_reserved":false,"is_disabled":false,"rental_uris":{"android":"levelo://app?vid=da2713a2-6928-4531-bdd8-42c9caac36c9","ios":"levelo://app?vid=da2713a2-6928-4531-bdd8-42c9caac36c9"},"vehicle_type_id":"4","last_reported":1726945599,"current_range_meters":18000,"station_id":"ce4bhr12rcd13ifvqhpg","pricing_plan_id":"cebpf4jnsgd1na2vs0mg"},{"bike_id":"38e475f4-eab3-425f-a0ff-36aa9b6f88b8","system_id":"levelo_inurba_marseille","lat":43.2756,"lon":5.38434,"is_reserved":false,"is_disabled":false,"rental_uris":{"android":"levelo://app?vid=38e475f4-eab3-425f-a0ff-36aa9b6f88b8","ios":"levelo://app?vid=38e475f4-eab3-425f-a0ff-36aa9b6f88b8"},"vehicle_type_id":"4","last_reported":1726945599,"current_range_meters":24000,"station_id":"ce4bhh92rcd13ifvqfi0","pricing_plan_id":"cebpf4jnsgd1na2vs0mg"},{"bike_id":"39ade657-6702-4ba0-902b-e32762d68405","system_id":"levelo_inurba_marseille","lat":43.23965,"lon":5.36641,"is_reserved":false,"is_disabled":false,"rental_uris":{"android":"levelo://app?vid=39ade657-6702-4ba0-902b-e32762d68405","ios":"levelo://app?vid=39ade657-6702-4ba0-902b-e32762d68405"},"vehicle_type_id":"4","last_reported":1726945599,"current_range_meters":24400,"station_id":"ce4bhi12rcd13ifvqfp0","pricing_plan_id":"cebpf4jnsgd1na2vs0mg"},{"bike_id":"121a3770-b732-4495-b53b-126ae1b6d688","system_id":"levelo_inurba_marseille","lat":43.31166,"lon":5.38725,"is_reserved":false,"is_disabled":false,"rental_uris":{"android":"levelo://app?vid=121a3770-b732-4495-b53b-126ae1b6d688","ios":"levelo://app?vid=121a3770-b732-4495-b53b-126ae1b6d688"},"vehicle_type_id":"4","last_reported":1726945599,"current_range_meters":17600,"station_id":"ce4bgv12rcd13ifvqcp0","pricing_plan_id":"cebpf4jnsgd1na2vs0mg"},{"bike_id":"36615353-e91a-4a0e-8492-8e830758e968","system_id":"levelo_inurba_marseille","lat":43.29297,"lon":5.3745,"is_reserved":false,"is_disabled":false,"rental_uris":{"android":"levelo://app?vid=36615353-e91a-4a0e-8492-8e830758e968","ios":"levelo://app?vid=36615353-e91a-4a0e-8492-8e830758e968"},"vehicle_type_id":"4","last_reported":1726945599,"current_range_meters":6800,"station_id":"ce4bgi12rcd13ifvqb70","pricing_plan_id":"cebpf4jnsgd1na2vs0mg"},{"bike_id":"fb52396c-1b69-4689-a0ec-7b8c5b37524c","system_id":"levelo_inurba_marseille","lat":43.27865,"lon":5.38094,"is_reserved":false,"is_disabled":false,"rental_uris":{"android":"levelo://app?vid=fb52396c-1b69-4689-a0ec-7b8c5b37524c","ios":"levelo://app?vid=fb52396c-1b69-4689-a0ec-7b8c5b37524c"},"vehicle_type_id":"4","last_reported":1726945599,"current_range_meters":3600,"station_id":"","pricing_plan_id":"cebpf4jnsgd1na2vs0mg"},{"bike_id":"a6b37efd-f01a-418d-aa28-f5510cea81bf","system_id":"levelo_inurba_marseille","lat":43.298327,"lon":5.405594,"is_reserved":false,"is_disabled":false,"rental_uris":{"android":"levelo://app?vid=a6b37efd-f01a-418d-aa28-f5510cea81bf","ios":"levelo://app?vid=a6b37efd-f01a-418d-aa28-f5510cea81bf"},"vehicle_type_id":"4","last_reported":1726945599,"current_range_meters":35600,"station_id":"","pricing_plan_id":"cebpf4jnsgd1na2vs0mg"},{"bike_id":"fa2d61f7-0c2c-480f-b306-060d4735e9f3","system_id":"levelo_inurba_marseille","lat":43.281189,"lon":5.36898,"is_reserved":false,"is_disabled":false,"rental_uris":{"android":"levelo://app?vid=fa2d61f7-0c2c-480f-b306-060d4735e9f3","ios":"levelo://app?vid=fa2d61f7-0c2c-480f-b306-060d4735e9f3"},"vehicle_type_id":"4","last_reported":1726945599,"current_range_meters":17200,"station_id":"ce4bha12rcd13ifvqef0","pricing_plan_id":"cebpf4jnsgd1na2vs0mg"},{"bike_id":"1ac24fe1-9bf9-40a9-beab-c44878759a83","system_id":"levelo_inurba_marseille","lat":43.30135,"lon":5.38782,"is_reserved":false,"is_disabled":false,"rental_uris":{"android":"levelo://app?vid=1ac24fe1-9bf9-40a9-beab-c44878759a83","ios":"levelo://app?vid=1ac24fe1-9bf9-40a9-beab-c44878759a83"},"vehicle_type_id":"4","last_reported":1726945599,"current_range_meters":38000,"station_id":"ce4bghh2rcd13ifvqb60","pricing_plan_id":"cebpf4jnsgd1na2vs0mg"},{"bike_id":"e10a4c0c-da5a-4fce-8ae0-7dc77bb57076","system_id":"levelo_inurba_marseille","lat":43.290924,"lon":5.381082,"is_reserved":false,"is_disabled":false,"rental_uris":{"android":"levelo://app?vid=e10a4c0c-da5a-4fce-8ae0-7dc77bb57076","ios":"levelo://app?vid=e10a4c0c-da5a-4fce-8ae0-7dc77bb57076"},"vehicle_type_id":"4","last_reported":1726945599,"current_range_meters":38000,"station_id":"ce4bh512rcd13ifvqe2g","pricing_plan_id":"cebpf4jnsgd1na2vs0mg"},{"bike_id":"43efc3fd-1cc8-4bfe-b813-a1f0a5c8dbc3","system_id":"levelo_inurba_marseille","lat":43.272064,"lon":5.391396,"is_reserved":false,"is_disabled":false,"rental_uris":{"android":"levelo://app?vid=43efc3fd-1cc8-4bfe-b813-a1f0a5c8dbc3","ios":"levelo://app?vid=43efc3fd-1cc8-4bfe-b813-a1f0a5c8dbc3"},"vehicle_type_id":"4","last_reported":1726945599,"current_range_meters":6000,"station_id":"ce4bhhp2rcd13ifvqfm0","pricing_plan_id":"cebpf4jnsgd1na2vs0mg"},{"bike_id":"63faf33e-ff1d-4143-811b-38adb77b4df7","system_id":"levelo_inurba_marseille","lat":43.2605,"lon":5.39394,"is_reserved":false,"is_disabled":false,"rental_uris":{"android":"levelo://app?vid=63faf33e-ff1d-4143-811b-38adb77b4df7","ios":"levelo://app?vid=63faf33e-ff1d-4143-811b-38adb77b4df7"},"vehicle_type_id":"4","last_reported":1726945599,"current_range_meters":22800,"station_id":"ce4bhh92rcd13ifvqfj0","pricing_plan_id":"cebpf4jnsgd1na2vs0mg"},{"bike_id":"3a788470-36b4-4ba0-9184-dfd28892cbe8","system_id":"levelo_inurba_marseille","lat":43.30774,"lon":5.37661,"is_reserved":false,"is_disabled":false,"rental_uris":{"android":"levelo://app?vid=3a788470-36b4-4ba0-9184-dfd28892cbe8","ios":"levelo://app?vid=3a788470-36b4-4ba0-9184-dfd28892cbe8"},"vehicle_type_id":"4","last_reported":1726945599,"current_range_meters":3200,"station_id":"ce4bgv92rcd13ifvqcq0","pricing_plan_id":"cebpf4jnsgd1na2vs0mg"},{"bike_id":"71745df1-8511-42d1-b236-94ecb1109e61","system_id":"levelo_inurba_marseille","lat":43.3012,"lon":5.39174,"is_reserved":false,"is_disabled":false,"rental_uris":{"android":"levelo://app?vid=71745df1-8511-42d1-b236-94ecb1109e61","ios":"levelo://app?vid=71745df1-8511-42d1-b236-94ecb1109e61"},"vehicle_type_id":"4","last_reported":1726945599,"current_range_meters":33200,"station_id":"","pricing_plan_id":"cebpf4jnsgd1na2vs0mg"},{"bike_id":"52ae6fb1-fe86-42ed-9d28-26e731c2b819","system_id":"levelo_inurba_marseille","lat":43.26036,"lon":5.37551,"is_reserved":false,"is_disabled":false,"rental_uris":{"android":"levelo://app?vid=52ae6fb1-fe86-42ed-9d28-26e731c2b819","ios":"levelo://app?vid=52ae6fb1-fe86-42ed-9d28-26e731c2b819"},"vehicle_type_id":"4","last_reported":1726945599,"current_range_meters":38800,"station_id":"ce4bhgh2rcd13ifvqfa0","pricing_plan_id":"cebpf4jnsgd1na2vs0mg"},{"bike_id":"491086bd-cac0-4735-90b1-367e9510e8d9","system_id":"levelo_inurba_marseille","lat":43.295998,"lon":5.38102,"is_reserved":false,"is_disabled":false,"rental_uris":{"android":"levelo://app?vid=491086bd-cac0-4735-90b1-367e9510e8d9","ios":"levelo://app?vid=491086bd-cac0-4735-90b1-367e9510e8d9"},"vehicle_type_id":"4","last_reported":1726945599,"current_range_meters":30800,"station_id":"ce4bgup2rcd13ifvqco0","pricing_plan_id":"cebpf4jnsgd1na2vs0mg"},{"bike_id":"22e4a15e-6041-4c71-b288-1c12c69d262d","system_id":"levelo_inurba_marseille","lat":43.33716,"lon":5.39194,"is_reserved":false,"is_disabled":false,"rental_uris":{"android":"levelo://app?vid=22e4a15e-6041-4c71-b288-1c12c69d262d","ios":"levelo://app?vid=22e4a15e-6041-4c71-b288-1c12c69d262d"},"vehicle_type_id":"4","last_reported":1726945599,"current_range_meters":11200,"station_id":"ce4bhr92rcd13ifvqhsg","pricing_plan_id":"cebpf4jnsgd1na2vs0mg"},{"bike_id":"0403c1a2-949c-4d9d-9175-8619aa1a0f21","system_id":"levelo_inurba_marseille","lat":43.2848,"lon":5.38536,"is_reserved":false,"is_disabled":false,"rental_uris":{"android":"levelo://app?vid=0403c1a2-949c-4d9d-9175-8619aa1a0f21","ios":"levelo://app?vid=0403c1a2-949c-4d9d-9175-8619aa1a0f21"},"vehicle_type_id":"4","last_reported":1726945599,"current_range_meters":38800,"station_id":"ce4bh8p2rcd13ifvqeb0","pricing_plan_id":"cebpf4jnsgd1na2vs0mg"},{"bike_id":"8acf1294-a39d-44ec-8787-8dbb25b6064e","system_id":"levelo_inurba_marseille","lat":43.29285,"lon":5.37452,"is_reserved":false,"is_disabled":false,"rental_uris":{"android":"levelo://app?vid=8acf1294-a39d-44ec-8787-8dbb25b6064e","ios":"levelo://app?vid=8acf1294-a39d-44ec-8787-8dbb25b6064e"},"vehicle_type_id":"4","last_reported":1726945599,"current_range_meters":32800,"station_id":"ce4bgi12rcd13ifvqb70","pricing_plan_id":"cebpf4jnsgd1na2vs0mg"},{"bike_id":"f6868429-2339-40b3-bc6e-0062a3705536","system_id":"levelo_inurba_marseille","lat":43.29933,"lon":5.36561,"is_reserved":false,"is_disabled":false,"rental_uris":{"android":"levelo://app?vid=f6868429-2339-40b3-bc6e-0062a3705536","ios":"levelo://app?vid=f6868429-2339-40b3-bc6e-0062a3705536"},"vehicle_type_id":"4","last_reported":1726945599,"current_range_meters":37600,"station_id":"ce4bgm92rcd13ifvqbr0","pricing_plan_id":"cebpf4jnsgd1na2vs0mg"},{"bike_id":"89d4f447-9b9d-4eb5-ab92-42af2b0a2186","system_id":"levelo_inurba_marseille","lat":43.26063,"lon":5.39396,"is_reserved":false,"is_disabled":false,"rental_uris":{"android":"levelo://app?vid=89d4f447-9b9d-4eb5-ab92-42af2b0a2186","ios":"levelo://app?vid=89d4f447-9b9d-4eb5-ab92-42af2b0a2186"},"vehicle_type_id":"4","last_reported":1726945599,"current_range_meters":22800,"station_id":"ce4bhh92rcd13ifvqfj0","pricing_plan_id":"cebpf4jnsgd1na2vs0mg"},{"bike_id":"05938825-2740-4907-bd01-3d283617a1c6","system_id":"levelo_inurba_marseille","lat":43.32354,"lon":5.44014,"is_reserved":false,"is_disabled":false,"rental_uris":{"android":"levelo://app?vid=05938825-2740-4907-bd01-3d283617a1c6","ios":"levelo://app?vid=05938825-2740-4907-bd01-3d283617a1c6"},"vehicle_type_id":"4","last_reported":1726945599,"current_range_meters":6400,"station_id":"","pricing_plan_id":"cebpf4jnsgd1na2vs0mg"},