{"last_updated":1747422528,"ttl":60,"version":"2.2","data":{"bikes":[{"bike_id":"c0b9fd4f-e181-46ce-b0bf-f5119973334f","system_id":"levelo_inurba_marseille","lat":43.33771,"lon":5.37424,"is_reserved":false,"is_disabled":false,"rental_uris":{"android":"levelo://app?vid=c0b9fd4f-e181-46ce-b0bf-f5119973334f","ios":"levelo://app?vid=c0b9fd4f-e181-46ce-b0bf-f5119973334f"},"vehicle_type_id":"4","last_reported":1747422528,"current_range_meters":8800,"station_id":"","pricing_plan_id":"cebpf4jnsgd1na2vs0mg"},{"bike_id":"bbcd6e8b-f610-452f-9b22-da46414cb8aa","system_id":"levelo_inurba_marseille","lat":43.30353,"lon":5.42996,"is_reserved":false,"is_disabled":true,"rental_uris":{"android":"levelo://app?vid=bbcd6e8b-f610-452f-9b22-da46414cb8aa","ios":"levelo://app?vid=bbcd6e8b-f610-452f-9b22-da46414cb8aa"},"vehicle_type_id":"4","last_reported":1747422528,"current_range_meters":0,"station_id":"","pricing_plan_id":"cebpf4jnsgd1na2vs0mg"},{"bike_id":"fc2577e7-1497-425b-9d4f-ab8d7dc843c6","system_id":"levelo_inurba_marseille","lat":43.33771,"lon":5.37485,"is_reserved":false,"is_disabled":true,"rental_uris":{"android":"levelo://app?vid=fc2577e7-1497-425b-9d4f-ab8d7dc843c6","ios":"levelo://app?vid=fc2577e7-1497-425b-9d4f-ab8d7dc843c6"},"vehicle_type_id":"4","last_reported":1747422528,"current_range_meters":0,"station_id":"","pricing_plan_id":"cebpf4jnsgd1na2vs0mg"},{"bike_id":"ce4325af-2448-4172-bdec-81d552ee0b62","system_id":"levelo_inurba_marseille","lat":43.26163,"lon":5.41992,"is_reserved":false,"is_disabled":true,"rental_uris":{"android":"levelo://app?vid=ce4325af-2448-4172-bdec-81d552ee0b62","ios":"levelo://app?vid=ce4325af-2448-4172-bdec-81d552ee0b62"},"vehicle_type_id":"4","last_reported":1747422528,"current_range_meters":0,"station_id":"","pricing_plan_id":"cebpf4jnsgd1na2vs0mg"},{"bike_id":"866e138d-179b-4039-89b0-ce9ec89e22b9","system_id":"levelo_inurba_marseille","lat":43.29632,"lon":5.36865,"is_reserved":false,"is_disabled":true,"rental_uris":{"android":"levelo://app?vid=866e138d-179b-4039-89b0-ce9ec89e22b9","ios":"levelo://app?vid=866e138d-179b-4039-89b0-ce9ec89e22b9"},"vehicle_type_id":"4","last_reported":1747422528,"current_range_meters":0,"station_id":"","pricing_plan_id":"cebpf4jnsgd1na2vs0mg"},{"bike_id":"2b8fbf5f-4106-421b-bd48-29543ccb14db","system_id":"levelo_inurba_marseille","lat":43.23704,"lon":5.36296,"is_reserved":false,"is_disabled":true,"rental_uris":{"android":"levelo://app?vid=2b8fbf5f-4106-421b-bd48-29543ccb14db","ios":"levelo://app?vid=2b8fbf5f-4106-421b-bd48-29543ccb14db"},"vehicle_type_id":"4","last_reported":1747422528,"current_range_meters":0,"station_id":"","pricing_plan_id":"cebpf4jnsgd1na2vs0mg"},{"bike_id":"5de4311e-acc0-4747-9be3-06bcfa4d137e","system_id":"levelo_inurba_marseille","lat":43.31967,"lon":5.3871,"is_reserved":false,"is_disabled":true,"rental_uris":{"android":"levelo://app?vid=5de4311e-acc0-4747-9be3-06bcfa4d137e","ios":"levelo://app?vid=5de4311e-acc0-4747-9be3-06bcfa4d137e"},"vehicle_type_id":"4","last_reported":1747422528,"current_range_meters":0,"station_id":"","pricing_plan_id":"cebpf4jnsgd1na2vs0mg"},{"bike_id":"792567c6-0442-4011-aff0-9c05e25deb48","system_id":"levelo_inurba_marseille","lat":43.337444,"lon":5.374475,"is_reserved":false,"is_disabled":true,"rental_uris":{"android":"levelo://app?vid=792567c6-0442-4011-aff0-9c05e25deb48","ios":"levelo://app?vid=792567c6-0442-4011-aff0-9c05e25deb48"},"vehicle_type_id":"4","last_reported":1747422528,"current_range_meters":0,"station_id":"","pricing_plan_id":"cebpf4jnsgd1na2vs0mg"},{"bike_id":"d5e7b296-1fa4-4f70-9a12-d1b5ceb9e15c","system_id":"levelo_inurba_marseille","lat":43.29951,"lon":5.3654,"is_reserved":false,"is_disabled":true,"rental_uris":{"android":"levelo://app?vid=d5e7b296-1fa4-4f70-9a12-d1b5ceb9e15c","ios":"levelo://app?vid=d5e7b296-1fa4-4f70-9a12-d1b5ceb9e15c"},"vehicle_type_id":"4","last_reported":1747422528,"current_range_meters":0,"station_id":"ce4bgm92rcd13ifvqbr0","pricing_plan_id":"cebpf4jnsgd1na2vs0mg"},{"bike_id":"00a92e6e-5a02-44c1-9ebf-a6eb436db0fc","system_id":"levelo_inurba_marseille","lat":43.31113,"lon":5.37765,"is_reserved":false,"is_disabled":false,"rental_uris":{"android":"levelo://app?vid=00a92e6e-5a02-44c1-9ebf-a6eb436db0fc","ios":"levelo://app?vid=00a92e6e-5a02-44c1-9ebf-a6eb436db0fc"},"vehicle_type_id":"4","last_reported":1747422528,"current_range_meters":0,"station_id":"ce4bgt92rcd13ifvqcg0","pricing_plan_id":"cebpf4jnsgd1na2vs0mg"},{"bike_id":"d47f7337-9656-4eed-801f-63c40dad4449","system_id":"levelo_inurba_marseille","lat":43.28369,"lon":5.38651,"is_reserved":false,"is_disabled":false,"rental_uris":{"android":"levelo://app?vid=d47f7337-9656-4eed-801f-63c40dad4449","ios":"levelo://app?vid=d47f7337-9656-4eed-801f-63c40dad4449"},"vehicle_type_id":"4","last_reported":1747422528,"current_range_meters":0,"station_id":"ce4bh492rcd13ifvqdvg","pricing_plan_id":"cebpf4jnsgd1na2vs0mg"},{"bike_id":"ab62ee30-6a86-460d-a256-785e5da73ae9","system_id":"levelo_inurba_marseille","lat":43.28664,"lon":5.36356,"is_reserved":false,"is_disabled":true,"rental_uris":{"android":"levelo://app?vid=ab62ee30-6a86-460d-a256-785e5da73ae9","ios":"levelo://app?vid=ab62ee30-6a86-460d-a256-785e5da73ae9"},"vehicle_type_id":"4","last_reported":1747422528,"current_range_meters":0,"station_id":"ce4bhah2rcd13ifvqej0","pricing_plan_id":"cebpf4jnsgd1na2vs0mg"},{"bike_id":"d749c6a8-7aec-4cea-a944-e4aa975967ef","system_id":"levelo_inurba_marseille","lat":43.26031,"lon":5.37548,"is_reserved":false,"is_disabled":true,"rental_uris":{"android":"levelo://app?vid=d749c6a8-7aec-4cea-a944-e4aa975967ef","ios":"levelo://app?vid=d749c6a8-7aec-4cea-a944-e4aa975967ef"},"vehicle_type_id":"4","last_reported":1747422528,"current_range_meters":0,"station_id":"ce4bhgh2rcd13ifvqfa0","pricing_plan_id":"cebpf4jnsgd1na2vs0mg"},{"bike_id":"e185a1e6-b93a-4727-8ef2-9259fb0f8c76","system_id":"levelo_inurba_marseille","lat":43.26951,"lon":5.38629,"is_reserved":false,"is_disabled":true,"rental_uris":{"android":"levelo://app?vid=e185a1e6-b93a-4727-8ef2-9259fb0f8c76","ios":"levelo://app?vid=e185a1e6-b93a-4727-8ef2-9259fb0f8c76"},"vehicle_type_id":"4","last_reported":1747422528,"current_range_meters":0,"station_id":"ce4bhh92rcd13ifvqfh0","pricing_plan_id":"cebpf4jnsgd1na2vs0mg"},{"bike_id":"59e21d43-8c6e-4dcc-83b1-e3663050734c","system_id":"levelo_inurba_marseille","lat":43.2587,"lon":5.39897,"is_reserved":false,"is_disabled":true,"rental_uris":{"android":"levelo://app?vid=59e21d43-8c6e-4dcc-83b1-e3663050734c","ios":"levelo://app?vid=59e21d43-8c6e-4dcc-83b1-e3663050734c"},"vehicle_type_id":"4","last_reported":1747422528,"current_range_meters":0,"station_id":"ce4bhl92rcd13ifvqghg","pricing_plan_id":"cebpf4jnsgd1na2vs0mg"},{"bike_id":"57064243-be74-45ba-a287-95ed2b3bb8bd","system_id":"levelo_inurba_marseille","lat":43.29555,"lon":5.42291,"is_reserved":false,"is_disabled":true,"rental_uris":{"android":"levelo://app?vid=57064243-be74-45ba-a287-95ed2b3bb8bd","ios":"levelo://app?vid=57064243-be74-45ba-a287-95ed2b3bb8bd"},"vehicle_type_id":"4","last_reported":1747422528,"current_range_meters":0,"station_id":"ce4bhph2rcd13ifvqhdg","pricing_plan_id":"cebpf4jnsgd1na2vs0mg"},{"bike_id":"af8de6e5-27be-4a46-958c-bb02938b6afe","system_id":"levelo_inurba_marseille","lat":43.30143,"lon":5.38065,"is_reserved":false,"is_disabled":true,"rental_uris":{"android":"levelo://app?vid=af8de6e5-27be-4a46-958c-bb02938b6afe","ios":"levelo://app?vid=af8de6e5-27be-4a46-958c-bb02938b6afe"},"vehicle_type_id":"4","last_reported":1747422528,"current_range_meters":400,"station_id":"ce4bgjp2rcd13ifvqbh0","pricing_plan_id":"cebpf4jnsgd1na2vs0mg"},{"bike_id":"d4f8084c-7d77-4643-a4ad-026fac120220","system_id":"levelo_inurba_marseille","lat":43.29028,"lon":5.38122,"is_reserved":false,"is_disabled":true,"rental_uris":{"android":"levelo://app?vid=d4f8084c-7d77-4643-a4ad-026fac120220","ios":"levelo://app?vid=d4f8084c-7d77-4643-a4ad-026fac120220"},"vehicle_type_id":"4","last_reported":1747422528,"current_range_meters":400,"station_id":"ce4bh4p2rcd13ifvqe1g","pricing_plan_id":"cebpf4jnsgd1na2vs0mg"},{"bike_id":"f0594abd-43aa-4b78-a0c2-25843380638c","system_id":"levelo_inurba_marseille","lat":43.29617,"lon":5.37153,"is_reserved":false,"is_disabled":true,"rental_uris":{"android":"levelo://app?vid=f0594abd-43aa-4b78-a0c2-25843380638c","ios":"levelo://app?vid=f0594abd-43aa-4b78-a0c2-25843380638c"},"vehicle_type_id":"4","last_reported":1747422528,"current_range_meters":800,"station_id":"ce4bgnh2rcd13ifvqc0g","pricing_plan_id":"cebpf4jnsgd1na2vs0mg"},{"bike_id":"292d7c40-19c0-4873-9c04-003e41f9ccb8","system_id":"levelo_inurba_marseille","lat":43.29067,"lon":5.37148,"is_reserved":false,"is_disabled":true,"rental_uris":{"android":"levelo://app?vid=292d7c40-19c0-4873-9c04-003e41f9ccb8","ios":"levelo://app?vid=292d7c40-19c0-4873-9c04-003e41f9ccb8"},"vehicle_type_id":"4","last_reported":1747422528,"current_range_meters":800,"station_id":"ce4bh5p2rcd13ifvqe4g","pricing_plan_id":"cebpf4jnsgd1na2vs0mg"},{"bike_id":"648ab2ab-d9b2-4551-a0cc-db77b4ba8f95","system_id":"levelo_inurba_marseille","lat":43.29024,"lon":5.38125,"is_reserved":false,"is_disabled":true,"rental_uris":{"android":"levelo://app?vid=648ab2ab-d9b2-4551-a0cc-db77b4ba8f95","ios":"levelo://app?vid=648ab2ab-d9b2-4551-a0cc-db77b4ba8f95"},"vehicle_type_id":"4","last_reported":1747422528,"current_range_meters":1200,"station_id":"ce4bh4p2rcd13ifvqe1g","pricing_plan_id":"cebpf4jnsgd1na2vs0mg"},{"bike_id":"6cfece14-86c7-4a59-a270-40b0a78f31fe","system_id":"levelo_inurba_marseille","lat":43.29253,"lon":5.38458,"is_reserved":false,"is_disabled":true,"rental_uris":{"android":"levelo://app?vid=6cfece14-86c7-4a59-a270-40b0a78f31fe","ios":"levelo://app?vid=6cfece14-86c7-4a59-a270-40b0a78f31fe"},"vehicle_type_id":"4","last_reported":1747422528,"current_range_meters":1600,"station_id":"ce4bh692rcd13ifvqea0","pricing_plan_id":"cebpf4jnsgd1na2vs0mg"},{"bike_id":"57a8f527-2f1d-405e-890a-8d0c1065ac3c","system_id":"levelo_inurba_marseille","lat":43.286133,"lon":5.35107,"is_reserved":false,"is_disabled":true,"rental_uris":{"android":"levelo://app?vid=57a8f527-2f1d-405e-890a-8d0c1065ac3c","ios":"levelo://app?vid=57a8f527-2f1d-405e-890a-8d0c1065ac3c"},"vehicle_type_id":"4","last_reported":1747422528,"current_range_meters":1600,"station_id":"ce4bhch2rcd13ifvqeug","pricing_plan_id":"cebpf4jnsgd1na2vs0mg"},{"bike_id":"7fc6c31f-dde1-4ea8-ad91-976071335785","system_id":"levelo_inurba_marseille","lat":43.306088,"lon":5.372272,"is_reserved":false,"is_disabled":true,"rental_uris":{"android":"levelo://app?vid=7fc6c31f-dde1-4ea8-ad91-976071335785","ios":"levelo://app?vid=7fc6c31f-dde1-4ea8-ad91-976071335785"},"vehicle_type_id":"4","last_reported":1747422528,"current_range_meters":2000,"station_id":"ce4bgqh2rcd13ifvqc4g","pricing_plan_id":"cebpf4jnsgd1na2vs0mg"},{"bike_id":"0aa9c3d5-973c-4e20-8e78-cf73b4be2a5c","system_id":"levelo_inurba_marseille","lat":43.30258,"lon":5.40081,"is_reserved":false,"is_disabled":true,"rental_uris":{"android":"levelo://app?vid=0aa9c3d5-973c-4e20-8e78-cf73b4be2a5c","ios":"levelo://app?vid=0aa9c3d5-973c-4e20-8e78-cf73b4be2a5c"},"vehicle_type_id":"4","last_reported":1747422528,"current_range_meters":2000,"station_id":"ce4bgvh2rcd13ifvqcs0","pricing_plan_id":"cebpf4jnsgd1na2vs0mg"},{"bike_id":"a5c91d56-1170-4013-aad9-4ff7bb05ab7b","system_id":"levelo_inurba_marseille","lat":43.28406,"lon":5.37521,"is_reserved":false,"is_disabled":true,"rental_uris":{"android":"levelo://app?vid=a5c91d56-1170-4013-aad9-4ff7bb05ab7b","ios":"levelo://app?vid=a5c91d56-1170-4013-aad9-4ff7bb05ab7b"},"vehicle_type_id":"4","last_reported":1747422528,"current_range_meters":2000,"station_id":"ce4bh412rcd13ifvqds0","pricing_plan_id":"cebpf4jnsgd1na2vs0mg"},{"bike_id":"00957a55-e4f2-4854-8028-cfe2babf9a73","system_id":"levelo_inurba_marseille","lat":43.30367,"lon":5.42485,"is_reserved":false,"is_disabled":true,"rental_uris":{"android":"levelo://app?vid=00957a55-e4f2-4854-8028-cfe2babf9a73","ios":"levelo://app?vid=00957a55-e4f2-4854-8028-cfe2babf9a73"},"vehicle_type_id":"4","last_reported":1747422528,"current_range_meters":2000,"station_id":"ce4bhoh2rcd13ifvqh6g","pricing_plan_id":"cebpf4jnsgd1na2vs0mg"},{"bike_id":"c8107b40-4e78-47e4-a23d-10a935f8e353","system_id":"levelo_inurba_marseille","lat":43.268633,"lon":5.370383,"is_reserved":false,"is_disabled":false,"rental_uris":{"android":"levelo://app?vid=c8107b40-4e78-47e4-a23d-10a935f8e353","ios":"levelo://app?vid=c8107b40-4e78-47e4-a23d-10a935f8e353"},"vehicle_type_id":"4","last_reported":1747422528,"current_range_meters":2800,"station_id":"","pricing_plan_id":"cebpf4jnsgd1na2vs0mg"},{"bike_id":"5d5f5755-5b3b-4308-8b78-c8614cdd189d","system_id":"levelo_inurba_marseille","lat":43.30455,"lon":5.36734,"is_reserved":false,"is_disabled":false,"rental_uris":{"android":"levelo://app?vid=5d5f5755-5b3b-4308-8b78-c8614cdd189d","ios":"levelo://app?vid=5d5f5755-5b3b-4308-8b78-c8614cdd189d"},"vehicle_type_id":"4","last_reported":1747422528,"current_range_meters":2800,"station_id":"","pricing_plan_id":"cebpf4jnsgd1na2vs0mg"},{"bike_id":"c82ba303-cda5-4562-a3de-4f9c3516b52e","system_id":"levelo_inurba_marseille","lat":43.30134,"lon":5.3879,"is_reserved":false,"is_disabled":false,"rental_uris":{"android":"levelo://app?vid=c82ba303-cda5-4562-a3de-4f9c3516b52e","ios":"levelo://app?vid=c82ba303-cda5-4562-a3de-4f9c3516b52e"},"vehicle_type_id":"4","last_reported":1747422528,"current_range_meters":2800,"station_id":"ce4bghh2rcd13ifvqb60","pricing_plan_id":"cebpf4jnsgd1na2vs0mg"},{"bike_id":"c4c24de7-795d-445e-963b-8b3de1dfa81e","system_id":"levelo_inurba_marseille","lat":43.29602,"lon":5.38099,"is_reserved":false,"is_disabled":false,"rental_uris":{"android":"levelo://app?vid=c4c24de7-795d-445e-963b-8b3de1dfa81e","ios":"levelo://app?vid=c4c24de7-795d-445e-963b-8b3de1dfa81e"},"vehicle_type_id":"4","last_reported":1747422528,"current_range_meters":2800,"station_id":"ce4bgl12rcd13ifvqbo0","pricing_plan_id":"cebpf4jnsgd1na2vs0mg"},{"bike_id":"6498c81e-5957-466b-88ce-0620d806a1c4","system_id":"levelo_inurba_marseille","lat":43.32334,"lon":5.40617,"is_reserved":false,"is_disabled":false,"rental_uris":{"android":"levelo://app?vid=6498c81e-5957-466b-88ce-0620d806a1c4","ios":"levelo://app?vid=6498c81e-5957-466b-88ce-0620d806a1c4"},"vehicle_type_id":"4","last_reported":1747422528,"current_range_meters":2800,"station_id":"ce4bhq92rcd13ifvqhjg","pricing_plan_id":"cebpf4jnsgd1na2vs0mg"},{"bike_id":"fb8b2ee6-41e8-498d-92fe-a7f4087d6523","system_id":"levelo_inurba_marseille","lat":43.27558,"lon":5.38438,"is_reserved":false,"is_disabled":false,"rental_uris":{"android":"levelo://app?vid=fb8b2ee6-41e8-498d-92fe-a7f4087d6523","ios":"levelo://app?vid=fb8b2ee6-41e8-498d-92fe-a7f4087d6523"},"vehicle_type_id":"4","last_reported":1747422528,"current_range_meters":3200,"station_id":"ce4bhh92rcd13ifvqfi0","pricing_plan_id":"cebpf4jnsgd1na2vs0mg"},{"bike_id":"3492e47a-1832-4a0e-86aa-1b5dc58f5dd7","system_id":"levelo_inurba_marseille","lat":43.29929,"lon":5.36541,"is_reserved":false,"is_disabled":false,"rental_uris":{"android":"levelo://app?vid=3492e47a-1832-4a0e-86aa-1b5dc58f5dd7","ios":"levelo://app?vid=3492e47a-1832-4a0e-86aa-1b5dc58f5dd7"},"vehicle_type_id":"4","last_reported":1747422528,"current_range_meters":3600,"station_id":"ce4bgm92rcd13ifvqbr0","pricing_plan_id":"cebpf4jnsgd1na2vs0mg"},{"bike_id":"9ea41df4-65bf-44da-be8e-78e49c42a1fb","system_id":"levelo_inurba_marseille","lat":43.28609,"lon":5.37059,"is_reserved":false,"is_disabled":false,"rental_uris":{"android":"levelo://app?vid=9ea41df4-65bf-44da-be8e-78e49c42a1fb","ios":"levelo://app?vid=9ea41df4-65bf-44da-be8e-78e49c42a1fb"},"vehicle_type_id":"4","last_reported":1747422528,"current_range_meters":3600,"station_id":"ce4bht12rcd13ifvqi60","pricing_plan_id":"cebpf4jnsgd1na2vs0mg"},{"bike_id":"cc68eba5-3d77-4666-8cdb-36b8909a11bb","system_id":"levelo_inurba_marseille","lat":43.28104,"lon":5.37844,"is_reserved":false,"is_disabled":false,"rental_uris":{"android":"levelo://app?vid=cc68eba5-3d77-4666-8cdb-36b8909a11bb","ios":"levelo://app?vid=cc68eba5-3d77-4666-8cdb-36b8909a11bb"},"vehicle_type_id":"4","last_reported":1747422528,"current_range_meters":4400,"station_id":"ce4bha12rcd13ifvqee0","pricing_plan_id":"cebpf4jnsgd1na2vs0mg"},{"bike_id":"44b99538-fb26-4f4c-9469-128b12406ff3","system_id":"levelo_inurba_marseille","lat":43.28665,"lon":5.36351,"is_reserved":false,"is_disabled":false,"rental_uris":{"android":"levelo://app?vid=44b99538-fb26-4f4c-9469-128b12406ff3","ios":"levelo://app?vid=44b99538-fb26-4f4c-9469-128b12406ff3"},"vehicle_type_id":"4","last_reported":1747422528,"current_range_meters":4400,"station_id":"ce4bhah2rcd13ifvqej0","pricing_plan_id":"cebpf4jnsgd1na2vs0mg"},{"bike_id":"cab14028-560b-43a8-95f2-6e5dfabcc846","system_id":"levelo_inurba_marseille","lat":43.27813,"lon":5.40712,"is_reserved":false,"is_disabled":false,"rental_uris":{"android":"levelo://app?vid=cab14028-560b-43a8-95f2-6e5dfabcc846","ios":"levelo://app?vid=cab14028-560b-43a8-95f2-6e5dfabcc846"},"vehicle_type_id":"4","last_reported":1747422528,"current_range_meters":4400,"station_id":"ce4bhnh2rcd13ifvqgtg","pricing_plan_id":"cebpf4jnsgd1na2vs0mg"},{"bike_id":"1de1de5e-af55-4f6f-aee1-bc9f4894e6a0","system_id":"levelo_inurba_marseille","lat":43.29535,"lon":5.38545,"is_reserved":false,"is_disabled":false,"rental_uris":{"android":"levelo://app?vid=1de1de5e-af55-4f6f-aee1-bc9f4894e6a0","ios":"levelo://app?vid=1de1de5e-af55-4f6f-aee1-bc9f4894e6a0"},"vehicle_type_id":"4","last_reported":1747422528,"current_range_meters":4800,"station_id":"ce4bgih2rcd13ifvqba0","pricing_plan_id":"cebpf4jnsgd1na2vs0mg"},{"bike_id":"2ecffd25-d75f-429d-a11d-6326fd368422","system_id":"levelo_inurba_marseille","lat":43.30205,"lon":5.36658,"is_reserved":false,"is_disabled":false,"rental_uris":{"android":"levelo://app?vid=2ecffd25-d75f-429d-a11d-6326fd368422","ios":"levelo://app?vid=2ecffd25-d75f-429d-a11d-6326fd368422"},"vehicle_type_id":"4","last_reported":1747422528,"current_range_meters":4800,"station_id":"ce4bgrh2rcd13ifvqc8g","pricing_plan_id":"cebpf4jnsgd1na2vs0mg"},{"bike_id":"b2852599-bf37-402a-a532-bbdd03218fc1","system_id":"levelo_inurba_marseille","lat":43.28158,"lon":5.42652,"is_reserved":false,"is_disabled":false,"rental_uris":{"android":"levelo://app?vid=b2852599-bf37-402a-a532-bbdd03218fc1","ios":"levelo://app?vid=b2852599-bf37-402a-a532-bbdd03218fc1"},"vehicle_type_id":"4","last_reported":1747422528,"current_range_meters":4800,"station_id":"ce4bhnh2rcd13ifvqgug","pricing_plan_id":"cebpf4jnsgd1na2vs0mg"},{"bike_id":"365a853c-d08f-418f-a888-90c37c908754","system_id":"levelo_inurba_marseille","lat":43.28078,"lon":5.3966,"is_reserved":false,"is_disabled":false,"rental_uris":{"android":"levelo://app?vid=365a853c-d08f-418f-a888-90c37c908754","ios":"levelo://app?vid=365a853c-d08f-418f-a888-90c37c908754"},"vehicle_type_id":"4","last_reported":1747422528,"current_range_meters":4800,"station_id":"ce4bho12rcd13ifvqh2g","pricing_plan_id":"cebpf4jnsgd1na2vs0mg"},{"bike_id":"767ed713-dbc8-4cdd-8a42-d73e2810bc01","system_id":"levelo_inurba_marseille","lat":43.24158,"lon":5.364,"is_reserved":false,"is_disabled":false,"rental_uris":{"android":"levelo://app?vid=767ed713-dbc8-4cdd-8a42-d73e2810bc01","ios":"levelo://app?vid=767ed713-dbc8-4cdd-8a42-d73e2810bc01"},"vehicle_type_id":"4","last_reported":1747422528,"current_range_meters":4800,"station_id":"cpo36qri1sfpv3e86is0","pricing_plan_id":"cebpf4jnsgd1na2vs0mg"},{"bike_id":"80d0d83f-909d-4568-b4e7-8a3ef4eed2de","system_id":"levelo_inurba_marseille","lat":43.253948,"lon":5.418951,"is_reserved":false,"is_disabled":false,"rental_uris":{"android":"levelo://app?vid=80d0d83f-909d-4568-b4e7-8a3ef4eed2de","ios":"levelo://app?vid=80d0d83f-909d-4568-b4e7-8a3ef4eed2de"},"vehicle_type_id":"4","last_reported":1747422528,"current_range_meters":5600,"station_id":"","pricing_plan_id":"cebpf4jnsgd1na2vs0mg"},{"bike_id":"a35ef56b-63be-4a96-9de7-814693a5818a","system_id":"levelo_inurba_marseille","lat":43.3174,"lon":5.37325,"is_reserved":false,"is_disabled":false,"rental_uris":{"android":"levelo://app?vid=a35ef56b-63be-4a96-9de7-814693a5818a","ios":"levelo://app?vid=a35ef56b-63be-4a96-9de7-814693a5818a"},"vehicle_type_id":"4","last_reported":1747422528,"current_range_meters":5600,"station_id":"","pricing_plan_id":"cebpf4jnsgd1na2vs0mg"},{"bike_id":"fe2f6ef3-3156-40c0-b7e1-0171d92c81d7","system_id":"levelo_inurba_marseille","lat":43.28936,"lon":5.36639,"is_reserved":false,"is_disabled":false,"rental_uris":{"android":"levelo://app?vid=fe2f6ef3-3156-40c0-b7e1-0171d92c81d7","ios":"levelo://app?vid=fe2f6ef3-3156-40c0-b7e1-0171d92c81d7"},"vehicle_type_id":"4","last_reported":1747422528,"current_range_meters":5600,"station_id":"ce4bhap2rcd13ifvqek0","pricing_plan_id":"cebpf4jnsgd1na2vs0mg"},{"bike_id":"aec5af64-5758-4d49-b2f9-eff089336aac","system_id":"levelo_inurba_marseille","lat":43.28091,"lon":5.39663,"is_reserved":false,"is_disabled":false,"rental_uris":{"android":"levelo://app?vid=aec5af64-5758-4d49-b2f9-eff089336aac","ios":"levelo://app?vid=aec5af64-5758-4d49-b2f9-eff089336aac"},"vehicle_type_id":"4","last_reported":1747422528,"current_range_meters":6000,"station_id":"ce4bho12rcd13ifvqh2g","pricing_plan_id":"cebpf4jnsgd1na2vs0mg"},{"bike_id":"d29261bc-d0f2-44dc-a695-adbe4acde62b","system_id":"levelo_inurba_marseille","lat":43.29907,"lon":5.38136,"is_reserved":false,"is_disabled":false,"rental_uris":{"android":"levelo://app?vid=d29261bc-d0f2-44dc-a695-adbe4acde62b","ios":"levelo://app?vid=d29261bc-d0f2-44dc-a695-adbe4acde62b"},"vehicle_type_id":"4","last_reported":1747422528,"current_range_meters":6400,"station_id":"ce4bgj12rcd13ifvqbc0","pricing_plan_id":"cebpf4jnsgd1na2vs0mg"},{"bike_id":"a7b98b3a-aabd-4f6e-9b41-ac71e4527170","system_id":"levelo_inurba_marseille","lat":43.30179,"lon":5.36639,"is_reserved":false,"is_disabled":false,"rental_uris":{"android":"levelo://app?vid=a7b98b3a-aabd-4f6e-9b41-ac71e4527170","ios":"levelo://app?vid=a7b98b3a-aabd-4f6e-9b41-ac71e4527170"},"vehicle_type_id":"4","last_reported":1747422528,"current_range_meters":6400,"station_id":"ce4bgrh2rcd13ifvqc8g","pricing_plan_id":"cebpf4jnsgd1na2vs0mg"},{"bike_id":"cb7e25b1-4730-428d-8d94-9a7734af6730","system_id":"levelo_inurba_marseille","lat":43.25475,"lon":5.37651,"is_reserved":false,"is_disabled":false,"rental_uris":{"android":"levelo://app?vid=cb7e25b1-4730-428d-8d94-9a7734af6730","ios":"levelo://app?vid=cb7e25b1-4730-428d-8d94-9a7734af6730"},"vehicle_type_id":"4","last_reported":1747422528,"current_range_meters":6400,"station_id":"ce4bhh12rcd13ifvqff0","pricing_plan_id":"cebpf4jnsgd1na2vs0mg"},{"bike_id":"da6f1c22-5454-4aac-aa48-eb5d460275a2","system_id":"levelo_inurba_marseille","lat":43.25863,"lon":5.39899,"is_reserved":false,"is_disabled":false,"rental_uris":{"android":"levelo://app?vid=da6f1c22-5454-4aac-aa48-eb5d460275a2","ios":"levelo://app?vid=da6f1c22-5454-4aac-aa48-eb5d460275a2"},"vehicle_type_id":"4","last_reported":1747422528,"current_range_meters":6400,"station_id":"ce4bhl92rcd13ifvqghg","pricing_plan_id":"cebpf4jnsgd1na2vs0mg"},{"bike_id":"ec2cf44a-d2ce-40ed-aaeb-ddb24e07b8b0","system_id":"levelo_inurba_marseille","lat":43.23188,"lon":5.39972,"is_reserved":false,"is_disabled":false,"rental_uris":{"android":"levelo://app?vid=ec2cf44a-d2ce-40ed-aaeb-ddb24e07b8b0","ios":"levelo://app?vid=ec2cf44a-d2ce-40ed-aaeb-ddb24e07b8b0"},"vehicle_type_id":"4","last_reported":1747422528,"current_range_meters":6400,"station_id":"ce4bhn12rcd13ifvqgqg","pricing_plan_id":"cebpf4jnsgd1na2vs0mg"},{"bike_id":"435018a6-be7f-422b-8207-12f74bd632df","system_id":"levelo_inurba_marseille","lat":43.298978,"lon":5.436732,"is_reserved":false,"is_disabled":false,"rental_uris":{"android":"levelo://app?vid=435018a6-be7f-422b-8207-12f74bd632df","ios":"levelo://app?vid=435018a6-be7f-422b-8207-12f74bd632df"},"vehicle_type_id":"4","last_reported":1747422528,"current_range_meters":6400,"station_id":"ce4bhpp2rcd13ifvqhfg","pricing_plan_id":"cebpf4jnsgd1na2vs0mg"},{"bike_id":"4a07484a-afe5-412c-b3c0-444a3bb6c3c7","system_id":"levelo_inurba_marseille","lat":43.32659,"lon":5.40991,"is_reserved":false,"is_disabled":false,"rental_uris":{"android":"levelo://app?vid=4a07484a-afe5-412c-b3c0-444a3bb6c3c7","ios":"levelo://app?vid=4a07484a-afe5-412c-b3c0-444a3bb6c3c7"},"vehicle_type_id":"4","last_reported":1747422528,"current_range_meters":6400,"station_id":"ce4bhpp2rcd13ifvqhgg","pricing_plan_id":"cebpf4jnsgd1na2vs0mg"},{"bike_id":"0de34013-4d8e-4901-bef1-57e4619659cc","system_id":"levelo_inurba_marseille","lat":43.269317,"lon":5.402426,"is_reserved":false,"is_disabled":false,"rental_uris":{"android":"levelo://app?vid=0de34013-4d8e-4901-bef1-57e4619659cc","ios":"levelo://app?vid=0de34013-4d8e-4901-bef1-57e4619659cc"},"vehicle_type_id":"4","last_reported":1747422528,"current_range_meters":6400,"station_id":"cjm6bp8fraef2m0cb0m0","pricing_plan_id":"cebpf4jnsgd1na2vs0mg"},{"bike_id":"42d1b6f9-fb77-4ddb-969e-2d2c1f5a3ee4","system_id":"levelo_inurba_marseille","lat":43.28343,"lon":5.38114,"is_reserved":false,"is_disabled":false,"rental_uris":{"android":"levelo://app?vid=42d1b6f9-fb77-4ddb-969e-2d2c1f5a3ee4","ios":"levelo://app?vid=42d1b6f9-fb77-4ddb-969e-2d2c1f5a3ee4"},"vehicle_type_id":"4","last_reported":1747422528,"current_range_meters":6800,"station_id":"ce4bh412rcd13ifvqdr0","pricing_plan_id":"cebpf4jnsgd1na2vs0mg"},{"bike_id":"92bdeb5c-0d8f-4588-9a82-ee53cfe3c124","system_id":"levelo_inurba_marseille","lat":43.288496,"lon":5.358374,"is_reserved":false,"is_disabled":false,"rental_uris":{"android":"levelo://app?vid=92bdeb5c-0d8f-4588-9a82-ee53cfe3c124","ios":"levelo://app?vid=92bdeb5c-0d8f-4588-9a82-ee53cfe3c124"},"vehicle_type_id":"4","last_reported":1747422528,"current_range_meters":6800,"station_id":"ce4bhb12rcd13ifvqem0","pricing_plan_id":"cebpf4jnsgd1na2vs0mg"},{"bike_id":"6fa9e772-3d07-48cc-af00-0a04d4ffa1a2","system_id":"levelo_inurba_marseille","lat":43.25087,"lon":5.40372,"is_reserved":false,"is_disabled":false,"rental_uris":{"android":"levelo://app?vid=6fa9e772-3d07-48cc-af00-0a04d4ffa1a2","ios":"levelo://app?vid=6fa9e772-3d07-48cc-af00-0a04d4ffa1a2"},"vehicle_type_id":"4","last_reported":1747422528,"current_range_meters":6800,"station_id":"ce4bhlh2rcd13ifvqgig","pricing_plan_id":"cebpf4jnsgd1na2vs0mg"},{"bike_id":"6a40f6b3-2c29-4e26-bff5-f1f4e93c37a5","system_id":"levelo_inurba_marseille","lat":43.28146,"lon":5.42645,"is_reserved":false,"is_disabled":false,"rental_uris":{"android":"levelo://app?vid=6a40f6b3-2c29-4e26-bff5-f1f4e93c37a5","ios":"levelo://app?vid=6a40f6b3-2c29-4e26-bff5-f1f4e93c37a5"},"vehicle_type_id":"4","last_reported":1747422528,"current_range_meters":6800,"station_id":"ce4bhnh2rcd13ifvqgug","pricing_plan_id":"cebpf4jnsgd1na2vs0mg"},{"bike_id":"a941293d-0cbc-4ae3-8cef-d89a2cdcb237","system_id":"levelo_inurba_marseille","lat":43.29555,"lon":5.42289,"is_reserved":false,"is_disabled":false,"rental_uris":{"android":"levelo://app?vid=a941293d-0cbc-4ae3-8cef-d89a2cdcb237","ios":"levelo://app?vid=a941293d-0cbc-4ae3-8cef-d89a2cdcb237"},"vehicle_type_id":"4","last_reported":1747422528,"current_range_meters":6800,"station_id":"ce4bhph2rcd13ifvqhdg","pricing_plan_id":"cebpf4jnsgd1na2vs0mg"},{"bike_id":"f768f02c-a770-46ed-b9fb-ed1e435a3c0f","system_id":"levelo_inurba_marseille","lat":43.329386,"lon":5.390078,"is_reserved":false,"is_disabled":false,"rental_uris":{"android":"levelo://app?vid=f768f02c-a770-46ed-b9fb-ed1e435a3c0f","ios":"levelo://app?vid=f768f02c-a770-46ed-b9fb-ed1e435a3c0f"},"vehicle_type_id":"4","last_reported":1747422528,"current_range_meters":7200,"station_id":"","pricing_plan_id":"cebpf4jnsgd1na2vs0mg"},{"bike_id":"9604fdd5-bba4-47b0-81f1-43233cb3badb","system_id":"levelo_inurba_marseille","lat":43.284247,"lon":5.349868,"is_reserved":false,"is_disabled":false,"rental_uris":{"android":"levelo://app?vid=9604fdd5-bba4-47b0-81f1-43233cb3badb","ios":"levelo://app?vid=9604fdd5-bba4-47b0-81f1-43233cb3badb"},"vehicle_type_id":"4","last_reported":1747422528,"current_range_meters":7200,"station_id":"ce4bhbh2rcd13ifvqepg","pricing_plan_id":"cebpf4jnsgd1na2vs0mg"},{"bike_id":"5090aa98-7860-4af7-b8d4-b9228e5204e3","system_id":"levelo_inurba_marseille","lat":43.26012,"lon":5.37564,"is_reserved":false,"is_disabled":false,"rental_uris":{"android":"levelo://app?vid=5090aa98-7860-4af7-b8d4-b9228e5204e3","ios":"levelo://app?vid=5090aa98-7860-4af7-b8d4-b9228e5204e3"},"vehicle_type_id":"4","last_reported":1747422528,"current_range_meters":7200,"station_id":"ce4bhgh2rcd13ifvqfa0","pricing_plan_id":"cebpf4jnsgd1na2vs0mg"},{"bike_id":"5ff43c8f-6e3a-49a1-a714-46bafe896c6f","system_id":"levelo_inurba_marseille","lat":43.26062,"lon":5.39398,"is_reserved":false,"is_disabled":false,"rental_uris":{"android":"levelo://app?vid=5ff43c8f-6e3a-49a1-a714-46bafe896c6f","ios":"levelo://app?vid=5ff43c8f-6e3a-49a1-a714-46bafe896c6f"},"vehicle_type_id":"4","last_reported":1747422528,"current_range_meters":7200,"station_id":"ce4bhh92rcd13ifvqfj0","pricing_plan_id":"cebpf4jnsgd1na2vs0mg"},{"bike_id":"ef56424a-56b4-43c0-a25b-22b4026c6b4f","system_id":"levelo_inurba_marseille","lat":43.323346,"lon":5.406204,"is_reserved":false,"is_disabled":false,"rental_uris":{"android":"levelo://app?vid=ef56424a-56b4-43c0-a25b-22b4026c6b4f","ios":"levelo://app?vid=ef56424a-56b4-43c0-a25b-22b4026c6b4f"},"vehicle_type_id":"4","last_reported":1747422528,"current_range_meters":7200,"station_id":"ce4bhq92rcd13ifvqhjg","pricing_plan_id":"cebpf4jnsgd1na2vs0mg"},{"bike_id":"d93d0c6d-be90-4a1f-bc81-4d02d1453c4b","system_id":"levelo_inurba_marseille","lat":43.22508,"lon":5.34783,"is_reserved":false,"is_disabled":false,"rental_uris":{"android":"levelo://app?vid=d93d0c6d-be90-4a1f-bc81-4d02d1453c4b","ios":"levelo://app?vid=d93d0c6d-be90-4a1f-bc81-4d02d1453c4b"},"vehicle_type_id":"4","last_reported":1747422528,"current_range_meters":7200,"station_id":"st_cvj5dfep6f1abm77gieg","pricing_plan_id":"cebpf4jnsgd1na2vs0mg"},{"bike_id":"7ea4f742-cf39-4817-bcf2-3c1df25772c5","system_id":"levelo_inurba_marseille","lat":43.29165,"lon":5.37161,"is_reserved":false,"is_disabled":false,"rental_uris":{"android":"levelo://app?vid=7ea4f742-cf39-4817-bcf2-3c1df25772c5","ios":"levelo://app?vid=7ea4f742-cf39-4817-bcf2-3c1df25772c5"},"vehicle_type_id":"4","last_reported":1747422528,"current_range_meters":8000,"station_id":"ce4bha92rcd13ifvqeh0","pricing_plan_id":"cebpf4jnsgd1na2vs0mg"},{"bike_id":"80712b11-474e-442c-b3d5-b50ef59df938","system_id":"levelo_inurba_marseille","lat":43.25582,"lon":5.38249,"is_reserved":false,"is_disabled":false,"rental_uris":{"android":"levelo://app?vid=80712b11-474e-442c-b3d5-b50ef59df938","ios":"levelo://app?vid=80712b11-474e-442c-b3d5-b50ef59df938"},"vehicle_type_id":"4","last_reported":1747422528,"current_range_meters":8000,"station_id":"ce4bhih2rcd13ifvqfs0","pricing_plan_id":"cebpf4jnsgd1na2vs0mg"},{"bike_id":"952adc22-dc6b-4168-ab87-c9391992235f","system_id":"levelo_inurba_marseille","lat":43.30736,"lon":5.42449,"is_reserved":false,"is_disabled":false,"rental_uris":{"android":"levelo://app?vid=952adc22-dc6b-4168-ab87-c9391992235f","ios":"levelo://app?vid=952adc22-dc6b-4168-ab87-c9391992235f"},"vehicle_type_id":"4","last_reported":1747422528,"current_range_meters":8000,"station_id":"st_cvj6ca6bvosntc0bfgr0","pricing_plan_id":"cebpf4jnsgd1na2vs0mg"},{"bike_id":"b89a24e6-5078-471a-88fa-2c70cdf078ca","system_id":"levelo_inurba_marseille","lat":43.310091,"lon":5.375482,"is_reserved":false,"is_disabled":false,"rental_uris":{"android":"levelo://app?vid=b89a24e6-5078-471a-88fa-2c70cdf078ca","ios":"levelo://app?vid=b89a24e6-5078-471a-88fa-2c70cdf078ca"},"vehicle_type_id":"4","last_reported":1747422528,"current_range_meters":8400,"station_id":"","pricing_plan_id":"cebpf4jnsgd1na2vs0mg"},{"bike_id":"f8e4732a-2ecf-431c-8f66-abc7aabb8aa1","system_id":"levelo_inurba_marseille","lat":43.329464,"lon":5.389972,"is_reserved":false,"is_disabled":false,"rental_uris":{"android":"levelo://app?vid=f8e4732a-2ecf-431c-8f66-abc7aabb8aa1","ios":"levelo://app?vid=f8e4732a-2ecf-431c-8f66-abc7aabb8aa1"},"vehicle_type_id":"4","last_reported":1747422528,"current_range_meters":8400,"station_id":"","pricing_plan_id":"cebpf4jnsgd1na2vs0mg"},{"bike_id":"6dd57cf4-65e0-489e-905f-ab0dc1fdf6dd","system_id":"levelo_inurba_marseille","lat":43.32995,"lon":5.39379,"is_reserved":false,"is_disabled":false,"rental_uris":{"android":"levelo://app?vid=6dd57cf4-65e0-489e-905f-ab0dc1fdf6dd","ios":"levelo://app?vid=6dd57cf4-65e0-489e-905f-ab0dc1fdf6dd"},"vehicle_type_id":"4","last_reported":1747422528,"current_range_meters":8400,"station_id":"","pricing_plan_id":"cebpf4jnsgd1na2vs0mg"},{"bike_id":"afc08f75-1171-46dd-9e3e-17f7c973c2b5","system_id":"levelo_inurba_marseille","lat":43.3014,"lon":5.37427,"is_reserved":false,"is_disabled":false,"rental_uris":{"android":"levelo://app?vid=afc08f75-1171-46dd-9e3e-17f7c973c2b5","ios":"levelo://app?vid=afc08f75-1171-46dd-9e3e-17f7c973c2b5"},"vehicle_type_id":"4","last_reported":1747422528,"current_range_meters":8400,"station_id":"ce4bgs92rcd13ifvqcc0","pricing_plan_id":"cebpf4jnsgd1na2vs0mg"},{"bike_id":"9278c808-b7e2-42fe-b99c-f839af5fadf6","system_id":"levelo_inurba_marseille","lat":43.311115,"lon":5.37774,"is_reserved":false,"is_disabled":false,"rental_uris":{"android":"levelo://app?vid=9278c808-b7e2-42fe-b99c-f839af5fadf6","ios":"levelo://app?vid=9278c808-b7e2-42fe-b99c-f839af5fadf6"},"vehicle_type_id":"4","last_reported":1747422528,"current_range_meters":8400,"station_id":"ce4bgt92rcd13ifvqcg0","pricing_plan_id":"cebpf4jnsgd1na2vs0mg"},{"bike_id":"21321f9c-4211-4627-9761-59382f16b885","system_id":"levelo_inurba_marseille","lat":43.284027,"lon":5.375057,"is_reserved":false,"is_disabled":false,"rental_uris":{"android":"levelo://app?vid=21321f9c-4211-4627-9761-59382f16b885","ios":"levelo://app?vid=21321f9c-4211-4627-9761-59382f16b885"},"vehicle_type_id":"4","last_reported":1747422528,"current_range_meters":8400,"station_id":"ce4bh412rcd13ifvqds0","pricing_plan_id":"cebpf4jnsgd1na2vs0mg"},{"bike_id":"becf82a9-e505-44ea-81dd-6f36c2917da7","system_id":"levelo_inurba_marseille","lat":43.28975,"lon":5.37829,"is_reserved":false,"is_disabled":false,"rental_uris":{"android":"levelo://app?vid=becf82a9-e505-44ea-81dd-6f36c2917da7","ios":"levelo://app?vid=becf82a9-e505-44ea-81dd-6f36c2917da7"},"vehicle_type_id":"4","last_reported":1747422528,"current_range_meters":8400,"station_id":"ce4bh9p2rcd13ifvqed0","pricing_plan_id":"cebpf4jnsgd1na2vs0mg"},{"bike_id":"6d485413-0a5b-4296-862c-2c19c83ee78f","system_id":"levelo_inurba_marseille","lat":43.32328,"lon":5.40632,"is_reserved":false,"is_disabled":false,"rental_uris":{"android":"levelo://app?vid=6d485413-0a5b-4296-862c-2c19c83ee78f","ios":"levelo://app?vid=6d485413-0a5b-4296-862c-2c19c83ee78f"},"vehicle_type_id":"4","last_reported":1747422528,"current_range_meters":8400,"station_id":"ce4bhq92rcd13ifvqhjg","pricing_plan_id":"cebpf4jnsgd1na2vs0mg"},{"bike_id":"e64e4484-2db6-41f4-beb8-e0c0ae1263cd","system_id":"levelo_inurba_marseille","lat":43.285213,"lon":5.430307,"is_reserved":false,"is_disabled":false,"rental_uris":{"android":"levelo://app?vid=e64e4484-2db6-41f4-beb8-e0c0ae1263cd","ios":"levelo://app?vid=e64e4484-2db6-41f4-beb8-e0c0ae1263cd"},"vehicle_type_id":"4","last_reported":1747422528,"current_range_meters":8800,"station_id":"","pricing_plan_id":"cebpf4jnsgd1na2vs0mg"},{"bike_id":"cf1834f6-c7e2-47fb-b4a1-87ffa1e27123","system_id":"levelo_inurba_marseille","lat":43.29937,"lon":5.36551,"is_reserved":false,"is_disabled":false,"rental_uris":{"android":"levelo://app?vid=cf1834f6-c7e2-47fb-b4a1-87ffa1e27123","ios":"levelo://app?vid=cf1834f6-c7e2-47fb-b4a1-87ffa1e27123"},"vehicle_type_id":"4","last_reported":1747422528,"current_range_meters":8800,"station_id":"ce4bgm92rcd13ifvqbr0","pricing_plan_id":"cebpf4jnsgd1na2vs0mg"},{"bike_id":"b521211e-c6ab-4c2a-8a91-1fa350972d9b","system_id":"levelo_inurba_marseille","lat":43.30422,"lon":5.39749,"is_reserved":false,"is_disabled":false,"rental_uris":{"android":"levelo://app?vid=b521211e-c6ab-4c2a-8a91-1fa350972d9b","ios":"levelo://app?vid=b521211e-c6ab-4c2a-8a91-1fa350972d9b"},"vehicle_type_id":"4","last_reported":1747422528,"current_range_meters":8800,"station_id":"ce4bh092rcd13ifvqd20","pricing_plan_id":"cebpf4jnsgd1na2vs0mg"},{"bike_id":"54a55de1-3518-473e-bc22-37071dbe81d6","system_id":"levelo_inurba_marseille","lat":43.29873,"lon":5.38921,"is_reserved":false,"is_disabled":false,"rental_uris":{"android":"levelo://app?vid=54a55de1-3518-473e-bc22-37071dbe81d6","ios":"levelo://app?vid=54a55de1-3518-473e-bc22-37071dbe81d6"},"vehicle_type_id":"4","last_reported":1747422528,"current_range_meters":8800,"station_id":"ce4bh392rcd13ifvqdl0","pricing_plan_id":"cebpf4jnsgd1na2vs0mg"},{"bike_id":"45671e88-9bc3-4676-bde4-db613529b8da","system_id":"levelo_inurba_marseille","lat":43.29189,"lon":5.35812,"is_reserved":false,"is_disabled":false,"rental_uris":{"android":"levelo://app?vid=45671e88-9bc3-4676-bde4-db613529b8da","ios":"levelo://app?vid=45671e88-9bc3-4676-bde4-db613529b8da"},"vehicle_type_id":"4","last_reported":1747422528,"current_range_meters":8800,"station_id":"ce4bhb12rcd13ifvqel0","pricing_plan_id":"cebpf4jnsgd1na2vs0mg"},{"bike_id":"c011ff78-629f-4460-9c39-066bd6348dc2","system_id":"levelo_inurba_marseille","lat":43.2862,"lon":5.35105,"is_reserved":false,"is_disabled":false,"rental_uris":{"android":"levelo://app?vid=c011ff78-629f-4460-9c39-066bd6348dc2","ios":"levelo://app?vid=c011ff78-629f-4460-9c39-066bd6348dc2"},"vehicle_type_id":"4","last_reported":1747422528,"current_range_meters":8800,"station_id":"ce4bhch2rcd13ifvqeug","pricing_plan_id":"cebpf4jnsgd1na2vs0mg"},{"bike_id":"2781ef4e-3651-4ce5-9a2e-f1d46595d329","system_id":"levelo_inurba_marseille","lat":43.3211,"lon":5.367718,"is_reserved":false,"is_disabled":false,"rental_uris":{"android":"levelo://app?vid=2781ef4e-3651-4ce5-9a2e-f1d46595d329","ios":"levelo://app?vid=2781ef4e-3651-4ce5-9a2e-f1d46595d329"},"vehicle_type_id":"4","last_reported":1747422528,"current_range_meters":8800,"station_id":"ce4bhrh2rcd13ifvqhug","pricing_plan_id":"cebpf4jnsgd1na2vs0mg"},{"bike_id":"fd3e156a-6016-40b0-bf2b-6c1d8952dfd1","system_id":"levelo_inurba_marseille","lat":43.22934,"lon":5.35377,"is_reserved":false,"is_disabled":false,"rental_uris":{"android":"levelo://app?vid=fd3e156a-6016-40b0-bf2b-6c1d8952dfd1","ios":"levelo://app?vid=fd3e156a-6016-40b0-bf2b-6c1d8952dfd1"},"vehicle_type_id":"4","last_reported":1747422528,"current_range_meters":8800,"station_id":"cpo3532slgdg3j2ikp40","pricing_plan_id":"cebpf4jnsgd1na2vs0mg"},{"bike_id":"6d36ce03-b344-4b5e-9465-9800cf819cb5","system_id":"levelo_inurba_marseille","lat":43.21209,"lon":5.35073,"is_reserved":false,"is_disabled":false,"rental_uris":{"android":"levelo://app?vid=6d36ce03-b344-4b5e-9465-9800cf819cb5","ios":"levelo://app?vid=6d36ce03-b344-4b5e-9465-9800cf819cb5"},"vehicle_type_id":"4","last_reported":1747422528,"current_range_meters":8800,"station_id":"st_cvj6sg6p6f1abm77japg","pricing_plan_id":"cebpf4jnsgd1na2vs0mg"},{"bike_id":"02288632-79f4-483c-92bd-91cd61a950da","system_id":"levelo_inurba_marseille","lat":43.296417,"lon":5.36215,"is_reserved":false,"is_disabled":false,"rental_uris":{"android":"levelo://app?vid=02288632-79f4-483c-92bd-91cd61a950da","ios":"levelo://app?vid=02288632-79f4-483c-92bd-91cd61a950da"},"vehicle_type_id":"4","last_reported":1747422528,"current_range_meters":9200,"station_id":"","pricing_plan_id":"cebpf4jnsgd1na2vs0mg"},{"bike_id":"d65be1e0-eb3c-4026-9992-99249b1238e1","system_id":"levelo_inurba_marseille","lat":43.29538,"lon":5.38537,"is_reserved":false,"is_disabled":false,"rental_uris":{"android":"levelo://app?vid=d65be1e0-eb3c-4026-9992-99249b1238e1","ios":"levelo://app?vid=d65be1e0-eb3c-4026-9992-99249b1238e1"},"vehicle_type_id":"4","last_reported":1747422528,"current_range_meters":9200,"station_id":"ce4bgih2rcd13ifvqba0","pricing_plan_id":"cebpf4jnsgd1na2vs0mg"},{"bike_id":"4f061462-aff3-4aca-8f35-6c46a7f08202","system_id":"levelo_inurba_marseille","lat":43.2737,"lon":5.36259,"is_reserved":false,"is_disabled":false,"rental_uris":{"android":"levelo://app?vid=4f061462-aff3-4aca-8f35-6c46a7f08202","ios":"levelo://app?vid=4f061462-aff3-4aca-8f35-6c46a7f08202"},"vehicle_type_id":"4","last_reported":1747422528,"current_range_meters":9600,"station_id":"ce4bhbh2rcd13ifvqeo0","pricing_plan_id":"cebpf4jnsgd1na2vs0mg"},{"bike_id":"daa5b0ff-3055-467f-a221-9fe35b536eb7","system_id":"levelo_inurba_marseille","lat":43.26193,"lon":5.37452,"is_reserved":false,"is_disabled":false,"rental_uris":{"android":"levelo://app?vid=daa5b0ff-3055-467f-a221-9fe35b536eb7","ios":"levelo://app?vid=daa5b0ff-3055-467f-a221-9fe35b536eb7"},"vehicle_type_id":"4","last_reported":1747422528,"current_range_meters":9600,"station_id":"ce4bhgp2rcd13ifvqfc0","pricing_plan_id":"cebpf4jnsgd1na2vs0mg"},{"bike_id":"5deb8060-b584-45ba-8ee7-be227a41b5a4","system_id":"levelo_inurba_marseille","lat":43.24677,"lon":5.38144,"is_reserved":false,"is_disabled":false,"rental_uris":{"android":"levelo://app?vid=5deb8060-b584-45ba-8ee7-be227a41b5a4","ios":"levelo://app?vid=5deb8060-b584-45ba-8ee7-be227a41b5a4"},"vehicle_type_id":"4","last_reported":1747422528,"current_range_meters":9600,"station_id":"ce4bhih2rcd13ifvqfr0","pricing_plan_id":"cebpf4jnsgd1na2vs0mg"},{"bike_id":"439b8ae7-af6e-46ed-b094-a94990a6fd15","system_id":"levelo_inurba_marseille","lat":43.2509,"lon":5.39523,"is_reserved":false,"is_disabled":false,"rental_uris":{"android":"levelo://app?vid=439b8ae7-af6e-46ed-b094-a94990a6fd15","ios":"levelo://app?vid=439b8ae7-af6e-46ed-b094-a94990a6fd15"},"vehicle_type_id":"4","last_reported":1747422528,"current_range_meters":9600,"station_id":"ce4bhm12rcd13ifvqgkg","pricing_plan_id":"cebpf4jnsgd1na2vs0mg"},{"bike_id":"f0f7ca87-7ffb-46bd-ab65-ff44d1578193","system_id":"levelo_inurba_marseille","lat":43.32346,"lon":5.40628,"is_reserved":false,"is_disabled":false,"rental_uris":{"android":"levelo://app?vid=f0f7ca87-7ffb-46bd-ab65-ff44d1578193","ios":"levelo://app?vid=f0f7ca87-7ffb-46bd-ab65-ff44d1578193"},"vehicle_type_id":"4","last_reported":1747422528,"current_range_meters":9600,"station_id":"ce4bhq92rcd13ifvqhjg","pricing_plan_id":"cebpf4jnsgd1na2vs0mg"},{"bike_id":"fe8ecf81-ab5a-4c75-b7c3-86c74613b85b","system_id":"levelo_inurba_marseille","lat":43.24167,"lon":5.36399,"is_reserved":false,"is_disabled":false,"rental_uris":{"android":"levelo://app?vid=fe8ecf81-ab5a-4c75-b7c3-86c74613b85b","ios":"levelo://app?vid=fe8ecf81-ab5a-4c75-b7c3-86c74613b85b"},"vehicle_type_id":"4","last_reported":1747422528,"current_range_meters":9600,"station_id":"cpo36qri1sfpv3e86is0","pricing_plan_id":"cebpf4jnsgd1na2vs0mg"},{"bike_id":"1e2486e1-0e62-4f26-9776-dc665e4a43fc","system_id":"levelo_inurba_marseille","lat":43.24172,"lon":5.36385,"is_reserved":false,"is_disabled":false,"rental_uris":{"android":"levelo://app?vid=1e2486e1-0e62-4f26-9776-dc665e4a43fc","ios":"levelo://app?vid=1e2486e1-0e62-4f26-9776-dc665e4a43fc"},"vehicle_type_id":"4","last_reported":1747422528,"current_range_meters":9600,"station_id":"cpo36qri1sfpv3e86is0","pricing_plan_id":"cebpf4jnsgd1na2vs0mg"},{"bike_id":"a488853e-8708-42f9-a9f1-40f4dc62e03d","system_id":"levelo_inurba_marseille","lat":43.305735,"lon":5.37307,"is_reserved":false,"is_disabled":false,"rental_uris":{"android":"levelo://app?vid=a488853e-8708-42f9-a9f1-40f4dc62e03d","ios":"levelo://app?vid=a488853e-8708-42f9-a9f1-40f4dc62e03d"},"vehicle_type_id":"4","last_reported":1747422528,"current_range_meters":10000,"station_id":"","pricing_plan_id":"cebpf4jnsgd1na2vs0mg"},{"bike_id":"662d7a62-8988-478f-9d97-6f1553b75c68","system_id":"levelo_inurba_marseille","lat":43.30589,"lon":5.39352,"is_reserved":false,"is_disabled":false,"rental_uris":{"android":"levelo://app?vid=662d7a62-8988-478f-9d97-6f1553b75c68","ios":"levelo://app?vid=662d7a62-8988-478f-9d97-6f1553b75c68"},"vehicle_type_id":"4","last_reported":1747422528,"current_range_meters":10000,"station_id":"ce4bh0p2rcd13ifvqd80","pricing_plan_id":"cebpf4jnsgd1na2vs0mg"},{"bike_id":"e2bcc0fc-1005-43c1-b933-d11c1b0fd874","system_id":"levelo_inurba_marseille","lat":43.25503,"lon":5.37668,"is_reserved":false,"is_disabled":false,"rental_uris":{"android":"levelo://app?vid=e2bcc0fc-1005-43c1-b933-d11c1b0fd874","ios":"levelo://app?vid=e2bcc0fc-1005-43c1-b933-d11c1b0fd874"},"vehicle_type_id":"4","last_reported":1747422528,"current_range_meters":10000,"station_id":"ce4bhh12rcd13ifvqff0","pricing_plan_id":"cebpf4jnsgd1na2vs0mg"},{"bike_id":"50d3c31f-46d2-4cb3-968e-671252bfaaa7","system_id":"levelo_inurba_marseille","lat":43.27175,"lon":5.40982,"is_reserved":false,"is_disabled":false,"rental_uris":{"android":"levelo://app?vid=50d3c31f-46d2-4cb3-968e-671252bfaaa7","ios":"levelo://app?vid=50d3c31f-46d2-4cb3-968e-671252bfaaa7"},"vehicle_type_id":"4","last_reported":1747422528,"current_range_meters":10000,"station_id":"ce4bhl12rcd13ifvqgf0","pricing_plan_id":"cebpf4jnsgd1na2vs0mg"},{"bike_id":"5bd7c68d-bffc-45e6-bca1-d02bf7a1c1bb","system_id":"levelo_inurba_marseille","lat":43.25868,"lon":5.39897,"is_reserved":false,"is_disabled":false,"rental_uris":{"android":"levelo://app?vid=5bd7c68d-bffc-45e6-bca1-d02bf7a1c1bb","ios":"levelo://app?vid=5bd7c68d-bffc-45e6-bca1-d02bf7a1c1bb"},"vehicle_type_id":"4","last_reported":1747422528,"current_range_meters":10000,"station_id":"ce4bhl92rcd13ifvqghg","pricing_plan_id":"cebpf4jnsgd1na2vs0mg"},{"bike_id":"14604a12-c425-4d2e-b0a6-01fd89904255","system_id":"levelo_inurba_marseille","lat":43.25929,"lon":5.40898,"is_reserved":false,"is_disabled":false,"rental_uris":{"android":"levelo://app?vid=14604a12-c425-4d2e-b0a6-01fd89904255","ios":"levelo://app?vid=14604a12-c425-4d2e-b0a6-01fd89904255"},"vehicle_type_id":"4","last_reported":1747422528,"current_range_meters":10000,"station_id":"ce4bhm92rcd13ifvqglg","pricing_plan_id":"cebpf4jnsgd1na2vs0mg"},{"bike_id":"f9a0d2e5-9d0f-4918-81a4-22e483428085","system_id":"levelo_inurba_marseille","lat":43.28143,"lon":5.42652,"is_reserved":false,"is_disabled":false,"rental_uris":{"android":"levelo://app?vid=f9a0d2e5-9d0f-4918-81a4-22e483428085","ios":"levelo://app?vid=f9a0d2e5-9d0f-4918-81a4-22e483428085"},"vehicle_type_id":"4","last_reported":1747422528,"current_range_meters":10000,"station_id":"ce4bhnh2rcd13ifvqgug","pricing_plan_id":"cebpf4jnsgd1na2vs0mg"},{"bike_id":"c8172a1b-1886-41c2-8dfc-a075b35ae9c2","system_id":"levelo_inurba_marseille","lat":43.323403,"lon":5.406158,"is_reserved":false,"is_disabled":false,"rental_uris":{"android":"levelo://app?vid=c8172a1b-1886-41c2-8dfc-a075b35ae9c2","ios":"levelo://app?vid=c8172a1b-1886-41c2-8dfc-a075b35ae9c2"},"vehicle_type_id":"4","last_reported":1747422528,"current_range_meters":10000,"station_id":"ce4bhq92rcd13ifvqhjg","pricing_plan_id":"cebpf4jnsgd1na2vs0mg"},{"bike_id":"35fd3701-261f-4ff8-a27a-0ebd912d0d57","system_id":"levelo_inurba_marseille","lat":43.3211,"lon":5.36766,"is_reserved":false,"is_disabled":false,"rental_uris":{"android":"levelo://app?vid=35fd3701-261f-4ff8-a27a-0ebd912d0d57","ios":"levelo://app?vid=35fd3701-261f-4ff8-a27a-0ebd912d0d57"},"vehicle_type_id":"4","last_reported":1747422528,"current_range_meters":10000,"station_id":"ce4bhrh2rcd13ifvqhug","pricing_plan_id":"cebpf4jnsgd1na2vs0mg"},{"bike_id":"3d6b5b36-a314-45fa-8bc0-68e5f98a5dde","system_id":"levelo_inurba_marseille","lat":43.22922,"lon":5.3539,"is_reserved":false,"is_disabled":false,"rental_uris":{"android":"levelo://app?vid=3d6b5b36-a314-45fa-8bc0-68e5f98a5dde","ios":"levelo://app?vid=3d6b5b36-a314-45fa-8bc0-68e5f98a5dde"},"vehicle_type_id":"4","last_reported":1747422528,"current_range_meters":10000,"station_id":"cpo3532slgdg3j2ikp40","pricing_plan_id":"cebpf4jnsgd1na2vs0mg"},{"bike_id":"297737f5-8311-46a5-a7b0-1a363a7253ea","system_id":"levelo_inurba_marseille","lat":43.276277,"lon":5.361131,"is_reserved":false,"is_disabled":false,"rental_uris":{"android":"levelo://app?vid=297737f5-8311-46a5-a7b0-1a363a7253ea","ios":"levelo://app?vid=297737f5-8311-46a5-a7b0-1a363a7253ea"},"vehicle_type_id":"4","last_reported":1747422528,"current_range_meters":10800,"station_id":"ce4bgj92rcd13ifvqbe0","pricing_plan_id":"cebpf4jnsgd1na2vs0mg"},{"bike_id":"62856c45-a396-410b-a10c-5800a7a531fb","system_id":"levelo_inurba_marseille","lat":43.29434,"lon":5.3863,"is_reserved":false,"is_disabled":false,"rental_uris":{"android":"levelo://app?vid=62856c45-a396-410b-a10c-5800a7a531fb","ios":"levelo://app?vid=62856c45-a396-410b-a10c-5800a7a531fb"},"vehicle_type_id":"4","last_reported":1747422528,"current_range_meters":10800,"station_id":"ce4bh2h2rcd13ifvqdh0","pricing_plan_id":"cebpf4jnsgd1na2vs0mg"},{"bike_id":"15f38394-d580-4ab1-8bb4-653c272d8b55","system_id":"levelo_inurba_marseille","lat":43.29415,"lon":5.38623,"is_reserved":false,"is_disabled":false,"rental_uris":{"android":"levelo://app?vid=15f38394-d580-4ab1-8bb4-653c272d8b55","ios":"levelo://app?vid=15f38394-d580-4ab1-8bb4-653c272d8b55"},"vehicle_type_id":"4","last_reported":1747422528,"current_range_meters":10800,"station_id":"ce4bh2h2rcd13ifvqdh0","pricing_plan_id":"cebpf4jnsgd1na2vs0mg"},{"bike_id":"7da22055-f3b0-49d0-bb0a-242a18c15fa8","system_id":"levelo_inurba_marseille","lat":43.28977,"lon":5.3784,"is_reserved":false,"is_disabled":false,"rental_uris":{"android":"levelo://app?vid=7da22055-f3b0-49d0-bb0a-242a18c15fa8","ios":"levelo://app?vid=7da22055-f3b0-49d0-bb0a-242a18c15fa8"},"vehicle_type_id":"4","last_reported":1747422528,"current_range_meters":10800,"station_id":"ce4bh9p2rcd13ifvqed0","pricing_plan_id":"cebpf4jnsgd1na2vs0mg"},{"bike_id":"f7ad4823-bff6-4f5a-a6c7-7ca4eb91b2af","system_id":"levelo_inurba_marseille","lat":43.28105,"lon":5.37834,"is_reserved":false,"is_disabled":false,"rental_uris":{"android":"levelo://app?vid=f7ad4823-bff6-4f5a-a6c7-7ca4eb91b2af","ios":"levelo://app?vid=f7ad4823-bff6-4f5a-a6c7-7ca4eb91b2af"},"vehicle_type_id":"4","last_reported":1747422528,"current_range_meters":10800,"station_id":"ce4bha12rcd13ifvqee0","pricing_plan_id":"cebpf4jnsgd1na2vs0mg"},{"bike_id":"686ab805-69f6-4fe2-bf47-5a166f620072","system_id":"levelo_inurba_marseille","lat":43.29005,"lon":5.35613,"is_reserved":false,"is_disabled":false,"rental_uris":{"android":"levelo://app?vid=686ab805-69f6-4fe2-bf47-5a166f620072","ios":"levelo://app?vid=686ab805-69f6-4fe2-bf47-5a166f620072"},"vehicle_type_id":"4","last_reported":1747422528,"current_range_meters":10800,"station_id":"ce4bhb92rcd13ifvqen0","pricing_plan_id":"cebpf4jnsgd1na2vs0mg"},{"bike_id":"069861d6-2772-4672-8c53-85152ee7a5ed","system_id":"levelo_inurba_marseille","lat":43.27372,"lon":5.36253,"is_reserved":false,"is_disabled":false,"rental_uris":{"android":"levelo://app?vid=069861d6-2772-4672-8c53-85152ee7a5ed","ios":"levelo://app?vid=069861d6-2772-4672-8c53-85152ee7a5ed"},"vehicle_type_id":"4","last_reported":1747422528,"current_range_meters":10800,"station_id":"ce4bhbh2rcd13ifvqeo0","pricing_plan_id":"cebpf4jnsgd1na2vs0mg"},{"bike_id":"5cf74a5b-3237-4306-8708-835ce896cf40","system_id":"levelo_inurba_marseille","lat":43.32001,"lon":5.38149,"is_reserved":false,"is_disabled":false,"rental_uris":{"android":"levelo://app?vid=5cf74a5b-3237-4306-8708-835ce896cf40","ios":"levelo://app?vid=5cf74a5b-3237-4306-8708-835ce896cf40"},"vehicle_type_id":"4","last_reported":1747422528,"current_range_meters":10800,"station_id":"ce4bhr12rcd13ifvqhpg","pricing_plan_id":"cebpf4jnsgd1na2vs0mg"},{"bike_id":"f94c20f7-1588-4dcd-bba8-5d7309dc1beb","system_id":"levelo_inurba_marseille","lat":43.29795,"lon":5.38115,"is_reserved":false,"is_disabled":false,"rental_uris":{"android":"levelo://app?vid=f94c20f7-1588-4dcd-bba8-5d7309dc1beb","ios":"levelo://app?vid=f94c20f7-1588-4dcd-bba8-5d7309dc1beb"},"vehicle_type_id":"4","last_reported":1747422528,"current_range_meters":11200,"station_id":"ce4bgip2rcd13ifvqbb0","pricing_plan_id":"cebpf4jnsgd1na2vs0mg"},{"bike_id":"b0acf859-8be4-4016-8062-311f31795791","system_id":"levelo_inurba_marseille","lat":43.28424,"lon":5.34995,"is_reserved":false,"is_disabled":false,"rental_uris":{"android":"levelo://app?vid=b0acf859-8be4-4016-8062-311f31795791","ios":"levelo://app?vid=b0acf859-8be4-4016-8062-311f31795791"},"vehicle_type_id":"4","last_reported":1747422528,"current_range_meters":11200,"station_id":"ce4bhbh2rcd13ifvqepg","pricing_plan_id":"cebpf4jnsgd1na2vs0mg"},{"bike_id":"87c35e81-23a3-47e5-94ce-f3eeee628452","system_id":"levelo_inurba_marseille","lat":43.29601,"lon":5.38111,"is_reserved":false,"is_disabled":false,"rental_uris":{"android":"levelo://app?vid=87c35e81-23a3-47e5-94ce-f3eeee628452","ios":"levelo://app?vid=87c35e81-23a3-47e5-94ce-f3eeee628452"},"vehicle_type_id":"4","last_reported":1747422528,"current_range_meters":11600,"station_id":"","pricing_plan_id":"cebpf4jnsgd1na2vs0mg"},{"bike_id":"8a61a1bc-5a2c-4409-b911-e09287002183","system_id":"levelo_inurba_marseille","lat":43.31002,"lon":5.37943,"is_reserved":false,"is_disabled":false,"rental_uris":{"android":"levelo://app?vid=8a61a1bc-5a2c-4409-b911-e09287002183","ios":"levelo://app?vid=8a61a1bc-5a2c-4409-b911-e09287002183"},"vehicle_type_id":"4","last_reported":1747422528,"current_range_meters":11600,"station_id":"","pricing_plan_id":"cebpf4jnsgd1na2vs0mg"},{"bike_id":"e5a2b069-efb7-48e5-8628-944f65ddff23","system_id":"levelo_inurba_marseille","lat":43.284058,"lon":5.374988,"is_reserved":false,"is_disabled":false,"rental_uris":{"android":"levelo://app?vid=e5a2b069-efb7-48e5-8628-944f65ddff23","ios":"levelo://app?vid=e5a2b069-efb7-48e5-8628-944f65ddff23"},"vehicle_type_id":"4","last_reported":1747422528,"current_range_meters":11600,"station_id":"ce4bh412rcd13ifvqds0","pricing_plan_id":"cebpf4jnsgd1na2vs0mg"},{"bike_id":"428486de-4b1b-4d8a-b637-1fdd4da6a99e","system_id":"levelo_inurba_marseille","lat":43.27321,"lon":5.39074,"is_reserved":false,"is_disabled":false,"rental_uris":{"android":"levelo://app?vid=428486de-4b1b-4d8a-b637-1fdd4da6a99e","ios":"levelo://app?vid=428486de-4b1b-4d8a-b637-1fdd4da6a99e"},"vehicle_type_id":"4","last_reported":1747422528,"current_range_meters":11600,"station_id":"ce4bhgp2rcd13ifvqfe0","pricing_plan_id":"cebpf4jnsgd1na2vs0mg"},{"bike_id":"54bb5cff-3a0c-47d7-84fb-50c6b62fd77d","system_id":"levelo_inurba_marseille","lat":43.28077,"lon":5.39664,"is_reserved":false,"is_disabled":false,"rental_uris":{"android":"levelo://app?vid=54bb5cff-3a0c-47d7-84fb-50c6b62fd77d","ios":"levelo://app?vid=54bb5cff-3a0c-47d7-84fb-50c6b62fd77d"},"vehicle_type_id":"4","last_reported":1747422528,"current_range_meters":11600,"station_id":"ce4bho12rcd13ifvqh2g","pricing_plan_id":"cebpf4jnsgd1na2vs0mg"},{"bike_id":"5aab96d0-db93-41bb-8405-985cd9d396a8","system_id":"levelo_inurba_marseille","lat":43.24167,"lon":5.36398,"is_reserved":false,"is_disabled":false,"rental_uris":{"android":"levelo://app?vid=5aab96d0-db93-41bb-8405-985cd9d396a8","ios":"levelo://app?vid=5aab96d0-db93-41bb-8405-985cd9d396a8"},"vehicle_type_id":"4","last_reported":1747422528,"current_range_meters":11600,"station_id":"cpo36qri1sfpv3e86is0","pricing_plan_id":"cebpf4jnsgd1na2vs0mg"},{"bike_id":"976614c5-5509-4c20-944f-057f3a34a873","system_id":"levelo_inurba_marseille","lat":43.2905,"lon":5.35926,"is_reserved":false,"is_disabled":false,"rental_uris":{"android":"levelo://app?vid=976614c5-5509-4c20-944f-057f3a34a873","ios":"levelo://app?vid=976614c5-5509-4c20-944f-057f3a34a873"},"vehicle_type_id":"4","last_reported":1747422528,"current_range_meters":12000,"station_id":"ce4bha92rcd13ifvqeg0","pricing_plan_id":"cebpf4jnsgd1na2vs0mg"},{"bike_id":"a9f99404-3f60-42eb-8aad-cf1dafd436fc","system_id":"levelo_inurba_marseille","lat":43.2737,"lon":5.36253,"is_reserved":false,"is_disabled":false,"rental_uris":{"android":"levelo://app?vid=a9f99404-3f60-42eb-8aad-cf1dafd436fc","ios":"levelo://app?vid=a9f99404-3f60-42eb-8aad-cf1dafd436fc"},"vehicle_type_id":"4","last_reported":1747422528,"current_range_meters":12000,"station_id":"ce4bhbh2rcd13ifvqeo0","pricing_plan_id":"cebpf4jnsgd1na2vs0mg"},{"bike_id":"b062643a-9d86-47b4-9707-8cc6d2c0eb41","system_id":"levelo_inurba_marseille","lat":43.31224,"lon":5.41717,"is_reserved":false,"is_disabled":false,"rental_uris":{"android":"levelo://app?vid=b062643a-9d86-47b4-9707-8cc6d2c0eb41","ios":"levelo://app?vid=b062643a-9d86-47b4-9707-8cc6d2c0eb41"},"vehicle_type_id":"4","last_reported":1747422528,"current_range_meters":12400,"station_id":"","pricing_plan_id":"cebpf4jnsgd1na2vs0mg"},{"bike_id":"95fef9cb-dea8-4540-898f-ad72f8825514","system_id":"levelo_inurba_marseille","lat":43.27614,"lon":5.36103,"is_reserved":false,"is_disabled":false,"rental_uris":{"android":"levelo://app?vid=95fef9cb-dea8-4540-898f-ad72f8825514","ios":"levelo://app?vid=95fef9cb-dea8-4540-898f-ad72f8825514"},"vehicle_type_id":"4","last_reported":1747422528,"current_range_meters":12400,"station_id":"ce4bgj92rcd13ifvqbe0","pricing_plan_id":"cebpf4jnsgd1na2vs0mg"},{"bike_id":"74220e9c-8275-4052-aa7b-c441c2679162","system_id":"levelo_inurba_marseille","lat":43.29264,"lon":5.38437,"is_reserved":false,"is_disabled":false,"rental_uris":{"android":"levelo://app?vid=74220e9c-8275-4052-aa7b-c441c2679162","ios":"levelo://app?vid=74220e9c-8275-4052-aa7b-c441c2679162"},"vehicle_type_id":"4","last_reported":1747422528,"current_range_meters":12400,"station_id":"ce4bh692rcd13ifvqea0","pricing_plan_id":"cebpf4jnsgd1na2vs0mg"},{"bike_id":"bec84a4b-89c1-4e4d-8f2e-2eafdd2dad65","system_id":"levelo_inurba_marseille","lat":43.2514,"lon":5.4032,"is_reserved":false,"is_disabled":false,"rental_uris":{"android":"levelo://app?vid=bec84a4b-89c1-4e4d-8f2e-2eafdd2dad65","ios":"levelo://app?vid=bec84a4b-89c1-4e4d-8f2e-2eafdd2dad65"},"vehicle_type_id":"4","last_reported":1747422528,"current_range_meters":12400,"station_id":"ce4bhlh2rcd13ifvqgig","pricing_plan_id":"cebpf4jnsgd1na2vs0mg"},{"bike_id":"490b3892-573e-44d4-9bd9-a7b0f61dc8a6","system_id":"levelo_inurba_marseille","lat":43.24165,"lon":5.36397,"is_reserved":false,"is_disabled":false,"rental_uris":{"android":"levelo://app?vid=490b3892-573e-44d4-9bd9-a7b0f61dc8a6","ios":"levelo://app?vid=490b3892-573e-44d4-9bd9-a7b0f61dc8a6"},"vehicle_type_id":"4","last_reported":1747422528,"current_range_meters":12400,"station_id":"cpo36qri1sfpv3e86is0","pricing_plan_id":"cebpf4jnsgd1na2vs0mg"},{"bike_id":"e44cf235-0752-40e3-824c-b0d147edd05e","system_id":"levelo_inurba_marseille","lat":43.29587,"lon":5.36734,"is_reserved":false,"is_disabled":false,"rental_uris":{"android":"levelo://app?vid=e44cf235-0752-40e3-824c-b0d147edd05e","ios":"levelo://app?vid=e44cf235-0752-40e3-824c-b0d147edd05e"},"vehicle_type_id":"4","last_reported":1747422528,"current_range_meters":12800,"station_id":"ce4bgph2rcd13ifvqc2g","pricing_plan_id":"cebpf4jnsgd1na2vs0mg"},{"bike_id":"de73d77b-0dd1-44f9-aff5-ff4196f5d750","system_id":"levelo_inurba_marseille","lat":43.296107,"lon":5.374024,"is_reserved":false,"is_disabled":false,"rental_uris":{"android":"levelo://app?vid=de73d77b-0dd1-44f9-aff5-ff4196f5d750","ios":"levelo://app?vid=de73d77b-0dd1-44f9-aff5-ff4196f5d750"},"vehicle_type_id":"4","last_reported":1747422528,"current_range_meters":12800,"station_id":"ce4bhap2rcd13ifvqek0","pricing_plan_id":"cebpf4jnsgd1na2vs0mg"},{"bike_id":"e4ac6e3e-fba5-4367-a755-53f04941a18e","system_id":"levelo_inurba_marseille","lat":43.286652,"lon":5.386717,"is_reserved":false,"is_disabled":false,"rental_uris":{"android":"levelo://app?vid=e4ac6e3e-fba5-4367-a755-53f04941a18e","ios":"levelo://app?vid=e4ac6e3e-fba5-4367-a755-53f04941a18e"},"vehicle_type_id":"4","last_reported":1747422528,"current_range_meters":13600,"station_id":"ce4bh492rcd13ifvqdug","pricing_plan_id":"cebpf4jnsgd1na2vs0mg"},{"bike_id":"2380eda2-8e6b-4dd7-abfc-438d02044ce0","system_id":"levelo_inurba_marseille","lat":43.28417,"lon":5.34988,"is_reserved":false,"is_disabled":false,"rental_uris":{"android":"levelo://app?vid=2380eda2-8e6b-4dd7-abfc-438d02044ce0","ios":"levelo://app?vid=2380eda2-8e6b-4dd7-abfc-438d02044ce0"},"vehicle_type_id":"4","last_reported":1747422528,"current_range_meters":13600,"station_id":"ce4bhbh2rcd13ifvqepg","pricing_plan_id":"cebpf4jnsgd1na2vs0mg"},{"bike_id":"ffc09ab6-80f8-4231-a773-09187bc0da18","system_id":"levelo_inurba_marseille","lat":43.295422,"lon":5.422606,"is_reserved":false,"is_disabled":false,"rental_uris":{"android":"levelo://app?vid=ffc09ab6-80f8-4231-a773-09187bc0da18","ios":"levelo://app?vid=ffc09ab6-80f8-4231-a773-09187bc0da18"},"vehicle_type_id":"4","last_reported":1747422528,"current_range_meters":13600,"station_id":"ce4bhph2rcd13ifvqhdg","pricing_plan_id":"cebpf4jnsgd1na2vs0mg"},{"bike_id":"31b7c1ea-9e77-4b06-bbdd-9ff785e15a40","system_id":"levelo_inurba_marseille","lat":43.24151,"lon":5.36404,"is_reserved":false,"is_disabled":false,"rental_uris":{"android":"levelo://app?vid=31b7c1ea-9e77-4b06-bbdd-9ff785e15a40","ios":"levelo://app?vid=31b7c1ea-9e77-4b06-bbdd-9ff785e15a40"},"vehicle_type_id":"4","last_reported":1747422528,"current_range_meters":13600,"station_id":"cpo36qri1sfpv3e86is0","pricing_plan_id":"cebpf4jnsgd1na2vs0mg"},{"bike_id":"c990a1f7-2a4d-4a91-ad26-a584985899ab","system_id":"levelo_inurba_marseille","lat":43.29802,"lon":5.3809,"is_reserved":false,"is_disabled":false,"rental_uris":{"android":"levelo://app?vid=c990a1f7-2a4d-4a91-ad26-a584985899ab","ios":"levelo://app?vid=c990a1f7-2a4d-4a91-ad26-a584985899ab"},"vehicle_type_id":"4","last_reported":1747422528,"current_range_meters":14000,"station_id":"ce4bgip2rcd13ifvqbb0","pricing_plan_id":"cebpf4jnsgd1na2vs0mg"},{"bike_id":"187b1152-67db-493a-b178-cbe3cca93e50","system_id":"levelo_inurba_marseille","lat":43.30432,"lon":5.38876,"is_reserved":false,"is_disabled":false,"rental_uris":{"android":"levelo://app?vid=187b1152-67db-493a-b178-cbe3cca93e50","ios":"levelo://app?vid=187b1152-67db-493a-b178-cbe3cca93e50"},"vehicle_type_id":"4","last_reported":1747422528,"current_range_meters":14000,"station_id":"ce4bgk12rcd13ifvqbi0","pricing_plan_id":"cebpf4jnsgd1na2vs0mg"},{"bike_id":"9bc9fd86-838e-421a-9072-8409580de131","system_id":"levelo_inurba_marseille","lat":43.25087,"lon":5.395183,"is_reserved":false,"is_disabled":false,"rental_uris":{"android":"levelo://app?vid=9bc9fd86-838e-421a-9072-8409580de131","ios":"levelo://app?vid=9bc9fd86-838e-421a-9072-8409580de131"},"vehicle_type_id":"4","last_reported":1747422528,"current_range_meters":14000,"station_id":"ce4bhm12rcd13ifvqgkg","pricing_plan_id":"cebpf4jnsgd1na2vs0mg"},{"bike_id":"ea0f1347-e44f-441b-92ab-c6214413c0cc","system_id":"levelo_inurba_marseille","lat":43.32114,"lon":5.36765,"is_reserved":false,"is_disabled":false,"rental_uris":{"android":"levelo://app?vid=ea0f1347-e44f-441b-92ab-c6214413c0cc","ios":"levelo://app?vid=ea0f1347-e44f-441b-92ab-c6214413c0cc"},"vehicle_type_id":"4","last_reported":1747422528,"current_range_meters":14000,"station_id":"ce4bhrh2rcd13ifvqhug","pricing_plan_id":"cebpf4jnsgd1na2vs0mg"},{"bike_id":"6f21eee0-787d-4890-a197-229ad109f578","system_id":"levelo_inurba_marseille","lat":43.30151,"lon":5.38094,"is_reserved":false,"is_disabled":false,"rental_uris":{"android":"levelo://app?vid=6f21eee0-787d-4890-a197-229ad109f578","ios":"levelo://app?vid=6f21eee0-787d-4890-a197-229ad109f578"},"vehicle_type_id":"4","last_reported":1747422528,"current_range_meters":14400,"station_id":"ce4bgjp2rcd13ifvqbh0","pricing_plan_id":"cebpf4jnsgd1na2vs0mg"},{"bike_id":"dbf9764a-e361-47be-8317-a4f62bbac93b","system_id":"levelo_inurba_marseille","lat":43.30303,"lon":5.39214,"is_reserved":false,"is_disabled":false,"rental_uris":{"android":"levelo://app?vid=dbf9764a-e361-47be-8317-a4f62bbac93b","ios":"levelo://app?vid=dbf9764a-e361-47be-8317-a4f62bbac93b"},"vehicle_type_id":"4","last_reported":1747422528,"current_range_meters":14400,"station_id":"ce4bgkh2rcd13ifvqbk0","pricing_plan_id":"cebpf4jnsgd1na2vs0mg"},{"bike_id":"a242c421-b8d4-4643-bbb3-bc07a906ebb8","system_id":"levelo_inurba_marseille","lat":43.29618,"lon":5.3716,"is_reserved":false,"is_disabled":false,"rental_uris":{"android":"levelo://app?vid=a242c421-b8d4-4643-bbb3-bc07a906ebb8","ios":"levelo://app?vid=a242c421-b8d4-4643-bbb3-bc07a906ebb8"},"vehicle_type_id":"4","last_reported":1747422528,"current_range_meters":14400,"station_id":"ce4bgnh2rcd13ifvqc0g","pricing_plan_id":"cebpf4jnsgd1na2vs0mg"},{"bike_id":"6da655b8-0421-4e8a-ae32-6637af746f6a","system_id":"levelo_inurba_marseille","lat":43.26816,"lon":5.41106,"is_reserved":false,"is_disabled":false,"rental_uris":{"android":"levelo://app?vid=6da655b8-0421-4e8a-ae32-6637af746f6a","ios":"levelo://app?vid=6da655b8-0421-4e8a-ae32-6637af746f6a"},"vehicle_type_id":"4","last_reported":1747422528,"current_range_meters":14800,"station_id":"","pricing_plan_id":"cebpf4jnsgd1na2vs0mg"},{"bike_id":"9dc7a344-83bc-45a6-9fa2-6a513a2716af","system_id":"levelo_inurba_marseille","lat":43.28665,"lon":5.38669,"is_reserved":false,"is_disabled":false,"rental_uris":{"android":"levelo://app?vid=9dc7a344-83bc-45a6-9fa2-6a513a2716af","ios":"levelo://app?vid=9dc7a344-83bc-45a6-9fa2-6a513a2716af"},"vehicle_type_id":"4","last_reported":1747422528,"current_range_meters":14800,"station_id":"ce4bh492rcd13ifvqdug","pricing_plan_id":"cebpf4jnsgd1na2vs0mg"},{"bike_id":"a7c610ba-e794-49c0-a61c-82b61d578d58","system_id":"levelo_inurba_marseille","lat":43.23949,"lon":5.36672,"is_reserved":false,"is_disabled":false,"rental_uris":{"android":"levelo://app?vid=a7c610ba-e794-49c0-a61c-82b61d578d58","ios":"levelo://app?vid=a7c610ba-e794-49c0-a61c-82b61d578d58"},"vehicle_type_id":"4","last_reported":1747422528,"current_range_meters":14800,"station_id":"ce4bhi12rcd13ifvqfp0","pricing_plan_id":"cebpf4jnsgd1na2vs0mg"},{"bike_id":"148e042f-88eb-4919-80a4-998cd4074c81","system_id":"levelo_inurba_marseille","lat":43.29203,"lon":5.36145,"is_reserved":false,"is_disabled":false,"rental_uris":{"android":"levelo://app?vid=148e042f-88eb-4919-80a4-998cd4074c81","ios":"levelo://app?vid=148e042f-88eb-4919-80a4-998cd4074c81"},"vehicle_type_id":"4","last_reported":1747422528,"current_range_meters":15200,"station_id":"","pricing_plan_id":"cebpf4jnsgd1na2vs0mg"},{"bike_id":"a8731bd2-38f5-4c25-99af-4ccfe664bacc","system_id":"levelo_inurba_marseille","lat":43.30525,"lon":5.36717,"is_reserved":false,"is_disabled":false,"rental_uris":{"android":"levelo://app?vid=a8731bd2-38f5-4c25-99af-4ccfe664bacc","ios":"levelo://app?vid=a8731bd2-38f5-4c25-99af-4ccfe664bacc"},"vehicle_type_id":"4","last_reported":1747422528,"current_range_meters":15200,"station_id":"ce4bgrp2rcd13ifvqc9g","pricing_plan_id":"cebpf4jnsgd1na2vs0mg"},{"bike_id":"f2f63561-5c6f-4639-82b1-0c8ab91f11bb","system_id":"levelo_inurba_marseille","lat":43.301019,"lon":5.391316,"is_reserved":false,"is_disabled":false,"rental_uris":{"android":"levelo://app?vid=f2f63561-5c6f-4639-82b1-0c8ab91f11bb","ios":"levelo://app?vid=f2f63561-5c6f-4639-82b1-0c8ab91f11bb"},"vehicle_type_id":"4","last_reported":1747422528,"current_range_meters":15200,"station_id":"ce4bh0p2rcd13ifvqd70","pricing_plan_id":"cebpf4jnsgd1na2vs0mg"},{"bike_id":"680f22c4-ad9e-4c20-a77d-bd7f72675f9e","system_id":"levelo_inurba_marseille","lat":43.28945,"lon":5.3663,"is_reserved":false,"is_disabled":false,"rental_uris":{"android":"levelo://app?vid=680f22c4-ad9e-4c20-a77d-bd7f72675f9e","ios":"levelo://app?vid=680f22c4-ad9e-4c20-a77d-bd7f72675f9e"},"vehicle_type_id":"4","last_reported":1747422528,"current_range_meters":15200,"station_id":"ce4bhap2rcd13ifvqek0","pricing_plan_id":"cebpf4jnsgd1na2vs0mg"},{"bike_id":"db08a07a-6ee7-42b6-8112-e4733686885b","system_id":"levelo_inurba_marseille","lat":43.27368,"lon":5.36253,"is_reserved":false,"is_disabled":false,"rental_uris":{"android":"levelo://app?vid=db08a07a-6ee7-42b6-8112-e4733686885b","ios":"levelo://app?vid=db08a07a-6ee7-42b6-8112-e4733686885b"},"vehicle_type_id":"4","last_reported":1747422528,"current_range_meters":15200,"station_id":"ce4bhbh2rcd13ifvqeo0","pricing_plan_id":"cebpf4jnsgd1na2vs0mg"},{"bike_id":"ef175b83-3dc6-44f2-913d-c23ff993c188","system_id":"levelo_inurba_marseille","lat":43.25592,"lon":5.38244,"is_reserved":false,"is_disabled":false,"rental_uris":{"android":"levelo://app?vid=ef175b83-3dc6-44f2-913d-c23ff993c188","ios":"levelo://app?vid=ef175b83-3dc6-44f2-913d-c23ff993c188"},"vehicle_type_id":"4","last_reported":1747422528,"current_range_meters":15200,"station_id":"ce4bhih2rcd13ifvqfs0","pricing_plan_id":"cebpf4jnsgd1na2vs0mg"},{"bike_id":"7f0f0eb1-eb6a-48f0-b4c4-ba8877209c3a","system_id":"levelo_inurba_marseille","lat":43.27202,"lon":5.36509,"is_reserved":false,"is_disabled":false,"rental_uris":{"android":"levelo://app?vid=7f0f0eb1-eb6a-48f0-b4c4-ba8877209c3a","ios":"levelo://app?vid=7f0f0eb1-eb6a-48f0-b4c4-ba8877209c3a"},"vehicle_type_id":"4","last_reported":1747422528,"current_range_meters":16000,"station_id":"","pricing_plan_id":"cebpf4jnsgd1na2vs0mg"},{"bike_id":"d65b6484-d39a-43bf-9c4f-2dda3844e812","system_id":"levelo_inurba_marseille","lat":43.295317,"lon":5.385391,"is_reserved":false,"is_disabled":false,"rental_uris":{"android":"levelo://app?vid=d65b6484-d39a-43bf-9c4f-2dda3844e812","ios":"levelo://app?vid=d65b6484-d39a-43bf-9c4f-2dda3844e812"},"vehicle_type_id":"4","last_reported":1747422528,"current_range_meters":16000,"station_id":"ce4bgih2rcd13ifvqba0","pricing_plan_id":"cebpf4jnsgd1na2vs0mg"},{"bike_id":"eebf0417-4098-4672-a6ae-d82fc3dc3062","system_id":"levelo_inurba_marseille","lat":43.29712,"lon":5.37696,"is_reserved":false,"is_disabled":false,"rental_uris":{"android":"levelo://app?vid=eebf0417-4098-4672-a6ae-d82fc3dc3062","ios":"levelo://app?vid=eebf0417-4098-4672-a6ae-d82fc3dc3062"},"vehicle_type_id":"4","last_reported":1747422528,"current_range_meters":16000,"station_id":"ce4bgkh2rcd13ifvqbl0","pricing_plan_id":"cebpf4jnsgd1na2vs0mg"},{"bike_id":"967a561c-72dd-458e-954a-551b075f9616","system_id":"levelo_inurba_marseille","lat":43.29931,"lon":5.36547,"is_reserved":false,"is_disabled":false,"rental_uris":{"android":"levelo://app?vid=967a561c-72dd-458e-954a-551b075f9616","ios":"levelo://app?vid=967a561c-72dd-458e-954a-551b075f9616"},"vehicle_type_id":"4","last_reported":1747422528,"current_range_meters":16000,"station_id":"ce4bgm92rcd13ifvqbr0","pricing_plan_id":"cebpf4jnsgd1na2vs0mg"},{"bike_id":"ee85629f-848d-4ac3-89a7-61ae6d12d39c","system_id":"levelo_inurba_marseille","lat":43.30888,"lon":5.39658,"is_reserved":false,"is_disabled":false,"rental_uris":{"android":"levelo://app?vid=ee85629f-848d-4ac3-89a7-61ae6d12d39c","ios":"levelo://app?vid=ee85629f-848d-4ac3-89a7-61ae6d12d39c"},"vehicle_type_id":"4","last_reported":1747422528,"current_range_meters":16000,"station_id":"ce4bh012rcd13ifvqcv0","pricing_plan_id":"cebpf4jnsgd1na2vs0mg"},{"bike_id":"8aaa83a0-78b0-49a2-a321-81316fed95fb","system_id":"levelo_inurba_marseille","lat":43.286645,"lon":5.363617,"is_reserved":false,"is_disabled":false,"rental_uris":{"android":"levelo://app?vid=8aaa83a0-78b0-49a2-a321-81316fed95fb","ios":"levelo://app?vid=8aaa83a0-78b0-49a2-a321-81316fed95fb"},"vehicle_type_id":"4","last_reported":1747422528,"current_range_meters":16000,"station_id":"ce4bhah2rcd13ifvqej0","pricing_plan_id":"cebpf4jnsgd1na2vs0mg"},{"bike_id":"208d7a25-cd6e-47fe-addd-1b889cabc092","system_id":"levelo_inurba_marseille","lat":43.28412,"lon":5.34997,"is_reserved":false,"is_disabled":false,"rental_uris":{"android":"levelo://app?vid=208d7a25-cd6e-47fe-addd-1b889cabc092","ios":"levelo://app?vid=208d7a25-cd6e-47fe-addd-1b889cabc092"},"vehicle_type_id":"4","last_reported":1747422528,"current_range_meters":16000,"station_id":"ce4bhbh2rcd13ifvqepg","pricing_plan_id":"cebpf4jnsgd1na2vs0mg"},{"bike_id":"8e5a5ffd-6897-4ced-b130-b379607cb12e","system_id":"levelo_inurba_marseille","lat":43.28614,"lon":5.35103,"is_reserved":false,"is_disabled":false,"rental_uris":{"android":"levelo://app?vid=8e5a5ffd-6897-4ced-b130-b379607cb12e","ios":"levelo://app?vid=8e5a5ffd-6897-4ced-b130-b379607cb12e"},"vehicle_type_id":"4","last_reported":1747422528,"current_range_meters":16000,"station_id":"ce4bhch2rcd13ifvqeug","pricing_plan_id":"cebpf4jnsgd1na2vs0mg"},{"bike_id":"45b43396-6ec7-4949-919d-8349409d2af8","system_id":"levelo_inurba_marseille","lat":43.24808,"lon":5.3746,"is_reserved":false,"is_disabled":false,"rental_uris":{"android":"levelo://app?vid=45b43396-6ec7-4949-919d-8349409d2af8","ios":"levelo://app?vid=45b43396-6ec7-4949-919d-8349409d2af8"},"vehicle_type_id":"4","last_reported":1747422528,"current_range_meters":16000,"station_id":"ce4bhgh2rcd13ifvqfb0","pricing_plan_id":"cebpf4jnsgd1na2vs0mg"},{"bike_id":"852ea9ac-6507-488a-87c5-b27d54b34b2e","system_id":"levelo_inurba_marseille","lat":43.281485,"lon":5.426335,"is_reserved":false,"is_disabled":false,"rental_uris":{"android":"levelo://app?vid=852ea9ac-6507-488a-87c5-b27d54b34b2e","ios":"levelo://app?vid=852ea9ac-6507-488a-87c5-b27d54b34b2e"},"vehicle_type_id":"4","last_reported":1747422528,"current_range_meters":16000,"station_id":"ce4bhnh2rcd13ifvqgug","pricing_plan_id":"cebpf4jnsgd1na2vs0mg"},{"bike_id":"2a9d0bc3-deae-4a39-b85c-52d709abed2e","system_id":"levelo_inurba_marseille","lat":43.30921,"lon":5.37807,"is_reserved":false,"is_disabled":false,"rental_uris":{"android":"levelo://app?vid=2a9d0bc3-deae-4a39-b85c-52d709abed2e","ios":"levelo://app?vid=2a9d0bc3-deae-4a39-b85c-52d709abed2e"},"vehicle_type_id":"4","last_reported":1747422528,"current_range_meters":16400,"station_id":"","pricing_plan_id":"cebpf4jnsgd1na2vs0mg"},{"bike_id":"3c46f6b2-c9a2-4b1e-89a7-55567a229d4b","system_id":"levelo_inurba_marseille","lat":43.29523,"lon":5.38552,"is_reserved":false,"is_disabled":false,"rental_uris":{"android":"levelo://app?vid=3c46f6b2-c9a2-4b1e-89a7-55567a229d4b","ios":"levelo://app?vid=3c46f6b2-c9a2-4b1e-89a7-55567a229d4b"},"vehicle_type_id":"4","last_reported":1747422528,"current_range_meters":16400,"station_id":"ce4bgih2rcd13ifvqba0","pricing_plan_id":"cebpf4jnsgd1na2vs0mg"},{"bike_id":"e6035737-17f1-46fc-bef1-ec60574169a8","system_id":"levelo_inurba_marseille","lat":43.29005,"lon":5.35614,"is_reserved":false,"is_disabled":false,"rental_uris":{"android":"levelo://app?vid=e6035737-17f1-46fc-bef1-ec60574169a8","ios":"levelo://app?vid=e6035737-17f1-46fc-bef1-ec60574169a8"},"vehicle_type_id":"4","last_reported":1747422528,"current_range_meters":16400,"station_id":"ce4bhb92rcd13ifvqen0","pricing_plan_id":"cebpf4jnsgd1na2vs0mg"},{"bike_id":"a852eb9a-42c7-4a22-8be1-16754b4430d9","system_id":"levelo_inurba_marseille","lat":43.25122,"lon":5.40322,"is_reserved":false,"is_disabled":false,"rental_uris":{"android":"levelo://app?vid=a852eb9a-42c7-4a22-8be1-16754b4430d9","ios":"levelo://app?vid=a852eb9a-42c7-4a22-8be1-16754b4430d9"},"vehicle_type_id":"4","last_reported":1747422528,"current_range_meters":16400,"station_id":"ce4bhlh2rcd13ifvqgig","pricing_plan_id":"cebpf4jnsgd1na2vs0mg"},{"bike_id":"2bcfe786-5f13-4669-b4b8-3c88e382f9ac","system_id":"levelo_inurba_marseille","lat":43.31687,"lon":5.40476,"is_reserved":false,"is_disabled":false,"rental_uris":{"android":"levelo://app?vid=2bcfe786-5f13-4669-b4b8-3c88e382f9ac","ios":"levelo://app?vid=2bcfe786-5f13-4669-b4b8-3c88e382f9ac"},"vehicle_type_id":"4","last_reported":1747422528,"current_range_meters":16800,"station_id":"ce4bh012rcd13ifvqd00","pricing_plan_id":"cebpf4jnsgd1na2vs0mg"},{"bike_id":"ada23221-5641-4d3c-8892-5664d273a35d","system_id":"levelo_inurba_marseille","lat":43.28976,"lon":5.37834,"is_reserved":false,"is_disabled":false,"rental_uris":{"android":"levelo://app?vid=ada23221-5641-4d3c-8892-5664d273a35d","ios":"levelo://app?vid=ada23221-5641-4d3c-8892-5664d273a35d"},"vehicle_type_id":"4","last_reported":1747422528,"current_range_meters":16800,"station_id":"ce4bh9p2rcd13ifvqed0","pricing_plan_id":"cebpf4jnsgd1na2vs0mg"},{"bike_id":"3be14d9a-43b5-46ba-b111-2b43b870e206","system_id":"levelo_inurba_marseille","lat":43.28414,"lon":5.34999,"is_reserved":false,"is_disabled":false,"rental_uris":{"android":"levelo://app?vid=3be14d9a-43b5-46ba-b111-2b43b870e206","ios":"levelo://app?vid=3be14d9a-43b5-46ba-b111-2b43b870e206"},"vehicle_type_id":"4","last_reported":1747422528,"current_range_meters":16800,"station_id":"ce4bhbh2rcd13ifvqepg","pricing_plan_id":"cebpf4jnsgd1na2vs0mg"},{"bike_id":"4077460a-a34e-4818-9587-3b91169deb37","system_id":"levelo_inurba_marseille","lat":43.28272,"lon":5.35075,"is_reserved":false,"is_disabled":false,"rental_uris":{"android":"levelo://app?vid=4077460a-a34e-4818-9587-3b91169deb37","ios":"levelo://app?vid=4077460a-a34e-4818-9587-3b91169deb37"},"vehicle_type_id":"4","last_reported":1747422528,"current_range_meters":16800,"station_id":"ce4bhbp2rcd13ifvqerg","pricing_plan_id":"cebpf4jnsgd1na2vs0mg"},{"bike_id":"0bbae27d-252b-4ebb-871e-0cea87aa3c08","system_id":"levelo_inurba_marseille","lat":43.307996,"lon":5.435278,"is_reserved":false,"is_disabled":false,"rental_uris":{"android":"levelo://app?vid=0bbae27d-252b-4ebb-871e-0cea87aa3c08","ios":"levelo://app?vid=0bbae27d-252b-4ebb-871e-0cea87aa3c08"},"vehicle_type_id":"4","last_reported":1747422528,"current_range_meters":16800,"station_id":"ce4bhph2rcd13ifvqheg","pricing_plan_id":"cebpf4jnsgd1na2vs0mg"},{"bike_id":"d9b504ee-8007-4760-a4a1-f54f52b040ce","system_id":"levelo_inurba_marseille","lat":43.302743,"lon":5.37291,"is_reserved":false,"is_disabled":false,"rental_uris":{"android":"levelo://app?vid=d9b504ee-8007-4760-a4a1-f54f52b040ce","ios":"levelo://app?vid=d9b504ee-8007-4760-a4a1-f54f52b040ce"},"vehicle_type_id":"4","last_reported":1747422528,"current_range_meters":17200,"station_id":"","pricing_plan_id":"cebpf4jnsgd1na2vs0mg"},{"bike_id":"3a17d5f6-bc61-4e58-9fa6-03603da4bbdd","system_id":"levelo_inurba_marseille","lat":43.30167,"lon":5.36615,"is_reserved":false,"is_disabled":false,"rental_uris":{"android":"levelo://app?vid=3a17d5f6-bc61-4e58-9fa6-03603da4bbdd","ios":"levelo://app?vid=3a17d5f6-bc61-4e58-9fa6-03603da4bbdd"},"vehicle_type_id":"4","last_reported":1747422528,"current_range_meters":17200,"station_id":"ce4bgrh2rcd13ifvqc8g","pricing_plan_id":"cebpf4jnsgd1na2vs0mg"},{"bike_id":"75adaec3-de8d-4e50-b246-3cd272ef3ef4","system_id":"levelo_inurba_marseille","lat":43.29258,"lon":5.38441,"is_reserved":false,"is_disabled":false,"rental_uris":{"android":"levelo://app?vid=75adaec3-de8d-4e50-b246-3cd272ef3ef4","ios":"levelo://app?vid=75adaec3-de8d-4e50-b246-3cd272ef3ef4"},"vehicle_type_id":"4","last_reported":1747422528,"current_range_meters":17200,"station_id":"ce4bh692rcd13ifvqea0","pricing_plan_id":"cebpf4jnsgd1na2vs0mg"},{"bike_id":"54ad76a0-bb56-4389-a791-398711bb3d79","system_id":"levelo_inurba_marseille","lat":43.28932,"lon":5.36628,"is_reserved":false,"is_disabled":false,"rental_uris":{"android":"levelo://app?vid=54ad76a0-bb56-4389-a791-398711bb3d79","ios":"levelo://app?vid=54ad76a0-bb56-4389-a791-398711bb3d79"},"vehicle_type_id":"4","last_reported":1747422528,"current_range_meters":17200,"station_id":"ce4bhap2rcd13ifvqek0","pricing_plan_id":"cebpf4jnsgd1na2vs0mg"},{"bike_id":"2ab5579e-f786-4c2d-91bc-58dd3499868e","system_id":"levelo_inurba_marseille","lat":43.27907,"lon":5.39589,"is_reserved":false,"is_disabled":false,"rental_uris":{"android":"levelo://app?vid=2ab5579e-f786-4c2d-91bc-58dd3499868e","ios":"levelo://app?vid=2ab5579e-f786-4c2d-91bc-58dd3499868e"},"vehicle_type_id":"4","last_reported":1747422528,"current_range_meters":17200,"station_id":"ce4bhf92rcd13ifvqf40","pricing_plan_id":"cebpf4jnsgd1na2vs0mg"},{"bike_id":"6fe716ec-3e66-40a0-90cd-a86ee2fdef59","system_id":"levelo_inurba_marseille","lat":43.321106,"lon":5.367648,"is_reserved":false,"is_disabled":false,"rental_uris":{"android":"levelo://app?vid=6fe716ec-3e66-40a0-90cd-a86ee2fdef59","ios":"levelo://app?vid=6fe716ec-3e66-40a0-90cd-a86ee2fdef59"},"vehicle_type_id":"4","last_reported":1747422528,"current_range_meters":17200,"station_id":"ce4bhrh2rcd13ifvqhug","pricing_plan_id":"cebpf4jnsgd1na2vs0mg"},{"bike_id":"7f4288d4-3d04-4c96-b18b-fb82d830df31","system_id":"levelo_inurba_marseille","lat":43.30885,"lon":5.37168,"is_reserved":false,"is_disabled":false,"rental_uris":{"android":"levelo://app?vid=7f4288d4-3d04-4c96-b18b-fb82d830df31","ios":"levelo://app?vid=7f4288d4-3d04-4c96-b18b-fb82d830df31"},"vehicle_type_id":"4","last_reported":1747422528,"current_range_meters":17600,"station_id":"ce4bguh2rcd13ifvqckg","pricing_plan_id":"cebpf4jnsgd1na2vs0mg"},{"bike_id":"09faf491-5bc6-43bb-a867-ba376f64d781","system_id":"levelo_inurba_marseille","lat":43.29258,"lon":5.3846,"is_reserved":false,"is_disabled":false,"rental_uris":{"android":"levelo://app?vid=09faf491-5bc6-43bb-a867-ba376f64d781","ios":"levelo://app?vid=09faf491-5bc6-43bb-a867-ba376f64d781"},"vehicle_type_id":"4","last_reported":1747422528,"current_range_meters":17600,"station_id":"ce4bh692rcd13ifvqea0","pricing_plan_id":"cebpf4jnsgd1na2vs0mg"},{"bike_id":"07260f60-a10d-47fb-ab9d-b5825f142e30","system_id":"levelo_inurba_marseille","lat":43.27365,"lon":5.36245,"is_reserved":false,"is_disabled":false,"rental_uris":{"android":"levelo://app?vid=07260f60-a10d-47fb-ab9d-b5825f142e30","ios":"levelo://app?vid=07260f60-a10d-47fb-ab9d-b5825f142e30"},"vehicle_type_id":"4","last_reported":1747422528,"current_range_meters":17600,"station_id":"ce4bhbh2rcd13ifvqeo0","pricing_plan_id":"cebpf4jnsgd1na2vs0mg"},{"bike_id":"0dfa217b-0263-4b1f-9def-d6a21543eb27","system_id":"levelo_inurba_marseille","lat":43.2738,"lon":5.36256,"is_reserved":false,"is_disabled":false,"rental_uris":{"android":"levelo://app?vid=0dfa217b-0263-4b1f-9def-d6a21543eb27","ios":"levelo://app?vid=0dfa217b-0263-4b1f-9def-d6a21543eb27"},"vehicle_type_id":"4","last_reported":1747422528,"current_range_meters":17600,"station_id":"ce4bhbh2rcd13ifvqeo0","pricing_plan_id":"cebpf4jnsgd1na2vs0mg"},{"bike_id":"61a5465a-e6f6-41b1-841a-a784251e748a","system_id":"levelo_inurba_marseille","lat":43.29272,"lon":5.36844,"is_reserved":false,"is_disabled":false,"rental_uris":{"android":"levelo://app?vid=61a5465a-e6f6-41b1-841a-a784251e748a","ios":"levelo://app?vid=61a5465a-e6f6-41b1-841a-a784251e748a"},"vehicle_type_id":"4","last_reported":1747422528,"current_range_meters":17600,"station_id":"ce4bhbp2rcd13ifvqesg","pricing_plan_id":"cebpf4jnsgd1na2vs0mg"},{"bike_id":"98394d0a-2f95-42fb-90a4-03607814f16d","system_id":"levelo_inurba_marseille","lat":43.25582,"lon":5.38228,"is_reserved":false,"is_disabled":false,"rental_uris":{"android":"levelo://app?vid=98394d0a-2f95-42fb-90a4-03607814f16d","ios":"levelo://app?vid=98394d0a-2f95-42fb-90a4-03607814f16d"},"vehicle_type_id":"4","last_reported":1747422528,"current_range_meters":17600,"station_id":"ce4bhih2rcd13ifvqfs0","pricing_plan_id":"cebpf4jnsgd1na2vs0mg"},{"bike_id":"8f600fbf-ec68-4624-9822-6cce2bd50be5","system_id":"levelo_inurba_marseille","lat":43.32535,"lon":5.42841,"is_reserved":false,"is_disabled":false,"rental_uris":{"android":"levelo://app?vid=8f600fbf-ec68-4624-9822-6cce2bd50be5","ios":"levelo://app?vid=8f600fbf-ec68-4624-9822-6cce2bd50be5"},"vehicle_type_id":"4","last_reported":1747422528,"current_range_meters":18000,"station_id":"","pricing_plan_id":"cebpf4jnsgd1na2vs0mg"},{"bike_id":"512db903-9559-40c7-8902-6a98e3c8c53c","system_id":"levelo_inurba_marseille","lat":43.3294,"lon":5.3898,"is_reserved":false,"is_disabled":false,"rental_uris":{"android":"levelo://app?vid=512db903-9559-40c7-8902-6a98e3c8c53c","ios":"levelo://app?vid=512db903-9559-40c7-8902-6a98e3c8c53c"},"vehicle_type_id":"4","last_reported":1747422528,"current_range_meters":18000,"station_id":"","pricing_plan_id":"cebpf4jnsgd1na2vs0mg"},{"bike_id":"194f17c8-93f0-4ff7-9d7b-60238225a3ec","system_id":"levelo_inurba_marseille","lat":43.26168,"lon":5.42055,"is_reserved":false,"is_disabled":false,"rental_uris":{"android":"levelo://app?vid=194f17c8-93f0-4ff7-9d7b-60238225a3ec","ios":"levelo://app?vid=194f17c8-93f0-4ff7-9d7b-60238225a3ec"},"vehicle_type_id":"4","last_reported":1747422528,"current_range_meters":18000,"station_id":"","pricing_plan_id":"cebpf4jnsgd1na2vs0mg"},{"bike_id":"94d77266-8198-4fa9-8657-181af8a6cbf9","system_id":"levelo_inurba_marseille","lat":43.29416,"lon":5.3864,"is_reserved":false,"is_disabled":false,"rental_uris":{"android":"levelo://app?vid=94d77266-8198-4fa9-8657-181af8a6cbf9","ios":"levelo://app?vid=94d77266-8198-4fa9-8657-181af8a6cbf9"},"vehicle_type_id":"4","last_reported":1747422528,"current_range_meters":18000,"station_id":"ce4bh2h2rcd13ifvqdh0","pricing_plan_id":"cebpf4jnsgd1na2vs0mg"},{"bike_id":"dec060d8-257e-4b5e-9e5a-1aa2856cb9f0","system_id":"levelo_inurba_marseille","lat":43.28669,"lon":5.38675,"is_reserved":false,"is_disabled":false,"rental_uris":{"android":"levelo://app?vid=dec060d8-257e-4b5e-9e5a-1aa2856cb9f0","ios":"levelo://app?vid=dec060d8-257e-4b5e-9e5a-1aa2856cb9f0"},"vehicle_type_id":"4","last_reported":1747422528,"current_range_meters":18000,"station_id":"ce4bh492rcd13ifvqdug","pricing_plan_id":"cebpf4jnsgd1na2vs0mg"},{"bike_id":"d46ee759-53f1-479a-9fd4-d42094101448","system_id":"levelo_inurba_marseille","lat":43.28438,"lon":5.34988,"is_reserved":false,"is_disabled":false,"rental_uris":{"android":"levelo://app?vid=d46ee759-53f1-479a-9fd4-d42094101448","ios":"levelo://app?vid=d46ee759-53f1-479a-9fd4-d42094101448"},"vehicle_type_id":"4","last_reported":1747422528,"current_range_meters":18000,"station_id":"ce4bhbh2rcd13ifvqepg","pricing_plan_id":"cebpf4jnsgd1na2vs0mg"},{"bike_id":"79053c56-ecde-43b1-807d-b0c1b2ea71c2","system_id":"levelo_inurba_marseille","lat":43.28424,"lon":5.34988,"is_reserved":false,"is_disabled":false,"rental_uris":{"android":"levelo://app?vid=79053c56-ecde-43b1-807d-b0c1b2ea71c2","ios":"levelo://app?vid=79053c56-ecde-43b1-807d-b0c1b2ea71c2"},"vehicle_type_id":"4","last_reported":1747422528,"current_range_meters":18000,"station_id":"ce4bhbh2rcd13ifvqepg","pricing_plan_id":"cebpf4jnsgd1na2vs0mg"},{"bike_id":"7b1c02f0-a958-4908-987a-7c97de45408b","system_id":"levelo_inurba_marseille","lat":43.28618,"lon":5.35105,"is_reserved":false,"is_disabled":false,"rental_uris":{"android":"levelo://app?vid=7b1c02f0-a958-4908-987a-7c97de45408b","ios":"levelo://app?vid=7b1c02f0-a958-4908-987a-7c97de45408b"},"vehicle_type_id":"4","last_reported":1747422528,"current_range_meters":18000,"station_id":"ce4bhch2rcd13ifvqeug","pricing_plan_id":"cebpf4jnsgd1na2vs0mg"},{"bike_id":"d60c9648-4aca-485d-8bf0-cf0ed263fd0b","system_id":"levelo_inurba_marseille","lat":43.255,"lon":5.37658,"is_reserved":false,"is_disabled":false,"rental_uris":{"android":"levelo://app?vid=d60c9648-4aca-485d-8bf0-cf0ed263fd0b","ios":"levelo://app?vid=d60c9648-4aca-485d-8bf0-cf0ed263fd0b"},"vehicle_type_id":"4","last_reported":1747422528,"current_range_meters":18000,"station_id":"ce4bhh12rcd13ifvqff0","pricing_plan_id":"cebpf4jnsgd1na2vs0mg"},{"bike_id":"7a04bc0f-2266-4da5-874a-e66afd7678dc","system_id":"levelo_inurba_marseille","lat":43.280884,"lon":5.396643,"is_reserved":false,"is_disabled":false,"rental_uris":{"android":"levelo://app?vid=7a04bc0f-2266-4da5-874a-e66afd7678dc","ios":"levelo://app?vid=7a04bc0f-2266-4da5-874a-e66afd7678dc"},"vehicle_type_id":"4","last_reported":1747422528,"current_range_meters":18000,"station_id":"ce4bho12rcd13ifvqh2g","pricing_plan_id":"cebpf4jnsgd1na2vs0mg"},{"bike_id":"59c7fcd3-795f-489f-9f16-e2cdf8cce8eb","system_id":"levelo_inurba_marseille","lat":43.32655,"lon":5.40999,"is_reserved":false,"is_disabled":false,"rental_uris":{"android":"levelo://app?vid=59c7fcd3-795f-489f-9f16-e2cdf8cce8eb","ios":"levelo://app?vid=59c7fcd3-795f-489f-9f16-e2cdf8cce8eb"},"vehicle_type_id":"4","last_reported":1747422528,"current_range_meters":18000,"station_id":"ce4bhpp2rcd13ifvqhgg","pricing_plan_id":"cebpf4jnsgd1na2vs0mg"},{"bike_id":"afdd845c-a8e9-4c9a-90a5-d920c4f73b26","system_id":"levelo_inurba_marseille","lat":43.22503,"lon":5.34787,"is_reserved":false,"is_disabled":false,"rental_uris":{"android":"levelo://app?vid=afdd845c-a8e9-4c9a-90a5-d920c4f73b26","ios":"levelo://app?vid=afdd845c-a8e9-4c9a-90a5-d920c4f73b26"},"vehicle_type_id":"4","last_reported":1747422528,"current_range_meters":18000,"station_id":"st_cvj5dfep6f1abm77gieg","pricing_plan_id":"cebpf4jnsgd1na2vs0mg"},{"bike_id":"92daedc9-997e-4e51-a6a7-8556d4714f07","system_id":"levelo_inurba_marseille","lat":43.30142,"lon":5.39856,"is_reserved":false,"is_disabled":false,"rental_uris":{"android":"levelo://app?vid=92daedc9-997e-4e51-a6a7-8556d4714f07","ios":"levelo://app?vid=92daedc9-997e-4e51-a6a7-8556d4714f07"},"vehicle_type_id":"4","last_reported":1747422528,"current_range_meters":18800,"station_id":"ce4bh0h2rcd13ifvqd40","pricing_plan_id":"cebpf4jnsgd1na2vs0mg"},{"bike_id":"7f3e74f9-8e45-4102-b53a-a1b6cc0c678e","system_id":"levelo_inurba_marseille","lat":43.29247,"lon":5.38435,"is_reserved":false,"is_disabled":false,"rental_uris":{"android":"levelo://app?vid=7f3e74f9-8e45-4102-b53a-a1b6cc0c678e","ios":"levelo://app?vid=7f3e74f9-8e45-4102-b53a-a1b6cc0c678e"},"vehicle_type_id":"4","last_reported":1747422528,"current_range_meters":18800,"station_id":"ce4bh692rcd13ifvqea0","pricing_plan_id":"cebpf4jnsgd1na2vs0mg"},{"bike_id":"05637b87-d5a0-42be-bf3e-bb5a83bb29d9","system_id":"levelo_inurba_marseille","lat":43.2899,"lon":5.35616,"is_reserved":false,"is_disabled":false,"rental_uris":{"android":"levelo://app?vid=05637b87-d5a0-42be-bf3e-bb5a83bb29d9","ios":"levelo://app?vid=05637b87-d5a0-42be-bf3e-bb5a83bb29d9"},"vehicle_type_id":"4","last_reported":1747422528,"current_range_meters":18800,"station_id":"ce4bhb92rcd13ifvqen0","pricing_plan_id":"cebpf4jnsgd1na2vs0mg"},{"bike_id":"083b05d3-116b-44f6-a74e-df3490a65e9b","system_id":"levelo_inurba_marseille","lat":43.24156,"lon":5.36427,"is_reserved":false,"is_disabled":false,"rental_uris":{"android":"levelo://app?vid=083b05d3-116b-44f6-a74e-df3490a65e9b","ios":"levelo://app?vid=083b05d3-116b-44f6-a74e-df3490a65e9b"},"vehicle_type_id":"4","last_reported":1747422528,"current_range_meters":18800,"station_id":"cpo36qri1sfpv3e86is0","pricing_plan_id":"cebpf4jnsgd1na2vs0mg"},{"bike_id":"0633a1ec-06be-495d-88ac-d402d86966fb","system_id":"levelo_inurba_marseille","lat":43.30031,"lon":5.37225,"is_reserved":false,"is_disabled":false,"rental_uris":{"android":"levelo://app?vid=0633a1ec-06be-495d-88ac-d402d86966fb","ios":"levelo://app?vid=0633a1ec-06be-495d-88ac-d402d86966fb"},"vehicle_type_id":"4","last_reported":1747422528,"current_range_meters":19200,"station_id":"","pricing_plan_id":"cebpf4jnsgd1na2vs0mg"},{"bike_id":"8e056ffe-bcc3-4cfa-bd3f-ab0666143657","system_id":"levelo_inurba_marseille","lat":43.28665,"lon":5.36356,"is_reserved":false,"is_disabled":false,"rental_uris":{"android":"levelo://app?vid=8e056ffe-bcc3-4cfa-bd3f-ab0666143657","ios":"levelo://app?vid=8e056ffe-bcc3-4cfa-bd3f-ab0666143657"},"vehicle_type_id":"4","last_reported":1747422528,"current_range_meters":19200,"station_id":"ce4bhah2rcd13ifvqej0","pricing_plan_id":"cebpf4jnsgd1na2vs0mg"},{"bike_id":"d12750c2-3f6a-4297-b3f9-7259142f7c2b","system_id":"levelo_inurba_marseille","lat":43.29193,"lon":5.35796,"is_reserved":false,"is_disabled":false,"rental_uris":{"android":"levelo://app?vid=d12750c2-3f6a-4297-b3f9-7259142f7c2b","ios":"levelo://app?vid=d12750c2-3f6a-4297-b3f9-7259142f7c2b"},"vehicle_type_id":"4","last_reported":1747422528,"current_range_meters":19200,"station_id":"ce4bhb12rcd13ifvqel0","pricing_plan_id":"cebpf4jnsgd1na2vs0mg"},{"bike_id":"037fe74b-f81c-43e3-a7b5-377182678a5a","system_id":"levelo_inurba_marseille","lat":43.27371,"lon":5.36253,"is_reserved":false,"is_disabled":false,"rental_uris":{"android":"levelo://app?vid=037fe74b-f81c-43e3-a7b5-377182678a5a","ios":"levelo://app?vid=037fe74b-f81c-43e3-a7b5-377182678a5a"},"vehicle_type_id":"4","last_reported":1747422528,"current_range_meters":19200,"station_id":"ce4bhbh2rcd13ifvqeo0","pricing_plan_id":"cebpf4jnsgd1na2vs0mg"},{"bike_id":"faade6d4-aad6-4c89-9e17-c020d1e9856e","system_id":"levelo_inurba_marseille","lat":43.28431,"lon":5.34991,"is_reserved":false,"is_disabled":false,"rental_uris":{"android":"levelo://app?vid=faade6d4-aad6-4c89-9e17-c020d1e9856e","ios":"levelo://app?vid=faade6d4-aad6-4c89-9e17-c020d1e9856e"},"vehicle_type_id":"4","last_reported":1747422528,"current_range_meters":19200,"station_id":"ce4bhbh2rcd13ifvqepg","pricing_plan_id":"cebpf4jnsgd1na2vs0mg"},{"bike_id":"56457156-ebc9-4bd5-8eae-ce0db2891a93","system_id":"levelo_inurba_marseille","lat":43.24663,"lon":5.3816,"is_reserved":false,"is_disabled":false,"rental_uris":{"android":"levelo://app?vid=56457156-ebc9-4bd5-8eae-ce0db2891a93","ios":"levelo://app?vid=56457156-ebc9-4bd5-8eae-ce0db2891a93"},"vehicle_type_id":"4","last_reported":1747422528,"current_range_meters":19200,"station_id":"ce4bhih2rcd13ifvqfr0","pricing_plan_id":"cebpf4jnsgd1na2vs0mg"},{"bike_id":"9c7e6cac-27d5-43a8-a557-9e812c52347a","system_id":"levelo_inurba_marseille","lat":43.25578,"lon":5.38229,"is_reserved":false,"is_disabled":false,"rental_uris":{"android":"levelo://app?vid=9c7e6cac-27d5-43a8-a557-9e812c52347a","ios":"levelo://app?vid=9c7e6cac-27d5-43a8-a557-9e812c52347a"},"vehicle_type_id":"4","last_reported":1747422528,"current_range_meters":19200,"station_id":"ce4bhih2rcd13ifvqfs0","pricing_plan_id":"cebpf4jnsgd1na2vs0mg"},{"bike_id":"10919474-4d0c-474b-8a31-23d373f2117d","system_id":"levelo_inurba_marseille","lat":43.28603,"lon":5.3707,"is_reserved":false,"is_disabled":false,"rental_uris":{"android":"levelo://app?vid=10919474-4d0c-474b-8a31-23d373f2117d","ios":"levelo://app?vid=10919474-4d0c-474b-8a31-23d373f2117d"},"vehicle_type_id":"4","last_reported":1747422528,"current_range_meters":19200,"station_id":"ce4bht12rcd13ifvqi60","pricing_plan_id":"cebpf4jnsgd1na2vs0mg"},{"bike_id":"4e10ca81-b4fd-4730-8198-5bcdb99db734","system_id":"levelo_inurba_marseille","lat":43.29302,"lon":5.37456,"is_reserved":false,"is_disabled":false,"rental_uris":{"android":"levelo://app?vid=4e10ca81-b4fd-4730-8198-5bcdb99db734","ios":"levelo://app?vid=4e10ca81-b4fd-4730-8198-5bcdb99db734"},"vehicle_type_id":"4","last_reported":1747422528,"current_range_meters":19600,"station_id":"ce4bgi12rcd13ifvqb70","pricing_plan_id":"cebpf4jnsgd1na2vs0mg"},{"bike_id":"29dad2c9-fd2d-47d8-aab8-efa95ed2c5ea","system_id":"levelo_inurba_marseille","lat":43.294275,"lon":5.38621,"is_reserved":false,"is_disabled":false,"rental_uris":{"android":"levelo://app?vid=29dad2c9-fd2d-47d8-aab8-efa95ed2c5ea","ios":"levelo://app?vid=29dad2c9-fd2d-47d8-aab8-efa95ed2c5ea"},"vehicle_type_id":"4","last_reported":1747422528,"current_range_meters":19600,"station_id":"ce4bh2h2rcd13ifvqdh0","pricing_plan_id":"cebpf4jnsgd1na2vs0mg"},{"bike_id":"5be532b7-33df-4806-96e9-0484f0dc30b3","system_id":"levelo_inurba_marseille","lat":43.29254,"lon":5.384323,"is_reserved":false,"is_disabled":false,"rental_uris":{"android":"levelo://app?vid=5be532b7-33df-4806-96e9-0484f0dc30b3","ios":"levelo://app?vid=5be532b7-33df-4806-96e9-0484f0dc30b3"},"vehicle_type_id":"4","last_reported":1747422528,"current_range_meters":19600,"station_id":"ce4bh692rcd13ifvqea0","pricing_plan_id":"cebpf4jnsgd1na2vs0mg"},{"bike_id":"89052c1b-e95c-422c-8ad1-9f017da0c226","system_id":"levelo_inurba_marseille","lat":43.286623,"lon":5.363627,"is_reserved":false,"is_disabled":false,"rental_uris":{"android":"levelo://app?vid=89052c1b-e95c-422c-8ad1-9f017da0c226","ios":"levelo://app?vid=89052c1b-e95c-422c-8ad1-9f017da0c226"},"vehicle_type_id":"4","last_reported":1747422528,"current_range_meters":19600,"station_id":"ce4bhah2rcd13ifvqej0","pricing_plan_id":"cebpf4jnsgd1na2vs0mg"},{"bike_id":"6cb8e838-883b-466c-bac0-3c17ceda48ff","system_id":"levelo_inurba_marseille","lat":43.29002,"lon":5.35613,"is_reserved":false,"is_disabled":false,"rental_uris":{"android":"levelo://app?vid=6cb8e838-883b-466c-bac0-3c17ceda48ff","ios":"levelo://app?vid=6cb8e838-883b-466c-bac0-3c17ceda48ff"},"vehicle_type_id":"4","last_reported":1747422528,"current_range_meters":19600,"station_id":"ce4bhb92rcd13ifvqen0","pricing_plan_id":"cebpf4jnsgd1na2vs0mg"},{"bike_id":"e0448571-9035-44a7-a5a2-a3834486ce1f","system_id":"levelo_inurba_marseille","lat":43.2923,"lon":5.36065,"is_reserved":false,"is_disabled":false,"rental_uris":{"android":"levelo://app?vid=e0448571-9035-44a7-a5a2-a3834486ce1f","ios":"levelo://app?vid=e0448571-9035-44a7-a5a2-a3834486ce1f"},"vehicle_type_id":"4","last_reported":1747422528,"current_range_meters":19600,"station_id":"ce4bhbh2rcd13ifvqeqg","pricing_plan_id":"cebpf4jnsgd1na2vs0mg"},{"bike_id":"c1a05539-6884-489e-8062-6de5aa0001a4","system_id":"levelo_inurba_marseille","lat":43.29228,"lon":5.36052,"is_reserved":false,"is_disabled":false,"rental_uris":{"android":"levelo://app?vid=c1a05539-6884-489e-8062-6de5aa0001a4","ios":"levelo://app?vid=c1a05539-6884-489e-8062-6de5aa0001a4"},"vehicle_type_id":"4","last_reported":1747422528,"current_range_meters":19600,"station_id":"ce4bhbh2rcd13ifvqeqg","pricing_plan_id":"cebpf4jnsgd1na2vs0mg"},{"bike_id":"78c01140-453e-4b02-b33b-e7be65e28c95","system_id":"levelo_inurba_marseille","lat":43.2549,"lon":5.37652,"is_reserved":false,"is_disabled":false,"rental_uris":{"android":"levelo://app?vid=78c01140-453e-4b02-b33b-e7be65e28c95","ios":"levelo://app?vid=78c01140-453e-4b02-b33b-e7be65e28c95"},"vehicle_type_id":"4","last_reported":1747422528,"current_range_meters":19600,"station_id":"ce4bhh12rcd13ifvqff0","pricing_plan_id":"cebpf4jnsgd1na2vs0mg"},{"bike_id":"b26a0dd7-cbdc-4ab7-8def-31c4b88b224a","system_id":"levelo_inurba_marseille","lat":43.31205,"lon":5.39257,"is_reserved":false,"is_disabled":false,"rental_uris":{"android":"levelo://app?vid=b26a0dd7-cbdc-4ab7-8def-31c4b88b224a","ios":"levelo://app?vid=b26a0dd7-cbdc-4ab7-8def-31c4b88b224a"},"vehicle_type_id":"4","last_reported":1747422528,"current_range_meters":20000,"station_id":"","pricing_plan_id":"cebpf4jnsgd1na2vs0mg"},{"bike_id":"83b5b573-ee09-4132-9753-487ea4560b33","system_id":"levelo_inurba_marseille","lat":43.27618,"lon":5.36117,"is_reserved":false,"is_disabled":false,"rental_uris":{"android":"levelo://app?vid=83b5b573-ee09-4132-9753-487ea4560b33","ios":"levelo://app?vid=83b5b573-ee09-4132-9753-487ea4560b33"},"vehicle_type_id":"4","last_reported":1747422528,"current_range_meters":20000,"station_id":"ce4bgj92rcd13ifvqbe0","pricing_plan_id":"cebpf4jnsgd1na2vs0mg"},{"bike_id":"c3e86e65-081a-4c5e-9d82-a10110c0ba8a","system_id":"levelo_inurba_marseille","lat":43.30592,"lon":5.39359,"is_reserved":false,"is_disabled":false,"rental_uris":{"android":"levelo://app?vid=c3e86e65-081a-4c5e-9d82-a10110c0ba8a","ios":"levelo://app?vid=c3e86e65-081a-4c5e-9d82-a10110c0ba8a"},"vehicle_type_id":"4","last_reported":1747422528,"current_range_meters":20000,"station_id":"ce4bh0p2rcd13ifvqd80","pricing_plan_id":"cebpf4jnsgd1na2vs0mg"},{"bike_id":"adf8c8a4-a7e5-4909-b7aa-f271c24006ff","system_id":"levelo_inurba_marseille","lat":43.292572,"lon":5.384472,"is_reserved":false,"is_disabled":false,"rental_uris":{"android":"levelo://app?vid=adf8c8a4-a7e5-4909-b7aa-f271c24006ff","ios":"levelo://app?vid=adf8c8a4-a7e5-4909-b7aa-f271c24006ff"},"vehicle_type_id":"4","last_reported":1747422528,"current_range_meters":20000,"station_id":"ce4bh692rcd13ifvqea0","pricing_plan_id":"cebpf4jnsgd1na2vs0mg"},{"bike_id":"cc40029f-60cd-41a9-b59d-ff68f87c403c","system_id":"levelo_inurba_marseille","lat":43.26676,"lon":5.38266,"is_reserved":false,"is_disabled":false,"rental_uris":{"android":"levelo://app?vid=cc40029f-60cd-41a9-b59d-ff68f87c403c","ios":"levelo://app?vid=cc40029f-60cd-41a9-b59d-ff68f87c403c"},"vehicle_type_id":"4","last_reported":1747422528,"current_range_meters":20000,"station_id":"ce4bhg92rcd13ifvqf90","pricing_plan_id":"cebpf4jnsgd1na2vs0mg"},{"bike_id":"40644aa0-abfb-4642-955e-9ec2ad00f50c","system_id":"levelo_inurba_marseille","lat":43.25492,"lon":5.3764,"is_reserved":false,"is_disabled":false,"rental_uris":{"android":"levelo://app?vid=40644aa0-abfb-4642-955e-9ec2ad00f50c","ios":"levelo://app?vid=40644aa0-abfb-4642-955e-9ec2ad00f50c"},"vehicle_type_id":"4","last_reported":1747422528,"current_range_meters":20000,"station_id":"ce4bhh12rcd13ifvqff0","pricing_plan_id":"cebpf4jnsgd1na2vs0mg"},{"bike_id":"2b6397ca-42e6-439e-9bd5-c30eb4702654","system_id":"levelo_inurba_marseille","lat":43.28075,"lon":5.39657,"is_reserved":false,"is_disabled":false,"rental_uris":{"android":"levelo://app?vid=2b6397ca-42e6-439e-9bd5-c30eb4702654","ios":"levelo://app?vid=2b6397ca-42e6-439e-9bd5-c30eb4702654"},"vehicle_type_id":"4","last_reported":1747422528,"current_range_meters":20000,"station_id":"ce4bho12rcd13ifvqh2g","pricing_plan_id":"cebpf4jnsgd1na2vs0mg"},