{"last_updated":1746432924,"ttl":60,"version":"2.2","data":{"bikes":[{"bike_id":"ca586fac-8084-4d8a-b26f-1737adad4b7a","system_id":"levelo_inurba_marseille","lat":43.34135,"lon":5.409,"is_reserved":false,"is_disabled":false,"rental_uris":{"android":"levelo://app?vid=ca586fac-8084-4d8a-b26f-1737adad4b7a","ios":"levelo://app?vid=ca586fac-8084-4d8a-b26f-1737adad4b7a"},"vehicle_type_id":"4","last_reported":1746432924,"current_range_meters":2800,"station_id":"ce4bhqh2rcd13ifvqhlg","pricing_plan_id":"cebpf4jnsgd1na2vs0mg"},{"bike_id":"3ab3c86e-8d2f-4e36-8bad-85bca3eb2e34","system_id":"levelo_inurba_marseille","lat":43.21754,"lon":5.34601,"is_reserved":false,"is_disabled":false,"rental_uris":{"android":"levelo://app?vid=3ab3c86e-8d2f-4e36-8bad-85bca3eb2e34","ios":"levelo://app?vid=3ab3c86e-8d2f-4e36-8bad-85bca3eb2e34"},"vehicle_type_id":"4","last_reported":1746432924,"current_range_meters":3200,"station_id":"st_cvj6r9ubvosntc0bgbag","pricing_plan_id":"cebpf4jnsgd1na2vs0mg"},{"bike_id":"17cd42e0-f3d6-4b5d-a7a7-aae4daea5f81","system_id":"levelo_inurba_marseille","lat":43.21203,"lon":5.35061,"is_reserved":false,"is_disabled":false,"rental_uris":{"android":"levelo://app?vid=17cd42e0-f3d6-4b5d-a7a7-aae4daea5f81","ios":"levelo://app?vid=17cd42e0-f3d6-4b5d-a7a7-aae4daea5f81"},"vehicle_type_id":"4","last_reported":1746432924,"current_range_meters":3200,"station_id":"","pricing_plan_id":"cebpf4jnsgd1na2vs0mg"},{"bike_id":"9c66a936-664c-4a39-b93d-9c68cb84b3fa","system_id":"levelo_inurba_marseille","lat":43.25577,"lon":5.38239,"is_reserved":false,"is_disabled":false,"rental_uris":{"android":"levelo://app?vid=9c66a936-664c-4a39-b93d-9c68cb84b3fa","ios":"levelo://app?vid=9c66a936-664c-4a39-b93d-9c68cb84b3fa"},"vehicle_type_id":"4","last_reported":1746432924,"current_range_meters":3600,"station_id":"ce4bhih2rcd13ifvqfs0","pricing_plan_id":"cebpf4jnsgd1na2vs0mg"},{"bike_id":"6ae9068b-8534-47e2-832a-cb0e5255371d","system_id":"levelo_inurba_marseille","lat":43.337444,"lon":5.374475,"is_reserved":false,"is_disabled":true,"rental_uris":{"android":"levelo://app?vid=6ae9068b-8534-47e2-832a-cb0e5255371d","ios":"levelo://app?vid=6ae9068b-8534-47e2-832a-cb0e5255371d"},"vehicle_type_id":"4","last_reported":1746432924,"current_range_meters":3600,"station_id":"ce4bgvp2rcd13ifvqct0","pricing_plan_id":"cebpf4jnsgd1na2vs0mg"},{"bike_id":"0e0be7bc-20e5-424a-89ff-1b6d292738ac","system_id":"levelo_inurba_marseille","lat":43.21748,"lon":5.34606,"is_reserved":false,"is_disabled":false,"rental_uris":{"android":"levelo://app?vid=0e0be7bc-20e5-424a-89ff-1b6d292738ac","ios":"levelo://app?vid=0e0be7bc-20e5-424a-89ff-1b6d292738ac"},"vehicle_type_id":"4","last_reported":1746432924,"current_range_meters":3600,"station_id":"st_cvj6r9ubvosntc0bgbag","pricing_plan_id":"cebpf4jnsgd1na2vs0mg"},{"bike_id":"effd09de-c76c-4d2d-834f-2fbddbd9b826","system_id":"levelo_inurba_marseille","lat":43.2606,"lon":5.39393,"is_reserved":false,"is_disabled":false,"rental_uris":{"android":"levelo://app?vid=effd09de-c76c-4d2d-834f-2fbddbd9b826","ios":"levelo://app?vid=effd09de-c76c-4d2d-834f-2fbddbd9b826"},"vehicle_type_id":"4","last_reported":1746432924,"current_range_meters":3600,"station_id":"ce4bhh92rcd13ifvqfj0","pricing_plan_id":"cebpf4jnsgd1na2vs0mg"},{"bike_id":"e9c24f3d-2135-45ef-8f3e-49aaf01d2847","system_id":"levelo_inurba_marseille","lat":43.2624,"lon":5.37553,"is_reserved":false,"is_disabled":false,"rental_uris":{"android":"levelo://app?vid=e9c24f3d-2135-45ef-8f3e-49aaf01d2847","ios":"levelo://app?vid=e9c24f3d-2135-45ef-8f3e-49aaf01d2847"},"vehicle_type_id":"4","last_reported":1746432924,"current_range_meters":4000,"station_id":"","pricing_plan_id":"cebpf4jnsgd1na2vs0mg"},{"bike_id":"2ae2843e-824a-43b3-99f2-3528849b8949","system_id":"levelo_inurba_marseille","lat":43.29035,"lon":5.39971,"is_reserved":false,"is_disabled":false,"rental_uris":{"android":"levelo://app?vid=2ae2843e-824a-43b3-99f2-3528849b8949","ios":"levelo://app?vid=2ae2843e-824a-43b3-99f2-3528849b8949"},"vehicle_type_id":"4","last_reported":1746432924,"current_range_meters":3600,"station_id":"ce4bh392rcd13ifvqdm0","pricing_plan_id":"cebpf4jnsgd1na2vs0mg"},{"bike_id":"ec1f53d7-ecca-4dca-a0bc-c0ef5b3b9c66","system_id":"levelo_inurba_marseille","lat":43.2593,"lon":5.40899,"is_reserved":false,"is_disabled":true,"rental_uris":{"android":"levelo://app?vid=ec1f53d7-ecca-4dca-a0bc-c0ef5b3b9c66","ios":"levelo://app?vid=ec1f53d7-ecca-4dca-a0bc-c0ef5b3b9c66"},"vehicle_type_id":"4","last_reported":1746432924,"current_range_meters":4800,"station_id":"ce4bhm92rcd13ifvqglg","pricing_plan_id":"cebpf4jnsgd1na2vs0mg"},{"bike_id":"c9a593ad-feb4-418e-ab08-8f3b0193337d","system_id":"levelo_inurba_marseille","lat":43.27053,"lon":5.40248,"is_reserved":false,"is_disabled":false,"rental_uris":{"android":"levelo://app?vid=c9a593ad-feb4-418e-ab08-8f3b0193337d","ios":"levelo://app?vid=c9a593ad-feb4-418e-ab08-8f3b0193337d"},"vehicle_type_id":"4","last_reported":1746432924,"current_range_meters":4800,"station_id":"ce4bhk92rcd13ifvqgc0","pricing_plan_id":"cebpf4jnsgd1na2vs0mg"},{"bike_id":"4009a77b-fe27-4d0e-82d7-e7e29be4a9e9","system_id":"levelo_inurba_marseille","lat":43.242191,"lon":5.367354,"is_reserved":false,"is_disabled":true,"rental_uris":{"android":"levelo://app?vid=4009a77b-fe27-4d0e-82d7-e7e29be4a9e9","ios":"levelo://app?vid=4009a77b-fe27-4d0e-82d7-e7e29be4a9e9"},"vehicle_type_id":"4","last_reported":1746432924,"current_range_meters":4800,"station_id":"","pricing_plan_id":"cebpf4jnsgd1na2vs0mg"},{"bike_id":"4d9c785a-6a14-4f60-8bcb-eb74d56c9262","system_id":"levelo_inurba_marseille","lat":43.27123,"lon":5.42237,"is_reserved":false,"is_disabled":false,"rental_uris":{"android":"levelo://app?vid=4d9c785a-6a14-4f60-8bcb-eb74d56c9262","ios":"levelo://app?vid=4d9c785a-6a14-4f60-8bcb-eb74d56c9262"},"vehicle_type_id":"4","last_reported":1746432924,"current_range_meters":5600,"station_id":"","pricing_plan_id":"cebpf4jnsgd1na2vs0mg"},{"bike_id":"d521c5a2-aa5f-441d-8ebe-3829d1ceff33","system_id":"levelo_inurba_marseille","lat":43.28934,"lon":5.39631,"is_reserved":false,"is_disabled":false,"rental_uris":{"android":"levelo://app?vid=d521c5a2-aa5f-441d-8ebe-3829d1ceff33","ios":"levelo://app?vid=d521c5a2-aa5f-441d-8ebe-3829d1ceff33"},"vehicle_type_id":"4","last_reported":1746432924,"current_range_meters":5600,"station_id":"ce4bh3h2rcd13ifvqdn0","pricing_plan_id":"cebpf4jnsgd1na2vs0mg"},{"bike_id":"f43a2f53-b393-4eec-b049-3bda8fff4961","system_id":"levelo_inurba_marseille","lat":43.26929,"lon":5.38926,"is_reserved":false,"is_disabled":false,"rental_uris":{"android":"levelo://app?vid=f43a2f53-b393-4eec-b049-3bda8fff4961","ios":"levelo://app?vid=f43a2f53-b393-4eec-b049-3bda8fff4961"},"vehicle_type_id":"4","last_reported":1746432924,"current_range_meters":5600,"station_id":"ce4bhhh2rcd13ifvqfl0","pricing_plan_id":"cebpf4jnsgd1na2vs0mg"},{"bike_id":"314df586-207c-4a89-8b40-3e4c328204cd","system_id":"levelo_inurba_marseille","lat":43.24647,"lon":5.38893,"is_reserved":false,"is_disabled":false,"rental_uris":{"android":"levelo://app?vid=314df586-207c-4a89-8b40-3e4c328204cd","ios":"levelo://app?vid=314df586-207c-4a89-8b40-3e4c328204cd"},"vehicle_type_id":"4","last_reported":1746432924,"current_range_meters":5600,"station_id":"ce4bhg12rcd13ifvqf60","pricing_plan_id":"cebpf4jnsgd1na2vs0mg"},{"bike_id":"8458b09a-0279-4c5a-9f7d-d00e69645517","system_id":"levelo_inurba_marseille","lat":43.30886,"lon":5.39657,"is_reserved":false,"is_disabled":false,"rental_uris":{"android":"levelo://app?vid=8458b09a-0279-4c5a-9f7d-d00e69645517","ios":"levelo://app?vid=8458b09a-0279-4c5a-9f7d-d00e69645517"},"vehicle_type_id":"4","last_reported":1746432924,"current_range_meters":6400,"station_id":"ce4bh012rcd13ifvqcv0","pricing_plan_id":"cebpf4jnsgd1na2vs0mg"},{"bike_id":"30e398d3-b32f-40b3-b1d8-9d99aae30a72","system_id":"levelo_inurba_marseille","lat":43.239658,"lon":5.366274,"is_reserved":false,"is_disabled":false,"rental_uris":{"android":"levelo://app?vid=30e398d3-b32f-40b3-b1d8-9d99aae30a72","ios":"levelo://app?vid=30e398d3-b32f-40b3-b1d8-9d99aae30a72"},"vehicle_type_id":"4","last_reported":1746432924,"current_range_meters":6400,"station_id":"","pricing_plan_id":"cebpf4jnsgd1na2vs0mg"},{"bike_id":"30e9e160-dd44-4d8a-9f6b-462e00eb332a","system_id":"levelo_inurba_marseille","lat":43.27494,"lon":5.42459,"is_reserved":false,"is_disabled":false,"rental_uris":{"android":"levelo://app?vid=30e9e160-dd44-4d8a-9f6b-462e00eb332a","ios":"levelo://app?vid=30e9e160-dd44-4d8a-9f6b-462e00eb332a"},"vehicle_type_id":"4","last_reported":1746432924,"current_range_meters":6400,"station_id":"ce4bhn92rcd13ifvqgrg","pricing_plan_id":"cebpf4jnsgd1na2vs0mg"},{"bike_id":"1d59b5c9-cca4-43f9-a7f4-1bb7ebcfb8ae","system_id":"levelo_inurba_marseille","lat":43.27373,"lon":5.362545,"is_reserved":false,"is_disabled":true,"rental_uris":{"android":"levelo://app?vid=1d59b5c9-cca4-43f9-a7f4-1bb7ebcfb8ae","ios":"levelo://app?vid=1d59b5c9-cca4-43f9-a7f4-1bb7ebcfb8ae"},"vehicle_type_id":"4","last_reported":1746432924,"current_range_meters":6400,"station_id":"","pricing_plan_id":"cebpf4jnsgd1na2vs0mg"},{"bike_id":"a7cd7cac-5a32-4d14-92f2-2738618b7e69","system_id":"levelo_inurba_marseille","lat":43.25947,"lon":5.40896,"is_reserved":false,"is_disabled":false,"rental_uris":{"android":"levelo://app?vid=a7cd7cac-5a32-4d14-92f2-2738618b7e69","ios":"levelo://app?vid=a7cd7cac-5a32-4d14-92f2-2738618b7e69"},"vehicle_type_id":"4","last_reported":1746432924,"current_range_meters":6400,"station_id":"ce4bhm92rcd13ifvqglg","pricing_plan_id":"cebpf4jnsgd1na2vs0mg"},{"bike_id":"6c9949a5-08b3-4f70-8646-e2ee22338a27","system_id":"levelo_inurba_marseille","lat":43.27386,"lon":5.39022,"is_reserved":false,"is_disabled":false,"rental_uris":{"android":"levelo://app?vid=6c9949a5-08b3-4f70-8646-e2ee22338a27","ios":"levelo://app?vid=6c9949a5-08b3-4f70-8646-e2ee22338a27"},"vehicle_type_id":"4","last_reported":1746432924,"current_range_meters":6800,"station_id":"","pricing_plan_id":"cebpf4jnsgd1na2vs0mg"},{"bike_id":"404da817-f031-4950-ba8b-2104a38b67fb","system_id":"levelo_inurba_marseille","lat":43.27191,"lon":5.40986,"is_reserved":false,"is_disabled":false,"rental_uris":{"android":"levelo://app?vid=404da817-f031-4950-ba8b-2104a38b67fb","ios":"levelo://app?vid=404da817-f031-4950-ba8b-2104a38b67fb"},"vehicle_type_id":"4","last_reported":1746432924,"current_range_meters":6800,"station_id":"ce4bhl12rcd13ifvqgf0","pricing_plan_id":"cebpf4jnsgd1na2vs0mg"},{"bike_id":"c7721381-4822-4e5c-b852-29469111a93d","system_id":"levelo_inurba_marseille","lat":43.24065,"lon":5.37765,"is_reserved":false,"is_disabled":false,"rental_uris":{"android":"levelo://app?vid=c7721381-4822-4e5c-b852-29469111a93d","ios":"levelo://app?vid=c7721381-4822-4e5c-b852-29469111a93d"},"vehicle_type_id":"4","last_reported":1746432924,"current_range_meters":6800,"station_id":"ce4bhnp2rcd13ifvqgvg","pricing_plan_id":"cebpf4jnsgd1na2vs0mg"},{"bike_id":"9cb3676d-2097-48bf-86e5-50e46aa8eb7c","system_id":"levelo_inurba_marseille","lat":43.25926,"lon":5.40914,"is_reserved":false,"is_disabled":false,"rental_uris":{"android":"levelo://app?vid=9cb3676d-2097-48bf-86e5-50e46aa8eb7c","ios":"levelo://app?vid=9cb3676d-2097-48bf-86e5-50e46aa8eb7c"},"vehicle_type_id":"4","last_reported":1746432924,"current_range_meters":6800,"station_id":"ce4bhm92rcd13ifvqglg","pricing_plan_id":"cebpf4jnsgd1na2vs0mg"},{"bike_id":"274ad913-cb5d-44ea-8484-26eae07424ea","system_id":"levelo_inurba_marseille","lat":43.25869,"lon":5.39903,"is_reserved":false,"is_disabled":true,"rental_uris":{"android":"levelo://app?vid=274ad913-cb5d-44ea-8484-26eae07424ea","ios":"levelo://app?vid=274ad913-cb5d-44ea-8484-26eae07424ea"},"vehicle_type_id":"4","last_reported":1746432924,"current_range_meters":6800,"station_id":"ce4bhl92rcd13ifvqghg","pricing_plan_id":"cebpf4jnsgd1na2vs0mg"},{"bike_id":"e26ad76c-4e0d-44e8-931c-a9e544c88880","system_id":"levelo_inurba_marseille","lat":43.30739,"lon":5.42429,"is_reserved":false,"is_disabled":false,"rental_uris":{"android":"levelo://app?vid=e26ad76c-4e0d-44e8-931c-a9e544c88880","ios":"levelo://app?vid=e26ad76c-4e0d-44e8-931c-a9e544c88880"},"vehicle_type_id":"4","last_reported":1746432924,"current_range_meters":6800,"station_id":"st_cvj6ca6bvosntc0bfgr0","pricing_plan_id":"cebpf4jnsgd1na2vs0mg"},{"bike_id":"d55c8237-2304-4efd-993e-dc727f0f1b6a","system_id":"levelo_inurba_marseille","lat":43.224989,"lon":5.347854,"is_reserved":false,"is_disabled":false,"rental_uris":{"android":"levelo://app?vid=d55c8237-2304-4efd-993e-dc727f0f1b6a","ios":"levelo://app?vid=d55c8237-2304-4efd-993e-dc727f0f1b6a"},"vehicle_type_id":"4","last_reported":1746432924,"current_range_meters":7200,"station_id":"st_cvj5dfep6f1abm77gieg","pricing_plan_id":"cebpf4jnsgd1na2vs0mg"},{"bike_id":"890d09c2-72bb-44cd-882e-36d3351aaf82","system_id":"levelo_inurba_marseille","lat":43.2439,"lon":5.37061,"is_reserved":false,"is_disabled":false,"rental_uris":{"android":"levelo://app?vid=890d09c2-72bb-44cd-882e-36d3351aaf82","ios":"levelo://app?vid=890d09c2-72bb-44cd-882e-36d3351aaf82"},"vehicle_type_id":"4","last_reported":1746432924,"current_range_meters":7200,"station_id":"ce4bhhh2rcd13ifvqfk0","pricing_plan_id":"cebpf4jnsgd1na2vs0mg"},{"bike_id":"401cc479-1bac-40f0-a531-9f4b9cc18b25","system_id":"levelo_inurba_marseille","lat":43.27496,"lon":5.42453,"is_reserved":false,"is_disabled":false,"rental_uris":{"android":"levelo://app?vid=401cc479-1bac-40f0-a531-9f4b9cc18b25","ios":"levelo://app?vid=401cc479-1bac-40f0-a531-9f4b9cc18b25"},"vehicle_type_id":"4","last_reported":1746432924,"current_range_meters":7200,"station_id":"ce4bhn92rcd13ifvqgrg","pricing_plan_id":"cebpf4jnsgd1na2vs0mg"},{"bike_id":"1c53114f-12ea-4131-9a1b-7fbb80d9df57","system_id":"levelo_inurba_marseille","lat":43.27066,"lon":5.42268,"is_reserved":false,"is_disabled":true,"rental_uris":{"android":"levelo://app?vid=1c53114f-12ea-4131-9a1b-7fbb80d9df57","ios":"levelo://app?vid=1c53114f-12ea-4131-9a1b-7fbb80d9df57"},"vehicle_type_id":"4","last_reported":1746432924,"current_range_meters":7200,"station_id":"ce4bhk92rcd13ifvqgb0","pricing_plan_id":"cebpf4jnsgd1na2vs0mg"},{"bike_id":"5cb514da-8890-4dea-a26e-2faf3b2b093b","system_id":"levelo_inurba_marseille","lat":43.31087,"lon":5.42431,"is_reserved":false,"is_disabled":false,"rental_uris":{"android":"levelo://app?vid=5cb514da-8890-4dea-a26e-2faf3b2b093b","ios":"levelo://app?vid=5cb514da-8890-4dea-a26e-2faf3b2b093b"},"vehicle_type_id":"4","last_reported":1746432924,"current_range_meters":7200,"station_id":"ce4bhp92rcd13ifvqhag","pricing_plan_id":"cebpf4jnsgd1na2vs0mg"},{"bike_id":"57ce2cb0-c1ee-48da-9f69-6cd6cf2307d5","system_id":"levelo_inurba_marseille","lat":43.30373,"lon":5.42462,"is_reserved":false,"is_disabled":false,"rental_uris":{"android":"levelo://app?vid=57ce2cb0-c1ee-48da-9f69-6cd6cf2307d5","ios":"levelo://app?vid=57ce2cb0-c1ee-48da-9f69-6cd6cf2307d5"},"vehicle_type_id":"4","last_reported":1746432924,"current_range_meters":7200,"station_id":"ce4bhoh2rcd13ifvqh6g","pricing_plan_id":"cebpf4jnsgd1na2vs0mg"},{"bike_id":"51e137dc-06d4-4721-8a2f-24e002c6d5d0","system_id":"levelo_inurba_marseille","lat":43.24071,"lon":5.37767,"is_reserved":false,"is_disabled":false,"rental_uris":{"android":"levelo://app?vid=51e137dc-06d4-4721-8a2f-24e002c6d5d0","ios":"levelo://app?vid=51e137dc-06d4-4721-8a2f-24e002c6d5d0"},"vehicle_type_id":"4","last_reported":1746432924,"current_range_meters":7200,"station_id":"ce4bhnp2rcd13ifvqgvg","pricing_plan_id":"cebpf4jnsgd1na2vs0mg"},{"bike_id":"f56979cd-ee41-4894-9341-086b4077c3d1","system_id":"levelo_inurba_marseille","lat":43.30187,"lon":5.36612,"is_reserved":false,"is_disabled":false,"rental_uris":{"android":"levelo://app?vid=f56979cd-ee41-4894-9341-086b4077c3d1","ios":"levelo://app?vid=f56979cd-ee41-4894-9341-086b4077c3d1"},"vehicle_type_id":"4","last_reported":1746432924,"current_range_meters":8000,"station_id":"ce4bgrh2rcd13ifvqc8g","pricing_plan_id":"cebpf4jnsgd1na2vs0mg"},{"bike_id":"917d3dfe-fe05-4d62-b132-42ecb62bc09e","system_id":"levelo_inurba_marseille","lat":43.30373,"lon":5.42484,"is_reserved":false,"is_disabled":false,"rental_uris":{"android":"levelo://app?vid=917d3dfe-fe05-4d62-b132-42ecb62bc09e","ios":"levelo://app?vid=917d3dfe-fe05-4d62-b132-42ecb62bc09e"},"vehicle_type_id":"4","last_reported":1746432924,"current_range_meters":8000,"station_id":"ce4bhoh2rcd13ifvqh6g","pricing_plan_id":"cebpf4jnsgd1na2vs0mg"},{"bike_id":"49a5b02e-4dd3-4ad0-8c54-1410d2bce66c","system_id":"levelo_inurba_marseille","lat":43.29367,"lon":5.37843,"is_reserved":false,"is_disabled":false,"rental_uris":{"android":"levelo://app?vid=49a5b02e-4dd3-4ad0-8c54-1410d2bce66c","ios":"levelo://app?vid=49a5b02e-4dd3-4ad0-8c54-1410d2bce66c"},"vehicle_type_id":"4","last_reported":1746432924,"current_range_meters":7200,"station_id":"ce4bgjh2rcd13ifvqbf0","pricing_plan_id":"cebpf4jnsgd1na2vs0mg"},{"bike_id":"fa981afb-0854-461c-b8c6-e1d3a778170f","system_id":"levelo_inurba_marseille","lat":43.25946,"lon":5.40912,"is_reserved":false,"is_disabled":false,"rental_uris":{"android":"levelo://app?vid=fa981afb-0854-461c-b8c6-e1d3a778170f","ios":"levelo://app?vid=fa981afb-0854-461c-b8c6-e1d3a778170f"},"vehicle_type_id":"4","last_reported":1746432924,"current_range_meters":8000,"station_id":"ce4bhm92rcd13ifvqglg","pricing_plan_id":"cebpf4jnsgd1na2vs0mg"},{"bike_id":"ce1f22fd-a76c-4696-9c9a-1fe63adde41c","system_id":"levelo_inurba_marseille","lat":43.25585,"lon":5.38222,"is_reserved":false,"is_disabled":false,"rental_uris":{"android":"levelo://app?vid=ce1f22fd-a76c-4696-9c9a-1fe63adde41c","ios":"levelo://app?vid=ce1f22fd-a76c-4696-9c9a-1fe63adde41c"},"vehicle_type_id":"4","last_reported":1746432924,"current_range_meters":8000,"station_id":"ce4bhih2rcd13ifvqfs0","pricing_plan_id":"cebpf4jnsgd1na2vs0mg"},{"bike_id":"aa38edf3-39cb-4f0b-8879-e56678138e7d","system_id":"levelo_inurba_marseille","lat":43.31356,"lon":5.36639,"is_reserved":false,"is_disabled":false,"rental_uris":{"android":"levelo://app?vid=aa38edf3-39cb-4f0b-8879-e56678138e7d","ios":"levelo://app?vid=aa38edf3-39cb-4f0b-8879-e56678138e7d"},"vehicle_type_id":"4","last_reported":1746432924,"current_range_meters":8000,"station_id":"","pricing_plan_id":"cebpf4jnsgd1na2vs0mg"},{"bike_id":"09bf453b-83a3-4bd1-8bd1-c0e9b54e4cca","system_id":"levelo_inurba_marseille","lat":43.27497,"lon":5.42441,"is_reserved":false,"is_disabled":false,"rental_uris":{"android":"levelo://app?vid=09bf453b-83a3-4bd1-8bd1-c0e9b54e4cca","ios":"levelo://app?vid=09bf453b-83a3-4bd1-8bd1-c0e9b54e4cca"},"vehicle_type_id":"4","last_reported":1746432924,"current_range_meters":8000,"station_id":"ce4bhn92rcd13ifvqgrg","pricing_plan_id":"cebpf4jnsgd1na2vs0mg"},{"bike_id":"aedf206f-89f3-4f30-9da6-56fb7ff8915b","system_id":"levelo_inurba_marseille","lat":43.281,"lon":5.4038,"is_reserved":false,"is_disabled":false,"rental_uris":{"android":"levelo://app?vid=aedf206f-89f3-4f30-9da6-56fb7ff8915b","ios":"levelo://app?vid=aedf206f-89f3-4f30-9da6-56fb7ff8915b"},"vehicle_type_id":"4","last_reported":1746432924,"current_range_meters":8400,"station_id":"","pricing_plan_id":"cebpf4jnsgd1na2vs0mg"},{"bike_id":"d093ace3-d1b3-4c5a-8ce9-e4972a5f26f5","system_id":"levelo_inurba_marseille","lat":43.27515,"lon":5.42451,"is_reserved":false,"is_disabled":false,"rental_uris":{"android":"levelo://app?vid=d093ace3-d1b3-4c5a-8ce9-e4972a5f26f5","ios":"levelo://app?vid=d093ace3-d1b3-4c5a-8ce9-e4972a5f26f5"},"vehicle_type_id":"4","last_reported":1746432924,"current_range_meters":8400,"station_id":"ce4bhn92rcd13ifvqgrg","pricing_plan_id":"cebpf4jnsgd1na2vs0mg"},{"bike_id":"bd278318-d5f1-4ccf-9ac5-893e7bd91ba3","system_id":"levelo_inurba_marseille","lat":43.323668,"lon":5.367664,"is_reserved":false,"is_disabled":false,"rental_uris":{"android":"levelo://app?vid=bd278318-d5f1-4ccf-9ac5-893e7bd91ba3","ios":"levelo://app?vid=bd278318-d5f1-4ccf-9ac5-893e7bd91ba3"},"vehicle_type_id":"4","last_reported":1746432924,"current_range_meters":8400,"station_id":"ce4bhsh2rcd13ifvqi2g","pricing_plan_id":"cebpf4jnsgd1na2vs0mg"},{"bike_id":"77e5fc0c-8247-4eae-976e-b65c5c479c47","system_id":"levelo_inurba_marseille","lat":43.24384,"lon":5.37053,"is_reserved":false,"is_disabled":false,"rental_uris":{"android":"levelo://app?vid=77e5fc0c-8247-4eae-976e-b65c5c479c47","ios":"levelo://app?vid=77e5fc0c-8247-4eae-976e-b65c5c479c47"},"vehicle_type_id":"4","last_reported":1746432924,"current_range_meters":8400,"station_id":"ce4bhhh2rcd13ifvqfk0","pricing_plan_id":"cebpf4jnsgd1na2vs0mg"},{"bike_id":"ee64fd8c-faa3-4107-a7d6-b5ab52a3bfeb","system_id":"levelo_inurba_marseille","lat":43.30905,"lon":5.36845,"is_reserved":false,"is_disabled":false,"rental_uris":{"android":"levelo://app?vid=ee64fd8c-faa3-4107-a7d6-b5ab52a3bfeb","ios":"levelo://app?vid=ee64fd8c-faa3-4107-a7d6-b5ab52a3bfeb"},"vehicle_type_id":"4","last_reported":1746432924,"current_range_meters":8400,"station_id":"","pricing_plan_id":"cebpf4jnsgd1na2vs0mg"},{"bike_id":"ec8f4ea7-838d-47da-ac61-10d7595cf8dd","system_id":"levelo_inurba_marseille","lat":43.27497,"lon":5.42438,"is_reserved":false,"is_disabled":false,"rental_uris":{"android":"levelo://app?vid=ec8f4ea7-838d-47da-ac61-10d7595cf8dd","ios":"levelo://app?vid=ec8f4ea7-838d-47da-ac61-10d7595cf8dd"},"vehicle_type_id":"4","last_reported":1746432924,"current_range_meters":8800,"station_id":"ce4bhn92rcd13ifvqgrg","pricing_plan_id":"cebpf4jnsgd1na2vs0mg"},{"bike_id":"ec93380d-7b90-4f55-954c-15196220a862","system_id":"levelo_inurba_marseille","lat":43.3054,"lon":5.36547,"is_reserved":false,"is_disabled":false,"rental_uris":{"android":"levelo://app?vid=ec93380d-7b90-4f55-954c-15196220a862","ios":"levelo://app?vid=ec93380d-7b90-4f55-954c-15196220a862"},"vehicle_type_id":"4","last_reported":1746432924,"current_range_meters":8800,"station_id":"ce4bgs12rcd13ifvqcag","pricing_plan_id":"cebpf4jnsgd1na2vs0mg"},{"bike_id":"f28f6892-6b8e-4bb4-bd97-24bcbf7f6f01","system_id":"levelo_inurba_marseille","lat":43.23193,"lon":5.39972,"is_reserved":false,"is_disabled":false,"rental_uris":{"android":"levelo://app?vid=f28f6892-6b8e-4bb4-bd97-24bcbf7f6f01","ios":"levelo://app?vid=f28f6892-6b8e-4bb4-bd97-24bcbf7f6f01"},"vehicle_type_id":"4","last_reported":1746432924,"current_range_meters":9200,"station_id":"ce4bhn12rcd13ifvqgqg","pricing_plan_id":"cebpf4jnsgd1na2vs0mg"},{"bike_id":"4eb9db42-3879-4a3b-b5e1-3ce3d419d090","system_id":"levelo_inurba_marseille","lat":43.260595,"lon":5.394056,"is_reserved":false,"is_disabled":false,"rental_uris":{"android":"levelo://app?vid=4eb9db42-3879-4a3b-b5e1-3ce3d419d090","ios":"levelo://app?vid=4eb9db42-3879-4a3b-b5e1-3ce3d419d090"},"vehicle_type_id":"4","last_reported":1746432924,"current_range_meters":9200,"station_id":"ce4bhh92rcd13ifvqfj0","pricing_plan_id":"cebpf4jnsgd1na2vs0mg"},{"bike_id":"b8ebe123-18b6-4e5d-addb-12ec10c089ac","system_id":"levelo_inurba_marseille","lat":43.32087,"lon":5.3677,"is_reserved":false,"is_disabled":false,"rental_uris":{"android":"levelo://app?vid=b8ebe123-18b6-4e5d-addb-12ec10c089ac","ios":"levelo://app?vid=b8ebe123-18b6-4e5d-addb-12ec10c089ac"},"vehicle_type_id":"4","last_reported":1746432924,"current_range_meters":9200,"station_id":"ce4bhrh2rcd13ifvqhug","pricing_plan_id":"cebpf4jnsgd1na2vs0mg"},{"bike_id":"8b0c3822-6de0-476d-848f-c498fea1df37","system_id":"levelo_inurba_marseille","lat":43.25818,"lon":5.39432,"is_reserved":false,"is_disabled":false,"rental_uris":{"android":"levelo://app?vid=8b0c3822-6de0-476d-848f-c498fea1df37","ios":"levelo://app?vid=8b0c3822-6de0-476d-848f-c498fea1df37"},"vehicle_type_id":"4","last_reported":1746432924,"current_range_meters":9200,"station_id":"ce4bhip2rcd13ifvqft0","pricing_plan_id":"cebpf4jnsgd1na2vs0mg"},{"bike_id":"40b796b3-3168-4979-ab11-fe3c17a90ad2","system_id":"levelo_inurba_marseille","lat":43.27496,"lon":5.42454,"is_reserved":false,"is_disabled":false,"rental_uris":{"android":"levelo://app?vid=40b796b3-3168-4979-ab11-fe3c17a90ad2","ios":"levelo://app?vid=40b796b3-3168-4979-ab11-fe3c17a90ad2"},"vehicle_type_id":"4","last_reported":1746432924,"current_range_meters":9200,"station_id":"ce4bhn92rcd13ifvqgrg","pricing_plan_id":"cebpf4jnsgd1na2vs0mg"},{"bike_id":"26041b1f-bf05-4248-b8f5-229a08c6e70f","system_id":"levelo_inurba_marseille","lat":43.28465,"lon":5.43174,"is_reserved":false,"is_disabled":false,"rental_uris":{"android":"levelo://app?vid=26041b1f-bf05-4248-b8f5-229a08c6e70f","ios":"levelo://app?vid=26041b1f-bf05-4248-b8f5-229a08c6e70f"},"vehicle_type_id":"4","last_reported":1746432924,"current_range_meters":9200,"station_id":"","pricing_plan_id":"cebpf4jnsgd1na2vs0mg"},{"bike_id":"6c267926-d3ae-465b-ab08-7fd28ac529e0","system_id":"levelo_inurba_marseille","lat":43.24178,"lon":5.39732,"is_reserved":false,"is_disabled":false,"rental_uris":{"android":"levelo://app?vid=6c267926-d3ae-465b-ab08-7fd28ac529e0","ios":"levelo://app?vid=6c267926-d3ae-465b-ab08-7fd28ac529e0"},"vehicle_type_id":"4","last_reported":1746432924,"current_range_meters":9600,"station_id":"ce4bhn12rcd13ifvqgpg","pricing_plan_id":"cebpf4jnsgd1na2vs0mg"},{"bike_id":"cec02868-da4c-46a9-bbda-15dc1c82835b","system_id":"levelo_inurba_marseille","lat":43.23143,"lon":5.43716,"is_reserved":false,"is_disabled":false,"rental_uris":{"android":"levelo://app?vid=cec02868-da4c-46a9-bbda-15dc1c82835b","ios":"levelo://app?vid=cec02868-da4c-46a9-bbda-15dc1c82835b"},"vehicle_type_id":"4","last_reported":1746432924,"current_range_meters":9600,"station_id":"ce4bhmp2rcd13ifvqgog","pricing_plan_id":"cebpf4jnsgd1na2vs0mg"},{"bike_id":"10fa59ce-c249-4991-8845-0acc789b9453","system_id":"levelo_inurba_marseille","lat":43.24185,"lon":5.39716,"is_reserved":false,"is_disabled":false,"rental_uris":{"android":"levelo://app?vid=10fa59ce-c249-4991-8845-0acc789b9453","ios":"levelo://app?vid=10fa59ce-c249-4991-8845-0acc789b9453"},"vehicle_type_id":"4","last_reported":1746432924,"current_range_meters":9600,"station_id":"ce4bhn12rcd13ifvqgpg","pricing_plan_id":"cebpf4jnsgd1na2vs0mg"},{"bike_id":"97688b4c-0ec9-48ac-8764-d0c79da2c4ff","system_id":"levelo_inurba_marseille","lat":43.25822,"lon":5.39415,"is_reserved":false,"is_disabled":false,"rental_uris":{"android":"levelo://app?vid=97688b4c-0ec9-48ac-8764-d0c79da2c4ff","ios":"levelo://app?vid=97688b4c-0ec9-48ac-8764-d0c79da2c4ff"},"vehicle_type_id":"4","last_reported":1746432924,"current_range_meters":9600,"station_id":"ce4bhip2rcd13ifvqft0","pricing_plan_id":"cebpf4jnsgd1na2vs0mg"},{"bike_id":"0d5e9f62-fdec-48bc-a7ca-242b65dac380","system_id":"levelo_inurba_marseille","lat":43.27493,"lon":5.42455,"is_reserved":false,"is_disabled":true,"rental_uris":{"android":"levelo://app?vid=0d5e9f62-fdec-48bc-a7ca-242b65dac380","ios":"levelo://app?vid=0d5e9f62-fdec-48bc-a7ca-242b65dac380"},"vehicle_type_id":"4","last_reported":1746432924,"current_range_meters":9600,"station_id":"ce4bhn92rcd13ifvqgrg","pricing_plan_id":"cebpf4jnsgd1na2vs0mg"},{"bike_id":"43f220ab-0408-46b3-abe5-60437ce3bc1e","system_id":"levelo_inurba_marseille","lat":43.231889,"lon":5.355576,"is_reserved":false,"is_disabled":false,"rental_uris":{"android":"levelo://app?vid=43f220ab-0408-46b3-abe5-60437ce3bc1e","ios":"levelo://app?vid=43f220ab-0408-46b3-abe5-60437ce3bc1e"},"vehicle_type_id":"4","last_reported":1746432924,"current_range_meters":10000,"station_id":"ce4bhu92rcd13ifvqi70","pricing_plan_id":"cebpf4jnsgd1na2vs0mg"},{"bike_id":"6195b61c-2612-4a04-be42-49a963780aba","system_id":"levelo_inurba_marseille","lat":43.21745,"lon":5.34603,"is_reserved":false,"is_disabled":false,"rental_uris":{"android":"levelo://app?vid=6195b61c-2612-4a04-be42-49a963780aba","ios":"levelo://app?vid=6195b61c-2612-4a04-be42-49a963780aba"},"vehicle_type_id":"4","last_reported":1746432924,"current_range_meters":10000,"station_id":"","pricing_plan_id":"cebpf4jnsgd1na2vs0mg"},{"bike_id":"e6a7b0e6-b96e-4491-9dad-1722052aca3b","system_id":"levelo_inurba_marseille","lat":43.27482,"lon":5.42438,"is_reserved":false,"is_disabled":false,"rental_uris":{"android":"levelo://app?vid=e6a7b0e6-b96e-4491-9dad-1722052aca3b","ios":"levelo://app?vid=e6a7b0e6-b96e-4491-9dad-1722052aca3b"},"vehicle_type_id":"4","last_reported":1746432924,"current_range_meters":10000,"station_id":"ce4bhn92rcd13ifvqgrg","pricing_plan_id":"cebpf4jnsgd1na2vs0mg"},{"bike_id":"7c01aac7-df14-45d7-920c-b42e524dee8d","system_id":"levelo_inurba_marseille","lat":43.2396,"lon":5.3663,"is_reserved":false,"is_disabled":false,"rental_uris":{"android":"levelo://app?vid=7c01aac7-df14-45d7-920c-b42e524dee8d","ios":"levelo://app?vid=7c01aac7-df14-45d7-920c-b42e524dee8d"},"vehicle_type_id":"4","last_reported":1746432924,"current_range_meters":10800,"station_id":"ce4bhi12rcd13ifvqfp0","pricing_plan_id":"cebpf4jnsgd1na2vs0mg"},{"bike_id":"b8abb655-4bb8-43f1-b792-12585c92d8d1","system_id":"levelo_inurba_marseille","lat":43.24183,"lon":5.39727,"is_reserved":false,"is_disabled":false,"rental_uris":{"android":"levelo://app?vid=b8abb655-4bb8-43f1-b792-12585c92d8d1","ios":"levelo://app?vid=b8abb655-4bb8-43f1-b792-12585c92d8d1"},"vehicle_type_id":"4","last_reported":1746432924,"current_range_meters":10800,"station_id":"ce4bhn12rcd13ifvqgpg","pricing_plan_id":"cebpf4jnsgd1na2vs0mg"},{"bike_id":"2a0baa54-a4a1-49ca-a07b-b1778b885a9f","system_id":"levelo_inurba_marseille","lat":43.2416,"lon":5.39736,"is_reserved":false,"is_disabled":false,"rental_uris":{"android":"levelo://app?vid=2a0baa54-a4a1-49ca-a07b-b1778b885a9f","ios":"levelo://app?vid=2a0baa54-a4a1-49ca-a07b-b1778b885a9f"},"vehicle_type_id":"4","last_reported":1746432924,"current_range_meters":10800,"station_id":"ce4bhn12rcd13ifvqgpg","pricing_plan_id":"cebpf4jnsgd1na2vs0mg"},{"bike_id":"baaef453-22b3-4399-bde5-9dc9c4282f18","system_id":"levelo_inurba_marseille","lat":43.2971,"lon":5.36614,"is_reserved":false,"is_disabled":false,"rental_uris":{"android":"levelo://app?vid=baaef453-22b3-4399-bde5-9dc9c4282f18","ios":"levelo://app?vid=baaef453-22b3-4399-bde5-9dc9c4282f18"},"vehicle_type_id":"4","last_reported":1746432924,"current_range_meters":10000,"station_id":"ce4bgn12rcd13ifvqbt0","pricing_plan_id":"cebpf4jnsgd1na2vs0mg"},{"bike_id":"a64c34d8-72e2-4f8f-919b-2e2b4805437e","system_id":"levelo_inurba_marseille","lat":43.33728,"lon":5.39187,"is_reserved":false,"is_disabled":false,"rental_uris":{"android":"levelo://app?vid=a64c34d8-72e2-4f8f-919b-2e2b4805437e","ios":"levelo://app?vid=a64c34d8-72e2-4f8f-919b-2e2b4805437e"},"vehicle_type_id":"4","last_reported":1746432924,"current_range_meters":11200,"station_id":"ce4bhr92rcd13ifvqhsg","pricing_plan_id":"cebpf4jnsgd1na2vs0mg"},{"bike_id":"031a303b-cd94-42ed-bea7-14e9b8863667","system_id":"levelo_inurba_marseille","lat":43.27058,"lon":5.40258,"is_reserved":false,"is_disabled":false,"rental_uris":{"android":"levelo://app?vid=031a303b-cd94-42ed-bea7-14e9b8863667","ios":"levelo://app?vid=031a303b-cd94-42ed-bea7-14e9b8863667"},"vehicle_type_id":"4","last_reported":1746432924,"current_range_meters":11200,"station_id":"ce4bhk92rcd13ifvqgc0","pricing_plan_id":"cebpf4jnsgd1na2vs0mg"},{"bike_id":"1d9da762-2800-4004-b160-0cb1d9166652","system_id":"levelo_inurba_marseille","lat":43.30536,"lon":5.36696,"is_reserved":false,"is_disabled":false,"rental_uris":{"android":"levelo://app?vid=1d9da762-2800-4004-b160-0cb1d9166652","ios":"levelo://app?vid=1d9da762-2800-4004-b160-0cb1d9166652"},"vehicle_type_id":"4","last_reported":1746432924,"current_range_meters":11200,"station_id":"ce4bgrp2rcd13ifvqc9g","pricing_plan_id":"cebpf4jnsgd1na2vs0mg"},{"bike_id":"c1433ce3-c302-4d9c-89e8-03a0d20c737a","system_id":"levelo_inurba_marseille","lat":43.26961,"lon":5.3862,"is_reserved":false,"is_disabled":true,"rental_uris":{"android":"levelo://app?vid=c1433ce3-c302-4d9c-89e8-03a0d20c737a","ios":"levelo://app?vid=c1433ce3-c302-4d9c-89e8-03a0d20c737a"},"vehicle_type_id":"4","last_reported":1746432924,"current_range_meters":11200,"station_id":"ce4bhh92rcd13ifvqfh0","pricing_plan_id":"cebpf4jnsgd1na2vs0mg"},{"bike_id":"9d871546-0b53-492b-ba64-1e20ad89ded6","system_id":"levelo_inurba_marseille","lat":43.30138,"lon":5.37419,"is_reserved":false,"is_disabled":false,"rental_uris":{"android":"levelo://app?vid=9d871546-0b53-492b-ba64-1e20ad89ded6","ios":"levelo://app?vid=9d871546-0b53-492b-ba64-1e20ad89ded6"},"vehicle_type_id":"4","last_reported":1746432924,"current_range_meters":11200,"station_id":"ce4bgs92rcd13ifvqcc0","pricing_plan_id":"cebpf4jnsgd1na2vs0mg"},{"bike_id":"418386e3-abf3-40a0-be92-f17c77a2278e","system_id":"levelo_inurba_marseille","lat":43.280421,"lon":5.417249,"is_reserved":false,"is_disabled":false,"rental_uris":{"android":"levelo://app?vid=418386e3-abf3-40a0-be92-f17c77a2278e","ios":"levelo://app?vid=418386e3-abf3-40a0-be92-f17c77a2278e"},"vehicle_type_id":"4","last_reported":1746432924,"current_range_meters":10800,"station_id":"ce4bhnh2rcd13ifvqgug","pricing_plan_id":"cebpf4jnsgd1na2vs0mg"},{"bike_id":"578732df-51ae-47a2-8d9a-a3a489ba150f","system_id":"levelo_inurba_marseille","lat":43.29549,"lon":5.42273,"is_reserved":false,"is_disabled":false,"rental_uris":{"android":"levelo://app?vid=578732df-51ae-47a2-8d9a-a3a489ba150f","ios":"levelo://app?vid=578732df-51ae-47a2-8d9a-a3a489ba150f"},"vehicle_type_id":"4","last_reported":1746432924,"current_range_meters":11600,"station_id":"ce4bhph2rcd13ifvqhdg","pricing_plan_id":"cebpf4jnsgd1na2vs0mg"},{"bike_id":"f82da221-9da0-4961-ba2c-086a8895ab5a","system_id":"levelo_inurba_marseille","lat":43.29714,"lon":5.37685,"is_reserved":false,"is_disabled":false,"rental_uris":{"android":"levelo://app?vid=f82da221-9da0-4961-ba2c-086a8895ab5a","ios":"levelo://app?vid=f82da221-9da0-4961-ba2c-086a8895ab5a"},"vehicle_type_id":"4","last_reported":1746432924,"current_range_meters":11600,"station_id":"ce4bgkh2rcd13ifvqbl0","pricing_plan_id":"cebpf4jnsgd1na2vs0mg"},{"bike_id":"3c693482-60d1-4614-a4d0-85983f472372","system_id":"levelo_inurba_marseille","lat":43.34142,"lon":5.40901,"is_reserved":false,"is_disabled":false,"rental_uris":{"android":"levelo://app?vid=3c693482-60d1-4614-a4d0-85983f472372","ios":"levelo://app?vid=3c693482-60d1-4614-a4d0-85983f472372"},"vehicle_type_id":"4","last_reported":1746432924,"current_range_meters":11600,"station_id":"ce4bhqh2rcd13ifvqhlg","pricing_plan_id":"cebpf4jnsgd1na2vs0mg"},{"bike_id":"846193b3-3113-4489-a3b6-68e6e748d45a","system_id":"levelo_inurba_marseille","lat":43.30141,"lon":5.37428,"is_reserved":false,"is_disabled":false,"rental_uris":{"android":"levelo://app?vid=846193b3-3113-4489-a3b6-68e6e748d45a","ios":"levelo://app?vid=846193b3-3113-4489-a3b6-68e6e748d45a"},"vehicle_type_id":"4","last_reported":1746432924,"current_range_meters":12000,"station_id":"ce4bgs92rcd13ifvqcc0","pricing_plan_id":"cebpf4jnsgd1na2vs0mg"},{"bike_id":"5a5c7bcb-f93d-4b61-b82b-94b032be29f1","system_id":"levelo_inurba_marseille","lat":43.28352,"lon":5.38095,"is_reserved":false,"is_disabled":false,"rental_uris":{"android":"levelo://app?vid=5a5c7bcb-f93d-4b61-b82b-94b032be29f1","ios":"levelo://app?vid=5a5c7bcb-f93d-4b61-b82b-94b032be29f1"},"vehicle_type_id":"4","last_reported":1746432924,"current_range_meters":12400,"station_id":"ce4bh412rcd13ifvqdr0","pricing_plan_id":"cebpf4jnsgd1na2vs0mg"},{"bike_id":"6541fd63-6c6b-4f6b-b5ad-83b6829727f2","system_id":"levelo_inurba_marseille","lat":43.2749,"lon":5.42473,"is_reserved":false,"is_disabled":false,"rental_uris":{"android":"levelo://app?vid=6541fd63-6c6b-4f6b-b5ad-83b6829727f2","ios":"levelo://app?vid=6541fd63-6c6b-4f6b-b5ad-83b6829727f2"},"vehicle_type_id":"4","last_reported":1746432924,"current_range_meters":12400,"station_id":"ce4bhn92rcd13ifvqgrg","pricing_plan_id":"cebpf4jnsgd1na2vs0mg"},{"bike_id":"1fa061b5-8aba-4af7-b488-a41a91f0f750","system_id":"levelo_inurba_marseille","lat":43.30904,"lon":5.36844,"is_reserved":false,"is_disabled":false,"rental_uris":{"android":"levelo://app?vid=1fa061b5-8aba-4af7-b488-a41a91f0f750","ios":"levelo://app?vid=1fa061b5-8aba-4af7-b488-a41a91f0f750"},"vehicle_type_id":"4","last_reported":1746432924,"current_range_meters":12400,"station_id":"","pricing_plan_id":"cebpf4jnsgd1na2vs0mg"},{"bike_id":"f26fffbb-4f09-4b6b-992d-d10f7a4199a6","system_id":"levelo_inurba_marseille","lat":43.28721,"lon":5.37935,"is_reserved":false,"is_disabled":false,"rental_uris":{"android":"levelo://app?vid=f26fffbb-4f09-4b6b-992d-d10f7a4199a6","ios":"levelo://app?vid=f26fffbb-4f09-4b6b-992d-d10f7a4199a6"},"vehicle_type_id":"4","last_reported":1746432924,"current_range_meters":12400,"station_id":"ce4bh9p2rcd13ifvqec0","pricing_plan_id":"cebpf4jnsgd1na2vs0mg"},{"bike_id":"d342a70b-0490-4dea-b796-15cb5536d152","system_id":"levelo_inurba_marseille","lat":43.32105,"lon":5.36775,"is_reserved":false,"is_disabled":false,"rental_uris":{"android":"levelo://app?vid=d342a70b-0490-4dea-b796-15cb5536d152","ios":"levelo://app?vid=d342a70b-0490-4dea-b796-15cb5536d152"},"vehicle_type_id":"4","last_reported":1746432924,"current_range_meters":12400,"station_id":"ce4bhrh2rcd13ifvqhug","pricing_plan_id":"cebpf4jnsgd1na2vs0mg"},{"bike_id":"6517a73f-cd8a-49b9-b806-4cbe2809437f","system_id":"levelo_inurba_marseille","lat":43.31359,"lon":5.38502,"is_reserved":false,"is_disabled":true,"rental_uris":{"android":"levelo://app?vid=6517a73f-cd8a-49b9-b806-4cbe2809437f","ios":"levelo://app?vid=6517a73f-cd8a-49b9-b806-4cbe2809437f"},"vehicle_type_id":"4","last_reported":1746432924,"current_range_meters":12800,"station_id":"ce4bgt92rcd13ifvqcf0","pricing_plan_id":"cebpf4jnsgd1na2vs0mg"},{"bike_id":"1888a6ef-4e5f-4115-9bde-e2fe57427fa9","system_id":"levelo_inurba_marseille","lat":43.2418,"lon":5.39733,"is_reserved":false,"is_disabled":false,"rental_uris":{"android":"levelo://app?vid=1888a6ef-4e5f-4115-9bde-e2fe57427fa9","ios":"levelo://app?vid=1888a6ef-4e5f-4115-9bde-e2fe57427fa9"},"vehicle_type_id":"4","last_reported":1746432924,"current_range_meters":12800,"station_id":"ce4bhn12rcd13ifvqgpg","pricing_plan_id":"cebpf4jnsgd1na2vs0mg"},{"bike_id":"76c6a74a-a9fa-468b-9b10-2b3e71431de4","system_id":"levelo_inurba_marseille","lat":43.29222,"lon":5.360403,"is_reserved":false,"is_disabled":true,"rental_uris":{"android":"levelo://app?vid=76c6a74a-a9fa-468b-9b10-2b3e71431de4","ios":"levelo://app?vid=76c6a74a-a9fa-468b-9b10-2b3e71431de4"},"vehicle_type_id":"4","last_reported":1746432924,"current_range_meters":12800,"station_id":"ce4bhbh2rcd13ifvqeqg","pricing_plan_id":"cebpf4jnsgd1na2vs0mg"},{"bike_id":"1933757e-ed35-48b5-a4d4-a9175c7262fa","system_id":"levelo_inurba_marseille","lat":43.2465,"lon":5.38896,"is_reserved":false,"is_disabled":true,"rental_uris":{"android":"levelo://app?vid=1933757e-ed35-48b5-a4d4-a9175c7262fa","ios":"levelo://app?vid=1933757e-ed35-48b5-a4d4-a9175c7262fa"},"vehicle_type_id":"4","last_reported":1746432924,"current_range_meters":12800,"station_id":"ce4bhg12rcd13ifvqf60","pricing_plan_id":"cebpf4jnsgd1na2vs0mg"},{"bike_id":"dcf74a70-002d-4da8-ab1f-c28dc8cdf5f1","system_id":"levelo_inurba_marseille","lat":43.30145,"lon":5.37407,"is_reserved":false,"is_disabled":false,"rental_uris":{"android":"levelo://app?vid=dcf74a70-002d-4da8-ab1f-c28dc8cdf5f1","ios":"levelo://app?vid=dcf74a70-002d-4da8-ab1f-c28dc8cdf5f1"},"vehicle_type_id":"4","last_reported":1746432924,"current_range_meters":12800,"station_id":"ce4bgs92rcd13ifvqcc0","pricing_plan_id":"cebpf4jnsgd1na2vs0mg"},{"bike_id":"d2f7b36f-41c7-4032-8bdb-2d8a6a60677e","system_id":"levelo_inurba_marseille","lat":43.29573,"lon":5.39963,"is_reserved":false,"is_disabled":false,"rental_uris":{"android":"levelo://app?vid=d2f7b36f-41c7-4032-8bdb-2d8a6a60677e","ios":"levelo://app?vid=d2f7b36f-41c7-4032-8bdb-2d8a6a60677e"},"vehicle_type_id":"4","last_reported":1746432924,"current_range_meters":13600,"station_id":"ce4bh312rcd13ifvqdj0","pricing_plan_id":"cebpf4jnsgd1na2vs0mg"},{"bike_id":"cffbacbf-4858-4766-9076-5a03ad48e077","system_id":"levelo_inurba_marseille","lat":43.24068,"lon":5.37752,"is_reserved":false,"is_disabled":false,"rental_uris":{"android":"levelo://app?vid=cffbacbf-4858-4766-9076-5a03ad48e077","ios":"levelo://app?vid=cffbacbf-4858-4766-9076-5a03ad48e077"},"vehicle_type_id":"4","last_reported":1746432924,"current_range_meters":13600,"station_id":"ce4bhnp2rcd13ifvqgvg","pricing_plan_id":"cebpf4jnsgd1na2vs0mg"},{"bike_id":"33c5eb74-e8bd-4457-939f-139e40a69911","system_id":"levelo_inurba_marseille","lat":43.250909,"lon":5.403388,"is_reserved":false,"is_disabled":false,"rental_uris":{"android":"levelo://app?vid=33c5eb74-e8bd-4457-939f-139e40a69911","ios":"levelo://app?vid=33c5eb74-e8bd-4457-939f-139e40a69911"},"vehicle_type_id":"4","last_reported":1746432924,"current_range_meters":13600,"station_id":"ce4bhlh2rcd13ifvqgig","pricing_plan_id":"cebpf4jnsgd1na2vs0mg"},{"bike_id":"cf91e37a-42cb-40a8-9a27-071c7ed6b022","system_id":"levelo_inurba_marseille","lat":43.289995,"lon":5.356149,"is_reserved":false,"is_disabled":true,"rental_uris":{"android":"levelo://app?vid=cf91e37a-42cb-40a8-9a27-071c7ed6b022","ios":"levelo://app?vid=cf91e37a-42cb-40a8-9a27-071c7ed6b022"},"vehicle_type_id":"4","last_reported":1746432924,"current_range_meters":14000,"station_id":"ce4bhb92rcd13ifvqen0","pricing_plan_id":"cebpf4jnsgd1na2vs0mg"},{"bike_id":"bb0d5e0e-5e3b-4dfa-bd76-d908f509bad1","system_id":"levelo_inurba_marseille","lat":43.27509,"lon":5.42487,"is_reserved":false,"is_disabled":false,"rental_uris":{"android":"levelo://app?vid=bb0d5e0e-5e3b-4dfa-bd76-d908f509bad1","ios":"levelo://app?vid=bb0d5e0e-5e3b-4dfa-bd76-d908f509bad1"},"vehicle_type_id":"4","last_reported":1746432924,"current_range_meters":14000,"station_id":"ce4bhn92rcd13ifvqgrg","pricing_plan_id":"cebpf4jnsgd1na2vs0mg"},{"bike_id":"d8dddb3c-973c-4c26-b131-ff30c7829ba1","system_id":"levelo_inurba_marseille","lat":43.312149,"lon":5.368607,"is_reserved":false,"is_disabled":false,"rental_uris":{"android":"levelo://app?vid=d8dddb3c-973c-4c26-b131-ff30c7829ba1","ios":"levelo://app?vid=d8dddb3c-973c-4c26-b131-ff30c7829ba1"},"vehicle_type_id":"4","last_reported":1746432924,"current_range_meters":14000,"station_id":"ce4bgl92rcd13ifvqbq0","pricing_plan_id":"cebpf4jnsgd1na2vs0mg"},{"bike_id":"e5689a6d-89fe-4ac5-9333-31e165fdc6e6","system_id":"levelo_inurba_marseille","lat":43.295738,"lon":5.399774,"is_reserved":false,"is_disabled":false,"rental_uris":{"android":"levelo://app?vid=e5689a6d-89fe-4ac5-9333-31e165fdc6e6","ios":"levelo://app?vid=e5689a6d-89fe-4ac5-9333-31e165fdc6e6"},"vehicle_type_id":"4","last_reported":1746432924,"current_range_meters":13600,"station_id":"ce4bh312rcd13ifvqdj0","pricing_plan_id":"cebpf4jnsgd1na2vs0mg"},{"bike_id":"6202145c-764a-4d32-82de-c5e7e04002a2","system_id":"levelo_inurba_marseille","lat":43.306446,"lon":5.401036,"is_reserved":false,"is_disabled":false,"rental_uris":{"android":"levelo://app?vid=6202145c-764a-4d32-82de-c5e7e04002a2","ios":"levelo://app?vid=6202145c-764a-4d32-82de-c5e7e04002a2"},"vehicle_type_id":"4","last_reported":1746432924,"current_range_meters":14000,"station_id":"ce4bh112rcd13ifvqda0","pricing_plan_id":"cebpf4jnsgd1na2vs0mg"},{"bike_id":"265000d4-7d5d-469b-b0f6-790507cac9e9","system_id":"levelo_inurba_marseille","lat":43.30594,"lon":5.39365,"is_reserved":false,"is_disabled":true,"rental_uris":{"android":"levelo://app?vid=265000d4-7d5d-469b-b0f6-790507cac9e9","ios":"levelo://app?vid=265000d4-7d5d-469b-b0f6-790507cac9e9"},"vehicle_type_id":"4","last_reported":1746432924,"current_range_meters":14400,"station_id":"ce4bh0p2rcd13ifvqd80","pricing_plan_id":"cebpf4jnsgd1na2vs0mg"},{"bike_id":"56f4e078-c9d6-4e29-a0cc-a3afe30e4612","system_id":"levelo_inurba_marseille","lat":43.320977,"lon":5.36785,"is_reserved":false,"is_disabled":true,"rental_uris":{"android":"levelo://app?vid=56f4e078-c9d6-4e29-a0cc-a3afe30e4612","ios":"levelo://app?vid=56f4e078-c9d6-4e29-a0cc-a3afe30e4612"},"vehicle_type_id":"4","last_reported":1746432924,"current_range_meters":14400,"station_id":"ce4bhrh2rcd13ifvqhug","pricing_plan_id":"cebpf4jnsgd1na2vs0mg"},{"bike_id":"3ff1331f-d2b9-4db6-9af0-17b5a04341a5","system_id":"levelo_inurba_marseille","lat":43.24337,"lon":5.37995,"is_reserved":false,"is_disabled":false,"rental_uris":{"android":"levelo://app?vid=3ff1331f-d2b9-4db6-9af0-17b5a04341a5","ios":"levelo://app?vid=3ff1331f-d2b9-4db6-9af0-17b5a04341a5"},"vehicle_type_id":"4","last_reported":1746432924,"current_range_meters":14400,"station_id":"","pricing_plan_id":"cebpf4jnsgd1na2vs0mg"},{"bike_id":"12e8f0e2-48a3-4865-bb8c-a620f19384c3","system_id":"levelo_inurba_marseille","lat":43.29017,"lon":5.35596,"is_reserved":false,"is_disabled":true,"rental_uris":{"android":"levelo://app?vid=12e8f0e2-48a3-4865-bb8c-a620f19384c3","ios":"levelo://app?vid=12e8f0e2-48a3-4865-bb8c-a620f19384c3"},"vehicle_type_id":"4","last_reported":1746432924,"current_range_meters":14400,"station_id":"ce4bhb92rcd13ifvqen0","pricing_plan_id":"cebpf4jnsgd1na2vs0mg"},{"bike_id":"b3cbb21e-793f-478c-9965-8205d52774c6","system_id":"levelo_inurba_marseille","lat":43.307355,"lon":5.424455,"is_reserved":false,"is_disabled":false,"rental_uris":{"android":"levelo://app?vid=b3cbb21e-793f-478c-9965-8205d52774c6","ios":"levelo://app?vid=b3cbb21e-793f-478c-9965-8205d52774c6"},"vehicle_type_id":"4","last_reported":1746432924,"current_range_meters":14400,"station_id":"st_cvj6ca6bvosntc0bfgr0","pricing_plan_id":"cebpf4jnsgd1na2vs0mg"},{"bike_id":"dbce784b-1646-4596-ba51-2cc683d527d4","system_id":"levelo_inurba_marseille","lat":43.31364,"lon":5.36705,"is_reserved":false,"is_disabled":false,"rental_uris":{"android":"levelo://app?vid=dbce784b-1646-4596-ba51-2cc683d527d4","ios":"levelo://app?vid=dbce784b-1646-4596-ba51-2cc683d527d4"},"vehicle_type_id":"4","last_reported":1746432924,"current_range_meters":14800,"station_id":"ce4bgr92rcd13ifvqc6g","pricing_plan_id":"cebpf4jnsgd1na2vs0mg"},{"bike_id":"85f883d2-106b-4bee-bdac-860bc4667032","system_id":"levelo_inurba_marseille","lat":43.241663,"lon":5.363963,"is_reserved":false,"is_disabled":false,"rental_uris":{"android":"levelo://app?vid=85f883d2-106b-4bee-bdac-860bc4667032","ios":"levelo://app?vid=85f883d2-106b-4bee-bdac-860bc4667032"},"vehicle_type_id":"4","last_reported":1746432924,"current_range_meters":14800,"station_id":"cpo36qri1sfpv3e86is0","pricing_plan_id":"cebpf4jnsgd1na2vs0mg"},{"bike_id":"a7393548-1ca4-426f-bec8-e094325f844e","system_id":"levelo_inurba_marseille","lat":43.26268,"lon":5.37428,"is_reserved":false,"is_disabled":false,"rental_uris":{"android":"levelo://app?vid=a7393548-1ca4-426f-bec8-e094325f844e","ios":"levelo://app?vid=a7393548-1ca4-426f-bec8-e094325f844e"},"vehicle_type_id":"4","last_reported":1746432924,"current_range_meters":14800,"station_id":"","pricing_plan_id":"cebpf4jnsgd1na2vs0mg"},{"bike_id":"d252a272-7b85-44ee-b117-a17b072d1a91","system_id":"levelo_inurba_marseille","lat":43.21751,"lon":5.3461,"is_reserved":false,"is_disabled":false,"rental_uris":{"android":"levelo://app?vid=d252a272-7b85-44ee-b117-a17b072d1a91","ios":"levelo://app?vid=d252a272-7b85-44ee-b117-a17b072d1a91"},"vehicle_type_id":"4","last_reported":1746432924,"current_range_meters":14800,"station_id":"st_cvj6r9ubvosntc0bgbag","pricing_plan_id":"cebpf4jnsgd1na2vs0mg"},{"bike_id":"052ae931-d246-417f-a779-9d77ffcefbbe","system_id":"levelo_inurba_marseille","lat":43.27501,"lon":5.4245,"is_reserved":false,"is_disabled":false,"rental_uris":{"android":"levelo://app?vid=052ae931-d246-417f-a779-9d77ffcefbbe","ios":"levelo://app?vid=052ae931-d246-417f-a779-9d77ffcefbbe"},"vehicle_type_id":"4","last_reported":1746432924,"current_range_meters":15200,"station_id":"ce4bhn92rcd13ifvqgrg","pricing_plan_id":"cebpf4jnsgd1na2vs0mg"},{"bike_id":"a22b4984-2b8f-4a60-b7ed-a340d72ffe00","system_id":"levelo_inurba_marseille","lat":43.2593,"lon":5.40916,"is_reserved":false,"is_disabled":true,"rental_uris":{"android":"levelo://app?vid=a22b4984-2b8f-4a60-b7ed-a340d72ffe00","ios":"levelo://app?vid=a22b4984-2b8f-4a60-b7ed-a340d72ffe00"},"vehicle_type_id":"4","last_reported":1746432924,"current_range_meters":15200,"station_id":"ce4bhm92rcd13ifvqglg","pricing_plan_id":"cebpf4jnsgd1na2vs0mg"},{"bike_id":"89c1c22e-4deb-4a12-b25d-9d0f09a1f79b","system_id":"levelo_inurba_marseille","lat":43.21747,"lon":5.34601,"is_reserved":false,"is_disabled":false,"rental_uris":{"android":"levelo://app?vid=89c1c22e-4deb-4a12-b25d-9d0f09a1f79b","ios":"levelo://app?vid=89c1c22e-4deb-4a12-b25d-9d0f09a1f79b"},"vehicle_type_id":"4","last_reported":1746432924,"current_range_meters":15200,"station_id":"st_cvj6r9ubvosntc0bgbag","pricing_plan_id":"cebpf4jnsgd1na2vs0mg"},{"bike_id":"9f28a669-d18b-420b-964c-ac94e6fdf85f","system_id":"levelo_inurba_marseille","lat":43.21745,"lon":5.34612,"is_reserved":false,"is_disabled":true,"rental_uris":{"android":"levelo://app?vid=9f28a669-d18b-420b-964c-ac94e6fdf85f","ios":"levelo://app?vid=9f28a669-d18b-420b-964c-ac94e6fdf85f"},"vehicle_type_id":"4","last_reported":1746432924,"current_range_meters":15200,"station_id":"st_cvj6r9ubvosntc0bgbag","pricing_plan_id":"cebpf4jnsgd1na2vs0mg"},{"bike_id":"645be672-c17a-476b-b1be-9f764fbe34da","system_id":"levelo_inurba_marseille","lat":43.33605,"lon":5.41036,"is_reserved":false,"is_disabled":false,"rental_uris":{"android":"levelo://app?vid=645be672-c17a-476b-b1be-9f764fbe34da","ios":"levelo://app?vid=645be672-c17a-476b-b1be-9f764fbe34da"},"vehicle_type_id":"4","last_reported":1746432924,"current_range_meters":15200,"station_id":"ce4bhqh2rcd13ifvqhmg","pricing_plan_id":"cebpf4jnsgd1na2vs0mg"},{"bike_id":"f589fc42-057a-43b9-81ad-55c2a575aecf","system_id":"levelo_inurba_marseille","lat":43.31088,"lon":5.38371,"is_reserved":false,"is_disabled":true,"rental_uris":{"android":"levelo://app?vid=f589fc42-057a-43b9-81ad-55c2a575aecf","ios":"levelo://app?vid=f589fc42-057a-43b9-81ad-55c2a575aecf"},"vehicle_type_id":"4","last_reported":1746432924,"current_range_meters":16000,"station_id":"","pricing_plan_id":"cebpf4jnsgd1na2vs0mg"},{"bike_id":"0e42e81c-9a07-4a97-bdd7-e94210c258de","system_id":"levelo_inurba_marseille","lat":43.24604,"lon":5.4049,"is_reserved":false,"is_disabled":false,"rental_uris":{"android":"levelo://app?vid=0e42e81c-9a07-4a97-bdd7-e94210c258de","ios":"levelo://app?vid=0e42e81c-9a07-4a97-bdd7-e94210c258de"},"vehicle_type_id":"4","last_reported":1746432924,"current_range_meters":16000,"station_id":"","pricing_plan_id":"cebpf4jnsgd1na2vs0mg"},{"bike_id":"427c3844-1ba4-4487-a5ae-6435936e89d5","system_id":"levelo_inurba_marseille","lat":43.23148,"lon":5.43737,"is_reserved":false,"is_disabled":false,"rental_uris":{"android":"levelo://app?vid=427c3844-1ba4-4487-a5ae-6435936e89d5","ios":"levelo://app?vid=427c3844-1ba4-4487-a5ae-6435936e89d5"},"vehicle_type_id":"4","last_reported":1746432924,"current_range_meters":16000,"station_id":"ce4bhmp2rcd13ifvqgog","pricing_plan_id":"cebpf4jnsgd1na2vs0mg"},{"bike_id":"f3b63c94-4ac9-4e75-8b87-9174e4f7ecb5","system_id":"levelo_inurba_marseille","lat":43.30915,"lon":5.3684,"is_reserved":false,"is_disabled":false,"rental_uris":{"android":"levelo://app?vid=f3b63c94-4ac9-4e75-8b87-9174e4f7ecb5","ios":"levelo://app?vid=f3b63c94-4ac9-4e75-8b87-9174e4f7ecb5"},"vehicle_type_id":"4","last_reported":1746432924,"current_range_meters":16000,"station_id":"","pricing_plan_id":"cebpf4jnsgd1na2vs0mg"},{"bike_id":"bbba4a42-41f1-4d4c-a0ec-15062e1d6496","system_id":"levelo_inurba_marseille","lat":43.30805,"lon":5.43512,"is_reserved":false,"is_disabled":false,"rental_uris":{"android":"levelo://app?vid=bbba4a42-41f1-4d4c-a0ec-15062e1d6496","ios":"levelo://app?vid=bbba4a42-41f1-4d4c-a0ec-15062e1d6496"},"vehicle_type_id":"4","last_reported":1746432924,"current_range_meters":16400,"station_id":"ce4bhph2rcd13ifvqheg","pricing_plan_id":"cebpf4jnsgd1na2vs0mg"},{"bike_id":"36839d2f-f3fb-4ae5-87d2-3bdb958b3981","system_id":"levelo_inurba_marseille","lat":43.26205,"lon":5.3795,"is_reserved":false,"is_disabled":false,"rental_uris":{"android":"levelo://app?vid=36839d2f-f3fb-4ae5-87d2-3bdb958b3981","ios":"levelo://app?vid=36839d2f-f3fb-4ae5-87d2-3bdb958b3981"},"vehicle_type_id":"4","last_reported":1746432924,"current_range_meters":16400,"station_id":"ce4bhjp2rcd13ifvqg90","pricing_plan_id":"cebpf4jnsgd1na2vs0mg"},{"bike_id":"d2f50853-b08b-4416-b23b-322961313c95","system_id":"levelo_inurba_marseille","lat":43.29692,"lon":5.37296,"is_reserved":false,"is_disabled":false,"rental_uris":{"android":"levelo://app?vid=d2f50853-b08b-4416-b23b-322961313c95","ios":"levelo://app?vid=d2f50853-b08b-4416-b23b-322961313c95"},"vehicle_type_id":"4","last_reported":1746432924,"current_range_meters":16400,"station_id":"ce4bgk12rcd13ifvqbj0","pricing_plan_id":"cebpf4jnsgd1na2vs0mg"},{"bike_id":"574f9534-6b0b-43b3-a942-c6870095631b","system_id":"levelo_inurba_marseille","lat":43.28605,"lon":5.370705,"is_reserved":false,"is_disabled":false,"rental_uris":{"android":"levelo://app?vid=574f9534-6b0b-43b3-a942-c6870095631b","ios":"levelo://app?vid=574f9534-6b0b-43b3-a942-c6870095631b"},"vehicle_type_id":"4","last_reported":1746432924,"current_range_meters":16400,"station_id":"","pricing_plan_id":"cebpf4jnsgd1na2vs0mg"},{"bike_id":"db0e0ddb-0230-4f44-ba3e-6dcb98b952cd","system_id":"levelo_inurba_marseille","lat":43.231987,"lon":5.355533,"is_reserved":false,"is_disabled":false,"rental_uris":{"android":"levelo://app?vid=db0e0ddb-0230-4f44-ba3e-6dcb98b952cd","ios":"levelo://app?vid=db0e0ddb-0230-4f44-ba3e-6dcb98b952cd"},"vehicle_type_id":"4","last_reported":1746432924,"current_range_meters":16400,"station_id":"ce4bhu92rcd13ifvqi70","pricing_plan_id":"cebpf4jnsgd1na2vs0mg"},{"bike_id":"e7750344-6122-47e0-9597-04b5dce7fc4c","system_id":"levelo_inurba_marseille","lat":43.27493,"lon":5.42446,"is_reserved":false,"is_disabled":true,"rental_uris":{"android":"levelo://app?vid=e7750344-6122-47e0-9597-04b5dce7fc4c","ios":"levelo://app?vid=e7750344-6122-47e0-9597-04b5dce7fc4c"},"vehicle_type_id":"4","last_reported":1746432924,"current_range_meters":16400,"station_id":"ce4bhn92rcd13ifvqgrg","pricing_plan_id":"cebpf4jnsgd1na2vs0mg"},{"bike_id":"4eaaea7f-b687-46b7-9e18-0f05a4499f5a","system_id":"levelo_inurba_marseille","lat":43.23139,"lon":5.43737,"is_reserved":false,"is_disabled":false,"rental_uris":{"android":"levelo://app?vid=4eaaea7f-b687-46b7-9e18-0f05a4499f5a","ios":"levelo://app?vid=4eaaea7f-b687-46b7-9e18-0f05a4499f5a"},"vehicle_type_id":"4","last_reported":1746432924,"current_range_meters":16400,"station_id":"ce4bhmp2rcd13ifvqgog","pricing_plan_id":"cebpf4jnsgd1na2vs0mg"},{"bike_id":"bad0d82c-b707-4dd1-ac36-6d58625b996f","system_id":"levelo_inurba_marseille","lat":43.34121,"lon":5.4092,"is_reserved":false,"is_disabled":false,"rental_uris":{"android":"levelo://app?vid=bad0d82c-b707-4dd1-ac36-6d58625b996f","ios":"levelo://app?vid=bad0d82c-b707-4dd1-ac36-6d58625b996f"},"vehicle_type_id":"4","last_reported":1746432924,"current_range_meters":16400,"station_id":"ce4bhqh2rcd13ifvqhlg","pricing_plan_id":"cebpf4jnsgd1na2vs0mg"},{"bike_id":"8b028970-458c-43c5-9321-f5aa1f989005","system_id":"levelo_inurba_marseille","lat":43.2407,"lon":5.37742,"is_reserved":false,"is_disabled":false,"rental_uris":{"android":"levelo://app?vid=8b028970-458c-43c5-9321-f5aa1f989005","ios":"levelo://app?vid=8b028970-458c-43c5-9321-f5aa1f989005"},"vehicle_type_id":"4","last_reported":1746432924,"current_range_meters":16400,"station_id":"ce4bhnp2rcd13ifvqgvg","pricing_plan_id":"cebpf4jnsgd1na2vs0mg"},{"bike_id":"1e787ecd-2869-4a0d-8ca0-8671348ec2f2","system_id":"levelo_inurba_marseille","lat":43.33612,"lon":5.41004,"is_reserved":false,"is_disabled":false,"rental_uris":{"android":"levelo://app?vid=1e787ecd-2869-4a0d-8ca0-8671348ec2f2","ios":"levelo://app?vid=1e787ecd-2869-4a0d-8ca0-8671348ec2f2"},"vehicle_type_id":"4","last_reported":1746432924,"current_range_meters":16400,"station_id":"ce4bhqh2rcd13ifvqhmg","pricing_plan_id":"cebpf4jnsgd1na2vs0mg"},{"bike_id":"f6990bbf-7200-4595-9d3c-805bae17a99e","system_id":"levelo_inurba_marseille","lat":43.22501,"lon":5.34782,"is_reserved":false,"is_disabled":false,"rental_uris":{"android":"levelo://app?vid=f6990bbf-7200-4595-9d3c-805bae17a99e","ios":"levelo://app?vid=f6990bbf-7200-4595-9d3c-805bae17a99e"},"vehicle_type_id":"4","last_reported":1746432924,"current_range_meters":16400,"station_id":"","pricing_plan_id":"cebpf4jnsgd1na2vs0mg"},{"bike_id":"756468a0-f28b-4e75-bd75-68a1670bc416","system_id":"levelo_inurba_marseille","lat":43.23148,"lon":5.43702,"is_reserved":false,"is_disabled":true,"rental_uris":{"android":"levelo://app?vid=756468a0-f28b-4e75-bd75-68a1670bc416","ios":"levelo://app?vid=756468a0-f28b-4e75-bd75-68a1670bc416"},"vehicle_type_id":"4","last_reported":1746432924,"current_range_meters":16400,"station_id":"ce4bhmp2rcd13ifvqgog","pricing_plan_id":"cebpf4jnsgd1na2vs0mg"},{"bike_id":"891a748b-bb8a-41ba-acea-b9e8a952878f","system_id":"levelo_inurba_marseille","lat":43.284064,"lon":5.375187,"is_reserved":false,"is_disabled":true,"rental_uris":{"android":"levelo://app?vid=891a748b-bb8a-41ba-acea-b9e8a952878f","ios":"levelo://app?vid=891a748b-bb8a-41ba-acea-b9e8a952878f"},"vehicle_type_id":"4","last_reported":1746432924,"current_range_meters":16400,"station_id":"ce4bh412rcd13ifvqds0","pricing_plan_id":"cebpf4jnsgd1na2vs0mg"},{"bike_id":"9fa4dbac-ad09-473f-8c9f-dc555535dd4a","system_id":"levelo_inurba_marseille","lat":43.31696,"lon":5.37748,"is_reserved":false,"is_disabled":true,"rental_uris":{"android":"levelo://app?vid=9fa4dbac-ad09-473f-8c9f-dc555535dd4a","ios":"levelo://app?vid=9fa4dbac-ad09-473f-8c9f-dc555535dd4a"},"vehicle_type_id":"4","last_reported":1746432924,"current_range_meters":16800,"station_id":"ce4bgth2rcd13ifvqch0","pricing_plan_id":"cebpf4jnsgd1na2vs0mg"},{"bike_id":"018f8072-7ff7-48cb-a65a-db7663e8276d","system_id":"levelo_inurba_marseille","lat":43.30538,"lon":5.36702,"is_reserved":false,"is_disabled":false,"rental_uris":{"android":"levelo://app?vid=018f8072-7ff7-48cb-a65a-db7663e8276d","ios":"levelo://app?vid=018f8072-7ff7-48cb-a65a-db7663e8276d"},"vehicle_type_id":"4","last_reported":1746432924,"current_range_meters":16400,"station_id":"ce4bgrp2rcd13ifvqc9g","pricing_plan_id":"cebpf4jnsgd1na2vs0mg"},{"bike_id":"49c6181b-8f01-4828-a9e9-7d33a14e68c9","system_id":"levelo_inurba_marseille","lat":43.24085,"lon":5.37738,"is_reserved":false,"is_disabled":false,"rental_uris":{"android":"levelo://app?vid=49c6181b-8f01-4828-a9e9-7d33a14e68c9","ios":"levelo://app?vid=49c6181b-8f01-4828-a9e9-7d33a14e68c9"},"vehicle_type_id":"4","last_reported":1746432924,"current_range_meters":16800,"station_id":"ce4bhnp2rcd13ifvqgvg","pricing_plan_id":"cebpf4jnsgd1na2vs0mg"},{"bike_id":"49110bfb-6f6c-4de8-b19f-6edc8de53d84","system_id":"levelo_inurba_marseille","lat":43.3137,"lon":5.36749,"is_reserved":false,"is_disabled":false,"rental_uris":{"android":"levelo://app?vid=49110bfb-6f6c-4de8-b19f-6edc8de53d84","ios":"levelo://app?vid=49110bfb-6f6c-4de8-b19f-6edc8de53d84"},"vehicle_type_id":"4","last_reported":1746432924,"current_range_meters":16800,"station_id":"ce4bgr92rcd13ifvqc6g","pricing_plan_id":"cebpf4jnsgd1na2vs0mg"},{"bike_id":"34e2a7ec-dde3-4ed7-84e4-3b88c255eee2","system_id":"levelo_inurba_marseille","lat":43.240691,"lon":5.377649,"is_reserved":false,"is_disabled":false,"rental_uris":{"android":"levelo://app?vid=34e2a7ec-dde3-4ed7-84e4-3b88c255eee2","ios":"levelo://app?vid=34e2a7ec-dde3-4ed7-84e4-3b88c255eee2"},"vehicle_type_id":"4","last_reported":1746432924,"current_range_meters":16800,"station_id":"ce4bhnp2rcd13ifvqgvg","pricing_plan_id":"cebpf4jnsgd1na2vs0mg"},{"bike_id":"3bf96f6c-1138-425e-99d5-253ba6181d5e","system_id":"levelo_inurba_marseille","lat":43.30436,"lon":5.39826,"is_reserved":false,"is_disabled":true,"rental_uris":{"android":"levelo://app?vid=3bf96f6c-1138-425e-99d5-253ba6181d5e","ios":"levelo://app?vid=3bf96f6c-1138-425e-99d5-253ba6181d5e"},"vehicle_type_id":"4","last_reported":1746432924,"current_range_meters":17200,"station_id":"","pricing_plan_id":"cebpf4jnsgd1na2vs0mg"},{"bike_id":"edf95d4a-5c1b-49a1-b35f-bffbd3a1b60d","system_id":"levelo_inurba_marseille","lat":43.32491,"lon":5.36566,"is_reserved":false,"is_disabled":false,"rental_uris":{"android":"levelo://app?vid=edf95d4a-5c1b-49a1-b35f-bffbd3a1b60d","ios":"levelo://app?vid=edf95d4a-5c1b-49a1-b35f-bffbd3a1b60d"},"vehicle_type_id":"4","last_reported":1746432924,"current_range_meters":17200,"station_id":"ce4bhs12rcd13ifvqhvg","pricing_plan_id":"cebpf4jnsgd1na2vs0mg"},{"bike_id":"927e59bf-ece7-4562-a13c-4cbe72f0a6ea","system_id":"levelo_inurba_marseille","lat":43.30905,"lon":5.36856,"is_reserved":false,"is_disabled":false,"rental_uris":{"android":"levelo://app?vid=927e59bf-ece7-4562-a13c-4cbe72f0a6ea","ios":"levelo://app?vid=927e59bf-ece7-4562-a13c-4cbe72f0a6ea"},"vehicle_type_id":"4","last_reported":1746432924,"current_range_meters":16800,"station_id":"ce4bgn92rcd13ifvqbvg","pricing_plan_id":"cebpf4jnsgd1na2vs0mg"},{"bike_id":"75eb36ee-f812-4f8d-9516-51935a9eba88","system_id":"levelo_inurba_marseille","lat":43.29874,"lon":5.39743,"is_reserved":false,"is_disabled":false,"rental_uris":{"android":"levelo://app?vid=75eb36ee-f812-4f8d-9516-51935a9eba88","ios":"levelo://app?vid=75eb36ee-f812-4f8d-9516-51935a9eba88"},"vehicle_type_id":"4","last_reported":1746432924,"current_range_meters":17200,"station_id":"ce4bh0h2rcd13ifvqd50","pricing_plan_id":"cebpf4jnsgd1na2vs0mg"},{"bike_id":"8979a83c-f415-4dd7-a40b-6936e311c391","system_id":"levelo_inurba_marseille","lat":43.28719,"lon":5.37952,"is_reserved":false,"is_disabled":false,"rental_uris":{"android":"levelo://app?vid=8979a83c-f415-4dd7-a40b-6936e311c391","ios":"levelo://app?vid=8979a83c-f415-4dd7-a40b-6936e311c391"},"vehicle_type_id":"4","last_reported":1746432924,"current_range_meters":17200,"station_id":"ce4bh9p2rcd13ifvqec0","pricing_plan_id":"cebpf4jnsgd1na2vs0mg"},{"bike_id":"2dce38cf-a8d4-49cd-9fcf-ef494d90a125","system_id":"levelo_inurba_marseille","lat":43.27135,"lon":5.36374,"is_reserved":false,"is_disabled":false,"rental_uris":{"android":"levelo://app?vid=2dce38cf-a8d4-49cd-9fcf-ef494d90a125","ios":"levelo://app?vid=2dce38cf-a8d4-49cd-9fcf-ef494d90a125"},"vehicle_type_id":"4","last_reported":1746432924,"current_range_meters":17200,"station_id":"","pricing_plan_id":"cebpf4jnsgd1na2vs0mg"},{"bike_id":"57a0c093-9a5c-49cc-b03f-acf7597ca936","system_id":"levelo_inurba_marseille","lat":43.29507,"lon":5.37517,"is_reserved":false,"is_disabled":false,"rental_uris":{"android":"levelo://app?vid=57a0c093-9a5c-49cc-b03f-acf7597ca936","ios":"levelo://app?vid=57a0c093-9a5c-49cc-b03f-acf7597ca936"},"vehicle_type_id":"4","last_reported":1746432924,"current_range_meters":17200,"station_id":"ce4bgkp2rcd13ifvqbmg","pricing_plan_id":"cebpf4jnsgd1na2vs0mg"},{"bike_id":"320834c3-0b91-4c40-9f98-67bfe2450ea4","system_id":"levelo_inurba_marseille","lat":43.30837,"lon":5.36784,"is_reserved":false,"is_disabled":true,"rental_uris":{"android":"levelo://app?vid=320834c3-0b91-4c40-9f98-67bfe2450ea4","ios":"levelo://app?vid=320834c3-0b91-4c40-9f98-67bfe2450ea4"},"vehicle_type_id":"4","last_reported":1746432924,"current_range_meters":17200,"station_id":"","pricing_plan_id":"cebpf4jnsgd1na2vs0mg"},{"bike_id":"10f59f68-ef93-486b-9cf6-8ffa818e7236","system_id":"levelo_inurba_marseille","lat":43.29266,"lon":5.3763,"is_reserved":false,"is_disabled":false,"rental_uris":{"android":"levelo://app?vid=10f59f68-ef93-486b-9cf6-8ffa818e7236","ios":"levelo://app?vid=10f59f68-ef93-486b-9cf6-8ffa818e7236"},"vehicle_type_id":"4","last_reported":1746432924,"current_range_meters":17600,"station_id":"ce4bgi12rcd13ifvqb80","pricing_plan_id":"cebpf4jnsgd1na2vs0mg"},{"bike_id":"6cb52476-5daa-437c-a844-e474e89cef5b","system_id":"levelo_inurba_marseille","lat":43.25915,"lon":5.4092,"is_reserved":false,"is_disabled":true,"rental_uris":{"android":"levelo://app?vid=6cb52476-5daa-437c-a844-e474e89cef5b","ios":"levelo://app?vid=6cb52476-5daa-437c-a844-e474e89cef5b"},"vehicle_type_id":"4","last_reported":1746432924,"current_range_meters":17600,"station_id":"ce4bhm92rcd13ifvqglg","pricing_plan_id":"cebpf4jnsgd1na2vs0mg"},{"bike_id":"de3f76b1-58ea-42d0-99f1-347daf91f0b4","system_id":"levelo_inurba_marseille","lat":43.21195,"lon":5.35081,"is_reserved":false,"is_disabled":false,"rental_uris":{"android":"levelo://app?vid=de3f76b1-58ea-42d0-99f1-347daf91f0b4","ios":"levelo://app?vid=de3f76b1-58ea-42d0-99f1-347daf91f0b4"},"vehicle_type_id":"4","last_reported":1746432924,"current_range_meters":17600,"station_id":"st_cvj6sg6p6f1abm77japg","pricing_plan_id":"cebpf4jnsgd1na2vs0mg"},{"bike_id":"8b2285d3-d248-444c-a9fa-a333a1711750","system_id":"levelo_inurba_marseille","lat":43.2866,"lon":5.37334,"is_reserved":false,"is_disabled":false,"rental_uris":{"android":"levelo://app?vid=8b2285d3-d248-444c-a9fa-a333a1711750","ios":"levelo://app?vid=8b2285d3-d248-444c-a9fa-a333a1711750"},"vehicle_type_id":"4","last_reported":1746432924,"current_range_meters":17600,"station_id":"","pricing_plan_id":"cebpf4jnsgd1na2vs0mg"},{"bike_id":"32dfec79-448b-4953-93c9-6dfa5e45ba65","system_id":"levelo_inurba_marseille","lat":43.30909,"lon":5.36843,"is_reserved":false,"is_disabled":false,"rental_uris":{"android":"levelo://app?vid=32dfec79-448b-4953-93c9-6dfa5e45ba65","ios":"levelo://app?vid=32dfec79-448b-4953-93c9-6dfa5e45ba65"},"vehicle_type_id":"4","last_reported":1746432924,"current_range_meters":17600,"station_id":"","pricing_plan_id":"cebpf4jnsgd1na2vs0mg"},{"bike_id":"5ae1c0ef-61b2-4409-9b64-e7d5002ba633","system_id":"levelo_inurba_marseille","lat":43.305328,"lon":5.365564,"is_reserved":false,"is_disabled":false,"rental_uris":{"android":"levelo://app?vid=5ae1c0ef-61b2-4409-9b64-e7d5002ba633","ios":"levelo://app?vid=5ae1c0ef-61b2-4409-9b64-e7d5002ba633"},"vehicle_type_id":"4","last_reported":1746432924,"current_range_meters":17600,"station_id":"ce4bgs12rcd13ifvqcag","pricing_plan_id":"cebpf4jnsgd1na2vs0mg"},{"bike_id":"fedc619d-d7cc-4df1-a967-c5d0953b5b95","system_id":"levelo_inurba_marseille","lat":43.245943,"lon":5.408444,"is_reserved":false,"is_disabled":false,"rental_uris":{"android":"levelo://app?vid=fedc619d-d7cc-4df1-a967-c5d0953b5b95","ios":"levelo://app?vid=fedc619d-d7cc-4df1-a967-c5d0953b5b95"},"vehicle_type_id":"4","last_reported":1746432924,"current_range_meters":18000,"station_id":"","pricing_plan_id":"cebpf4jnsgd1na2vs0mg"},{"bike_id":"e5b73177-e636-471a-8d40-c71ebd3262c2","system_id":"levelo_inurba_marseille","lat":43.33612,"lon":5.41035,"is_reserved":false,"is_disabled":false,"rental_uris":{"android":"levelo://app?vid=e5b73177-e636-471a-8d40-c71ebd3262c2","ios":"levelo://app?vid=e5b73177-e636-471a-8d40-c71ebd3262c2"},"vehicle_type_id":"4","last_reported":1746432924,"current_range_meters":18000,"station_id":"ce4bhqh2rcd13ifvqhmg","pricing_plan_id":"cebpf4jnsgd1na2vs0mg"},{"bike_id":"432ed289-f332-4e09-aeec-e4ee1e3b0015","system_id":"levelo_inurba_marseille","lat":43.30958,"lon":5.39022,"is_reserved":false,"is_disabled":false,"rental_uris":{"android":"levelo://app?vid=432ed289-f332-4e09-aeec-e4ee1e3b0015","ios":"levelo://app?vid=432ed289-f332-4e09-aeec-e4ee1e3b0015"},"vehicle_type_id":"4","last_reported":1746432924,"current_range_meters":18000,"station_id":"ce4bgup2rcd13ifvqco0","pricing_plan_id":"cebpf4jnsgd1na2vs0mg"},{"bike_id":"bcbae83b-9c22-4d12-8cff-b49f5d9e4747","system_id":"levelo_inurba_marseille","lat":43.21742,"lon":5.346,"is_reserved":false,"is_disabled":true,"rental_uris":{"android":"levelo://app?vid=bcbae83b-9c22-4d12-8cff-b49f5d9e4747","ios":"levelo://app?vid=bcbae83b-9c22-4d12-8cff-b49f5d9e4747"},"vehicle_type_id":"4","last_reported":1746432924,"current_range_meters":18000,"station_id":"","pricing_plan_id":"cebpf4jnsgd1na2vs0mg"},{"bike_id":"67c23af4-17e4-4286-9e36-70cd5cabae28","system_id":"levelo_inurba_marseille","lat":43.305359,"lon":5.3656,"is_reserved":false,"is_disabled":false,"rental_uris":{"android":"levelo://app?vid=67c23af4-17e4-4286-9e36-70cd5cabae28","ios":"levelo://app?vid=67c23af4-17e4-4286-9e36-70cd5cabae28"},"vehicle_type_id":"4","last_reported":1746432924,"current_range_meters":18000,"station_id":"ce4bgs12rcd13ifvqcag","pricing_plan_id":"cebpf4jnsgd1na2vs0mg"},{"bike_id":"4a265d53-8062-4c16-b5ef-3d21375eab3f","system_id":"levelo_inurba_marseille","lat":43.31991,"lon":5.3814,"is_reserved":false,"is_disabled":true,"rental_uris":{"android":"levelo://app?vid=4a265d53-8062-4c16-b5ef-3d21375eab3f","ios":"levelo://app?vid=4a265d53-8062-4c16-b5ef-3d21375eab3f"},"vehicle_type_id":"4","last_reported":1746432924,"current_range_meters":18000,"station_id":"ce4bhr12rcd13ifvqhpg","pricing_plan_id":"cebpf4jnsgd1na2vs0mg"},{"bike_id":"b98dfc66-3570-4d96-afda-2a6e161dfb3b","system_id":"levelo_inurba_marseille","lat":43.24056,"lon":5.37754,"is_reserved":false,"is_disabled":false,"rental_uris":{"android":"levelo://app?vid=b98dfc66-3570-4d96-afda-2a6e161dfb3b","ios":"levelo://app?vid=b98dfc66-3570-4d96-afda-2a6e161dfb3b"},"vehicle_type_id":"4","last_reported":1746432924,"current_range_meters":18000,"station_id":"ce4bhnp2rcd13ifvqgvg","pricing_plan_id":"cebpf4jnsgd1na2vs0mg"},{"bike_id":"82b929d4-c3dc-4bce-8506-52de450d9a5c","system_id":"levelo_inurba_marseille","lat":43.29252,"lon":5.3686,"is_reserved":false,"is_disabled":true,"rental_uris":{"android":"levelo://app?vid=82b929d4-c3dc-4bce-8506-52de450d9a5c","ios":"levelo://app?vid=82b929d4-c3dc-4bce-8506-52de450d9a5c"},"vehicle_type_id":"4","last_reported":1746432924,"current_range_meters":18800,"station_id":"ce4bhbp2rcd13ifvqesg","pricing_plan_id":"cebpf4jnsgd1na2vs0mg"},{"bike_id":"0f98d269-d050-4d06-9a2f-3fa510442130","system_id":"levelo_inurba_marseille","lat":43.29894,"lon":5.43669,"is_reserved":false,"is_disabled":false,"rental_uris":{"android":"levelo://app?vid=0f98d269-d050-4d06-9a2f-3fa510442130","ios":"levelo://app?vid=0f98d269-d050-4d06-9a2f-3fa510442130"},"vehicle_type_id":"4","last_reported":1746432924,"current_range_meters":18800,"station_id":"ce4bhpp2rcd13ifvqhfg","pricing_plan_id":"cebpf4jnsgd1na2vs0mg"},{"bike_id":"27c70115-f657-44ba-8eea-3b3b47c6f4f2","system_id":"levelo_inurba_marseille","lat":43.29507,"lon":5.39406,"is_reserved":false,"is_disabled":true,"rental_uris":{"android":"levelo://app?vid=27c70115-f657-44ba-8eea-3b3b47c6f4f2","ios":"levelo://app?vid=27c70115-f657-44ba-8eea-3b3b47c6f4f2"},"vehicle_type_id":"4","last_reported":1746432924,"current_range_meters":18800,"station_id":"ce4bh292rcd13ifvqdf0","pricing_plan_id":"cebpf4jnsgd1na2vs0mg"},{"bike_id":"dae4be30-144c-43fa-b63e-637185319bac","system_id":"levelo_inurba_marseille","lat":43.28952,"lon":5.39648,"is_reserved":false,"is_disabled":true,"rental_uris":{"android":"levelo://app?vid=dae4be30-144c-43fa-b63e-637185319bac","ios":"levelo://app?vid=dae4be30-144c-43fa-b63e-637185319bac"},"vehicle_type_id":"4","last_reported":1746432924,"current_range_meters":18800,"station_id":"ce4bh3h2rcd13ifvqdn0","pricing_plan_id":"cebpf4jnsgd1na2vs0mg"},{"bike_id":"c88e01e4-d44e-4b8f-b138-c41df28a76a2","system_id":"levelo_inurba_marseille","lat":43.27396,"lon":5.42447,"is_reserved":false,"is_disabled":true,"rental_uris":{"android":"levelo://app?vid=c88e01e4-d44e-4b8f-b138-c41df28a76a2","ios":"levelo://app?vid=c88e01e4-d44e-4b8f-b138-c41df28a76a2"},"vehicle_type_id":"4","last_reported":1746432924,"current_range_meters":18800,"station_id":"","pricing_plan_id":"cebpf4jnsgd1na2vs0mg"},{"bike_id":"203d91f5-6c36-4523-963d-b10eff730e29","system_id":"levelo_inurba_marseille","lat":43.307327,"lon":5.42449,"is_reserved":false,"is_disabled":false,"rental_uris":{"android":"levelo://app?vid=203d91f5-6c36-4523-963d-b10eff730e29","ios":"levelo://app?vid=203d91f5-6c36-4523-963d-b10eff730e29"},"vehicle_type_id":"4","last_reported":1746432924,"current_range_meters":18800,"station_id":"st_cvj6ca6bvosntc0bfgr0","pricing_plan_id":"cebpf4jnsgd1na2vs0mg"},{"bike_id":"50f652c6-c477-49e3-bd4a-a92e1332c31e","system_id":"levelo_inurba_marseille","lat":43.28337,"lon":5.38104,"is_reserved":false,"is_disabled":true,"rental_uris":{"android":"levelo://app?vid=50f652c6-c477-49e3-bd4a-a92e1332c31e","ios":"levelo://app?vid=50f652c6-c477-49e3-bd4a-a92e1332c31e"},"vehicle_type_id":"4","last_reported":1746432924,"current_range_meters":18800,"station_id":"ce4bh412rcd13ifvqdr0","pricing_plan_id":"cebpf4jnsgd1na2vs0mg"},{"bike_id":"8dee9773-6c0e-4cc3-bd17-649f2e5fe9a5","system_id":"levelo_inurba_marseille","lat":43.29197,"lon":5.37127,"is_reserved":false,"is_disabled":false,"rental_uris":{"android":"levelo://app?vid=8dee9773-6c0e-4cc3-bd17-649f2e5fe9a5","ios":"levelo://app?vid=8dee9773-6c0e-4cc3-bd17-649f2e5fe9a5"},"vehicle_type_id":"4","last_reported":1746432924,"current_range_meters":18800,"station_id":"ce4bha92rcd13ifvqeh0","pricing_plan_id":"cebpf4jnsgd1na2vs0mg"},{"bike_id":"521d3531-2dd1-4da9-9582-b2882863f64f","system_id":"levelo_inurba_marseille","lat":43.28456,"lon":5.35901,"is_reserved":false,"is_disabled":true,"rental_uris":{"android":"levelo://app?vid=521d3531-2dd1-4da9-9582-b2882863f64f","ios":"levelo://app?vid=521d3531-2dd1-4da9-9582-b2882863f64f"},"vehicle_type_id":"4","last_reported":1746432924,"current_range_meters":18800,"station_id":"ce4bhah2rcd13ifvqei0","pricing_plan_id":"cebpf4jnsgd1na2vs0mg"},{"bike_id":"c2b41a15-a85d-46d1-814c-f8816b3cf185","system_id":"levelo_inurba_marseille","lat":43.34145,"lon":5.40901,"is_reserved":false,"is_disabled":false,"rental_uris":{"android":"levelo://app?vid=c2b41a15-a85d-46d1-814c-f8816b3cf185","ios":"levelo://app?vid=c2b41a15-a85d-46d1-814c-f8816b3cf185"},"vehicle_type_id":"4","last_reported":1746432924,"current_range_meters":18800,"station_id":"ce4bhqh2rcd13ifvqhlg","pricing_plan_id":"cebpf4jnsgd1na2vs0mg"},{"bike_id":"1351d2e1-4507-44f6-9645-e85ad7214f49","system_id":"levelo_inurba_marseille","lat":43.240737,"lon":5.37763,"is_reserved":false,"is_disabled":false,"rental_uris":{"android":"levelo://app?vid=1351d2e1-4507-44f6-9645-e85ad7214f49","ios":"levelo://app?vid=1351d2e1-4507-44f6-9645-e85ad7214f49"},"vehicle_type_id":"4","last_reported":1746432924,"current_range_meters":19200,"station_id":"ce4bhnp2rcd13ifvqgvg","pricing_plan_id":"cebpf4jnsgd1na2vs0mg"},{"bike_id":"d1ec814b-7128-4cb1-a05f-d59b2ec94248","system_id":"levelo_inurba_marseille","lat":43.22663,"lon":5.34828,"is_reserved":false,"is_disabled":true,"rental_uris":{"android":"levelo://app?vid=d1ec814b-7128-4cb1-a05f-d59b2ec94248","ios":"levelo://app?vid=d1ec814b-7128-4cb1-a05f-d59b2ec94248"},"vehicle_type_id":"4","last_reported":1746432924,"current_range_meters":19200,"station_id":"","pricing_plan_id":"cebpf4jnsgd1na2vs0mg"},{"bike_id":"9ac9a44f-6abe-4743-a6fe-974f0f86c6c4","system_id":"levelo_inurba_marseille","lat":43.23955,"lon":5.36642,"is_reserved":false,"is_disabled":true,"rental_uris":{"android":"levelo://app?vid=9ac9a44f-6abe-4743-a6fe-974f0f86c6c4","ios":"levelo://app?vid=9ac9a44f-6abe-4743-a6fe-974f0f86c6c4"},"vehicle_type_id":"4","last_reported":1746432924,"current_range_meters":19200,"station_id":"ce4bhi12rcd13ifvqfp0","pricing_plan_id":"cebpf4jnsgd1na2vs0mg"},{"bike_id":"c403646e-05ba-4262-afad-5e61dba3246b","system_id":"levelo_inurba_marseille","lat":43.25924,"lon":5.40877,"is_reserved":false,"is_disabled":false,"rental_uris":{"android":"levelo://app?vid=c403646e-05ba-4262-afad-5e61dba3246b","ios":"levelo://app?vid=c403646e-05ba-4262-afad-5e61dba3246b"},"vehicle_type_id":"4","last_reported":1746432924,"current_range_meters":19200,"station_id":"ce4bhm92rcd13ifvqglg","pricing_plan_id":"cebpf4jnsgd1na2vs0mg"},{"bike_id":"96e070da-b0e6-4861-a7e6-1c419a119de3","system_id":"levelo_inurba_marseille","lat":43.31366,"lon":5.36677,"is_reserved":false,"is_disabled":false,"rental_uris":{"android":"levelo://app?vid=96e070da-b0e6-4861-a7e6-1c419a119de3","ios":"levelo://app?vid=96e070da-b0e6-4861-a7e6-1c419a119de3"},"vehicle_type_id":"4","last_reported":1746432924,"current_range_meters":19200,"station_id":"ce4bgr92rcd13ifvqc6g","pricing_plan_id":"cebpf4jnsgd1na2vs0mg"},{"bike_id":"21a4b78c-5f0d-4732-914a-f21e5d98f8f2","system_id":"levelo_inurba_marseille","lat":43.30901,"lon":5.36837,"is_reserved":false,"is_disabled":false,"rental_uris":{"android":"levelo://app?vid=21a4b78c-5f0d-4732-914a-f21e5d98f8f2","ios":"levelo://app?vid=21a4b78c-5f0d-4732-914a-f21e5d98f8f2"},"vehicle_type_id":"4","last_reported":1746432924,"current_range_meters":19600,"station_id":"","pricing_plan_id":"cebpf4jnsgd1na2vs0mg"},{"bike_id":"f6544c52-88b9-4cda-9dbf-aae9ea9a024e","system_id":"levelo_inurba_marseille","lat":43.312208,"lon":5.368605,"is_reserved":false,"is_disabled":false,"rental_uris":{"android":"levelo://app?vid=f6544c52-88b9-4cda-9dbf-aae9ea9a024e","ios":"levelo://app?vid=f6544c52-88b9-4cda-9dbf-aae9ea9a024e"},"vehicle_type_id":"4","last_reported":1746432924,"current_range_meters":19600,"station_id":"ce4bgl92rcd13ifvqbq0","pricing_plan_id":"cebpf4jnsgd1na2vs0mg"},{"bike_id":"61bf85ea-9a43-46f9-a573-41da3aa3871c","system_id":"levelo_inurba_marseille","lat":43.28962,"lon":5.37841,"is_reserved":false,"is_disabled":false,"rental_uris":{"android":"levelo://app?vid=61bf85ea-9a43-46f9-a573-41da3aa3871c","ios":"levelo://app?vid=61bf85ea-9a43-46f9-a573-41da3aa3871c"},"vehicle_type_id":"4","last_reported":1746432924,"current_range_meters":19600,"station_id":"ce4bh9p2rcd13ifvqed0","pricing_plan_id":"cebpf4jnsgd1na2vs0mg"},{"bike_id":"9d6e6cfe-d66f-45c3-952d-82305632e17d","system_id":"levelo_inurba_marseille","lat":43.317146,"lon":5.437082,"is_reserved":false,"is_disabled":true,"rental_uris":{"android":"levelo://app?vid=9d6e6cfe-d66f-45c3-952d-82305632e17d","ios":"levelo://app?vid=9d6e6cfe-d66f-45c3-952d-82305632e17d"},"vehicle_type_id":"4","last_reported":1746432924,"current_range_meters":19600,"station_id":"ce4bhp92rcd13ifvqhcg","pricing_plan_id":"cebpf4jnsgd1na2vs0mg"},{"bike_id":"8399309c-e7d9-45c5-a06a-10d979307adc","system_id":"levelo_inurba_marseille","lat":43.27498,"lon":5.42456,"is_reserved":false,"is_disabled":false,"rental_uris":{"android":"levelo://app?vid=8399309c-e7d9-45c5-a06a-10d979307adc","ios":"levelo://app?vid=8399309c-e7d9-45c5-a06a-10d979307adc"},"vehicle_type_id":"4","last_reported":1746432924,"current_range_meters":19600,"station_id":"ce4bhn92rcd13ifvqgrg","pricing_plan_id":"cebpf4jnsgd1na2vs0mg"},{"bike_id":"77074284-6e11-49f2-80ea-d478405f239d","system_id":"levelo_inurba_marseille","lat":43.27484,"lon":5.42457,"is_reserved":false,"is_disabled":false,"rental_uris":{"android":"levelo://app?vid=77074284-6e11-49f2-80ea-d478405f239d","ios":"levelo://app?vid=77074284-6e11-49f2-80ea-d478405f239d"},"vehicle_type_id":"4","last_reported":1746432924,"current_range_meters":20000,"station_id":"ce4bhn92rcd13ifvqgrg","pricing_plan_id":"cebpf4jnsgd1na2vs0mg"},{"bike_id":"12527328-da35-465e-812b-a78dfb76e0d9","system_id":"levelo_inurba_marseille","lat":43.2592,"lon":5.40912,"is_reserved":false,"is_disabled":false,"rental_uris":{"android":"levelo://app?vid=12527328-da35-465e-812b-a78dfb76e0d9","ios":"levelo://app?vid=12527328-da35-465e-812b-a78dfb76e0d9"},"vehicle_type_id":"4","last_reported":1746432924,"current_range_meters":20000,"station_id":"ce4bhm92rcd13ifvqglg","pricing_plan_id":"cebpf4jnsgd1na2vs0mg"},{"bike_id":"c724516d-4951-47c3-938c-2b721bfc27f5","system_id":"levelo_inurba_marseille","lat":43.29368,"lon":5.37846,"is_reserved":false,"is_disabled":false,"rental_uris":{"android":"levelo://app?vid=c724516d-4951-47c3-938c-2b721bfc27f5","ios":"levelo://app?vid=c724516d-4951-47c3-938c-2b721bfc27f5"},"vehicle_type_id":"4","last_reported":1746432924,"current_range_meters":20000,"station_id":"ce4bgjh2rcd13ifvqbf0","pricing_plan_id":"cebpf4jnsgd1na2vs0mg"},{"bike_id":"243b49a7-8924-4b7d-8d65-fa1ee8c16a75","system_id":"levelo_inurba_marseille","lat":43.29051,"lon":5.40515,"is_reserved":false,"is_disabled":false,"rental_uris":{"android":"levelo://app?vid=243b49a7-8924-4b7d-8d65-fa1ee8c16a75","ios":"levelo://app?vid=243b49a7-8924-4b7d-8d65-fa1ee8c16a75"},"vehicle_type_id":"4","last_reported":1746432924,"current_range_meters":20400,"station_id":"","pricing_plan_id":"cebpf4jnsgd1na2vs0mg"},{"bike_id":"5b8f06bc-052a-454a-b1dc-55ff1d1e7111","system_id":"levelo_inurba_marseille","lat":43.313498,"lon":5.366877,"is_reserved":false,"is_disabled":false,"rental_uris":{"android":"levelo://app?vid=5b8f06bc-052a-454a-b1dc-55ff1d1e7111","ios":"levelo://app?vid=5b8f06bc-052a-454a-b1dc-55ff1d1e7111"},"vehicle_type_id":"4","last_reported":1746432924,"current_range_meters":20400,"station_id":"ce4bgr92rcd13ifvqc6g","pricing_plan_id":"cebpf4jnsgd1na2vs0mg"},{"bike_id":"86b93b16-87a0-4fbf-a3d1-c409da7732b0","system_id":"levelo_inurba_marseille","lat":43.293396,"lon":5.371296,"is_reserved":false,"is_disabled":false,"rental_uris":{"android":"levelo://app?vid=86b93b16-87a0-4fbf-a3d1-c409da7732b0","ios":"levelo://app?vid=86b93b16-87a0-4fbf-a3d1-c409da7732b0"},"vehicle_type_id":"4","last_reported":1746432924,"current_range_meters":20400,"station_id":"","pricing_plan_id":"cebpf4jnsgd1na2vs0mg"},{"bike_id":"0d237eee-6c8f-42ba-9984-16a39bdacfc8","system_id":"levelo_inurba_marseille","lat":43.24548,"lon":5.39515,"is_reserved":false,"is_disabled":false,"rental_uris":{"android":"levelo://app?vid=0d237eee-6c8f-42ba-9984-16a39bdacfc8","ios":"levelo://app?vid=0d237eee-6c8f-42ba-9984-16a39bdacfc8"},"vehicle_type_id":"4","last_reported":1746432924,"current_range_meters":20400,"station_id":"ce4bhlp2rcd13ifvqgjg","pricing_plan_id":"cebpf4jnsgd1na2vs0mg"},{"bike_id":"735ced18-b136-4cb1-9e48-a29a6e9ad686","system_id":"levelo_inurba_marseille","lat":43.25726,"lon":5.41104,"is_reserved":false,"is_disabled":false,"rental_uris":{"android":"levelo://app?vid=735ced18-b136-4cb1-9e48-a29a6e9ad686","ios":"levelo://app?vid=735ced18-b136-4cb1-9e48-a29a6e9ad686"},"vehicle_type_id":"4","last_reported":1746432924,"current_range_meters":20400,"station_id":"ce4bhkp2rcd13ifvqgd0","pricing_plan_id":"cebpf4jnsgd1na2vs0mg"},{"bike_id":"3e97f66e-29db-40ab-8944-57c866939319","system_id":"levelo_inurba_marseille","lat":43.23143,"lon":5.43719,"is_reserved":false,"is_disabled":true,"rental_uris":{"android":"levelo://app?vid=3e97f66e-29db-40ab-8944-57c866939319","ios":"levelo://app?vid=3e97f66e-29db-40ab-8944-57c866939319"},"vehicle_type_id":"4","last_reported":1746432924,"current_range_meters":20800,"station_id":"ce4bhmp2rcd13ifvqgog","pricing_plan_id":"cebpf4jnsgd1na2vs0mg"},{"bike_id":"17b39ea1-2613-4b0f-a2ad-ec30d16ddc1a","system_id":"levelo_inurba_marseille","lat":43.29918,"lon":5.37483,"is_reserved":false,"is_disabled":false,"rental_uris":{"android":"levelo://app?vid=17b39ea1-2613-4b0f-a2ad-ec30d16ddc1a","ios":"levelo://app?vid=17b39ea1-2613-4b0f-a2ad-ec30d16ddc1a"},"vehicle_type_id":"4","last_reported":1746432924,"current_range_meters":20800,"station_id":"ce4bgjh2rcd13ifvqbg0","pricing_plan_id":"cebpf4jnsgd1na2vs0mg"},{"bike_id":"788046ab-4020-4c6e-a0e2-de3aee25f874","system_id":"levelo_inurba_marseille","lat":43.21196,"lon":5.35072,"is_reserved":false,"is_disabled":false,"rental_uris":{"android":"levelo://app?vid=788046ab-4020-4c6e-a0e2-de3aee25f874","ios":"levelo://app?vid=788046ab-4020-4c6e-a0e2-de3aee25f874"},"vehicle_type_id":"4","last_reported":1746432924,"current_range_meters":20800,"station_id":"st_cvj6sg6p6f1abm77japg","pricing_plan_id":"cebpf4jnsgd1na2vs0mg"},{"bike_id":"d1d83ecf-c678-4016-bab8-6da44094225f","system_id":"levelo_inurba_marseille","lat":43.29103,"lon":5.38122,"is_reserved":false,"is_disabled":false,"rental_uris":{"android":"levelo://app?vid=d1d83ecf-c678-4016-bab8-6da44094225f","ios":"levelo://app?vid=d1d83ecf-c678-4016-bab8-6da44094225f"},"vehicle_type_id":"4","last_reported":1746432924,"current_range_meters":20800,"station_id":"ce4bh512rcd13ifvqe2g","pricing_plan_id":"cebpf4jnsgd1na2vs0mg"},{"bike_id":"d4f6b9d7-a1e2-42ac-9fe1-75c7c9bda882","system_id":"levelo_inurba_marseille","lat":43.32102,"lon":5.36791,"is_reserved":false,"is_disabled":false,"rental_uris":{"android":"levelo://app?vid=d4f6b9d7-a1e2-42ac-9fe1-75c7c9bda882","ios":"levelo://app?vid=d4f6b9d7-a1e2-42ac-9fe1-75c7c9bda882"},"vehicle_type_id":"4","last_reported":1746432924,"current_range_meters":20800,"station_id":"ce4bhrh2rcd13ifvqhug","pricing_plan_id":"cebpf4jnsgd1na2vs0mg"},{"bike_id":"78c0a8bb-c071-45bc-851d-1f6302cbdb48","system_id":"levelo_inurba_marseille","lat":43.30308,"lon":5.36908,"is_reserved":false,"is_disabled":false,"rental_uris":{"android":"levelo://app?vid=78c0a8bb-c071-45bc-851d-1f6302cbdb48","ios":"levelo://app?vid=78c0a8bb-c071-45bc-851d-1f6302cbdb48"},"vehicle_type_id":"4","last_reported":1746432924,"current_range_meters":20800,"station_id":"ce4bgqh2rcd13ifvqc5g","pricing_plan_id":"cebpf4jnsgd1na2vs0mg"},{"bike_id":"53a9d591-87fa-4c8c-bfe2-cd8326c73026","system_id":"levelo_inurba_marseille","lat":43.27496,"lon":5.42454,"is_reserved":false,"is_disabled":true,"rental_uris":{"android":"levelo://app?vid=53a9d591-87fa-4c8c-bfe2-cd8326c73026","ios":"levelo://app?vid=53a9d591-87fa-4c8c-bfe2-cd8326c73026"},"vehicle_type_id":"4","last_reported":1746432924,"current_range_meters":20800,"station_id":"ce4bhn92rcd13ifvqgrg","pricing_plan_id":"cebpf4jnsgd1na2vs0mg"},{"bike_id":"be08d0c5-8233-46ce-a16a-10ba0e6ee589","system_id":"levelo_inurba_marseille","lat":43.26958,"lon":5.38659,"is_reserved":false,"is_disabled":true,"rental_uris":{"android":"levelo://app?vid=be08d0c5-8233-46ce-a16a-10ba0e6ee589","ios":"levelo://app?vid=be08d0c5-8233-46ce-a16a-10ba0e6ee589"},"vehicle_type_id":"4","last_reported":1746432924,"current_range_meters":21600,"station_id":"ce4bhh92rcd13ifvqfh0","pricing_plan_id":"cebpf4jnsgd1na2vs0mg"},{"bike_id":"452e87af-3bfe-4b31-bfeb-058ee073e140","system_id":"levelo_inurba_marseille","lat":43.2407,"lon":5.37768,"is_reserved":false,"is_disabled":false,"rental_uris":{"android":"levelo://app?vid=452e87af-3bfe-4b31-bfeb-058ee073e140","ios":"levelo://app?vid=452e87af-3bfe-4b31-bfeb-058ee073e140"},"vehicle_type_id":"4","last_reported":1746432924,"current_range_meters":21600,"station_id":"ce4bhnp2rcd13ifvqgvg","pricing_plan_id":"cebpf4jnsgd1na2vs0mg"},{"bike_id":"947f6295-e521-43ee-945d-d25fad08cff3","system_id":"levelo_inurba_marseille","lat":43.28699,"lon":5.37388,"is_reserved":false,"is_disabled":true,"rental_uris":{"android":"levelo://app?vid=947f6295-e521-43ee-945d-d25fad08cff3","ios":"levelo://app?vid=947f6295-e521-43ee-945d-d25fad08cff3"},"vehicle_type_id":"4","last_reported":1746432924,"current_range_meters":21600,"station_id":"ce4bh3p2rcd13ifvqdq0","pricing_plan_id":"cebpf4jnsgd1na2vs0mg"},{"bike_id":"eef04890-9c04-4bc0-852f-809c4b5ae988","system_id":"levelo_inurba_marseille","lat":43.23966,"lon":5.36623,"is_reserved":false,"is_disabled":false,"rental_uris":{"android":"levelo://app?vid=eef04890-9c04-4bc0-852f-809c4b5ae988","ios":"levelo://app?vid=eef04890-9c04-4bc0-852f-809c4b5ae988"},"vehicle_type_id":"4","last_reported":1746432924,"current_range_meters":21600,"station_id":"ce4bhi12rcd13ifvqfp0","pricing_plan_id":"cebpf4jnsgd1na2vs0mg"},{"bike_id":"1defc0cc-b574-4a3c-b9f0-e1ad7b926ebf","system_id":"levelo_inurba_marseille","lat":43.24174,"lon":5.36393,"is_reserved":false,"is_disabled":false,"rental_uris":{"android":"levelo://app?vid=1defc0cc-b574-4a3c-b9f0-e1ad7b926ebf","ios":"levelo://app?vid=1defc0cc-b574-4a3c-b9f0-e1ad7b926ebf"},"vehicle_type_id":"4","last_reported":1746432924,"current_range_meters":21600,"station_id":"cpo36qri1sfpv3e86is0","pricing_plan_id":"cebpf4jnsgd1na2vs0mg"},{"bike_id":"abd26b92-41eb-46b3-8948-8373db8a6052","system_id":"levelo_inurba_marseille","lat":43.29302,"lon":5.37174,"is_reserved":false,"is_disabled":false,"rental_uris":{"android":"levelo://app?vid=abd26b92-41eb-46b3-8948-8373db8a6052","ios":"levelo://app?vid=abd26b92-41eb-46b3-8948-8373db8a6052"},"vehicle_type_id":"4","last_reported":1746432924,"current_range_meters":21600,"station_id":"ce4bgh92rcd13ifvqb40","pricing_plan_id":"cebpf4jnsgd1na2vs0mg"},{"bike_id":"4e192de9-15c3-4b3f-b111-35f9533f5273","system_id":"levelo_inurba_marseille","lat":43.31084,"lon":5.4243,"is_reserved":false,"is_disabled":false,"rental_uris":{"android":"levelo://app?vid=4e192de9-15c3-4b3f-b111-35f9533f5273","ios":"levelo://app?vid=4e192de9-15c3-4b3f-b111-35f9533f5273"},"vehicle_type_id":"4","last_reported":1746432924,"current_range_meters":22000,"station_id":"ce4bhp92rcd13ifvqhag","pricing_plan_id":"cebpf4jnsgd1na2vs0mg"},{"bike_id":"b93ffe16-cc23-413f-9aaa-178ba0474a46","system_id":"levelo_inurba_marseille","lat":43.29368,"lon":5.37832,"is_reserved":false,"is_disabled":false,"rental_uris":{"android":"levelo://app?vid=b93ffe16-cc23-413f-9aaa-178ba0474a46","ios":"levelo://app?vid=b93ffe16-cc23-413f-9aaa-178ba0474a46"},"vehicle_type_id":"4","last_reported":1746432924,"current_range_meters":22000,"station_id":"ce4bgjh2rcd13ifvqbf0","pricing_plan_id":"cebpf4jnsgd1na2vs0mg"},{"bike_id":"57adc66e-e920-4e08-8afe-981da93924a2","system_id":"levelo_inurba_marseille","lat":43.30308,"lon":5.36909,"is_reserved":false,"is_disabled":false,"rental_uris":{"android":"levelo://app?vid=57adc66e-e920-4e08-8afe-981da93924a2","ios":"levelo://app?vid=57adc66e-e920-4e08-8afe-981da93924a2"},"vehicle_type_id":"4","last_reported":1746432924,"current_range_meters":21600,"station_id":"ce4bgqh2rcd13ifvqc5g","pricing_plan_id":"cebpf4jnsgd1na2vs0mg"},{"bike_id":"e251da1b-e6e3-4577-b6ee-ca5b78846d86","system_id":"levelo_inurba_marseille","lat":43.23059,"lon":5.35489,"is_reserved":false,"is_disabled":false,"rental_uris":{"android":"levelo://app?vid=e251da1b-e6e3-4577-b6ee-ca5b78846d86","ios":"levelo://app?vid=e251da1b-e6e3-4577-b6ee-ca5b78846d86"},"vehicle_type_id":"4","last_reported":1746432924,"current_range_meters":22000,"station_id":"cpo3342slgdg3j2ifvpg","pricing_plan_id":"cebpf4jnsgd1na2vs0mg"},{"bike_id":"87a333b7-39dd-4f91-9e31-3ba6ddc104a1","system_id":"levelo_inurba_marseille","lat":43.337444,"lon":5.374475,"is_reserved":false,"is_disabled":true,"rental_uris":{"android":"levelo://app?vid=87a333b7-39dd-4f91-9e31-3ba6ddc104a1","ios":"levelo://app?vid=87a333b7-39dd-4f91-9e31-3ba6ddc104a1"},"vehicle_type_id":"4","last_reported":1746432924,"current_range_meters":22000,"station_id":"","pricing_plan_id":"cebpf4jnsgd1na2vs0mg"},{"bike_id":"fe297b24-dcdc-4fc2-a17d-fc41f65c6df3","system_id":"levelo_inurba_marseille","lat":43.239676,"lon":5.366275,"is_reserved":false,"is_disabled":false,"rental_uris":{"android":"levelo://app?vid=fe297b24-dcdc-4fc2-a17d-fc41f65c6df3","ios":"levelo://app?vid=fe297b24-dcdc-4fc2-a17d-fc41f65c6df3"},"vehicle_type_id":"4","last_reported":1746432924,"current_range_meters":22400,"station_id":"ce4bhi12rcd13ifvqfp0","pricing_plan_id":"cebpf4jnsgd1na2vs0mg"},{"bike_id":"f3661b8c-3f6e-4c71-aeca-ecc83b55c45e","system_id":"levelo_inurba_marseille","lat":43.28849,"lon":5.3587,"is_reserved":false,"is_disabled":true,"rental_uris":{"android":"levelo://app?vid=f3661b8c-3f6e-4c71-aeca-ecc83b55c45e","ios":"levelo://app?vid=f3661b8c-3f6e-4c71-aeca-ecc83b55c45e"},"vehicle_type_id":"4","last_reported":1746432924,"current_range_meters":22400,"station_id":"ce4bhb12rcd13ifvqem0","pricing_plan_id":"cebpf4jnsgd1na2vs0mg"},{"bike_id":"433dc088-64ca-47b2-905c-2fd5d0fe572c","system_id":"levelo_inurba_marseille","lat":43.279144,"lon":5.395691,"is_reserved":false,"is_disabled":false,"rental_uris":{"android":"levelo://app?vid=433dc088-64ca-47b2-905c-2fd5d0fe572c","ios":"levelo://app?vid=433dc088-64ca-47b2-905c-2fd5d0fe572c"},"vehicle_type_id":"4","last_reported":1746432924,"current_range_meters":20400,"station_id":"ce4bhf92rcd13ifvqf40","pricing_plan_id":"cebpf4jnsgd1na2vs0mg"},{"bike_id":"1aa7864a-d776-46bf-96ee-8ab1fb50e121","system_id":"levelo_inurba_marseille","lat":43.2951,"lon":5.39046,"is_reserved":false,"is_disabled":true,"rental_uris":{"android":"levelo://app?vid=1aa7864a-d776-46bf-96ee-8ab1fb50e121","ios":"levelo://app?vid=1aa7864a-d776-46bf-96ee-8ab1fb50e121"},"vehicle_type_id":"4","last_reported":1746432924,"current_range_meters":22400,"station_id":"ce4bh3p2rcd13ifvqdp0","pricing_plan_id":"cebpf4jnsgd1na2vs0mg"},{"bike_id":"90a245ac-4731-41ac-a870-e1cd13b5c6b2","system_id":"levelo_inurba_marseille","lat":43.283489,"lon":5.380897,"is_reserved":false,"is_disabled":false,"rental_uris":{"android":"levelo://app?vid=90a245ac-4731-41ac-a870-e1cd13b5c6b2","ios":"levelo://app?vid=90a245ac-4731-41ac-a870-e1cd13b5c6b2"},"vehicle_type_id":"4","last_reported":1746432924,"current_range_meters":22400,"station_id":"ce4bh412rcd13ifvqdr0","pricing_plan_id":"cebpf4jnsgd1na2vs0mg"},{"bike_id":"e84241fb-8fc7-4436-8e8b-f60e4fce4202","system_id":"levelo_inurba_marseille","lat":43.25938,"lon":5.40897,"is_reserved":false,"is_disabled":false,"rental_uris":{"android":"levelo://app?vid=e84241fb-8fc7-4436-8e8b-f60e4fce4202","ios":"levelo://app?vid=e84241fb-8fc7-4436-8e8b-f60e4fce4202"},"vehicle_type_id":"4","last_reported":1746432924,"current_range_meters":22800,"station_id":"ce4bhm92rcd13ifvqglg","pricing_plan_id":"cebpf4jnsgd1na2vs0mg"},{"bike_id":"8b3925f6-07c3-4cd7-8b16-dd71192d477e","system_id":"levelo_inurba_marseille","lat":43.24392,"lon":5.3706,"is_reserved":false,"is_disabled":false,"rental_uris":{"android":"levelo://app?vid=8b3925f6-07c3-4cd7-8b16-dd71192d477e","ios":"levelo://app?vid=8b3925f6-07c3-4cd7-8b16-dd71192d477e"},"vehicle_type_id":"4","last_reported":1746432924,"current_range_meters":22800,"station_id":"ce4bhhh2rcd13ifvqfk0","pricing_plan_id":"cebpf4jnsgd1na2vs0mg"},{"bike_id":"e8f20813-c969-4764-a484-4dd180f55117","system_id":"levelo_inurba_marseille","lat":43.25932,"lon":5.40909,"is_reserved":false,"is_disabled":false,"rental_uris":{"android":"levelo://app?vid=e8f20813-c969-4764-a484-4dd180f55117","ios":"levelo://app?vid=e8f20813-c969-4764-a484-4dd180f55117"},"vehicle_type_id":"4","last_reported":1746432924,"current_range_meters":22800,"station_id":"ce4bhm92rcd13ifvqglg","pricing_plan_id":"cebpf4jnsgd1na2vs0mg"},{"bike_id":"ec1d0d3a-2b02-4260-a905-efe5646117f6","system_id":"levelo_inurba_marseille","lat":43.337444,"lon":5.374475,"is_reserved":false,"is_disabled":false,"rental_uris":{"android":"levelo://app?vid=ec1d0d3a-2b02-4260-a905-efe5646117f6","ios":"levelo://app?vid=ec1d0d3a-2b02-4260-a905-efe5646117f6"},"vehicle_type_id":"4","last_reported":1746432924,"current_range_meters":22800,"station_id":"ce4bhi12rcd13ifvqfp0","pricing_plan_id":"cebpf4jnsgd1na2vs0mg"},{"bike_id":"c455a05e-cd9d-417b-b656-4efe5d30aeb7","system_id":"levelo_inurba_marseille","lat":43.24651,"lon":5.38893,"is_reserved":false,"is_disabled":false,"rental_uris":{"android":"levelo://app?vid=c455a05e-cd9d-417b-b656-4efe5d30aeb7","ios":"levelo://app?vid=c455a05e-cd9d-417b-b656-4efe5d30aeb7"},"vehicle_type_id":"4","last_reported":1746432924,"current_range_meters":22800,"station_id":"ce4bhg12rcd13ifvqf60","pricing_plan_id":"cebpf4jnsgd1na2vs0mg"},{"bike_id":"3ae74631-5401-4c8d-87e8-3b0125a546bc","system_id":"levelo_inurba_marseille","lat":43.24181,"lon":5.39724,"is_reserved":false,"is_disabled":false,"rental_uris":{"android":"levelo://app?vid=3ae74631-5401-4c8d-87e8-3b0125a546bc","ios":"levelo://app?vid=3ae74631-5401-4c8d-87e8-3b0125a546bc"},"vehicle_type_id":"4","last_reported":1746432924,"current_range_meters":22800,"station_id":"ce4bhn12rcd13ifvqgpg","pricing_plan_id":"cebpf4jnsgd1na2vs0mg"},{"bike_id":"32aabea1-8cf6-459e-b8c4-4e3ea74f8071","system_id":"levelo_inurba_marseille","lat":43.30947,"lon":5.39034,"is_reserved":false,"is_disabled":false,"rental_uris":{"android":"levelo://app?vid=32aabea1-8cf6-459e-b8c4-4e3ea74f8071","ios":"levelo://app?vid=32aabea1-8cf6-459e-b8c4-4e3ea74f8071"},"vehicle_type_id":"4","last_reported":1746432924,"current_range_meters":22800,"station_id":"ce4bgup2rcd13ifvqco0","pricing_plan_id":"cebpf4jnsgd1na2vs0mg"},{"bike_id":"eaa2f012-4d27-45fc-bd61-10e8d9a49b21","system_id":"levelo_inurba_marseille","lat":43.27493,"lon":5.42444,"is_reserved":false,"is_disabled":false,"rental_uris":{"android":"levelo://app?vid=eaa2f012-4d27-45fc-bd61-10e8d9a49b21","ios":"levelo://app?vid=eaa2f012-4d27-45fc-bd61-10e8d9a49b21"},"vehicle_type_id":"4","last_reported":1746432924,"current_range_meters":23200,"station_id":"ce4bhn92rcd13ifvqgrg","pricing_plan_id":"cebpf4jnsgd1na2vs0mg"},{"bike_id":"d3a852b4-655d-4d40-9d50-42e796c56f96","system_id":"levelo_inurba_marseille","lat":43.32358,"lon":5.36784,"is_reserved":false,"is_disabled":false,"rental_uris":{"android":"levelo://app?vid=d3a852b4-655d-4d40-9d50-42e796c56f96","ios":"levelo://app?vid=d3a852b4-655d-4d40-9d50-42e796c56f96"},"vehicle_type_id":"4","last_reported":1746432924,"current_range_meters":23200,"station_id":"ce4bhsh2rcd13ifvqi2g","pricing_plan_id":"cebpf4jnsgd1na2vs0mg"},{"bike_id":"bd540609-63ec-48df-ae72-6d47e4e3c2e2","system_id":"levelo_inurba_marseille","lat":43.31335,"lon":5.36716,"is_reserved":false,"is_disabled":false,"rental_uris":{"android":"levelo://app?vid=bd540609-63ec-48df-ae72-6d47e4e3c2e2","ios":"levelo://app?vid=bd540609-63ec-48df-ae72-6d47e4e3c2e2"},"vehicle_type_id":"4","last_reported":1746432924,"current_range_meters":23200,"station_id":"ce4bgr92rcd13ifvqc6g","pricing_plan_id":"cebpf4jnsgd1na2vs0mg"},{"bike_id":"eab5c00c-cc81-452e-a619-f491b7a92be2","system_id":"levelo_inurba_marseille","lat":43.2315,"lon":5.43716,"is_reserved":false,"is_disabled":false,"rental_uris":{"android":"levelo://app?vid=eab5c00c-cc81-452e-a619-f491b7a92be2","ios":"levelo://app?vid=eab5c00c-cc81-452e-a619-f491b7a92be2"},"vehicle_type_id":"4","last_reported":1746432924,"current_range_meters":24000,"station_id":"ce4bhmp2rcd13ifvqgog","pricing_plan_id":"cebpf4jnsgd1na2vs0mg"},{"bike_id":"b4da13b6-81c0-4094-8933-488e66de27dc","system_id":"levelo_inurba_marseille","lat":43.28434,"lon":5.34946,"is_reserved":false,"is_disabled":true,"rental_uris":{"android":"levelo://app?vid=b4da13b6-81c0-4094-8933-488e66de27dc","ios":"levelo://app?vid=b4da13b6-81c0-4094-8933-488e66de27dc"},"vehicle_type_id":"4","last_reported":1746432924,"current_range_meters":24000,"station_id":"ce4bhbh2rcd13ifvqepg","pricing_plan_id":"cebpf4jnsgd1na2vs0mg"},{"bike_id":"e9de9261-f8e3-45d9-be02-4a08b519a2f3","system_id":"levelo_inurba_marseille","lat":43.28354,"lon":5.38094,"is_reserved":false,"is_disabled":false,"rental_uris":{"android":"levelo://app?vid=e9de9261-f8e3-45d9-be02-4a08b519a2f3","ios":"levelo://app?vid=e9de9261-f8e3-45d9-be02-4a08b519a2f3"},"vehicle_type_id":"4","last_reported":1746432924,"current_range_meters":24000,"station_id":"","pricing_plan_id":"cebpf4jnsgd1na2vs0mg"},{"bike_id":"d0746e70-2da4-497c-8d30-b37b0e2e9c1f","system_id":"levelo_inurba_marseille","lat":43.33604,"lon":5.41029,"is_reserved":false,"is_disabled":false,"rental_uris":{"android":"levelo://app?vid=d0746e70-2da4-497c-8d30-b37b0e2e9c1f","ios":"levelo://app?vid=d0746e70-2da4-497c-8d30-b37b0e2e9c1f"},"vehicle_type_id":"4","last_reported":1746432924,"current_range_meters":24000,"station_id":"ce4bhqh2rcd13ifvqhmg","pricing_plan_id":"cebpf4jnsgd1na2vs0mg"},{"bike_id":"8c9fd3f5-a988-4e2a-8f9d-8d142e1ffbfb","system_id":"levelo_inurba_marseille","lat":43.24194,"lon":5.39757,"is_reserved":false,"is_disabled":false,"rental_uris":{"android":"levelo://app?vid=8c9fd3f5-a988-4e2a-8f9d-8d142e1ffbfb","ios":"levelo://app?vid=8c9fd3f5-a988-4e2a-8f9d-8d142e1ffbfb"},"vehicle_type_id":"4","last_reported":1746432924,"current_range_meters":24000,"station_id":"ce4bhn12rcd13ifvqgpg","pricing_plan_id":"cebpf4jnsgd1na2vs0mg"},{"bike_id":"76eba97b-6d7b-49b5-be82-f9388011507f","system_id":"levelo_inurba_marseille","lat":43.23137,"lon":5.43731,"is_reserved":false,"is_disabled":false,"rental_uris":{"android":"levelo://app?vid=76eba97b-6d7b-49b5-be82-f9388011507f","ios":"levelo://app?vid=76eba97b-6d7b-49b5-be82-f9388011507f"},"vehicle_type_id":"4","last_reported":1746432924,"current_range_meters":24400,"station_id":"ce4bhmp2rcd13ifvqgog","pricing_plan_id":"cebpf4jnsgd1na2vs0mg"},{"bike_id":"8d3e28b3-4bdd-4386-b4f3-3c26d32ae21f","system_id":"levelo_inurba_marseille","lat":43.30788,"lon":5.37639,"is_reserved":false,"is_disabled":false,"rental_uris":{"android":"levelo://app?vid=8d3e28b3-4bdd-4386-b4f3-3c26d32ae21f","ios":"levelo://app?vid=8d3e28b3-4bdd-4386-b4f3-3c26d32ae21f"},"vehicle_type_id":"4","last_reported":1746432924,"current_range_meters":24400,"station_id":"ce4bgv92rcd13ifvqcq0","pricing_plan_id":"cebpf4jnsgd1na2vs0mg"},{"bike_id":"4e2841b6-72d8-46b9-a02b-8a31a02b484c","system_id":"levelo_inurba_marseille","lat":43.29025,"lon":5.43957,"is_reserved":false,"is_disabled":false,"rental_uris":{"android":"levelo://app?vid=4e2841b6-72d8-46b9-a02b-8a31a02b484c","ios":"levelo://app?vid=4e2841b6-72d8-46b9-a02b-8a31a02b484c"},"vehicle_type_id":"4","last_reported":1746432924,"current_range_meters":24400,"station_id":"","pricing_plan_id":"cebpf4jnsgd1na2vs0mg"},