{"last_updated":1720026446,"ttl":30,"version":"2.2","data":{"bikes":[{"bike_id":"d8fc0ff7-1409-4860-a60f-b59a5ca1e704","system_id":"levelo_inurba_marseille","lat":43.31341,"lon":5.367098,"is_reserved":false,"is_disabled":false,"rental_uris":{"android":"levelo://app?vid=d8fc0ff7-1409-4860-a60f-b59a5ca1e704","ios":"levelo://app?vid=d8fc0ff7-1409-4860-a60f-b59a5ca1e704"},"vehicle_type_id":"4","last_reported":1720026446,"current_range_meters":10000,"station_id":"ce4bgr92rcd13ifvqc6g","pricing_plan_id":"cebpf4jnsgd1na2vs0mg"},{"bike_id":"8959c5f9-5f02-4670-bc0c-53e66a0477dd","system_id":"levelo_inurba_marseille","lat":43.31105,"lon":5.370523,"is_reserved":false,"is_disabled":false,"rental_uris":{"android":"levelo://app?vid=8959c5f9-5f02-4670-bc0c-53e66a0477dd","ios":"levelo://app?vid=8959c5f9-5f02-4670-bc0c-53e66a0477dd"},"vehicle_type_id":"4","last_reported":1720026446,"current_range_meters":12800,"station_id":"","pricing_plan_id":"cebpf4jnsgd1na2vs0mg"},{"bike_id":"8a6ce8dc-cf00-492c-8d46-214124788516","system_id":"levelo_inurba_marseille","lat":43.31512,"lon":5.37299,"is_reserved":false,"is_disabled":false,"rental_uris":{"android":"levelo://app?vid=8a6ce8dc-cf00-492c-8d46-214124788516","ios":"levelo://app?vid=8a6ce8dc-cf00-492c-8d46-214124788516"},"vehicle_type_id":"4","last_reported":1720026446,"current_range_meters":6000,"station_id":"ce4bgt12rcd13ifvqcd0","pricing_plan_id":"cebpf4jnsgd1na2vs0mg"},{"bike_id":"ea42bfd1-8788-4f99-8975-fd78759efe02","system_id":"levelo_inurba_marseille","lat":43.309039,"lon":5.371797,"is_reserved":false,"is_disabled":false,"rental_uris":{"android":"levelo://app?vid=ea42bfd1-8788-4f99-8975-fd78759efe02","ios":"levelo://app?vid=ea42bfd1-8788-4f99-8975-fd78759efe02"},"vehicle_type_id":"4","last_reported":1720026446,"current_range_meters":16000,"station_id":"ce4bguh2rcd13ifvqckg","pricing_plan_id":"cebpf4jnsgd1na2vs0mg"},{"bike_id":"162ded3a-c74e-42b2-a4cd-f7175278420c","system_id":"levelo_inurba_marseille","lat":43.309039,"lon":5.371797,"is_reserved":false,"is_disabled":false,"rental_uris":{"android":"levelo://app?vid=162ded3a-c74e-42b2-a4cd-f7175278420c","ios":"levelo://app?vid=162ded3a-c74e-42b2-a4cd-f7175278420c"},"vehicle_type_id":"4","last_reported":1720026446,"current_range_meters":13200,"station_id":"ce4bguh2rcd13ifvqckg","pricing_plan_id":"cebpf4jnsgd1na2vs0mg"},{"bike_id":"aca0fd86-7997-4a5e-99ee-bf52d09e2b9f","system_id":"levelo_inurba_marseille","lat":43.298433,"lon":5.362774,"is_reserved":false,"is_disabled":false,"rental_uris":{"android":"levelo://app?vid=aca0fd86-7997-4a5e-99ee-bf52d09e2b9f","ios":"levelo://app?vid=aca0fd86-7997-4a5e-99ee-bf52d09e2b9f"},"vehicle_type_id":"4","last_reported":1720026446,"current_range_meters":16800,"station_id":"ce4bgpp2rcd13ifvqc3g","pricing_plan_id":"cebpf4jnsgd1na2vs0mg"},{"bike_id":"680354a0-47dd-4515-9af6-2f5bab6d1594","system_id":"levelo_inurba_marseille","lat":43.30546,"lon":5.36656,"is_reserved":false,"is_disabled":false,"rental_uris":{"android":"levelo://app?vid=680354a0-47dd-4515-9af6-2f5bab6d1594","ios":"levelo://app?vid=680354a0-47dd-4515-9af6-2f5bab6d1594"},"vehicle_type_id":"4","last_reported":1720026446,"current_range_meters":5600,"station_id":"","pricing_plan_id":"cebpf4jnsgd1na2vs0mg"},{"bike_id":"eee53bb8-fb3f-460c-ae91-d78d99819812","system_id":"levelo_inurba_marseille","lat":43.305706,"lon":5.365654,"is_reserved":false,"is_disabled":false,"rental_uris":{"android":"levelo://app?vid=eee53bb8-fb3f-460c-ae91-d78d99819812","ios":"levelo://app?vid=eee53bb8-fb3f-460c-ae91-d78d99819812"},"vehicle_type_id":"4","last_reported":1720026446,"current_range_meters":0,"station_id":"ce4bgs12rcd13ifvqcag","pricing_plan_id":"cebpf4jnsgd1na2vs0mg"},{"bike_id":"8bd6cbd1-844a-4503-ac9d-fdbde76ee6aa","system_id":"levelo_inurba_marseille","lat":43.305989,"lon":5.37225,"is_reserved":false,"is_disabled":false,"rental_uris":{"android":"levelo://app?vid=8bd6cbd1-844a-4503-ac9d-fdbde76ee6aa","ios":"levelo://app?vid=8bd6cbd1-844a-4503-ac9d-fdbde76ee6aa"},"vehicle_type_id":"4","last_reported":1720026446,"current_range_meters":13600,"station_id":"ce4bgqh2rcd13ifvqc4g","pricing_plan_id":"cebpf4jnsgd1na2vs0mg"},{"bike_id":"d6e5ed63-475d-455b-b298-cec74a1b8c1e","system_id":"levelo_inurba_marseille","lat":43.311125,"lon":5.377624,"is_reserved":false,"is_disabled":false,"rental_uris":{"android":"levelo://app?vid=d6e5ed63-475d-455b-b298-cec74a1b8c1e","ios":"levelo://app?vid=d6e5ed63-475d-455b-b298-cec74a1b8c1e"},"vehicle_type_id":"4","last_reported":1720026446,"current_range_meters":2800,"station_id":"ce4bgt92rcd13ifvqcg0","pricing_plan_id":"cebpf4jnsgd1na2vs0mg"},{"bike_id":"5de683ce-8a6e-4d4c-9618-7b890f79b17a","system_id":"levelo_inurba_marseille","lat":43.311125,"lon":5.377624,"is_reserved":false,"is_disabled":false,"rental_uris":{"android":"levelo://app?vid=5de683ce-8a6e-4d4c-9618-7b890f79b17a","ios":"levelo://app?vid=5de683ce-8a6e-4d4c-9618-7b890f79b17a"},"vehicle_type_id":"4","last_reported":1720026446,"current_range_meters":31200,"station_id":"ce4bgt92rcd13ifvqcg0","pricing_plan_id":"cebpf4jnsgd1na2vs0mg"},{"bike_id":"2872c5de-42e0-4b68-a529-9b0c06576f1b","system_id":"levelo_inurba_marseille","lat":43.307945,"lon":5.376487,"is_reserved":false,"is_disabled":false,"rental_uris":{"android":"levelo://app?vid=2872c5de-42e0-4b68-a529-9b0c06576f1b","ios":"levelo://app?vid=2872c5de-42e0-4b68-a529-9b0c06576f1b"},"vehicle_type_id":"4","last_reported":1720026446,"current_range_meters":800,"station_id":"ce4bgv92rcd13ifvqcq0","pricing_plan_id":"cebpf4jnsgd1na2vs0mg"},{"bike_id":"ed51e3eb-5d1a-410f-9559-49aa30cc396f","system_id":"levelo_inurba_marseille","lat":43.317075,"lon":5.377367,"is_reserved":false,"is_disabled":false,"rental_uris":{"android":"levelo://app?vid=ed51e3eb-5d1a-410f-9559-49aa30cc396f","ios":"levelo://app?vid=ed51e3eb-5d1a-410f-9559-49aa30cc396f"},"vehicle_type_id":"4","last_reported":1720026446,"current_range_meters":7200,"station_id":"ce4bgth2rcd13ifvqch0","pricing_plan_id":"cebpf4jnsgd1na2vs0mg"},{"bike_id":"c1fe08d5-6515-411b-945d-5fe6a97088ed","system_id":"levelo_inurba_marseille","lat":43.317003,"lon":5.377573,"is_reserved":false,"is_disabled":false,"rental_uris":{"android":"levelo://app?vid=c1fe08d5-6515-411b-945d-5fe6a97088ed","ios":"levelo://app?vid=c1fe08d5-6515-411b-945d-5fe6a97088ed"},"vehicle_type_id":"4","last_reported":1720026446,"current_range_meters":0,"station_id":"ce4bgth2rcd13ifvqch0","pricing_plan_id":"cebpf4jnsgd1na2vs0mg"},{"bike_id":"6e19a7e2-5f1b-426b-a700-019d3386cee5","system_id":"levelo_inurba_marseille","lat":43.303046,"lon":5.368981,"is_reserved":false,"is_disabled":false,"rental_uris":{"android":"levelo://app?vid=6e19a7e2-5f1b-426b-a700-019d3386cee5","ios":"levelo://app?vid=6e19a7e2-5f1b-426b-a700-019d3386cee5"},"vehicle_type_id":"4","last_reported":1720026446,"current_range_meters":19600,"station_id":"ce4bgqh2rcd13ifvqc5g","pricing_plan_id":"cebpf4jnsgd1na2vs0mg"},{"bike_id":"5283b42e-13c3-4399-97e5-15d4a875ff38","system_id":"levelo_inurba_marseille","lat":43.30672,"lon":5.37751,"is_reserved":false,"is_disabled":false,"rental_uris":{"android":"levelo://app?vid=5283b42e-13c3-4399-97e5-15d4a875ff38","ios":"levelo://app?vid=5283b42e-13c3-4399-97e5-15d4a875ff38"},"vehicle_type_id":"4","last_reported":1720026446,"current_range_meters":16000,"station_id":"","pricing_plan_id":"cebpf4jnsgd1na2vs0mg"},{"bike_id":"e5ecc3af-dbd3-493a-a29c-cdaf2e94ba9b","system_id":"levelo_inurba_marseille","lat":43.315289,"lon":5.380349,"is_reserved":false,"is_disabled":false,"rental_uris":{"android":"levelo://app?vid=e5ecc3af-dbd3-493a-a29c-cdaf2e94ba9b","ios":"levelo://app?vid=e5ecc3af-dbd3-493a-a29c-cdaf2e94ba9b"},"vehicle_type_id":"4","last_reported":1720026446,"current_range_meters":13600,"station_id":"ce4bhsp2rcd13ifvqi50","pricing_plan_id":"cebpf4jnsgd1na2vs0mg"},{"bike_id":"4cc7986f-4b55-459c-a184-2899fb9f0aae","system_id":"levelo_inurba_marseille","lat":43.301939,"lon":5.366286,"is_reserved":false,"is_disabled":false,"rental_uris":{"android":"levelo://app?vid=4cc7986f-4b55-459c-a184-2899fb9f0aae","ios":"levelo://app?vid=4cc7986f-4b55-459c-a184-2899fb9f0aae"},"vehicle_type_id":"4","last_reported":1720026446,"current_range_meters":0,"station_id":"ce4bgrh2rcd13ifvqc8g","pricing_plan_id":"cebpf4jnsgd1na2vs0mg"},{"bike_id":"f64b599a-7abf-4b12-a415-5a9b8265400d","system_id":"levelo_inurba_marseille","lat":43.308012,"lon":5.381511,"is_reserved":false,"is_disabled":false,"rental_uris":{"android":"levelo://app?vid=f64b599a-7abf-4b12-a415-5a9b8265400d","ios":"levelo://app?vid=f64b599a-7abf-4b12-a415-5a9b8265400d"},"vehicle_type_id":"4","last_reported":1720026446,"current_range_meters":21200,"station_id":"ce4bgt12rcd13ifvqce0","pricing_plan_id":"cebpf4jnsgd1na2vs0mg"},{"bike_id":"c12552fe-1ebb-481c-bb14-6e329d9bf9cc","system_id":"levelo_inurba_marseille","lat":43.308012,"lon":5.381511,"is_reserved":false,"is_disabled":false,"rental_uris":{"android":"levelo://app?vid=c12552fe-1ebb-481c-bb14-6e329d9bf9cc","ios":"levelo://app?vid=c12552fe-1ebb-481c-bb14-6e329d9bf9cc"},"vehicle_type_id":"4","last_reported":1720026446,"current_range_meters":13200,"station_id":"ce4bgt12rcd13ifvqce0","pricing_plan_id":"cebpf4jnsgd1na2vs0mg"},{"bike_id":"cdc916ad-1376-4402-8732-c09580f0b385","system_id":"levelo_inurba_marseille","lat":43.304606,"lon":5.379026,"is_reserved":false,"is_disabled":false,"rental_uris":{"android":"levelo://app?vid=cdc916ad-1376-4402-8732-c09580f0b385","ios":"levelo://app?vid=cdc916ad-1376-4402-8732-c09580f0b385"},"vehicle_type_id":"4","last_reported":1720026446,"current_range_meters":800,"station_id":"ce4bgup2rcd13ifvqcn0","pricing_plan_id":"cebpf4jnsgd1na2vs0mg"},{"bike_id":"a8f40c2b-491f-415f-813f-017453fef866","system_id":"levelo_inurba_marseille","lat":43.324771,"lon":5.36557,"is_reserved":false,"is_disabled":false,"rental_uris":{"android":"levelo://app?vid=a8f40c2b-491f-415f-813f-017453fef866","ios":"levelo://app?vid=a8f40c2b-491f-415f-813f-017453fef866"},"vehicle_type_id":"4","last_reported":1720026446,"current_range_meters":12800,"station_id":"ce4bhs12rcd13ifvqhvg","pricing_plan_id":"cebpf4jnsgd1na2vs0mg"},{"bike_id":"7c3b77ed-8ebe-416f-8120-dad5e420c471","system_id":"levelo_inurba_marseille","lat":43.324771,"lon":5.36557,"is_reserved":false,"is_disabled":false,"rental_uris":{"android":"levelo://app?vid=7c3b77ed-8ebe-416f-8120-dad5e420c471","ios":"levelo://app?vid=7c3b77ed-8ebe-416f-8120-dad5e420c471"},"vehicle_type_id":"4","last_reported":1720026446,"current_range_meters":8400,"station_id":"ce4bhs12rcd13ifvqhvg","pricing_plan_id":"cebpf4jnsgd1na2vs0mg"},{"bike_id":"ad03e178-4036-4e79-8c4a-0e3bcfab0aff","system_id":"levelo_inurba_marseille","lat":43.324852,"lon":5.365706,"is_reserved":false,"is_disabled":false,"rental_uris":{"android":"levelo://app?vid=ad03e178-4036-4e79-8c4a-0e3bcfab0aff","ios":"levelo://app?vid=ad03e178-4036-4e79-8c4a-0e3bcfab0aff"},"vehicle_type_id":"4","last_reported":1720026446,"current_range_meters":0,"station_id":"ce4bhs12rcd13ifvqhvg","pricing_plan_id":"cebpf4jnsgd1na2vs0mg"},{"bike_id":"9b1f9052-2050-4ee3-8a81-7ba7b328d0ab","system_id":"levelo_inurba_marseille","lat":43.301429,"lon":5.37413,"is_reserved":false,"is_disabled":false,"rental_uris":{"android":"levelo://app?vid=9b1f9052-2050-4ee3-8a81-7ba7b328d0ab","ios":"levelo://app?vid=9b1f9052-2050-4ee3-8a81-7ba7b328d0ab"},"vehicle_type_id":"4","last_reported":1720026446,"current_range_meters":18400,"station_id":"ce4bgs92rcd13ifvqcc0","pricing_plan_id":"cebpf4jnsgd1na2vs0mg"},{"bike_id":"a526daf2-147d-484c-bc9a-a1d41bda926a","system_id":"levelo_inurba_marseille","lat":43.301429,"lon":5.37413,"is_reserved":false,"is_disabled":false,"rental_uris":{"android":"levelo://app?vid=a526daf2-147d-484c-bc9a-a1d41bda926a","ios":"levelo://app?vid=a526daf2-147d-484c-bc9a-a1d41bda926a"},"vehicle_type_id":"4","last_reported":1720026446,"current_range_meters":800,"station_id":"ce4bgs92rcd13ifvqcc0","pricing_plan_id":"cebpf4jnsgd1na2vs0mg"},{"bike_id":"09ef0823-f48f-464e-bbd3-e41a6a200cdc","system_id":"levelo_inurba_marseille","lat":43.301429,"lon":5.37413,"is_reserved":false,"is_disabled":false,"rental_uris":{"android":"levelo://app?vid=09ef0823-f48f-464e-bbd3-e41a6a200cdc","ios":"levelo://app?vid=09ef0823-f48f-464e-bbd3-e41a6a200cdc"},"vehicle_type_id":"4","last_reported":1720026446,"current_range_meters":0,"station_id":"ce4bgs92rcd13ifvqcc0","pricing_plan_id":"cebpf4jnsgd1na2vs0mg"},{"bike_id":"5f9c17b7-b428-40c7-baa5-58238e9ad610","system_id":"levelo_inurba_marseille","lat":43.30143,"lon":5.37413,"is_reserved":false,"is_disabled":false,"rental_uris":{"android":"levelo://app?vid=5f9c17b7-b428-40c7-baa5-58238e9ad610","ios":"levelo://app?vid=5f9c17b7-b428-40c7-baa5-58238e9ad610"},"vehicle_type_id":"4","last_reported":1720026446,"current_range_meters":20400,"station_id":"ce4bgs92rcd13ifvqcc0","pricing_plan_id":"cebpf4jnsgd1na2vs0mg"},{"bike_id":"fb784225-4dd2-4714-a6df-68e25ad6f644","system_id":"levelo_inurba_marseille","lat":43.319935,"lon":5.381699,"is_reserved":false,"is_disabled":false,"rental_uris":{"android":"levelo://app?vid=fb784225-4dd2-4714-a6df-68e25ad6f644","ios":"levelo://app?vid=fb784225-4dd2-4714-a6df-68e25ad6f644"},"vehicle_type_id":"4","last_reported":1720026446,"current_range_meters":21600,"station_id":"ce4bhr12rcd13ifvqhpg","pricing_plan_id":"cebpf4jnsgd1na2vs0mg"},{"bike_id":"b78ff9fa-9e42-4935-ab9b-1f0b67b3b164","system_id":"levelo_inurba_marseille","lat":43.313571,"lon":5.384829,"is_reserved":false,"is_disabled":false,"rental_uris":{"android":"levelo://app?vid=b78ff9fa-9e42-4935-ab9b-1f0b67b3b164","ios":"levelo://app?vid=b78ff9fa-9e42-4935-ab9b-1f0b67b3b164"},"vehicle_type_id":"4","last_reported":1720026446,"current_range_meters":800,"station_id":"ce4bgt92rcd13ifvqcf0","pricing_plan_id":"cebpf4jnsgd1na2vs0mg"},{"bike_id":"38ab06b3-fda4-474e-8230-ee4a2cbff7ce","system_id":"levelo_inurba_marseille","lat":43.313571,"lon":5.384829,"is_reserved":false,"is_disabled":false,"rental_uris":{"android":"levelo://app?vid=38ab06b3-fda4-474e-8230-ee4a2cbff7ce","ios":"levelo://app?vid=38ab06b3-fda4-474e-8230-ee4a2cbff7ce"},"vehicle_type_id":"4","last_reported":1720026446,"current_range_meters":18400,"station_id":"ce4bgt92rcd13ifvqcf0","pricing_plan_id":"cebpf4jnsgd1na2vs0mg"},{"bike_id":"31171927-8afc-42e5-856c-83fdf109c721","system_id":"levelo_inurba_marseille","lat":43.298433,"lon":5.362774,"is_reserved":false,"is_disabled":false,"rental_uris":{"android":"levelo://app?vid=31171927-8afc-42e5-856c-83fdf109c721","ios":"levelo://app?vid=31171927-8afc-42e5-856c-83fdf109c721"},"vehicle_type_id":"4","last_reported":1720026446,"current_range_meters":17200,"station_id":"ce4bgpp2rcd13ifvqc3g","pricing_plan_id":"cebpf4jnsgd1na2vs0mg"},{"bike_id":"6bdaa582-d1a8-4940-a74c-bebb8255b2b3","system_id":"levelo_inurba_marseille","lat":43.32581,"lon":5.37581,"is_reserved":false,"is_disabled":false,"rental_uris":{"android":"levelo://app?vid=6bdaa582-d1a8-4940-a74c-bebb8255b2b3","ios":"levelo://app?vid=6bdaa582-d1a8-4940-a74c-bebb8255b2b3"},"vehicle_type_id":"4","last_reported":1720026446,"current_range_meters":400,"station_id":"","pricing_plan_id":"cebpf4jnsgd1na2vs0mg"},{"bike_id":"4125ef55-1ed2-4a9d-9271-1fcae5e1af91","system_id":"levelo_inurba_marseille","lat":43.298433,"lon":5.362774,"is_reserved":false,"is_disabled":false,"rental_uris":{"android":"levelo://app?vid=4125ef55-1ed2-4a9d-9271-1fcae5e1af91","ios":"levelo://app?vid=4125ef55-1ed2-4a9d-9271-1fcae5e1af91"},"vehicle_type_id":"4","last_reported":1720026446,"current_range_meters":1200,"station_id":"ce4bgpp2rcd13ifvqc3g","pricing_plan_id":"cebpf4jnsgd1na2vs0mg"},{"bike_id":"db710e0f-7ac6-40bf-a85f-40913661f399","system_id":"levelo_inurba_marseille","lat":43.298433,"lon":5.362774,"is_reserved":false,"is_disabled":false,"rental_uris":{"android":"levelo://app?vid=db710e0f-7ac6-40bf-a85f-40913661f399","ios":"levelo://app?vid=db710e0f-7ac6-40bf-a85f-40913661f399"},"vehicle_type_id":"4","last_reported":1720026446,"current_range_meters":27600,"station_id":"ce4bgpp2rcd13ifvqc3g","pricing_plan_id":"cebpf4jnsgd1na2vs0mg"},{"bike_id":"5dc605d0-4ee4-43b0-8b2f-1b7d5df601c6","system_id":"levelo_inurba_marseille","lat":43.298433,"lon":5.362774,"is_reserved":false,"is_disabled":false,"rental_uris":{"android":"levelo://app?vid=5dc605d0-4ee4-43b0-8b2f-1b7d5df601c6","ios":"levelo://app?vid=5dc605d0-4ee4-43b0-8b2f-1b7d5df601c6"},"vehicle_type_id":"4","last_reported":1720026446,"current_range_meters":800,"station_id":"ce4bgpp2rcd13ifvqc3g","pricing_plan_id":"cebpf4jnsgd1na2vs0mg"},{"bike_id":"2a752bc9-2e4e-46a3-b3be-7abac232885d","system_id":"levelo_inurba_marseille","lat":43.305364,"lon":5.384119,"is_reserved":false,"is_disabled":false,"rental_uris":{"android":"levelo://app?vid=2a752bc9-2e4e-46a3-b3be-7abac232885d","ios":"levelo://app?vid=2a752bc9-2e4e-46a3-b3be-7abac232885d"},"vehicle_type_id":"4","last_reported":1720026446,"current_range_meters":25200,"station_id":"ce4bgg92rcd13ifvqb30","pricing_plan_id":"cebpf4jnsgd1na2vs0mg"},{"bike_id":"e28f89a0-db28-484a-99ae-04c12f6e457b","system_id":"levelo_inurba_marseille","lat":43.299243,"lon":5.374807,"is_reserved":false,"is_disabled":false,"rental_uris":{"android":"levelo://app?vid=e28f89a0-db28-484a-99ae-04c12f6e457b","ios":"levelo://app?vid=e28f89a0-db28-484a-99ae-04c12f6e457b"},"vehicle_type_id":"4","last_reported":1720026446,"current_range_meters":0,"station_id":"ce4bgjh2rcd13ifvqbg0","pricing_plan_id":"cebpf4jnsgd1na2vs0mg"},{"bike_id":"b0cd7708-74ba-4a8f-8b5c-6499812650d8","system_id":"levelo_inurba_marseille","lat":43.305364,"lon":5.384119,"is_reserved":false,"is_disabled":false,"rental_uris":{"android":"levelo://app?vid=b0cd7708-74ba-4a8f-8b5c-6499812650d8","ios":"levelo://app?vid=b0cd7708-74ba-4a8f-8b5c-6499812650d8"},"vehicle_type_id":"4","last_reported":1720026446,"current_range_meters":12800,"station_id":"ce4bgg92rcd13ifvqb30","pricing_plan_id":"cebpf4jnsgd1na2vs0mg"},{"bike_id":"41446f8a-1dce-4eb3-967e-735e74656ee6","system_id":"levelo_inurba_marseille","lat":43.29917,"lon":5.37508,"is_reserved":false,"is_disabled":false,"rental_uris":{"android":"levelo://app?vid=41446f8a-1dce-4eb3-967e-735e74656ee6","ios":"levelo://app?vid=41446f8a-1dce-4eb3-967e-735e74656ee6"},"vehicle_type_id":"4","last_reported":1720026446,"current_range_meters":0,"station_id":"ce4bgjh2rcd13ifvqbg0","pricing_plan_id":"cebpf4jnsgd1na2vs0mg"},{"bike_id":"90f77022-264f-4d86-8ac2-5c37757c4103","system_id":"levelo_inurba_marseille","lat":43.297774,"lon":5.370875,"is_reserved":false,"is_disabled":false,"rental_uris":{"android":"levelo://app?vid=90f77022-264f-4d86-8ac2-5c37757c4103","ios":"levelo://app?vid=90f77022-264f-4d86-8ac2-5c37757c4103"},"vehicle_type_id":"4","last_reported":1720026446,"current_range_meters":6000,"station_id":"ce4bgop2rcd13ifvqc1g","pricing_plan_id":"cebpf4jnsgd1na2vs0mg"},{"bike_id":"e8e412cf-b47d-4365-873f-66c4d96d0417","system_id":"levelo_inurba_marseille","lat":43.2978,"lon":5.37116,"is_reserved":false,"is_disabled":false,"rental_uris":{"android":"levelo://app?vid=e8e412cf-b47d-4365-873f-66c4d96d0417","ios":"levelo://app?vid=e8e412cf-b47d-4365-873f-66c4d96d0417"},"vehicle_type_id":"4","last_reported":1720026446,"current_range_meters":0,"station_id":"ce4bgop2rcd13ifvqc1g","pricing_plan_id":"cebpf4jnsgd1na2vs0mg"},{"bike_id":"acbacc07-3406-42b6-a4b4-6ba8eee52b33","system_id":"levelo_inurba_marseille","lat":43.322872,"lon":5.382756,"is_reserved":false,"is_disabled":false,"rental_uris":{"android":"levelo://app?vid=acbacc07-3406-42b6-a4b4-6ba8eee52b33","ios":"levelo://app?vid=acbacc07-3406-42b6-a4b4-6ba8eee52b33"},"vehicle_type_id":"4","last_reported":1720026446,"current_range_meters":31200,"station_id":"ce4bhr12rcd13ifvqhqg","pricing_plan_id":"cebpf4jnsgd1na2vs0mg"},{"bike_id":"27a6bef8-9fa2-4c7c-a852-ef52da7f4c34","system_id":"levelo_inurba_marseille","lat":43.322872,"lon":5.382756,"is_reserved":false,"is_disabled":false,"rental_uris":{"android":"levelo://app?vid=27a6bef8-9fa2-4c7c-a852-ef52da7f4c34","ios":"levelo://app?vid=27a6bef8-9fa2-4c7c-a852-ef52da7f4c34"},"vehicle_type_id":"4","last_reported":1720026446,"current_range_meters":31200,"station_id":"ce4bhr12rcd13ifvqhqg","pricing_plan_id":"cebpf4jnsgd1na2vs0mg"},{"bike_id":"f1748190-5169-40de-8e5f-9315241db08e","system_id":"levelo_inurba_marseille","lat":43.32287,"lon":5.38279,"is_reserved":false,"is_disabled":false,"rental_uris":{"android":"levelo://app?vid=f1748190-5169-40de-8e5f-9315241db08e","ios":"levelo://app?vid=f1748190-5169-40de-8e5f-9315241db08e"},"vehicle_type_id":"4","last_reported":1720026446,"current_range_meters":18000,"station_id":"ce4bhr12rcd13ifvqhqg","pricing_plan_id":"cebpf4jnsgd1na2vs0mg"},{"bike_id":"d75d3940-f863-4614-9923-792e0b2f247b","system_id":"levelo_inurba_marseille","lat":43.29883,"lon":5.37587,"is_reserved":false,"is_disabled":false,"rental_uris":{"android":"levelo://app?vid=d75d3940-f863-4614-9923-792e0b2f247b","ios":"levelo://app?vid=d75d3940-f863-4614-9923-792e0b2f247b"},"vehicle_type_id":"4","last_reported":1720026446,"current_range_meters":15600,"station_id":"","pricing_plan_id":"cebpf4jnsgd1na2vs0mg"},{"bike_id":"5f763b8a-a38a-44b2-9c20-0e02b9204e00","system_id":"levelo_inurba_marseille","lat":43.297163,"lon":5.365866,"is_reserved":false,"is_disabled":false,"rental_uris":{"android":"levelo://app?vid=5f763b8a-a38a-44b2-9c20-0e02b9204e00","ios":"levelo://app?vid=5f763b8a-a38a-44b2-9c20-0e02b9204e00"},"vehicle_type_id":"4","last_reported":1720026446,"current_range_meters":20000,"station_id":"ce4bgn12rcd13ifvqbt0","pricing_plan_id":"cebpf4jnsgd1na2vs0mg"},{"bike_id":"974cd13a-b13b-4815-b046-b51e791dee06","system_id":"levelo_inurba_marseille","lat":43.297163,"lon":5.365866,"is_reserved":false,"is_disabled":false,"rental_uris":{"android":"levelo://app?vid=974cd13a-b13b-4815-b046-b51e791dee06","ios":"levelo://app?vid=974cd13a-b13b-4815-b046-b51e791dee06"},"vehicle_type_id":"4","last_reported":1720026446,"current_range_meters":0,"station_id":"ce4bgn12rcd13ifvqbt0","pricing_plan_id":"cebpf4jnsgd1na2vs0mg"},{"bike_id":"0c845e77-91f9-4f53-b4c0-9cd585c05b3e","system_id":"levelo_inurba_marseille","lat":43.29663,"lon":5.36162,"is_reserved":false,"is_disabled":false,"rental_uris":{"android":"levelo://app?vid=0c845e77-91f9-4f53-b4c0-9cd585c05b3e","ios":"levelo://app?vid=0c845e77-91f9-4f53-b4c0-9cd585c05b3e"},"vehicle_type_id":"4","last_reported":1720026446,"current_range_meters":3200,"station_id":"","pricing_plan_id":"cebpf4jnsgd1na2vs0mg"},{"bike_id":"12e9a218-efc6-40f2-976d-b1e32d2e9e7a","system_id":"levelo_inurba_marseille","lat":43.29626,"lon":5.37165,"is_reserved":false,"is_disabled":false,"rental_uris":{"android":"levelo://app?vid=12e9a218-efc6-40f2-976d-b1e32d2e9e7a","ios":"levelo://app?vid=12e9a218-efc6-40f2-976d-b1e32d2e9e7a"},"vehicle_type_id":"4","last_reported":1720026446,"current_range_meters":0,"station_id":"ce4bgnh2rcd13ifvqc0g","pricing_plan_id":"cebpf4jnsgd1na2vs0mg"},{"bike_id":"0ca6a787-ed71-4c55-87a3-86dfe16f7198","system_id":"levelo_inurba_marseille","lat":43.296129,"lon":5.370777,"is_reserved":false,"is_disabled":false,"rental_uris":{"android":"levelo://app?vid=0ca6a787-ed71-4c55-87a3-86dfe16f7198","ios":"levelo://app?vid=0ca6a787-ed71-4c55-87a3-86dfe16f7198"},"vehicle_type_id":"4","last_reported":1720026446,"current_range_meters":400,"station_id":"ce4bgnh2rcd13ifvqc0g","pricing_plan_id":"cebpf4jnsgd1na2vs0mg"},{"bike_id":"320fe6dd-28a8-4d14-bfc7-50f4b7c50537","system_id":"levelo_inurba_marseille","lat":43.296129,"lon":5.370777,"is_reserved":false,"is_disabled":false,"rental_uris":{"android":"levelo://app?vid=320fe6dd-28a8-4d14-bfc7-50f4b7c50537","ios":"levelo://app?vid=320fe6dd-28a8-4d14-bfc7-50f4b7c50537"},"vehicle_type_id":"4","last_reported":1720026446,"current_range_meters":800,"station_id":"ce4bgnh2rcd13ifvqc0g","pricing_plan_id":"cebpf4jnsgd1na2vs0mg"},{"bike_id":"494b5fec-e814-4f63-a1d3-f8746f4370f0","system_id":"levelo_inurba_marseille","lat":43.2958,"lon":5.36746,"is_reserved":false,"is_disabled":false,"rental_uris":{"android":"levelo://app?vid=494b5fec-e814-4f63-a1d3-f8746f4370f0","ios":"levelo://app?vid=494b5fec-e814-4f63-a1d3-f8746f4370f0"},"vehicle_type_id":"4","last_reported":1720026446,"current_range_meters":800,"station_id":"ce4bgph2rcd13ifvqc2g","pricing_plan_id":"cebpf4jnsgd1na2vs0mg"},{"bike_id":"0dc4c540-67ea-46de-b14e-ddcc98d9d074","system_id":"levelo_inurba_marseille","lat":43.303053,"lon":5.386143,"is_reserved":false,"is_disabled":false,"rental_uris":{"android":"levelo://app?vid=0dc4c540-67ea-46de-b14e-ddcc98d9d074","ios":"levelo://app?vid=0dc4c540-67ea-46de-b14e-ddcc98d9d074"},"vehicle_type_id":"4","last_reported":1720026446,"current_range_meters":0,"station_id":"","pricing_plan_id":"cebpf4jnsgd1na2vs0mg"},{"bike_id":"708d4bf1-efd3-4a30-a5bb-04ee905b0281","system_id":"levelo_inurba_marseille","lat":43.296921,"lon":5.376579,"is_reserved":false,"is_disabled":false,"rental_uris":{"android":"levelo://app?vid=708d4bf1-efd3-4a30-a5bb-04ee905b0281","ios":"levelo://app?vid=708d4bf1-efd3-4a30-a5bb-04ee905b0281"},"vehicle_type_id":"4","last_reported":1720026446,"current_range_meters":30000,"station_id":"ce4bgkh2rcd13ifvqbl0","pricing_plan_id":"cebpf4jnsgd1na2vs0mg"},{"bike_id":"8252fda5-3b3a-4e17-a791-7a50190bcf6a","system_id":"levelo_inurba_marseille","lat":43.296921,"lon":5.376579,"is_reserved":false,"is_disabled":false,"rental_uris":{"android":"levelo://app?vid=8252fda5-3b3a-4e17-a791-7a50190bcf6a","ios":"levelo://app?vid=8252fda5-3b3a-4e17-a791-7a50190bcf6a"},"vehicle_type_id":"4","last_reported":1720026446,"current_range_meters":6000,"station_id":"ce4bgkh2rcd13ifvqbl0","pricing_plan_id":"cebpf4jnsgd1na2vs0mg"},{"bike_id":"68a2ca24-e998-4060-86ed-76be2e58b275","system_id":"levelo_inurba_marseille","lat":43.299028,"lon":5.381509,"is_reserved":false,"is_disabled":false,"rental_uris":{"android":"levelo://app?vid=68a2ca24-e998-4060-86ed-76be2e58b275","ios":"levelo://app?vid=68a2ca24-e998-4060-86ed-76be2e58b275"},"vehicle_type_id":"4","last_reported":1720026446,"current_range_meters":9200,"station_id":"ce4bgj12rcd13ifvqbc0","pricing_plan_id":"cebpf4jnsgd1na2vs0mg"},{"bike_id":"bf70abbd-0bec-4b28-9c4b-c373420ec979","system_id":"levelo_inurba_marseille","lat":43.317557,"lon":5.390173,"is_reserved":false,"is_disabled":false,"rental_uris":{"android":"levelo://app?vid=bf70abbd-0bec-4b28-9c4b-c373420ec979","ios":"levelo://app?vid=bf70abbd-0bec-4b28-9c4b-c373420ec979"},"vehicle_type_id":"4","last_reported":1720026446,"current_range_meters":21600,"station_id":"ce4bhqp2rcd13ifvqhng","pricing_plan_id":"cebpf4jnsgd1na2vs0mg"},{"bike_id":"33ea9b24-7139-418b-bca2-43808fb0cc67","system_id":"levelo_inurba_marseille","lat":43.295748,"lon":5.37522,"is_reserved":false,"is_disabled":false,"rental_uris":{"android":"levelo://app?vid=33ea9b24-7139-418b-bca2-43808fb0cc67","ios":"levelo://app?vid=33ea9b24-7139-418b-bca2-43808fb0cc67"},"vehicle_type_id":"4","last_reported":1720026446,"current_range_meters":0,"station_id":"ce4bgh92rcd13ifvqb50","pricing_plan_id":"cebpf4jnsgd1na2vs0mg"},{"bike_id":"2d35ea1b-81d4-4218-843d-ec11f6c41f04","system_id":"levelo_inurba_marseille","lat":43.298037,"lon":5.381066,"is_reserved":false,"is_disabled":false,"rental_uris":{"android":"levelo://app?vid=2d35ea1b-81d4-4218-843d-ec11f6c41f04","ios":"levelo://app?vid=2d35ea1b-81d4-4218-843d-ec11f6c41f04"},"vehicle_type_id":"4","last_reported":1720026446,"current_range_meters":31200,"station_id":"ce4bgip2rcd13ifvqbb0","pricing_plan_id":"cebpf4jnsgd1na2vs0mg"},{"bike_id":"4e0218f3-e34b-4836-ac10-d52f2c68ffb1","system_id":"levelo_inurba_marseille","lat":43.295748,"lon":5.37522,"is_reserved":false,"is_disabled":false,"rental_uris":{"android":"levelo://app?vid=4e0218f3-e34b-4836-ac10-d52f2c68ffb1","ios":"levelo://app?vid=4e0218f3-e34b-4836-ac10-d52f2c68ffb1"},"vehicle_type_id":"4","last_reported":1720026446,"current_range_meters":0,"station_id":"ce4bgh92rcd13ifvqb50","pricing_plan_id":"cebpf4jnsgd1na2vs0mg"},{"bike_id":"2d5c6b6a-8e23-4490-9c27-8c980bce8350","system_id":"levelo_inurba_marseille","lat":43.29612,"lon":5.37714,"is_reserved":false,"is_disabled":false,"rental_uris":{"android":"levelo://app?vid=2d5c6b6a-8e23-4490-9c27-8c980bce8350","ios":"levelo://app?vid=2d5c6b6a-8e23-4490-9c27-8c980bce8350"},"vehicle_type_id":"4","last_reported":1720026446,"current_range_meters":0,"station_id":"ce4bgi92rcd13ifvqb90","pricing_plan_id":"cebpf4jnsgd1na2vs0mg"},{"bike_id":"c9a55d3d-071e-4e26-b3c9-6a1dd30a08ab","system_id":"levelo_inurba_marseille","lat":43.29573,"lon":5.367355,"is_reserved":false,"is_disabled":false,"rental_uris":{"android":"levelo://app?vid=c9a55d3d-071e-4e26-b3c9-6a1dd30a08ab","ios":"levelo://app?vid=c9a55d3d-071e-4e26-b3c9-6a1dd30a08ab"},"vehicle_type_id":"4","last_reported":1720026446,"current_range_meters":18000,"station_id":"ce4bgph2rcd13ifvqc2g","pricing_plan_id":"cebpf4jnsgd1na2vs0mg"},{"bike_id":"ed380d64-74c0-4cc7-ad0c-51e910100bd0","system_id":"levelo_inurba_marseille","lat":43.296263,"lon":5.377094,"is_reserved":false,"is_disabled":false,"rental_uris":{"android":"levelo://app?vid=ed380d64-74c0-4cc7-ad0c-51e910100bd0","ios":"levelo://app?vid=ed380d64-74c0-4cc7-ad0c-51e910100bd0"},"vehicle_type_id":"4","last_reported":1720026446,"current_range_meters":4000,"station_id":"ce4bgi92rcd13ifvqb90","pricing_plan_id":"cebpf4jnsgd1na2vs0mg"},{"bike_id":"9a668439-14af-4aca-ade7-c39713002954","system_id":"levelo_inurba_marseille","lat":43.299717,"lon":5.384845,"is_reserved":false,"is_disabled":false,"rental_uris":{"android":"levelo://app?vid=9a668439-14af-4aca-ade7-c39713002954","ios":"levelo://app?vid=9a668439-14af-4aca-ade7-c39713002954"},"vehicle_type_id":"4","last_reported":1720026446,"current_range_meters":4800,"station_id":"ce4bgj92rcd13ifvqbd0","pricing_plan_id":"cebpf4jnsgd1na2vs0mg"},{"bike_id":"806bb7db-a0a1-4a8a-8054-113f2d4722a4","system_id":"levelo_inurba_marseille","lat":43.299724,"lon":5.384848,"is_reserved":false,"is_disabled":false,"rental_uris":{"android":"levelo://app?vid=806bb7db-a0a1-4a8a-8054-113f2d4722a4","ios":"levelo://app?vid=806bb7db-a0a1-4a8a-8054-113f2d4722a4"},"vehicle_type_id":"4","last_reported":1720026446,"current_range_meters":26400,"station_id":"ce4bgj92rcd13ifvqbd0","pricing_plan_id":"cebpf4jnsgd1na2vs0mg"},{"bike_id":"5147c580-fce4-4f16-bbd8-d42820f532c9","system_id":"levelo_inurba_marseille","lat":43.301396,"lon":5.387812,"is_reserved":false,"is_disabled":false,"rental_uris":{"android":"levelo://app?vid=5147c580-fce4-4f16-bbd8-d42820f532c9","ios":"levelo://app?vid=5147c580-fce4-4f16-bbd8-d42820f532c9"},"vehicle_type_id":"4","last_reported":1720026446,"current_range_meters":2800,"station_id":"ce4bghh2rcd13ifvqb60","pricing_plan_id":"cebpf4jnsgd1na2vs0mg"},{"bike_id":"0f852103-f586-4cbe-8bdb-b46721cc31f5","system_id":"levelo_inurba_marseille","lat":43.32367,"lon":5.388836,"is_reserved":false,"is_disabled":false,"rental_uris":{"android":"levelo://app?vid=0f852103-f586-4cbe-8bdb-b46721cc31f5","ios":"levelo://app?vid=0f852103-f586-4cbe-8bdb-b46721cc31f5"},"vehicle_type_id":"4","last_reported":1720026446,"current_range_meters":0,"station_id":"ce4bhqp2rcd13ifvqhog","pricing_plan_id":"cebpf4jnsgd1na2vs0mg"},{"bike_id":"99de201b-b402-48ce-bcb3-0ebf54caa002","system_id":"levelo_inurba_marseille","lat":43.29602,"lon":5.381084,"is_reserved":false,"is_disabled":false,"rental_uris":{"android":"levelo://app?vid=99de201b-b402-48ce-bcb3-0ebf54caa002","ios":"levelo://app?vid=99de201b-b402-48ce-bcb3-0ebf54caa002"},"vehicle_type_id":"4","last_reported":1720026446,"current_range_meters":5600,"station_id":"ce4bgl12rcd13ifvqbo0","pricing_plan_id":"cebpf4jnsgd1na2vs0mg"},{"bike_id":"671fc136-a4f2-420b-b405-e7240966a4c4","system_id":"levelo_inurba_marseille","lat":43.29602,"lon":5.381084,"is_reserved":false,"is_disabled":false,"rental_uris":{"android":"levelo://app?vid=671fc136-a4f2-420b-b405-e7240966a4c4","ios":"levelo://app?vid=671fc136-a4f2-420b-b405-e7240966a4c4"},"vehicle_type_id":"4","last_reported":1720026446,"current_range_meters":6400,"station_id":"ce4bgl12rcd13ifvqbo0","pricing_plan_id":"cebpf4jnsgd1na2vs0mg"},{"bike_id":"f693e889-48b5-47fa-8370-841289505668","system_id":"levelo_inurba_marseille","lat":43.29273,"lon":5.36842,"is_reserved":false,"is_disabled":false,"rental_uris":{"android":"levelo://app?vid=f693e889-48b5-47fa-8370-841289505668","ios":"levelo://app?vid=f693e889-48b5-47fa-8370-841289505668"},"vehicle_type_id":"4","last_reported":1720026446,"current_range_meters":19600,"station_id":"ce4bhbp2rcd13ifvqesg","pricing_plan_id":"cebpf4jnsgd1na2vs0mg"},{"bike_id":"a30fbba0-aee9-4672-b203-92dbc930a945","system_id":"levelo_inurba_marseille","lat":43.29352,"lon":5.37556,"is_reserved":false,"is_disabled":false,"rental_uris":{"android":"levelo://app?vid=a30fbba0-aee9-4672-b203-92dbc930a945","ios":"levelo://app?vid=a30fbba0-aee9-4672-b203-92dbc930a945"},"vehicle_type_id":"4","last_reported":1720026446,"current_range_meters":4400,"station_id":"","pricing_plan_id":"cebpf4jnsgd1na2vs0mg"},{"bike_id":"e3a03ae8-fa40-4978-8f29-ac98a0f5ad7e","system_id":"levelo_inurba_marseille","lat":43.29303,"lon":5.37449,"is_reserved":false,"is_disabled":false,"rental_uris":{"android":"levelo://app?vid=e3a03ae8-fa40-4978-8f29-ac98a0f5ad7e","ios":"levelo://app?vid=e3a03ae8-fa40-4978-8f29-ac98a0f5ad7e"},"vehicle_type_id":"4","last_reported":1720026446,"current_range_meters":0,"station_id":"ce4bgi12rcd13ifvqb70","pricing_plan_id":"cebpf4jnsgd1na2vs0mg"},{"bike_id":"93e95b57-69cb-4139-ac0c-eee530173bfb","system_id":"levelo_inurba_marseille","lat":43.305994,"lon":5.393687,"is_reserved":false,"is_disabled":false,"rental_uris":{"android":"levelo://app?vid=93e95b57-69cb-4139-ac0c-eee530173bfb","ios":"levelo://app?vid=93e95b57-69cb-4139-ac0c-eee530173bfb"},"vehicle_type_id":"4","last_reported":1720026446,"current_range_meters":7200,"station_id":"ce4bh0p2rcd13ifvqd80","pricing_plan_id":"cebpf4jnsgd1na2vs0mg"},{"bike_id":"d66261cd-6ff4-4803-b361-ad2c6aff520e","system_id":"levelo_inurba_marseille","lat":43.305994,"lon":5.393687,"is_reserved":false,"is_disabled":false,"rental_uris":{"android":"levelo://app?vid=d66261cd-6ff4-4803-b361-ad2c6aff520e","ios":"levelo://app?vid=d66261cd-6ff4-4803-b361-ad2c6aff520e"},"vehicle_type_id":"4","last_reported":1720026446,"current_range_meters":16000,"station_id":"ce4bh0p2rcd13ifvqd80","pricing_plan_id":"cebpf4jnsgd1na2vs0mg"},{"bike_id":"12f740c8-e45a-41db-ad62-50c9cf17d36d","system_id":"levelo_inurba_marseille","lat":43.302992,"lon":5.392136,"is_reserved":false,"is_disabled":false,"rental_uris":{"android":"levelo://app?vid=12f740c8-e45a-41db-ad62-50c9cf17d36d","ios":"levelo://app?vid=12f740c8-e45a-41db-ad62-50c9cf17d36d"},"vehicle_type_id":"4","last_reported":1720026446,"current_range_meters":6400,"station_id":"ce4bgkh2rcd13ifvqbk0","pricing_plan_id":"cebpf4jnsgd1na2vs0mg"},{"bike_id":"983043b6-2a14-48fa-85ac-41d2083850f4","system_id":"levelo_inurba_marseille","lat":43.292311,"lon":5.360731,"is_reserved":false,"is_disabled":false,"rental_uris":{"android":"levelo://app?vid=983043b6-2a14-48fa-85ac-41d2083850f4","ios":"levelo://app?vid=983043b6-2a14-48fa-85ac-41d2083850f4"},"vehicle_type_id":"4","last_reported":1720026446,"current_range_meters":30800,"station_id":"ce4bhbh2rcd13ifvqeqg","pricing_plan_id":"cebpf4jnsgd1na2vs0mg"},{"bike_id":"225c457a-4ecd-41b2-9f9d-286b61775c2d","system_id":"levelo_inurba_marseille","lat":43.292311,"lon":5.360731,"is_reserved":false,"is_disabled":false,"rental_uris":{"android":"levelo://app?vid=225c457a-4ecd-41b2-9f9d-286b61775c2d","ios":"levelo://app?vid=225c457a-4ecd-41b2-9f9d-286b61775c2d"},"vehicle_type_id":"4","last_reported":1720026446,"current_range_meters":13200,"station_id":"ce4bhbh2rcd13ifvqeqg","pricing_plan_id":"cebpf4jnsgd1na2vs0mg"},{"bike_id":"cae91818-ee71-4b6d-a280-434eaae6aa25","system_id":"levelo_inurba_marseille","lat":43.292323,"lon":5.360628,"is_reserved":false,"is_disabled":false,"rental_uris":{"android":"levelo://app?vid=cae91818-ee71-4b6d-a280-434eaae6aa25","ios":"levelo://app?vid=cae91818-ee71-4b6d-a280-434eaae6aa25"},"vehicle_type_id":"4","last_reported":1720026446,"current_range_meters":14800,"station_id":"ce4bhbh2rcd13ifvqeqg","pricing_plan_id":"cebpf4jnsgd1na2vs0mg"},{"bike_id":"636706f3-9e0a-4be7-aa50-fdb8a32ff241","system_id":"levelo_inurba_marseille","lat":43.292311,"lon":5.360731,"is_reserved":false,"is_disabled":false,"rental_uris":{"android":"levelo://app?vid=636706f3-9e0a-4be7-aa50-fdb8a32ff241","ios":"levelo://app?vid=636706f3-9e0a-4be7-aa50-fdb8a32ff241"},"vehicle_type_id":"4","last_reported":1720026446,"current_range_meters":31200,"station_id":"ce4bhbh2rcd13ifvqeqg","pricing_plan_id":"cebpf4jnsgd1na2vs0mg"},{"bike_id":"115de7b2-9814-4596-9a4c-a01133eff5cf","system_id":"levelo_inurba_marseille","lat":43.292311,"lon":5.360731,"is_reserved":false,"is_disabled":false,"rental_uris":{"android":"levelo://app?vid=115de7b2-9814-4596-9a4c-a01133eff5cf","ios":"levelo://app?vid=115de7b2-9814-4596-9a4c-a01133eff5cf"},"vehicle_type_id":"4","last_reported":1720026446,"current_range_meters":31200,"station_id":"ce4bhbh2rcd13ifvqeqg","pricing_plan_id":"cebpf4jnsgd1na2vs0mg"},{"bike_id":"e3c469f5-8af1-4b92-9d5d-2eab038c16fd","system_id":"levelo_inurba_marseille","lat":43.292311,"lon":5.360731,"is_reserved":false,"is_disabled":false,"rental_uris":{"android":"levelo://app?vid=e3c469f5-8af1-4b92-9d5d-2eab038c16fd","ios":"levelo://app?vid=e3c469f5-8af1-4b92-9d5d-2eab038c16fd"},"vehicle_type_id":"4","last_reported":1720026446,"current_range_meters":31200,"station_id":"ce4bhbh2rcd13ifvqeqg","pricing_plan_id":"cebpf4jnsgd1na2vs0mg"},{"bike_id":"44a4a8c8-f9ba-4280-852c-e46c913a44a4","system_id":"levelo_inurba_marseille","lat":43.292311,"lon":5.360731,"is_reserved":false,"is_disabled":false,"rental_uris":{"android":"levelo://app?vid=44a4a8c8-f9ba-4280-852c-e46c913a44a4","ios":"levelo://app?vid=44a4a8c8-f9ba-4280-852c-e46c913a44a4"},"vehicle_type_id":"4","last_reported":1720026446,"current_range_meters":29200,"station_id":"ce4bhbh2rcd13ifvqeqg","pricing_plan_id":"cebpf4jnsgd1na2vs0mg"},{"bike_id":"6bc3b4c1-4b55-4684-b113-d14382b73ddb","system_id":"levelo_inurba_marseille","lat":43.292311,"lon":5.360731,"is_reserved":false,"is_disabled":false,"rental_uris":{"android":"levelo://app?vid=6bc3b4c1-4b55-4684-b113-d14382b73ddb","ios":"levelo://app?vid=6bc3b4c1-4b55-4684-b113-d14382b73ddb"},"vehicle_type_id":"4","last_reported":1720026446,"current_range_meters":20400,"station_id":"ce4bhbh2rcd13ifvqeqg","pricing_plan_id":"cebpf4jnsgd1na2vs0mg"},{"bike_id":"8991c004-6451-4cce-b4c3-833e00aef694","system_id":"levelo_inurba_marseille","lat":43.292311,"lon":5.360731,"is_reserved":false,"is_disabled":false,"rental_uris":{"android":"levelo://app?vid=8991c004-6451-4cce-b4c3-833e00aef694","ios":"levelo://app?vid=8991c004-6451-4cce-b4c3-833e00aef694"},"vehicle_type_id":"4","last_reported":1720026446,"current_range_meters":0,"station_id":"ce4bhbh2rcd13ifvqeqg","pricing_plan_id":"cebpf4jnsgd1na2vs0mg"},{"bike_id":"7d2b3dec-e7d0-4e1d-a75a-8db146afcbdf","system_id":"levelo_inurba_marseille","lat":43.292311,"lon":5.360731,"is_reserved":false,"is_disabled":false,"rental_uris":{"android":"levelo://app?vid=7d2b3dec-e7d0-4e1d-a75a-8db146afcbdf","ios":"levelo://app?vid=7d2b3dec-e7d0-4e1d-a75a-8db146afcbdf"},"vehicle_type_id":"4","last_reported":1720026446,"current_range_meters":24800,"station_id":"ce4bhbh2rcd13ifvqeqg","pricing_plan_id":"cebpf4jnsgd1na2vs0mg"},{"bike_id":"fec4796b-e10b-4713-811b-f177a0870691","system_id":"levelo_inurba_marseille","lat":43.292311,"lon":5.360731,"is_reserved":false,"is_disabled":false,"rental_uris":{"android":"levelo://app?vid=fec4796b-e10b-4713-811b-f177a0870691","ios":"levelo://app?vid=fec4796b-e10b-4713-811b-f177a0870691"},"vehicle_type_id":"4","last_reported":1720026446,"current_range_meters":14800,"station_id":"ce4bhbh2rcd13ifvqeqg","pricing_plan_id":"cebpf4jnsgd1na2vs0mg"},{"bike_id":"e88c13b7-690a-4c32-9f33-3b5f41e672c9","system_id":"levelo_inurba_marseille","lat":43.292311,"lon":5.360731,"is_reserved":false,"is_disabled":false,"rental_uris":{"android":"levelo://app?vid=e88c13b7-690a-4c32-9f33-3b5f41e672c9","ios":"levelo://app?vid=e88c13b7-690a-4c32-9f33-3b5f41e672c9"},"vehicle_type_id":"4","last_reported":1720026446,"current_range_meters":17200,"station_id":"ce4bhbh2rcd13ifvqeqg","pricing_plan_id":"cebpf4jnsgd1na2vs0mg"},{"bike_id":"0f4a2688-83dc-49fd-aaa7-f2df50c221e0","system_id":"levelo_inurba_marseille","lat":43.292311,"lon":5.360731,"is_reserved":false,"is_disabled":false,"rental_uris":{"android":"levelo://app?vid=0f4a2688-83dc-49fd-aaa7-f2df50c221e0","ios":"levelo://app?vid=0f4a2688-83dc-49fd-aaa7-f2df50c221e0"},"vehicle_type_id":"4","last_reported":1720026446,"current_range_meters":29600,"station_id":"ce4bhbh2rcd13ifvqeqg","pricing_plan_id":"cebpf4jnsgd1na2vs0mg"},{"bike_id":"79019c86-a325-4284-9bb5-f0d0eae3c22e","system_id":"levelo_inurba_marseille","lat":43.292153,"lon":5.360657,"is_reserved":false,"is_disabled":false,"rental_uris":{"android":"levelo://app?vid=79019c86-a325-4284-9bb5-f0d0eae3c22e","ios":"levelo://app?vid=79019c86-a325-4284-9bb5-f0d0eae3c22e"},"vehicle_type_id":"4","last_reported":1720026446,"current_range_meters":29200,"station_id":"ce4bhbh2rcd13ifvqeqg","pricing_plan_id":"cebpf4jnsgd1na2vs0mg"},{"bike_id":"7d57bd1c-fd15-480b-8021-0a7cd49f8a3a","system_id":"levelo_inurba_marseille","lat":43.292311,"lon":5.360731,"is_reserved":false,"is_disabled":false,"rental_uris":{"android":"levelo://app?vid=7d57bd1c-fd15-480b-8021-0a7cd49f8a3a","ios":"levelo://app?vid=7d57bd1c-fd15-480b-8021-0a7cd49f8a3a"},"vehicle_type_id":"4","last_reported":1720026446,"current_range_meters":20000,"station_id":"ce4bhbh2rcd13ifvqeqg","pricing_plan_id":"cebpf4jnsgd1na2vs0mg"},{"bike_id":"09877a9a-5a61-43a2-8989-19a2c6dff76a","system_id":"levelo_inurba_marseille","lat":43.298764,"lon":5.388973,"is_reserved":false,"is_disabled":false,"rental_uris":{"android":"levelo://app?vid=09877a9a-5a61-43a2-8989-19a2c6dff76a","ios":"levelo://app?vid=09877a9a-5a61-43a2-8989-19a2c6dff76a"},"vehicle_type_id":"4","last_reported":1720026446,"current_range_meters":20800,"station_id":"ce4bh392rcd13ifvqdl0","pricing_plan_id":"cebpf4jnsgd1na2vs0mg"},{"bike_id":"1790af6f-1cfe-477c-86d8-ab0cd2bcf079","system_id":"levelo_inurba_marseille","lat":43.298764,"lon":5.388973,"is_reserved":false,"is_disabled":false,"rental_uris":{"android":"levelo://app?vid=1790af6f-1cfe-477c-86d8-ab0cd2bcf079","ios":"levelo://app?vid=1790af6f-1cfe-477c-86d8-ab0cd2bcf079"},"vehicle_type_id":"4","last_reported":1720026446,"current_range_meters":28000,"station_id":"ce4bh392rcd13ifvqdl0","pricing_plan_id":"cebpf4jnsgd1na2vs0mg"},{"bike_id":"42f06634-225a-41f3-ab38-6672241eca1d","system_id":"levelo_inurba_marseille","lat":43.291671,"lon":5.371575,"is_reserved":false,"is_disabled":false,"rental_uris":{"android":"levelo://app?vid=42f06634-225a-41f3-ab38-6672241eca1d","ios":"levelo://app?vid=42f06634-225a-41f3-ab38-6672241eca1d"},"vehicle_type_id":"4","last_reported":1720026446,"current_range_meters":6000,"station_id":"ce4bha92rcd13ifvqeh0","pricing_plan_id":"cebpf4jnsgd1na2vs0mg"},{"bike_id":"96efb9bd-4e56-42af-b63f-791aa80f953b","system_id":"levelo_inurba_marseille","lat":43.298764,"lon":5.388973,"is_reserved":false,"is_disabled":false,"rental_uris":{"android":"levelo://app?vid=96efb9bd-4e56-42af-b63f-791aa80f953b","ios":"levelo://app?vid=96efb9bd-4e56-42af-b63f-791aa80f953b"},"vehicle_type_id":"4","last_reported":1720026446,"current_range_meters":31200,"station_id":"ce4bh392rcd13ifvqdl0","pricing_plan_id":"cebpf4jnsgd1na2vs0mg"},{"bike_id":"596fd8a2-c45d-45e6-b821-ebbc730b18a5","system_id":"levelo_inurba_marseille","lat":43.298764,"lon":5.388973,"is_reserved":false,"is_disabled":false,"rental_uris":{"android":"levelo://app?vid=596fd8a2-c45d-45e6-b821-ebbc730b18a5","ios":"levelo://app?vid=596fd8a2-c45d-45e6-b821-ebbc730b18a5"},"vehicle_type_id":"4","last_reported":1720026446,"current_range_meters":25600,"station_id":"ce4bh392rcd13ifvqdl0","pricing_plan_id":"cebpf4jnsgd1na2vs0mg"},{"bike_id":"b694c30a-0aa8-4763-bc4c-0ff9716e3811","system_id":"levelo_inurba_marseille","lat":43.291994,"lon":5.357886,"is_reserved":false,"is_disabled":false,"rental_uris":{"android":"levelo://app?vid=b694c30a-0aa8-4763-bc4c-0ff9716e3811","ios":"levelo://app?vid=b694c30a-0aa8-4763-bc4c-0ff9716e3811"},"vehicle_type_id":"4","last_reported":1720026446,"current_range_meters":14000,"station_id":"ce4bhb12rcd13ifvqel0","pricing_plan_id":"cebpf4jnsgd1na2vs0mg"},{"bike_id":"ce6c0f7a-19fd-4f6b-9f3b-17f655426f6a","system_id":"levelo_inurba_marseille","lat":43.292005,"lon":5.357875,"is_reserved":false,"is_disabled":false,"rental_uris":{"android":"levelo://app?vid=ce6c0f7a-19fd-4f6b-9f3b-17f655426f6a","ios":"levelo://app?vid=ce6c0f7a-19fd-4f6b-9f3b-17f655426f6a"},"vehicle_type_id":"4","last_reported":1720026446,"current_range_meters":6800,"station_id":"ce4bhb12rcd13ifvqel0","pricing_plan_id":"cebpf4jnsgd1na2vs0mg"},{"bike_id":"0d7406d5-be0a-4764-af4c-5a32d88cbfac","system_id":"levelo_inurba_marseille","lat":43.313291,"lon":5.396838,"is_reserved":false,"is_disabled":false,"rental_uris":{"android":"levelo://app?vid=0d7406d5-be0a-4764-af4c-5a32d88cbfac","ios":"levelo://app?vid=0d7406d5-be0a-4764-af4c-5a32d88cbfac"},"vehicle_type_id":"4","last_reported":1720026446,"current_range_meters":8400,"station_id":"ce4bgvp2rcd13ifvqcu0","pricing_plan_id":"cebpf4jnsgd1na2vs0mg"},{"bike_id":"2b3fca51-7ed3-4d62-8b5d-159aaccf624e","system_id":"levelo_inurba_marseille","lat":43.313291,"lon":5.396838,"is_reserved":false,"is_disabled":false,"rental_uris":{"android":"levelo://app?vid=2b3fca51-7ed3-4d62-8b5d-159aaccf624e","ios":"levelo://app?vid=2b3fca51-7ed3-4d62-8b5d-159aaccf624e"},"vehicle_type_id":"4","last_reported":1720026446,"current_range_meters":7600,"station_id":"ce4bgvp2rcd13ifvqcu0","pricing_plan_id":"cebpf4jnsgd1na2vs0mg"},{"bike_id":"97e956be-c05a-483a-bafb-efc2a6fbaf1c","system_id":"levelo_inurba_marseille","lat":43.291994,"lon":5.357886,"is_reserved":false,"is_disabled":false,"rental_uris":{"android":"levelo://app?vid=97e956be-c05a-483a-bafb-efc2a6fbaf1c","ios":"levelo://app?vid=97e956be-c05a-483a-bafb-efc2a6fbaf1c"},"vehicle_type_id":"4","last_reported":1720026446,"current_range_meters":13600,"station_id":"ce4bhb12rcd13ifvqel0","pricing_plan_id":"cebpf4jnsgd1na2vs0mg"},{"bike_id":"b93759f1-3dee-4876-9634-9dbbcd6b74fd","system_id":"levelo_inurba_marseille","lat":43.313291,"lon":5.396838,"is_reserved":false,"is_disabled":false,"rental_uris":{"android":"levelo://app?vid=b93759f1-3dee-4876-9634-9dbbcd6b74fd","ios":"levelo://app?vid=b93759f1-3dee-4876-9634-9dbbcd6b74fd"},"vehicle_type_id":"4","last_reported":1720026446,"current_range_meters":7200,"station_id":"ce4bgvp2rcd13ifvqcu0","pricing_plan_id":"cebpf4jnsgd1na2vs0mg"},{"bike_id":"6e699c68-52f1-4d7e-8ab9-46ec228fbc05","system_id":"levelo_inurba_marseille","lat":43.313291,"lon":5.396838,"is_reserved":false,"is_disabled":false,"rental_uris":{"android":"levelo://app?vid=6e699c68-52f1-4d7e-8ab9-46ec228fbc05","ios":"levelo://app?vid=6e699c68-52f1-4d7e-8ab9-46ec228fbc05"},"vehicle_type_id":"4","last_reported":1720026446,"current_range_meters":11600,"station_id":"ce4bgvp2rcd13ifvqcu0","pricing_plan_id":"cebpf4jnsgd1na2vs0mg"},{"bike_id":"35cba28c-fdce-45b4-80be-0c775b0dcb52","system_id":"levelo_inurba_marseille","lat":43.313291,"lon":5.396838,"is_reserved":false,"is_disabled":false,"rental_uris":{"android":"levelo://app?vid=35cba28c-fdce-45b4-80be-0c775b0dcb52","ios":"levelo://app?vid=35cba28c-fdce-45b4-80be-0c775b0dcb52"},"vehicle_type_id":"4","last_reported":1720026446,"current_range_meters":4400,"station_id":"ce4bgvp2rcd13ifvqcu0","pricing_plan_id":"cebpf4jnsgd1na2vs0mg"},{"bike_id":"0b2f3e31-22c2-4c28-9e81-7cb1d85f1598","system_id":"levelo_inurba_marseille","lat":43.29529,"lon":5.385581,"is_reserved":false,"is_disabled":false,"rental_uris":{"android":"levelo://app?vid=0b2f3e31-22c2-4c28-9e81-7cb1d85f1598","ios":"levelo://app?vid=0b2f3e31-22c2-4c28-9e81-7cb1d85f1598"},"vehicle_type_id":"4","last_reported":1720026446,"current_range_meters":13200,"station_id":"ce4bgih2rcd13ifvqba0","pricing_plan_id":"cebpf4jnsgd1na2vs0mg"},{"bike_id":"0cbe67c7-563c-4bed-b258-ecdf6bab1012","system_id":"levelo_inurba_marseille","lat":43.29539,"lon":5.38553,"is_reserved":false,"is_disabled":false,"rental_uris":{"android":"levelo://app?vid=0cbe67c7-563c-4bed-b258-ecdf6bab1012","ios":"levelo://app?vid=0cbe67c7-563c-4bed-b258-ecdf6bab1012"},"vehicle_type_id":"4","last_reported":1720026446,"current_range_meters":31200,"station_id":"ce4bgih2rcd13ifvqba0","pricing_plan_id":"cebpf4jnsgd1na2vs0mg"},{"bike_id":"12927903-c3bf-45fc-99cc-cd9fdf88b6c6","system_id":"levelo_inurba_marseille","lat":43.295287,"lon":5.385383,"is_reserved":false,"is_disabled":false,"rental_uris":{"android":"levelo://app?vid=12927903-c3bf-45fc-99cc-cd9fdf88b6c6","ios":"levelo://app?vid=12927903-c3bf-45fc-99cc-cd9fdf88b6c6"},"vehicle_type_id":"4","last_reported":1720026446,"current_range_meters":5200,"station_id":"ce4bgih2rcd13ifvqba0","pricing_plan_id":"cebpf4jnsgd1na2vs0mg"},{"bike_id":"ceb7f814-185c-4704-93bf-d2a510aef33d","system_id":"levelo_inurba_marseille","lat":43.29536,"lon":5.38552,"is_reserved":false,"is_disabled":false,"rental_uris":{"android":"levelo://app?vid=ceb7f814-185c-4704-93bf-d2a510aef33d","ios":"levelo://app?vid=ceb7f814-185c-4704-93bf-d2a510aef33d"},"vehicle_type_id":"4","last_reported":1720026446,"current_range_meters":17600,"station_id":"ce4bgih2rcd13ifvqba0","pricing_plan_id":"cebpf4jnsgd1na2vs0mg"},{"bike_id":"65b0e814-26a7-4e35-a23e-a2d3aaeff09f","system_id":"levelo_inurba_marseille","lat":43.2953,"lon":5.38544,"is_reserved":false,"is_disabled":false,"rental_uris":{"android":"levelo://app?vid=65b0e814-26a7-4e35-a23e-a2d3aaeff09f","ios":"levelo://app?vid=65b0e814-26a7-4e35-a23e-a2d3aaeff09f"},"vehicle_type_id":"4","last_reported":1720026446,"current_range_meters":31200,"station_id":"ce4bgih2rcd13ifvqba0","pricing_plan_id":"cebpf4jnsgd1na2vs0mg"},{"bike_id":"77412713-258d-48c4-8612-8fef09139faf","system_id":"levelo_inurba_marseille","lat":43.290779,"lon":5.371482,"is_reserved":false,"is_disabled":false,"rental_uris":{"android":"levelo://app?vid=77412713-258d-48c4-8612-8fef09139faf","ios":"levelo://app?vid=77412713-258d-48c4-8612-8fef09139faf"},"vehicle_type_id":"4","last_reported":1720026446,"current_range_meters":28800,"station_id":"ce4bh5p2rcd13ifvqe4g","pricing_plan_id":"cebpf4jnsgd1na2vs0mg"},{"bike_id":"9ae305da-70ce-4493-93f4-259a3c7b3e6e","system_id":"levelo_inurba_marseille","lat":43.29059,"lon":5.37162,"is_reserved":false,"is_disabled":false,"rental_uris":{"android":"levelo://app?vid=9ae305da-70ce-4493-93f4-259a3c7b3e6e","ios":"levelo://app?vid=9ae305da-70ce-4493-93f4-259a3c7b3e6e"},"vehicle_type_id":"4","last_reported":1720026446,"current_range_meters":0,"station_id":"ce4bh5p2rcd13ifvqe4g","pricing_plan_id":"cebpf4jnsgd1na2vs0mg"},{"bike_id":"834b2b1e-7fb9-43f7-ae7f-f1871d5e7f21","system_id":"levelo_inurba_marseille","lat":43.302008,"lon":5.394694,"is_reserved":false,"is_disabled":false,"rental_uris":{"android":"levelo://app?vid=834b2b1e-7fb9-43f7-ae7f-f1871d5e7f21","ios":"levelo://app?vid=834b2b1e-7fb9-43f7-ae7f-f1871d5e7f21"},"vehicle_type_id":"4","last_reported":1720026446,"current_range_meters":14800,"station_id":"ce4bh0p2rcd13ifvqd70","pricing_plan_id":"cebpf4jnsgd1na2vs0mg"},{"bike_id":"db1ab488-80ea-46e2-a5d7-8509ef0802e9","system_id":"levelo_inurba_marseille","lat":43.30212,"lon":5.39459,"is_reserved":false,"is_disabled":false,"rental_uris":{"android":"levelo://app?vid=db1ab488-80ea-46e2-a5d7-8509ef0802e9","ios":"levelo://app?vid=db1ab488-80ea-46e2-a5d7-8509ef0802e9"},"vehicle_type_id":"4","last_reported":1720026446,"current_range_meters":0,"station_id":"ce4bh0p2rcd13ifvqd70","pricing_plan_id":"cebpf4jnsgd1na2vs0mg"},{"bike_id":"d23dc2e6-164e-47fa-8005-0547638ddd83","system_id":"levelo_inurba_marseille","lat":43.302008,"lon":5.394694,"is_reserved":false,"is_disabled":false,"rental_uris":{"android":"levelo://app?vid=d23dc2e6-164e-47fa-8005-0547638ddd83","ios":"levelo://app?vid=d23dc2e6-164e-47fa-8005-0547638ddd83"},"vehicle_type_id":"4","last_reported":1720026446,"current_range_meters":4000,"station_id":"ce4bh0p2rcd13ifvqd70","pricing_plan_id":"cebpf4jnsgd1na2vs0mg"},{"bike_id":"83ed8b1a-90bc-46f4-b4a7-3978beb997e5","system_id":"levelo_inurba_marseille","lat":43.290631,"lon":5.359244,"is_reserved":false,"is_disabled":false,"rental_uris":{"android":"levelo://app?vid=83ed8b1a-90bc-46f4-b4a7-3978beb997e5","ios":"levelo://app?vid=83ed8b1a-90bc-46f4-b4a7-3978beb997e5"},"vehicle_type_id":"4","last_reported":1720026446,"current_range_meters":2400,"station_id":"ce4bha92rcd13ifvqeg0","pricing_plan_id":"cebpf4jnsgd1na2vs0mg"},{"bike_id":"deb975ad-bdc3-425c-91b8-0f3e9daef0e3","system_id":"levelo_inurba_marseille","lat":43.29038,"lon":5.35916,"is_reserved":false,"is_disabled":false,"rental_uris":{"android":"levelo://app?vid=deb975ad-bdc3-425c-91b8-0f3e9daef0e3","ios":"levelo://app?vid=deb975ad-bdc3-425c-91b8-0f3e9daef0e3"},"vehicle_type_id":"4","last_reported":1720026446,"current_range_meters":0,"station_id":"ce4bha92rcd13ifvqeg0","pricing_plan_id":"cebpf4jnsgd1na2vs0mg"},{"bike_id":"aab26ade-c6c9-4142-ba45-aab5fc9390aa","system_id":"levelo_inurba_marseille","lat":43.294153,"lon":5.386305,"is_reserved":false,"is_disabled":false,"rental_uris":{"android":"levelo://app?vid=aab26ade-c6c9-4142-ba45-aab5fc9390aa","ios":"levelo://app?vid=aab26ade-c6c9-4142-ba45-aab5fc9390aa"},"vehicle_type_id":"4","last_reported":1720026446,"current_range_meters":2000,"station_id":"ce4bh2h2rcd13ifvqdh0","pricing_plan_id":"cebpf4jnsgd1na2vs0mg"},{"bike_id":"d04ab818-3f6c-42d2-8597-0034a9cde45b","system_id":"levelo_inurba_marseille","lat":43.294162,"lon":5.386292,"is_reserved":false,"is_disabled":false,"rental_uris":{"android":"levelo://app?vid=d04ab818-3f6c-42d2-8597-0034a9cde45b","ios":"levelo://app?vid=d04ab818-3f6c-42d2-8597-0034a9cde45b"},"vehicle_type_id":"4","last_reported":1720026446,"current_range_meters":20000,"station_id":"ce4bh2h2rcd13ifvqdh0","pricing_plan_id":"cebpf4jnsgd1na2vs0mg"},{"bike_id":"79f8f86f-5c78-43a1-9350-ad42c15f3f62","system_id":"levelo_inurba_marseille","lat":43.294153,"lon":5.386305,"is_reserved":false,"is_disabled":false,"rental_uris":{"android":"levelo://app?vid=79f8f86f-5c78-43a1-9350-ad42c15f3f62","ios":"levelo://app?vid=79f8f86f-5c78-43a1-9350-ad42c15f3f62"},"vehicle_type_id":"4","last_reported":1720026446,"current_range_meters":12000,"station_id":"ce4bh2h2rcd13ifvqdh0","pricing_plan_id":"cebpf4jnsgd1na2vs0mg"},{"bike_id":"e19bbc7a-5712-4200-9f76-e292cb920723","system_id":"levelo_inurba_marseille","lat":43.294162,"lon":5.386292,"is_reserved":false,"is_disabled":false,"rental_uris":{"android":"levelo://app?vid=e19bbc7a-5712-4200-9f76-e292cb920723","ios":"levelo://app?vid=e19bbc7a-5712-4200-9f76-e292cb920723"},"vehicle_type_id":"4","last_reported":1720026446,"current_range_meters":4400,"station_id":"ce4bh2h2rcd13ifvqdh0","pricing_plan_id":"cebpf4jnsgd1na2vs0mg"},{"bike_id":"31586c70-1ad4-48a2-b09a-3ad07bbca92f","system_id":"levelo_inurba_marseille","lat":43.294162,"lon":5.386292,"is_reserved":false,"is_disabled":false,"rental_uris":{"android":"levelo://app?vid=31586c70-1ad4-48a2-b09a-3ad07bbca92f","ios":"levelo://app?vid=31586c70-1ad4-48a2-b09a-3ad07bbca92f"},"vehicle_type_id":"4","last_reported":1720026446,"current_range_meters":20400,"station_id":"ce4bh2h2rcd13ifvqdh0","pricing_plan_id":"cebpf4jnsgd1na2vs0mg"},{"bike_id":"e645259a-d8ff-4d23-8465-cd44688a37fe","system_id":"levelo_inurba_marseille","lat":43.294153,"lon":5.386305,"is_reserved":false,"is_disabled":false,"rental_uris":{"android":"levelo://app?vid=e645259a-d8ff-4d23-8465-cd44688a37fe","ios":"levelo://app?vid=e645259a-d8ff-4d23-8465-cd44688a37fe"},"vehicle_type_id":"4","last_reported":1720026446,"current_range_meters":0,"station_id":"ce4bh2h2rcd13ifvqdh0","pricing_plan_id":"cebpf4jnsgd1na2vs0mg"},{"bike_id":"084dc49f-e3a8-4f44-a5c5-ab97d1e003e1","system_id":"levelo_inurba_marseille","lat":43.294153,"lon":5.386305,"is_reserved":false,"is_disabled":false,"rental_uris":{"android":"levelo://app?vid=084dc49f-e3a8-4f44-a5c5-ab97d1e003e1","ios":"levelo://app?vid=084dc49f-e3a8-4f44-a5c5-ab97d1e003e1"},"vehicle_type_id":"4","last_reported":1720026446,"current_range_meters":2400,"station_id":"ce4bh2h2rcd13ifvqdh0","pricing_plan_id":"cebpf4jnsgd1na2vs0mg"},{"bike_id":"ec0b7753-65e2-486b-b4b6-0b1647edb55e","system_id":"levelo_inurba_marseille","lat":43.29417,"lon":5.38624,"is_reserved":false,"is_disabled":false,"rental_uris":{"android":"levelo://app?vid=ec0b7753-65e2-486b-b4b6-0b1647edb55e","ios":"levelo://app?vid=ec0b7753-65e2-486b-b4b6-0b1647edb55e"},"vehicle_type_id":"4","last_reported":1720026446,"current_range_meters":0,"station_id":"ce4bh2h2rcd13ifvqdh0","pricing_plan_id":"cebpf4jnsgd1na2vs0mg"},{"bike_id":"48d82fd5-3fa6-47e1-b98a-5efb3b89ec55","system_id":"levelo_inurba_marseille","lat":43.29416,"lon":5.38624,"is_reserved":false,"is_disabled":false,"rental_uris":{"android":"levelo://app?vid=48d82fd5-3fa6-47e1-b98a-5efb3b89ec55","ios":"levelo://app?vid=48d82fd5-3fa6-47e1-b98a-5efb3b89ec55"},"vehicle_type_id":"4","last_reported":1720026446,"current_range_meters":0,"station_id":"ce4bh2h2rcd13ifvqdh0","pricing_plan_id":"cebpf4jnsgd1na2vs0mg"},{"bike_id":"b6bdaacc-4b4d-4375-b3db-179ce6f155e4","system_id":"levelo_inurba_marseille","lat":43.294162,"lon":5.386292,"is_reserved":false,"is_disabled":false,"rental_uris":{"android":"levelo://app?vid=b6bdaacc-4b4d-4375-b3db-179ce6f155e4","ios":"levelo://app?vid=b6bdaacc-4b4d-4375-b3db-179ce6f155e4"},"vehicle_type_id":"4","last_reported":1720026446,"current_range_meters":15600,"station_id":"ce4bh2h2rcd13ifvqdh0","pricing_plan_id":"cebpf4jnsgd1na2vs0mg"},{"bike_id":"82cf3299-bc40-47de-aa3c-8749ca8f792b","system_id":"levelo_inurba_marseille","lat":43.289468,"lon":5.363719,"is_reserved":false,"is_disabled":false,"rental_uris":{"android":"levelo://app?vid=82cf3299-bc40-47de-aa3c-8749ca8f792b","ios":"levelo://app?vid=82cf3299-bc40-47de-aa3c-8749ca8f792b"},"vehicle_type_id":"4","last_reported":1720026446,"current_range_meters":0,"station_id":"ce4bhc92rcd13ifvqetg","pricing_plan_id":"cebpf4jnsgd1na2vs0mg"},{"bike_id":"487eb66c-170e-40cf-9b04-f875a0ab5554","system_id":"levelo_inurba_marseille","lat":43.289184,"lon":5.366408,"is_reserved":false,"is_disabled":false,"rental_uris":{"android":"levelo://app?vid=487eb66c-170e-40cf-9b04-f875a0ab5554","ios":"levelo://app?vid=487eb66c-170e-40cf-9b04-f875a0ab5554"},"vehicle_type_id":"4","last_reported":1720026446,"current_range_meters":3600,"station_id":"ce4bhap2rcd13ifvqek0","pricing_plan_id":"cebpf4jnsgd1na2vs0mg"},{"bike_id":"0b383cb2-7783-44af-a4be-650b6aeb27e6","system_id":"levelo_inurba_marseille","lat":43.28939,"lon":5.36634,"is_reserved":false,"is_disabled":false,"rental_uris":{"android":"levelo://app?vid=0b383cb2-7783-44af-a4be-650b6aeb27e6","ios":"levelo://app?vid=0b383cb2-7783-44af-a4be-650b6aeb27e6"},"vehicle_type_id":"4","last_reported":1720026446,"current_range_meters":31200,"station_id":"ce4bhap2rcd13ifvqek0","pricing_plan_id":"cebpf4jnsgd1na2vs0mg"},{"bike_id":"c9007ae4-298f-4ccc-a27d-cb6f32204253","system_id":"levelo_inurba_marseille","lat":43.289184,"lon":5.366408,"is_reserved":false,"is_disabled":false,"rental_uris":{"android":"levelo://app?vid=c9007ae4-298f-4ccc-a27d-cb6f32204253","ios":"levelo://app?vid=c9007ae4-298f-4ccc-a27d-cb6f32204253"},"vehicle_type_id":"4","last_reported":1720026446,"current_range_meters":8000,"station_id":"ce4bhap2rcd13ifvqek0","pricing_plan_id":"cebpf4jnsgd1na2vs0mg"},{"bike_id":"6b0e5590-9a84-4f31-82d2-ef6e35dd3b94","system_id":"levelo_inurba_marseille","lat":43.289468,"lon":5.363719,"is_reserved":false,"is_disabled":false,"rental_uris":{"android":"levelo://app?vid=6b0e5590-9a84-4f31-82d2-ef6e35dd3b94","ios":"levelo://app?vid=6b0e5590-9a84-4f31-82d2-ef6e35dd3b94"},"vehicle_type_id":"4","last_reported":1720026446,"current_range_meters":400,"station_id":"ce4bhc92rcd13ifvqetg","pricing_plan_id":"cebpf4jnsgd1na2vs0mg"},{"bike_id":"1ed9f4ad-bfbb-43bf-bd73-7f84957879c7","system_id":"levelo_inurba_marseille","lat":43.289468,"lon":5.363719,"is_reserved":false,"is_disabled":false,"rental_uris":{"android":"levelo://app?vid=1ed9f4ad-bfbb-43bf-bd73-7f84957879c7","ios":"levelo://app?vid=1ed9f4ad-bfbb-43bf-bd73-7f84957879c7"},"vehicle_type_id":"4","last_reported":1720026446,"current_range_meters":2000,"station_id":"ce4bhc92rcd13ifvqetg","pricing_plan_id":"cebpf4jnsgd1na2vs0mg"},{"bike_id":"1fefaf91-2790-415f-ab98-ac19c602059b","system_id":"levelo_inurba_marseille","lat":43.289468,"lon":5.363719,"is_reserved":false,"is_disabled":false,"rental_uris":{"android":"levelo://app?vid=1fefaf91-2790-415f-ab98-ac19c602059b","ios":"levelo://app?vid=1fefaf91-2790-415f-ab98-ac19c602059b"},"vehicle_type_id":"4","last_reported":1720026446,"current_range_meters":10800,"station_id":"ce4bhc92rcd13ifvqetg","pricing_plan_id":"cebpf4jnsgd1na2vs0mg"},{"bike_id":"4ac97728-69bb-4e03-9187-96e8c6cec23f","system_id":"levelo_inurba_marseille","lat":43.289468,"lon":5.363719,"is_reserved":false,"is_disabled":false,"rental_uris":{"android":"levelo://app?vid=4ac97728-69bb-4e03-9187-96e8c6cec23f","ios":"levelo://app?vid=4ac97728-69bb-4e03-9187-96e8c6cec23f"},"vehicle_type_id":"4","last_reported":1720026446,"current_range_meters":9600,"station_id":"ce4bhc92rcd13ifvqetg","pricing_plan_id":"cebpf4jnsgd1na2vs0mg"},{"bike_id":"e7b51383-2d46-4997-a76f-9a76826994d7","system_id":"levelo_inurba_marseille","lat":43.289468,"lon":5.363719,"is_reserved":false,"is_disabled":false,"rental_uris":{"android":"levelo://app?vid=e7b51383-2d46-4997-a76f-9a76826994d7","ios":"levelo://app?vid=e7b51383-2d46-4997-a76f-9a76826994d7"},"vehicle_type_id":"4","last_reported":1720026446,"current_range_meters":20800,"station_id":"ce4bhc92rcd13ifvqetg","pricing_plan_id":"cebpf4jnsgd1na2vs0mg"},{"bike_id":"2782fdee-caa2-4064-b29e-4bf2b69a70ee","system_id":"levelo_inurba_marseille","lat":43.292644,"lon":5.384257,"is_reserved":false,"is_disabled":false,"rental_uris":{"android":"levelo://app?vid=2782fdee-caa2-4064-b29e-4bf2b69a70ee","ios":"levelo://app?vid=2782fdee-caa2-4064-b29e-4bf2b69a70ee"},"vehicle_type_id":"4","last_reported":1720026446,"current_range_meters":0,"station_id":"ce4bh692rcd13ifvqea0","pricing_plan_id":"cebpf4jnsgd1na2vs0mg"},{"bike_id":"7e49a0fe-78d9-4bf9-9aaf-1010bb12c55f","system_id":"levelo_inurba_marseille","lat":43.292644,"lon":5.384257,"is_reserved":false,"is_disabled":false,"rental_uris":{"android":"levelo://app?vid=7e49a0fe-78d9-4bf9-9aaf-1010bb12c55f","ios":"levelo://app?vid=7e49a0fe-78d9-4bf9-9aaf-1010bb12c55f"},"vehicle_type_id":"4","last_reported":1720026446,"current_range_meters":7600,"station_id":"ce4bh692rcd13ifvqea0","pricing_plan_id":"cebpf4jnsgd1na2vs0mg"},{"bike_id":"faa52e90-abce-4841-aa55-f44e825c8386","system_id":"levelo_inurba_marseille","lat":43.292642,"lon":5.384254,"is_reserved":false,"is_disabled":false,"rental_uris":{"android":"levelo://app?vid=faa52e90-abce-4841-aa55-f44e825c8386","ios":"levelo://app?vid=faa52e90-abce-4841-aa55-f44e825c8386"},"vehicle_type_id":"4","last_reported":1720026446,"current_range_meters":0,"station_id":"ce4bh692rcd13ifvqea0","pricing_plan_id":"cebpf4jnsgd1na2vs0mg"},{"bike_id":"14fb1125-4a15-41c9-b0c8-e388a5ea2156","system_id":"levelo_inurba_marseille","lat":43.29264,"lon":5.38446,"is_reserved":false,"is_disabled":false,"rental_uris":{"android":"levelo://app?vid=14fb1125-4a15-41c9-b0c8-e388a5ea2156","ios":"levelo://app?vid=14fb1125-4a15-41c9-b0c8-e388a5ea2156"},"vehicle_type_id":"4","last_reported":1720026446,"current_range_meters":20800,"station_id":"ce4bh692rcd13ifvqea0","pricing_plan_id":"cebpf4jnsgd1na2vs0mg"},{"bike_id":"2240a055-03b2-4e2b-a130-f3ab6b3635a4","system_id":"levelo_inurba_marseille","lat":43.29258,"lon":5.38447,"is_reserved":false,"is_disabled":false,"rental_uris":{"android":"levelo://app?vid=2240a055-03b2-4e2b-a130-f3ab6b3635a4","ios":"levelo://app?vid=2240a055-03b2-4e2b-a130-f3ab6b3635a4"},"vehicle_type_id":"4","last_reported":1720026446,"current_range_meters":20000,"station_id":"ce4bh692rcd13ifvqea0","pricing_plan_id":"cebpf4jnsgd1na2vs0mg"},{"bike_id":"9a54b8fa-2075-4236-aaed-0b0f04308d39","system_id":"levelo_inurba_marseille","lat":43.290104,"lon":5.356111,"is_reserved":false,"is_disabled":false,"rental_uris":{"android":"levelo://app?vid=9a54b8fa-2075-4236-aaed-0b0f04308d39","ios":"levelo://app?vid=9a54b8fa-2075-4236-aaed-0b0f04308d39"},"vehicle_type_id":"4","last_reported":1720026446,"current_range_meters":5600,"station_id":"ce4bhb92rcd13ifvqen0","pricing_plan_id":"cebpf4jnsgd1na2vs0mg"},{"bike_id":"f6ade42e-6c9d-40fd-958c-cb5f27d65a89","system_id":"levelo_inurba_marseille","lat":43.290103,"lon":5.356114,"is_reserved":false,"is_disabled":false,"rental_uris":{"android":"levelo://app?vid=f6ade42e-6c9d-40fd-958c-cb5f27d65a89","ios":"levelo://app?vid=f6ade42e-6c9d-40fd-958c-cb5f27d65a89"},"vehicle_type_id":"4","last_reported":1720026446,"current_range_meters":3200,"station_id":"ce4bhb92rcd13ifvqen0","pricing_plan_id":"cebpf4jnsgd1na2vs0mg"},{"bike_id":"c107ef1f-277f-42e1-bf28-7c3d345c3116","system_id":"levelo_inurba_marseille","lat":43.29005,"lon":5.35623,"is_reserved":false,"is_disabled":false,"rental_uris":{"android":"levelo://app?vid=c107ef1f-277f-42e1-bf28-7c3d345c3116","ios":"levelo://app?vid=c107ef1f-277f-42e1-bf28-7c3d345c3116"},"vehicle_type_id":"4","last_reported":1720026446,"current_range_meters":30000,"station_id":"ce4bhb92rcd13ifvqen0","pricing_plan_id":"cebpf4jnsgd1na2vs0mg"},{"bike_id":"8f1701cd-0811-415a-914d-4dba44e25b07","system_id":"levelo_inurba_marseille","lat":43.290103,"lon":5.356114,"is_reserved":false,"is_disabled":false,"rental_uris":{"android":"levelo://app?vid=8f1701cd-0811-415a-914d-4dba44e25b07","ios":"levelo://app?vid=8f1701cd-0811-415a-914d-4dba44e25b07"},"vehicle_type_id":"4","last_reported":1720026446,"current_range_meters":800,"station_id":"ce4bhb92rcd13ifvqen0","pricing_plan_id":"cebpf4jnsgd1na2vs0mg"},{"bike_id":"ea9d3a7e-b149-4c9d-8b95-024dc74fc65f","system_id":"levelo_inurba_marseille","lat":43.290104,"lon":5.356111,"is_reserved":false,"is_disabled":false,"rental_uris":{"android":"levelo://app?vid=ea9d3a7e-b149-4c9d-8b95-024dc74fc65f","ios":"levelo://app?vid=ea9d3a7e-b149-4c9d-8b95-024dc74fc65f"},"vehicle_type_id":"4","last_reported":1720026446,"current_range_meters":0,"station_id":"ce4bhb92rcd13ifvqen0","pricing_plan_id":"cebpf4jnsgd1na2vs0mg"},{"bike_id":"30548edc-f3d5-4d19-8fd4-e8425a5e6a55","system_id":"levelo_inurba_marseille","lat":43.28999,"lon":5.35623,"is_reserved":false,"is_disabled":false,"rental_uris":{"android":"levelo://app?vid=30548edc-f3d5-4d19-8fd4-e8425a5e6a55","ios":"levelo://app?vid=30548edc-f3d5-4d19-8fd4-e8425a5e6a55"},"vehicle_type_id":"4","last_reported":1720026446,"current_range_meters":31200,"station_id":"ce4bhb92rcd13ifvqen0","pricing_plan_id":"cebpf4jnsgd1na2vs0mg"},{"bike_id":"e93dd4ab-0d57-4f88-91ef-265aae289699","system_id":"levelo_inurba_marseille","lat":43.290104,"lon":5.356111,"is_reserved":false,"is_disabled":false,"rental_uris":{"android":"levelo://app?vid=e93dd4ab-0d57-4f88-91ef-265aae289699","ios":"levelo://app?vid=e93dd4ab-0d57-4f88-91ef-265aae289699"},"vehicle_type_id":"4","last_reported":1720026446,"current_range_meters":400,"station_id":"ce4bhb92rcd13ifvqen0","pricing_plan_id":"cebpf4jnsgd1na2vs0mg"},{"bike_id":"ad8596b0-5953-41de-a1d0-a1625d794587","system_id":"levelo_inurba_marseille","lat":43.294162,"lon":5.386292,"is_reserved":false,"is_disabled":false,"rental_uris":{"android":"levelo://app?vid=ad8596b0-5953-41de-a1d0-a1625d794587","ios":"levelo://app?vid=ad8596b0-5953-41de-a1d0-a1625d794587"},"vehicle_type_id":"4","last_reported":1720026446,"current_range_meters":14400,"station_id":"ce4bh2h2rcd13ifvqdh0","pricing_plan_id":"cebpf4jnsgd1na2vs0mg"},{"bike_id":"dda3b13d-f7e7-4f58-90e7-35c0431747f8","system_id":"levelo_inurba_marseille","lat":43.295169,"lon":5.390426,"is_reserved":false,"is_disabled":false,"rental_uris":{"android":"levelo://app?vid=dda3b13d-f7e7-4f58-90e7-35c0431747f8","ios":"levelo://app?vid=dda3b13d-f7e7-4f58-90e7-35c0431747f8"},"vehicle_type_id":"4","last_reported":1720026446,"current_range_meters":6000,"station_id":"ce4bh3p2rcd13ifvqdp0","pricing_plan_id":"cebpf4jnsgd1na2vs0mg"},{"bike_id":"3beba966-8189-4378-b0b4-0a56b04b0aa7","system_id":"levelo_inurba_marseille","lat":43.29099,"lon":5.38144,"is_reserved":false,"is_disabled":false,"rental_uris":{"android":"levelo://app?vid=3beba966-8189-4378-b0b4-0a56b04b0aa7","ios":"levelo://app?vid=3beba966-8189-4378-b0b4-0a56b04b0aa7"},"vehicle_type_id":"4","last_reported":1720026446,"current_range_meters":0,"station_id":"ce4bh512rcd13ifvqe2g","pricing_plan_id":"cebpf4jnsgd1na2vs0mg"},{"bike_id":"e5f8f592-f9dd-4c8f-8c68-5a81094833f0","system_id":"levelo_inurba_marseille","lat":43.28987,"lon":5.37834,"is_reserved":false,"is_disabled":false,"rental_uris":{"android":"levelo://app?vid=e5f8f592-f9dd-4c8f-8c68-5a81094833f0","ios":"levelo://app?vid=e5f8f592-f9dd-4c8f-8c68-5a81094833f0"},"vehicle_type_id":"4","last_reported":1720026446,"current_range_meters":2400,"station_id":"ce4bh9p2rcd13ifvqed0","pricing_plan_id":"cebpf4jnsgd1na2vs0mg"},{"bike_id":"f1dd2960-657b-4770-9088-1469f871d889","system_id":"levelo_inurba_marseille","lat":43.33021,"lon":5.39024,"is_reserved":false,"is_disabled":false,"rental_uris":{"android":"levelo://app?vid=f1dd2960-657b-4770-9088-1469f871d889","ios":"levelo://app?vid=f1dd2960-657b-4770-9088-1469f871d889"},"vehicle_type_id":"4","last_reported":1720026446,"current_range_meters":12000,"station_id":"ce4bhr92rcd13ifvqhrg","pricing_plan_id":"cebpf4jnsgd1na2vs0mg"},{"bike_id":"b2cda643-9bcc-4a73-8c07-dab261718d68","system_id":"levelo_inurba_marseille","lat":43.33023,"lon":5.3904,"is_reserved":false,"is_disabled":false,"rental_uris":{"android":"levelo://app?vid=b2cda643-9bcc-4a73-8c07-dab261718d68","ios":"levelo://app?vid=b2cda643-9bcc-4a73-8c07-dab261718d68"},"vehicle_type_id":"4","last_reported":1720026446,"current_range_meters":31200,"station_id":"ce4bhr92rcd13ifvqhrg","pricing_plan_id":"cebpf4jnsgd1na2vs0mg"},{"bike_id":"59309b3f-a690-45f7-abb0-3bb5676431f3","system_id":"levelo_inurba_marseille","lat":43.33022,"lon":5.39042,"is_reserved":false,"is_disabled":false,"rental_uris":{"android":"levelo://app?vid=59309b3f-a690-45f7-abb0-3bb5676431f3","ios":"levelo://app?vid=59309b3f-a690-45f7-abb0-3bb5676431f3"},"vehicle_type_id":"4","last_reported":1720026446,"current_range_meters":14400,"station_id":"ce4bhr92rcd13ifvqhrg","pricing_plan_id":"cebpf4jnsgd1na2vs0mg"},{"bike_id":"6741c287-18c8-4315-aa6b-37c9c2be0573","system_id":"levelo_inurba_marseille","lat":43.330442,"lon":5.389148,"is_reserved":false,"is_disabled":false,"rental_uris":{"android":"levelo://app?vid=6741c287-18c8-4315-aa6b-37c9c2be0573","ios":"levelo://app?vid=6741c287-18c8-4315-aa6b-37c9c2be0573"},"vehicle_type_id":"4","last_reported":1720026446,"current_range_meters":28000,"station_id":"ce4bhr92rcd13ifvqhrg","pricing_plan_id":"cebpf4jnsgd1na2vs0mg"},{"bike_id":"2ce02b3f-4583-491c-9713-4e09a8c1cfdb","system_id":"levelo_inurba_marseille","lat":43.28976,"lon":5.3784,"is_reserved":false,"is_disabled":false,"rental_uris":{"android":"levelo://app?vid=2ce02b3f-4583-491c-9713-4e09a8c1cfdb","ios":"levelo://app?vid=2ce02b3f-4583-491c-9713-4e09a8c1cfdb"},"vehicle_type_id":"4","last_reported":1720026446,"current_range_meters":14400,"station_id":"ce4bh9p2rcd13ifvqed0","pricing_plan_id":"cebpf4jnsgd1na2vs0mg"},{"bike_id":"108198c9-85f4-4f0c-88d9-dcb5d1e09d81","system_id":"levelo_inurba_marseille","lat":43.289741,"lon":5.378306,"is_reserved":false,"is_disabled":false,"rental_uris":{"android":"levelo://app?vid=108198c9-85f4-4f0c-88d9-dcb5d1e09d81","ios":"levelo://app?vid=108198c9-85f4-4f0c-88d9-dcb5d1e09d81"},"vehicle_type_id":"4","last_reported":1720026446,"current_range_meters":1200,"station_id":"ce4bh9p2rcd13ifvqed0","pricing_plan_id":"cebpf4jnsgd1na2vs0mg"},{"bike_id":"73150830-a92b-4553-9771-e8b6d73f8478","system_id":"levelo_inurba_marseille","lat":43.28967,"lon":5.37836,"is_reserved":false,"is_disabled":false,"rental_uris":{"android":"levelo://app?vid=73150830-a92b-4553-9771-e8b6d73f8478","ios":"levelo://app?vid=73150830-a92b-4553-9771-e8b6d73f8478"},"vehicle_type_id":"4","last_reported":1720026446,"current_range_meters":2400,"station_id":"ce4bh9p2rcd13ifvqed0","pricing_plan_id":"cebpf4jnsgd1na2vs0mg"},{"bike_id":"693628d7-bd18-4e15-8485-0093943de4ba","system_id":"levelo_inurba_marseille","lat":43.28956,"lon":5.35495,"is_reserved":false,"is_disabled":false,"rental_uris":{"android":"levelo://app?vid=693628d7-bd18-4e15-8485-0093943de4ba","ios":"levelo://app?vid=693628d7-bd18-4e15-8485-0093943de4ba"},"vehicle_type_id":"4","last_reported":1720026446,"current_range_meters":18000,"station_id":"","pricing_plan_id":"cebpf4jnsgd1na2vs0mg"},{"bike_id":"d0a3916d-cadc-4ee1-89e8-e44f8c22558c","system_id":"levelo_inurba_marseille","lat":43.29029,"lon":5.3813,"is_reserved":false,"is_disabled":false,"rental_uris":{"android":"levelo://app?vid=d0a3916d-cadc-4ee1-89e8-e44f8c22558c","ios":"levelo://app?vid=d0a3916d-cadc-4ee1-89e8-e44f8c22558c"},"vehicle_type_id":"4","last_reported":1720026446,"current_range_meters":13600,"station_id":"ce4bh4p2rcd13ifvqe1g","pricing_plan_id":"cebpf4jnsgd1na2vs0mg"},{"bike_id":"6c8d3416-bb8e-4257-acb5-524826ecf8e1","system_id":"levelo_inurba_marseille","lat":43.28856,"lon":5.358371,"is_reserved":false,"is_disabled":false,"rental_uris":{"android":"levelo://app?vid=6c8d3416-bb8e-4257-acb5-524826ecf8e1","ios":"levelo://app?vid=6c8d3416-bb8e-4257-acb5-524826ecf8e1"},"vehicle_type_id":"4","last_reported":1720026446,"current_range_meters":18000,"station_id":"ce4bhb12rcd13ifvqem0","pricing_plan_id":"cebpf4jnsgd1na2vs0mg"},{"bike_id":"ec3b5d1e-e769-4e3b-a4bf-2ecbc0dc0ef7","system_id":"levelo_inurba_marseille","lat":43.28852,"lon":5.35843,"is_reserved":false,"is_disabled":false,"rental_uris":{"android":"levelo://app?vid=ec3b5d1e-e769-4e3b-a4bf-2ecbc0dc0ef7","ios":"levelo://app?vid=ec3b5d1e-e769-4e3b-a4bf-2ecbc0dc0ef7"},"vehicle_type_id":"4","last_reported":1720026446,"current_range_meters":31200,"station_id":"","pricing_plan_id":"cebpf4jnsgd1na2vs0mg"},{"bike_id":"8713a9c2-31fa-4d5e-8393-231b0dcb4d47","system_id":"levelo_inurba_marseille","lat":43.28856,"lon":5.358371,"is_reserved":false,"is_disabled":false,"rental_uris":{"android":"levelo://app?vid=8713a9c2-31fa-4d5e-8393-231b0dcb4d47","ios":"levelo://app?vid=8713a9c2-31fa-4d5e-8393-231b0dcb4d47"},"vehicle_type_id":"4","last_reported":1720026446,"current_range_meters":31200,"station_id":"ce4bhb12rcd13ifvqem0","pricing_plan_id":"cebpf4jnsgd1na2vs0mg"},{"bike_id":"6ecb25e4-95df-4cba-818f-b0abeab5a0c0","system_id":"levelo_inurba_marseille","lat":43.288501,"lon":5.358512,"is_reserved":false,"is_disabled":false,"rental_uris":{"android":"levelo://app?vid=6ecb25e4-95df-4cba-818f-b0abeab5a0c0","ios":"levelo://app?vid=6ecb25e4-95df-4cba-818f-b0abeab5a0c0"},"vehicle_type_id":"4","last_reported":1720026446,"current_range_meters":20800,"station_id":"ce4bhb12rcd13ifvqem0","pricing_plan_id":"cebpf4jnsgd1na2vs0mg"},{"bike_id":"4ea2ce46-e0b6-4dec-b427-7679c3ab9452","system_id":"levelo_inurba_marseille","lat":43.2885,"lon":5.358501,"is_reserved":false,"is_disabled":false,"rental_uris":{"android":"levelo://app?vid=4ea2ce46-e0b6-4dec-b427-7679c3ab9452","ios":"levelo://app?vid=4ea2ce46-e0b6-4dec-b427-7679c3ab9452"},"vehicle_type_id":"4","last_reported":1720026446,"current_range_meters":1600,"station_id":"ce4bhb12rcd13ifvqem0","pricing_plan_id":"cebpf4jnsgd1na2vs0mg"},{"bike_id":"06a07ebf-dff2-4f42-b903-57c5489ef6f0","system_id":"levelo_inurba_marseille","lat":43.288489,"lon":5.3585,"is_reserved":false,"is_disabled":false,"rental_uris":{"android":"levelo://app?vid=06a07ebf-dff2-4f42-b903-57c5489ef6f0","ios":"levelo://app?vid=06a07ebf-dff2-4f42-b903-57c5489ef6f0"},"vehicle_type_id":"4","last_reported":1720026446,"current_range_meters":31200,"station_id":"ce4bhb12rcd13ifvqem0","pricing_plan_id":"cebpf4jnsgd1na2vs0mg"},{"bike_id":"775fe29d-ee9c-4ad4-a528-d7b8c1fbaeb3","system_id":"levelo_inurba_marseille","lat":43.28848,"lon":5.35851,"is_reserved":false,"is_disabled":false,"rental_uris":{"android":"levelo://app?vid=775fe29d-ee9c-4ad4-a528-d7b8c1fbaeb3","ios":"levelo://app?vid=775fe29d-ee9c-4ad4-a528-d7b8c1fbaeb3"},"vehicle_type_id":"4","last_reported":1720026446,"current_range_meters":25600,"station_id":"ce4bhb12rcd13ifvqem0","pricing_plan_id":"cebpf4jnsgd1na2vs0mg"},{"bike_id":"fea9ae9d-def2-4b17-a427-b2c532d04949","system_id":"levelo_inurba_marseille","lat":43.28856,"lon":5.358371,"is_reserved":false,"is_disabled":false,"rental_uris":{"android":"levelo://app?vid=fea9ae9d-def2-4b17-a427-b2c532d04949","ios":"levelo://app?vid=fea9ae9d-def2-4b17-a427-b2c532d04949"},"vehicle_type_id":"4","last_reported":1720026446,"current_range_meters":800,"station_id":"ce4bhb12rcd13ifvqem0","pricing_plan_id":"cebpf4jnsgd1na2vs0mg"},{"bike_id":"d0e7583a-9614-4011-9eac-66fbf3ea27af","system_id":"levelo_inurba_marseille","lat":43.28846,"lon":5.35842,"is_reserved":false,"is_disabled":false,"rental_uris":{"android":"levelo://app?vid=d0e7583a-9614-4011-9eac-66fbf3ea27af","ios":"levelo://app?vid=d0e7583a-9614-4011-9eac-66fbf3ea27af"},"vehicle_type_id":"4","last_reported":1720026446,"current_range_meters":22800,"station_id":"ce4bhb12rcd13ifvqem0","pricing_plan_id":"cebpf4jnsgd1na2vs0mg"},{"bike_id":"3c361718-b25a-44ff-9abb-f4e963b02ed4","system_id":"levelo_inurba_marseille","lat":43.3374,"lon":5.37448,"is_reserved":false,"is_disabled":false,"rental_uris":{"android":"levelo://app?vid=3c361718-b25a-44ff-9abb-f4e963b02ed4","ios":"levelo://app?vid=3c361718-b25a-44ff-9abb-f4e963b02ed4"},"vehicle_type_id":"4","last_reported":1720026446,"current_range_meters":6000,"station_id":"","pricing_plan_id":"cebpf4jnsgd1na2vs0mg"},{"bike_id":"f5fd895d-be29-4dd0-8ed1-68cb1a9acd6a","system_id":"levelo_inurba_marseille","lat":43.337444,"lon":5.374475,"is_reserved":false,"is_disabled":false,"rental_uris":{"android":"levelo://app?vid=f5fd895d-be29-4dd0-8ed1-68cb1a9acd6a","ios":"levelo://app?vid=f5fd895d-be29-4dd0-8ed1-68cb1a9acd6a"},"vehicle_type_id":"4","last_reported":1720026446,"current_range_meters":20800,"station_id":"","pricing_plan_id":"cebpf4jnsgd1na2vs0mg"},{"bike_id":"33d87dbf-5177-403d-bafd-0096b80b99dc","system_id":"levelo_inurba_marseille","lat":43.309371,"lon":5.401449,"is_reserved":false,"is_disabled":false,"rental_uris":{"android":"levelo://app?vid=33d87dbf-5177-403d-bafd-0096b80b99dc","ios":"levelo://app?vid=33d87dbf-5177-403d-bafd-0096b80b99dc"},"vehicle_type_id":"4","last_reported":1720026446,"current_range_meters":800,"station_id":"ce4bgvp2rcd13ifvqct0","pricing_plan_id":"cebpf4jnsgd1na2vs0mg"},{"bike_id":"668b6270-367b-4f6c-b750-d67dec44cb4f","system_id":"levelo_inurba_marseille","lat":43.33747,"lon":5.37452,"is_reserved":false,"is_disabled":false,"rental_uris":{"android":"levelo://app?vid=668b6270-367b-4f6c-b750-d67dec44cb4f","ios":"levelo://app?vid=668b6270-367b-4f6c-b750-d67dec44cb4f"},"vehicle_type_id":"4","last_reported":1720026446,"current_range_meters":24400,"station_id":"","pricing_plan_id":"cebpf4jnsgd1na2vs0mg"},{"bike_id":"26186307-2584-4002-9c8c-fe2a31238548","system_id":"levelo_inurba_marseille","lat":43.337512,"lon":5.374571,"is_reserved":false,"is_disabled":false,"rental_uris":{"android":"levelo://app?vid=26186307-2584-4002-9c8c-fe2a31238548","ios":"levelo://app?vid=26186307-2584-4002-9c8c-fe2a31238548"},"vehicle_type_id":"4","last_reported":1720026446,"current_range_meters":24400,"station_id":"","pricing_plan_id":"cebpf4jnsgd1na2vs0mg"},{"bike_id":"0ed4044d-b045-4ceb-8b78-b4c3041d7f8a","system_id":"levelo_inurba_marseille","lat":43.33752,"lon":5.374591,"is_reserved":false,"is_disabled":false,"rental_uris":{"android":"levelo://app?vid=0ed4044d-b045-4ceb-8b78-b4c3041d7f8a","ios":"levelo://app?vid=0ed4044d-b045-4ceb-8b78-b4c3041d7f8a"},"vehicle_type_id":"4","last_reported":1720026446,"current_range_meters":26000,"station_id":"","pricing_plan_id":"cebpf4jnsgd1na2vs0mg"},{"bike_id":"5c35fd79-137e-4785-ac4e-212539aff542","system_id":"levelo_inurba_marseille","lat":43.337558,"lon":5.374551,"is_reserved":false,"is_disabled":false,"rental_uris":{"android":"levelo://app?vid=5c35fd79-137e-4785-ac4e-212539aff542","ios":"levelo://app?vid=5c35fd79-137e-4785-ac4e-212539aff542"},"vehicle_type_id":"4","last_reported":1720026446,"current_range_meters":22800,"station_id":"","pricing_plan_id":"cebpf4jnsgd1na2vs0mg"},{"bike_id":"d3c4f001-2270-4ab4-ba18-ac05000c8d46","system_id":"levelo_inurba_marseille","lat":43.337559,"lon":5.374547,"is_reserved":false,"is_disabled":false,"rental_uris":{"android":"levelo://app?vid=d3c4f001-2270-4ab4-ba18-ac05000c8d46","ios":"levelo://app?vid=d3c4f001-2270-4ab4-ba18-ac05000c8d46"},"vehicle_type_id":"4","last_reported":1720026446,"current_range_meters":26000,"station_id":"","pricing_plan_id":"cebpf4jnsgd1na2vs0mg"},{"bike_id":"b365cded-7e1f-4c49-8848-d4269ed24fae","system_id":"levelo_inurba_marseille","lat":43.33759,"lon":5.37436,"is_reserved":false,"is_disabled":false,"rental_uris":{"android":"levelo://app?vid=b365cded-7e1f-4c49-8848-d4269ed24fae","ios":"levelo://app?vid=b365cded-7e1f-4c49-8848-d4269ed24fae"},"vehicle_type_id":"4","last_reported":1720026446,"current_range_meters":30800,"station_id":"","pricing_plan_id":"cebpf4jnsgd1na2vs0mg"},{"bike_id":"b6434eae-5cb4-4c31-b322-b4ecf8f28910","system_id":"levelo_inurba_marseille","lat":43.337568,"lon":5.374554,"is_reserved":false,"is_disabled":false,"rental_uris":{"android":"levelo://app?vid=b6434eae-5cb4-4c31-b322-b4ecf8f28910","ios":"levelo://app?vid=b6434eae-5cb4-4c31-b322-b4ecf8f28910"},"vehicle_type_id":"4","last_reported":1720026446,"current_range_meters":26000,"station_id":"","pricing_plan_id":"cebpf4jnsgd1na2vs0mg"},{"bike_id":"7799d0a3-c9f5-4e76-a056-c410e036458d","system_id":"levelo_inurba_marseille","lat":43.3376,"lon":5.37437,"is_reserved":false,"is_disabled":false,"rental_uris":{"android":"levelo://app?vid=7799d0a3-c9f5-4e76-a056-c410e036458d","ios":"levelo://app?vid=7799d0a3-c9f5-4e76-a056-c410e036458d"},"vehicle_type_id":"4","last_reported":1720026446,"current_range_meters":30400,"station_id":"","pricing_plan_id":"cebpf4jnsgd1na2vs0mg"},{"bike_id":"63add096-1435-4c3b-b83b-a3a36c1eb8d7","system_id":"levelo_inurba_marseille","lat":43.337572,"lon":5.374553,"is_reserved":false,"is_disabled":false,"rental_uris":{"android":"levelo://app?vid=63add096-1435-4c3b-b83b-a3a36c1eb8d7","ios":"levelo://app?vid=63add096-1435-4c3b-b83b-a3a36c1eb8d7"},"vehicle_type_id":"4","last_reported":1720026446,"current_range_meters":8400,"station_id":"","pricing_plan_id":"cebpf4jnsgd1na2vs0mg"},{"bike_id":"1bf3f2e0-998e-4534-b968-553047dd9433","system_id":"levelo_inurba_marseille","lat":43.337581,"lon":5.374552,"is_reserved":false,"is_disabled":false,"rental_uris":{"android":"levelo://app?vid=1bf3f2e0-998e-4534-b968-553047dd9433","ios":"levelo://app?vid=1bf3f2e0-998e-4534-b968-553047dd9433"},"vehicle_type_id":"4","last_reported":1720026446,"current_range_meters":26000,"station_id":"","pricing_plan_id":"cebpf4jnsgd1na2vs0mg"},{"bike_id":"7829749a-6357-4f25-b52b-22d8bde55cb0","system_id":"levelo_inurba_marseille","lat":43.33762,"lon":5.374435,"is_reserved":false,"is_disabled":false,"rental_uris":{"android":"levelo://app?vid=7829749a-6357-4f25-b52b-22d8bde55cb0","ios":"levelo://app?vid=7829749a-6357-4f25-b52b-22d8bde55cb0"},"vehicle_type_id":"4","last_reported":1720026446,"current_range_meters":31200,"station_id":"","pricing_plan_id":"cebpf4jnsgd1na2vs0mg"},{"bike_id":"7b133e30-4849-4feb-84bb-89d23ea09217","system_id":"levelo_inurba_marseille","lat":43.337626,"lon":5.374463,"is_reserved":false,"is_disabled":false,"rental_uris":{"android":"levelo://app?vid=7b133e30-4849-4feb-84bb-89d23ea09217","ios":"levelo://app?vid=7b133e30-4849-4feb-84bb-89d23ea09217"},"vehicle_type_id":"4","last_reported":1720026446,"current_range_meters":29200,"station_id":"","pricing_plan_id":"cebpf4jnsgd1na2vs0mg"},{"bike_id":"f65ada32-0c08-437b-80e7-f6ec202b5c07","system_id":"levelo_inurba_marseille","lat":43.306557,"lon":5.4009,"is_reserved":false,"is_disabled":false,"rental_uris":{"android":"levelo://app?vid=f65ada32-0c08-437b-80e7-f6ec202b5c07","ios":"levelo://app?vid=f65ada32-0c08-437b-80e7-f6ec202b5c07"},"vehicle_type_id":"4","last_reported":1720026446,"current_range_meters":0,"station_id":"ce4bh112rcd13ifvqda0","pricing_plan_id":"cebpf4jnsgd1na2vs0mg"},{"bike_id":"d8a84473-84e3-40da-a2b5-1ab5576f24b8","system_id":"levelo_inurba_marseille","lat":43.33755,"lon":5.37499,"is_reserved":false,"is_disabled":false,"rental_uris":{"android":"levelo://app?vid=d8a84473-84e3-40da-a2b5-1ab5576f24b8","ios":"levelo://app?vid=d8a84473-84e3-40da-a2b5-1ab5576f24b8"},"vehicle_type_id":"4","last_reported":1720026446,"current_range_meters":10800,"station_id":"","pricing_plan_id":"cebpf4jnsgd1na2vs0mg"},{"bike_id":"05254307-f8fb-46a2-985d-3a0823608688","system_id":"levelo_inurba_marseille","lat":43.33768,"lon":5.374407,"is_reserved":false,"is_disabled":false,"rental_uris":{"android":"levelo://app?vid=05254307-f8fb-46a2-985d-3a0823608688","ios":"levelo://app?vid=05254307-f8fb-46a2-985d-3a0823608688"},"vehicle_type_id":"4","last_reported":1720026446,"current_range_meters":9200,"station_id":"","pricing_plan_id":"cebpf4jnsgd1na2vs0mg"},{"bike_id":"6a52d53b-1287-4742-bbc8-10853a0aedae","system_id":"levelo_inurba_marseille","lat":43.301117,"lon":5.398795,"is_reserved":false,"is_disabled":false,"rental_uris":{"android":"levelo://app?vid=6a52d53b-1287-4742-bbc8-10853a0aedae","ios":"levelo://app?vid=6a52d53b-1287-4742-bbc8-10853a0aedae"},"vehicle_type_id":"4","last_reported":1720026446,"current_range_meters":21600,"station_id":"ce4bh0h2rcd13ifvqd40","pricing_plan_id":"cebpf4jnsgd1na2vs0mg"},{"bike_id":"cbb4f863-a3bb-4eaf-bfde-f77812d5043a","system_id":"levelo_inurba_marseille","lat":43.301117,"lon":5.398795,"is_reserved":false,"is_disabled":false,"rental_uris":{"android":"levelo://app?vid=cbb4f863-a3bb-4eaf-bfde-f77812d5043a","ios":"levelo://app?vid=cbb4f863-a3bb-4eaf-bfde-f77812d5043a"},"vehicle_type_id":"4","last_reported":1720026446,"current_range_meters":29200,"station_id":"ce4bh0h2rcd13ifvqd40","pricing_plan_id":"cebpf4jnsgd1na2vs0mg"},{"bike_id":"e2232873-7292-40c9-8b54-9a7f49e48357","system_id":"levelo_inurba_marseille","lat":43.301117,"lon":5.398795,"is_reserved":false,"is_disabled":false,"rental_uris":{"android":"levelo://app?vid=e2232873-7292-40c9-8b54-9a7f49e48357","ios":"levelo://app?vid=e2232873-7292-40c9-8b54-9a7f49e48357"},"vehicle_type_id":"4","last_reported":1720026446,"current_range_meters":7200,"station_id":"ce4bh0h2rcd13ifvqd40","pricing_plan_id":"cebpf4jnsgd1na2vs0mg"},{"bike_id":"28023954-827b-43e6-8b7a-b139215052fe","system_id":"levelo_inurba_marseille","lat":43.301117,"lon":5.398795,"is_reserved":false,"is_disabled":false,"rental_uris":{"android":"levelo://app?vid=28023954-827b-43e6-8b7a-b139215052fe","ios":"levelo://app?vid=28023954-827b-43e6-8b7a-b139215052fe"},"vehicle_type_id":"4","last_reported":1720026446,"current_range_meters":2000,"station_id":"ce4bh0h2rcd13ifvqd40","pricing_plan_id":"cebpf4jnsgd1na2vs0mg"},{"bike_id":"9f8a815a-05db-483a-a72b-18682870096e","system_id":"levelo_inurba_marseille","lat":43.28727,"lon":5.36089,"is_reserved":false,"is_disabled":false,"rental_uris":{"android":"levelo://app?vid=9f8a815a-05db-483a-a72b-18682870096e","ios":"levelo://app?vid=9f8a815a-05db-483a-a72b-18682870096e"},"vehicle_type_id":"4","last_reported":1720026446,"current_range_meters":3200,"station_id":"cki0cbj6b192h4jlfktg","pricing_plan_id":"cebpf4jnsgd1na2vs0mg"},{"bike_id":"4e983c18-4c23-48a3-b77d-d0128399b948","system_id":"levelo_inurba_marseille","lat":43.28727,"lon":5.36088,"is_reserved":false,"is_disabled":false,"rental_uris":{"android":"levelo://app?vid=4e983c18-4c23-48a3-b77d-d0128399b948","ios":"levelo://app?vid=4e983c18-4c23-48a3-b77d-d0128399b948"},"vehicle_type_id":"4","last_reported":1720026446,"current_range_meters":28000,"station_id":"cki0cbj6b192h4jlfktg","pricing_plan_id":"cebpf4jnsgd1na2vs0mg"},{"bike_id":"68c2546f-4c6b-4603-ac3b-40783e987bc9","system_id":"levelo_inurba_marseille","lat":43.28725,"lon":5.36088,"is_reserved":false,"is_disabled":false,"rental_uris":{"android":"levelo://app?vid=68c2546f-4c6b-4603-ac3b-40783e987bc9","ios":"levelo://app?vid=68c2546f-4c6b-4603-ac3b-40783e987bc9"},"vehicle_type_id":"4","last_reported":1720026446,"current_range_meters":24400,"station_id":"cki0cbj6b192h4jlfktg","pricing_plan_id":"cebpf4jnsgd1na2vs0mg"},{"bike_id":"5bd4b082-f510-4aab-96e2-9dcb966d4b20","system_id":"levelo_inurba_marseille","lat":43.28722,"lon":5.36093,"is_reserved":false,"is_disabled":false,"rental_uris":{"android":"levelo://app?vid=5bd4b082-f510-4aab-96e2-9dcb966d4b20","ios":"levelo://app?vid=5bd4b082-f510-4aab-96e2-9dcb966d4b20"},"vehicle_type_id":"4","last_reported":1720026446,"current_range_meters":5200,"station_id":"cki0cbj6b192h4jlfktg","pricing_plan_id":"cebpf4jnsgd1na2vs0mg"},{"bike_id":"0f8c0dc1-76ad-45ed-8591-46a6a9d4394c","system_id":"levelo_inurba_marseille","lat":43.28708,"lon":5.37387,"is_reserved":false,"is_disabled":false,"rental_uris":{"android":"levelo://app?vid=0f8c0dc1-76ad-45ed-8591-46a6a9d4394c","ios":"levelo://app?vid=0f8c0dc1-76ad-45ed-8591-46a6a9d4394c"},"vehicle_type_id":"4","last_reported":1720026446,"current_range_meters":15200,"station_id":"ce4bh3p2rcd13ifvqdq0","pricing_plan_id":"cebpf4jnsgd1na2vs0mg"},{"bike_id":"b869364c-b148-4b40-b1c5-a2247919baa1","system_id":"levelo_inurba_marseille","lat":43.28707,"lon":5.3739,"is_reserved":false,"is_disabled":false,"rental_uris":{"android":"levelo://app?vid=b869364c-b148-4b40-b1c5-a2247919baa1","ios":"levelo://app?vid=b869364c-b148-4b40-b1c5-a2247919baa1"},"vehicle_type_id":"4","last_reported":1720026446,"current_range_meters":25200,"station_id":"ce4bh3p2rcd13ifvqdq0","pricing_plan_id":"cebpf4jnsgd1na2vs0mg"},{"bike_id":"d404b5f4-00ae-404c-b3b4-5ae02956a665","system_id":"levelo_inurba_marseille","lat":43.298681,"lon":5.397225,"is_reserved":false,"is_disabled":false,"rental_uris":{"android":"levelo://app?vid=d404b5f4-00ae-404c-b3b4-5ae02956a665","ios":"levelo://app?vid=d404b5f4-00ae-404c-b3b4-5ae02956a665"},"vehicle_type_id":"4","last_reported":1720026446,"current_range_meters":4400,"station_id":"ce4bh0h2rcd13ifvqd50","pricing_plan_id":"cebpf4jnsgd1na2vs0mg"},{"bike_id":"80e09a2c-1b8c-4585-b912-773e5128b756","system_id":"levelo_inurba_marseille","lat":43.28704,"lon":5.37396,"is_reserved":false,"is_disabled":false,"rental_uris":{"android":"levelo://app?vid=80e09a2c-1b8c-4585-b912-773e5128b756","ios":"levelo://app?vid=80e09a2c-1b8c-4585-b912-773e5128b756"},"vehicle_type_id":"4","last_reported":1720026446,"current_range_meters":2400,"station_id":"ce4bh3p2rcd13ifvqdq0","pricing_plan_id":"cebpf4jnsgd1na2vs0mg"},{"bike_id":"0332154f-88b2-412a-b082-e606e2fc5f0c","system_id":"levelo_inurba_marseille","lat":43.286591,"lon":5.363346,"is_reserved":false,"is_disabled":false,"rental_uris":{"android":"levelo://app?vid=0332154f-88b2-412a-b082-e606e2fc5f0c","ios":"levelo://app?vid=0332154f-88b2-412a-b082-e606e2fc5f0c"},"vehicle_type_id":"4","last_reported":1720026446,"current_range_meters":11600,"station_id":"ce4bhah2rcd13ifvqej0","pricing_plan_id":"cebpf4jnsgd1na2vs0mg"},{"bike_id":"39fc8eea-967a-442f-959a-b800b5280c88","system_id":"levelo_inurba_marseille","lat":43.295196,"lon":5.39397,"is_reserved":false,"is_disabled":false,"rental_uris":{"android":"levelo://app?vid=39fc8eea-967a-442f-959a-b800b5280c88","ios":"levelo://app?vid=39fc8eea-967a-442f-959a-b800b5280c88"},"vehicle_type_id":"4","last_reported":1720026446,"current_range_meters":8400,"station_id":"ce4bh292rcd13ifvqdf0","pricing_plan_id":"cebpf4jnsgd1na2vs0mg"},{"bike_id":"e382d5ce-9735-46e9-8cc0-93f5a5aee5c4","system_id":"levelo_inurba_marseille","lat":43.28662,"lon":5.36351,"is_reserved":false,"is_disabled":false,"rental_uris":{"android":"levelo://app?vid=e382d5ce-9735-46e9-8cc0-93f5a5aee5c4","ios":"levelo://app?vid=e382d5ce-9735-46e9-8cc0-93f5a5aee5c4"},"vehicle_type_id":"4","last_reported":1720026446,"current_range_meters":31200,"station_id":"ce4bhah2rcd13ifvqej0","pricing_plan_id":"cebpf4jnsgd1na2vs0mg"},{"bike_id":"4ec19bad-0b26-45dd-a6df-4165bc04a494","system_id":"levelo_inurba_marseille","lat":43.286985,"lon":5.37386,"is_reserved":false,"is_disabled":false,"rental_uris":{"android":"levelo://app?vid=4ec19bad-0b26-45dd-a6df-4165bc04a494","ios":"levelo://app?vid=4ec19bad-0b26-45dd-a6df-4165bc04a494"},"vehicle_type_id":"4","last_reported":1720026446,"current_range_meters":20000,"station_id":"ce4bh3p2rcd13ifvqdq0","pricing_plan_id":"cebpf4jnsgd1na2vs0mg"},{"bike_id":"eb1ec14f-58a0-4fa1-8331-9b48f23dfcb3","system_id":"levelo_inurba_marseille","lat":43.286593,"lon":5.363346,"is_reserved":false,"is_disabled":false,"rental_uris":{"android":"levelo://app?vid=eb1ec14f-58a0-4fa1-8331-9b48f23dfcb3","ios":"levelo://app?vid=eb1ec14f-58a0-4fa1-8331-9b48f23dfcb3"},"vehicle_type_id":"4","last_reported":1720026446,"current_range_meters":1600,"station_id":"ce4bhah2rcd13ifvqej0","pricing_plan_id":"cebpf4jnsgd1na2vs0mg"},{"bike_id":"35a34ac0-3844-4de0-a69f-fa985db8f417","system_id":"levelo_inurba_marseille","lat":43.298681,"lon":5.397225,"is_reserved":false,"is_disabled":false,"rental_uris":{"android":"levelo://app?vid=35a34ac0-3844-4de0-a69f-fa985db8f417","ios":"levelo://app?vid=35a34ac0-3844-4de0-a69f-fa985db8f417"},"vehicle_type_id":"4","last_reported":1720026446,"current_range_meters":0,"station_id":"ce4bh0h2rcd13ifvqd50","pricing_plan_id":"cebpf4jnsgd1na2vs0mg"},{"bike_id":"669ae3ee-1b07-462f-b8dd-1094f29ad95c","system_id":"levelo_inurba_marseille","lat":43.295196,"lon":5.39397,"is_reserved":false,"is_disabled":false,"rental_uris":{"android":"levelo://app?vid=669ae3ee-1b07-462f-b8dd-1094f29ad95c","ios":"levelo://app?vid=669ae3ee-1b07-462f-b8dd-1094f29ad95c"},"vehicle_type_id":"4","last_reported":1720026446,"current_range_meters":0,"station_id":"ce4bh292rcd13ifvqdf0","pricing_plan_id":"cebpf4jnsgd1na2vs0mg"},{"bike_id":"5852b7c2-e9ec-4b62-b649-e7e0998b153e","system_id":"levelo_inurba_marseille","lat":43.286591,"lon":5.363346,"is_reserved":false,"is_disabled":false,"rental_uris":{"android":"levelo://app?vid=5852b7c2-e9ec-4b62-b649-e7e0998b153e","ios":"levelo://app?vid=5852b7c2-e9ec-4b62-b649-e7e0998b153e"},"vehicle_type_id":"4","last_reported":1720026446,"current_range_meters":5200,"station_id":"ce4bhah2rcd13ifvqej0","pricing_plan_id":"cebpf4jnsgd1na2vs0mg"},{"bike_id":"5258572a-3324-42f7-88aa-1c538dc17443","system_id":"levelo_inurba_marseille","lat":43.29513,"lon":5.39402,"is_reserved":false,"is_disabled":false,"rental_uris":{"android":"levelo://app?vid=5258572a-3324-42f7-88aa-1c538dc17443","ios":"levelo://app?vid=5258572a-3324-42f7-88aa-1c538dc17443"},"vehicle_type_id":"4","last_reported":1720026446,"current_range_meters":15200,"station_id":"ce4bh292rcd13ifvqdf0","pricing_plan_id":"cebpf4jnsgd1na2vs0mg"},{"bike_id":"37ea0c38-ed0a-4b74-aa9e-a48ffc8671d2","system_id":"levelo_inurba_marseille","lat":43.29038,"lon":5.38641,"is_reserved":false,"is_disabled":false,"rental_uris":{"android":"levelo://app?vid=37ea0c38-ed0a-4b74-aa9e-a48ffc8671d2","ios":"levelo://app?vid=37ea0c38-ed0a-4b74-aa9e-a48ffc8671d2"},"vehicle_type_id":"4","last_reported":1720026446,"current_range_meters":17200,"station_id":"","pricing_plan_id":"cebpf4jnsgd1na2vs0mg"},{"bike_id":"01cf0aea-5bd4-4eed-bf04-414e996a5125","system_id":"levelo_inurba_marseille","lat":43.289307,"lon":5.38406,"is_reserved":false,"is_disabled":false,"rental_uris":{"android":"levelo://app?vid=01cf0aea-5bd4-4eed-bf04-414e996a5125","ios":"levelo://app?vid=01cf0aea-5bd4-4eed-bf04-414e996a5125"},"vehicle_type_id":"4","last_reported":1720026446,"current_range_meters":22400,"station_id":"ce4bh612rcd13ifvqe6g","pricing_plan_id":"cebpf4jnsgd1na2vs0mg"},{"bike_id":"1603be91-b73a-45d5-a293-9c20a32e2d92","system_id":"levelo_inurba_marseille","lat":43.290336,"lon":5.386425,"is_reserved":false,"is_disabled":false,"rental_uris":{"android":"levelo://app?vid=1603be91-b73a-45d5-a293-9c20a32e2d92","ios":"levelo://app?vid=1603be91-b73a-45d5-a293-9c20a32e2d92"},"vehicle_type_id":"4","last_reported":1720026446,"current_range_meters":0,"station_id":"ce4bh4p2rcd13ifvqe0g","pricing_plan_id":"cebpf4jnsgd1na2vs0mg"},{"bike_id":"116f3eae-495a-463c-9ac5-6f168058cda0","system_id":"levelo_inurba_marseille","lat":43.298681,"lon":5.397225,"is_reserved":false,"is_disabled":false,"rental_uris":{"android":"levelo://app?vid=116f3eae-495a-463c-9ac5-6f168058cda0","ios":"levelo://app?vid=116f3eae-495a-463c-9ac5-6f168058cda0"},"vehicle_type_id":"4","last_reported":1720026446,"current_range_meters":1600,"station_id":"ce4bh0h2rcd13ifvqd50","pricing_plan_id":"cebpf4jnsgd1na2vs0mg"},{"bike_id":"ff6ec2ed-93a8-47aa-88fd-80eddfa41718","system_id":"levelo_inurba_marseille","lat":43.289307,"lon":5.38406,"is_reserved":false,"is_disabled":false,"rental_uris":{"android":"levelo://app?vid=ff6ec2ed-93a8-47aa-88fd-80eddfa41718","ios":"levelo://app?vid=ff6ec2ed-93a8-47aa-88fd-80eddfa41718"},"vehicle_type_id":"4","last_reported":1720026446,"current_range_meters":0,"station_id":"ce4bh612rcd13ifvqe6g","pricing_plan_id":"cebpf4jnsgd1na2vs0mg"},{"bike_id":"9be78fe7-3b87-4748-aaa2-63957b13482b","system_id":"levelo_inurba_marseille","lat":43.289307,"lon":5.38406,"is_reserved":false,"is_disabled":false,"rental_uris":{"android":"levelo://app?vid=9be78fe7-3b87-4748-aaa2-63957b13482b","ios":"levelo://app?vid=9be78fe7-3b87-4748-aaa2-63957b13482b"},"vehicle_type_id":"4","last_reported":1720026446,"current_range_meters":0,"station_id":"ce4bh612rcd13ifvqe6g","pricing_plan_id":"cebpf4jnsgd1na2vs0mg"},{"bike_id":"f69fdb73-845f-497c-ae99-71d32a78c1ad","system_id":"levelo_inurba_marseille","lat":43.290336,"lon":5.386425,"is_reserved":false,"is_disabled":false,"rental_uris":{"android":"levelo://app?vid=f69fdb73-845f-497c-ae99-71d32a78c1ad","ios":"levelo://app?vid=f69fdb73-845f-497c-ae99-71d32a78c1ad"},"vehicle_type_id":"4","last_reported":1720026446,"current_range_meters":4000,"station_id":"ce4bh4p2rcd13ifvqe0g","pricing_plan_id":"cebpf4jnsgd1na2vs0mg"},{"bike_id":"b8f01682-890f-449e-b981-899a09963dcb","system_id":"levelo_inurba_marseille","lat":43.289307,"lon":5.38406,"is_reserved":false,"is_disabled":false,"rental_uris":{"android":"levelo://app?vid=b8f01682-890f-449e-b981-899a09963dcb","ios":"levelo://app?vid=b8f01682-890f-449e-b981-899a09963dcb"},"vehicle_type_id":"4","last_reported":1720026446,"current_range_meters":10000,"station_id":"ce4bh612rcd13ifvqe6g","pricing_plan_id":"cebpf4jnsgd1na2vs0mg"},{"bike_id":"db3c88b6-22c7-4f23-80b4-05556fdf7b18","system_id":"levelo_inurba_marseille","lat":43.290336,"lon":5.386425,"is_reserved":false,"is_disabled":false,"rental_uris":{"android":"levelo://app?vid=db3c88b6-22c7-4f23-80b4-05556fdf7b18","ios":"levelo://app?vid=db3c88b6-22c7-4f23-80b4-05556fdf7b18"},"vehicle_type_id":"4","last_reported":1720026446,"current_range_meters":10800,"station_id":"ce4bh4p2rcd13ifvqe0g","pricing_plan_id":"cebpf4jnsgd1na2vs0mg"},{"bike_id":"dd422c64-996d-4798-b625-1723638884b3","system_id":"levelo_inurba_marseille","lat":43.286148,"lon":5.370671,"is_reserved":false,"is_disabled":false,"rental_uris":{"android":"levelo://app?vid=dd422c64-996d-4798-b625-1723638884b3","ios":"levelo://app?vid=dd422c64-996d-4798-b625-1723638884b3"},"vehicle_type_id":"4","last_reported":1720026446,"current_range_meters":19200,"station_id":"ce4bht12rcd13ifvqi60","pricing_plan_id":"cebpf4jnsgd1na2vs0mg"},{"bike_id":"0b7232bf-1b48-4053-b881-2276b554f268","system_id":"levelo_inurba_marseille","lat":43.286039,"lon":5.370679,"is_reserved":false,"is_disabled":false,"rental_uris":{"android":"levelo://app?vid=0b7232bf-1b48-4053-b881-2276b554f268","ios":"levelo://app?vid=0b7232bf-1b48-4053-b881-2276b554f268"},"vehicle_type_id":"4","last_reported":1720026446,"current_range_meters":15200,"station_id":"ce4bht12rcd13ifvqi60","pricing_plan_id":"cebpf4jnsgd1na2vs0mg"},{"bike_id":"6dab0dcf-2b9b-4b23-8141-90d87b8b5ef6","system_id":"levelo_inurba_marseille","lat":43.286039,"lon":5.370679,"is_reserved":false,"is_disabled":false,"rental_uris":{"android":"levelo://app?vid=6dab0dcf-2b9b-4b23-8141-90d87b8b5ef6","ios":"levelo://app?vid=6dab0dcf-2b9b-4b23-8141-90d87b8b5ef6"},