{"last_updated":1781286241,"ttl":60,"version":"2.2","data":{"bikes":[{"bike_id":"ec12d144-24c8-4071-abf6-197e520eae96","system_id":"levelo_inurba_marseille","lat":43.337444,"lon":5.374475,"is_reserved":false,"is_disabled":false,"rental_uris":{"android":"levelo://app?vid=ec12d144-24c8-4071-abf6-197e520eae96","ios":"levelo://app?vid=ec12d144-24c8-4071-abf6-197e520eae96"},"vehicle_type_id":"4","last_reported":1781286242,"current_range_meters":0,"station_id":"","pricing_plan_id":"cebpf4jnsgd1na2vs0mg"},{"bike_id":"f49012fb-ba65-49c4-bb39-7729d5a2f8f5","system_id":"levelo_inurba_marseille","lat":43.26223,"lon":5.37439,"is_reserved":false,"is_disabled":false,"rental_uris":{"android":"levelo://app?vid=f49012fb-ba65-49c4-bb39-7729d5a2f8f5","ios":"levelo://app?vid=f49012fb-ba65-49c4-bb39-7729d5a2f8f5"},"vehicle_type_id":"4","last_reported":1781286242,"current_range_meters":2800,"station_id":"","pricing_plan_id":"cebpf4jnsgd1na2vs0mg"},{"bike_id":"7f42f95b-64bf-431c-9954-6729578d333f","system_id":"levelo_inurba_marseille","lat":43.2957,"lon":5.37521,"is_reserved":false,"is_disabled":false,"rental_uris":{"android":"levelo://app?vid=7f42f95b-64bf-431c-9954-6729578d333f","ios":"levelo://app?vid=7f42f95b-64bf-431c-9954-6729578d333f"},"vehicle_type_id":"4","last_reported":1781286242,"current_range_meters":2800,"station_id":"ce4bgh92rcd13ifvqb50","pricing_plan_id":"cebpf4jnsgd1na2vs0mg"},{"bike_id":"57c2c48b-6ce6-439b-a534-8fa30aeace03","system_id":"levelo_inurba_marseille","lat":43.30936,"lon":5.40144,"is_reserved":false,"is_disabled":false,"rental_uris":{"android":"levelo://app?vid=57c2c48b-6ce6-439b-a534-8fa30aeace03","ios":"levelo://app?vid=57c2c48b-6ce6-439b-a534-8fa30aeace03"},"vehicle_type_id":"4","last_reported":1781286242,"current_range_meters":2800,"station_id":"ce4bgvp2rcd13ifvqct0","pricing_plan_id":"cebpf4jnsgd1na2vs0mg"},{"bike_id":"f757583b-431b-42a5-9be6-03a3a16d684c","system_id":"levelo_inurba_marseille","lat":43.26695,"lon":5.38249,"is_reserved":false,"is_disabled":false,"rental_uris":{"android":"levelo://app?vid=f757583b-431b-42a5-9be6-03a3a16d684c","ios":"levelo://app?vid=f757583b-431b-42a5-9be6-03a3a16d684c"},"vehicle_type_id":"4","last_reported":1781286242,"current_range_meters":2800,"station_id":"ce4bhg92rcd13ifvqf90","pricing_plan_id":"cebpf4jnsgd1na2vs0mg"},{"bike_id":"b2ad6388-0d4f-4e9c-8ff3-f1ad38b97382","system_id":"levelo_inurba_marseille","lat":43.27676,"lon":5.42441,"is_reserved":false,"is_disabled":false,"rental_uris":{"android":"levelo://app?vid=b2ad6388-0d4f-4e9c-8ff3-f1ad38b97382","ios":"levelo://app?vid=b2ad6388-0d4f-4e9c-8ff3-f1ad38b97382"},"vehicle_type_id":"4","last_reported":1781286242,"current_range_meters":2800,"station_id":"","pricing_plan_id":"cebpf4jnsgd1na2vs0mg"},{"bike_id":"30d2fb47-a8ff-4d9a-9084-bd967469cca1","system_id":"levelo_inurba_marseille","lat":43.28076,"lon":5.39648,"is_reserved":false,"is_disabled":false,"rental_uris":{"android":"levelo://app?vid=30d2fb47-a8ff-4d9a-9084-bd967469cca1","ios":"levelo://app?vid=30d2fb47-a8ff-4d9a-9084-bd967469cca1"},"vehicle_type_id":"4","last_reported":1781286242,"current_range_meters":2800,"station_id":"ce4bho12rcd13ifvqh2g","pricing_plan_id":"cebpf4jnsgd1na2vs0mg"},{"bike_id":"e557426c-7c4d-45b5-8a5e-02b87a3a60c5","system_id":"levelo_inurba_marseille","lat":43.26383,"lon":5.3775,"is_reserved":false,"is_disabled":false,"rental_uris":{"android":"levelo://app?vid=e557426c-7c4d-45b5-8a5e-02b87a3a60c5","ios":"levelo://app?vid=e557426c-7c4d-45b5-8a5e-02b87a3a60c5"},"vehicle_type_id":"4","last_reported":1781286242,"current_range_meters":2800,"station_id":"st_d163nis0mtpqnht9uue0","pricing_plan_id":"cebpf4jnsgd1na2vs0mg"},{"bike_id":"f4c917b5-4ee1-4c84-8f06-5b471f9e3fe4","system_id":"levelo_inurba_marseille","lat":43.27383,"lon":5.36256,"is_reserved":false,"is_disabled":false,"rental_uris":{"android":"levelo://app?vid=f4c917b5-4ee1-4c84-8f06-5b471f9e3fe4","ios":"levelo://app?vid=f4c917b5-4ee1-4c84-8f06-5b471f9e3fe4"},"vehicle_type_id":"4","last_reported":1781286242,"current_range_meters":2800,"station_id":"ce4bhbh2rcd13ifvqeo0","pricing_plan_id":"cebpf4jnsgd1na2vs0mg"},{"bike_id":"89f96b0d-91a7-4950-ae3e-65d6f20cacad","system_id":"levelo_inurba_marseille","lat":43.29631,"lon":5.37724,"is_reserved":false,"is_disabled":false,"rental_uris":{"android":"levelo://app?vid=89f96b0d-91a7-4950-ae3e-65d6f20cacad","ios":"levelo://app?vid=89f96b0d-91a7-4950-ae3e-65d6f20cacad"},"vehicle_type_id":"4","last_reported":1781286242,"current_range_meters":2800,"station_id":"ce4bgi92rcd13ifvqb90","pricing_plan_id":"cebpf4jnsgd1na2vs0mg"},{"bike_id":"49f99adf-1d34-48dc-b7c1-5384b410c6c5","system_id":"levelo_inurba_marseille","lat":43.29803,"lon":5.38114,"is_reserved":false,"is_disabled":false,"rental_uris":{"android":"levelo://app?vid=49f99adf-1d34-48dc-b7c1-5384b410c6c5","ios":"levelo://app?vid=49f99adf-1d34-48dc-b7c1-5384b410c6c5"},"vehicle_type_id":"4","last_reported":1781286242,"current_range_meters":2800,"station_id":"ce4bgip2rcd13ifvqbb0","pricing_plan_id":"cebpf4jnsgd1na2vs0mg"},{"bike_id":"a021d47a-160f-4360-b273-c29f513bcf09","system_id":"levelo_inurba_marseille","lat":43.2827,"lon":5.35852,"is_reserved":false,"is_disabled":false,"rental_uris":{"android":"levelo://app?vid=a021d47a-160f-4360-b273-c29f513bcf09","ios":"levelo://app?vid=a021d47a-160f-4360-b273-c29f513bcf09"},"vehicle_type_id":"4","last_reported":1781286242,"current_range_meters":2800,"station_id":"","pricing_plan_id":"cebpf4jnsgd1na2vs0mg"},{"bike_id":"faf8ca25-719d-47d6-9604-bd79076dfce4","system_id":"levelo_inurba_marseille","lat":43.26691,"lon":5.38252,"is_reserved":false,"is_disabled":false,"rental_uris":{"android":"levelo://app?vid=faf8ca25-719d-47d6-9604-bd79076dfce4","ios":"levelo://app?vid=faf8ca25-719d-47d6-9604-bd79076dfce4"},"vehicle_type_id":"4","last_reported":1781286242,"current_range_meters":2800,"station_id":"ce4bhg92rcd13ifvqf90","pricing_plan_id":"cebpf4jnsgd1na2vs0mg"},{"bike_id":"0a7a5310-9e2c-4796-a015-a50b1a57541a","system_id":"levelo_inurba_marseille","lat":43.31707,"lon":5.37738,"is_reserved":false,"is_disabled":false,"rental_uris":{"android":"levelo://app?vid=0a7a5310-9e2c-4796-a015-a50b1a57541a","ios":"levelo://app?vid=0a7a5310-9e2c-4796-a015-a50b1a57541a"},"vehicle_type_id":"4","last_reported":1781286242,"current_range_meters":2800,"station_id":"ce4bgth2rcd13ifvqch0","pricing_plan_id":"cebpf4jnsgd1na2vs0mg"},{"bike_id":"548ca3f8-bc2d-46ba-bbc0-fa615c1c43dc","system_id":"levelo_inurba_marseille","lat":43.27668,"lon":5.389,"is_reserved":false,"is_disabled":true,"rental_uris":{"android":"levelo://app?vid=548ca3f8-bc2d-46ba-bbc0-fa615c1c43dc","ios":"levelo://app?vid=548ca3f8-bc2d-46ba-bbc0-fa615c1c43dc"},"vehicle_type_id":"4","last_reported":1781286242,"current_range_meters":2800,"station_id":"ce4bhi12rcd13ifvqfo0","pricing_plan_id":"cebpf4jnsgd1na2vs0mg"},{"bike_id":"a045da15-2fe7-4294-b1a5-f87c4a17d8f6","system_id":"levelo_inurba_marseille","lat":43.26375,"lon":5.37816,"is_reserved":false,"is_disabled":false,"rental_uris":{"android":"levelo://app?vid=a045da15-2fe7-4294-b1a5-f87c4a17d8f6","ios":"levelo://app?vid=a045da15-2fe7-4294-b1a5-f87c4a17d8f6"},"vehicle_type_id":"4","last_reported":1781286242,"current_range_meters":2800,"station_id":"st_d163nis0mtpqnht9uue0","pricing_plan_id":"cebpf4jnsgd1na2vs0mg"},{"bike_id":"9b000067-328f-48c9-a0ae-c27c4624d98b","system_id":"levelo_inurba_marseille","lat":43.305393,"lon":5.365627,"is_reserved":false,"is_disabled":true,"rental_uris":{"android":"levelo://app?vid=9b000067-328f-48c9-a0ae-c27c4624d98b","ios":"levelo://app?vid=9b000067-328f-48c9-a0ae-c27c4624d98b"},"vehicle_type_id":"4","last_reported":1781286242,"current_range_meters":2800,"station_id":"ce4bgs12rcd13ifvqcag","pricing_plan_id":"cebpf4jnsgd1na2vs0mg"},{"bike_id":"cdb51552-946c-4f57-8807-f1cfa55d450c","system_id":"levelo_inurba_marseille","lat":43.31505,"lon":5.37303,"is_reserved":false,"is_disabled":true,"rental_uris":{"android":"levelo://app?vid=cdb51552-946c-4f57-8807-f1cfa55d450c","ios":"levelo://app?vid=cdb51552-946c-4f57-8807-f1cfa55d450c"},"vehicle_type_id":"4","last_reported":1781286242,"current_range_meters":2800,"station_id":"ce4bgt12rcd13ifvqcd0","pricing_plan_id":"cebpf4jnsgd1na2vs0mg"},{"bike_id":"4778f7b7-9dc3-4f70-a631-4ef56493e699","system_id":"levelo_inurba_marseille","lat":43.32654,"lon":5.40992,"is_reserved":false,"is_disabled":false,"rental_uris":{"android":"levelo://app?vid=4778f7b7-9dc3-4f70-a631-4ef56493e699","ios":"levelo://app?vid=4778f7b7-9dc3-4f70-a631-4ef56493e699"},"vehicle_type_id":"4","last_reported":1781286242,"current_range_meters":2800,"station_id":"ce4bhpp2rcd13ifvqhgg","pricing_plan_id":"cebpf4jnsgd1na2vs0mg"},{"bike_id":"15fc56fc-294c-406d-b298-e6517f81b737","system_id":"levelo_inurba_marseille","lat":43.24641,"lon":5.43146,"is_reserved":false,"is_disabled":false,"rental_uris":{"android":"levelo://app?vid=15fc56fc-294c-406d-b298-e6517f81b737","ios":"levelo://app?vid=15fc56fc-294c-406d-b298-e6517f81b737"},"vehicle_type_id":"4","last_reported":1781286242,"current_range_meters":2800,"station_id":"st_d2m6c4gdas8pm72e190g","pricing_plan_id":"cebpf4jnsgd1na2vs0mg"},{"bike_id":"7fe2a76c-b99f-4fad-8ef4-3f3d51abfd03","system_id":"levelo_inurba_marseille","lat":43.3054,"lon":5.36701,"is_reserved":false,"is_disabled":false,"rental_uris":{"android":"levelo://app?vid=7fe2a76c-b99f-4fad-8ef4-3f3d51abfd03","ios":"levelo://app?vid=7fe2a76c-b99f-4fad-8ef4-3f3d51abfd03"},"vehicle_type_id":"4","last_reported":1781286242,"current_range_meters":2800,"station_id":"ce4bgrp2rcd13ifvqc9g","pricing_plan_id":"cebpf4jnsgd1na2vs0mg"},{"bike_id":"8448ca3d-ae76-48a9-8dde-7ff7fdfb58f7","system_id":"levelo_inurba_marseille","lat":43.26687,"lon":5.38268,"is_reserved":false,"is_disabled":false,"rental_uris":{"android":"levelo://app?vid=8448ca3d-ae76-48a9-8dde-7ff7fdfb58f7","ios":"levelo://app?vid=8448ca3d-ae76-48a9-8dde-7ff7fdfb58f7"},"vehicle_type_id":"4","last_reported":1781286242,"current_range_meters":2800,"station_id":"ce4bhg92rcd13ifvqf90","pricing_plan_id":"cebpf4jnsgd1na2vs0mg"},{"bike_id":"643a5108-6712-460c-84ac-96a9e310c2a1","system_id":"levelo_inurba_marseille","lat":43.32335,"lon":5.36766,"is_reserved":false,"is_disabled":false,"rental_uris":{"android":"levelo://app?vid=643a5108-6712-460c-84ac-96a9e310c2a1","ios":"levelo://app?vid=643a5108-6712-460c-84ac-96a9e310c2a1"},"vehicle_type_id":"4","last_reported":1781286242,"current_range_meters":3200,"station_id":"","pricing_plan_id":"cebpf4jnsgd1na2vs0mg"},{"bike_id":"54ac147b-cd0e-43cd-a3b6-a9ab0241aa4e","system_id":"levelo_inurba_marseille","lat":43.29206,"lon":5.39312,"is_reserved":false,"is_disabled":false,"rental_uris":{"android":"levelo://app?vid=54ac147b-cd0e-43cd-a3b6-a9ab0241aa4e","ios":"levelo://app?vid=54ac147b-cd0e-43cd-a3b6-a9ab0241aa4e"},"vehicle_type_id":"4","last_reported":1781286242,"current_range_meters":3200,"station_id":"ce4bh192rcd13ifvqdd0","pricing_plan_id":"cebpf4jnsgd1na2vs0mg"},{"bike_id":"0a743a51-5728-422c-8a96-f69476a8f4cb","system_id":"levelo_inurba_marseille","lat":43.2762,"lon":5.36103,"is_reserved":false,"is_disabled":true,"rental_uris":{"android":"levelo://app?vid=0a743a51-5728-422c-8a96-f69476a8f4cb","ios":"levelo://app?vid=0a743a51-5728-422c-8a96-f69476a8f4cb"},"vehicle_type_id":"4","last_reported":1781286242,"current_range_meters":3200,"station_id":"ce4bgj92rcd13ifvqbe0","pricing_plan_id":"cebpf4jnsgd1na2vs0mg"},{"bike_id":"748da606-1c5d-4916-bda7-fda187b6b02b","system_id":"levelo_inurba_marseille","lat":43.29041,"lon":5.37567,"is_reserved":false,"is_disabled":false,"rental_uris":{"android":"levelo://app?vid=748da606-1c5d-4916-bda7-fda187b6b02b","ios":"levelo://app?vid=748da606-1c5d-4916-bda7-fda187b6b02b"},"vehicle_type_id":"4","last_reported":1781286242,"current_range_meters":3200,"station_id":"ce4bh692rcd13ifvqe90","pricing_plan_id":"cebpf4jnsgd1na2vs0mg"},{"bike_id":"f26a2082-6bda-400d-b2fe-dcf8220c59c9","system_id":"levelo_inurba_marseille","lat":43.26332,"lon":5.37826,"is_reserved":false,"is_disabled":false,"rental_uris":{"android":"levelo://app?vid=f26a2082-6bda-400d-b2fe-dcf8220c59c9","ios":"levelo://app?vid=f26a2082-6bda-400d-b2fe-dcf8220c59c9"},"vehicle_type_id":"4","last_reported":1781286242,"current_range_meters":3200,"station_id":"","pricing_plan_id":"cebpf4jnsgd1na2vs0mg"},{"bike_id":"0ac5c6b2-f7b6-4657-8a40-bf1156a6f306","system_id":"levelo_inurba_marseille","lat":43.23799,"lon":5.36629,"is_reserved":false,"is_disabled":false,"rental_uris":{"android":"levelo://app?vid=0ac5c6b2-f7b6-4657-8a40-bf1156a6f306","ios":"levelo://app?vid=0ac5c6b2-f7b6-4657-8a40-bf1156a6f306"},"vehicle_type_id":"4","last_reported":1781286242,"current_range_meters":3200,"station_id":"st_d3nk18o9ro0c73en2l3g","pricing_plan_id":"cebpf4jnsgd1na2vs0mg"},{"bike_id":"7d670955-2936-440c-bd70-613ec77c1cc0","system_id":"levelo_inurba_marseille","lat":43.2623,"lon":5.37456,"is_reserved":false,"is_disabled":true,"rental_uris":{"android":"levelo://app?vid=7d670955-2936-440c-bd70-613ec77c1cc0","ios":"levelo://app?vid=7d670955-2936-440c-bd70-613ec77c1cc0"},"vehicle_type_id":"4","last_reported":1781286242,"current_range_meters":3200,"station_id":"","pricing_plan_id":"cebpf4jnsgd1na2vs0mg"},{"bike_id":"5ac28b06-af05-4d8b-a509-2f5043908588","system_id":"levelo_inurba_marseille","lat":43.23459,"lon":5.36833,"is_reserved":false,"is_disabled":false,"rental_uris":{"android":"levelo://app?vid=5ac28b06-af05-4d8b-a509-2f5043908588","ios":"levelo://app?vid=5ac28b06-af05-4d8b-a509-2f5043908588"},"vehicle_type_id":"4","last_reported":1781286242,"current_range_meters":3200,"station_id":"","pricing_plan_id":"cebpf4jnsgd1na2vs0mg"},{"bike_id":"17be60fe-ff7f-4ced-b2c5-f100be112574","system_id":"levelo_inurba_marseille","lat":43.31352,"lon":5.38492,"is_reserved":false,"is_disabled":true,"rental_uris":{"android":"levelo://app?vid=17be60fe-ff7f-4ced-b2c5-f100be112574","ios":"levelo://app?vid=17be60fe-ff7f-4ced-b2c5-f100be112574"},"vehicle_type_id":"4","last_reported":1781286242,"current_range_meters":3200,"station_id":"ce4bgt92rcd13ifvqcf0","pricing_plan_id":"cebpf4jnsgd1na2vs0mg"},{"bike_id":"dd8f2fa1-b5da-4cef-87c9-29d3b1051138","system_id":"levelo_inurba_marseille","lat":43.2567,"lon":5.42729,"is_reserved":false,"is_disabled":false,"rental_uris":{"android":"levelo://app?vid=dd8f2fa1-b5da-4cef-87c9-29d3b1051138","ios":"levelo://app?vid=dd8f2fa1-b5da-4cef-87c9-29d3b1051138"},"vehicle_type_id":"4","last_reported":1781286242,"current_range_meters":3200,"station_id":"","pricing_plan_id":"cebpf4jnsgd1na2vs0mg"},{"bike_id":"a0bac9f9-014c-4d6d-972e-f69e74bd1d75","system_id":"levelo_inurba_marseille","lat":43.29538,"lon":5.37496,"is_reserved":false,"is_disabled":false,"rental_uris":{"android":"levelo://app?vid=a0bac9f9-014c-4d6d-972e-f69e74bd1d75","ios":"levelo://app?vid=a0bac9f9-014c-4d6d-972e-f69e74bd1d75"},"vehicle_type_id":"4","last_reported":1781286242,"current_range_meters":3200,"station_id":"ce4bgkp2rcd13ifvqbmg","pricing_plan_id":"cebpf4jnsgd1na2vs0mg"},{"bike_id":"8c21fce1-6e07-4128-8baa-cf699f037ae1","system_id":"levelo_inurba_marseille","lat":43.264823,"lon":5.395559,"is_reserved":false,"is_disabled":false,"rental_uris":{"android":"levelo://app?vid=8c21fce1-6e07-4128-8baa-cf699f037ae1","ios":"levelo://app?vid=8c21fce1-6e07-4128-8baa-cf699f037ae1"},"vehicle_type_id":"4","last_reported":1781286242,"current_range_meters":3200,"station_id":"ce4bhi12rcd13ifvqfq0","pricing_plan_id":"cebpf4jnsgd1na2vs0mg"},{"bike_id":"758b8575-bd39-4c4b-83ba-b708bb22f91d","system_id":"levelo_inurba_marseille","lat":43.27551,"lon":5.35935,"is_reserved":false,"is_disabled":false,"rental_uris":{"android":"levelo://app?vid=758b8575-bd39-4c4b-83ba-b708bb22f91d","ios":"levelo://app?vid=758b8575-bd39-4c4b-83ba-b708bb22f91d"},"vehicle_type_id":"4","last_reported":1781286242,"current_range_meters":3200,"station_id":"","pricing_plan_id":"cebpf4jnsgd1na2vs0mg"},{"bike_id":"9d264681-f3b5-4feb-9012-7e44df717ee3","system_id":"levelo_inurba_marseille","lat":43.286672,"lon":5.386523,"is_reserved":false,"is_disabled":false,"rental_uris":{"android":"levelo://app?vid=9d264681-f3b5-4feb-9012-7e44df717ee3","ios":"levelo://app?vid=9d264681-f3b5-4feb-9012-7e44df717ee3"},"vehicle_type_id":"4","last_reported":1781286242,"current_range_meters":3200,"station_id":"ce4bh492rcd13ifvqdug","pricing_plan_id":"cebpf4jnsgd1na2vs0mg"},{"bike_id":"7cfb8da4-907d-49b4-be83-be3cce963027","system_id":"levelo_inurba_marseille","lat":43.27809,"lon":5.40711,"is_reserved":false,"is_disabled":false,"rental_uris":{"android":"levelo://app?vid=7cfb8da4-907d-49b4-be83-be3cce963027","ios":"levelo://app?vid=7cfb8da4-907d-49b4-be83-be3cce963027"},"vehicle_type_id":"4","last_reported":1781286242,"current_range_meters":3200,"station_id":"ce4bhnh2rcd13ifvqgtg","pricing_plan_id":"cebpf4jnsgd1na2vs0mg"},{"bike_id":"a7e75669-ca43-4a43-a3a0-c8103f10f897","system_id":"levelo_inurba_marseille","lat":43.26684,"lon":5.382748,"is_reserved":false,"is_disabled":false,"rental_uris":{"android":"levelo://app?vid=a7e75669-ca43-4a43-a3a0-c8103f10f897","ios":"levelo://app?vid=a7e75669-ca43-4a43-a3a0-c8103f10f897"},"vehicle_type_id":"4","last_reported":1781286242,"current_range_meters":3200,"station_id":"ce4bhg92rcd13ifvqf90","pricing_plan_id":"cebpf4jnsgd1na2vs0mg"},{"bike_id":"8682f4e8-0798-4b4f-8fef-c4dc002ea1c8","system_id":"levelo_inurba_marseille","lat":43.29157,"lon":5.46118,"is_reserved":false,"is_disabled":false,"rental_uris":{"android":"levelo://app?vid=8682f4e8-0798-4b4f-8fef-c4dc002ea1c8","ios":"levelo://app?vid=8682f4e8-0798-4b4f-8fef-c4dc002ea1c8"},"vehicle_type_id":"4","last_reported":1781286242,"current_range_meters":3200,"station_id":"","pricing_plan_id":"cebpf4jnsgd1na2vs0mg"},{"bike_id":"a5f4887e-abf0-46d1-8e75-2a4387c50e42","system_id":"levelo_inurba_marseille","lat":43.30289,"lon":5.37249,"is_reserved":false,"is_disabled":false,"rental_uris":{"android":"levelo://app?vid=a5f4887e-abf0-46d1-8e75-2a4387c50e42","ios":"levelo://app?vid=a5f4887e-abf0-46d1-8e75-2a4387c50e42"},"vehicle_type_id":"4","last_reported":1781286242,"current_range_meters":3200,"station_id":"","pricing_plan_id":"cebpf4jnsgd1na2vs0mg"},{"bike_id":"75248494-6e46-4c4b-92d2-9db9ddbe9016","system_id":"levelo_inurba_marseille","lat":43.28477,"lon":5.48394,"is_reserved":false,"is_disabled":false,"rental_uris":{"android":"levelo://app?vid=75248494-6e46-4c4b-92d2-9db9ddbe9016","ios":"levelo://app?vid=75248494-6e46-4c4b-92d2-9db9ddbe9016"},"vehicle_type_id":"4","last_reported":1781286242,"current_range_meters":3200,"station_id":"st_d3svhcjqgbts73a3dn0g","pricing_plan_id":"cebpf4jnsgd1na2vs0mg"},{"bike_id":"93ba7387-f1c6-4535-a57c-4981e924a0e5","system_id":"levelo_inurba_marseille","lat":43.29626,"lon":5.37153,"is_reserved":false,"is_disabled":false,"rental_uris":{"android":"levelo://app?vid=93ba7387-f1c6-4535-a57c-4981e924a0e5","ios":"levelo://app?vid=93ba7387-f1c6-4535-a57c-4981e924a0e5"},"vehicle_type_id":"4","last_reported":1781286242,"current_range_meters":3200,"station_id":"ce4bgnh2rcd13ifvqc0g","pricing_plan_id":"cebpf4jnsgd1na2vs0mg"},{"bike_id":"8d02d15a-ea3a-470c-9544-c446a08da46e","system_id":"levelo_inurba_marseille","lat":43.28469,"lon":5.3587,"is_reserved":false,"is_disabled":false,"rental_uris":{"android":"levelo://app?vid=8d02d15a-ea3a-470c-9544-c446a08da46e","ios":"levelo://app?vid=8d02d15a-ea3a-470c-9544-c446a08da46e"},"vehicle_type_id":"4","last_reported":1781286242,"current_range_meters":3600,"station_id":"ce4bhah2rcd13ifvqei0","pricing_plan_id":"cebpf4jnsgd1na2vs0mg"},{"bike_id":"2e41d0d3-9e86-4c08-89a6-e0a70cc8ae89","system_id":"levelo_inurba_marseille","lat":43.29248,"lon":5.38251,"is_reserved":false,"is_disabled":true,"rental_uris":{"android":"levelo://app?vid=2e41d0d3-9e86-4c08-89a6-e0a70cc8ae89","ios":"levelo://app?vid=2e41d0d3-9e86-4c08-89a6-e0a70cc8ae89"},"vehicle_type_id":"4","last_reported":1781286242,"current_range_meters":3600,"station_id":"","pricing_plan_id":"cebpf4jnsgd1na2vs0mg"},{"bike_id":"3e28917f-12dd-4b37-af94-6f348c8b7c68","system_id":"levelo_inurba_marseille","lat":43.25577,"lon":5.38215,"is_reserved":false,"is_disabled":true,"rental_uris":{"android":"levelo://app?vid=3e28917f-12dd-4b37-af94-6f348c8b7c68","ios":"levelo://app?vid=3e28917f-12dd-4b37-af94-6f348c8b7c68"},"vehicle_type_id":"4","last_reported":1781286242,"current_range_meters":3600,"station_id":"ce4bhih2rcd13ifvqfs0","pricing_plan_id":"cebpf4jnsgd1na2vs0mg"},{"bike_id":"2b93ae1e-aed2-4f09-a1d5-207d27d2dd0d","system_id":"levelo_inurba_marseille","lat":43.2447,"lon":5.42522,"is_reserved":false,"is_disabled":false,"rental_uris":{"android":"levelo://app?vid=2b93ae1e-aed2-4f09-a1d5-207d27d2dd0d","ios":"levelo://app?vid=2b93ae1e-aed2-4f09-a1d5-207d27d2dd0d"},"vehicle_type_id":"4","last_reported":1781286242,"current_range_meters":3600,"station_id":"st_d4a3vfp97mjs738cd8kg","pricing_plan_id":"cebpf4jnsgd1na2vs0mg"},{"bike_id":"bdb479c4-980c-472e-b4a9-453ed880a6ea","system_id":"levelo_inurba_marseille","lat":43.28619,"lon":5.3511,"is_reserved":false,"is_disabled":false,"rental_uris":{"android":"levelo://app?vid=bdb479c4-980c-472e-b4a9-453ed880a6ea","ios":"levelo://app?vid=bdb479c4-980c-472e-b4a9-453ed880a6ea"},"vehicle_type_id":"4","last_reported":1781286242,"current_range_meters":3600,"station_id":"ce4bhch2rcd13ifvqeug","pricing_plan_id":"cebpf4jnsgd1na2vs0mg"},{"bike_id":"39008bdd-ec06-4509-aef5-6005174c0c03","system_id":"levelo_inurba_marseille","lat":43.28004,"lon":5.38457,"is_reserved":false,"is_disabled":false,"rental_uris":{"android":"levelo://app?vid=39008bdd-ec06-4509-aef5-6005174c0c03","ios":"levelo://app?vid=39008bdd-ec06-4509-aef5-6005174c0c03"},"vehicle_type_id":"4","last_reported":1781286242,"current_range_meters":3600,"station_id":"","pricing_plan_id":"cebpf4jnsgd1na2vs0mg"},{"bike_id":"a7035cfa-2cad-4a3c-b6b7-082bb42a565d","system_id":"levelo_inurba_marseille","lat":43.24804,"lon":5.37507,"is_reserved":false,"is_disabled":false,"rental_uris":{"android":"levelo://app?vid=a7035cfa-2cad-4a3c-b6b7-082bb42a565d","ios":"levelo://app?vid=a7035cfa-2cad-4a3c-b6b7-082bb42a565d"},"vehicle_type_id":"4","last_reported":1781286242,"current_range_meters":3600,"station_id":"","pricing_plan_id":"cebpf4jnsgd1na2vs0mg"},{"bike_id":"8859d173-9f5d-4e39-86ed-34ec86a90175","system_id":"levelo_inurba_marseille","lat":43.29915,"lon":5.42781,"is_reserved":false,"is_disabled":false,"rental_uris":{"android":"levelo://app?vid=8859d173-9f5d-4e39-86ed-34ec86a90175","ios":"levelo://app?vid=8859d173-9f5d-4e39-86ed-34ec86a90175"},"vehicle_type_id":"4","last_reported":1781286242,"current_range_meters":3600,"station_id":"","pricing_plan_id":"cebpf4jnsgd1na2vs0mg"},{"bike_id":"4e0b615e-312c-4057-9a07-9db50c738a53","system_id":"levelo_inurba_marseille","lat":43.28671,"lon":5.36356,"is_reserved":false,"is_disabled":true,"rental_uris":{"android":"levelo://app?vid=4e0b615e-312c-4057-9a07-9db50c738a53","ios":"levelo://app?vid=4e0b615e-312c-4057-9a07-9db50c738a53"},"vehicle_type_id":"4","last_reported":1781286242,"current_range_meters":3600,"station_id":"ce4bhah2rcd13ifvqej0","pricing_plan_id":"cebpf4jnsgd1na2vs0mg"},{"bike_id":"d5e91ba6-8621-45a6-95d8-fcabc26552df","system_id":"levelo_inurba_marseille","lat":43.30805,"lon":5.38159,"is_reserved":false,"is_disabled":false,"rental_uris":{"android":"levelo://app?vid=d5e91ba6-8621-45a6-95d8-fcabc26552df","ios":"levelo://app?vid=d5e91ba6-8621-45a6-95d8-fcabc26552df"},"vehicle_type_id":"4","last_reported":1781286242,"current_range_meters":3600,"station_id":"ce4bgt12rcd13ifvqce0","pricing_plan_id":"cebpf4jnsgd1na2vs0mg"},{"bike_id":"2507d607-3822-4c87-a669-ab9b0690fc01","system_id":"levelo_inurba_marseille","lat":43.28607,"lon":5.351,"is_reserved":false,"is_disabled":false,"rental_uris":{"android":"levelo://app?vid=2507d607-3822-4c87-a669-ab9b0690fc01","ios":"levelo://app?vid=2507d607-3822-4c87-a669-ab9b0690fc01"},"vehicle_type_id":"4","last_reported":1781286242,"current_range_meters":3600,"station_id":"ce4bhch2rcd13ifvqeug","pricing_plan_id":"cebpf4jnsgd1na2vs0mg"},{"bike_id":"2fe78ccb-070f-432a-a7e8-216efa06d701","system_id":"levelo_inurba_marseille","lat":43.28582,"lon":5.42984,"is_reserved":false,"is_disabled":false,"rental_uris":{"android":"levelo://app?vid=2fe78ccb-070f-432a-a7e8-216efa06d701","ios":"levelo://app?vid=2fe78ccb-070f-432a-a7e8-216efa06d701"},"vehicle_type_id":"4","last_reported":1781286242,"current_range_meters":3600,"station_id":"","pricing_plan_id":"cebpf4jnsgd1na2vs0mg"},{"bike_id":"5ef7a06a-43b6-4680-b83a-e7a9c3f60462","system_id":"levelo_inurba_marseille","lat":43.30938,"lon":5.40136,"is_reserved":false,"is_disabled":false,"rental_uris":{"android":"levelo://app?vid=5ef7a06a-43b6-4680-b83a-e7a9c3f60462","ios":"levelo://app?vid=5ef7a06a-43b6-4680-b83a-e7a9c3f60462"},"vehicle_type_id":"4","last_reported":1781286242,"current_range_meters":3600,"station_id":"ce4bgvp2rcd13ifvqct0","pricing_plan_id":"cebpf4jnsgd1na2vs0mg"},{"bike_id":"32e65dbb-64c4-4911-9176-a4e011b0a593","system_id":"levelo_inurba_marseille","lat":43.28654,"lon":5.42648,"is_reserved":false,"is_disabled":false,"rental_uris":{"android":"levelo://app?vid=32e65dbb-64c4-4911-9176-a4e011b0a593","ios":"levelo://app?vid=32e65dbb-64c4-4911-9176-a4e011b0a593"},"vehicle_type_id":"4","last_reported":1781286242,"current_range_meters":3600,"station_id":"","pricing_plan_id":"cebpf4jnsgd1na2vs0mg"},{"bike_id":"c8c3b0a2-739e-43d6-b1ea-626ed4dc09a8","system_id":"levelo_inurba_marseille","lat":43.28415,"lon":5.3499,"is_reserved":false,"is_disabled":false,"rental_uris":{"android":"levelo://app?vid=c8c3b0a2-739e-43d6-b1ea-626ed4dc09a8","ios":"levelo://app?vid=c8c3b0a2-739e-43d6-b1ea-626ed4dc09a8"},"vehicle_type_id":"4","last_reported":1781286242,"current_range_meters":3600,"station_id":"ce4bhbh2rcd13ifvqepg","pricing_plan_id":"cebpf4jnsgd1na2vs0mg"},{"bike_id":"d9098f09-dccb-4aaa-9ac4-b26f592ad6e0","system_id":"levelo_inurba_marseille","lat":43.23898,"lon":5.37459,"is_reserved":false,"is_disabled":false,"rental_uris":{"android":"levelo://app?vid=d9098f09-dccb-4aaa-9ac4-b26f592ad6e0","ios":"levelo://app?vid=d9098f09-dccb-4aaa-9ac4-b26f592ad6e0"},"vehicle_type_id":"4","last_reported":1781286242,"current_range_meters":3600,"station_id":"st_d6sm7csbq4hs73f8fpjg","pricing_plan_id":"cebpf4jnsgd1na2vs0mg"},{"bike_id":"c64f3337-7caa-480a-be6c-ddd9e5ea1e15","system_id":"levelo_inurba_marseille","lat":43.24391,"lon":5.37061,"is_reserved":false,"is_disabled":false,"rental_uris":{"android":"levelo://app?vid=c64f3337-7caa-480a-be6c-ddd9e5ea1e15","ios":"levelo://app?vid=c64f3337-7caa-480a-be6c-ddd9e5ea1e15"},"vehicle_type_id":"4","last_reported":1781286242,"current_range_meters":3600,"station_id":"ce4bhhh2rcd13ifvqfk0","pricing_plan_id":"cebpf4jnsgd1na2vs0mg"},{"bike_id":"124c6725-3644-47a3-b27d-0314be16912d","system_id":"levelo_inurba_marseille","lat":43.29203,"lon":5.35791,"is_reserved":false,"is_disabled":false,"rental_uris":{"android":"levelo://app?vid=124c6725-3644-47a3-b27d-0314be16912d","ios":"levelo://app?vid=124c6725-3644-47a3-b27d-0314be16912d"},"vehicle_type_id":"4","last_reported":1781286242,"current_range_meters":3600,"station_id":"ce4bhb12rcd13ifvqel0","pricing_plan_id":"cebpf4jnsgd1na2vs0mg"},{"bike_id":"5dbedfae-cf6e-462c-abe0-f2f94885b66d","system_id":"levelo_inurba_marseille","lat":43.27899,"lon":5.38013,"is_reserved":false,"is_disabled":false,"rental_uris":{"android":"levelo://app?vid=5dbedfae-cf6e-462c-abe0-f2f94885b66d","ios":"levelo://app?vid=5dbedfae-cf6e-462c-abe0-f2f94885b66d"},"vehicle_type_id":"4","last_reported":1781286242,"current_range_meters":3600,"station_id":"ce4bhf92rcd13ifvqf50","pricing_plan_id":"cebpf4jnsgd1na2vs0mg"},{"bike_id":"02779e87-7950-4b3e-a0cb-69ad55469255","system_id":"levelo_inurba_marseille","lat":43.309,"lon":5.38271,"is_reserved":false,"is_disabled":false,"rental_uris":{"android":"levelo://app?vid=02779e87-7950-4b3e-a0cb-69ad55469255","ios":"levelo://app?vid=02779e87-7950-4b3e-a0cb-69ad55469255"},"vehicle_type_id":"4","last_reported":1781286242,"current_range_meters":3600,"station_id":"","pricing_plan_id":"cebpf4jnsgd1na2vs0mg"},{"bike_id":"26ec08c6-0088-4574-b89f-579ba5665af6","system_id":"levelo_inurba_marseille","lat":43.26683,"lon":5.38264,"is_reserved":false,"is_disabled":false,"rental_uris":{"android":"levelo://app?vid=26ec08c6-0088-4574-b89f-579ba5665af6","ios":"levelo://app?vid=26ec08c6-0088-4574-b89f-579ba5665af6"},"vehicle_type_id":"4","last_reported":1781286242,"current_range_meters":3600,"station_id":"ce4bhg92rcd13ifvqf90","pricing_plan_id":"cebpf4jnsgd1na2vs0mg"},{"bike_id":"80be3ff1-4a45-4df4-ac31-8c9a059b8d40","system_id":"levelo_inurba_marseille","lat":43.26704,"lon":5.38247,"is_reserved":false,"is_disabled":false,"rental_uris":{"android":"levelo://app?vid=80be3ff1-4a45-4df4-ac31-8c9a059b8d40","ios":"levelo://app?vid=80be3ff1-4a45-4df4-ac31-8c9a059b8d40"},"vehicle_type_id":"4","last_reported":1781286242,"current_range_meters":3600,"station_id":"ce4bhg92rcd13ifvqf90","pricing_plan_id":"cebpf4jnsgd1na2vs0mg"},{"bike_id":"01aba978-2b0d-48ac-83cb-dbf9c6c59825","system_id":"levelo_inurba_marseille","lat":43.28642,"lon":5.35135,"is_reserved":false,"is_disabled":false,"rental_uris":{"android":"levelo://app?vid=01aba978-2b0d-48ac-83cb-dbf9c6c59825","ios":"levelo://app?vid=01aba978-2b0d-48ac-83cb-dbf9c6c59825"},"vehicle_type_id":"4","last_reported":1781286242,"current_range_meters":4000,"station_id":"ce4bhch2rcd13ifvqeug","pricing_plan_id":"cebpf4jnsgd1na2vs0mg"},{"bike_id":"cfca987a-456e-47df-a095-b63382c88e43","system_id":"levelo_inurba_marseille","lat":43.23202,"lon":5.35545,"is_reserved":false,"is_disabled":false,"rental_uris":{"android":"levelo://app?vid=cfca987a-456e-47df-a095-b63382c88e43","ios":"levelo://app?vid=cfca987a-456e-47df-a095-b63382c88e43"},"vehicle_type_id":"4","last_reported":1781286242,"current_range_meters":4000,"station_id":"ce4bhu92rcd13ifvqi70","pricing_plan_id":"cebpf4jnsgd1na2vs0mg"},{"bike_id":"2a192182-021b-439d-a0e2-993561972500","system_id":"levelo_inurba_marseille","lat":43.225345,"lon":5.348271,"is_reserved":false,"is_disabled":false,"rental_uris":{"android":"levelo://app?vid=2a192182-021b-439d-a0e2-993561972500","ios":"levelo://app?vid=2a192182-021b-439d-a0e2-993561972500"},"vehicle_type_id":"4","last_reported":1781286242,"current_range_meters":4000,"station_id":"st_cvj5dfep6f1abm77gieg","pricing_plan_id":"cebpf4jnsgd1na2vs0mg"},{"bike_id":"40877921-cf64-4231-b6a7-7f65220da3fe","system_id":"levelo_inurba_marseille","lat":43.29603,"lon":5.38092,"is_reserved":false,"is_disabled":true,"rental_uris":{"android":"levelo://app?vid=40877921-cf64-4231-b6a7-7f65220da3fe","ios":"levelo://app?vid=40877921-cf64-4231-b6a7-7f65220da3fe"},"vehicle_type_id":"4","last_reported":1781286242,"current_range_meters":4000,"station_id":"ce4bgl12rcd13ifvqbo0","pricing_plan_id":"cebpf4jnsgd1na2vs0mg"},{"bike_id":"17a6d787-231b-4846-9740-f020b945cc47","system_id":"levelo_inurba_marseille","lat":43.29424,"lon":5.41324,"is_reserved":false,"is_disabled":false,"rental_uris":{"android":"levelo://app?vid=17a6d787-231b-4846-9740-f020b945cc47","ios":"levelo://app?vid=17a6d787-231b-4846-9740-f020b945cc47"},"vehicle_type_id":"4","last_reported":1781286242,"current_range_meters":4000,"station_id":"","pricing_plan_id":"cebpf4jnsgd1na2vs0mg"},{"bike_id":"3643eb2e-b0e4-40f6-9aa2-b567c4963540","system_id":"levelo_inurba_marseille","lat":43.32112,"lon":5.36765,"is_reserved":false,"is_disabled":false,"rental_uris":{"android":"levelo://app?vid=3643eb2e-b0e4-40f6-9aa2-b567c4963540","ios":"levelo://app?vid=3643eb2e-b0e4-40f6-9aa2-b567c4963540"},"vehicle_type_id":"4","last_reported":1781286242,"current_range_meters":4000,"station_id":"ce4bhrh2rcd13ifvqhug","pricing_plan_id":"cebpf4jnsgd1na2vs0mg"},{"bike_id":"0b3a6faf-bd02-47a4-a0db-0be0814fdd58","system_id":"levelo_inurba_marseille","lat":43.311197,"lon":5.377762,"is_reserved":false,"is_disabled":false,"rental_uris":{"android":"levelo://app?vid=0b3a6faf-bd02-47a4-a0db-0be0814fdd58","ios":"levelo://app?vid=0b3a6faf-bd02-47a4-a0db-0be0814fdd58"},"vehicle_type_id":"4","last_reported":1781286242,"current_range_meters":4000,"station_id":"ce4bgt92rcd13ifvqcg0","pricing_plan_id":"cebpf4jnsgd1na2vs0mg"},{"bike_id":"86980992-c341-4d42-9003-5f417602c220","system_id":"levelo_inurba_marseille","lat":43.29599,"lon":5.37987,"is_reserved":false,"is_disabled":false,"rental_uris":{"android":"levelo://app?vid=86980992-c341-4d42-9003-5f417602c220","ios":"levelo://app?vid=86980992-c341-4d42-9003-5f417602c220"},"vehicle_type_id":"4","last_reported":1781286242,"current_range_meters":4000,"station_id":"","pricing_plan_id":"cebpf4jnsgd1na2vs0mg"},{"bike_id":"f63e0e69-6a54-4e19-8d8e-f67680de3ed1","system_id":"levelo_inurba_marseille","lat":43.24636,"lon":5.43142,"is_reserved":false,"is_disabled":false,"rental_uris":{"android":"levelo://app?vid=f63e0e69-6a54-4e19-8d8e-f67680de3ed1","ios":"levelo://app?vid=f63e0e69-6a54-4e19-8d8e-f67680de3ed1"},"vehicle_type_id":"4","last_reported":1781286242,"current_range_meters":4000,"station_id":"st_d2m6c4gdas8pm72e190g","pricing_plan_id":"cebpf4jnsgd1na2vs0mg"},{"bike_id":"f14da260-2c61-4464-ac52-b062468f50d4","system_id":"levelo_inurba_marseille","lat":43.2866,"lon":5.36366,"is_reserved":false,"is_disabled":false,"rental_uris":{"android":"levelo://app?vid=f14da260-2c61-4464-ac52-b062468f50d4","ios":"levelo://app?vid=f14da260-2c61-4464-ac52-b062468f50d4"},"vehicle_type_id":"4","last_reported":1781286242,"current_range_meters":4000,"station_id":"ce4bhah2rcd13ifvqej0","pricing_plan_id":"cebpf4jnsgd1na2vs0mg"},{"bike_id":"40de0209-043c-4ed6-84c3-7ac1da5cf58d","system_id":"levelo_inurba_marseille","lat":43.32104,"lon":5.36771,"is_reserved":false,"is_disabled":false,"rental_uris":{"android":"levelo://app?vid=40de0209-043c-4ed6-84c3-7ac1da5cf58d","ios":"levelo://app?vid=40de0209-043c-4ed6-84c3-7ac1da5cf58d"},"vehicle_type_id":"4","last_reported":1781286242,"current_range_meters":4000,"station_id":"ce4bhrh2rcd13ifvqhug","pricing_plan_id":"cebpf4jnsgd1na2vs0mg"},{"bike_id":"aa759c0a-4a45-49b4-a6a0-7839df0e1a0a","system_id":"levelo_inurba_marseille","lat":43.30135,"lon":5.39852,"is_reserved":false,"is_disabled":false,"rental_uris":{"android":"levelo://app?vid=aa759c0a-4a45-49b4-a6a0-7839df0e1a0a","ios":"levelo://app?vid=aa759c0a-4a45-49b4-a6a0-7839df0e1a0a"},"vehicle_type_id":"4","last_reported":1781286242,"current_range_meters":4000,"station_id":"ce4bh0h2rcd13ifvqd40","pricing_plan_id":"cebpf4jnsgd1na2vs0mg"},{"bike_id":"47c7d08e-d36b-4492-892a-b5fef4180959","system_id":"levelo_inurba_marseille","lat":43.2621,"lon":5.37445,"is_reserved":false,"is_disabled":false,"rental_uris":{"android":"levelo://app?vid=47c7d08e-d36b-4492-892a-b5fef4180959","ios":"levelo://app?vid=47c7d08e-d36b-4492-892a-b5fef4180959"},"vehicle_type_id":"4","last_reported":1781286242,"current_range_meters":4000,"station_id":"ce4bhgp2rcd13ifvqfc0","pricing_plan_id":"cebpf4jnsgd1na2vs0mg"},{"bike_id":"e68fddf3-c826-4b80-8260-df958ad54400","system_id":"levelo_inurba_marseille","lat":43.26399,"lon":5.37813,"is_reserved":false,"is_disabled":false,"rental_uris":{"android":"levelo://app?vid=e68fddf3-c826-4b80-8260-df958ad54400","ios":"levelo://app?vid=e68fddf3-c826-4b80-8260-df958ad54400"},"vehicle_type_id":"4","last_reported":1781286242,"current_range_meters":4000,"station_id":"","pricing_plan_id":"cebpf4jnsgd1na2vs0mg"},{"bike_id":"e8b1befe-ba24-45bb-8862-a4281d443f08","system_id":"levelo_inurba_marseille","lat":43.28418,"lon":5.37502,"is_reserved":false,"is_disabled":false,"rental_uris":{"android":"levelo://app?vid=e8b1befe-ba24-45bb-8862-a4281d443f08","ios":"levelo://app?vid=e8b1befe-ba24-45bb-8862-a4281d443f08"},"vehicle_type_id":"4","last_reported":1781286242,"current_range_meters":4000,"station_id":"ce4bh412rcd13ifvqds0","pricing_plan_id":"cebpf4jnsgd1na2vs0mg"},{"bike_id":"d37ecfca-7855-4731-a043-a670b849b3d1","system_id":"levelo_inurba_marseille","lat":43.30356,"lon":5.41876,"is_reserved":false,"is_disabled":false,"rental_uris":{"android":"levelo://app?vid=d37ecfca-7855-4731-a043-a670b849b3d1","ios":"levelo://app?vid=d37ecfca-7855-4731-a043-a670b849b3d1"},"vehicle_type_id":"4","last_reported":1781286242,"current_range_meters":4000,"station_id":"ce4bhop2rcd13ifvqh7g","pricing_plan_id":"cebpf4jnsgd1na2vs0mg"},{"bike_id":"3371e92b-963a-4ab0-918d-9217e8fd09be","system_id":"levelo_inurba_marseille","lat":43.28386,"lon":5.36743,"is_reserved":false,"is_disabled":false,"rental_uris":{"android":"levelo://app?vid=3371e92b-963a-4ab0-918d-9217e8fd09be","ios":"levelo://app?vid=3371e92b-963a-4ab0-918d-9217e8fd09be"},"vehicle_type_id":"4","last_reported":1781286242,"current_range_meters":4000,"station_id":"","pricing_plan_id":"cebpf4jnsgd1na2vs0mg"},{"bike_id":"3a44773b-a64a-45f6-9197-56969bf49878","system_id":"levelo_inurba_marseille","lat":43.29716,"lon":5.37023,"is_reserved":false,"is_disabled":false,"rental_uris":{"android":"levelo://app?vid=3a44773b-a64a-45f6-9197-56969bf49878","ios":"levelo://app?vid=3a44773b-a64a-45f6-9197-56969bf49878"},"vehicle_type_id":"4","last_reported":1781286242,"current_range_meters":4000,"station_id":"","pricing_plan_id":"cebpf4jnsgd1na2vs0mg"},{"bike_id":"2ca137e5-3ca8-4479-9cac-39265871a0b1","system_id":"levelo_inurba_marseille","lat":43.27896,"lon":5.42477,"is_reserved":false,"is_disabled":false,"rental_uris":{"android":"levelo://app?vid=2ca137e5-3ca8-4479-9cac-39265871a0b1","ios":"levelo://app?vid=2ca137e5-3ca8-4479-9cac-39265871a0b1"},"vehicle_type_id":"4","last_reported":1781286242,"current_range_meters":4000,"station_id":"","pricing_plan_id":"cebpf4jnsgd1na2vs0mg"},{"bike_id":"31d391cf-deb0-4bdc-8122-c7bce88320de","system_id":"levelo_inurba_marseille","lat":43.28469,"lon":5.38413,"is_reserved":false,"is_disabled":false,"rental_uris":{"android":"levelo://app?vid=31d391cf-deb0-4bdc-8122-c7bce88320de","ios":"levelo://app?vid=31d391cf-deb0-4bdc-8122-c7bce88320de"},"vehicle_type_id":"4","last_reported":1781286242,"current_range_meters":4400,"station_id":"ce4bh512rcd13ifvqe3g","pricing_plan_id":"cebpf4jnsgd1na2vs0mg"},{"bike_id":"dadbd07a-5e98-4a0e-ac46-f82bc040d7e0","system_id":"levelo_inurba_marseille","lat":43.28363,"lon":5.38095,"is_reserved":false,"is_disabled":false,"rental_uris":{"android":"levelo://app?vid=dadbd07a-5e98-4a0e-ac46-f82bc040d7e0","ios":"levelo://app?vid=dadbd07a-5e98-4a0e-ac46-f82bc040d7e0"},"vehicle_type_id":"4","last_reported":1781286242,"current_range_meters":4400,"station_id":"ce4bh412rcd13ifvqdr0","pricing_plan_id":"cebpf4jnsgd1na2vs0mg"},{"bike_id":"a163be1b-74e3-46df-b2aa-b846c06a9412","system_id":"levelo_inurba_marseille","lat":43.23783,"lon":5.36626,"is_reserved":false,"is_disabled":false,"rental_uris":{"android":"levelo://app?vid=a163be1b-74e3-46df-b2aa-b846c06a9412","ios":"levelo://app?vid=a163be1b-74e3-46df-b2aa-b846c06a9412"},"vehicle_type_id":"4","last_reported":1781286242,"current_range_meters":4400,"station_id":"st_d3nk18o9ro0c73en2l3g","pricing_plan_id":"cebpf4jnsgd1na2vs0mg"},{"bike_id":"a196289b-2279-4905-bd78-bc72c59688ab","system_id":"levelo_inurba_marseille","lat":43.263421,"lon":5.378191,"is_reserved":false,"is_disabled":false,"rental_uris":{"android":"levelo://app?vid=a196289b-2279-4905-bd78-bc72c59688ab","ios":"levelo://app?vid=a196289b-2279-4905-bd78-bc72c59688ab"},"vehicle_type_id":"4","last_reported":1781286242,"current_range_meters":4400,"station_id":"st_d163nis0mtpqnht9uue0","pricing_plan_id":"cebpf4jnsgd1na2vs0mg"},{"bike_id":"2f009c59-0e0c-443e-982b-ef77b79ea1c3","system_id":"levelo_inurba_marseille","lat":43.29202,"lon":5.35789,"is_reserved":false,"is_disabled":false,"rental_uris":{"android":"levelo://app?vid=2f009c59-0e0c-443e-982b-ef77b79ea1c3","ios":"levelo://app?vid=2f009c59-0e0c-443e-982b-ef77b79ea1c3"},"vehicle_type_id":"4","last_reported":1781286242,"current_range_meters":4400,"station_id":"ce4bhb12rcd13ifvqel0","pricing_plan_id":"cebpf4jnsgd1na2vs0mg"},{"bike_id":"af806581-6c50-4a84-b6af-d146a972066a","system_id":"levelo_inurba_marseille","lat":43.28489,"lon":5.38409,"is_reserved":false,"is_disabled":false,"rental_uris":{"android":"levelo://app?vid=af806581-6c50-4a84-b6af-d146a972066a","ios":"levelo://app?vid=af806581-6c50-4a84-b6af-d146a972066a"},"vehicle_type_id":"4","last_reported":1781286242,"current_range_meters":4400,"station_id":"ce4bh512rcd13ifvqe3g","pricing_plan_id":"cebpf4jnsgd1na2vs0mg"},{"bike_id":"9a2af89d-96ad-4229-a295-5bd6db69a950","system_id":"levelo_inurba_marseille","lat":43.24811,"lon":5.37441,"is_reserved":false,"is_disabled":false,"rental_uris":{"android":"levelo://app?vid=9a2af89d-96ad-4229-a295-5bd6db69a950","ios":"levelo://app?vid=9a2af89d-96ad-4229-a295-5bd6db69a950"},"vehicle_type_id":"4","last_reported":1781286242,"current_range_meters":4400,"station_id":"ce4bhgh2rcd13ifvqfb0","pricing_plan_id":"cebpf4jnsgd1na2vs0mg"},{"bike_id":"8b6b68f1-e508-4aca-8408-2e25b4d6ced5","system_id":"levelo_inurba_marseille","lat":43.21203,"lon":5.35059,"is_reserved":false,"is_disabled":false,"rental_uris":{"android":"levelo://app?vid=8b6b68f1-e508-4aca-8408-2e25b4d6ced5","ios":"levelo://app?vid=8b6b68f1-e508-4aca-8408-2e25b4d6ced5"},"vehicle_type_id":"4","last_reported":1781286242,"current_range_meters":4400,"station_id":"st_cvj6sg6p6f1abm77japg","pricing_plan_id":"cebpf4jnsgd1na2vs0mg"},{"bike_id":"fdc21814-149a-410f-b193-382784505a0f","system_id":"levelo_inurba_marseille","lat":43.23775,"lon":5.3661,"is_reserved":false,"is_disabled":false,"rental_uris":{"android":"levelo://app?vid=fdc21814-149a-410f-b193-382784505a0f","ios":"levelo://app?vid=fdc21814-149a-410f-b193-382784505a0f"},"vehicle_type_id":"4","last_reported":1781286242,"current_range_meters":4400,"station_id":"st_d3nk18o9ro0c73en2l3g","pricing_plan_id":"cebpf4jnsgd1na2vs0mg"},{"bike_id":"b1aeadef-8ee3-480e-b946-1bd43ad1ebd9","system_id":"levelo_inurba_marseille","lat":43.28667,"lon":5.36347,"is_reserved":false,"is_disabled":false,"rental_uris":{"android":"levelo://app?vid=b1aeadef-8ee3-480e-b946-1bd43ad1ebd9","ios":"levelo://app?vid=b1aeadef-8ee3-480e-b946-1bd43ad1ebd9"},"vehicle_type_id":"4","last_reported":1781286242,"current_range_meters":4400,"station_id":"ce4bhah2rcd13ifvqej0","pricing_plan_id":"cebpf4jnsgd1na2vs0mg"},{"bike_id":"31d79e02-28e3-4788-ab27-2e6fc18ff28c","system_id":"levelo_inurba_marseille","lat":43.27377,"lon":5.36249,"is_reserved":false,"is_disabled":false,"rental_uris":{"android":"levelo://app?vid=31d79e02-28e3-4788-ab27-2e6fc18ff28c","ios":"levelo://app?vid=31d79e02-28e3-4788-ab27-2e6fc18ff28c"},"vehicle_type_id":"4","last_reported":1781286242,"current_range_meters":4400,"station_id":"ce4bhbh2rcd13ifvqeo0","pricing_plan_id":"cebpf4jnsgd1na2vs0mg"},{"bike_id":"c145a66a-9323-4cb0-a061-be0ca923f0c5","system_id":"levelo_inurba_marseille","lat":43.27989,"lon":5.40024,"is_reserved":false,"is_disabled":false,"rental_uris":{"android":"levelo://app?vid=c145a66a-9323-4cb0-a061-be0ca923f0c5","ios":"levelo://app?vid=c145a66a-9323-4cb0-a061-be0ca923f0c5"},"vehicle_type_id":"4","last_reported":1781286242,"current_range_meters":4400,"station_id":"ce4bho92rcd13ifvqh4g","pricing_plan_id":"cebpf4jnsgd1na2vs0mg"},{"bike_id":"3eb1ee37-e347-41f2-8d65-873e103ae57e","system_id":"levelo_inurba_marseille","lat":43.2648,"lon":5.395512,"is_reserved":false,"is_disabled":false,"rental_uris":{"android":"levelo://app?vid=3eb1ee37-e347-41f2-8d65-873e103ae57e","ios":"levelo://app?vid=3eb1ee37-e347-41f2-8d65-873e103ae57e"},"vehicle_type_id":"4","last_reported":1781286242,"current_range_meters":4400,"station_id":"ce4bhi12rcd13ifvqfq0","pricing_plan_id":"cebpf4jnsgd1na2vs0mg"},{"bike_id":"088a5444-f5d5-4beb-9db7-274b2519a022","system_id":"levelo_inurba_marseille","lat":43.31883,"lon":5.3999,"is_reserved":false,"is_disabled":false,"rental_uris":{"android":"levelo://app?vid=088a5444-f5d5-4beb-9db7-274b2519a022","ios":"levelo://app?vid=088a5444-f5d5-4beb-9db7-274b2519a022"},"vehicle_type_id":"4","last_reported":1781286242,"current_range_meters":4400,"station_id":"","pricing_plan_id":"cebpf4jnsgd1na2vs0mg"},{"bike_id":"30046d34-eca3-4fba-bf41-b633dac1b4c8","system_id":"levelo_inurba_marseille","lat":43.3186,"lon":5.40004,"is_reserved":false,"is_disabled":false,"rental_uris":{"android":"levelo://app?vid=30046d34-eca3-4fba-bf41-b633dac1b4c8","ios":"levelo://app?vid=30046d34-eca3-4fba-bf41-b633dac1b4c8"},"vehicle_type_id":"4","last_reported":1781286242,"current_range_meters":4400,"station_id":"","pricing_plan_id":"cebpf4jnsgd1na2vs0mg"},{"bike_id":"fe028eff-9f9c-46c5-bc20-3572a5df8a5c","system_id":"levelo_inurba_marseille","lat":43.28861,"lon":5.42517,"is_reserved":false,"is_disabled":false,"rental_uris":{"android":"levelo://app?vid=fe028eff-9f9c-46c5-bc20-3572a5df8a5c","ios":"levelo://app?vid=fe028eff-9f9c-46c5-bc20-3572a5df8a5c"},"vehicle_type_id":"4","last_reported":1781286242,"current_range_meters":4400,"station_id":"st_d3b462108ojc7389ooeg","pricing_plan_id":"cebpf4jnsgd1na2vs0mg"},{"bike_id":"38251a86-39f5-4206-ac7a-c4157105d5f6","system_id":"levelo_inurba_marseille","lat":43.30537,"lon":5.36695,"is_reserved":false,"is_disabled":false,"rental_uris":{"android":"levelo://app?vid=38251a86-39f5-4206-ac7a-c4157105d5f6","ios":"levelo://app?vid=38251a86-39f5-4206-ac7a-c4157105d5f6"},"vehicle_type_id":"4","last_reported":1781286242,"current_range_meters":4800,"station_id":"ce4bgrp2rcd13ifvqc9g","pricing_plan_id":"cebpf4jnsgd1na2vs0mg"},{"bike_id":"b71af7c2-4d98-4630-86ae-a4a165ba23e9","system_id":"levelo_inurba_marseille","lat":43.28868,"lon":5.37656,"is_reserved":false,"is_disabled":false,"rental_uris":{"android":"levelo://app?vid=b71af7c2-4d98-4630-86ae-a4a165ba23e9","ios":"levelo://app?vid=b71af7c2-4d98-4630-86ae-a4a165ba23e9"},"vehicle_type_id":"4","last_reported":1781286242,"current_range_meters":4800,"station_id":"","pricing_plan_id":"cebpf4jnsgd1na2vs0mg"},{"bike_id":"60564d1d-c739-4be7-a235-f9f8962400cd","system_id":"levelo_inurba_marseille","lat":43.29262,"lon":5.37634,"is_reserved":false,"is_disabled":false,"rental_uris":{"android":"levelo://app?vid=60564d1d-c739-4be7-a235-f9f8962400cd","ios":"levelo://app?vid=60564d1d-c739-4be7-a235-f9f8962400cd"},"vehicle_type_id":"4","last_reported":1781286242,"current_range_meters":4800,"station_id":"ce4bgi12rcd13ifvqb80","pricing_plan_id":"cebpf4jnsgd1na2vs0mg"},{"bike_id":"ba4d12c5-a3f3-4b1e-a34c-23903cde8ca5","system_id":"levelo_inurba_marseille","lat":43.2905,"lon":5.35907,"is_reserved":false,"is_disabled":false,"rental_uris":{"android":"levelo://app?vid=ba4d12c5-a3f3-4b1e-a34c-23903cde8ca5","ios":"levelo://app?vid=ba4d12c5-a3f3-4b1e-a34c-23903cde8ca5"},"vehicle_type_id":"4","last_reported":1781286242,"current_range_meters":4800,"station_id":"ce4bha92rcd13ifvqeg0","pricing_plan_id":"cebpf4jnsgd1na2vs0mg"},{"bike_id":"cb4a87f1-ecd2-4522-a840-5c2028883f08","system_id":"levelo_inurba_marseille","lat":43.28622,"lon":5.35081,"is_reserved":false,"is_disabled":false,"rental_uris":{"android":"levelo://app?vid=cb4a87f1-ecd2-4522-a840-5c2028883f08","ios":"levelo://app?vid=cb4a87f1-ecd2-4522-a840-5c2028883f08"},"vehicle_type_id":"4","last_reported":1781286242,"current_range_meters":4800,"station_id":"ce4bhch2rcd13ifvqeug","pricing_plan_id":"cebpf4jnsgd1na2vs0mg"},{"bike_id":"6e9750bb-1b09-41d5-8bdd-a7e9ef2b8c13","system_id":"levelo_inurba_marseille","lat":43.28857,"lon":5.42522,"is_reserved":false,"is_disabled":false,"rental_uris":{"android":"levelo://app?vid=6e9750bb-1b09-41d5-8bdd-a7e9ef2b8c13","ios":"levelo://app?vid=6e9750bb-1b09-41d5-8bdd-a7e9ef2b8c13"},"vehicle_type_id":"4","last_reported":1781286242,"current_range_meters":4800,"station_id":"st_d3b462108ojc7389ooeg","pricing_plan_id":"cebpf4jnsgd1na2vs0mg"},{"bike_id":"0cb4676a-0a6f-46d9-83f2-fc883a559148","system_id":"levelo_inurba_marseille","lat":43.2927,"lon":5.38437,"is_reserved":false,"is_disabled":false,"rental_uris":{"android":"levelo://app?vid=0cb4676a-0a6f-46d9-83f2-fc883a559148","ios":"levelo://app?vid=0cb4676a-0a6f-46d9-83f2-fc883a559148"},"vehicle_type_id":"4","last_reported":1781286242,"current_range_meters":4800,"station_id":"ce4bh692rcd13ifvqea0","pricing_plan_id":"cebpf4jnsgd1na2vs0mg"},{"bike_id":"5c4c7c29-d67c-425c-b25c-05cae9e3f92c","system_id":"levelo_inurba_marseille","lat":43.28486,"lon":5.38412,"is_reserved":false,"is_disabled":true,"rental_uris":{"android":"levelo://app?vid=5c4c7c29-d67c-425c-b25c-05cae9e3f92c","ios":"levelo://app?vid=5c4c7c29-d67c-425c-b25c-05cae9e3f92c"},"vehicle_type_id":"4","last_reported":1781286242,"current_range_meters":4800,"station_id":"ce4bh512rcd13ifvqe3g","pricing_plan_id":"cebpf4jnsgd1na2vs0mg"},{"bike_id":"7f4070df-7386-4b27-8c4b-3a211a258d2d","system_id":"levelo_inurba_marseille","lat":43.27174,"lon":5.40994,"is_reserved":false,"is_disabled":false,"rental_uris":{"android":"levelo://app?vid=7f4070df-7386-4b27-8c4b-3a211a258d2d","ios":"levelo://app?vid=7f4070df-7386-4b27-8c4b-3a211a258d2d"},"vehicle_type_id":"4","last_reported":1781286242,"current_range_meters":4800,"station_id":"ce4bhl12rcd13ifvqgf0","pricing_plan_id":"cebpf4jnsgd1na2vs0mg"},{"bike_id":"f7698676-1932-4dbf-ab9d-6c907c9bbe14","system_id":"levelo_inurba_marseille","lat":43.31886,"lon":5.37143,"is_reserved":false,"is_disabled":false,"rental_uris":{"android":"levelo://app?vid=f7698676-1932-4dbf-ab9d-6c907c9bbe14","ios":"levelo://app?vid=f7698676-1932-4dbf-ab9d-6c907c9bbe14"},"vehicle_type_id":"4","last_reported":1781286242,"current_range_meters":4800,"station_id":"","pricing_plan_id":"cebpf4jnsgd1na2vs0mg"},{"bike_id":"8afeb7a8-b686-4611-8220-2ade2d33c717","system_id":"levelo_inurba_marseille","lat":43.29617,"lon":5.3771,"is_reserved":false,"is_disabled":true,"rental_uris":{"android":"levelo://app?vid=8afeb7a8-b686-4611-8220-2ade2d33c717","ios":"levelo://app?vid=8afeb7a8-b686-4611-8220-2ade2d33c717"},"vehicle_type_id":"4","last_reported":1781286242,"current_range_meters":4800,"station_id":"ce4bgi92rcd13ifvqb90","pricing_plan_id":"cebpf4jnsgd1na2vs0mg"},{"bike_id":"68505647-61dd-45fe-a977-0c2fe591215b","system_id":"levelo_inurba_marseille","lat":43.2558,"lon":5.38224,"is_reserved":false,"is_disabled":false,"rental_uris":{"android":"levelo://app?vid=68505647-61dd-45fe-a977-0c2fe591215b","ios":"levelo://app?vid=68505647-61dd-45fe-a977-0c2fe591215b"},"vehicle_type_id":"4","last_reported":1781286242,"current_range_meters":4800,"station_id":"ce4bhih2rcd13ifvqfs0","pricing_plan_id":"cebpf4jnsgd1na2vs0mg"},{"bike_id":"edd7f6cf-c00d-4334-ba4f-ddda86c6a12e","system_id":"levelo_inurba_marseille","lat":43.30294,"lon":5.377,"is_reserved":false,"is_disabled":false,"rental_uris":{"android":"levelo://app?vid=edd7f6cf-c00d-4334-ba4f-ddda86c6a12e","ios":"levelo://app?vid=edd7f6cf-c00d-4334-ba4f-ddda86c6a12e"},"vehicle_type_id":"4","last_reported":1781286242,"current_range_meters":4800,"station_id":"ce4bguh2rcd13ifvqcj0","pricing_plan_id":"cebpf4jnsgd1na2vs0mg"},{"bike_id":"899fc967-7875-4bbe-9778-4c7d3ea1d62e","system_id":"levelo_inurba_marseille","lat":43.2911,"lon":5.38826,"is_reserved":false,"is_disabled":false,"rental_uris":{"android":"levelo://app?vid=899fc967-7875-4bbe-9778-4c7d3ea1d62e","ios":"levelo://app?vid=899fc967-7875-4bbe-9778-4c7d3ea1d62e"},"vehicle_type_id":"4","last_reported":1781286242,"current_range_meters":4800,"station_id":"","pricing_plan_id":"cebpf4jnsgd1na2vs0mg"},{"bike_id":"2331d896-8747-4223-b60b-a2c36bfe1abf","system_id":"levelo_inurba_marseille","lat":43.27065,"lon":5.42284,"is_reserved":false,"is_disabled":false,"rental_uris":{"android":"levelo://app?vid=2331d896-8747-4223-b60b-a2c36bfe1abf","ios":"levelo://app?vid=2331d896-8747-4223-b60b-a2c36bfe1abf"},"vehicle_type_id":"4","last_reported":1781286242,"current_range_meters":4800,"station_id":"ce4bhk92rcd13ifvqgb0","pricing_plan_id":"cebpf4jnsgd1na2vs0mg"},{"bike_id":"31e2ad24-3edc-483e-9c48-bdf3d89974f0","system_id":"levelo_inurba_marseille","lat":43.28143,"lon":5.38291,"is_reserved":false,"is_disabled":false,"rental_uris":{"android":"levelo://app?vid=31e2ad24-3edc-483e-9c48-bdf3d89974f0","ios":"levelo://app?vid=31e2ad24-3edc-483e-9c48-bdf3d89974f0"},"vehicle_type_id":"4","last_reported":1781286242,"current_range_meters":4800,"station_id":"","pricing_plan_id":"cebpf4jnsgd1na2vs0mg"},{"bike_id":"6308e7e5-495e-4522-8c3d-a46a9f81df87","system_id":"levelo_inurba_marseille","lat":43.290064,"lon":5.356171,"is_reserved":false,"is_disabled":false,"rental_uris":{"android":"levelo://app?vid=6308e7e5-495e-4522-8c3d-a46a9f81df87","ios":"levelo://app?vid=6308e7e5-495e-4522-8c3d-a46a9f81df87"},"vehicle_type_id":"4","last_reported":1781286242,"current_range_meters":4800,"station_id":"ce4bhb92rcd13ifvqen0","pricing_plan_id":"cebpf4jnsgd1na2vs0mg"},{"bike_id":"1a706732-5203-4eb8-9878-0ee7ddc2410a","system_id":"levelo_inurba_marseille","lat":43.26356,"lon":5.37817,"is_reserved":false,"is_disabled":false,"rental_uris":{"android":"levelo://app?vid=1a706732-5203-4eb8-9878-0ee7ddc2410a","ios":"levelo://app?vid=1a706732-5203-4eb8-9878-0ee7ddc2410a"},"vehicle_type_id":"4","last_reported":1781286242,"current_range_meters":4800,"station_id":"st_d163nis0mtpqnht9uue0","pricing_plan_id":"cebpf4jnsgd1na2vs0mg"},{"bike_id":"bffb5bc9-add3-49eb-8545-6c9e27e1c437","system_id":"levelo_inurba_marseille","lat":43.28064,"lon":5.34748,"is_reserved":false,"is_disabled":false,"rental_uris":{"android":"levelo://app?vid=bffb5bc9-add3-49eb-8545-6c9e27e1c437","ios":"levelo://app?vid=bffb5bc9-add3-49eb-8545-6c9e27e1c437"},"vehicle_type_id":"4","last_reported":1781286242,"current_range_meters":5600,"station_id":"","pricing_plan_id":"cebpf4jnsgd1na2vs0mg"},{"bike_id":"c48d0cd6-9afd-4f24-97bc-cfac1a2467e0","system_id":"levelo_inurba_marseille","lat":43.31266,"lon":5.42795,"is_reserved":false,"is_disabled":false,"rental_uris":{"android":"levelo://app?vid=c48d0cd6-9afd-4f24-97bc-cfac1a2467e0","ios":"levelo://app?vid=c48d0cd6-9afd-4f24-97bc-cfac1a2467e0"},"vehicle_type_id":"4","last_reported":1781286242,"current_range_meters":5600,"station_id":"","pricing_plan_id":"cebpf4jnsgd1na2vs0mg"},{"bike_id":"2b24a6be-48d8-46b8-9792-456a997f47f2","system_id":"levelo_inurba_marseille","lat":43.26694,"lon":5.38262,"is_reserved":false,"is_disabled":false,"rental_uris":{"android":"levelo://app?vid=2b24a6be-48d8-46b8-9792-456a997f47f2","ios":"levelo://app?vid=2b24a6be-48d8-46b8-9792-456a997f47f2"},"vehicle_type_id":"4","last_reported":1781286242,"current_range_meters":5600,"station_id":"ce4bhg92rcd13ifvqf90","pricing_plan_id":"cebpf4jnsgd1na2vs0mg"},{"bike_id":"116e7e79-df73-459e-bb6d-922ab4ccb8bd","system_id":"levelo_inurba_marseille","lat":43.21217,"lon":5.35065,"is_reserved":false,"is_disabled":false,"rental_uris":{"android":"levelo://app?vid=116e7e79-df73-459e-bb6d-922ab4ccb8bd","ios":"levelo://app?vid=116e7e79-df73-459e-bb6d-922ab4ccb8bd"},"vehicle_type_id":"4","last_reported":1781286242,"current_range_meters":5600,"station_id":"st_cvj6sg6p6f1abm77japg","pricing_plan_id":"cebpf4jnsgd1na2vs0mg"},{"bike_id":"e0e3cf21-5217-45f7-b35b-50cc9adf67d6","system_id":"levelo_inurba_marseille","lat":43.27608,"lon":5.36111,"is_reserved":false,"is_disabled":false,"rental_uris":{"android":"levelo://app?vid=e0e3cf21-5217-45f7-b35b-50cc9adf67d6","ios":"levelo://app?vid=e0e3cf21-5217-45f7-b35b-50cc9adf67d6"},"vehicle_type_id":"4","last_reported":1781286242,"current_range_meters":5600,"station_id":"ce4bgj92rcd13ifvqbe0","pricing_plan_id":"cebpf4jnsgd1na2vs0mg"},{"bike_id":"b83be4d3-06f4-4b3e-9ba2-a6d47abaf96e","system_id":"levelo_inurba_marseille","lat":43.29265,"lon":5.37624,"is_reserved":false,"is_disabled":true,"rental_uris":{"android":"levelo://app?vid=b83be4d3-06f4-4b3e-9ba2-a6d47abaf96e","ios":"levelo://app?vid=b83be4d3-06f4-4b3e-9ba2-a6d47abaf96e"},"vehicle_type_id":"4","last_reported":1781286242,"current_range_meters":5600,"station_id":"ce4bgi12rcd13ifvqb80","pricing_plan_id":"cebpf4jnsgd1na2vs0mg"},{"bike_id":"87786333-da2e-4c5e-a9a0-63678519a338","system_id":"levelo_inurba_marseille","lat":43.26692,"lon":5.3828,"is_reserved":false,"is_disabled":false,"rental_uris":{"android":"levelo://app?vid=87786333-da2e-4c5e-a9a0-63678519a338","ios":"levelo://app?vid=87786333-da2e-4c5e-a9a0-63678519a338"},"vehicle_type_id":"4","last_reported":1781286242,"current_range_meters":5600,"station_id":"ce4bhg92rcd13ifvqf90","pricing_plan_id":"cebpf4jnsgd1na2vs0mg"},{"bike_id":"318c2327-cd61-4b3a-8efa-5ff92eb9038b","system_id":"levelo_inurba_marseille","lat":43.33096,"lon":5.36629,"is_reserved":false,"is_disabled":false,"rental_uris":{"android":"levelo://app?vid=318c2327-cd61-4b3a-8efa-5ff92eb9038b","ios":"levelo://app?vid=318c2327-cd61-4b3a-8efa-5ff92eb9038b"},"vehicle_type_id":"4","last_reported":1781286242,"current_range_meters":5600,"station_id":"","pricing_plan_id":"cebpf4jnsgd1na2vs0mg"},{"bike_id":"6e2438bd-db9c-44c7-817f-8838bffe7fff","system_id":"levelo_inurba_marseille","lat":43.26683,"lon":5.38262,"is_reserved":false,"is_disabled":false,"rental_uris":{"android":"levelo://app?vid=6e2438bd-db9c-44c7-817f-8838bffe7fff","ios":"levelo://app?vid=6e2438bd-db9c-44c7-817f-8838bffe7fff"},"vehicle_type_id":"4","last_reported":1781286242,"current_range_meters":5600,"station_id":"ce4bhg92rcd13ifvqf90","pricing_plan_id":"cebpf4jnsgd1na2vs0mg"},{"bike_id":"9fd795cd-b5dd-4174-8093-ba9d9fe9663e","system_id":"levelo_inurba_marseille","lat":43.26958,"lon":5.38633,"is_reserved":false,"is_disabled":false,"rental_uris":{"android":"levelo://app?vid=9fd795cd-b5dd-4174-8093-ba9d9fe9663e","ios":"levelo://app?vid=9fd795cd-b5dd-4174-8093-ba9d9fe9663e"},"vehicle_type_id":"4","last_reported":1781286242,"current_range_meters":5600,"station_id":"ce4bhh92rcd13ifvqfh0","pricing_plan_id":"cebpf4jnsgd1na2vs0mg"},{"bike_id":"d9bbcfa4-a44d-4020-b0df-d2651b3bdf41","system_id":"levelo_inurba_marseille","lat":43.21193,"lon":5.3507,"is_reserved":false,"is_disabled":false,"rental_uris":{"android":"levelo://app?vid=d9bbcfa4-a44d-4020-b0df-d2651b3bdf41","ios":"levelo://app?vid=d9bbcfa4-a44d-4020-b0df-d2651b3bdf41"},"vehicle_type_id":"4","last_reported":1781286242,"current_range_meters":5600,"station_id":"st_cvj6sg6p6f1abm77japg","pricing_plan_id":"cebpf4jnsgd1na2vs0mg"},{"bike_id":"2694b729-2691-4523-9744-df82535d337f","system_id":"levelo_inurba_marseille","lat":43.26209,"lon":5.37448,"is_reserved":false,"is_disabled":false,"rental_uris":{"android":"levelo://app?vid=2694b729-2691-4523-9744-df82535d337f","ios":"levelo://app?vid=2694b729-2691-4523-9744-df82535d337f"},"vehicle_type_id":"4","last_reported":1781286242,"current_range_meters":5600,"station_id":"ce4bhgp2rcd13ifvqfc0","pricing_plan_id":"cebpf4jnsgd1na2vs0mg"},{"bike_id":"8148c0e0-aa12-45e8-903a-433ca8b036d1","system_id":"levelo_inurba_marseille","lat":43.28657,"lon":5.38343,"is_reserved":false,"is_disabled":false,"rental_uris":{"android":"levelo://app?vid=8148c0e0-aa12-45e8-903a-433ca8b036d1","ios":"levelo://app?vid=8148c0e0-aa12-45e8-903a-433ca8b036d1"},"vehicle_type_id":"4","last_reported":1781286242,"current_range_meters":5600,"station_id":"","pricing_plan_id":"cebpf4jnsgd1na2vs0mg"},{"bike_id":"24f02d56-4cb2-4734-b396-c4353be9b86c","system_id":"levelo_inurba_marseille","lat":43.32109,"lon":5.36762,"is_reserved":false,"is_disabled":false,"rental_uris":{"android":"levelo://app?vid=24f02d56-4cb2-4734-b396-c4353be9b86c","ios":"levelo://app?vid=24f02d56-4cb2-4734-b396-c4353be9b86c"},"vehicle_type_id":"4","last_reported":1781286242,"current_range_meters":5600,"station_id":"ce4bhrh2rcd13ifvqhug","pricing_plan_id":"cebpf4jnsgd1na2vs0mg"},{"bike_id":"cc769c4d-8804-4446-86c9-34cdec0cd6bf","system_id":"levelo_inurba_marseille","lat":43.23902,"lon":5.37454,"is_reserved":false,"is_disabled":false,"rental_uris":{"android":"levelo://app?vid=cc769c4d-8804-4446-86c9-34cdec0cd6bf","ios":"levelo://app?vid=cc769c4d-8804-4446-86c9-34cdec0cd6bf"},"vehicle_type_id":"4","last_reported":1781286242,"current_range_meters":5600,"station_id":"st_d6sm7csbq4hs73f8fpjg","pricing_plan_id":"cebpf4jnsgd1na2vs0mg"},{"bike_id":"a848a5d1-feb4-4560-89e7-b2ad298b123f","system_id":"levelo_inurba_marseille","lat":43.24637,"lon":5.43153,"is_reserved":false,"is_disabled":false,"rental_uris":{"android":"levelo://app?vid=a848a5d1-feb4-4560-89e7-b2ad298b123f","ios":"levelo://app?vid=a848a5d1-feb4-4560-89e7-b2ad298b123f"},"vehicle_type_id":"4","last_reported":1781286242,"current_range_meters":5600,"station_id":"st_d2m6c4gdas8pm72e190g","pricing_plan_id":"cebpf4jnsgd1na2vs0mg"},{"bike_id":"b4c0f195-58a3-456c-9ed4-e0663f1468e6","system_id":"levelo_inurba_marseille","lat":43.28255,"lon":5.37404,"is_reserved":false,"is_disabled":false,"rental_uris":{"android":"levelo://app?vid=b4c0f195-58a3-456c-9ed4-e0663f1468e6","ios":"levelo://app?vid=b4c0f195-58a3-456c-9ed4-e0663f1468e6"},"vehicle_type_id":"4","last_reported":1781286242,"current_range_meters":5600,"station_id":"","pricing_plan_id":"cebpf4jnsgd1na2vs0mg"},{"bike_id":"a311639b-e89c-49b4-b196-1efe7e03ead0","system_id":"levelo_inurba_marseille","lat":43.25181,"lon":5.37574,"is_reserved":false,"is_disabled":false,"rental_uris":{"android":"levelo://app?vid=a311639b-e89c-49b4-b196-1efe7e03ead0","ios":"levelo://app?vid=a311639b-e89c-49b4-b196-1efe7e03ead0"},"vehicle_type_id":"4","last_reported":1781286242,"current_range_meters":5600,"station_id":"","pricing_plan_id":"cebpf4jnsgd1na2vs0mg"},{"bike_id":"21f77a53-50d7-4768-a8d2-186c4c143c8d","system_id":"levelo_inurba_marseille","lat":43.26687,"lon":5.38276,"is_reserved":false,"is_disabled":false,"rental_uris":{"android":"levelo://app?vid=21f77a53-50d7-4768-a8d2-186c4c143c8d","ios":"levelo://app?vid=21f77a53-50d7-4768-a8d2-186c4c143c8d"},"vehicle_type_id":"4","last_reported":1781286242,"current_range_meters":5600,"station_id":"ce4bhg92rcd13ifvqf90","pricing_plan_id":"cebpf4jnsgd1na2vs0mg"},{"bike_id":"8222ca0a-2707-420c-a522-f28900ce807a","system_id":"levelo_inurba_marseille","lat":43.26559,"lon":5.37288,"is_reserved":false,"is_disabled":false,"rental_uris":{"android":"levelo://app?vid=8222ca0a-2707-420c-a522-f28900ce807a","ios":"levelo://app?vid=8222ca0a-2707-420c-a522-f28900ce807a"},"vehicle_type_id":"4","last_reported":1781286242,"current_range_meters":5600,"station_id":"ce4bhg12rcd13ifvqf70","pricing_plan_id":"cebpf4jnsgd1na2vs0mg"},{"bike_id":"c7003374-df0a-4adf-a763-b7ffcb27c463","system_id":"levelo_inurba_marseille","lat":43.28469,"lon":5.48388,"is_reserved":false,"is_disabled":false,"rental_uris":{"android":"levelo://app?vid=c7003374-df0a-4adf-a763-b7ffcb27c463","ios":"levelo://app?vid=c7003374-df0a-4adf-a763-b7ffcb27c463"},"vehicle_type_id":"4","last_reported":1781286242,"current_range_meters":5600,"station_id":"st_d3svhcjqgbts73a3dn0g","pricing_plan_id":"cebpf4jnsgd1na2vs0mg"},{"bike_id":"95a6a820-080c-4047-9edc-2eab85cc3ea0","system_id":"levelo_inurba_marseille","lat":43.31242,"lon":5.37283,"is_reserved":false,"is_disabled":false,"rental_uris":{"android":"levelo://app?vid=95a6a820-080c-4047-9edc-2eab85cc3ea0","ios":"levelo://app?vid=95a6a820-080c-4047-9edc-2eab85cc3ea0"},"vehicle_type_id":"4","last_reported":1781286242,"current_range_meters":5600,"station_id":"","pricing_plan_id":"cebpf4jnsgd1na2vs0mg"},{"bike_id":"aaa66412-2aa3-4106-bf51-3d316dbc10b4","system_id":"levelo_inurba_marseille","lat":43.2254,"lon":5.41663,"is_reserved":false,"is_disabled":false,"rental_uris":{"android":"levelo://app?vid=aaa66412-2aa3-4106-bf51-3d316dbc10b4","ios":"levelo://app?vid=aaa66412-2aa3-4106-bf51-3d316dbc10b4"},"vehicle_type_id":"4","last_reported":1781286242,"current_range_meters":6000,"station_id":"st_d2o4gvlbi1j2169b742g","pricing_plan_id":"cebpf4jnsgd1na2vs0mg"},{"bike_id":"565464bc-da8d-4c1b-b4ca-bc202143db68","system_id":"levelo_inurba_marseille","lat":43.29789,"lon":5.37091,"is_reserved":false,"is_disabled":false,"rental_uris":{"android":"levelo://app?vid=565464bc-da8d-4c1b-b4ca-bc202143db68","ios":"levelo://app?vid=565464bc-da8d-4c1b-b4ca-bc202143db68"},"vehicle_type_id":"4","last_reported":1781286242,"current_range_meters":6000,"station_id":"ce4bgop2rcd13ifvqc1g","pricing_plan_id":"cebpf4jnsgd1na2vs0mg"},{"bike_id":"a47caa15-5bbd-4fd9-84c1-e2018ea3f40b","system_id":"levelo_inurba_marseille","lat":43.29867,"lon":5.36265,"is_reserved":false,"is_disabled":false,"rental_uris":{"android":"levelo://app?vid=a47caa15-5bbd-4fd9-84c1-e2018ea3f40b","ios":"levelo://app?vid=a47caa15-5bbd-4fd9-84c1-e2018ea3f40b"},"vehicle_type_id":"4","last_reported":1781286242,"current_range_meters":6000,"station_id":"ce4bgpp2rcd13ifvqc3g","pricing_plan_id":"cebpf4jnsgd1na2vs0mg"},{"bike_id":"122a703c-c395-4f8d-8778-afbd2690aadf","system_id":"levelo_inurba_marseille","lat":43.27951,"lon":5.41045,"is_reserved":false,"is_disabled":false,"rental_uris":{"android":"levelo://app?vid=122a703c-c395-4f8d-8778-afbd2690aadf","ios":"levelo://app?vid=122a703c-c395-4f8d-8778-afbd2690aadf"},"vehicle_type_id":"4","last_reported":1781286242,"current_range_meters":6000,"station_id":"ce4bhnp2rcd13ifvqh0g","pricing_plan_id":"cebpf4jnsgd1na2vs0mg"},{"bike_id":"1092cd7f-d680-45ee-8ff2-7815bf031c7e","system_id":"levelo_inurba_marseille","lat":43.31722,"lon":5.37755,"is_reserved":false,"is_disabled":false,"rental_uris":{"android":"levelo://app?vid=1092cd7f-d680-45ee-8ff2-7815bf031c7e","ios":"levelo://app?vid=1092cd7f-d680-45ee-8ff2-7815bf031c7e"},"vehicle_type_id":"4","last_reported":1781286242,"current_range_meters":6000,"station_id":"ce4bgth2rcd13ifvqch0","pricing_plan_id":"cebpf4jnsgd1na2vs0mg"},{"bike_id":"0e737488-eea1-4c79-a09b-4e4182d3e90a","system_id":"levelo_inurba_marseille","lat":43.26228,"lon":5.38762,"is_reserved":false,"is_disabled":false,"rental_uris":{"android":"levelo://app?vid=0e737488-eea1-4c79-a09b-4e4182d3e90a","ios":"levelo://app?vid=0e737488-eea1-4c79-a09b-4e4182d3e90a"},"vehicle_type_id":"4","last_reported":1781286242,"current_range_meters":6000,"station_id":"st_d8gjfg747rts73coq3b0","pricing_plan_id":"cebpf4jnsgd1na2vs0mg"},{"bike_id":"19ac61f6-06c8-4d68-8139-c5c4bc9877a8","system_id":"levelo_inurba_marseille","lat":43.28666,"lon":5.35065,"is_reserved":false,"is_disabled":false,"rental_uris":{"android":"levelo://app?vid=19ac61f6-06c8-4d68-8139-c5c4bc9877a8","ios":"levelo://app?vid=19ac61f6-06c8-4d68-8139-c5c4bc9877a8"},"vehicle_type_id":"4","last_reported":1781286242,"current_range_meters":6000,"station_id":"","pricing_plan_id":"cebpf4jnsgd1na2vs0mg"},{"bike_id":"1c444fa9-9def-4999-8bc4-4a6c72c5f742","system_id":"levelo_inurba_marseille","lat":43.26024,"lon":5.37548,"is_reserved":false,"is_disabled":false,"rental_uris":{"android":"levelo://app?vid=1c444fa9-9def-4999-8bc4-4a6c72c5f742","ios":"levelo://app?vid=1c444fa9-9def-4999-8bc4-4a6c72c5f742"},"vehicle_type_id":"4","last_reported":1781286242,"current_range_meters":6000,"station_id":"ce4bhgh2rcd13ifvqfa0","pricing_plan_id":"cebpf4jnsgd1na2vs0mg"},{"bike_id":"f7b2140e-39b4-4c04-9be7-1aff72473e60","system_id":"levelo_inurba_marseille","lat":43.26359,"lon":5.37823,"is_reserved":false,"is_disabled":false,"rental_uris":{"android":"levelo://app?vid=f7b2140e-39b4-4c04-9be7-1aff72473e60","ios":"levelo://app?vid=f7b2140e-39b4-4c04-9be7-1aff72473e60"},"vehicle_type_id":"4","last_reported":1781286242,"current_range_meters":6000,"station_id":"st_d163nis0mtpqnht9uue0","pricing_plan_id":"cebpf4jnsgd1na2vs0mg"},{"bike_id":"733c7cdd-9048-4e16-9cc6-9ae8899eb1c3","system_id":"levelo_inurba_marseille","lat":43.293669,"lon":5.378612,"is_reserved":false,"is_disabled":false,"rental_uris":{"android":"levelo://app?vid=733c7cdd-9048-4e16-9cc6-9ae8899eb1c3","ios":"levelo://app?vid=733c7cdd-9048-4e16-9cc6-9ae8899eb1c3"},"vehicle_type_id":"4","last_reported":1781286242,"current_range_meters":6000,"station_id":"ce4bgjh2rcd13ifvqbf0","pricing_plan_id":"cebpf4jnsgd1na2vs0mg"},{"bike_id":"6edb1571-ff0e-41be-86f6-ab57a8172f99","system_id":"levelo_inurba_marseille","lat":43.32113,"lon":5.36757,"is_reserved":false,"is_disabled":false,"rental_uris":{"android":"levelo://app?vid=6edb1571-ff0e-41be-86f6-ab57a8172f99","ios":"levelo://app?vid=6edb1571-ff0e-41be-86f6-ab57a8172f99"},"vehicle_type_id":"4","last_reported":1781286242,"current_range_meters":6000,"station_id":"ce4bhrh2rcd13ifvqhug","pricing_plan_id":"cebpf4jnsgd1na2vs0mg"},{"bike_id":"c4c8f592-2f0a-488a-9059-30a67bfcfd66","system_id":"levelo_inurba_marseille","lat":43.24794,"lon":5.37451,"is_reserved":false,"is_disabled":false,"rental_uris":{"android":"levelo://app?vid=c4c8f592-2f0a-488a-9059-30a67bfcfd66","ios":"levelo://app?vid=c4c8f592-2f0a-488a-9059-30a67bfcfd66"},"vehicle_type_id":"4","last_reported":1781286242,"current_range_meters":6000,"station_id":"ce4bhgh2rcd13ifvqfb0","pricing_plan_id":"cebpf4jnsgd1na2vs0mg"},{"bike_id":"1345c154-16ee-4ed3-b4f1-947a1b328d12","system_id":"levelo_inurba_marseille","lat":43.26227,"lon":5.38773,"is_reserved":false,"is_disabled":false,"rental_uris":{"android":"levelo://app?vid=1345c154-16ee-4ed3-b4f1-947a1b328d12","ios":"levelo://app?vid=1345c154-16ee-4ed3-b4f1-947a1b328d12"},"vehicle_type_id":"4","last_reported":1781286242,"current_range_meters":6000,"station_id":"st_d8gjfg747rts73coq3b0","pricing_plan_id":"cebpf4jnsgd1na2vs0mg"},{"bike_id":"5959399d-2a5a-4619-a6df-91439cbfbae4","system_id":"levelo_inurba_marseille","lat":43.27068,"lon":5.38301,"is_reserved":false,"is_disabled":false,"rental_uris":{"android":"levelo://app?vid=5959399d-2a5a-4619-a6df-91439cbfbae4","ios":"levelo://app?vid=5959399d-2a5a-4619-a6df-91439cbfbae4"},"vehicle_type_id":"4","last_reported":1781286242,"current_range_meters":6000,"station_id":"st_d3n2fo6cfp8s73cte1j0","pricing_plan_id":"cebpf4jnsgd1na2vs0mg"},{"bike_id":"c7589da0-97de-4ab9-9796-5916b4446612","system_id":"levelo_inurba_marseille","lat":43.2549,"lon":5.37644,"is_reserved":false,"is_disabled":false,"rental_uris":{"android":"levelo://app?vid=c7589da0-97de-4ab9-9796-5916b4446612","ios":"levelo://app?vid=c7589da0-97de-4ab9-9796-5916b4446612"},"vehicle_type_id":"4","last_reported":1781286242,"current_range_meters":6000,"station_id":"ce4bhh12rcd13ifvqff0","pricing_plan_id":"cebpf4jnsgd1na2vs0mg"},{"bike_id":"1709249b-c269-4292-aa71-686b17888a19","system_id":"levelo_inurba_marseille","lat":43.23153,"lon":5.43704,"is_reserved":false,"is_disabled":false,"rental_uris":{"android":"levelo://app?vid=1709249b-c269-4292-aa71-686b17888a19","ios":"levelo://app?vid=1709249b-c269-4292-aa71-686b17888a19"},"vehicle_type_id":"4","last_reported":1781286242,"current_range_meters":6000,"station_id":"ce4bhmp2rcd13ifvqgog","pricing_plan_id":"cebpf4jnsgd1na2vs0mg"},{"bike_id":"750d545d-9962-42b9-9a8e-d0d1cf1bbc44","system_id":"levelo_inurba_marseille","lat":43.25512,"lon":5.37657,"is_reserved":false,"is_disabled":false,"rental_uris":{"android":"levelo://app?vid=750d545d-9962-42b9-9a8e-d0d1cf1bbc44","ios":"levelo://app?vid=750d545d-9962-42b9-9a8e-d0d1cf1bbc44"},"vehicle_type_id":"4","last_reported":1781286242,"current_range_meters":6000,"station_id":"ce4bhh12rcd13ifvqff0","pricing_plan_id":"cebpf4jnsgd1na2vs0mg"},{"bike_id":"fddbf6a7-cfab-4481-914f-86a0d0db8fc2","system_id":"levelo_inurba_marseille","lat":43.26366,"lon":5.37807,"is_reserved":false,"is_disabled":false,"rental_uris":{"android":"levelo://app?vid=fddbf6a7-cfab-4481-914f-86a0d0db8fc2","ios":"levelo://app?vid=fddbf6a7-cfab-4481-914f-86a0d0db8fc2"},"vehicle_type_id":"4","last_reported":1781286242,"current_range_meters":6000,"station_id":"st_d163nis0mtpqnht9uue0","pricing_plan_id":"cebpf4jnsgd1na2vs0mg"},{"bike_id":"6aff6562-4c57-4fb2-80c6-768abec91faa","system_id":"levelo_inurba_marseille","lat":43.260248,"lon":5.375532,"is_reserved":false,"is_disabled":false,"rental_uris":{"android":"levelo://app?vid=6aff6562-4c57-4fb2-80c6-768abec91faa","ios":"levelo://app?vid=6aff6562-4c57-4fb2-80c6-768abec91faa"},"vehicle_type_id":"4","last_reported":1781286242,"current_range_meters":6000,"station_id":"ce4bhgh2rcd13ifvqfa0","pricing_plan_id":"cebpf4jnsgd1na2vs0mg"},{"bike_id":"ee494397-ad1c-4b5e-80ed-9cc6e888762d","system_id":"levelo_inurba_marseille","lat":43.31895,"lon":5.4248,"is_reserved":false,"is_disabled":false,"rental_uris":{"android":"levelo://app?vid=ee494397-ad1c-4b5e-80ed-9cc6e888762d","ios":"levelo://app?vid=ee494397-ad1c-4b5e-80ed-9cc6e888762d"},"vehicle_type_id":"4","last_reported":1781286242,"current_range_meters":6000,"station_id":"","pricing_plan_id":"cebpf4jnsgd1na2vs0mg"},{"bike_id":"76ff20aa-c2bd-4fa2-8dca-7099f4d9bbe6","system_id":"levelo_inurba_marseille","lat":43.21193,"lon":5.3506,"is_reserved":false,"is_disabled":false,"rental_uris":{"android":"levelo://app?vid=76ff20aa-c2bd-4fa2-8dca-7099f4d9bbe6","ios":"levelo://app?vid=76ff20aa-c2bd-4fa2-8dca-7099f4d9bbe6"},"vehicle_type_id":"4","last_reported":1781286242,"current_range_meters":6000,"station_id":"st_cvj6sg6p6f1abm77japg","pricing_plan_id":"cebpf4jnsgd1na2vs0mg"},{"bike_id":"b4aae546-3932-4ded-925d-f60193a46c96","system_id":"levelo_inurba_marseille","lat":43.24491,"lon":5.41095,"is_reserved":false,"is_disabled":false,"rental_uris":{"android":"levelo://app?vid=b4aae546-3932-4ded-925d-f60193a46c96","ios":"levelo://app?vid=b4aae546-3932-4ded-925d-f60193a46c96"},"vehicle_type_id":"4","last_reported":1781286242,"current_range_meters":6000,"station_id":"","pricing_plan_id":"cebpf4jnsgd1na2vs0mg"},{"bike_id":"3e4303bd-4e13-42f8-ae0c-25a66192c901","system_id":"levelo_inurba_marseille","lat":43.31545,"lon":5.38814,"is_reserved":false,"is_disabled":false,"rental_uris":{"android":"levelo://app?vid=3e4303bd-4e13-42f8-ae0c-25a66192c901","ios":"levelo://app?vid=3e4303bd-4e13-42f8-ae0c-25a66192c901"},"vehicle_type_id":"4","last_reported":1781286242,"current_range_meters":6400,"station_id":"","pricing_plan_id":"cebpf4jnsgd1na2vs0mg"},{"bike_id":"31d65e15-5110-46f7-8f84-77090dc7f67e","system_id":"levelo_inurba_marseille","lat":43.284598,"lon":5.358823,"is_reserved":false,"is_disabled":false,"rental_uris":{"android":"levelo://app?vid=31d65e15-5110-46f7-8f84-77090dc7f67e","ios":"levelo://app?vid=31d65e15-5110-46f7-8f84-77090dc7f67e"},"vehicle_type_id":"4","last_reported":1781286242,"current_range_meters":6400,"station_id":"ce4bhah2rcd13ifvqei0","pricing_plan_id":"cebpf4jnsgd1na2vs0mg"},{"bike_id":"95953275-15e2-4a24-a545-ca332e5c0c99","system_id":"levelo_inurba_marseille","lat":43.23964,"lon":5.36631,"is_reserved":false,"is_disabled":false,"rental_uris":{"android":"levelo://app?vid=95953275-15e2-4a24-a545-ca332e5c0c99","ios":"levelo://app?vid=95953275-15e2-4a24-a545-ca332e5c0c99"},"vehicle_type_id":"4","last_reported":1781286242,"current_range_meters":6400,"station_id":"ce4bhi12rcd13ifvqfp0","pricing_plan_id":"cebpf4jnsgd1na2vs0mg"},{"bike_id":"52e0ca30-f6db-4b40-a595-fe3e1b7ca10e","system_id":"levelo_inurba_marseille","lat":43.26194,"lon":5.37467,"is_reserved":false,"is_disabled":true,"rental_uris":{"android":"levelo://app?vid=52e0ca30-f6db-4b40-a595-fe3e1b7ca10e","ios":"levelo://app?vid=52e0ca30-f6db-4b40-a595-fe3e1b7ca10e"},"vehicle_type_id":"4","last_reported":1781286242,"current_range_meters":6400,"station_id":"ce4bhgp2rcd13ifvqfc0","pricing_plan_id":"cebpf4jnsgd1na2vs0mg"},{"bike_id":"4865a1c5-afe2-4dda-8194-f69b08d22f31","system_id":"levelo_inurba_marseille","lat":43.25587,"lon":5.38227,"is_reserved":false,"is_disabled":false,"rental_uris":{"android":"levelo://app?vid=4865a1c5-afe2-4dda-8194-f69b08d22f31","ios":"levelo://app?vid=4865a1c5-afe2-4dda-8194-f69b08d22f31"},"vehicle_type_id":"4","last_reported":1781286242,"current_range_meters":6400,"station_id":"ce4bhih2rcd13ifvqfs0","pricing_plan_id":"cebpf4jnsgd1na2vs0mg"},{"bike_id":"e2b9e7f7-a1c8-4ddf-8cdc-844ca2f45d48","system_id":"levelo_inurba_marseille","lat":43.29571,"lon":5.39984,"is_reserved":false,"is_disabled":false,"rental_uris":{"android":"levelo://app?vid=e2b9e7f7-a1c8-4ddf-8cdc-844ca2f45d48","ios":"levelo://app?vid=e2b9e7f7-a1c8-4ddf-8cdc-844ca2f45d48"},"vehicle_type_id":"4","last_reported":1781286242,"current_range_meters":6400,"station_id":"ce4bh312rcd13ifvqdj0","pricing_plan_id":"cebpf4jnsgd1na2vs0mg"},{"bike_id":"9a58cf3d-4c16-4c08-a10e-9a6a44639d5d","system_id":"levelo_inurba_marseille","lat":43.24808,"lon":5.37453,"is_reserved":false,"is_disabled":false,"rental_uris":{"android":"levelo://app?vid=9a58cf3d-4c16-4c08-a10e-9a6a44639d5d","ios":"levelo://app?vid=9a58cf3d-4c16-4c08-a10e-9a6a44639d5d"},"vehicle_type_id":"4","last_reported":1781286242,"current_range_meters":6400,"station_id":"ce4bhgh2rcd13ifvqfb0","pricing_plan_id":"cebpf4jnsgd1na2vs0mg"},{"bike_id":"f75ae3d6-37bd-457a-a5d9-65d6642bd444","system_id":"levelo_inurba_marseille","lat":43.27616,"lon":5.361,"is_reserved":false,"is_disabled":false,"rental_uris":{"android":"levelo://app?vid=f75ae3d6-37bd-457a-a5d9-65d6642bd444","ios":"levelo://app?vid=f75ae3d6-37bd-457a-a5d9-65d6642bd444"},"vehicle_type_id":"4","last_reported":1781286242,"current_range_meters":6400,"station_id":"ce4bgj92rcd13ifvqbe0","pricing_plan_id":"cebpf4jnsgd1na2vs0mg"},{"bike_id":"331d3c2a-5f8a-4e76-bd63-cd3594144ab5","system_id":"levelo_inurba_marseille","lat":43.28627,"lon":5.37056,"is_reserved":false,"is_disabled":false,"rental_uris":{"android":"levelo://app?vid=331d3c2a-5f8a-4e76-bd63-cd3594144ab5","ios":"levelo://app?vid=331d3c2a-5f8a-4e76-bd63-cd3594144ab5"},"vehicle_type_id":"4","last_reported":1781286242,"current_range_meters":6400,"station_id":"ce4bht12rcd13ifvqi60","pricing_plan_id":"cebpf4jnsgd1na2vs0mg"},{"bike_id":"953fd37f-7389-4fea-b5ce-1a29918f7a20","system_id":"levelo_inurba_marseille","lat":43.28408,"lon":5.37503,"is_reserved":false,"is_disabled":false,"rental_uris":{"android":"levelo://app?vid=953fd37f-7389-4fea-b5ce-1a29918f7a20","ios":"levelo://app?vid=953fd37f-7389-4fea-b5ce-1a29918f7a20"},"vehicle_type_id":"4","last_reported":1781286242,"current_range_meters":6400,"station_id":"ce4bh412rcd13ifvqds0","pricing_plan_id":"cebpf4jnsgd1na2vs0mg"},{"bike_id":"b105e559-ad92-41ad-9bdf-4bd2f454dd68","system_id":"levelo_inurba_marseille","lat":43.30154,"lon":5.44936,"is_reserved":false,"is_disabled":false,"rental_uris":{"android":"levelo://app?vid=b105e559-ad92-41ad-9bdf-4bd2f454dd68","ios":"levelo://app?vid=b105e559-ad92-41ad-9bdf-4bd2f454dd68"},"vehicle_type_id":"4","last_reported":1781286242,"current_range_meters":6400,"station_id":"","pricing_plan_id":"cebpf4jnsgd1na2vs0mg"},{"bike_id":"216530a0-b088-44f0-b2e7-7d3fe4ff485a","system_id":"levelo_inurba_marseille","lat":43.2418,"lon":5.39721,"is_reserved":false,"is_disabled":false,"rental_uris":{"android":"levelo://app?vid=216530a0-b088-44f0-b2e7-7d3fe4ff485a","ios":"levelo://app?vid=216530a0-b088-44f0-b2e7-7d3fe4ff485a"},"vehicle_type_id":"4","last_reported":1781286242,"current_range_meters":6400,"station_id":"ce4bhn12rcd13ifvqgpg","pricing_plan_id":"cebpf4jnsgd1na2vs0mg"},{"bike_id":"2b090a87-f68e-425b-bb1c-698cd697d363","system_id":"levelo_inurba_marseille","lat":43.28611,"lon":5.35105,"is_reserved":false,"is_disabled":false,"rental_uris":{"android":"levelo://app?vid=2b090a87-f68e-425b-bb1c-698cd697d363","ios":"levelo://app?vid=2b090a87-f68e-425b-bb1c-698cd697d363"},"vehicle_type_id":"4","last_reported":1781286242,"current_range_meters":6400,"station_id":"ce4bhch2rcd13ifvqeug","pricing_plan_id":"cebpf4jnsgd1na2vs0mg"},{"bike_id":"c29b7118-7db7-412f-9032-1c988550bdae","system_id":"levelo_inurba_marseille","lat":43.30532,"lon":5.36701,"is_reserved":false,"is_disabled":false,"rental_uris":{"android":"levelo://app?vid=c29b7118-7db7-412f-9032-1c988550bdae","ios":"levelo://app?vid=c29b7118-7db7-412f-9032-1c988550bdae"},"vehicle_type_id":"4","last_reported":1781286242,"current_range_meters":6400,"station_id":"ce4bgrp2rcd13ifvqc9g","pricing_plan_id":"cebpf4jnsgd1na2vs0mg"},{"bike_id":"2249891a-7e65-4b54-a726-bf48a3d69388","system_id":"levelo_inurba_marseille","lat":43.255093,"lon":5.376476,"is_reserved":false,"is_disabled":false,"rental_uris":{"android":"levelo://app?vid=2249891a-7e65-4b54-a726-bf48a3d69388","ios":"levelo://app?vid=2249891a-7e65-4b54-a726-bf48a3d69388"},"vehicle_type_id":"4","last_reported":1781286242,"current_range_meters":6400,"station_id":"ce4bhh12rcd13ifvqff0","pricing_plan_id":"cebpf4jnsgd1na2vs0mg"},{"bike_id":"bb1de18d-7835-400c-a994-66383885603c","system_id":"levelo_inurba_marseille","lat":43.28861,"lon":5.42516,"is_reserved":false,"is_disabled":false,"rental_uris":{"android":"levelo://app?vid=bb1de18d-7835-400c-a994-66383885603c","ios":"levelo://app?vid=bb1de18d-7835-400c-a994-66383885603c"},"vehicle_type_id":"4","last_reported":1781286242,"current_range_meters":6400,"station_id":"st_d3b462108ojc7389ooeg","pricing_plan_id":"cebpf4jnsgd1na2vs0mg"},{"bike_id":"9e36cfa1-09fe-4bd5-9827-624ec281fd82","system_id":"levelo_inurba_marseille","lat":43.26054,"lon":5.37534,"is_reserved":false,"is_disabled":false,"rental_uris":{"android":"levelo://app?vid=9e36cfa1-09fe-4bd5-9827-624ec281fd82","ios":"levelo://app?vid=9e36cfa1-09fe-4bd5-9827-624ec281fd82"},"vehicle_type_id":"4","last_reported":1781286242,"current_range_meters":6400,"station_id":"ce4bhgh2rcd13ifvqfa0","pricing_plan_id":"cebpf4jnsgd1na2vs0mg"},{"bike_id":"ef048e93-3c21-4aea-ad20-87c8427753a3","system_id":"levelo_inurba_marseille","lat":43.28861,"lon":5.42529,"is_reserved":false,"is_disabled":true,"rental_uris":{"android":"levelo://app?vid=ef048e93-3c21-4aea-ad20-87c8427753a3","ios":"levelo://app?vid=ef048e93-3c21-4aea-ad20-87c8427753a3"},"vehicle_type_id":"4","last_reported":1781286242,"current_range_meters":6400,"station_id":"st_d3b462108ojc7389ooeg","pricing_plan_id":"cebpf4jnsgd1na2vs0mg"},{"bike_id":"a4b5c841-081f-4864-9ad4-e1c7a6e60416","system_id":"levelo_inurba_marseille","lat":43.23799,"lon":5.36625,"is_reserved":false,"is_disabled":true,"rental_uris":{"android":"levelo://app?vid=a4b5c841-081f-4864-9ad4-e1c7a6e60416","ios":"levelo://app?vid=a4b5c841-081f-4864-9ad4-e1c7a6e60416"},"vehicle_type_id":"4","last_reported":1781286242,"current_range_meters":6400,"station_id":"st_d3nk18o9ro0c73en2l3g","pricing_plan_id":"cebpf4jnsgd1na2vs0mg"},{"bike_id":"b154e503-5e6b-4b2c-aea8-7afe1c19122c","system_id":"levelo_inurba_marseille","lat":43.2811,"lon":5.4264,"is_reserved":false,"is_disabled":false,"rental_uris":{"android":"levelo://app?vid=b154e503-5e6b-4b2c-aea8-7afe1c19122c","ios":"levelo://app?vid=b154e503-5e6b-4b2c-aea8-7afe1c19122c"},"vehicle_type_id":"4","last_reported":1781286242,"current_range_meters":6400,"station_id":"ce4bhnh2rcd13ifvqgug","pricing_plan_id":"cebpf4jnsgd1na2vs0mg"},{"bike_id":"0f111977-968e-4f06-a972-b4bf5a68a382","system_id":"levelo_inurba_marseille","lat":43.25258,"lon":5.3995,"is_reserved":false,"is_disabled":false,"rental_uris":{"android":"levelo://app?vid=0f111977-968e-4f06-a972-b4bf5a68a382","ios":"levelo://app?vid=0f111977-968e-4f06-a972-b4bf5a68a382"},"vehicle_type_id":"4","last_reported":1781286242,"current_range_meters":6400,"station_id":"","pricing_plan_id":"cebpf4jnsgd1na2vs0mg"},{"bike_id":"9355951e-b041-446b-b93e-73dce11071c1","system_id":"levelo_inurba_marseille","lat":43.30317,"lon":5.37334,"is_reserved":false,"is_disabled":false,"rental_uris":{"android":"levelo://app?vid=9355951e-b041-446b-b93e-73dce11071c1","ios":"levelo://app?vid=9355951e-b041-446b-b93e-73dce11071c1"},"vehicle_type_id":"4","last_reported":1781286242,"current_range_meters":6800,"station_id":"","pricing_plan_id":"cebpf4jnsgd1na2vs0mg"},{"bike_id":"47e2ebdd-5440-4ccb-81b3-e5a06178b36a","system_id":"levelo_inurba_marseille","lat":43.29017,"lon":5.35599,"is_reserved":false,"is_disabled":false,"rental_uris":{"android":"levelo://app?vid=47e2ebdd-5440-4ccb-81b3-e5a06178b36a","ios":"levelo://app?vid=47e2ebdd-5440-4ccb-81b3-e5a06178b36a"},"vehicle_type_id":"4","last_reported":1781286242,"current_range_meters":6800,"station_id":"ce4bhb92rcd13ifvqen0","pricing_plan_id":"cebpf4jnsgd1na2vs0mg"},{"bike_id":"d39db183-6bf7-420a-96f5-b25822544857","system_id":"levelo_inurba_marseille","lat":43.32357,"lon":5.36759,"is_reserved":false,"is_disabled":false,"rental_uris":{"android":"levelo://app?vid=d39db183-6bf7-420a-96f5-b25822544857","ios":"levelo://app?vid=d39db183-6bf7-420a-96f5-b25822544857"},"vehicle_type_id":"4","last_reported":1781286242,"current_range_meters":6800,"station_id":"ce4bhsh2rcd13ifvqi2g","pricing_plan_id":"cebpf4jnsgd1na2vs0mg"},{"bike_id":"a5d97c6e-23a1-46a4-9037-263af84b038d","system_id":"levelo_inurba_marseille","lat":43.26505,"lon":5.39532,"is_reserved":false,"is_disabled":false,"rental_uris":{"android":"levelo://app?vid=a5d97c6e-23a1-46a4-9037-263af84b038d","ios":"levelo://app?vid=a5d97c6e-23a1-46a4-9037-263af84b038d"},"vehicle_type_id":"4","last_reported":1781286242,"current_range_meters":6800,"station_id":"ce4bhi12rcd13ifvqfq0","pricing_plan_id":"cebpf4jnsgd1na2vs0mg"},{"bike_id":"9a849aeb-9fbb-4fa7-8d27-b707ff0ef2f1","system_id":"levelo_inurba_marseille","lat":43.28419,"lon":5.37509,"is_reserved":false,"is_disabled":false,"rental_uris":{"android":"levelo://app?vid=9a849aeb-9fbb-4fa7-8d27-b707ff0ef2f1","ios":"levelo://app?vid=9a849aeb-9fbb-4fa7-8d27-b707ff0ef2f1"},"vehicle_type_id":"4","last_reported":1781286242,"current_range_meters":6800,"station_id":"ce4bh412rcd13ifvqds0","pricing_plan_id":"cebpf4jnsgd1na2vs0mg"},{"bike_id":"c513741e-f53f-4ab2-af8e-bf8c67914cc0","system_id":"levelo_inurba_marseille","lat":43.31063,"lon":5.37169,"is_reserved":false,"is_disabled":false,"rental_uris":{"android":"levelo://app?vid=c513741e-f53f-4ab2-af8e-bf8c67914cc0","ios":"levelo://app?vid=c513741e-f53f-4ab2-af8e-bf8c67914cc0"},"vehicle_type_id":"4","last_reported":1781286242,"current_range_meters":6800,"station_id":"st_d4kl2rp97mjs73e7tdfg","pricing_plan_id":"cebpf4jnsgd1na2vs0mg"},{"bike_id":"ae695064-5cd4-4c03-a679-b974ae010c26","system_id":"levelo_inurba_marseille","lat":43.29007,"lon":5.3561,"is_reserved":false,"is_disabled":false,"rental_uris":{"android":"levelo://app?vid=ae695064-5cd4-4c03-a679-b974ae010c26","ios":"levelo://app?vid=ae695064-5cd4-4c03-a679-b974ae010c26"},"vehicle_type_id":"4","last_reported":1781286242,"current_range_meters":6800,"station_id":"ce4bhb92rcd13ifvqen0","pricing_plan_id":"cebpf4jnsgd1na2vs0mg"},{"bike_id":"ea8b3e76-d574-401b-8514-d0eb411804c0","system_id":"levelo_inurba_marseille","lat":43.263574,"lon":5.377698,"is_reserved":false,"is_disabled":false,"rental_uris":{"android":"levelo://app?vid=ea8b3e76-d574-401b-8514-d0eb411804c0","ios":"levelo://app?vid=ea8b3e76-d574-401b-8514-d0eb411804c0"},"vehicle_type_id":"4","last_reported":1781286242,"current_range_meters":6800,"station_id":"st_d163nis0mtpqnht9uue0","pricing_plan_id":"cebpf4jnsgd1na2vs0mg"},{"bike_id":"c77e711e-e141-4d52-870e-72ea26fee60b","system_id":"levelo_inurba_marseille","lat":43.28403,"lon":5.34985,"is_reserved":false,"is_disabled":false,"rental_uris":{"android":"levelo://app?vid=c77e711e-e141-4d52-870e-72ea26fee60b","ios":"levelo://app?vid=c77e711e-e141-4d52-870e-72ea26fee60b"},"vehicle_type_id":"4","last_reported":1781286242,"current_range_meters":6800,"station_id":"ce4bhbh2rcd13ifvqepg","pricing_plan_id":"cebpf4jnsgd1na2vs0mg"},{"bike_id":"564528a8-1b1d-4cfb-9152-6e942b8d2e86","system_id":"levelo_inurba_marseille","lat":43.263799,"lon":5.410803,"is_reserved":false,"is_disabled":false,"rental_uris":{"android":"levelo://app?vid=564528a8-1b1d-4cfb-9152-6e942b8d2e86","ios":"levelo://app?vid=564528a8-1b1d-4cfb-9152-6e942b8d2e86"},"vehicle_type_id":"4","last_reported":1781286242,"current_range_meters":6800,"station_id":"st_d4e5ca6na9uc73bfl5fg","pricing_plan_id":"cebpf4jnsgd1na2vs0mg"},{"bike_id":"1ca3a914-a55c-4637-a9ca-4ffd36fbecad","system_id":"levelo_inurba_marseille","lat":43.262214,"lon":5.387661,"is_reserved":false,"is_disabled":true,"rental_uris":{"android":"levelo://app?vid=1ca3a914-a55c-4637-a9ca-4ffd36fbecad","ios":"levelo://app?vid=1ca3a914-a55c-4637-a9ca-4ffd36fbecad"},"vehicle_type_id":"4","last_reported":1781286242,"current_range_meters":6800,"station_id":"st_d8gjfg747rts73coq3b0","pricing_plan_id":"cebpf4jnsgd1na2vs0mg"},{"bike_id":"5ab25b28-e35d-4f10-9ca9-7d658cce4ea9","system_id":"levelo_inurba_marseille","lat":43.28922,"lon":5.38403,"is_reserved":false,"is_disabled":true,"rental_uris":{"android":"levelo://app?vid=5ab25b28-e35d-4f10-9ca9-7d658cce4ea9","ios":"levelo://app?vid=5ab25b28-e35d-4f10-9ca9-7d658cce4ea9"},"vehicle_type_id":"4","last_reported":1781286242,"current_range_meters":6800,"station_id":"ce4bh612rcd13ifvqe6g","pricing_plan_id":"cebpf4jnsgd1na2vs0mg"},{"bike_id":"7af5dc62-7a31-4d7c-a26c-927a2cb82321","system_id":"levelo_inurba_marseille","lat":43.32096,"lon":5.36766,"is_reserved":false,"is_disabled":false,"rental_uris":{"android":"levelo://app?vid=7af5dc62-7a31-4d7c-a26c-927a2cb82321","ios":"levelo://app?vid=7af5dc62-7a31-4d7c-a26c-927a2cb82321"},"vehicle_type_id":"4","last_reported":1781286242,"current_range_meters":6800,"station_id":"ce4bhrh2rcd13ifvqhug","pricing_plan_id":"cebpf4jnsgd1na2vs0mg"},{"bike_id":"31e4fa5a-3159-4def-a0cc-287536b042ca","system_id":"levelo_inurba_marseille","lat":43.2669,"lon":5.38267,"is_reserved":false,"is_disabled":false,"rental_uris":{"android":"levelo://app?vid=31e4fa5a-3159-4def-a0cc-287536b042ca","ios":"levelo://app?vid=31e4fa5a-3159-4def-a0cc-287536b042ca"},"vehicle_type_id":"4","last_reported":1781286242,"current_range_meters":6800,"station_id":"ce4bhg92rcd13ifvqf90","pricing_plan_id":"cebpf4jnsgd1na2vs0mg"},{"bike_id":"f7453a07-acc8-4a0c-b4d8-3250378f0a1d","system_id":"levelo_inurba_marseille","lat":43.266788,"lon":5.382647,"is_reserved":false,"is_disabled":false,"rental_uris":{"android":"levelo://app?vid=f7453a07-acc8-4a0c-b4d8-3250378f0a1d","ios":"levelo://app?vid=f7453a07-acc8-4a0c-b4d8-3250378f0a1d"},"vehicle_type_id":"4","last_reported":1781286242,"current_range_meters":6800,"station_id":"ce4bhg92rcd13ifvqf90","pricing_plan_id":"cebpf4jnsgd1na2vs0mg"},{"bike_id":"a318bc01-9889-445e-ad9e-b36118278119","system_id":"levelo_inurba_marseille","lat":43.28606,"lon":5.35107,"is_reserved":false,"is_disabled":true,"rental_uris":{"android":"levelo://app?vid=a318bc01-9889-445e-ad9e-b36118278119","ios":"levelo://app?vid=a318bc01-9889-445e-ad9e-b36118278119"},"vehicle_type_id":"4","last_reported":1781286242,"current_range_meters":6800,"station_id":"ce4bhch2rcd13ifvqeug","pricing_plan_id":"cebpf4jnsgd1na2vs0mg"},{"bike_id":"09c5a7f5-2867-4fc5-9ccd-72cac0836eb2","system_id":"levelo_inurba_marseille","lat":43.28615,"lon":5.35101,"is_reserved":false,"is_disabled":false,"rental_uris":{"android":"levelo://app?vid=09c5a7f5-2867-4fc5-9ccd-72cac0836eb2","ios":"levelo://app?vid=09c5a7f5-2867-4fc5-9ccd-72cac0836eb2"},"vehicle_type_id":"4","last_reported":1781286242,"current_range_meters":6800,"station_id":"ce4bhch2rcd13ifvqeug","pricing_plan_id":"cebpf4jnsgd1na2vs0mg"},{"bike_id":"6df7054b-12fc-4820-90eb-30a94928fe3f","system_id":"levelo_inurba_marseille","lat":43.23769,"lon":5.36644,"is_reserved":false,"is_disabled":false,"rental_uris":{"android":"levelo://app?vid=6df7054b-12fc-4820-90eb-30a94928fe3f","ios":"levelo://app?vid=6df7054b-12fc-4820-90eb-30a94928fe3f"},"vehicle_type_id":"4","last_reported":1781286242,"current_range_meters":6800,"station_id":"st_d3nk18o9ro0c73en2l3g","pricing_plan_id":"cebpf4jnsgd1na2vs0mg"},{"bike_id":"e1c64eb3-fd9e-45a8-ab66-a80f263d9f37","system_id":"levelo_inurba_marseille","lat":43.27675,"lon":5.35736,"is_reserved":false,"is_disabled":false,"rental_uris":{"android":"levelo://app?vid=e1c64eb3-fd9e-45a8-ab66-a80f263d9f37","ios":"levelo://app?vid=e1c64eb3-fd9e-45a8-ab66-a80f263d9f37"},"vehicle_type_id":"4","last_reported":1781286242,"current_range_meters":6800,"station_id":"","pricing_plan_id":"cebpf4jnsgd1na2vs0mg"},{"bike_id":"7a4ba46c-6362-49a8-982a-a4ee92fd7529","system_id":"levelo_inurba_marseille","lat":43.26874,"lon":5.3705,"is_reserved":false,"is_disabled":false,"rental_uris":{"android":"levelo://app?vid=7a4ba46c-6362-49a8-982a-a4ee92fd7529","ios":"levelo://app?vid=7a4ba46c-6362-49a8-982a-a4ee92fd7529"},"vehicle_type_id":"4","last_reported":1781286242,"current_range_meters":6800,"station_id":"","pricing_plan_id":"cebpf4jnsgd1na2vs0mg"},{"bike_id":"915cb28c-d594-4444-bf3f-3ea8a9a23666","system_id":"levelo_inurba_marseille","lat":43.27377,"lon":5.36254,"is_reserved":false,"is_disabled":false,"rental_uris":{"android":"levelo://app?vid=915cb28c-d594-4444-bf3f-3ea8a9a23666","ios":"levelo://app?vid=915cb28c-d594-4444-bf3f-3ea8a9a23666"},"vehicle_type_id":"4","last_reported":1781286242,"current_range_meters":6800,"station_id":"ce4bhbh2rcd13ifvqeo0","pricing_plan_id":"cebpf4jnsgd1na2vs0mg"},{"bike_id":"193c0362-8ea1-4e75-91a5-782c1e91f242","system_id":"levelo_inurba_marseille","lat":43.26686,"lon":5.38266,"is_reserved":false,"is_disabled":false,"rental_uris":{"android":"levelo://app?vid=193c0362-8ea1-4e75-91a5-782c1e91f242","ios":"levelo://app?vid=193c0362-8ea1-4e75-91a5-782c1e91f242"},"vehicle_type_id":"4","last_reported":1781286242,"current_range_meters":6800,"station_id":"ce4bhg92rcd13ifvqf90","pricing_plan_id":"cebpf4jnsgd1na2vs0mg"},{"bike_id":"9c43a94c-37d9-46d9-ba9f-41297a9fb44f","system_id":"levelo_inurba_marseille","lat":43.272003,"lon":5.391754,"is_reserved":false,"is_disabled":false,"rental_uris":{"android":"levelo://app?vid=9c43a94c-37d9-46d9-ba9f-41297a9fb44f","ios":"levelo://app?vid=9c43a94c-37d9-46d9-ba9f-41297a9fb44f"},"vehicle_type_id":"4","last_reported":1781286242,"current_range_meters":6800,"station_id":"ce4bhhp2rcd13ifvqfm0","pricing_plan_id":"cebpf4jnsgd1na2vs0mg"},{"bike_id":"a779f5b5-4ccf-4676-bec6-ade36cb6f146","system_id":"levelo_inurba_marseille","lat":43.27707,"lon":5.35693,"is_reserved":false,"is_disabled":false,"rental_uris":{"android":"levelo://app?vid=a779f5b5-4ccf-4676-bec6-ade36cb6f146","ios":"levelo://app?vid=a779f5b5-4ccf-4676-bec6-ade36cb6f146"},"vehicle_type_id":"4","last_reported":1781286242,"current_range_meters":6800,"station_id":"","pricing_plan_id":"cebpf4jnsgd1na2vs0mg"},{"bike_id":"67d79504-0563-4610-907f-80e12b8075dc","system_id":"levelo_inurba_marseille","lat":43.24393,"lon":5.37068,"is_reserved":false,"is_disabled":false,"rental_uris":{"android":"levelo://app?vid=67d79504-0563-4610-907f-80e12b8075dc","ios":"levelo://app?vid=67d79504-0563-4610-907f-80e12b8075dc"},"vehicle_type_id":"4","last_reported":1781286242,"current_range_meters":7200,"station_id":"ce4bhhh2rcd13ifvqfk0","pricing_plan_id":"cebpf4jnsgd1na2vs0mg"},{"bike_id":"1c088a56-c389-4146-b2df-78ef2395fc5b","system_id":"levelo_inurba_marseille","lat":43.2626,"lon":5.38952,"is_reserved":false,"is_disabled":false,"rental_uris":{"android":"levelo://app?vid=1c088a56-c389-4146-b2df-78ef2395fc5b","ios":"levelo://app?vid=1c088a56-c389-4146-b2df-78ef2395fc5b"},"vehicle_type_id":"4","last_reported":1781286242,"current_range_meters":7200,"station_id":"","pricing_plan_id":"cebpf4jnsgd1na2vs0mg"},{"bike_id":"7ec5ac6c-1ad1-484e-b1ac-0dd6240aeac8","system_id":"levelo_inurba_marseille","lat":43.32115,"lon":5.36758,"is_reserved":false,"is_disabled":false,"rental_uris":{"android":"levelo://app?vid=7ec5ac6c-1ad1-484e-b1ac-0dd6240aeac8","ios":"levelo://app?vid=7ec5ac6c-1ad1-484e-b1ac-0dd6240aeac8"},"vehicle_type_id":"4","last_reported":1781286242,"current_range_meters":7200,"station_id":"ce4bhrh2rcd13ifvqhug","pricing_plan_id":"cebpf4jnsgd1na2vs0mg"},{"bike_id":"2ef5f803-14a5-4789-b5c6-9c661d55341d","system_id":"levelo_inurba_marseille","lat":43.2903,"lon":5.39962,"is_reserved":false,"is_disabled":false,"rental_uris":{"android":"levelo://app?vid=2ef5f803-14a5-4789-b5c6-9c661d55341d","ios":"levelo://app?vid=2ef5f803-14a5-4789-b5c6-9c661d55341d"},"vehicle_type_id":"4","last_reported":1781286242,"current_range_meters":7200,"station_id":"ce4bh392rcd13ifvqdm0","pricing_plan_id":"cebpf4jnsgd1na2vs0mg"},{"bike_id":"7c56fbf2-b06b-4ad4-bd6e-fb0ad9ba401c","system_id":"levelo_inurba_marseille","lat":43.2872,"lon":5.37951,"is_reserved":false,"is_disabled":true,"rental_uris":{"android":"levelo://app?vid=7c56fbf2-b06b-4ad4-bd6e-fb0ad9ba401c","ios":"levelo://app?vid=7c56fbf2-b06b-4ad4-bd6e-fb0ad9ba401c"},"vehicle_type_id":"4","last_reported":1781286242,"current_range_meters":7200,"station_id":"ce4bh9p2rcd13ifvqec0","pricing_plan_id":"cebpf4jnsgd1na2vs0mg"},{"bike_id":"0b7dcb14-fddc-4f39-af46-049b907d0bc4","system_id":"levelo_inurba_marseille","lat":43.25821,"lon":5.39432,"is_reserved":false,"is_disabled":false,"rental_uris":{"android":"levelo://app?vid=0b7dcb14-fddc-4f39-af46-049b907d0bc4","ios":"levelo://app?vid=0b7dcb14-fddc-4f39-af46-049b907d0bc4"},"vehicle_type_id":"4","last_reported":1781286242,"current_range_meters":7200,"station_id":"ce4bhip2rcd13ifvqft0","pricing_plan_id":"cebpf4jnsgd1na2vs0mg"},{"bike_id":"670c8bb8-7b6c-44f1-b063-bc57f5908415","system_id":"levelo_inurba_marseille","lat":43.28416,"lon":5.34981,"is_reserved":false,"is_disabled":false,"rental_uris":{"android":"levelo://app?vid=670c8bb8-7b6c-44f1-b063-bc57f5908415","ios":"levelo://app?vid=670c8bb8-7b6c-44f1-b063-bc57f5908415"},"vehicle_type_id":"4","last_reported":1781286242,"current_range_meters":7200,"station_id":"ce4bhbh2rcd13ifvqepg","pricing_plan_id":"cebpf4jnsgd1na2vs0mg"},{"bike_id":"f312a474-3688-43e4-8515-a784a5c48528","system_id":"levelo_inurba_marseille","lat":43.21189,"lon":5.3508,"is_reserved":false,"is_disabled":true,"rental_uris":{"android":"levelo://app?vid=f312a474-3688-43e4-8515-a784a5c48528","ios":"levelo://app?vid=f312a474-3688-43e4-8515-a784a5c48528"},"vehicle_type_id":"4","last_reported":1781286242,"current_range_meters":7200,"station_id":"st_cvj6sg6p6f1abm77japg","pricing_plan_id":"cebpf4jnsgd1na2vs0mg"},{"bike_id":"1accd549-93fa-47e0-ac7c-694d2208ee77","system_id":"levelo_inurba_marseille","lat":43.29197,"lon":5.39312,"is_reserved":false,"is_disabled":false,"rental_uris":{"android":"levelo://app?vid=1accd549-93fa-47e0-ac7c-694d2208ee77","ios":"levelo://app?vid=1accd549-93fa-47e0-ac7c-694d2208ee77"},"vehicle_type_id":"4","last_reported":1781286242,"current_range_meters":7200,"station_id":"ce4bh192rcd13ifvqdd0","pricing_plan_id":"cebpf4jnsgd1na2vs0mg"},{"bike_id":"a0d2ac5f-fff6-43f6-831d-dfa81e9c3981","system_id":"levelo_inurba_marseille","lat":43.29599,"lon":5.36414,"is_reserved":false,"is_disabled":false,"rental_uris":{"android":"levelo://app?vid=a0d2ac5f-fff6-43f6-831d-dfa81e9c3981","ios":"levelo://app?vid=a0d2ac5f-fff6-43f6-831d-dfa81e9c3981"},"vehicle_type_id":"4","last_reported":1781286242,"current_range_meters":7200,"station_id":"","pricing_plan_id":"cebpf4jnsgd1na2vs0mg"},{"bike_id":"ab96553f-a6fa-4bd2-b6f7-3219e86c5658","system_id":"levelo_inurba_marseille","lat":43.22561,"lon":5.41629,"is_reserved":false,"is_disabled":false,"rental_uris":{"android":"levelo://app?vid=ab96553f-a6fa-4bd2-b6f7-3219e86c5658","ios":"levelo://app?vid=ab96553f-a6fa-4bd2-b6f7-3219e86c5658"},"vehicle_type_id":"4","last_reported":1781286242,"current_range_meters":7200,"station_id":"st_d2o4gvlbi1j2169b742g","pricing_plan_id":"cebpf4jnsgd1na2vs0mg"},{"bike_id":"f57ddc5d-b3ad-43f3-bbc4-226ea7be866d","system_id":"levelo_inurba_marseille","lat":43.29853,"lon":5.42272,"is_reserved":false,"is_disabled":false,"rental_uris":{"android":"levelo://app?vid=f57ddc5d-b3ad-43f3-bbc4-226ea7be866d","ios":"levelo://app?vid=f57ddc5d-b3ad-43f3-bbc4-226ea7be866d"},"vehicle_type_id":"4","last_reported":1781286242,"current_range_meters":7200,"station_id":"","pricing_plan_id":"cebpf4jnsgd1na2vs0mg"},{"bike_id":"2787335e-b624-485a-9edc-10c95eda700a","system_id":"levelo_inurba_marseille","lat":43.24776,"lon":5.37466,"is_reserved":false,"is_disabled":false,"rental_uris":{"android":"levelo://app?vid=2787335e-b624-485a-9edc-10c95eda700a","ios":"levelo://app?vid=2787335e-b624-485a-9edc-10c95eda700a"},"vehicle_type_id":"4","last_reported":1781286242,"current_range_meters":7200,"station_id":"","pricing_plan_id":"cebpf4jnsgd1na2vs0mg"},{"bike_id":"0e270971-144a-4b81-96c3-837805f60e9b","system_id":"levelo_inurba_marseille","lat":43.25498,"lon":5.37649,"is_reserved":false,"is_disabled":false,"rental_uris":{"android":"levelo://app?vid=0e270971-144a-4b81-96c3-837805f60e9b","ios":"levelo://app?vid=0e270971-144a-4b81-96c3-837805f60e9b"},"vehicle_type_id":"4","last_reported":1781286242,"current_range_meters":7200,"station_id":"ce4bhh12rcd13ifvqff0","pricing_plan_id":"cebpf4jnsgd1na2vs0mg"},{"bike_id":"fb2a1f7d-f7e9-4d12-bb3c-32e8cd55f82d","system_id":"levelo_inurba_marseille","lat":43.29068,"lon":5.4426,"is_reserved":false,"is_disabled":false,"rental_uris":{"android":"levelo://app?vid=fb2a1f7d-f7e9-4d12-bb3c-32e8cd55f82d","ios":"levelo://app?vid=fb2a1f7d-f7e9-4d12-bb3c-32e8cd55f82d"},"vehicle_type_id":"4","last_reported":1781286242,"current_range_meters":7200,"station_id":"","pricing_plan_id":"cebpf4jnsgd1na2vs0mg"},