{"last_updated":1740514205,"ttl":60,"version":"2.2","data":{"bikes":[{"bike_id":"23bcbba1-6388-4ee7-8abd-865083accc76","system_id":"levelo_inurba_marseille","lat":43.29261,"lon":5.38435,"is_reserved":false,"is_disabled":false,"rental_uris":{"android":"levelo://app?vid=23bcbba1-6388-4ee7-8abd-865083accc76","ios":"levelo://app?vid=23bcbba1-6388-4ee7-8abd-865083accc76"},"vehicle_type_id":"4","last_reported":1740514205,"current_range_meters":2800,"station_id":"ce4bh692rcd13ifvqea0","pricing_plan_id":"cebpf4jnsgd1na2vs0mg"},{"bike_id":"8a99823e-95bc-4ae0-bc57-27776fac6612","system_id":"levelo_inurba_marseille","lat":43.28468,"lon":5.3587,"is_reserved":false,"is_disabled":false,"rental_uris":{"android":"levelo://app?vid=8a99823e-95bc-4ae0-bc57-27776fac6612","ios":"levelo://app?vid=8a99823e-95bc-4ae0-bc57-27776fac6612"},"vehicle_type_id":"4","last_reported":1740514205,"current_range_meters":2800,"station_id":"ce4bhah2rcd13ifvqei0","pricing_plan_id":"cebpf4jnsgd1na2vs0mg"},{"bike_id":"1053f24b-74f1-441a-bfcf-d74cd3b43876","system_id":"levelo_inurba_marseille","lat":43.30917,"lon":5.36886,"is_reserved":false,"is_disabled":false,"rental_uris":{"android":"levelo://app?vid=1053f24b-74f1-441a-bfcf-d74cd3b43876","ios":"levelo://app?vid=1053f24b-74f1-441a-bfcf-d74cd3b43876"},"vehicle_type_id":"4","last_reported":1740514205,"current_range_meters":800,"station_id":"ce4bgn92rcd13ifvqbvg","pricing_plan_id":"cebpf4jnsgd1na2vs0mg"},{"bike_id":"c59a647b-a23a-4e1a-a7f6-4e7d24f39b19","system_id":"levelo_inurba_marseille","lat":43.29462,"lon":5.40189,"is_reserved":false,"is_disabled":false,"rental_uris":{"android":"levelo://app?vid=c59a647b-a23a-4e1a-a7f6-4e7d24f39b19","ios":"levelo://app?vid=c59a647b-a23a-4e1a-a7f6-4e7d24f39b19"},"vehicle_type_id":"4","last_reported":1740514205,"current_range_meters":2800,"station_id":"","pricing_plan_id":"cebpf4jnsgd1na2vs0mg"},{"bike_id":"1438575d-9fd6-43ee-9b6c-848d2f40689b","system_id":"levelo_inurba_marseille","lat":43.31375,"lon":5.38497,"is_reserved":false,"is_disabled":false,"rental_uris":{"android":"levelo://app?vid=1438575d-9fd6-43ee-9b6c-848d2f40689b","ios":"levelo://app?vid=1438575d-9fd6-43ee-9b6c-848d2f40689b"},"vehicle_type_id":"4","last_reported":1740514205,"current_range_meters":2800,"station_id":"ce4bgt92rcd13ifvqcf0","pricing_plan_id":"cebpf4jnsgd1na2vs0mg"},{"bike_id":"c7b3ce7e-a364-40a9-982c-9b4b255e4d4a","system_id":"levelo_inurba_marseille","lat":43.28445,"lon":5.39198,"is_reserved":false,"is_disabled":false,"rental_uris":{"android":"levelo://app?vid=c7b3ce7e-a364-40a9-982c-9b4b255e4d4a","ios":"levelo://app?vid=c7b3ce7e-a364-40a9-982c-9b4b255e4d4a"},"vehicle_type_id":"4","last_reported":1740514205,"current_range_meters":3200,"station_id":"ce4bhoh2rcd13ifvqh5g","pricing_plan_id":"cebpf4jnsgd1na2vs0mg"},{"bike_id":"2d242f84-9b33-470e-ade3-e34011b45b7d","system_id":"levelo_inurba_marseille","lat":43.30606,"lon":5.37227,"is_reserved":false,"is_disabled":false,"rental_uris":{"android":"levelo://app?vid=2d242f84-9b33-470e-ade3-e34011b45b7d","ios":"levelo://app?vid=2d242f84-9b33-470e-ade3-e34011b45b7d"},"vehicle_type_id":"4","last_reported":1740514205,"current_range_meters":2800,"station_id":"ce4bgqh2rcd13ifvqc4g","pricing_plan_id":"cebpf4jnsgd1na2vs0mg"},{"bike_id":"3073ec7a-71d5-47c4-9f51-8ee5e082a668","system_id":"levelo_inurba_marseille","lat":43.23182,"lon":5.39972,"is_reserved":false,"is_disabled":false,"rental_uris":{"android":"levelo://app?vid=3073ec7a-71d5-47c4-9f51-8ee5e082a668","ios":"levelo://app?vid=3073ec7a-71d5-47c4-9f51-8ee5e082a668"},"vehicle_type_id":"4","last_reported":1740514205,"current_range_meters":3200,"station_id":"ce4bhn12rcd13ifvqgqg","pricing_plan_id":"cebpf4jnsgd1na2vs0mg"},{"bike_id":"87357096-c6ad-4c86-b9b5-ef2fa0065e10","system_id":"levelo_inurba_marseille","lat":43.3112,"lon":5.37779,"is_reserved":false,"is_disabled":false,"rental_uris":{"android":"levelo://app?vid=87357096-c6ad-4c86-b9b5-ef2fa0065e10","ios":"levelo://app?vid=87357096-c6ad-4c86-b9b5-ef2fa0065e10"},"vehicle_type_id":"4","last_reported":1740514205,"current_range_meters":4000,"station_id":"ce4bgt92rcd13ifvqcg0","pricing_plan_id":"cebpf4jnsgd1na2vs0mg"},{"bike_id":"15d63c41-d467-4e01-ab9d-1a4d98399eb8","system_id":"levelo_inurba_marseille","lat":43.28088,"lon":5.3966,"is_reserved":false,"is_disabled":true,"rental_uris":{"android":"levelo://app?vid=15d63c41-d467-4e01-ab9d-1a4d98399eb8","ios":"levelo://app?vid=15d63c41-d467-4e01-ab9d-1a4d98399eb8"},"vehicle_type_id":"4","last_reported":1740514205,"current_range_meters":4000,"station_id":"ce4bho12rcd13ifvqh2g","pricing_plan_id":"cebpf4jnsgd1na2vs0mg"},{"bike_id":"d1238b52-40f5-48c8-999b-3b3c590117b0","system_id":"levelo_inurba_marseille","lat":43.30923,"lon":5.40166,"is_reserved":false,"is_disabled":false,"rental_uris":{"android":"levelo://app?vid=d1238b52-40f5-48c8-999b-3b3c590117b0","ios":"levelo://app?vid=d1238b52-40f5-48c8-999b-3b3c590117b0"},"vehicle_type_id":"4","last_reported":1740514205,"current_range_meters":4000,"station_id":"ce4bgvp2rcd13ifvqct0","pricing_plan_id":"cebpf4jnsgd1na2vs0mg"},{"bike_id":"40daa5b0-a928-4f78-8777-24eca1031da0","system_id":"levelo_inurba_marseille","lat":43.29637,"lon":5.40649,"is_reserved":false,"is_disabled":false,"rental_uris":{"android":"levelo://app?vid=40daa5b0-a928-4f78-8777-24eca1031da0","ios":"levelo://app?vid=40daa5b0-a928-4f78-8777-24eca1031da0"},"vehicle_type_id":"4","last_reported":1740514205,"current_range_meters":4400,"station_id":"ce4bh0h2rcd13ifvqd60","pricing_plan_id":"cebpf4jnsgd1na2vs0mg"},{"bike_id":"0bb59f8f-b8ac-4d33-a0e2-78d519f78099","system_id":"levelo_inurba_marseille","lat":43.26228,"lon":5.40449,"is_reserved":false,"is_disabled":false,"rental_uris":{"android":"levelo://app?vid=0bb59f8f-b8ac-4d33-a0e2-78d519f78099","ios":"levelo://app?vid=0bb59f8f-b8ac-4d33-a0e2-78d519f78099"},"vehicle_type_id":"4","last_reported":1740514205,"current_range_meters":4400,"station_id":"ce4bhmh2rcd13ifvqgmg","pricing_plan_id":"cebpf4jnsgd1na2vs0mg"},{"bike_id":"432ff3b1-2ffb-4dd5-910a-aa39ee1d3010","system_id":"levelo_inurba_marseille","lat":43.27819,"lon":5.39226,"is_reserved":false,"is_disabled":false,"rental_uris":{"android":"levelo://app?vid=432ff3b1-2ffb-4dd5-910a-aa39ee1d3010","ios":"levelo://app?vid=432ff3b1-2ffb-4dd5-910a-aa39ee1d3010"},"vehicle_type_id":"4","last_reported":1740514205,"current_range_meters":4400,"station_id":"ce4bhjp2rcd13ifvqga0","pricing_plan_id":"cebpf4jnsgd1na2vs0mg"},{"bike_id":"eb42dd66-6ece-48e1-91c7-4edc22f8b612","system_id":"levelo_inurba_marseille","lat":43.2997,"lon":5.37184,"is_reserved":false,"is_disabled":false,"rental_uris":{"android":"levelo://app?vid=eb42dd66-6ece-48e1-91c7-4edc22f8b612","ios":"levelo://app?vid=eb42dd66-6ece-48e1-91c7-4edc22f8b612"},"vehicle_type_id":"4","last_reported":1740514205,"current_range_meters":4400,"station_id":"ce4bgr92rcd13ifvqc7g","pricing_plan_id":"cebpf4jnsgd1na2vs0mg"},{"bike_id":"f3e2d31b-bf16-4d93-8358-e1b5fc69cdb1","system_id":"levelo_inurba_marseille","lat":43.28104,"lon":5.39867,"is_reserved":false,"is_disabled":false,"rental_uris":{"android":"levelo://app?vid=f3e2d31b-bf16-4d93-8358-e1b5fc69cdb1","ios":"levelo://app?vid=f3e2d31b-bf16-4d93-8358-e1b5fc69cdb1"},"vehicle_type_id":"4","last_reported":1740514205,"current_range_meters":4400,"station_id":"","pricing_plan_id":"cebpf4jnsgd1na2vs0mg"},{"bike_id":"d4308f66-9a96-4170-8380-8cfee77009e0","system_id":"levelo_inurba_marseille","lat":43.287165,"lon":5.37935,"is_reserved":false,"is_disabled":false,"rental_uris":{"android":"levelo://app?vid=d4308f66-9a96-4170-8380-8cfee77009e0","ios":"levelo://app?vid=d4308f66-9a96-4170-8380-8cfee77009e0"},"vehicle_type_id":"4","last_reported":1740514205,"current_range_meters":4000,"station_id":"ce4bh9p2rcd13ifvqec0","pricing_plan_id":"cebpf4jnsgd1na2vs0mg"},{"bike_id":"9b8f5f7b-eb1b-4d40-971c-09edb044a487","system_id":"levelo_inurba_marseille","lat":43.29868,"lon":5.39741,"is_reserved":false,"is_disabled":false,"rental_uris":{"android":"levelo://app?vid=9b8f5f7b-eb1b-4d40-971c-09edb044a487","ios":"levelo://app?vid=9b8f5f7b-eb1b-4d40-971c-09edb044a487"},"vehicle_type_id":"4","last_reported":1740514205,"current_range_meters":4800,"station_id":"ce4bh0h2rcd13ifvqd50","pricing_plan_id":"cebpf4jnsgd1na2vs0mg"},{"bike_id":"48dafaa2-b93d-4e65-93dd-e898eb07fe47","system_id":"levelo_inurba_marseille","lat":43.26062,"lon":5.39393,"is_reserved":false,"is_disabled":false,"rental_uris":{"android":"levelo://app?vid=48dafaa2-b93d-4e65-93dd-e898eb07fe47","ios":"levelo://app?vid=48dafaa2-b93d-4e65-93dd-e898eb07fe47"},"vehicle_type_id":"4","last_reported":1740514205,"current_range_meters":4400,"station_id":"ce4bhh92rcd13ifvqfj0","pricing_plan_id":"cebpf4jnsgd1na2vs0mg"},{"bike_id":"7511bfce-0674-45db-a01f-df833aa5557f","system_id":"levelo_inurba_marseille","lat":43.28937,"lon":5.3664,"is_reserved":false,"is_disabled":false,"rental_uris":{"android":"levelo://app?vid=7511bfce-0674-45db-a01f-df833aa5557f","ios":"levelo://app?vid=7511bfce-0674-45db-a01f-df833aa5557f"},"vehicle_type_id":"4","last_reported":1740514205,"current_range_meters":1200,"station_id":"ce4bhap2rcd13ifvqek0","pricing_plan_id":"cebpf4jnsgd1na2vs0mg"},{"bike_id":"71f606a5-4879-4b26-9ccd-1543fb1a6ec7","system_id":"levelo_inurba_marseille","lat":43.28377,"lon":5.39005,"is_reserved":false,"is_disabled":false,"rental_uris":{"android":"levelo://app?vid=71f606a5-4879-4b26-9ccd-1543fb1a6ec7","ios":"levelo://app?vid=71f606a5-4879-4b26-9ccd-1543fb1a6ec7"},"vehicle_type_id":"4","last_reported":1740514205,"current_range_meters":4800,"station_id":"","pricing_plan_id":"cebpf4jnsgd1na2vs0mg"},{"bike_id":"a20f4f86-8a37-41be-bf41-963fa04395e3","system_id":"levelo_inurba_marseille","lat":43.29022,"lon":5.38646,"is_reserved":false,"is_disabled":true,"rental_uris":{"android":"levelo://app?vid=a20f4f86-8a37-41be-bf41-963fa04395e3","ios":"levelo://app?vid=a20f4f86-8a37-41be-bf41-963fa04395e3"},"vehicle_type_id":"4","last_reported":1740514205,"current_range_meters":4800,"station_id":"ce4bh4p2rcd13ifvqe0g","pricing_plan_id":"cebpf4jnsgd1na2vs0mg"},{"bike_id":"499dbe8f-6e2b-499c-9071-066409711a44","system_id":"levelo_inurba_marseille","lat":43.31528,"lon":5.3803,"is_reserved":false,"is_disabled":false,"rental_uris":{"android":"levelo://app?vid=499dbe8f-6e2b-499c-9071-066409711a44","ios":"levelo://app?vid=499dbe8f-6e2b-499c-9071-066409711a44"},"vehicle_type_id":"4","last_reported":1740514205,"current_range_meters":5600,"station_id":"ce4bhsp2rcd13ifvqi50","pricing_plan_id":"cebpf4jnsgd1na2vs0mg"},{"bike_id":"f90af1e2-937d-48f6-b8f4-10aa4a80ff2d","system_id":"levelo_inurba_marseille","lat":43.29972,"lon":5.38502,"is_reserved":false,"is_disabled":false,"rental_uris":{"android":"levelo://app?vid=f90af1e2-937d-48f6-b8f4-10aa4a80ff2d","ios":"levelo://app?vid=f90af1e2-937d-48f6-b8f4-10aa4a80ff2d"},"vehicle_type_id":"4","last_reported":1740514205,"current_range_meters":5600,"station_id":"ce4bgj92rcd13ifvqbd0","pricing_plan_id":"cebpf4jnsgd1na2vs0mg"},{"bike_id":"2cbef011-6189-4514-a55c-335a5596ff93","system_id":"levelo_inurba_marseille","lat":43.31323,"lon":5.3863,"is_reserved":false,"is_disabled":false,"rental_uris":{"android":"levelo://app?vid=2cbef011-6189-4514-a55c-335a5596ff93","ios":"levelo://app?vid=2cbef011-6189-4514-a55c-335a5596ff93"},"vehicle_type_id":"4","last_reported":1740514205,"current_range_meters":5600,"station_id":"","pricing_plan_id":"cebpf4jnsgd1na2vs0mg"},{"bike_id":"dead2e2b-3f32-4b57-872c-8c43c3c9376e","system_id":"levelo_inurba_marseille","lat":43.30127,"lon":5.39841,"is_reserved":false,"is_disabled":false,"rental_uris":{"android":"levelo://app?vid=dead2e2b-3f32-4b57-872c-8c43c3c9376e","ios":"levelo://app?vid=dead2e2b-3f32-4b57-872c-8c43c3c9376e"},"vehicle_type_id":"4","last_reported":1740514205,"current_range_meters":5600,"station_id":"ce4bh0h2rcd13ifvqd40","pricing_plan_id":"cebpf4jnsgd1na2vs0mg"},{"bike_id":"6a4cfa48-34da-4e1c-83b0-dcb01da2a5fe","system_id":"levelo_inurba_marseille","lat":43.28958,"lon":5.36405,"is_reserved":false,"is_disabled":false,"rental_uris":{"android":"levelo://app?vid=6a4cfa48-34da-4e1c-83b0-dcb01da2a5fe","ios":"levelo://app?vid=6a4cfa48-34da-4e1c-83b0-dcb01da2a5fe"},"vehicle_type_id":"4","last_reported":1740514205,"current_range_meters":6000,"station_id":"ce4bhc92rcd13ifvqetg","pricing_plan_id":"cebpf4jnsgd1na2vs0mg"},{"bike_id":"322c0db9-e580-4b56-9659-2338e6a758a3","system_id":"levelo_inurba_marseille","lat":43.3047,"lon":5.3822,"is_reserved":false,"is_disabled":false,"rental_uris":{"android":"levelo://app?vid=322c0db9-e580-4b56-9659-2338e6a758a3","ios":"levelo://app?vid=322c0db9-e580-4b56-9659-2338e6a758a3"},"vehicle_type_id":"4","last_reported":1740514205,"current_range_meters":6400,"station_id":"","pricing_plan_id":"cebpf4jnsgd1na2vs0mg"},{"bike_id":"17150a21-63a8-4df4-92e7-b364b699a6c6","system_id":"levelo_inurba_marseille","lat":43.23192,"lon":5.39975,"is_reserved":false,"is_disabled":false,"rental_uris":{"android":"levelo://app?vid=17150a21-63a8-4df4-92e7-b364b699a6c6","ios":"levelo://app?vid=17150a21-63a8-4df4-92e7-b364b699a6c6"},"vehicle_type_id":"4","last_reported":1740514205,"current_range_meters":6000,"station_id":"ce4bhn12rcd13ifvqgqg","pricing_plan_id":"cebpf4jnsgd1na2vs0mg"},{"bike_id":"b13858bb-7c44-42c9-9f81-cd83b80c4cec","system_id":"levelo_inurba_marseille","lat":43.26222,"lon":5.40461,"is_reserved":false,"is_disabled":false,"rental_uris":{"android":"levelo://app?vid=b13858bb-7c44-42c9-9f81-cd83b80c4cec","ios":"levelo://app?vid=b13858bb-7c44-42c9-9f81-cd83b80c4cec"},"vehicle_type_id":"4","last_reported":1740514205,"current_range_meters":6400,"station_id":"ce4bhmh2rcd13ifvqgmg","pricing_plan_id":"cebpf4jnsgd1na2vs0mg"},{"bike_id":"04e6b325-7624-4654-91b3-73c4aff25f1d","system_id":"levelo_inurba_marseille","lat":43.29264,"lon":5.38429,"is_reserved":false,"is_disabled":false,"rental_uris":{"android":"levelo://app?vid=04e6b325-7624-4654-91b3-73c4aff25f1d","ios":"levelo://app?vid=04e6b325-7624-4654-91b3-73c4aff25f1d"},"vehicle_type_id":"4","last_reported":1740514205,"current_range_meters":5600,"station_id":"ce4bh692rcd13ifvqea0","pricing_plan_id":"cebpf4jnsgd1na2vs0mg"},{"bike_id":"91b04e18-7589-4fde-bb99-494621a7bf08","system_id":"levelo_inurba_marseille","lat":43.29002,"lon":5.36727,"is_reserved":false,"is_disabled":false,"rental_uris":{"android":"levelo://app?vid=91b04e18-7589-4fde-bb99-494621a7bf08","ios":"levelo://app?vid=91b04e18-7589-4fde-bb99-494621a7bf08"},"vehicle_type_id":"4","last_reported":1740514205,"current_range_meters":6400,"station_id":"ce4bh9p2rcd13ifvqec0","pricing_plan_id":"cebpf4jnsgd1na2vs0mg"},{"bike_id":"e85bf3ac-9297-4fe8-87a9-3213ebf1e510","system_id":"levelo_inurba_marseille","lat":43.27171,"lon":5.40992,"is_reserved":false,"is_disabled":false,"rental_uris":{"android":"levelo://app?vid=e85bf3ac-9297-4fe8-87a9-3213ebf1e510","ios":"levelo://app?vid=e85bf3ac-9297-4fe8-87a9-3213ebf1e510"},"vehicle_type_id":"4","last_reported":1740514205,"current_range_meters":6000,"station_id":"ce4bhl12rcd13ifvqgf0","pricing_plan_id":"cebpf4jnsgd1na2vs0mg"},{"bike_id":"24067980-02e9-4519-860c-537348a90469","system_id":"levelo_inurba_marseille","lat":43.30416,"lon":5.4128,"is_reserved":false,"is_disabled":false,"rental_uris":{"android":"levelo://app?vid=24067980-02e9-4519-860c-537348a90469","ios":"levelo://app?vid=24067980-02e9-4519-860c-537348a90469"},"vehicle_type_id":"4","last_reported":1740514205,"current_range_meters":6400,"station_id":"ce4bhop2rcd13ifvqh8g","pricing_plan_id":"cebpf4jnsgd1na2vs0mg"},{"bike_id":"da634367-acad-40de-ac7c-eb1fe9e9f106","system_id":"levelo_inurba_marseille","lat":43.28702,"lon":5.37375,"is_reserved":false,"is_disabled":true,"rental_uris":{"android":"levelo://app?vid=da634367-acad-40de-ac7c-eb1fe9e9f106","ios":"levelo://app?vid=da634367-acad-40de-ac7c-eb1fe9e9f106"},"vehicle_type_id":"4","last_reported":1740514205,"current_range_meters":6400,"station_id":"ce4bh3p2rcd13ifvqdq0","pricing_plan_id":"cebpf4jnsgd1na2vs0mg"},{"bike_id":"2354121a-5146-4376-91e2-8a013ae5a7f1","system_id":"levelo_inurba_marseille","lat":43.29785,"lon":5.39348,"is_reserved":false,"is_disabled":false,"rental_uris":{"android":"levelo://app?vid=2354121a-5146-4376-91e2-8a013ae5a7f1","ios":"levelo://app?vid=2354121a-5146-4376-91e2-8a013ae5a7f1"},"vehicle_type_id":"4","last_reported":1740514205,"current_range_meters":6000,"station_id":"chh1huq6cuj3fo74tm60","pricing_plan_id":"cebpf4jnsgd1na2vs0mg"},{"bike_id":"55c101dc-b42d-43a5-9df4-19718eecb72d","system_id":"levelo_inurba_marseille","lat":43.28929,"lon":5.35793,"is_reserved":false,"is_disabled":false,"rental_uris":{"android":"levelo://app?vid=55c101dc-b42d-43a5-9df4-19718eecb72d","ios":"levelo://app?vid=55c101dc-b42d-43a5-9df4-19718eecb72d"},"vehicle_type_id":"4","last_reported":1740514205,"current_range_meters":6400,"station_id":"ce4bhb12rcd13ifvqem0","pricing_plan_id":"cebpf4jnsgd1na2vs0mg"},{"bike_id":"a029797b-26aa-43f7-a644-1e5542062099","system_id":"levelo_inurba_marseille","lat":43.30926,"lon":5.40166,"is_reserved":false,"is_disabled":true,"rental_uris":{"android":"levelo://app?vid=a029797b-26aa-43f7-a644-1e5542062099","ios":"levelo://app?vid=a029797b-26aa-43f7-a644-1e5542062099"},"vehicle_type_id":"4","last_reported":1740514205,"current_range_meters":6800,"station_id":"ce4bgvp2rcd13ifvqct0","pricing_plan_id":"cebpf4jnsgd1na2vs0mg"},{"bike_id":"3a208be7-665b-4cab-bd3d-498b56ebc708","system_id":"levelo_inurba_marseille","lat":43.29272,"lon":5.36842,"is_reserved":false,"is_disabled":false,"rental_uris":{"android":"levelo://app?vid=3a208be7-665b-4cab-bd3d-498b56ebc708","ios":"levelo://app?vid=3a208be7-665b-4cab-bd3d-498b56ebc708"},"vehicle_type_id":"4","last_reported":1740514205,"current_range_meters":6400,"station_id":"ce4bhbp2rcd13ifvqesg","pricing_plan_id":"cebpf4jnsgd1na2vs0mg"},{"bike_id":"755a0161-62b4-4833-ab12-ccd6ceb6dd1f","system_id":"levelo_inurba_marseille","lat":43.30922,"lon":5.40154,"is_reserved":false,"is_disabled":true,"rental_uris":{"android":"levelo://app?vid=755a0161-62b4-4833-ab12-ccd6ceb6dd1f","ios":"levelo://app?vid=755a0161-62b4-4833-ab12-ccd6ceb6dd1f"},"vehicle_type_id":"4","last_reported":1740514205,"current_range_meters":6400,"station_id":"ce4bgvp2rcd13ifvqct0","pricing_plan_id":"cebpf4jnsgd1na2vs0mg"},{"bike_id":"b3d6884b-69aa-4c10-bd21-c52ab7c61bb4","system_id":"levelo_inurba_marseille","lat":43.29022,"lon":5.38127,"is_reserved":false,"is_disabled":false,"rental_uris":{"android":"levelo://app?vid=b3d6884b-69aa-4c10-bd21-c52ab7c61bb4","ios":"levelo://app?vid=b3d6884b-69aa-4c10-bd21-c52ab7c61bb4"},"vehicle_type_id":"4","last_reported":1740514205,"current_range_meters":6400,"station_id":"ce4bh4p2rcd13ifvqe1g","pricing_plan_id":"cebpf4jnsgd1na2vs0mg"},{"bike_id":"eca5959f-ee34-40c3-8410-160ba8599d0c","system_id":"levelo_inurba_marseille","lat":43.31372,"lon":5.38493,"is_reserved":false,"is_disabled":false,"rental_uris":{"android":"levelo://app?vid=eca5959f-ee34-40c3-8410-160ba8599d0c","ios":"levelo://app?vid=eca5959f-ee34-40c3-8410-160ba8599d0c"},"vehicle_type_id":"4","last_reported":1740514205,"current_range_meters":6800,"station_id":"ce4bgt92rcd13ifvqcf0","pricing_plan_id":"cebpf4jnsgd1na2vs0mg"},{"bike_id":"8c319107-735d-4235-8b26-7f1391a68542","system_id":"levelo_inurba_marseille","lat":43.27988,"lon":5.41659,"is_reserved":false,"is_disabled":false,"rental_uris":{"android":"levelo://app?vid=8c319107-735d-4235-8b26-7f1391a68542","ios":"levelo://app?vid=8c319107-735d-4235-8b26-7f1391a68542"},"vehicle_type_id":"4","last_reported":1740514205,"current_range_meters":6800,"station_id":"ce4bho12rcd13ifvqh1g","pricing_plan_id":"cebpf4jnsgd1na2vs0mg"},{"bike_id":"0ca81608-f491-428e-8676-572d859eb79c","system_id":"levelo_inurba_marseille","lat":43.23189,"lon":5.3998,"is_reserved":false,"is_disabled":false,"rental_uris":{"android":"levelo://app?vid=0ca81608-f491-428e-8676-572d859eb79c","ios":"levelo://app?vid=0ca81608-f491-428e-8676-572d859eb79c"},"vehicle_type_id":"4","last_reported":1740514205,"current_range_meters":6800,"station_id":"ce4bhn12rcd13ifvqgqg","pricing_plan_id":"cebpf4jnsgd1na2vs0mg"},{"bike_id":"56a05065-ca08-43e8-a39d-ee73850d3d7c","system_id":"levelo_inurba_marseille","lat":43.29888,"lon":5.39765,"is_reserved":false,"is_disabled":false,"rental_uris":{"android":"levelo://app?vid=56a05065-ca08-43e8-a39d-ee73850d3d7c","ios":"levelo://app?vid=56a05065-ca08-43e8-a39d-ee73850d3d7c"},"vehicle_type_id":"4","last_reported":1740514205,"current_range_meters":7200,"station_id":"ce4bh0h2rcd13ifvqd50","pricing_plan_id":"cebpf4jnsgd1na2vs0mg"},{"bike_id":"e84aba14-8678-4c9d-aedc-4fc48e21e259","system_id":"levelo_inurba_marseille","lat":43.28366,"lon":5.38627,"is_reserved":false,"is_disabled":false,"rental_uris":{"android":"levelo://app?vid=e84aba14-8678-4c9d-aedc-4fc48e21e259","ios":"levelo://app?vid=e84aba14-8678-4c9d-aedc-4fc48e21e259"},"vehicle_type_id":"4","last_reported":1740514205,"current_range_meters":6000,"station_id":"ce4bh492rcd13ifvqdvg","pricing_plan_id":"cebpf4jnsgd1na2vs0mg"},{"bike_id":"1c8236a9-96fb-443c-bf9a-d26ed00cc14f","system_id":"levelo_inurba_marseille","lat":43.24659,"lon":5.38157,"is_reserved":false,"is_disabled":false,"rental_uris":{"android":"levelo://app?vid=1c8236a9-96fb-443c-bf9a-d26ed00cc14f","ios":"levelo://app?vid=1c8236a9-96fb-443c-bf9a-d26ed00cc14f"},"vehicle_type_id":"4","last_reported":1740514205,"current_range_meters":6800,"station_id":"ce4bhih2rcd13ifvqfr0","pricing_plan_id":"cebpf4jnsgd1na2vs0mg"},{"bike_id":"48043528-c521-4656-ac42-dd4891924259","system_id":"levelo_inurba_marseille","lat":43.28527,"lon":5.38393,"is_reserved":false,"is_disabled":false,"rental_uris":{"android":"levelo://app?vid=48043528-c521-4656-ac42-dd4891924259","ios":"levelo://app?vid=48043528-c521-4656-ac42-dd4891924259"},"vehicle_type_id":"4","last_reported":1740514205,"current_range_meters":7200,"station_id":"","pricing_plan_id":"cebpf4jnsgd1na2vs0mg"},{"bike_id":"d3a71f4a-b9df-40f0-ba57-77dfd2d1260a","system_id":"levelo_inurba_marseille","lat":43.28449,"lon":5.39191,"is_reserved":false,"is_disabled":false,"rental_uris":{"android":"levelo://app?vid=d3a71f4a-b9df-40f0-ba57-77dfd2d1260a","ios":"levelo://app?vid=d3a71f4a-b9df-40f0-ba57-77dfd2d1260a"},"vehicle_type_id":"4","last_reported":1740514205,"current_range_meters":7200,"station_id":"ce4bhoh2rcd13ifvqh5g","pricing_plan_id":"cebpf4jnsgd1na2vs0mg"},{"bike_id":"5162c2ce-a731-4d3b-a21a-a1c8cb63150f","system_id":"levelo_inurba_marseille","lat":43.31713,"lon":5.4368,"is_reserved":false,"is_disabled":false,"rental_uris":{"android":"levelo://app?vid=5162c2ce-a731-4d3b-a21a-a1c8cb63150f","ios":"levelo://app?vid=5162c2ce-a731-4d3b-a21a-a1c8cb63150f"},"vehicle_type_id":"4","last_reported":1740514205,"current_range_meters":8000,"station_id":"ce4bhp92rcd13ifvqhcg","pricing_plan_id":"cebpf4jnsgd1na2vs0mg"},{"bike_id":"0a72916f-db65-4d32-976f-b2305f3c3331","system_id":"levelo_inurba_marseille","lat":43.31758,"lon":5.39034,"is_reserved":false,"is_disabled":false,"rental_uris":{"android":"levelo://app?vid=0a72916f-db65-4d32-976f-b2305f3c3331","ios":"levelo://app?vid=0a72916f-db65-4d32-976f-b2305f3c3331"},"vehicle_type_id":"4","last_reported":1740514205,"current_range_meters":7200,"station_id":"ce4bhqp2rcd13ifvqhng","pricing_plan_id":"cebpf4jnsgd1na2vs0mg"},{"bike_id":"b0319319-1ae3-4867-bf81-d240c9f190cb","system_id":"levelo_inurba_marseille","lat":43.28622,"lon":5.35096,"is_reserved":false,"is_disabled":false,"rental_uris":{"android":"levelo://app?vid=b0319319-1ae3-4867-bf81-d240c9f190cb","ios":"levelo://app?vid=b0319319-1ae3-4867-bf81-d240c9f190cb"},"vehicle_type_id":"4","last_reported":1740514205,"current_range_meters":7200,"station_id":"ce4bhch2rcd13ifvqeug","pricing_plan_id":"cebpf4jnsgd1na2vs0mg"},{"bike_id":"80dcec99-d14d-454c-af74-799686309b71","system_id":"levelo_inurba_marseille","lat":43.28268,"lon":5.35065,"is_reserved":false,"is_disabled":false,"rental_uris":{"android":"levelo://app?vid=80dcec99-d14d-454c-af74-799686309b71","ios":"levelo://app?vid=80dcec99-d14d-454c-af74-799686309b71"},"vehicle_type_id":"4","last_reported":1740514205,"current_range_meters":8000,"station_id":"ce4bhbp2rcd13ifvqerg","pricing_plan_id":"cebpf4jnsgd1na2vs0mg"},{"bike_id":"146aebc9-098b-47c2-b26e-46c1350561bc","system_id":"levelo_inurba_marseille","lat":43.337692,"lon":5.374803,"is_reserved":false,"is_disabled":false,"rental_uris":{"android":"levelo://app?vid=146aebc9-098b-47c2-b26e-46c1350561bc","ios":"levelo://app?vid=146aebc9-098b-47c2-b26e-46c1350561bc"},"vehicle_type_id":"4","last_reported":1740514205,"current_range_meters":8000,"station_id":"","pricing_plan_id":"cebpf4jnsgd1na2vs0mg"},{"bike_id":"971c854a-70b1-4773-9030-cfa64c261bab","system_id":"levelo_inurba_marseille","lat":43.28465,"lon":5.35896,"is_reserved":false,"is_disabled":false,"rental_uris":{"android":"levelo://app?vid=971c854a-70b1-4773-9030-cfa64c261bab","ios":"levelo://app?vid=971c854a-70b1-4773-9030-cfa64c261bab"},"vehicle_type_id":"4","last_reported":1740514205,"current_range_meters":8000,"station_id":"ce4bhah2rcd13ifvqei0","pricing_plan_id":"cebpf4jnsgd1na2vs0mg"},{"bike_id":"c22bb7b1-8294-4a91-8c73-12964d2824a4","system_id":"levelo_inurba_marseille","lat":43.25728,"lon":5.41108,"is_reserved":false,"is_disabled":false,"rental_uris":{"android":"levelo://app?vid=c22bb7b1-8294-4a91-8c73-12964d2824a4","ios":"levelo://app?vid=c22bb7b1-8294-4a91-8c73-12964d2824a4"},"vehicle_type_id":"4","last_reported":1740514205,"current_range_meters":7200,"station_id":"ce4bhkp2rcd13ifvqgd0","pricing_plan_id":"cebpf4jnsgd1na2vs0mg"},{"bike_id":"652e010c-c05f-4832-a370-b768a2682f44","system_id":"levelo_inurba_marseille","lat":43.32342,"lon":5.38635,"is_reserved":false,"is_disabled":false,"rental_uris":{"android":"levelo://app?vid=652e010c-c05f-4832-a370-b768a2682f44","ios":"levelo://app?vid=652e010c-c05f-4832-a370-b768a2682f44"},"vehicle_type_id":"4","last_reported":1740514205,"current_range_meters":8000,"station_id":"","pricing_plan_id":"cebpf4jnsgd1na2vs0mg"},{"bike_id":"ceff7498-623c-49c6-b291-d6b8b533e34e","system_id":"levelo_inurba_marseille","lat":43.32355,"lon":5.38938,"is_reserved":false,"is_disabled":false,"rental_uris":{"android":"levelo://app?vid=ceff7498-623c-49c6-b291-d6b8b533e34e","ios":"levelo://app?vid=ceff7498-623c-49c6-b291-d6b8b533e34e"},"vehicle_type_id":"4","last_reported":1740514205,"current_range_meters":8000,"station_id":"ce4bhqp2rcd13ifvqhog","pricing_plan_id":"cebpf4jnsgd1na2vs0mg"},{"bike_id":"9571b162-82ed-4426-aa5e-4587ee2d3fd0","system_id":"levelo_inurba_marseille","lat":43.28617,"lon":5.35107,"is_reserved":false,"is_disabled":false,"rental_uris":{"android":"levelo://app?vid=9571b162-82ed-4426-aa5e-4587ee2d3fd0","ios":"levelo://app?vid=9571b162-82ed-4426-aa5e-4587ee2d3fd0"},"vehicle_type_id":"4","last_reported":1740514205,"current_range_meters":8000,"station_id":"ce4bhch2rcd13ifvqeug","pricing_plan_id":"cebpf4jnsgd1na2vs0mg"},{"bike_id":"ad15a503-e243-4704-8cbb-77d92c75e1d9","system_id":"levelo_inurba_marseille","lat":43.28429,"lon":5.39211,"is_reserved":false,"is_disabled":true,"rental_uris":{"android":"levelo://app?vid=ad15a503-e243-4704-8cbb-77d92c75e1d9","ios":"levelo://app?vid=ad15a503-e243-4704-8cbb-77d92c75e1d9"},"vehicle_type_id":"4","last_reported":1740514205,"current_range_meters":8000,"station_id":"ce4bhoh2rcd13ifvqh5g","pricing_plan_id":"cebpf4jnsgd1na2vs0mg"},{"bike_id":"f0b9b7b3-74fd-4385-99d9-4315ce91725b","system_id":"levelo_inurba_marseille","lat":43.27831,"lon":5.39218,"is_reserved":false,"is_disabled":false,"rental_uris":{"android":"levelo://app?vid=f0b9b7b3-74fd-4385-99d9-4315ce91725b","ios":"levelo://app?vid=f0b9b7b3-74fd-4385-99d9-4315ce91725b"},"vehicle_type_id":"4","last_reported":1740514205,"current_range_meters":8000,"station_id":"ce4bhjp2rcd13ifvqga0","pricing_plan_id":"cebpf4jnsgd1na2vs0mg"},{"bike_id":"3663f829-7050-4e49-be23-5885b47d0581","system_id":"levelo_inurba_marseille","lat":43.29528,"lon":5.39397,"is_reserved":false,"is_disabled":false,"rental_uris":{"android":"levelo://app?vid=3663f829-7050-4e49-be23-5885b47d0581","ios":"levelo://app?vid=3663f829-7050-4e49-be23-5885b47d0581"},"vehicle_type_id":"4","last_reported":1740514205,"current_range_meters":8000,"station_id":"ce4bh292rcd13ifvqdf0","pricing_plan_id":"cebpf4jnsgd1na2vs0mg"},{"bike_id":"2b257746-de5b-4961-bba8-01bf7d4aea64","system_id":"levelo_inurba_marseille","lat":43.27952,"lon":5.41043,"is_reserved":false,"is_disabled":false,"rental_uris":{"android":"levelo://app?vid=2b257746-de5b-4961-bba8-01bf7d4aea64","ios":"levelo://app?vid=2b257746-de5b-4961-bba8-01bf7d4aea64"},"vehicle_type_id":"4","last_reported":1740514205,"current_range_meters":8400,"station_id":"ce4bhnp2rcd13ifvqh0g","pricing_plan_id":"cebpf4jnsgd1na2vs0mg"},{"bike_id":"f870b062-3bb6-4aac-a758-4b349ea3bb25","system_id":"levelo_inurba_marseille","lat":43.28936,"lon":5.36648,"is_reserved":false,"is_disabled":false,"rental_uris":{"android":"levelo://app?vid=f870b062-3bb6-4aac-a758-4b349ea3bb25","ios":"levelo://app?vid=f870b062-3bb6-4aac-a758-4b349ea3bb25"},"vehicle_type_id":"4","last_reported":1740514205,"current_range_meters":8400,"station_id":"ce4bhap2rcd13ifvqek0","pricing_plan_id":"cebpf4jnsgd1na2vs0mg"},{"bike_id":"756989b1-c347-4776-bce4-8b7b90a36817","system_id":"levelo_inurba_marseille","lat":43.23191,"lon":5.39986,"is_reserved":false,"is_disabled":false,"rental_uris":{"android":"levelo://app?vid=756989b1-c347-4776-bce4-8b7b90a36817","ios":"levelo://app?vid=756989b1-c347-4776-bce4-8b7b90a36817"},"vehicle_type_id":"4","last_reported":1740514205,"current_range_meters":8400,"station_id":"ce4bhn12rcd13ifvqgqg","pricing_plan_id":"cebpf4jnsgd1na2vs0mg"},{"bike_id":"8f1d4600-78a5-4659-8a3c-759cb0ac741b","system_id":"levelo_inurba_marseille","lat":43.27841,"lon":5.39206,"is_reserved":false,"is_disabled":false,"rental_uris":{"android":"levelo://app?vid=8f1d4600-78a5-4659-8a3c-759cb0ac741b","ios":"levelo://app?vid=8f1d4600-78a5-4659-8a3c-759cb0ac741b"},"vehicle_type_id":"4","last_reported":1740514205,"current_range_meters":8400,"station_id":"ce4bhjp2rcd13ifvqga0","pricing_plan_id":"cebpf4jnsgd1na2vs0mg"},{"bike_id":"30b3586f-3255-4f32-a11e-691dc41b0e72","system_id":"levelo_inurba_marseille","lat":43.31758,"lon":5.38988,"is_reserved":false,"is_disabled":false,"rental_uris":{"android":"levelo://app?vid=30b3586f-3255-4f32-a11e-691dc41b0e72","ios":"levelo://app?vid=30b3586f-3255-4f32-a11e-691dc41b0e72"},"vehicle_type_id":"4","last_reported":1740514205,"current_range_meters":8800,"station_id":"ce4bhqp2rcd13ifvqhng","pricing_plan_id":"cebpf4jnsgd1na2vs0mg"},{"bike_id":"a8610561-53bf-43a3-a927-7f297af8dce6","system_id":"levelo_inurba_marseille","lat":43.27839,"lon":5.39209,"is_reserved":false,"is_disabled":false,"rental_uris":{"android":"levelo://app?vid=a8610561-53bf-43a3-a927-7f297af8dce6","ios":"levelo://app?vid=a8610561-53bf-43a3-a927-7f297af8dce6"},"vehicle_type_id":"4","last_reported":1740514205,"current_range_meters":8000,"station_id":"ce4bhjp2rcd13ifvqga0","pricing_plan_id":"cebpf4jnsgd1na2vs0mg"},{"bike_id":"edb9dbba-c2f4-4522-ba28-d1080ec5bb6f","system_id":"levelo_inurba_marseille","lat":43.295979,"lon":5.376339,"is_reserved":false,"is_disabled":false,"rental_uris":{"android":"levelo://app?vid=edb9dbba-c2f4-4522-ba28-d1080ec5bb6f","ios":"levelo://app?vid=edb9dbba-c2f4-4522-ba28-d1080ec5bb6f"},"vehicle_type_id":"4","last_reported":1740514205,"current_range_meters":8400,"station_id":"ce4bh692rcd13ifvqea0","pricing_plan_id":"cebpf4jnsgd1na2vs0mg"},{"bike_id":"f80ae02a-2634-4648-af62-475ab70cb732","system_id":"levelo_inurba_marseille","lat":43.28287,"lon":5.35099,"is_reserved":false,"is_disabled":false,"rental_uris":{"android":"levelo://app?vid=f80ae02a-2634-4648-af62-475ab70cb732","ios":"levelo://app?vid=f80ae02a-2634-4648-af62-475ab70cb732"},"vehicle_type_id":"4","last_reported":1740514205,"current_range_meters":8400,"station_id":"ce4bhbp2rcd13ifvqerg","pricing_plan_id":"cebpf4jnsgd1na2vs0mg"},{"bike_id":"2194b31b-8694-4444-b001-a0fdec19b2df","system_id":"levelo_inurba_marseille","lat":43.24804,"lon":5.37452,"is_reserved":false,"is_disabled":false,"rental_uris":{"android":"levelo://app?vid=2194b31b-8694-4444-b001-a0fdec19b2df","ios":"levelo://app?vid=2194b31b-8694-4444-b001-a0fdec19b2df"},"vehicle_type_id":"4","last_reported":1740514205,"current_range_meters":8400,"station_id":"ce4bhgh2rcd13ifvqfb0","pricing_plan_id":"cebpf4jnsgd1na2vs0mg"},{"bike_id":"232b55c6-adc4-496e-9190-ad1f8540aeff","system_id":"levelo_inurba_marseille","lat":43.28669,"lon":5.4007,"is_reserved":false,"is_disabled":false,"rental_uris":{"android":"levelo://app?vid=232b55c6-adc4-496e-9190-ad1f8540aeff","ios":"levelo://app?vid=232b55c6-adc4-496e-9190-ad1f8540aeff"},"vehicle_type_id":"4","last_reported":1740514205,"current_range_meters":7200,"station_id":"","pricing_plan_id":"cebpf4jnsgd1na2vs0mg"},{"bike_id":"5d16d1bf-f6ed-4f5b-bb86-2af7c04f4aef","system_id":"levelo_inurba_marseille","lat":43.25747,"lon":5.41106,"is_reserved":false,"is_disabled":false,"rental_uris":{"android":"levelo://app?vid=5d16d1bf-f6ed-4f5b-bb86-2af7c04f4aef","ios":"levelo://app?vid=5d16d1bf-f6ed-4f5b-bb86-2af7c04f4aef"},"vehicle_type_id":"4","last_reported":1740514205,"current_range_meters":8400,"station_id":"ce4bhkp2rcd13ifvqgd0","pricing_plan_id":"cebpf4jnsgd1na2vs0mg"},{"bike_id":"e60c3d7a-558d-40da-9213-6b846f4e8868","system_id":"levelo_inurba_marseille","lat":43.28149,"lon":5.42645,"is_reserved":false,"is_disabled":false,"rental_uris":{"android":"levelo://app?vid=e60c3d7a-558d-40da-9213-6b846f4e8868","ios":"levelo://app?vid=e60c3d7a-558d-40da-9213-6b846f4e8868"},"vehicle_type_id":"4","last_reported":1740514205,"current_range_meters":8800,"station_id":"ce4bhnh2rcd13ifvqgug","pricing_plan_id":"cebpf4jnsgd1na2vs0mg"},{"bike_id":"04fed40f-6366-4adc-8110-34cd72fc4be4","system_id":"levelo_inurba_marseille","lat":43.28462,"lon":5.35892,"is_reserved":false,"is_disabled":false,"rental_uris":{"android":"levelo://app?vid=04fed40f-6366-4adc-8110-34cd72fc4be4","ios":"levelo://app?vid=04fed40f-6366-4adc-8110-34cd72fc4be4"},"vehicle_type_id":"4","last_reported":1740514205,"current_range_meters":8800,"station_id":"ce4bhah2rcd13ifvqei0","pricing_plan_id":"cebpf4jnsgd1na2vs0mg"},{"bike_id":"404707dc-9bc8-4ae9-991c-b2462a72168c","system_id":"levelo_inurba_marseille","lat":43.324806,"lon":5.364933,"is_reserved":false,"is_disabled":false,"rental_uris":{"android":"levelo://app?vid=404707dc-9bc8-4ae9-991c-b2462a72168c","ios":"levelo://app?vid=404707dc-9bc8-4ae9-991c-b2462a72168c"},"vehicle_type_id":"4","last_reported":1740514205,"current_range_meters":11200,"station_id":"ce4bgih2rcd13ifvqba0","pricing_plan_id":"cebpf4jnsgd1na2vs0mg"},{"bike_id":"76d65d8e-cf62-4c68-bb0c-0b659644670f","system_id":"levelo_inurba_marseille","lat":43.29263,"lon":5.38425,"is_reserved":false,"is_disabled":false,"rental_uris":{"android":"levelo://app?vid=76d65d8e-cf62-4c68-bb0c-0b659644670f","ios":"levelo://app?vid=76d65d8e-cf62-4c68-bb0c-0b659644670f"},"vehicle_type_id":"4","last_reported":1740514205,"current_range_meters":12400,"station_id":"ce4bh692rcd13ifvqea0","pricing_plan_id":"cebpf4jnsgd1na2vs0mg"},{"bike_id":"ae8a19c6-d644-4dc9-829e-8caf6b1d2af0","system_id":"levelo_inurba_marseille","lat":43.27203,"lon":5.39196,"is_reserved":false,"is_disabled":true,"rental_uris":{"android":"levelo://app?vid=ae8a19c6-d644-4dc9-829e-8caf6b1d2af0","ios":"levelo://app?vid=ae8a19c6-d644-4dc9-829e-8caf6b1d2af0"},"vehicle_type_id":"4","last_reported":1740514205,"current_range_meters":9200,"station_id":"ce4bhhp2rcd13ifvqfm0","pricing_plan_id":"cebpf4jnsgd1na2vs0mg"},{"bike_id":"8ec584e6-6850-4470-8223-2930ee03d0d0","system_id":"levelo_inurba_marseille","lat":43.29966,"lon":5.38463,"is_reserved":false,"is_disabled":false,"rental_uris":{"android":"levelo://app?vid=8ec584e6-6850-4470-8223-2930ee03d0d0","ios":"levelo://app?vid=8ec584e6-6850-4470-8223-2930ee03d0d0"},"vehicle_type_id":"4","last_reported":1740514205,"current_range_meters":14800,"station_id":"ce4bgj92rcd13ifvqbd0","pricing_plan_id":"cebpf4jnsgd1na2vs0mg"},{"bike_id":"85d00345-c715-4926-bd45-97ffd1b30a35","system_id":"levelo_inurba_marseille","lat":43.29529,"lon":5.3854,"is_reserved":false,"is_disabled":false,"rental_uris":{"android":"levelo://app?vid=85d00345-c715-4926-bd45-97ffd1b30a35","ios":"levelo://app?vid=85d00345-c715-4926-bd45-97ffd1b30a35"},"vehicle_type_id":"4","last_reported":1740514205,"current_range_meters":9200,"station_id":"ce4bgih2rcd13ifvqba0","pricing_plan_id":"cebpf4jnsgd1na2vs0mg"},{"bike_id":"32cba444-bf10-4fc3-8360-0c640be799a0","system_id":"levelo_inurba_marseille","lat":43.29535,"lon":5.38544,"is_reserved":false,"is_disabled":false,"rental_uris":{"android":"levelo://app?vid=32cba444-bf10-4fc3-8360-0c640be799a0","ios":"levelo://app?vid=32cba444-bf10-4fc3-8360-0c640be799a0"},"vehicle_type_id":"4","last_reported":1740514205,"current_range_meters":9200,"station_id":"ce4bgih2rcd13ifvqba0","pricing_plan_id":"cebpf4jnsgd1na2vs0mg"},{"bike_id":"e5c275a2-a964-47d8-9489-ed1126cf4cef","system_id":"levelo_inurba_marseille","lat":43.29604,"lon":5.3791,"is_reserved":false,"is_disabled":false,"rental_uris":{"android":"levelo://app?vid=e5c275a2-a964-47d8-9489-ed1126cf4cef","ios":"levelo://app?vid=e5c275a2-a964-47d8-9489-ed1126cf4cef"},"vehicle_type_id":"4","last_reported":1740514205,"current_range_meters":9200,"station_id":"","pricing_plan_id":"cebpf4jnsgd1na2vs0mg"},{"bike_id":"7b320f13-55f6-4dc6-b0ad-9bd62a123951","system_id":"levelo_inurba_marseille","lat":43.2893,"lon":5.36637,"is_reserved":false,"is_disabled":false,"rental_uris":{"android":"levelo://app?vid=7b320f13-55f6-4dc6-b0ad-9bd62a123951","ios":"levelo://app?vid=7b320f13-55f6-4dc6-b0ad-9bd62a123951"},"vehicle_type_id":"4","last_reported":1740514205,"current_range_meters":9200,"station_id":"ce4bhap2rcd13ifvqek0","pricing_plan_id":"cebpf4jnsgd1na2vs0mg"},{"bike_id":"fcc553e3-17ef-485e-bd4e-11e46360b44f","system_id":"levelo_inurba_marseille","lat":43.28934,"lon":5.36636,"is_reserved":false,"is_disabled":false,"rental_uris":{"android":"levelo://app?vid=fcc553e3-17ef-485e-bd4e-11e46360b44f","ios":"levelo://app?vid=fcc553e3-17ef-485e-bd4e-11e46360b44f"},"vehicle_type_id":"4","last_reported":1740514205,"current_range_meters":9200,"station_id":"ce4bhap2rcd13ifvqek0","pricing_plan_id":"cebpf4jnsgd1na2vs0mg"},{"bike_id":"c44dbbbc-5df8-4016-ab02-4763c39db4ed","system_id":"levelo_inurba_marseille","lat":43.31723,"lon":5.424,"is_reserved":false,"is_disabled":false,"rental_uris":{"android":"levelo://app?vid=c44dbbbc-5df8-4016-ab02-4763c39db4ed","ios":"levelo://app?vid=c44dbbbc-5df8-4016-ab02-4763c39db4ed"},"vehicle_type_id":"4","last_reported":1740514205,"current_range_meters":2000,"station_id":"ce4bhp92rcd13ifvqhbg","pricing_plan_id":"cebpf4jnsgd1na2vs0mg"},{"bike_id":"8f9c93fb-eeee-46b2-a0ee-c43c3d59dd96","system_id":"levelo_inurba_marseille","lat":43.28182,"lon":5.42598,"is_reserved":false,"is_disabled":false,"rental_uris":{"android":"levelo://app?vid=8f9c93fb-eeee-46b2-a0ee-c43c3d59dd96","ios":"levelo://app?vid=8f9c93fb-eeee-46b2-a0ee-c43c3d59dd96"},"vehicle_type_id":"4","last_reported":1740514205,"current_range_meters":9200,"station_id":"ce4bhnh2rcd13ifvqgug","pricing_plan_id":"cebpf4jnsgd1na2vs0mg"},{"bike_id":"b301d4a6-d7b2-4729-8a87-0ef1b2650231","system_id":"levelo_inurba_marseille","lat":43.30792,"lon":5.37656,"is_reserved":false,"is_disabled":false,"rental_uris":{"android":"levelo://app?vid=b301d4a6-d7b2-4729-8a87-0ef1b2650231","ios":"levelo://app?vid=b301d4a6-d7b2-4729-8a87-0ef1b2650231"},"vehicle_type_id":"4","last_reported":1740514205,"current_range_meters":9600,"station_id":"ce4bgv92rcd13ifvqcq0","pricing_plan_id":"cebpf4jnsgd1na2vs0mg"},{"bike_id":"64fc711e-b181-40f9-b5d5-796514708c1e","system_id":"levelo_inurba_marseille","lat":43.27999,"lon":5.41661,"is_reserved":false,"is_disabled":false,"rental_uris":{"android":"levelo://app?vid=64fc711e-b181-40f9-b5d5-796514708c1e","ios":"levelo://app?vid=64fc711e-b181-40f9-b5d5-796514708c1e"},"vehicle_type_id":"4","last_reported":1740514205,"current_range_meters":9600,"station_id":"ce4bho12rcd13ifvqh1g","pricing_plan_id":"cebpf4jnsgd1na2vs0mg"},{"bike_id":"b8056528-61d4-45d9-b2dd-e6ab8ef50c51","system_id":"levelo_inurba_marseille","lat":43.31285,"lon":5.40183,"is_reserved":false,"is_disabled":false,"rental_uris":{"android":"levelo://app?vid=b8056528-61d4-45d9-b2dd-e6ab8ef50c51","ios":"levelo://app?vid=b8056528-61d4-45d9-b2dd-e6ab8ef50c51"},"vehicle_type_id":"4","last_reported":1740514205,"current_range_meters":10000,"station_id":"ce4bh092rcd13ifvqd30","pricing_plan_id":"cebpf4jnsgd1na2vs0mg"},{"bike_id":"92f819fc-8c61-4bd8-bc2c-008997290d86","system_id":"levelo_inurba_marseille","lat":43.30264,"lon":5.40054,"is_reserved":false,"is_disabled":false,"rental_uris":{"android":"levelo://app?vid=92f819fc-8c61-4bd8-bc2c-008997290d86","ios":"levelo://app?vid=92f819fc-8c61-4bd8-bc2c-008997290d86"},"vehicle_type_id":"4","last_reported":1740514205,"current_range_meters":9200,"station_id":"ce4bgvh2rcd13ifvqcs0","pricing_plan_id":"cebpf4jnsgd1na2vs0mg"},{"bike_id":"81854ebf-0024-4e94-a1b8-7d3d711b5ad6","system_id":"levelo_inurba_marseille","lat":43.30104,"lon":5.39068,"is_reserved":false,"is_disabled":false,"rental_uris":{"android":"levelo://app?vid=81854ebf-0024-4e94-a1b8-7d3d711b5ad6","ios":"levelo://app?vid=81854ebf-0024-4e94-a1b8-7d3d711b5ad6"},"vehicle_type_id":"4","last_reported":1740514205,"current_range_meters":9600,"station_id":"ce4bh192rcd13ifvqdb0","pricing_plan_id":"cebpf4jnsgd1na2vs0mg"},{"bike_id":"43ac663c-c64e-48a9-99b2-d86c9807fdf6","system_id":"levelo_inurba_marseille","lat":43.2842,"lon":5.37522,"is_reserved":false,"is_disabled":false,"rental_uris":{"android":"levelo://app?vid=43ac663c-c64e-48a9-99b2-d86c9807fdf6","ios":"levelo://app?vid=43ac663c-c64e-48a9-99b2-d86c9807fdf6"},"vehicle_type_id":"4","last_reported":1740514205,"current_range_meters":9600,"station_id":"ce4bh412rcd13ifvqds0","pricing_plan_id":"cebpf4jnsgd1na2vs0mg"},{"bike_id":"09a58a03-56f4-486c-a6f7-468f3332eea8","system_id":"levelo_inurba_marseille","lat":43.24548,"lon":5.3953,"is_reserved":false,"is_disabled":false,"rental_uris":{"android":"levelo://app?vid=09a58a03-56f4-486c-a6f7-468f3332eea8","ios":"levelo://app?vid=09a58a03-56f4-486c-a6f7-468f3332eea8"},"vehicle_type_id":"4","last_reported":1740514205,"current_range_meters":9600,"station_id":"ce4bhlp2rcd13ifvqgjg","pricing_plan_id":"cebpf4jnsgd1na2vs0mg"},{"bike_id":"a141b9ae-2c6e-41ff-a4a5-632b6f8fa821","system_id":"levelo_inurba_marseille","lat":43.28359,"lon":5.38118,"is_reserved":false,"is_disabled":false,"rental_uris":{"android":"levelo://app?vid=a141b9ae-2c6e-41ff-a4a5-632b6f8fa821","ios":"levelo://app?vid=a141b9ae-2c6e-41ff-a4a5-632b6f8fa821"},"vehicle_type_id":"4","last_reported":1740514205,"current_range_meters":10000,"station_id":"ce4bh412rcd13ifvqdr0","pricing_plan_id":"cebpf4jnsgd1na2vs0mg"},{"bike_id":"7a1baf5f-d71d-404d-a64d-353306dafd82","system_id":"levelo_inurba_marseille","lat":43.28456,"lon":5.35888,"is_reserved":false,"is_disabled":false,"rental_uris":{"android":"levelo://app?vid=7a1baf5f-d71d-404d-a64d-353306dafd82","ios":"levelo://app?vid=7a1baf5f-d71d-404d-a64d-353306dafd82"},"vehicle_type_id":"4","last_reported":1740514205,"current_range_meters":10000,"station_id":"ce4bhah2rcd13ifvqei0","pricing_plan_id":"cebpf4jnsgd1na2vs0mg"},{"bike_id":"05f51bd6-bf8c-4b6c-ba2f-d7bf7cec3006","system_id":"levelo_inurba_marseille","lat":43.23191,"lon":5.3557,"is_reserved":false,"is_disabled":false,"rental_uris":{"android":"levelo://app?vid=05f51bd6-bf8c-4b6c-ba2f-d7bf7cec3006","ios":"levelo://app?vid=05f51bd6-bf8c-4b6c-ba2f-d7bf7cec3006"},"vehicle_type_id":"4","last_reported":1740514205,"current_range_meters":10800,"station_id":"ce4bhu92rcd13ifvqi70","pricing_plan_id":"cebpf4jnsgd1na2vs0mg"},{"bike_id":"b4af0b81-2f5c-4a39-b920-a8c83a777a9d","system_id":"levelo_inurba_marseille","lat":43.30316,"lon":5.4044,"is_reserved":false,"is_disabled":false,"rental_uris":{"android":"levelo://app?vid=b4af0b81-2f5c-4a39-b920-a8c83a777a9d","ios":"levelo://app?vid=b4af0b81-2f5c-4a39-b920-a8c83a777a9d"},"vehicle_type_id":"4","last_reported":1740514205,"current_range_meters":10000,"station_id":"ce4bh012rcd13ifvqd10","pricing_plan_id":"cebpf4jnsgd1na2vs0mg"},{"bike_id":"81f5a0ac-9fbc-4093-9829-7c67f70cb06b","system_id":"levelo_inurba_marseille","lat":43.31383,"lon":5.38614,"is_reserved":false,"is_disabled":false,"rental_uris":{"android":"levelo://app?vid=81f5a0ac-9fbc-4093-9829-7c67f70cb06b","ios":"levelo://app?vid=81f5a0ac-9fbc-4093-9829-7c67f70cb06b"},"vehicle_type_id":"4","last_reported":1740514205,"current_range_meters":10800,"station_id":"","pricing_plan_id":"cebpf4jnsgd1na2vs0mg"},{"bike_id":"6ddf9c8e-4a2b-4553-a551-38d95977f868","system_id":"levelo_inurba_marseille","lat":43.29419,"lon":5.38624,"is_reserved":false,"is_disabled":false,"rental_uris":{"android":"levelo://app?vid=6ddf9c8e-4a2b-4553-a551-38d95977f868","ios":"levelo://app?vid=6ddf9c8e-4a2b-4553-a551-38d95977f868"},"vehicle_type_id":"4","last_reported":1740514205,"current_range_meters":10000,"station_id":"ce4bh2h2rcd13ifvqdh0","pricing_plan_id":"cebpf4jnsgd1na2vs0mg"},{"bike_id":"43d63f8a-f3b7-4d7c-be3c-996582d0e403","system_id":"levelo_inurba_marseille","lat":43.28408,"lon":5.37532,"is_reserved":false,"is_disabled":false,"rental_uris":{"android":"levelo://app?vid=43d63f8a-f3b7-4d7c-be3c-996582d0e403","ios":"levelo://app?vid=43d63f8a-f3b7-4d7c-be3c-996582d0e403"},"vehicle_type_id":"4","last_reported":1740514205,"current_range_meters":10000,"station_id":"ce4bh412rcd13ifvqds0","pricing_plan_id":"cebpf4jnsgd1na2vs0mg"},{"bike_id":"f2a87237-f624-4bf7-ad01-90df07b15d25","system_id":"levelo_inurba_marseille","lat":43.28425,"lon":5.37507,"is_reserved":false,"is_disabled":false,"rental_uris":{"android":"levelo://app?vid=f2a87237-f624-4bf7-ad01-90df07b15d25","ios":"levelo://app?vid=f2a87237-f624-4bf7-ad01-90df07b15d25"},"vehicle_type_id":"4","last_reported":1740514205,"current_range_meters":10000,"station_id":"ce4bh412rcd13ifvqds0","pricing_plan_id":"cebpf4jnsgd1na2vs0mg"},{"bike_id":"37f282dd-3c82-4a6a-9579-52ba7e01751c","system_id":"levelo_inurba_marseille","lat":43.31535,"lon":5.3804,"is_reserved":false,"is_disabled":false,"rental_uris":{"android":"levelo://app?vid=37f282dd-3c82-4a6a-9579-52ba7e01751c","ios":"levelo://app?vid=37f282dd-3c82-4a6a-9579-52ba7e01751c"},"vehicle_type_id":"4","last_reported":1740514205,"current_range_meters":10000,"station_id":"ce4bhsp2rcd13ifvqi50","pricing_plan_id":"cebpf4jnsgd1na2vs0mg"},{"bike_id":"0611e966-6fc7-463b-b7f7-d8f2f8cf5837","system_id":"levelo_inurba_marseille","lat":43.30591,"lon":5.37221,"is_reserved":false,"is_disabled":false,"rental_uris":{"android":"levelo://app?vid=0611e966-6fc7-463b-b7f7-d8f2f8cf5837","ios":"levelo://app?vid=0611e966-6fc7-463b-b7f7-d8f2f8cf5837"},"vehicle_type_id":"4","last_reported":1740514205,"current_range_meters":10000,"station_id":"ce4bgqh2rcd13ifvqc4g","pricing_plan_id":"cebpf4jnsgd1na2vs0mg"},{"bike_id":"0f53dfe5-69a9-4b91-a6d9-ad65c664ac2d","system_id":"levelo_inurba_marseille","lat":43.28442,"lon":5.39203,"is_reserved":false,"is_disabled":false,"rental_uris":{"android":"levelo://app?vid=0f53dfe5-69a9-4b91-a6d9-ad65c664ac2d","ios":"levelo://app?vid=0f53dfe5-69a9-4b91-a6d9-ad65c664ac2d"},"vehicle_type_id":"4","last_reported":1740514205,"current_range_meters":10800,"station_id":"ce4bhoh2rcd13ifvqh5g","pricing_plan_id":"cebpf4jnsgd1na2vs0mg"},{"bike_id":"0f1f3b76-2791-4f0f-845e-300b9a8eb89b","system_id":"levelo_inurba_marseille","lat":43.23206,"lon":5.35561,"is_reserved":false,"is_disabled":false,"rental_uris":{"android":"levelo://app?vid=0f1f3b76-2791-4f0f-845e-300b9a8eb89b","ios":"levelo://app?vid=0f1f3b76-2791-4f0f-845e-300b9a8eb89b"},"vehicle_type_id":"4","last_reported":1740514205,"current_range_meters":11200,"station_id":"ce4bhu92rcd13ifvqi70","pricing_plan_id":"cebpf4jnsgd1na2vs0mg"},{"bike_id":"e93c7e29-0d01-4887-aaa1-1b6f0519e5f6","system_id":"levelo_inurba_marseille","lat":43.298773,"lon":5.397353,"is_reserved":false,"is_disabled":false,"rental_uris":{"android":"levelo://app?vid=e93c7e29-0d01-4887-aaa1-1b6f0519e5f6","ios":"levelo://app?vid=e93c7e29-0d01-4887-aaa1-1b6f0519e5f6"},"vehicle_type_id":"4","last_reported":1740514205,"current_range_meters":10800,"station_id":"ce4bh0h2rcd13ifvqd50","pricing_plan_id":"cebpf4jnsgd1na2vs0mg"},{"bike_id":"5870ba05-021d-44bf-9813-b137119d12b5","system_id":"levelo_inurba_marseille","lat":43.32366,"lon":5.38883,"is_reserved":false,"is_disabled":false,"rental_uris":{"android":"levelo://app?vid=5870ba05-021d-44bf-9813-b137119d12b5","ios":"levelo://app?vid=5870ba05-021d-44bf-9813-b137119d12b5"},"vehicle_type_id":"4","last_reported":1740514205,"current_range_meters":10800,"station_id":"ce4bhqp2rcd13ifvqhog","pricing_plan_id":"cebpf4jnsgd1na2vs0mg"},{"bike_id":"9f6b1a57-8b18-4910-92c4-7c3c71b26e15","system_id":"levelo_inurba_marseille","lat":43.23353,"lon":5.36006,"is_reserved":false,"is_disabled":false,"rental_uris":{"android":"levelo://app?vid=9f6b1a57-8b18-4910-92c4-7c3c71b26e15","ios":"levelo://app?vid=9f6b1a57-8b18-4910-92c4-7c3c71b26e15"},"vehicle_type_id":"4","last_reported":1740514205,"current_range_meters":10800,"station_id":"","pricing_plan_id":"cebpf4jnsgd1na2vs0mg"},{"bike_id":"705d4c5c-19e2-4866-97d4-b09e7afe24df","system_id":"levelo_inurba_marseille","lat":43.29265,"lon":5.38435,"is_reserved":false,"is_disabled":false,"rental_uris":{"android":"levelo://app?vid=705d4c5c-19e2-4866-97d4-b09e7afe24df","ios":"levelo://app?vid=705d4c5c-19e2-4866-97d4-b09e7afe24df"},"vehicle_type_id":"4","last_reported":1740514205,"current_range_meters":10800,"station_id":"ce4bh692rcd13ifvqea0","pricing_plan_id":"cebpf4jnsgd1na2vs0mg"},{"bike_id":"9441a407-49b8-44fe-a5b8-2a80221ac69d","system_id":"levelo_inurba_marseille","lat":43.29973,"lon":5.38501,"is_reserved":false,"is_disabled":false,"rental_uris":{"android":"levelo://app?vid=9441a407-49b8-44fe-a5b8-2a80221ac69d","ios":"levelo://app?vid=9441a407-49b8-44fe-a5b8-2a80221ac69d"},"vehicle_type_id":"4","last_reported":1740514205,"current_range_meters":14400,"station_id":"ce4bgj92rcd13ifvqbd0","pricing_plan_id":"cebpf4jnsgd1na2vs0mg"},{"bike_id":"601d9d1a-b924-4349-8cfa-62d99997e8fb","system_id":"levelo_inurba_marseille","lat":43.23186,"lon":5.39998,"is_reserved":false,"is_disabled":false,"rental_uris":{"android":"levelo://app?vid=601d9d1a-b924-4349-8cfa-62d99997e8fb","ios":"levelo://app?vid=601d9d1a-b924-4349-8cfa-62d99997e8fb"},"vehicle_type_id":"4","last_reported":1740514205,"current_range_meters":10800,"station_id":"ce4bhn12rcd13ifvqgqg","pricing_plan_id":"cebpf4jnsgd1na2vs0mg"},{"bike_id":"0755804b-e938-4970-a1f5-1ee40c67f3e0","system_id":"levelo_inurba_marseille","lat":43.24074,"lon":5.37756,"is_reserved":false,"is_disabled":false,"rental_uris":{"android":"levelo://app?vid=0755804b-e938-4970-a1f5-1ee40c67f3e0","ios":"levelo://app?vid=0755804b-e938-4970-a1f5-1ee40c67f3e0"},"vehicle_type_id":"4","last_reported":1740514205,"current_range_meters":10800,"station_id":"ce4bhnp2rcd13ifvqgvg","pricing_plan_id":"cebpf4jnsgd1na2vs0mg"},{"bike_id":"3006e4cd-8137-40ac-a353-474e7b0cdc70","system_id":"levelo_inurba_marseille","lat":43.28463,"lon":5.35896,"is_reserved":false,"is_disabled":false,"rental_uris":{"android":"levelo://app?vid=3006e4cd-8137-40ac-a353-474e7b0cdc70","ios":"levelo://app?vid=3006e4cd-8137-40ac-a353-474e7b0cdc70"},"vehicle_type_id":"4","last_reported":1740514205,"current_range_meters":10800,"station_id":"ce4bhah2rcd13ifvqei0","pricing_plan_id":"cebpf4jnsgd1na2vs0mg"},{"bike_id":"344b9ada-dc13-401b-99db-124646ed697f","system_id":"levelo_inurba_marseille","lat":43.28844,"lon":5.35826,"is_reserved":false,"is_disabled":false,"rental_uris":{"android":"levelo://app?vid=344b9ada-dc13-401b-99db-124646ed697f","ios":"levelo://app?vid=344b9ada-dc13-401b-99db-124646ed697f"},"vehicle_type_id":"4","last_reported":1740514205,"current_range_meters":10800,"station_id":"ce4bhb12rcd13ifvqem0","pricing_plan_id":"cebpf4jnsgd1na2vs0mg"},{"bike_id":"cbfa7cec-60a2-46ff-8558-0aab6b269dd8","system_id":"levelo_inurba_marseille","lat":43.28438,"lon":5.3918,"is_reserved":false,"is_disabled":false,"rental_uris":{"android":"levelo://app?vid=cbfa7cec-60a2-46ff-8558-0aab6b269dd8","ios":"levelo://app?vid=cbfa7cec-60a2-46ff-8558-0aab6b269dd8"},"vehicle_type_id":"4","last_reported":1740514205,"current_range_meters":12800,"station_id":"ce4bhoh2rcd13ifvqh5g","pricing_plan_id":"cebpf4jnsgd1na2vs0mg"},{"bike_id":"25255681-d668-4957-b49d-3fba4d0fc5e1","system_id":"levelo_inurba_marseille","lat":43.27882,"lon":5.3806,"is_reserved":false,"is_disabled":false,"rental_uris":{"android":"levelo://app?vid=25255681-d668-4957-b49d-3fba4d0fc5e1","ios":"levelo://app?vid=25255681-d668-4957-b49d-3fba4d0fc5e1"},"vehicle_type_id":"4","last_reported":1740514205,"current_range_meters":10800,"station_id":"ce4bhf92rcd13ifvqf50","pricing_plan_id":"cebpf4jnsgd1na2vs0mg"},{"bike_id":"f5232ca0-a0ea-4b65-9be9-c58c9ab586fb","system_id":"levelo_inurba_marseille","lat":43.2815,"lon":5.42637,"is_reserved":false,"is_disabled":false,"rental_uris":{"android":"levelo://app?vid=f5232ca0-a0ea-4b65-9be9-c58c9ab586fb","ios":"levelo://app?vid=f5232ca0-a0ea-4b65-9be9-c58c9ab586fb"},"vehicle_type_id":"4","last_reported":1740514205,"current_range_meters":11200,"station_id":"ce4bhnh2rcd13ifvqgug","pricing_plan_id":"cebpf4jnsgd1na2vs0mg"},{"bike_id":"b3739dd1-c2ea-4afb-9bb4-975986d3382b","system_id":"levelo_inurba_marseille","lat":43.281573,"lon":5.426411,"is_reserved":false,"is_disabled":false,"rental_uris":{"android":"levelo://app?vid=b3739dd1-c2ea-4afb-9bb4-975986d3382b","ios":"levelo://app?vid=b3739dd1-c2ea-4afb-9bb4-975986d3382b"},"vehicle_type_id":"4","last_reported":1740514205,"current_range_meters":11200,"station_id":"ce4bhnh2rcd13ifvqgug","pricing_plan_id":"cebpf4jnsgd1na2vs0mg"},{"bike_id":"28fec105-80d6-49d1-bda1-860778080a9c","system_id":"levelo_inurba_marseille","lat":43.29192,"lon":5.35803,"is_reserved":false,"is_disabled":false,"rental_uris":{"android":"levelo://app?vid=28fec105-80d6-49d1-bda1-860778080a9c","ios":"levelo://app?vid=28fec105-80d6-49d1-bda1-860778080a9c"},"vehicle_type_id":"4","last_reported":1740514205,"current_range_meters":11600,"station_id":"ce4bhb12rcd13ifvqel0","pricing_plan_id":"cebpf4jnsgd1na2vs0mg"},{"bike_id":"7ce94ac4-8de9-4d22-ab59-fafd5d4ddae0","system_id":"levelo_inurba_marseille","lat":43.27996,"lon":5.40025,"is_reserved":false,"is_disabled":false,"rental_uris":{"android":"levelo://app?vid=7ce94ac4-8de9-4d22-ab59-fafd5d4ddae0","ios":"levelo://app?vid=7ce94ac4-8de9-4d22-ab59-fafd5d4ddae0"},"vehicle_type_id":"4","last_reported":1740514205,"current_range_meters":11200,"station_id":"ce4bho92rcd13ifvqh4g","pricing_plan_id":"cebpf4jnsgd1na2vs0mg"},{"bike_id":"549eba66-470c-49fc-9bda-650ecb397aed","system_id":"levelo_inurba_marseille","lat":43.28595,"lon":5.3813,"is_reserved":false,"is_disabled":true,"rental_uris":{"android":"levelo://app?vid=549eba66-470c-49fc-9bda-650ecb397aed","ios":"levelo://app?vid=549eba66-470c-49fc-9bda-650ecb397aed"},"vehicle_type_id":"4","last_reported":1740514205,"current_range_meters":11200,"station_id":"","pricing_plan_id":"cebpf4jnsgd1na2vs0mg"},{"bike_id":"3c53b19b-deeb-48fc-9805-3ef6426d196e","system_id":"levelo_inurba_marseille","lat":43.2866,"lon":5.36359,"is_reserved":false,"is_disabled":false,"rental_uris":{"android":"levelo://app?vid=3c53b19b-deeb-48fc-9805-3ef6426d196e","ios":"levelo://app?vid=3c53b19b-deeb-48fc-9805-3ef6426d196e"},"vehicle_type_id":"4","last_reported":1740514205,"current_range_meters":11200,"station_id":"ce4bhah2rcd13ifvqej0","pricing_plan_id":"cebpf4jnsgd1na2vs0mg"},{"bike_id":"4bcee7f2-7a8a-43dd-853c-163df9362300","system_id":"levelo_inurba_marseille","lat":43.27985,"lon":5.399793,"is_reserved":false,"is_disabled":false,"rental_uris":{"android":"levelo://app?vid=4bcee7f2-7a8a-43dd-853c-163df9362300","ios":"levelo://app?vid=4bcee7f2-7a8a-43dd-853c-163df9362300"},"vehicle_type_id":"4","last_reported":1740514205,"current_range_meters":10800,"station_id":"ce4bho92rcd13ifvqh4g","pricing_plan_id":"cebpf4jnsgd1na2vs0mg"},{"bike_id":"fda4196f-0a1c-4363-a61e-96a8f0599a87","system_id":"levelo_inurba_marseille","lat":43.29265,"lon":5.38434,"is_reserved":false,"is_disabled":false,"rental_uris":{"android":"levelo://app?vid=fda4196f-0a1c-4363-a61e-96a8f0599a87","ios":"levelo://app?vid=fda4196f-0a1c-4363-a61e-96a8f0599a87"},"vehicle_type_id":"4","last_reported":1740514205,"current_range_meters":11200,"station_id":"ce4bh692rcd13ifvqea0","pricing_plan_id":"cebpf4jnsgd1na2vs0mg"},{"bike_id":"c9cb5bfd-bbe8-4755-801f-25da0bd6135b","system_id":"levelo_inurba_marseille","lat":43.30205,"lon":5.39485,"is_reserved":false,"is_disabled":false,"rental_uris":{"android":"levelo://app?vid=c9cb5bfd-bbe8-4755-801f-25da0bd6135b","ios":"levelo://app?vid=c9cb5bfd-bbe8-4755-801f-25da0bd6135b"},"vehicle_type_id":"4","last_reported":1740514205,"current_range_meters":11200,"station_id":"ce4bh0p2rcd13ifvqd70","pricing_plan_id":"cebpf4jnsgd1na2vs0mg"},{"bike_id":"4c3ed0f9-3852-4d9f-a849-d03fce967204","system_id":"levelo_inurba_marseille","lat":43.28933,"lon":5.36411,"is_reserved":false,"is_disabled":false,"rental_uris":{"android":"levelo://app?vid=4c3ed0f9-3852-4d9f-a849-d03fce967204","ios":"levelo://app?vid=4c3ed0f9-3852-4d9f-a849-d03fce967204"},"vehicle_type_id":"4","last_reported":1740514205,"current_range_meters":11200,"station_id":"ce4bhc92rcd13ifvqetg","pricing_plan_id":"cebpf4jnsgd1na2vs0mg"},{"bike_id":"7c45866a-bd99-4c12-9747-66203f12a96e","system_id":"levelo_inurba_marseille","lat":43.23162,"lon":5.355,"is_reserved":false,"is_disabled":false,"rental_uris":{"android":"levelo://app?vid=7c45866a-bd99-4c12-9747-66203f12a96e","ios":"levelo://app?vid=7c45866a-bd99-4c12-9747-66203f12a96e"},"vehicle_type_id":"4","last_reported":1740514205,"current_range_meters":11200,"station_id":"","pricing_plan_id":"cebpf4jnsgd1na2vs0mg"},{"bike_id":"5c6ffbdb-5af1-4f5e-b96a-dc49e858ecb5","system_id":"levelo_inurba_marseille","lat":43.31705,"lon":5.40462,"is_reserved":false,"is_disabled":false,"rental_uris":{"android":"levelo://app?vid=5c6ffbdb-5af1-4f5e-b96a-dc49e858ecb5","ios":"levelo://app?vid=5c6ffbdb-5af1-4f5e-b96a-dc49e858ecb5"},"vehicle_type_id":"4","last_reported":1740514205,"current_range_meters":11200,"station_id":"ce4bh012rcd13ifvqd00","pricing_plan_id":"cebpf4jnsgd1na2vs0mg"},{"bike_id":"15687dd2-750d-48c0-8708-307cedd0f40d","system_id":"levelo_inurba_marseille","lat":43.29629,"lon":5.40588,"is_reserved":false,"is_disabled":false,"rental_uris":{"android":"levelo://app?vid=15687dd2-750d-48c0-8708-307cedd0f40d","ios":"levelo://app?vid=15687dd2-750d-48c0-8708-307cedd0f40d"},"vehicle_type_id":"4","last_reported":1740514205,"current_range_meters":11600,"station_id":"ce4bh0h2rcd13ifvqd60","pricing_plan_id":"cebpf4jnsgd1na2vs0mg"},{"bike_id":"12a970f7-2c4f-4f3d-b2e6-d60a4924b550","system_id":"levelo_inurba_marseille","lat":43.2956,"lon":5.38576,"is_reserved":false,"is_disabled":false,"rental_uris":{"android":"levelo://app?vid=12a970f7-2c4f-4f3d-b2e6-d60a4924b550","ios":"levelo://app?vid=12a970f7-2c4f-4f3d-b2e6-d60a4924b550"},"vehicle_type_id":"4","last_reported":1740514205,"current_range_meters":11600,"station_id":"ce4bgih2rcd13ifvqba0","pricing_plan_id":"cebpf4jnsgd1na2vs0mg"},{"bike_id":"bea517ec-06d8-4315-a101-031d4852ca77","system_id":"levelo_inurba_marseille","lat":43.24172,"lon":5.39694,"is_reserved":false,"is_disabled":false,"rental_uris":{"android":"levelo://app?vid=bea517ec-06d8-4315-a101-031d4852ca77","ios":"levelo://app?vid=bea517ec-06d8-4315-a101-031d4852ca77"},"vehicle_type_id":"4","last_reported":1740514205,"current_range_meters":11600,"station_id":"ce4bhn12rcd13ifvqgpg","pricing_plan_id":"cebpf4jnsgd1na2vs0mg"},{"bike_id":"fb275735-4bf3-4a95-9535-54ae1690eb49","system_id":"levelo_inurba_marseille","lat":43.29439,"lon":5.38602,"is_reserved":false,"is_disabled":false,"rental_uris":{"android":"levelo://app?vid=fb275735-4bf3-4a95-9535-54ae1690eb49","ios":"levelo://app?vid=fb275735-4bf3-4a95-9535-54ae1690eb49"},"vehicle_type_id":"4","last_reported":1740514205,"current_range_meters":11600,"station_id":"ce4bh2h2rcd13ifvqdh0","pricing_plan_id":"cebpf4jnsgd1na2vs0mg"},{"bike_id":"e7234b8e-3807-4b4c-852c-4a3fe63998d8","system_id":"levelo_inurba_marseille","lat":43.28839,"lon":5.35835,"is_reserved":false,"is_disabled":false,"rental_uris":{"android":"levelo://app?vid=e7234b8e-3807-4b4c-852c-4a3fe63998d8","ios":"levelo://app?vid=e7234b8e-3807-4b4c-852c-4a3fe63998d8"},"vehicle_type_id":"4","last_reported":1740514205,"current_range_meters":12400,"station_id":"ce4bhb12rcd13ifvqem0","pricing_plan_id":"cebpf4jnsgd1na2vs0mg"},{"bike_id":"9f410218-3040-4e5d-995c-1587f208b52e","system_id":"levelo_inurba_marseille","lat":43.2782,"lon":5.40689,"is_reserved":false,"is_disabled":false,"rental_uris":{"android":"levelo://app?vid=9f410218-3040-4e5d-995c-1587f208b52e","ios":"levelo://app?vid=9f410218-3040-4e5d-995c-1587f208b52e"},"vehicle_type_id":"4","last_reported":1740514205,"current_range_meters":12000,"station_id":"ce4bhnh2rcd13ifvqgtg","pricing_plan_id":"cebpf4jnsgd1na2vs0mg"},{"bike_id":"aa5b1cbf-41e5-43e0-882c-8c43c6313d79","system_id":"levelo_inurba_marseille","lat":43.31719,"lon":5.43707,"is_reserved":false,"is_disabled":false,"rental_uris":{"android":"levelo://app?vid=aa5b1cbf-41e5-43e0-882c-8c43c6313d79","ios":"levelo://app?vid=aa5b1cbf-41e5-43e0-882c-8c43c6313d79"},"vehicle_type_id":"4","last_reported":1740514205,"current_range_meters":12000,"station_id":"ce4bhp92rcd13ifvqhcg","pricing_plan_id":"cebpf4jnsgd1na2vs0mg"},{"bike_id":"dcdfafc4-ad04-4f03-b713-a44cb5c77c53","system_id":"levelo_inurba_marseille","lat":43.29574,"lon":5.39964,"is_reserved":false,"is_disabled":true,"rental_uris":{"android":"levelo://app?vid=dcdfafc4-ad04-4f03-b713-a44cb5c77c53","ios":"levelo://app?vid=dcdfafc4-ad04-4f03-b713-a44cb5c77c53"},"vehicle_type_id":"4","last_reported":1740514205,"current_range_meters":12000,"station_id":"ce4bh312rcd13ifvqdj0","pricing_plan_id":"cebpf4jnsgd1na2vs0mg"},{"bike_id":"bb197dcb-4af2-40a1-b597-f15826b08c4b","system_id":"levelo_inurba_marseille","lat":43.31364,"lon":5.38506,"is_reserved":false,"is_disabled":false,"rental_uris":{"android":"levelo://app?vid=bb197dcb-4af2-40a1-b597-f15826b08c4b","ios":"levelo://app?vid=bb197dcb-4af2-40a1-b597-f15826b08c4b"},"vehicle_type_id":"4","last_reported":1740514205,"current_range_meters":12000,"station_id":"ce4bgt92rcd13ifvqcf0","pricing_plan_id":"cebpf4jnsgd1na2vs0mg"},{"bike_id":"44a737df-aa61-45f7-857c-d7d275870e10","system_id":"levelo_inurba_marseille","lat":43.25495,"lon":5.37661,"is_reserved":false,"is_disabled":false,"rental_uris":{"android":"levelo://app?vid=44a737df-aa61-45f7-857c-d7d275870e10","ios":"levelo://app?vid=44a737df-aa61-45f7-857c-d7d275870e10"},"vehicle_type_id":"4","last_reported":1740514205,"current_range_meters":12000,"station_id":"ce4bhh12rcd13ifvqff0","pricing_plan_id":"cebpf4jnsgd1na2vs0mg"},{"bike_id":"32f28524-9b61-434e-bae4-afa92250e1ab","system_id":"levelo_inurba_marseille","lat":43.29274,"lon":5.40116,"is_reserved":false,"is_disabled":false,"rental_uris":{"android":"levelo://app?vid=32f28524-9b61-434e-bae4-afa92250e1ab","ios":"levelo://app?vid=32f28524-9b61-434e-bae4-afa92250e1ab"},"vehicle_type_id":"4","last_reported":1740514205,"current_range_meters":13600,"station_id":"ce4bh312rcd13ifvqdk0","pricing_plan_id":"cebpf4jnsgd1na2vs0mg"},{"bike_id":"d0801915-0de0-4f9d-9726-750b42c06614","system_id":"levelo_inurba_marseille","lat":43.32111,"lon":5.36791,"is_reserved":false,"is_disabled":false,"rental_uris":{"android":"levelo://app?vid=d0801915-0de0-4f9d-9726-750b42c06614","ios":"levelo://app?vid=d0801915-0de0-4f9d-9726-750b42c06614"},"vehicle_type_id":"4","last_reported":1740514205,"current_range_meters":12400,"station_id":"ce4bhrh2rcd13ifvqhug","pricing_plan_id":"cebpf4jnsgd1na2vs0mg"},{"bike_id":"1ebcc11a-7147-439d-a444-8d2a4b57023d","system_id":"levelo_inurba_marseille","lat":43.29192,"lon":5.35804,"is_reserved":false,"is_disabled":false,"rental_uris":{"android":"levelo://app?vid=1ebcc11a-7147-439d-a444-8d2a4b57023d","ios":"levelo://app?vid=1ebcc11a-7147-439d-a444-8d2a4b57023d"},"vehicle_type_id":"4","last_reported":1740514205,"current_range_meters":12400,"station_id":"ce4bhb12rcd13ifvqel0","pricing_plan_id":"cebpf4jnsgd1na2vs0mg"},{"bike_id":"21e79f5d-63a3-4c31-9fae-88794de42dd6","system_id":"levelo_inurba_marseille","lat":43.31332,"lon":5.39696,"is_reserved":false,"is_disabled":false,"rental_uris":{"android":"levelo://app?vid=21e79f5d-63a3-4c31-9fae-88794de42dd6","ios":"levelo://app?vid=21e79f5d-63a3-4c31-9fae-88794de42dd6"},"vehicle_type_id":"4","last_reported":1740514205,"current_range_meters":13600,"station_id":"ce4bgvp2rcd13ifvqcu0","pricing_plan_id":"cebpf4jnsgd1na2vs0mg"},{"bike_id":"62aba03d-465e-4478-a054-d828e4250577","system_id":"levelo_inurba_marseille","lat":43.28271,"lon":5.3507,"is_reserved":false,"is_disabled":false,"rental_uris":{"android":"levelo://app?vid=62aba03d-465e-4478-a054-d828e4250577","ios":"levelo://app?vid=62aba03d-465e-4478-a054-d828e4250577"},"vehicle_type_id":"4","last_reported":1740514205,"current_range_meters":12400,"station_id":"ce4bhbp2rcd13ifvqerg","pricing_plan_id":"cebpf4jnsgd1na2vs0mg"},{"bike_id":"1f6bbfe9-aae7-43d5-a4ef-153399ef3f5f","system_id":"levelo_inurba_marseille","lat":43.32374,"lon":5.38869,"is_reserved":false,"is_disabled":false,"rental_uris":{"android":"levelo://app?vid=1f6bbfe9-aae7-43d5-a4ef-153399ef3f5f","ios":"levelo://app?vid=1f6bbfe9-aae7-43d5-a4ef-153399ef3f5f"},"vehicle_type_id":"4","last_reported":1740514205,"current_range_meters":12400,"station_id":"ce4bhqp2rcd13ifvqhog","pricing_plan_id":"cebpf4jnsgd1na2vs0mg"},{"bike_id":"7c8aaa9b-e43a-43de-8b4f-a531a44d3724","system_id":"levelo_inurba_marseille","lat":43.2794,"lon":5.41044,"is_reserved":false,"is_disabled":false,"rental_uris":{"android":"levelo://app?vid=7c8aaa9b-e43a-43de-8b4f-a531a44d3724","ios":"levelo://app?vid=7c8aaa9b-e43a-43de-8b4f-a531a44d3724"},"vehicle_type_id":"4","last_reported":1740514205,"current_range_meters":12400,"station_id":"ce4bhnp2rcd13ifvqh0g","pricing_plan_id":"cebpf4jnsgd1na2vs0mg"},{"bike_id":"b007f058-4163-4bbe-ba13-50835769bd43","system_id":"levelo_inurba_marseille","lat":43.31718,"lon":5.43707,"is_reserved":false,"is_disabled":false,"rental_uris":{"android":"levelo://app?vid=b007f058-4163-4bbe-ba13-50835769bd43","ios":"levelo://app?vid=b007f058-4163-4bbe-ba13-50835769bd43"},"vehicle_type_id":"4","last_reported":1740514205,"current_range_meters":12400,"station_id":"ce4bhp92rcd13ifvqhcg","pricing_plan_id":"cebpf4jnsgd1na2vs0mg"},{"bike_id":"ee4cade6-779e-4d17-a416-88aadf864a21","system_id":"levelo_inurba_marseille","lat":43.24198,"lon":5.39724,"is_reserved":false,"is_disabled":false,"rental_uris":{"android":"levelo://app?vid=ee4cade6-779e-4d17-a416-88aadf864a21","ios":"levelo://app?vid=ee4cade6-779e-4d17-a416-88aadf864a21"},"vehicle_type_id":"4","last_reported":1740514205,"current_range_meters":12400,"station_id":"ce4bhn12rcd13ifvqgpg","pricing_plan_id":"cebpf4jnsgd1na2vs0mg"},{"bike_id":"8ab6b935-a873-4d2c-b7b2-95f2c7d28241","system_id":"levelo_inurba_marseille","lat":43.29195,"lon":5.35781,"is_reserved":false,"is_disabled":false,"rental_uris":{"android":"levelo://app?vid=8ab6b935-a873-4d2c-b7b2-95f2c7d28241","ios":"levelo://app?vid=8ab6b935-a873-4d2c-b7b2-95f2c7d28241"},"vehicle_type_id":"4","last_reported":1740514205,"current_range_meters":12400,"station_id":"ce4bhb12rcd13ifvqel0","pricing_plan_id":"cebpf4jnsgd1na2vs0mg"},{"bike_id":"9342c36e-fdbf-4f54-9376-f0556d683fed","system_id":"levelo_inurba_marseille","lat":43.2942,"lon":5.38624,"is_reserved":false,"is_disabled":false,"rental_uris":{"android":"levelo://app?vid=9342c36e-fdbf-4f54-9376-f0556d683fed","ios":"levelo://app?vid=9342c36e-fdbf-4f54-9376-f0556d683fed"},"vehicle_type_id":"4","last_reported":1740514205,"current_range_meters":12400,"station_id":"ce4bh2h2rcd13ifvqdh0","pricing_plan_id":"cebpf4jnsgd1na2vs0mg"},{"bike_id":"dc291f8f-fe0f-4408-b742-d28c2b0785f8","system_id":"levelo_inurba_marseille","lat":43.29423,"lon":5.38629,"is_reserved":false,"is_disabled":false,"rental_uris":{"android":"levelo://app?vid=dc291f8f-fe0f-4408-b742-d28c2b0785f8","ios":"levelo://app?vid=dc291f8f-fe0f-4408-b742-d28c2b0785f8"},"vehicle_type_id":"4","last_reported":1740514205,"current_range_meters":12800,"station_id":"ce4bh2h2rcd13ifvqdh0","pricing_plan_id":"cebpf4jnsgd1na2vs0mg"},{"bike_id":"6b286004-f086-4023-9675-02a95f8e917b","system_id":"levelo_inurba_marseille","lat":43.30957,"lon":5.39026,"is_reserved":false,"is_disabled":true,"rental_uris":{"android":"levelo://app?vid=6b286004-f086-4023-9675-02a95f8e917b","ios":"levelo://app?vid=6b286004-f086-4023-9675-02a95f8e917b"},"vehicle_type_id":"4","last_reported":1740514205,"current_range_meters":12400,"station_id":"ce4bgup2rcd13ifvqco0","pricing_plan_id":"cebpf4jnsgd1na2vs0mg"},{"bike_id":"6b558b08-2582-436b-9b01-15a9fb2730d7","system_id":"levelo_inurba_marseille","lat":43.29948,"lon":5.3657,"is_reserved":false,"is_disabled":false,"rental_uris":{"android":"levelo://app?vid=6b558b08-2582-436b-9b01-15a9fb2730d7","ios":"levelo://app?vid=6b558b08-2582-436b-9b01-15a9fb2730d7"},"vehicle_type_id":"4","last_reported":1740514205,"current_range_meters":8400,"station_id":"ce4bgm92rcd13ifvqbr0","pricing_plan_id":"cebpf4jnsgd1na2vs0mg"},{"bike_id":"2cbc35b5-e249-4e17-a6c3-4f15da01fe6b","system_id":"levelo_inurba_marseille","lat":43.2573,"lon":5.41105,"is_reserved":false,"is_disabled":false,"rental_uris":{"android":"levelo://app?vid=2cbc35b5-e249-4e17-a6c3-4f15da01fe6b","ios":"levelo://app?vid=2cbc35b5-e249-4e17-a6c3-4f15da01fe6b"},"vehicle_type_id":"4","last_reported":1740514205,"current_range_meters":13600,"station_id":"ce4bhkp2rcd13ifvqgd0","pricing_plan_id":"cebpf4jnsgd1na2vs0mg"},{"bike_id":"e9c908fa-3548-42b4-b26e-3a651dbd126a","system_id":"levelo_inurba_marseille","lat":43.30804,"lon":5.43543,"is_reserved":false,"is_disabled":false,"rental_uris":{"android":"levelo://app?vid=e9c908fa-3548-42b4-b26e-3a651dbd126a","ios":"levelo://app?vid=e9c908fa-3548-42b4-b26e-3a651dbd126a"},"vehicle_type_id":"4","last_reported":1740514205,"current_range_meters":13600,"station_id":"ce4bhph2rcd13ifvqheg","pricing_plan_id":"cebpf4jnsgd1na2vs0mg"},{"bike_id":"6d868570-4a79-4602-b067-8f69145b3a5c","system_id":"levelo_inurba_marseille","lat":43.27819,"lon":5.40693,"is_reserved":false,"is_disabled":false,"rental_uris":{"android":"levelo://app?vid=6d868570-4a79-4602-b067-8f69145b3a5c","ios":"levelo://app?vid=6d868570-4a79-4602-b067-8f69145b3a5c"},"vehicle_type_id":"4","last_reported":1740514205,"current_range_meters":13600,"station_id":"ce4bhnh2rcd13ifvqgtg","pricing_plan_id":"cebpf4jnsgd1na2vs0mg"},{"bike_id":"4752155f-d629-4be3-87e1-5756b7c13ced","system_id":"levelo_inurba_marseille","lat":43.30222,"lon":5.39464,"is_reserved":false,"is_disabled":false,"rental_uris":{"android":"levelo://app?vid=4752155f-d629-4be3-87e1-5756b7c13ced","ios":"levelo://app?vid=4752155f-d629-4be3-87e1-5756b7c13ced"},"vehicle_type_id":"4","last_reported":1740514205,"current_range_meters":14000,"station_id":"ce4bh0p2rcd13ifvqd70","pricing_plan_id":"cebpf4jnsgd1na2vs0mg"},{"bike_id":"e0869e43-cad3-4449-849d-aa2f3708e407","system_id":"levelo_inurba_marseille","lat":43.28945,"lon":5.3664,"is_reserved":false,"is_disabled":false,"rental_uris":{"android":"levelo://app?vid=e0869e43-cad3-4449-849d-aa2f3708e407","ios":"levelo://app?vid=e0869e43-cad3-4449-849d-aa2f3708e407"},"vehicle_type_id":"4","last_reported":1740514205,"current_range_meters":14000,"station_id":"ce4bhap2rcd13ifvqek0","pricing_plan_id":"cebpf4jnsgd1na2vs0mg"},{"bike_id":"28c3c768-a907-4c23-bf24-a49a1e1e5bae","system_id":"levelo_inurba_marseille","lat":43.29212,"lon":5.38388,"is_reserved":false,"is_disabled":false,"rental_uris":{"android":"levelo://app?vid=28c3c768-a907-4c23-bf24-a49a1e1e5bae","ios":"levelo://app?vid=28c3c768-a907-4c23-bf24-a49a1e1e5bae"},"vehicle_type_id":"4","last_reported":1740514205,"current_range_meters":13600,"station_id":"","pricing_plan_id":"cebpf4jnsgd1na2vs0mg"},{"bike_id":"960f2ba3-e440-4e76-8d2f-9f13a224dcf3","system_id":"levelo_inurba_marseille","lat":43.28078,"lon":5.39677,"is_reserved":false,"is_disabled":false,"rental_uris":{"android":"levelo://app?vid=960f2ba3-e440-4e76-8d2f-9f13a224dcf3","ios":"levelo://app?vid=960f2ba3-e440-4e76-8d2f-9f13a224dcf3"},"vehicle_type_id":"4","last_reported":1740514205,"current_range_meters":13600,"station_id":"ce4bho12rcd13ifvqh2g","pricing_plan_id":"cebpf4jnsgd1na2vs0mg"},{"bike_id":"6f0898ca-1c6f-43fb-9cc7-a6f6c795f765","system_id":"levelo_inurba_marseille","lat":43.24544,"lon":5.3953,"is_reserved":false,"is_disabled":false,"rental_uris":{"android":"levelo://app?vid=6f0898ca-1c6f-43fb-9cc7-a6f6c795f765","ios":"levelo://app?vid=6f0898ca-1c6f-43fb-9cc7-a6f6c795f765"},"vehicle_type_id":"4","last_reported":1740514205,"current_range_meters":13600,"station_id":"ce4bhlp2rcd13ifvqgjg","pricing_plan_id":"cebpf4jnsgd1na2vs0mg"},{"bike_id":"2ced73a1-5cbf-469c-bdf3-486292f65992","system_id":"levelo_inurba_marseille","lat":43.28936,"lon":5.36618,"is_reserved":false,"is_disabled":false,"rental_uris":{"android":"levelo://app?vid=2ced73a1-5cbf-469c-bdf3-486292f65992","ios":"levelo://app?vid=2ced73a1-5cbf-469c-bdf3-486292f65992"},"vehicle_type_id":"4","last_reported":1740514205,"current_range_meters":14400,"station_id":"ce4bhap2rcd13ifvqek0","pricing_plan_id":"cebpf4jnsgd1na2vs0mg"},{"bike_id":"2689185b-d533-4d85-932f-0ef0f73f4018","system_id":"levelo_inurba_marseille","lat":43.28936,"lon":5.36635,"is_reserved":false,"is_disabled":false,"rental_uris":{"android":"levelo://app?vid=2689185b-d533-4d85-932f-0ef0f73f4018","ios":"levelo://app?vid=2689185b-d533-4d85-932f-0ef0f73f4018"},"vehicle_type_id":"4","last_reported":1740514205,"current_range_meters":14000,"station_id":"ce4bhap2rcd13ifvqek0","pricing_plan_id":"cebpf4jnsgd1na2vs0mg"},{"bike_id":"85710084-a931-47e8-ab4c-1f19a337f065","system_id":"levelo_inurba_marseille","lat":43.29161,"lon":5.38596,"is_reserved":false,"is_disabled":false,"rental_uris":{"android":"levelo://app?vid=85710084-a931-47e8-ab4c-1f19a337f065","ios":"levelo://app?vid=85710084-a931-47e8-ab4c-1f19a337f065"},"vehicle_type_id":"4","last_reported":1740514205,"current_range_meters":14400,"station_id":"","pricing_plan_id":"cebpf4jnsgd1na2vs0mg"},{"bike_id":"db3cc65e-08d5-4ad0-b147-757611408bb6","system_id":"levelo_inurba_marseille","lat":43.288529,"lon":5.400144,"is_reserved":false,"is_disabled":false,"rental_uris":{"android":"levelo://app?vid=db3cc65e-08d5-4ad0-b147-757611408bb6","ios":"levelo://app?vid=db3cc65e-08d5-4ad0-b147-757611408bb6"},"vehicle_type_id":"4","last_reported":1740514205,"current_range_meters":11200,"station_id":"ce4bh312rcd13ifvqdk0","pricing_plan_id":"cebpf4jnsgd1na2vs0mg"},{"bike_id":"2b278014-4b1b-46e4-8515-1141de02ab17","system_id":"levelo_inurba_marseille","lat":43.30786,"lon":5.3816,"is_reserved":false,"is_disabled":false,"rental_uris":{"android":"levelo://app?vid=2b278014-4b1b-46e4-8515-1141de02ab17","ios":"levelo://app?vid=2b278014-4b1b-46e4-8515-1141de02ab17"},"vehicle_type_id":"4","last_reported":1740514205,"current_range_meters":14000,"station_id":"ce4bgt12rcd13ifvqce0","pricing_plan_id":"cebpf4jnsgd1na2vs0mg"},{"bike_id":"0a089428-bbf6-4308-bf3d-1d45254d436e","system_id":"levelo_inurba_marseille","lat":43.25081,"lon":5.39539,"is_reserved":false,"is_disabled":false,"rental_uris":{"android":"levelo://app?vid=0a089428-bbf6-4308-bf3d-1d45254d436e","ios":"levelo://app?vid=0a089428-bbf6-4308-bf3d-1d45254d436e"},"vehicle_type_id":"4","last_reported":1740514205,"current_range_meters":14000,"station_id":"ce4bhm12rcd13ifvqgkg","pricing_plan_id":"cebpf4jnsgd1na2vs0mg"},{"bike_id":"9acb4d88-15cf-4dc3-b09f-2ac78e6db38b","system_id":"levelo_inurba_marseille","lat":43.29238,"lon":5.38438,"is_reserved":false,"is_disabled":false,"rental_uris":{"android":"levelo://app?vid=9acb4d88-15cf-4dc3-b09f-2ac78e6db38b","ios":"levelo://app?vid=9acb4d88-15cf-4dc3-b09f-2ac78e6db38b"},"vehicle_type_id":"4","last_reported":1740514205,"current_range_meters":11200,"station_id":"ce4bh692rcd13ifvqea0","pricing_plan_id":"cebpf4jnsgd1na2vs0mg"},{"bike_id":"dfd23175-6a62-4c95-a53c-9500be447999","system_id":"levelo_inurba_marseille","lat":43.24079,"lon":5.37767,"is_reserved":false,"is_disabled":false,"rental_uris":{"android":"levelo://app?vid=dfd23175-6a62-4c95-a53c-9500be447999","ios":"levelo://app?vid=dfd23175-6a62-4c95-a53c-9500be447999"},"vehicle_type_id":"4","last_reported":1740514205,"current_range_meters":14000,"station_id":"ce4bhnp2rcd13ifvqgvg","pricing_plan_id":"cebpf4jnsgd1na2vs0mg"},{"bike_id":"94c8a369-487e-4729-98d9-9c7a116328cd","system_id":"levelo_inurba_marseille","lat":43.26809,"lon":5.40271,"is_reserved":false,"is_disabled":false,"rental_uris":{"android":"levelo://app?vid=94c8a369-487e-4729-98d9-9c7a116328cd","ios":"levelo://app?vid=94c8a369-487e-4729-98d9-9c7a116328cd"},"vehicle_type_id":"4","last_reported":1740514205,"current_range_meters":14400,"station_id":"ce501612rcd8frsf0b60","pricing_plan_id":"cebpf4jnsgd1na2vs0mg"},{"bike_id":"67ee95a1-160f-49c1-b11e-b3640680cd0d","system_id":"levelo_inurba_marseille","lat":43.3206,"lon":5.36882,"is_reserved":false,"is_disabled":false,"rental_uris":{"android":"levelo://app?vid=67ee95a1-160f-49c1-b11e-b3640680cd0d","ios":"levelo://app?vid=67ee95a1-160f-49c1-b11e-b3640680cd0d"},"vehicle_type_id":"4","last_reported":1740514205,"current_range_meters":14800,"station_id":"ce4bhrh2rcd13ifvqhug","pricing_plan_id":"cebpf4jnsgd1na2vs0mg"},{"bike_id":"ab54bd2f-fdfe-4950-adcd-826d0f8f0466","system_id":"levelo_inurba_marseille","lat":43.28604,"lon":5.37071,"is_reserved":false,"is_disabled":false,"rental_uris":{"android":"levelo://app?vid=ab54bd2f-fdfe-4950-adcd-826d0f8f0466","ios":"levelo://app?vid=ab54bd2f-fdfe-4950-adcd-826d0f8f0466"},"vehicle_type_id":"4","last_reported":1740514205,"current_range_meters":14400,"station_id":"ce4bht12rcd13ifvqi60","pricing_plan_id":"cebpf4jnsgd1na2vs0mg"},{"bike_id":"657805a7-7c02-4ae3-92be-cc7300051d2b","system_id":"levelo_inurba_marseille","lat":43.30409,"lon":5.41286,"is_reserved":false,"is_disabled":false,"rental_uris":{"android":"levelo://app?vid=657805a7-7c02-4ae3-92be-cc7300051d2b","ios":"levelo://app?vid=657805a7-7c02-4ae3-92be-cc7300051d2b"},"vehicle_type_id":"4","last_reported":1740514205,"current_range_meters":14800,"station_id":"ce4bhop2rcd13ifvqh8g","pricing_plan_id":"cebpf4jnsgd1na2vs0mg"},{"bike_id":"f5af57c0-4209-4408-9501-651e392b84d5","system_id":"levelo_inurba_marseille","lat":43.267884,"lon":5.394129,"is_reserved":false,"is_disabled":false,"rental_uris":{"android":"levelo://app?vid=f5af57c0-4209-4408-9501-651e392b84d5","ios":"levelo://app?vid=f5af57c0-4209-4408-9501-651e392b84d5"},"vehicle_type_id":"4","last_reported":1740514205,"current_range_meters":14800,"station_id":"ce4bh392rcd13ifvqdm0","pricing_plan_id":"cebpf4jnsgd1na2vs0mg"},{"bike_id":"b6a4cfb9-fdd3-4bf6-9402-2e45d150b5a9","system_id":"levelo_inurba_marseille","lat":43.3176,"lon":5.39034,"is_reserved":false,"is_disabled":false,"rental_uris":{"android":"levelo://app?vid=b6a4cfb9-fdd3-4bf6-9402-2e45d150b5a9","ios":"levelo://app?vid=b6a4cfb9-fdd3-4bf6-9402-2e45d150b5a9"},"vehicle_type_id":"4","last_reported":1740514205,"current_range_meters":14800,"station_id":"ce4bhqp2rcd13ifvqhng","pricing_plan_id":"cebpf4jnsgd1na2vs0mg"},{"bike_id":"8e552f0c-7f39-4e92-82a3-cede7c1cf821","system_id":"levelo_inurba_marseille","lat":43.30415,"lon":5.41287,"is_reserved":false,"is_disabled":false,"rental_uris":{"android":"levelo://app?vid=8e552f0c-7f39-4e92-82a3-cede7c1cf821","ios":"levelo://app?vid=8e552f0c-7f39-4e92-82a3-cede7c1cf821"},"vehicle_type_id":"4","last_reported":1740514205,"current_range_meters":14800,"station_id":"ce4bhop2rcd13ifvqh8g","pricing_plan_id":"cebpf4jnsgd1na2vs0mg"},{"bike_id":"08c01866-a764-4945-a045-cd29291dd22a","system_id":"levelo_inurba_marseille","lat":43.30318,"lon":5.40455,"is_reserved":false,"is_disabled":false,"rental_uris":{"android":"levelo://app?vid=08c01866-a764-4945-a045-cd29291dd22a","ios":"levelo://app?vid=08c01866-a764-4945-a045-cd29291dd22a"},"vehicle_type_id":"4","last_reported":1740514205,"current_range_meters":15200,"station_id":"ce4bh012rcd13ifvqd10","pricing_plan_id":"cebpf4jnsgd1na2vs0mg"},{"bike_id":"daf11c2b-f621-49a6-9132-098ef985992e","system_id":"levelo_inurba_marseille","lat":43.2537,"lon":5.41863,"is_reserved":false,"is_disabled":false,"rental_uris":{"android":"levelo://app?vid=daf11c2b-f621-49a6-9132-098ef985992e","ios":"levelo://app?vid=daf11c2b-f621-49a6-9132-098ef985992e"},"vehicle_type_id":"4","last_reported":1740514205,"current_range_meters":15200,"station_id":"","pricing_plan_id":"cebpf4jnsgd1na2vs0mg"},{"bike_id":"237fc719-744f-48a1-a4af-7254838604fb","system_id":"levelo_inurba_marseille","lat":43.29201,"lon":5.39306,"is_reserved":false,"is_disabled":false,"rental_uris":{"android":"levelo://app?vid=237fc719-744f-48a1-a4af-7254838604fb","ios":"levelo://app?vid=237fc719-744f-48a1-a4af-7254838604fb"},"vehicle_type_id":"4","last_reported":1740514205,"current_range_meters":15200,"station_id":"ce4bh192rcd13ifvqdd0","pricing_plan_id":"cebpf4jnsgd1na2vs0mg"},{"bike_id":"40bd775e-5ce3-4948-be2f-acfa8e48e7a0","system_id":"levelo_inurba_marseille","lat":43.28621,"lon":5.35092,"is_reserved":false,"is_disabled":false,"rental_uris":{"android":"levelo://app?vid=40bd775e-5ce3-4948-be2f-acfa8e48e7a0","ios":"levelo://app?vid=40bd775e-5ce3-4948-be2f-acfa8e48e7a0"},"vehicle_type_id":"4","last_reported":1740514205,"current_range_meters":15200,"station_id":"ce4bhch2rcd13ifvqeug","pricing_plan_id":"cebpf4jnsgd1na2vs0mg"},{"bike_id":"0d2c85bc-9757-499e-8d71-b093d0d3dee8","system_id":"levelo_inurba_marseille","lat":43.28354,"lon":5.38637,"is_reserved":false,"is_disabled":false,"rental_uris":{"android":"levelo://app?vid=0d2c85bc-9757-499e-8d71-b093d0d3dee8","ios":"levelo://app?vid=0d2c85bc-9757-499e-8d71-b093d0d3dee8"},"vehicle_type_id":"4","last_reported":1740514205,"current_range_meters":16000,"station_id":"ce4bh492rcd13ifvqdvg","pricing_plan_id":"cebpf4jnsgd1na2vs0mg"},{"bike_id":"8e5105f1-0439-4742-a3ae-b8e929153446","system_id":"levelo_inurba_marseille","lat":43.27995,"lon":5.40023,"is_reserved":false,"is_disabled":false,"rental_uris":{"android":"levelo://app?vid=8e5105f1-0439-4742-a3ae-b8e929153446","ios":"levelo://app?vid=8e5105f1-0439-4742-a3ae-b8e929153446"},"vehicle_type_id":"4","last_reported":1740514205,"current_range_meters":16000,"station_id":"ce4bho92rcd13ifvqh4g","pricing_plan_id":"cebpf4jnsgd1na2vs0mg"},{"bike_id":"56c90c05-21dd-4258-af01-641c62e92e64","system_id":"levelo_inurba_marseille","lat":43.28613,"lon":5.35118,"is_reserved":false,"is_disabled":false,"rental_uris":{"android":"levelo://app?vid=56c90c05-21dd-4258-af01-641c62e92e64","ios":"levelo://app?vid=56c90c05-21dd-4258-af01-641c62e92e64"},"vehicle_type_id":"4","last_reported":1740514205,"current_range_meters":16000,"station_id":"ce4bhch2rcd13ifvqeug","pricing_plan_id":"cebpf4jnsgd1na2vs0mg"},{"bike_id":"9eb54cf4-daa1-4a93-a24a-8827f8d0e162","system_id":"levelo_inurba_marseille","lat":43.30524,"lon":5.36719,"is_reserved":false,"is_disabled":false,"rental_uris":{"android":"levelo://app?vid=9eb54cf4-daa1-4a93-a24a-8827f8d0e162","ios":"levelo://app?vid=9eb54cf4-daa1-4a93-a24a-8827f8d0e162"},"vehicle_type_id":"4","last_reported":1740514205,"current_range_meters":16000,"station_id":"ce4bgrp2rcd13ifvqc9g","pricing_plan_id":"cebpf4jnsgd1na2vs0mg"},{"bike_id":"7fd25106-bae4-47b4-af15-a69eda38a417","system_id":"levelo_inurba_marseille","lat":43.299589,"lon":5.413283,"is_reserved":false,"is_disabled":false,"rental_uris":{"android":"levelo://app?vid=7fd25106-bae4-47b4-af15-a69eda38a417","ios":"levelo://app?vid=7fd25106-bae4-47b4-af15-a69eda38a417"},"vehicle_type_id":"4","last_reported":1740514205,"current_range_meters":16400,"station_id":"ce4bhp12rcd13ifvqh9g","pricing_plan_id":"cebpf4jnsgd1na2vs0mg"},{"bike_id":"bc9b1e32-064d-4bf1-b679-48091aef2876","system_id":"levelo_inurba_marseille","lat":43.28174,"lon":5.42614,"is_reserved":false,"is_disabled":false,"rental_uris":{"android":"levelo://app?vid=bc9b1e32-064d-4bf1-b679-48091aef2876","ios":"levelo://app?vid=bc9b1e32-064d-4bf1-b679-48091aef2876"},"vehicle_type_id":"4","last_reported":1740514205,"current_range_meters":16000,"station_id":"ce4bhnh2rcd13ifvqgug","pricing_plan_id":"cebpf4jnsgd1na2vs0mg"},{"bike_id":"a8692879-7eca-4d99-8e8d-c7aaad0f16fb","system_id":"levelo_inurba_marseille","lat":43.24792,"lon":5.37485,"is_reserved":false,"is_disabled":false,"rental_uris":{"android":"levelo://app?vid=a8692879-7eca-4d99-8e8d-c7aaad0f16fb","ios":"levelo://app?vid=a8692879-7eca-4d99-8e8d-c7aaad0f16fb"},"vehicle_type_id":"4","last_reported":1740514205,"current_range_meters":16400,"station_id":"ce4bhgh2rcd13ifvqfb0","pricing_plan_id":"cebpf4jnsgd1na2vs0mg"},{"bike_id":"e6a3c3d9-d4b8-489e-b09c-b8dc19c99c67","system_id":"levelo_inurba_marseille","lat":43.29027,"lon":5.38618,"is_reserved":false,"is_disabled":false,"rental_uris":{"android":"levelo://app?vid=e6a3c3d9-d4b8-489e-b09c-b8dc19c99c67","ios":"levelo://app?vid=e6a3c3d9-d4b8-489e-b09c-b8dc19c99c67"},"vehicle_type_id":"4","last_reported":1740514205,"current_range_meters":16400,"station_id":"ce4bh4p2rcd13ifvqe0g","pricing_plan_id":"cebpf4jnsgd1na2vs0mg"},{"bike_id":"bb953524-1b92-4c01-b6f7-6c8d4a329874","system_id":"levelo_inurba_marseille","lat":43.28267,"lon":5.35079,"is_reserved":false,"is_disabled":false,"rental_uris":{"android":"levelo://app?vid=bb953524-1b92-4c01-b6f7-6c8d4a329874","ios":"levelo://app?vid=bb953524-1b92-4c01-b6f7-6c8d4a329874"},"vehicle_type_id":"4","last_reported":1740514205,"current_range_meters":16400,"station_id":"ce4bhbp2rcd13ifvqerg","pricing_plan_id":"cebpf4jnsgd1na2vs0mg"},{"bike_id":"35574852-253b-4bbe-a6e3-ee31965d9ec8","system_id":"levelo_inurba_marseille","lat":43.32356,"lon":5.38906,"is_reserved":false,"is_disabled":false,"rental_uris":{"android":"levelo://app?vid=35574852-253b-4bbe-a6e3-ee31965d9ec8","ios":"levelo://app?vid=35574852-253b-4bbe-a6e3-ee31965d9ec8"},"vehicle_type_id":"4","last_reported":1740514205,"current_range_meters":16800,"station_id":"ce4bhqp2rcd13ifvqhog","pricing_plan_id":"cebpf4jnsgd1na2vs0mg"},{"bike_id":"2285c932-96d2-4e25-b5ab-a9d3a942aa52","system_id":"levelo_inurba_marseille","lat":43.32281,"lon":5.38259,"is_reserved":false,"is_disabled":false,"rental_uris":{"android":"levelo://app?vid=2285c932-96d2-4e25-b5ab-a9d3a942aa52","ios":"levelo://app?vid=2285c932-96d2-4e25-b5ab-a9d3a942aa52"},"vehicle_type_id":"4","last_reported":1740514205,"current_range_meters":16400,"station_id":"ce4bhr12rcd13ifvqhqg","pricing_plan_id":"cebpf4jnsgd1na2vs0mg"},{"bike_id":"0b2f5009-1e4e-4593-8abd-b74dc1937c26","system_id":"levelo_inurba_marseille","lat":43.23216,"lon":5.39966,"is_reserved":false,"is_disabled":false,"rental_uris":{"android":"levelo://app?vid=0b2f5009-1e4e-4593-8abd-b74dc1937c26","ios":"levelo://app?vid=0b2f5009-1e4e-4593-8abd-b74dc1937c26"},"vehicle_type_id":"4","last_reported":1740514205,"current_range_meters":16400,"station_id":"ce4bhn12rcd13ifvqgqg","pricing_plan_id":"cebpf4jnsgd1na2vs0mg"},{"bike_id":"c0ed74a2-e2a8-41f0-9b03-a680909f2682","system_id":"levelo_inurba_marseille","lat":43.27938,"lon":5.41054,"is_reserved":false,"is_disabled":false,"rental_uris":{"android":"levelo://app?vid=c0ed74a2-e2a8-41f0-9b03-a680909f2682","ios":"levelo://app?vid=c0ed74a2-e2a8-41f0-9b03-a680909f2682"},"vehicle_type_id":"4","last_reported":1740514205,"current_range_meters":16400,"station_id":"ce4bhnp2rcd13ifvqh0g","pricing_plan_id":"cebpf4jnsgd1na2vs0mg"},{"bike_id":"c733998d-e0d3-44c6-a8c0-1e50f0b51a94","system_id":"levelo_inurba_marseille","lat":43.29426,"lon":5.38703,"is_reserved":false,"is_disabled":false,"rental_uris":{"android":"levelo://app?vid=c733998d-e0d3-44c6-a8c0-1e50f0b51a94","ios":"levelo://app?vid=c733998d-e0d3-44c6-a8c0-1e50f0b51a94"},"vehicle_type_id":"4","last_reported":1740514205,"current_range_meters":16400,"station_id":"","pricing_plan_id":"cebpf4jnsgd1na2vs0mg"},{"bike_id":"88cf73d0-05e5-45a5-817f-4ade2a2314da","system_id":"levelo_inurba_marseille","lat":43.2903,"lon":5.38641,"is_reserved":false,"is_disabled":false,"rental_uris":{"android":"levelo://app?vid=88cf73d0-05e5-45a5-817f-4ade2a2314da","ios":"levelo://app?vid=88cf73d0-05e5-45a5-817f-4ade2a2314da"},"vehicle_type_id":"4","last_reported":1740514205,"current_range_meters":16400,"station_id":"ce4bh4p2rcd13ifvqe0g","pricing_plan_id":"cebpf4jnsgd1na2vs0mg"},{"bike_id":"34e9c8b3-2a6e-4c5c-9934-82f2a349f2ed","system_id":"levelo_inurba_marseille","lat":43.31332,"lon":5.39697,"is_reserved":false,"is_disabled":false,"rental_uris":{"android":"levelo://app?vid=34e9c8b3-2a6e-4c5c-9934-82f2a349f2ed","ios":"levelo://app?vid=34e9c8b3-2a6e-4c5c-9934-82f2a349f2ed"},"vehicle_type_id":"4","last_reported":1740514205,"current_range_meters":16400,"station_id":"ce4bgvp2rcd13ifvqcu0","pricing_plan_id":"cebpf4jnsgd1na2vs0mg"},{"bike_id":"013c533e-c991-49dd-ac74-d8803d35e56c","system_id":"levelo_inurba_marseille","lat":43.285843,"lon":5.397461,"is_reserved":false,"is_disabled":false,"rental_uris":{"android":"levelo://app?vid=013c533e-c991-49dd-ac74-d8803d35e56c","ios":"levelo://app?vid=013c533e-c991-49dd-ac74-d8803d35e56c"},"vehicle_type_id":"4","last_reported":1740514205,"current_range_meters":16800,"station_id":"ce4bh292rcd13ifvqdg0","pricing_plan_id":"cebpf4jnsgd1na2vs0mg"},{"bike_id":"12451835-3853-43ca-a98e-147997a5e2b1","system_id":"levelo_inurba_marseille","lat":43.28463,"lon":5.35884,"is_reserved":false,"is_disabled":false,"rental_uris":{"android":"levelo://app?vid=12451835-3853-43ca-a98e-147997a5e2b1","ios":"levelo://app?vid=12451835-3853-43ca-a98e-147997a5e2b1"},"vehicle_type_id":"4","last_reported":1740514205,"current_range_meters":16800,"station_id":"ce4bhah2rcd13ifvqei0","pricing_plan_id":"cebpf4jnsgd1na2vs0mg"},{"bike_id":"7c4112af-4220-42f6-98e8-9f0ad4c08842","system_id":"levelo_inurba_marseille","lat":43.28409,"lon":5.37531,"is_reserved":false,"is_disabled":false,"rental_uris":{"android":"levelo://app?vid=7c4112af-4220-42f6-98e8-9f0ad4c08842","ios":"levelo://app?vid=7c4112af-4220-42f6-98e8-9f0ad4c08842"},"vehicle_type_id":"4","last_reported":1740514205,"current_range_meters":16800,"station_id":"ce4bh412rcd13ifvqds0","pricing_plan_id":"cebpf4jnsgd1na2vs0mg"},{"bike_id":"5a62ea86-aebe-4377-b6c1-f74978b4d915","system_id":"levelo_inurba_marseille","lat":43.28667,"lon":5.36355,"is_reserved":false,"is_disabled":false,"rental_uris":{"android":"levelo://app?vid=5a62ea86-aebe-4377-b6c1-f74978b4d915","ios":"levelo://app?vid=5a62ea86-aebe-4377-b6c1-f74978b4d915"},"vehicle_type_id":"4","last_reported":1740514205,"current_range_meters":16400,"station_id":"ce4bhah2rcd13ifvqej0","pricing_plan_id":"cebpf4jnsgd1na2vs0mg"},{"bike_id":"413a2602-264e-43a4-98cf-ba5861b15c41","system_id":"levelo_inurba_marseille","lat":43.28168,"lon":5.4263,"is_reserved":false,"is_disabled":false,"rental_uris":{"android":"levelo://app?vid=413a2602-264e-43a4-98cf-ba5861b15c41","ios":"levelo://app?vid=413a2602-264e-43a4-98cf-ba5861b15c41"},"vehicle_type_id":"4","last_reported":1740514205,"current_range_meters":16800,"station_id":"ce4bhnh2rcd13ifvqgug","pricing_plan_id":"cebpf4jnsgd1na2vs0mg"},{"bike_id":"655ae86d-bf8c-4ebf-9e7f-04e7288819be","system_id":"levelo_inurba_marseille","lat":43.30346,"lon":5.4188,"is_reserved":false,"is_disabled":false,"rental_uris":{"android":"levelo://app?vid=655ae86d-bf8c-4ebf-9e7f-04e7288819be","ios":"levelo://app?vid=655ae86d-bf8c-4ebf-9e7f-04e7288819be"},"vehicle_type_id":"4","last_reported":1740514205,"current_range_meters":16400,"station_id":"ce4bhop2rcd13ifvqh7g","pricing_plan_id":"cebpf4jnsgd1na2vs0mg"},{"bike_id":"d87b78e1-3377-48df-a130-991f4ba63b5b","system_id":"levelo_inurba_marseille","lat":43.29871,"lon":5.3976,"is_reserved":false,"is_disabled":false,"rental_uris":{"android":"levelo://app?vid=d87b78e1-3377-48df-a130-991f4ba63b5b","ios":"levelo://app?vid=d87b78e1-3377-48df-a130-991f4ba63b5b"},"vehicle_type_id":"4","last_reported":1740514205,"current_range_meters":16800,"station_id":"ce4bh0h2rcd13ifvqd50","pricing_plan_id":"cebpf4jnsgd1na2vs0mg"},{"bike_id":"7110c69d-9730-4011-ae5c-37b7246b56f0","system_id":"levelo_inurba_marseille","lat":43.25724,"lon":5.41107,"is_reserved":false,"is_disabled":false,"rental_uris":{"android":"levelo://app?vid=7110c69d-9730-4011-ae5c-37b7246b56f0","ios":"levelo://app?vid=7110c69d-9730-4011-ae5c-37b7246b56f0"},"vehicle_type_id":"4","last_reported":1740514205,"current_range_meters":16800,"station_id":"ce4bhkp2rcd13ifvqgd0","pricing_plan_id":"cebpf4jnsgd1na2vs0mg"},{"bike_id":"916aa339-0162-4b55-82ed-426844246e01","system_id":"levelo_inurba_marseille","lat":43.28442,"lon":5.39208,"is_reserved":false,"is_disabled":false,"rental_uris":{"android":"levelo://app?vid=916aa339-0162-4b55-82ed-426844246e01","ios":"levelo://app?vid=916aa339-0162-4b55-82ed-426844246e01"},"vehicle_type_id":"4","last_reported":1740514205,"current_range_meters":16800,"station_id":"ce4bhoh2rcd13ifvqh5g","pricing_plan_id":"cebpf4jnsgd1na2vs0mg"},{"bike_id":"de24a00b-aa0e-4a03-986c-3a364b8a5f66","system_id":"levelo_inurba_marseille","lat":43.31638,"lon":5.38932,"is_reserved":false,"is_disabled":false,"rental_uris":{"android":"levelo://app?vid=de24a00b-aa0e-4a03-986c-3a364b8a5f66","ios":"levelo://app?vid=de24a00b-aa0e-4a03-986c-3a364b8a5f66"},"vehicle_type_id":"4","last_reported":1740514205,"current_range_meters":17200,"station_id":"","pricing_plan_id":"cebpf4jnsgd1na2vs0mg"},{"bike_id":"45ec7dc2-563f-4926-915e-9559fa73cc44","system_id":"levelo_inurba_marseille","lat":43.27173,"lon":5.4099,"is_reserved":false,"is_disabled":false,"rental_uris":{"android":"levelo://app?vid=45ec7dc2-563f-4926-915e-9559fa73cc44","ios":"levelo://app?vid=45ec7dc2-563f-4926-915e-9559fa73cc44"},"vehicle_type_id":"4","last_reported":1740514205,"current_range_meters":17200,"station_id":"ce4bhl12rcd13ifvqgf0","pricing_plan_id":"cebpf4jnsgd1na2vs0mg"},{"bike_id":"134ae0c0-4a2e-43fe-ac00-96839d582905","system_id":"levelo_inurba_marseille","lat":43.30287,"lon":5.392,"is_reserved":false,"is_disabled":false,"rental_uris":{"android":"levelo://app?vid=134ae0c0-4a2e-43fe-ac00-96839d582905","ios":"levelo://app?vid=134ae0c0-4a2e-43fe-ac00-96839d582905"},"vehicle_type_id":"4","last_reported":1740514205,"current_range_meters":17200,"station_id":"ce4bgkh2rcd13ifvqbk0","pricing_plan_id":"cebpf4jnsgd1na2vs0mg"},{"bike_id":"8fbff007-fc75-46f2-92d5-970e9ee4e8d1","system_id":"levelo_inurba_marseille","lat":43.28941,"lon":5.36628,"is_reserved":false,"is_disabled":false,"rental_uris":{"android":"levelo://app?vid=8fbff007-fc75-46f2-92d5-970e9ee4e8d1","ios":"levelo://app?vid=8fbff007-fc75-46f2-92d5-970e9ee4e8d1"},"vehicle_type_id":"4","last_reported":1740514205,"current_range_meters":17200,"station_id":"ce4bhap2rcd13ifvqek0","pricing_plan_id":"cebpf4jnsgd1na2vs0mg"},{"bike_id":"9706249d-da4c-416e-aad9-a7cbf8a72e5a","system_id":"levelo_inurba_marseille","lat":43.30592,"lon":5.3936,"is_reserved":false,"is_disabled":false,"rental_uris":{"android":"levelo://app?vid=9706249d-da4c-416e-aad9-a7cbf8a72e5a","ios":"levelo://app?vid=9706249d-da4c-416e-aad9-a7cbf8a72e5a"},"vehicle_type_id":"4","last_reported":1740514205,"current_range_meters":17200,"station_id":"ce4bh0p2rcd13ifvqd80","pricing_plan_id":"cebpf4jnsgd1na2vs0mg"},{"bike_id":"1f8fd212-6e49-4507-86eb-4c1e4b5c63bb","system_id":"levelo_inurba_marseille","lat":43.28439,"lon":5.39193,"is_reserved":false,"is_disabled":false,"rental_uris":{"android":"levelo://app?vid=1f8fd212-6e49-4507-86eb-4c1e4b5c63bb","ios":"levelo://app?vid=1f8fd212-6e49-4507-86eb-4c1e4b5c63bb"},"vehicle_type_id":"4","last_reported":1740514205,"current_range_meters":17600,"station_id":"ce4bhoh2rcd13ifvqh5g","pricing_plan_id":"cebpf4jnsgd1na2vs0mg"},{"bike_id":"b426a55b-6079-4410-bdcf-64a0360c349f","system_id":"levelo_inurba_marseille","lat":43.28418,"lon":5.3499,"is_reserved":false,"is_disabled":false,"rental_uris":{"android":"levelo://app?vid=b426a55b-6079-4410-bdcf-64a0360c349f","ios":"levelo://app?vid=b426a55b-6079-4410-bdcf-64a0360c349f"},"vehicle_type_id":"4","last_reported":1740514205,"current_range_meters":17200,"station_id":"ce4bhbh2rcd13ifvqepg","pricing_plan_id":"cebpf4jnsgd1na2vs0mg"},{"bike_id":"ddb8900e-cb80-4333-bdeb-b80e38c92454","system_id":"levelo_inurba_marseille","lat":43.32295,"lon":5.38275,"is_reserved":false,"is_disabled":false,"rental_uris":{"android":"levelo://app?vid=ddb8900e-cb80-4333-bdeb-b80e38c92454","ios":"levelo://app?vid=ddb8900e-cb80-4333-bdeb-b80e38c92454"},"vehicle_type_id":"4","last_reported":1740514205,"current_range_meters":17200,"station_id":"ce4bhr12rcd13ifvqhqg","pricing_plan_id":"cebpf4jnsgd1na2vs0mg"},{"bike_id":"8be0c533-1d4f-447b-aec8-dcf2768b24cb","system_id":"levelo_inurba_marseille","lat":43.28621,"lon":5.35102,"is_reserved":false,"is_disabled":false,"rental_uris":{"android":"levelo://app?vid=8be0c533-1d4f-447b-aec8-dcf2768b24cb","ios":"levelo://app?vid=8be0c533-1d4f-447b-aec8-dcf2768b24cb"},"vehicle_type_id":"4","last_reported":1740514205,"current_range_meters":17200,"station_id":"ce4bhch2rcd13ifvqeug","pricing_plan_id":"cebpf4jnsgd1na2vs0mg"},{"bike_id":"ad9571bc-5194-4f71-90ef-f1cb0835f36e","system_id":"levelo_inurba_marseille","lat":43.25491,"lon":5.37649,"is_reserved":false,"is_disabled":true,"rental_uris":{"android":"levelo://app?vid=ad9571bc-5194-4f71-90ef-f1cb0835f36e","ios":"levelo://app?vid=ad9571bc-5194-4f71-90ef-f1cb0835f36e"},"vehicle_type_id":"4","last_reported":1740514205,"current_range_meters":17200,"station_id":"ce4bhh12rcd13ifvqff0","pricing_plan_id":"cebpf4jnsgd1na2vs0mg"},{"bike_id":"e1d1f14c-1797-487f-bad5-aeee03d5456a","system_id":"levelo_inurba_marseille","lat":43.24661,"lon":5.38187,"is_reserved":false,"is_disabled":false,"rental_uris":{"android":"levelo://app?vid=e1d1f14c-1797-487f-bad5-aeee03d5456a","ios":"levelo://app?vid=e1d1f14c-1797-487f-bad5-aeee03d5456a"},"vehicle_type_id":"4","last_reported":1740514205,"current_range_meters":16800,"station_id":"ce4bhih2rcd13ifvqfr0","pricing_plan_id":"cebpf4jnsgd1na2vs0mg"},{"bike_id":"165eb680-3c00-4dc1-be4f-ae1306675027","system_id":"levelo_inurba_marseille","lat":43.28917,"lon":5.36663,"is_reserved":false,"is_disabled":false,"rental_uris":{"android":"levelo://app?vid=165eb680-3c00-4dc1-be4f-ae1306675027","ios":"levelo://app?vid=165eb680-3c00-4dc1-be4f-ae1306675027"},"vehicle_type_id":"4","last_reported":1740514205,"current_range_meters":17600,"station_id":"ce4bhap2rcd13ifvqek0","pricing_plan_id":"cebpf4jnsgd1na2vs0mg"},{"bike_id":"c333214c-e858-4d83-ae11-52fad9cac016","system_id":"levelo_inurba_marseille","lat":43.31756,"lon":5.39026,"is_reserved":false,"is_disabled":false,"rental_uris":{"android":"levelo://app?vid=c333214c-e858-4d83-ae11-52fad9cac016","ios":"levelo://app?vid=c333214c-e858-4d83-ae11-52fad9cac016"},"vehicle_type_id":"4","last_reported":1740514205,"current_range_meters":17600,"station_id":"ce4bhqp2rcd13ifvqhng","pricing_plan_id":"cebpf4jnsgd1na2vs0mg"},{"bike_id":"8429594d-885a-4eb3-b001-44d5ed0ad02d","system_id":"levelo_inurba_marseille","lat":43.29248,"lon":5.38452,"is_reserved":false,"is_disabled":false,"rental_uris":{"android":"levelo://app?vid=8429594d-885a-4eb3-b001-44d5ed0ad02d","ios":"levelo://app?vid=8429594d-885a-4eb3-b001-44d5ed0ad02d"},"vehicle_type_id":"4","last_reported":1740514205,"current_range_meters":17600,"station_id":"ce4bh692rcd13ifvqea0","pricing_plan_id":"cebpf4jnsgd1na2vs0mg"},{"bike_id":"25411262-23d1-41bb-a382-a545d4af1ec3","system_id":"levelo_inurba_marseille","lat":43.25113,"lon":5.40322,"is_reserved":false,"is_disabled":false,"rental_uris":{"android":"levelo://app?vid=25411262-23d1-41bb-a382-a545d4af1ec3","ios":"levelo://app?vid=25411262-23d1-41bb-a382-a545d4af1ec3"},"vehicle_type_id":"4","last_reported":1740514205,"current_range_meters":17600,"station_id":"ce4bhlh2rcd13ifvqgig","pricing_plan_id":"cebpf4jnsgd1na2vs0mg"},{"bike_id":"1a856f10-c5bc-4b12-a5aa-06d011bd52a2","system_id":"levelo_inurba_marseille","lat":43.27826,"lon":5.40706,"is_reserved":false,"is_disabled":false,"rental_uris":{"android":"levelo://app?vid=1a856f10-c5bc-4b12-a5aa-06d011bd52a2","ios":"levelo://app?vid=1a856f10-c5bc-4b12-a5aa-06d011bd52a2"},