{"last_updated":1784705516,"ttl":60,"version":"2.2","data":{"bikes":[{"bike_id":"7ef36254-6bb3-448c-8d77-979d957d54b6","system_id":"levelo_inurba_marseille","lat":43.337444,"lon":5.374475,"is_reserved":false,"is_disabled":false,"rental_uris":{"android":"levelo://app?vid=7ef36254-6bb3-448c-8d77-979d957d54b6","ios":"levelo://app?vid=7ef36254-6bb3-448c-8d77-979d957d54b6"},"vehicle_type_id":"4","last_reported":1784705518,"current_range_meters":0,"station_id":"","pricing_plan_id":"cebpf4jnsgd1na2vs0mg"},{"bike_id":"21fe2e98-0432-4b40-a81f-10dd00b0f57d","system_id":"levelo_inurba_marseille","lat":43.337444,"lon":5.374475,"is_reserved":false,"is_disabled":false,"rental_uris":{"android":"levelo://app?vid=21fe2e98-0432-4b40-a81f-10dd00b0f57d","ios":"levelo://app?vid=21fe2e98-0432-4b40-a81f-10dd00b0f57d"},"vehicle_type_id":"4","last_reported":1784705518,"current_range_meters":0,"station_id":"","pricing_plan_id":"cebpf4jnsgd1na2vs0mg"},{"bike_id":"a005102a-45c6-430f-8cd7-a0a69490bbf0","system_id":"levelo_inurba_marseille","lat":43.33543,"lon":5.37461,"is_reserved":false,"is_disabled":false,"rental_uris":{"android":"levelo://app?vid=a005102a-45c6-430f-8cd7-a0a69490bbf0","ios":"levelo://app?vid=a005102a-45c6-430f-8cd7-a0a69490bbf0"},"vehicle_type_id":"4","last_reported":1784705518,"current_range_meters":36000,"station_id":"st_d46tts09ee8s73dlu43g","pricing_plan_id":"cebpf4jnsgd1na2vs0mg"},{"bike_id":"e35a7b3d-d6be-4e45-8bf8-f140e099eb23","system_id":"levelo_inurba_marseille","lat":43.2293,"lon":5.35369,"is_reserved":false,"is_disabled":false,"rental_uris":{"android":"levelo://app?vid=e35a7b3d-d6be-4e45-8bf8-f140e099eb23","ios":"levelo://app?vid=e35a7b3d-d6be-4e45-8bf8-f140e099eb23"},"vehicle_type_id":"4","last_reported":1784705518,"current_range_meters":6400,"station_id":"cpo3532slgdg3j2ikp40","pricing_plan_id":"cebpf4jnsgd1na2vs0mg"},{"bike_id":"910edd9b-3f88-46ff-af53-0deba1c167b6","system_id":"levelo_inurba_marseille","lat":43.23962,"lon":5.36641,"is_reserved":false,"is_disabled":false,"rental_uris":{"android":"levelo://app?vid=910edd9b-3f88-46ff-af53-0deba1c167b6","ios":"levelo://app?vid=910edd9b-3f88-46ff-af53-0deba1c167b6"},"vehicle_type_id":"4","last_reported":1784705518,"current_range_meters":39200,"station_id":"ce4bhi12rcd13ifvqfp0","pricing_plan_id":"cebpf4jnsgd1na2vs0mg"},{"bike_id":"4b17ff7b-ae43-40d0-85fd-8b79ee5d688c","system_id":"levelo_inurba_marseille","lat":43.28201,"lon":5.39045,"is_reserved":false,"is_disabled":false,"rental_uris":{"android":"levelo://app?vid=4b17ff7b-ae43-40d0-85fd-8b79ee5d688c","ios":"levelo://app?vid=4b17ff7b-ae43-40d0-85fd-8b79ee5d688c"},"vehicle_type_id":"4","last_reported":1784705518,"current_range_meters":9600,"station_id":"ce4bhn92rcd13ifvqgsg","pricing_plan_id":"cebpf4jnsgd1na2vs0mg"},{"bike_id":"f2c26268-2002-48c9-a2f8-8f76ed8a8540","system_id":"levelo_inurba_marseille","lat":43.23889,"lon":5.37465,"is_reserved":false,"is_disabled":false,"rental_uris":{"android":"levelo://app?vid=f2c26268-2002-48c9-a2f8-8f76ed8a8540","ios":"levelo://app?vid=f2c26268-2002-48c9-a2f8-8f76ed8a8540"},"vehicle_type_id":"4","last_reported":1784705518,"current_range_meters":39200,"station_id":"st_d6sm7csbq4hs73f8fpjg","pricing_plan_id":"cebpf4jnsgd1na2vs0mg"},{"bike_id":"de30ddd4-669b-4767-a1ab-c402c79ef9a5","system_id":"levelo_inurba_marseille","lat":43.28697,"lon":5.37397,"is_reserved":false,"is_disabled":false,"rental_uris":{"android":"levelo://app?vid=de30ddd4-669b-4767-a1ab-c402c79ef9a5","ios":"levelo://app?vid=de30ddd4-669b-4767-a1ab-c402c79ef9a5"},"vehicle_type_id":"4","last_reported":1784705518,"current_range_meters":2800,"station_id":"ce4bh3p2rcd13ifvqdq0","pricing_plan_id":"cebpf4jnsgd1na2vs0mg"},{"bike_id":"72706276-fb69-4388-946e-2b4fb06a5929","system_id":"levelo_inurba_marseille","lat":43.33024,"lon":5.39026,"is_reserved":false,"is_disabled":false,"rental_uris":{"android":"levelo://app?vid=72706276-fb69-4388-946e-2b4fb06a5929","ios":"levelo://app?vid=72706276-fb69-4388-946e-2b4fb06a5929"},"vehicle_type_id":"4","last_reported":1784705518,"current_range_meters":7200,"station_id":"ce4bhr92rcd13ifvqhrg","pricing_plan_id":"cebpf4jnsgd1na2vs0mg"},{"bike_id":"10ad0a9f-3c3b-45c2-8514-d34f29e37fe1","system_id":"levelo_inurba_marseille","lat":43.24405,"lon":5.37049,"is_reserved":false,"is_disabled":false,"rental_uris":{"android":"levelo://app?vid=10ad0a9f-3c3b-45c2-8514-d34f29e37fe1","ios":"levelo://app?vid=10ad0a9f-3c3b-45c2-8514-d34f29e37fe1"},"vehicle_type_id":"4","last_reported":1784705518,"current_range_meters":36000,"station_id":"ce4bhhh2rcd13ifvqfk0","pricing_plan_id":"cebpf4jnsgd1na2vs0mg"},{"bike_id":"b24998ef-9af8-4aae-ae63-e7b7ea209cdd","system_id":"levelo_inurba_marseille","lat":43.29624,"lon":5.37734,"is_reserved":false,"is_disabled":false,"rental_uris":{"android":"levelo://app?vid=b24998ef-9af8-4aae-ae63-e7b7ea209cdd","ios":"levelo://app?vid=b24998ef-9af8-4aae-ae63-e7b7ea209cdd"},"vehicle_type_id":"4","last_reported":1784705518,"current_range_meters":39200,"station_id":"ce4bgi92rcd13ifvqb90","pricing_plan_id":"cebpf4jnsgd1na2vs0mg"},{"bike_id":"7219b5d1-4410-4fc8-9519-1ca61e3e373b","system_id":"levelo_inurba_marseille","lat":43.27064,"lon":5.42275,"is_reserved":false,"is_disabled":false,"rental_uris":{"android":"levelo://app?vid=7219b5d1-4410-4fc8-9519-1ca61e3e373b","ios":"levelo://app?vid=7219b5d1-4410-4fc8-9519-1ca61e3e373b"},"vehicle_type_id":"4","last_reported":1784705518,"current_range_meters":19200,"station_id":"ce4bhk92rcd13ifvqgb0","pricing_plan_id":"cebpf4jnsgd1na2vs0mg"},{"bike_id":"0284c86c-8235-49d3-bf11-7624c297d043","system_id":"levelo_inurba_marseille","lat":43.30656,"lon":5.40077,"is_reserved":false,"is_disabled":false,"rental_uris":{"android":"levelo://app?vid=0284c86c-8235-49d3-bf11-7624c297d043","ios":"levelo://app?vid=0284c86c-8235-49d3-bf11-7624c297d043"},"vehicle_type_id":"4","last_reported":1784705518,"current_range_meters":36000,"station_id":"ce4bh112rcd13ifvqda0","pricing_plan_id":"cebpf4jnsgd1na2vs0mg"},{"bike_id":"10131cb1-86ea-4cb7-af98-95094fdd93f6","system_id":"levelo_inurba_marseille","lat":43.31761,"lon":5.39024,"is_reserved":false,"is_disabled":false,"rental_uris":{"android":"levelo://app?vid=10131cb1-86ea-4cb7-af98-95094fdd93f6","ios":"levelo://app?vid=10131cb1-86ea-4cb7-af98-95094fdd93f6"},"vehicle_type_id":"4","last_reported":1784705518,"current_range_meters":8000,"station_id":"ce4bhqp2rcd13ifvqhng","pricing_plan_id":"cebpf4jnsgd1na2vs0mg"},{"bike_id":"e66234c1-ff79-46db-860f-1f5397bc0405","system_id":"levelo_inurba_marseille","lat":43.28258,"lon":5.39077,"is_reserved":false,"is_disabled":true,"rental_uris":{"android":"levelo://app?vid=e66234c1-ff79-46db-860f-1f5397bc0405","ios":"levelo://app?vid=e66234c1-ff79-46db-860f-1f5397bc0405"},"vehicle_type_id":"4","last_reported":1784705518,"current_range_meters":16000,"station_id":"ce4bhn92rcd13ifvqgsg","pricing_plan_id":"cebpf4jnsgd1na2vs0mg"},{"bike_id":"bc9091fe-3fb6-4421-9530-c833a1f81039","system_id":"levelo_inurba_marseille","lat":43.280741,"lon":5.396616,"is_reserved":false,"is_disabled":false,"rental_uris":{"android":"levelo://app?vid=bc9091fe-3fb6-4421-9530-c833a1f81039","ios":"levelo://app?vid=bc9091fe-3fb6-4421-9530-c833a1f81039"},"vehicle_type_id":"4","last_reported":1784705518,"current_range_meters":38000,"station_id":"ce4bho12rcd13ifvqh2g","pricing_plan_id":"cebpf4jnsgd1na2vs0mg"},{"bike_id":"28718856-cb71-40ea-a9c1-60c839d8a131","system_id":"levelo_inurba_marseille","lat":43.30624,"lon":5.39346,"is_reserved":false,"is_disabled":false,"rental_uris":{"android":"levelo://app?vid=28718856-cb71-40ea-a9c1-60c839d8a131","ios":"levelo://app?vid=28718856-cb71-40ea-a9c1-60c839d8a131"},"vehicle_type_id":"4","last_reported":1784705518,"current_range_meters":24000,"station_id":"ce4bh0p2rcd13ifvqd80","pricing_plan_id":"cebpf4jnsgd1na2vs0mg"},{"bike_id":"bf720be3-207c-41aa-bdb2-2d086f76cbcd","system_id":"levelo_inurba_marseille","lat":43.26561,"lon":5.40332,"is_reserved":false,"is_disabled":false,"rental_uris":{"android":"levelo://app?vid=bf720be3-207c-41aa-bdb2-2d086f76cbcd","ios":"levelo://app?vid=bf720be3-207c-41aa-bdb2-2d086f76cbcd"},"vehicle_type_id":"4","last_reported":1784705518,"current_range_meters":7200,"station_id":"ce4bhmp2rcd13ifvqgng","pricing_plan_id":"cebpf4jnsgd1na2vs0mg"},{"bike_id":"7b893c3a-f50d-4ab1-b4e5-684f550fde57","system_id":"levelo_inurba_marseille","lat":43.31498,"lon":5.37301,"is_reserved":false,"is_disabled":true,"rental_uris":{"android":"levelo://app?vid=7b893c3a-f50d-4ab1-b4e5-684f550fde57","ios":"levelo://app?vid=7b893c3a-f50d-4ab1-b4e5-684f550fde57"},"vehicle_type_id":"4","last_reported":1784705518,"current_range_meters":8800,"station_id":"ce4bgt12rcd13ifvqcd0","pricing_plan_id":"cebpf4jnsgd1na2vs0mg"},{"bike_id":"e29e2b05-3981-40fc-9c11-473432d9dfb5","system_id":"levelo_inurba_marseille","lat":43.26204,"lon":5.37933,"is_reserved":false,"is_disabled":false,"rental_uris":{"android":"levelo://app?vid=e29e2b05-3981-40fc-9c11-473432d9dfb5","ios":"levelo://app?vid=e29e2b05-3981-40fc-9c11-473432d9dfb5"},"vehicle_type_id":"4","last_reported":1784705518,"current_range_meters":16000,"station_id":"ce4bhjp2rcd13ifvqg90","pricing_plan_id":"cebpf4jnsgd1na2vs0mg"},{"bike_id":"b4c2c723-6b70-4648-99e0-4fa7a0a555ca","system_id":"levelo_inurba_marseille","lat":43.26204,"lon":5.37444,"is_reserved":false,"is_disabled":false,"rental_uris":{"android":"levelo://app?vid=b4c2c723-6b70-4648-99e0-4fa7a0a555ca","ios":"levelo://app?vid=b4c2c723-6b70-4648-99e0-4fa7a0a555ca"},"vehicle_type_id":"4","last_reported":1784705518,"current_range_meters":16800,"station_id":"ce4bhgp2rcd13ifvqfc0","pricing_plan_id":"cebpf4jnsgd1na2vs0mg"},{"bike_id":"256189b6-7292-4343-872c-b8b089a5e220","system_id":"levelo_inurba_marseille","lat":43.22924,"lon":5.35386,"is_reserved":false,"is_disabled":false,"rental_uris":{"android":"levelo://app?vid=256189b6-7292-4343-872c-b8b089a5e220","ios":"levelo://app?vid=256189b6-7292-4343-872c-b8b089a5e220"},"vehicle_type_id":"4","last_reported":1784705518,"current_range_meters":16800,"station_id":"cpo3532slgdg3j2ikp40","pricing_plan_id":"cebpf4jnsgd1na2vs0mg"},{"bike_id":"0407e939-5161-4ca2-abca-2b876d384dfc","system_id":"levelo_inurba_marseille","lat":43.30903,"lon":5.36847,"is_reserved":false,"is_disabled":false,"rental_uris":{"android":"levelo://app?vid=0407e939-5161-4ca2-abca-2b876d384dfc","ios":"levelo://app?vid=0407e939-5161-4ca2-abca-2b876d384dfc"},"vehicle_type_id":"4","last_reported":1784705518,"current_range_meters":26000,"station_id":"ce4bgn92rcd13ifvqbvg","pricing_plan_id":"cebpf4jnsgd1na2vs0mg"},{"bike_id":"f9c65922-483e-4914-92f4-f7524b9a110d","system_id":"levelo_inurba_marseille","lat":43.32359,"lon":5.36755,"is_reserved":false,"is_disabled":false,"rental_uris":{"android":"levelo://app?vid=f9c65922-483e-4914-92f4-f7524b9a110d","ios":"levelo://app?vid=f9c65922-483e-4914-92f4-f7524b9a110d"},"vehicle_type_id":"4","last_reported":1784705518,"current_range_meters":4400,"station_id":"ce4bhsh2rcd13ifvqi2g","pricing_plan_id":"cebpf4jnsgd1na2vs0mg"},{"bike_id":"7bfe4f0a-3af5-4f84-994e-e8bf45e21908","system_id":"levelo_inurba_marseille","lat":43.31373,"lon":5.36669,"is_reserved":false,"is_disabled":false,"rental_uris":{"android":"levelo://app?vid=7bfe4f0a-3af5-4f84-994e-e8bf45e21908","ios":"levelo://app?vid=7bfe4f0a-3af5-4f84-994e-e8bf45e21908"},"vehicle_type_id":"4","last_reported":1784705518,"current_range_meters":38000,"station_id":"ce4bgr92rcd13ifvqc6g","pricing_plan_id":"cebpf4jnsgd1na2vs0mg"},{"bike_id":"43db5314-f299-442d-a647-3276349edc71","system_id":"levelo_inurba_marseille","lat":43.24808,"lon":5.37454,"is_reserved":false,"is_disabled":true,"rental_uris":{"android":"levelo://app?vid=43db5314-f299-442d-a647-3276349edc71","ios":"levelo://app?vid=43db5314-f299-442d-a647-3276349edc71"},"vehicle_type_id":"4","last_reported":1784705518,"current_range_meters":35600,"station_id":"ce4bhgh2rcd13ifvqfb0","pricing_plan_id":"cebpf4jnsgd1na2vs0mg"},{"bike_id":"4a8c658f-cce5-4ba0-8311-c870c4ba4e12","system_id":"levelo_inurba_marseille","lat":43.29266,"lon":5.36848,"is_reserved":false,"is_disabled":false,"rental_uris":{"android":"levelo://app?vid=4a8c658f-cce5-4ba0-8311-c870c4ba4e12","ios":"levelo://app?vid=4a8c658f-cce5-4ba0-8311-c870c4ba4e12"},"vehicle_type_id":"4","last_reported":1784705518,"current_range_meters":29600,"station_id":"","pricing_plan_id":"cebpf4jnsgd1na2vs0mg"},{"bike_id":"138bbb68-d50c-4531-8bdd-ce98e01ada97","system_id":"levelo_inurba_marseille","lat":43.28703,"lon":5.46696,"is_reserved":false,"is_disabled":false,"rental_uris":{"android":"levelo://app?vid=138bbb68-d50c-4531-8bdd-ce98e01ada97","ios":"levelo://app?vid=138bbb68-d50c-4531-8bdd-ce98e01ada97"},"vehicle_type_id":"4","last_reported":1784705518,"current_range_meters":24400,"station_id":"st_d6tc3vkotcvc738tfjhg","pricing_plan_id":"cebpf4jnsgd1na2vs0mg"},{"bike_id":"a15660ee-e034-4235-b243-0479ea5a3d9b","system_id":"levelo_inurba_marseille","lat":43.33748,"lon":5.37479,"is_reserved":false,"is_disabled":false,"rental_uris":{"android":"levelo://app?vid=a15660ee-e034-4235-b243-0479ea5a3d9b","ios":"levelo://app?vid=a15660ee-e034-4235-b243-0479ea5a3d9b"},"vehicle_type_id":"4","last_reported":1784705518,"current_range_meters":36400,"station_id":"","pricing_plan_id":"cebpf4jnsgd1na2vs0mg"},{"bike_id":"32f0dfa3-49e9-4241-bb35-803cdc0c353f","system_id":"levelo_inurba_marseille","lat":43.29904,"lon":5.38142,"is_reserved":false,"is_disabled":false,"rental_uris":{"android":"levelo://app?vid=32f0dfa3-49e9-4241-bb35-803cdc0c353f","ios":"levelo://app?vid=32f0dfa3-49e9-4241-bb35-803cdc0c353f"},"vehicle_type_id":"4","last_reported":1784705518,"current_range_meters":38800,"station_id":"ce4bgj12rcd13ifvqbc0","pricing_plan_id":"cebpf4jnsgd1na2vs0mg"},{"bike_id":"a338cea5-f797-4d31-b718-3121663ee29c","system_id":"levelo_inurba_marseille","lat":43.30399,"lon":5.37865,"is_reserved":false,"is_disabled":false,"rental_uris":{"android":"levelo://app?vid=a338cea5-f797-4d31-b718-3121663ee29c","ios":"levelo://app?vid=a338cea5-f797-4d31-b718-3121663ee29c"},"vehicle_type_id":"4","last_reported":1784705518,"current_range_meters":35200,"station_id":"","pricing_plan_id":"cebpf4jnsgd1na2vs0mg"},{"bike_id":"4f36e699-e321-4385-bebf-a5379c2419da","system_id":"levelo_inurba_marseille","lat":43.29262,"lon":5.36851,"is_reserved":false,"is_disabled":false,"rental_uris":{"android":"levelo://app?vid=4f36e699-e321-4385-bebf-a5379c2419da","ios":"levelo://app?vid=4f36e699-e321-4385-bebf-a5379c2419da"},"vehicle_type_id":"4","last_reported":1784705518,"current_range_meters":22000,"station_id":"","pricing_plan_id":"cebpf4jnsgd1na2vs0mg"},{"bike_id":"b1fec295-9e6d-4acc-863d-a6efd982cf0f","system_id":"levelo_inurba_marseille","lat":43.28941,"lon":5.37825,"is_reserved":false,"is_disabled":false,"rental_uris":{"android":"levelo://app?vid=b1fec295-9e6d-4acc-863d-a6efd982cf0f","ios":"levelo://app?vid=b1fec295-9e6d-4acc-863d-a6efd982cf0f"},"vehicle_type_id":"4","last_reported":1784705518,"current_range_meters":39200,"station_id":"ce4bh9p2rcd13ifvqed0","pricing_plan_id":"cebpf4jnsgd1na2vs0mg"},{"bike_id":"68f9759d-31b0-4c35-bc93-d18e666e6d46","system_id":"levelo_inurba_marseille","lat":43.30908,"lon":5.36852,"is_reserved":false,"is_disabled":false,"rental_uris":{"android":"levelo://app?vid=68f9759d-31b0-4c35-bc93-d18e666e6d46","ios":"levelo://app?vid=68f9759d-31b0-4c35-bc93-d18e666e6d46"},"vehicle_type_id":"4","last_reported":1784705518,"current_range_meters":35200,"station_id":"ce4bgn92rcd13ifvqbvg","pricing_plan_id":"cebpf4jnsgd1na2vs0mg"},{"bike_id":"a7c9489a-3c37-4218-bc38-92c335aa3a8a","system_id":"levelo_inurba_marseille","lat":43.28481,"lon":5.48382,"is_reserved":false,"is_disabled":false,"rental_uris":{"android":"levelo://app?vid=a7c9489a-3c37-4218-bc38-92c335aa3a8a","ios":"levelo://app?vid=a7c9489a-3c37-4218-bc38-92c335aa3a8a"},"vehicle_type_id":"4","last_reported":1784705518,"current_range_meters":6800,"station_id":"st_d3svhcjqgbts73a3dn0g","pricing_plan_id":"cebpf4jnsgd1na2vs0mg"},{"bike_id":"d911dcd0-5bed-4f87-9946-bf0fa5d400db","system_id":"levelo_inurba_marseille","lat":43.27664,"lon":5.38967,"is_reserved":false,"is_disabled":true,"rental_uris":{"android":"levelo://app?vid=d911dcd0-5bed-4f87-9946-bf0fa5d400db","ios":"levelo://app?vid=d911dcd0-5bed-4f87-9946-bf0fa5d400db"},"vehicle_type_id":"4","last_reported":1784705518,"current_range_meters":1600,"station_id":"","pricing_plan_id":"cebpf4jnsgd1na2vs0mg"},{"bike_id":"3ec0487d-f740-4a30-922a-3a3602404ac7","system_id":"levelo_inurba_marseille","lat":43.25109,"lon":5.4032,"is_reserved":false,"is_disabled":false,"rental_uris":{"android":"levelo://app?vid=3ec0487d-f740-4a30-922a-3a3602404ac7","ios":"levelo://app?vid=3ec0487d-f740-4a30-922a-3a3602404ac7"},"vehicle_type_id":"4","last_reported":1784705518,"current_range_meters":39200,"station_id":"ce4bhlh2rcd13ifvqgig","pricing_plan_id":"cebpf4jnsgd1na2vs0mg"},{"bike_id":"540d5bf4-fcca-4219-b4c4-9a4661ff8288","system_id":"levelo_inurba_marseille","lat":43.29057,"lon":5.40001,"is_reserved":false,"is_disabled":true,"rental_uris":{"android":"levelo://app?vid=540d5bf4-fcca-4219-b4c4-9a4661ff8288","ios":"levelo://app?vid=540d5bf4-fcca-4219-b4c4-9a4661ff8288"},"vehicle_type_id":"4","last_reported":1784705518,"current_range_meters":32400,"station_id":"ce4bh392rcd13ifvqdm0","pricing_plan_id":"cebpf4jnsgd1na2vs0mg"},{"bike_id":"98d88435-e763-4e13-a1ba-c9c287bf7b86","system_id":"levelo_inurba_marseille","lat":43.30184,"lon":5.36623,"is_reserved":false,"is_disabled":false,"rental_uris":{"android":"levelo://app?vid=98d88435-e763-4e13-a1ba-c9c287bf7b86","ios":"levelo://app?vid=98d88435-e763-4e13-a1ba-c9c287bf7b86"},"vehicle_type_id":"4","last_reported":1784705518,"current_range_meters":14800,"station_id":"ce4bgrh2rcd13ifvqc8g","pricing_plan_id":"cebpf4jnsgd1na2vs0mg"},{"bike_id":"5782b3c5-fcfa-428f-a446-7f92a4d382c6","system_id":"levelo_inurba_marseille","lat":43.29724,"lon":5.36622,"is_reserved":false,"is_disabled":true,"rental_uris":{"android":"levelo://app?vid=5782b3c5-fcfa-428f-a446-7f92a4d382c6","ios":"levelo://app?vid=5782b3c5-fcfa-428f-a446-7f92a4d382c6"},"vehicle_type_id":"4","last_reported":1784705518,"current_range_meters":36000,"station_id":"ce4bgn12rcd13ifvqbt0","pricing_plan_id":"cebpf4jnsgd1na2vs0mg"},{"bike_id":"8c2b8dd6-969f-486f-b6db-89345624d380","system_id":"levelo_inurba_marseille","lat":43.31326,"lon":5.36709,"is_reserved":false,"is_disabled":false,"rental_uris":{"android":"levelo://app?vid=8c2b8dd6-969f-486f-b6db-89345624d380","ios":"levelo://app?vid=8c2b8dd6-969f-486f-b6db-89345624d380"},"vehicle_type_id":"4","last_reported":1784705518,"current_range_meters":19200,"station_id":"ce4bgr92rcd13ifvqc6g","pricing_plan_id":"cebpf4jnsgd1na2vs0mg"},{"bike_id":"5aa3ca14-34f8-4cf6-bf98-84664ad40ed9","system_id":"levelo_inurba_marseille","lat":43.32366,"lon":5.3887,"is_reserved":false,"is_disabled":false,"rental_uris":{"android":"levelo://app?vid=5aa3ca14-34f8-4cf6-bf98-84664ad40ed9","ios":"levelo://app?vid=5aa3ca14-34f8-4cf6-bf98-84664ad40ed9"},"vehicle_type_id":"4","last_reported":1784705518,"current_range_meters":38000,"station_id":"ce4bhqp2rcd13ifvqhog","pricing_plan_id":"cebpf4jnsgd1na2vs0mg"},{"bike_id":"febaaedf-9b37-469c-af42-9b12d1add498","system_id":"levelo_inurba_marseille","lat":43.25929,"lon":5.40905,"is_reserved":false,"is_disabled":false,"rental_uris":{"android":"levelo://app?vid=febaaedf-9b37-469c-af42-9b12d1add498","ios":"levelo://app?vid=febaaedf-9b37-469c-af42-9b12d1add498"},"vehicle_type_id":"4","last_reported":1784705518,"current_range_meters":14400,"station_id":"ce4bhm92rcd13ifvqglg","pricing_plan_id":"cebpf4jnsgd1na2vs0mg"},{"bike_id":"0547f557-b090-4345-9140-124bc0c4fa4e","system_id":"levelo_inurba_marseille","lat":43.33157,"lon":5.37678,"is_reserved":false,"is_disabled":false,"rental_uris":{"android":"levelo://app?vid=0547f557-b090-4345-9140-124bc0c4fa4e","ios":"levelo://app?vid=0547f557-b090-4345-9140-124bc0c4fa4e"},"vehicle_type_id":"4","last_reported":1784705518,"current_range_meters":33600,"station_id":"st_d46cu089ee8s73dldbu0","pricing_plan_id":"cebpf4jnsgd1na2vs0mg"},{"bike_id":"a4e34098-8c0f-4326-9772-a08c7f6b76fa","system_id":"levelo_inurba_marseille","lat":43.270674,"lon":5.422816,"is_reserved":false,"is_disabled":true,"rental_uris":{"android":"levelo://app?vid=a4e34098-8c0f-4326-9772-a08c7f6b76fa","ios":"levelo://app?vid=a4e34098-8c0f-4326-9772-a08c7f6b76fa"},"vehicle_type_id":"4","last_reported":1784705518,"current_range_meters":800,"station_id":"ce4bhk92rcd13ifvqgb0","pricing_plan_id":"cebpf4jnsgd1na2vs0mg"},{"bike_id":"8b48f329-937d-4f33-bc8e-cc3992c67190","system_id":"levelo_inurba_marseille","lat":43.29631,"lon":5.37168,"is_reserved":false,"is_disabled":true,"rental_uris":{"android":"levelo://app?vid=8b48f329-937d-4f33-bc8e-cc3992c67190","ios":"levelo://app?vid=8b48f329-937d-4f33-bc8e-cc3992c67190"},"vehicle_type_id":"4","last_reported":1784705518,"current_range_meters":36800,"station_id":"","pricing_plan_id":"cebpf4jnsgd1na2vs0mg"},{"bike_id":"996845f5-fb75-4eb8-b8ef-2869f07a5fe2","system_id":"levelo_inurba_marseille","lat":43.27187,"lon":5.40994,"is_reserved":false,"is_disabled":false,"rental_uris":{"android":"levelo://app?vid=996845f5-fb75-4eb8-b8ef-2869f07a5fe2","ios":"levelo://app?vid=996845f5-fb75-4eb8-b8ef-2869f07a5fe2"},"vehicle_type_id":"4","last_reported":1784705518,"current_range_meters":22400,"station_id":"ce4bhl12rcd13ifvqgf0","pricing_plan_id":"cebpf4jnsgd1na2vs0mg"},{"bike_id":"d5f15b89-300c-48ce-868a-694a93770e8e","system_id":"levelo_inurba_marseille","lat":43.2407,"lon":5.37696,"is_reserved":false,"is_disabled":false,"rental_uris":{"android":"levelo://app?vid=d5f15b89-300c-48ce-868a-694a93770e8e","ios":"levelo://app?vid=d5f15b89-300c-48ce-868a-694a93770e8e"},"vehicle_type_id":"4","last_reported":1784705518,"current_range_meters":16000,"station_id":"","pricing_plan_id":"cebpf4jnsgd1na2vs0mg"},{"bike_id":"1540d003-cc7e-4763-b1e9-2487d61aed43","system_id":"levelo_inurba_marseille","lat":43.28467,"lon":5.38423,"is_reserved":false,"is_disabled":false,"rental_uris":{"android":"levelo://app?vid=1540d003-cc7e-4763-b1e9-2487d61aed43","ios":"levelo://app?vid=1540d003-cc7e-4763-b1e9-2487d61aed43"},"vehicle_type_id":"4","last_reported":1784705518,"current_range_meters":33200,"station_id":"ce4bh512rcd13ifvqe3g","pricing_plan_id":"cebpf4jnsgd1na2vs0mg"},{"bike_id":"53d0f6b7-260d-4c8a-add4-bafac305600d","system_id":"levelo_inurba_marseille","lat":43.25927,"lon":5.40903,"is_reserved":false,"is_disabled":false,"rental_uris":{"android":"levelo://app?vid=53d0f6b7-260d-4c8a-add4-bafac305600d","ios":"levelo://app?vid=53d0f6b7-260d-4c8a-add4-bafac305600d"},"vehicle_type_id":"4","last_reported":1784705518,"current_range_meters":40000,"station_id":"ce4bhm92rcd13ifvqglg","pricing_plan_id":"cebpf4jnsgd1na2vs0mg"},{"bike_id":"06195112-6882-4fb6-b232-8620d1008b12","system_id":"levelo_inurba_marseille","lat":43.29276,"lon":5.36835,"is_reserved":false,"is_disabled":false,"rental_uris":{"android":"levelo://app?vid=06195112-6882-4fb6-b232-8620d1008b12","ios":"levelo://app?vid=06195112-6882-4fb6-b232-8620d1008b12"},"vehicle_type_id":"4","last_reported":1784705518,"current_range_meters":38800,"station_id":"","pricing_plan_id":"cebpf4jnsgd1na2vs0mg"},{"bike_id":"8b7d62fa-ed21-4972-93c6-2de1c4ec38ec","system_id":"levelo_inurba_marseille","lat":43.28851,"lon":5.39326,"is_reserved":false,"is_disabled":false,"rental_uris":{"android":"levelo://app?vid=8b7d62fa-ed21-4972-93c6-2de1c4ec38ec","ios":"levelo://app?vid=8b7d62fa-ed21-4972-93c6-2de1c4ec38ec"},"vehicle_type_id":"4","last_reported":1784705518,"current_range_meters":38800,"station_id":"ce4bh2p2rcd13ifvqdi0","pricing_plan_id":"cebpf4jnsgd1na2vs0mg"},{"bike_id":"114a2473-762e-4586-9652-be6c66774a48","system_id":"levelo_inurba_marseille","lat":43.272,"lon":5.39081,"is_reserved":false,"is_disabled":true,"rental_uris":{"android":"levelo://app?vid=114a2473-762e-4586-9652-be6c66774a48","ios":"levelo://app?vid=114a2473-762e-4586-9652-be6c66774a48"},"vehicle_type_id":"4","last_reported":1784705518,"current_range_meters":0,"station_id":"","pricing_plan_id":"cebpf4jnsgd1na2vs0mg"},{"bike_id":"aa0c2d9b-f4e0-477a-9fa2-18fd1e9e7acb","system_id":"levelo_inurba_marseille","lat":43.28687,"lon":5.46672,"is_reserved":false,"is_disabled":false,"rental_uris":{"android":"levelo://app?vid=aa0c2d9b-f4e0-477a-9fa2-18fd1e9e7acb","ios":"levelo://app?vid=aa0c2d9b-f4e0-477a-9fa2-18fd1e9e7acb"},"vehicle_type_id":"4","last_reported":1784705518,"current_range_meters":28800,"station_id":"st_d6tc3vkotcvc738tfjhg","pricing_plan_id":"cebpf4jnsgd1na2vs0mg"},{"bike_id":"dd11e6d7-94bf-4bbb-9428-5a8022e3e496","system_id":"levelo_inurba_marseille","lat":43.30244,"lon":5.39988,"is_reserved":false,"is_disabled":false,"rental_uris":{"android":"levelo://app?vid=dd11e6d7-94bf-4bbb-9428-5a8022e3e496","ios":"levelo://app?vid=dd11e6d7-94bf-4bbb-9428-5a8022e3e496"},"vehicle_type_id":"4","last_reported":1784705518,"current_range_meters":27600,"station_id":"","pricing_plan_id":"cebpf4jnsgd1na2vs0mg"},{"bike_id":"b97f1724-4f09-4f82-a8dd-d9c661ad559e","system_id":"levelo_inurba_marseille","lat":43.30863,"lon":5.37173,"is_reserved":false,"is_disabled":true,"rental_uris":{"android":"levelo://app?vid=b97f1724-4f09-4f82-a8dd-d9c661ad559e","ios":"levelo://app?vid=b97f1724-4f09-4f82-a8dd-d9c661ad559e"},"vehicle_type_id":"4","last_reported":1784705518,"current_range_meters":3600,"station_id":"ce4bguh2rcd13ifvqckg","pricing_plan_id":"cebpf4jnsgd1na2vs0mg"},{"bike_id":"7b1a34a9-9772-429a-ac81-dbcf3805788e","system_id":"levelo_inurba_marseille","lat":43.2787,"lon":5.35525,"is_reserved":false,"is_disabled":false,"rental_uris":{"android":"levelo://app?vid=7b1a34a9-9772-429a-ac81-dbcf3805788e","ios":"levelo://app?vid=7b1a34a9-9772-429a-ac81-dbcf3805788e"},"vehicle_type_id":"4","last_reported":1784705518,"current_range_meters":18000,"station_id":"","pricing_plan_id":"cebpf4jnsgd1na2vs0mg"},{"bike_id":"8934d4b1-9b85-494e-952c-953526b1a105","system_id":"levelo_inurba_marseille","lat":43.2872,"lon":5.39987,"is_reserved":false,"is_disabled":false,"rental_uris":{"android":"levelo://app?vid=8934d4b1-9b85-494e-952c-953526b1a105","ios":"levelo://app?vid=8934d4b1-9b85-494e-952c-953526b1a105"},"vehicle_type_id":"4","last_reported":1784705518,"current_range_meters":38000,"station_id":"ce4bho92rcd13ifvqh3g","pricing_plan_id":"cebpf4jnsgd1na2vs0mg"},{"bike_id":"454aae3a-d564-44f9-a87e-00f221c10a27","system_id":"levelo_inurba_marseille","lat":43.26495,"lon":5.39539,"is_reserved":false,"is_disabled":false,"rental_uris":{"android":"levelo://app?vid=454aae3a-d564-44f9-a87e-00f221c10a27","ios":"levelo://app?vid=454aae3a-d564-44f9-a87e-00f221c10a27"},"vehicle_type_id":"4","last_reported":1784705518,"current_range_meters":32000,"station_id":"ce4bhi12rcd13ifvqfq0","pricing_plan_id":"cebpf4jnsgd1na2vs0mg"},{"bike_id":"82779b01-0068-474e-8890-dc5de2a2a729","system_id":"levelo_inurba_marseille","lat":43.27759,"lon":5.3556,"is_reserved":false,"is_disabled":false,"rental_uris":{"android":"levelo://app?vid=82779b01-0068-474e-8890-dc5de2a2a729","ios":"levelo://app?vid=82779b01-0068-474e-8890-dc5de2a2a729"},"vehicle_type_id":"4","last_reported":1784705518,"current_range_meters":39200,"station_id":"","pricing_plan_id":"cebpf4jnsgd1na2vs0mg"},{"bike_id":"b3615f38-9ae4-47b3-be0f-27da959fb130","system_id":"levelo_inurba_marseille","lat":43.26478,"lon":5.39705,"is_reserved":false,"is_disabled":false,"rental_uris":{"android":"levelo://app?vid=b3615f38-9ae4-47b3-be0f-27da959fb130","ios":"levelo://app?vid=b3615f38-9ae4-47b3-be0f-27da959fb130"},"vehicle_type_id":"4","last_reported":1784705518,"current_range_meters":16000,"station_id":"","pricing_plan_id":"cebpf4jnsgd1na2vs0mg"},{"bike_id":"989bd331-d893-4007-bc86-f441ad9e54be","system_id":"levelo_inurba_marseille","lat":43.27818,"lon":5.39209,"is_reserved":false,"is_disabled":false,"rental_uris":{"android":"levelo://app?vid=989bd331-d893-4007-bc86-f441ad9e54be","ios":"levelo://app?vid=989bd331-d893-4007-bc86-f441ad9e54be"},"vehicle_type_id":"4","last_reported":1784705518,"current_range_meters":39200,"station_id":"ce4bhjp2rcd13ifvqga0","pricing_plan_id":"cebpf4jnsgd1na2vs0mg"},{"bike_id":"01d9a676-01f3-4b98-beb9-e0a1a490c722","system_id":"levelo_inurba_marseille","lat":43.2814,"lon":5.42633,"is_reserved":false,"is_disabled":false,"rental_uris":{"android":"levelo://app?vid=01d9a676-01f3-4b98-beb9-e0a1a490c722","ios":"levelo://app?vid=01d9a676-01f3-4b98-beb9-e0a1a490c722"},"vehicle_type_id":"4","last_reported":1784705518,"current_range_meters":29600,"station_id":"ce4bhnh2rcd13ifvqgug","pricing_plan_id":"cebpf4jnsgd1na2vs0mg"},{"bike_id":"f765bc46-853b-4f5f-a0cf-13f9a2c85881","system_id":"levelo_inurba_marseille","lat":43.32099,"lon":5.36799,"is_reserved":false,"is_disabled":false,"rental_uris":{"android":"levelo://app?vid=f765bc46-853b-4f5f-a0cf-13f9a2c85881","ios":"levelo://app?vid=f765bc46-853b-4f5f-a0cf-13f9a2c85881"},"vehicle_type_id":"4","last_reported":1784705518,"current_range_meters":34800,"station_id":"ce4bhrh2rcd13ifvqhug","pricing_plan_id":"cebpf4jnsgd1na2vs0mg"},{"bike_id":"04721d6d-f2e1-428f-ba6e-71ff1286f01b","system_id":"levelo_inurba_marseille","lat":43.24072,"lon":5.37755,"is_reserved":false,"is_disabled":false,"rental_uris":{"android":"levelo://app?vid=04721d6d-f2e1-428f-ba6e-71ff1286f01b","ios":"levelo://app?vid=04721d6d-f2e1-428f-ba6e-71ff1286f01b"},"vehicle_type_id":"4","last_reported":1784705518,"current_range_meters":38400,"station_id":"ce4bhnp2rcd13ifvqgvg","pricing_plan_id":"cebpf4jnsgd1na2vs0mg"},{"bike_id":"3ab46e4a-b9d6-458c-8f1a-3060296f87a3","system_id":"levelo_inurba_marseille","lat":43.25867,"lon":5.39898,"is_reserved":false,"is_disabled":false,"rental_uris":{"android":"levelo://app?vid=3ab46e4a-b9d6-458c-8f1a-3060296f87a3","ios":"levelo://app?vid=3ab46e4a-b9d6-458c-8f1a-3060296f87a3"},"vehicle_type_id":"4","last_reported":1784705518,"current_range_meters":27600,"station_id":"ce4bhl92rcd13ifvqghg","pricing_plan_id":"cebpf4jnsgd1na2vs0mg"},{"bike_id":"ba93309a-7b94-4ff9-87bd-2b00d2fbd9d0","system_id":"levelo_inurba_marseille","lat":43.31209,"lon":5.36853,"is_reserved":false,"is_disabled":false,"rental_uris":{"android":"levelo://app?vid=ba93309a-7b94-4ff9-87bd-2b00d2fbd9d0","ios":"levelo://app?vid=ba93309a-7b94-4ff9-87bd-2b00d2fbd9d0"},"vehicle_type_id":"4","last_reported":1784705518,"current_range_meters":31200,"station_id":"ce4bgl92rcd13ifvqbq0","pricing_plan_id":"cebpf4jnsgd1na2vs0mg"},{"bike_id":"a13e16e4-e177-431d-8bef-33b38f696e96","system_id":"levelo_inurba_marseille","lat":43.26763,"lon":5.39972,"is_reserved":false,"is_disabled":false,"rental_uris":{"android":"levelo://app?vid=a13e16e4-e177-431d-8bef-33b38f696e96","ios":"levelo://app?vid=a13e16e4-e177-431d-8bef-33b38f696e96"},"vehicle_type_id":"4","last_reported":1784705518,"current_range_meters":26800,"station_id":"","pricing_plan_id":"cebpf4jnsgd1na2vs0mg"},{"bike_id":"d57b192b-fa79-4176-831d-ca0c5d4f9949","system_id":"levelo_inurba_marseille","lat":43.30883,"lon":5.372,"is_reserved":false,"is_disabled":false,"rental_uris":{"android":"levelo://app?vid=d57b192b-fa79-4176-831d-ca0c5d4f9949","ios":"levelo://app?vid=d57b192b-fa79-4176-831d-ca0c5d4f9949"},"vehicle_type_id":"4","last_reported":1784705518,"current_range_meters":6800,"station_id":"ce4bguh2rcd13ifvqckg","pricing_plan_id":"cebpf4jnsgd1na2vs0mg"},{"bike_id":"561b5e3a-50e1-4d27-8689-31b60862f5bc","system_id":"levelo_inurba_marseille","lat":43.23197,"lon":5.39981,"is_reserved":false,"is_disabled":false,"rental_uris":{"android":"levelo://app?vid=561b5e3a-50e1-4d27-8689-31b60862f5bc","ios":"levelo://app?vid=561b5e3a-50e1-4d27-8689-31b60862f5bc"},"vehicle_type_id":"4","last_reported":1784705518,"current_range_meters":39200,"station_id":"ce4bhn12rcd13ifvqgqg","pricing_plan_id":"cebpf4jnsgd1na2vs0mg"},{"bike_id":"f035d996-7ccf-4492-97a9-7029bc70a74e","system_id":"levelo_inurba_marseille","lat":43.30133,"lon":5.38086,"is_reserved":false,"is_disabled":false,"rental_uris":{"android":"levelo://app?vid=f035d996-7ccf-4492-97a9-7029bc70a74e","ios":"levelo://app?vid=f035d996-7ccf-4492-97a9-7029bc70a74e"},"vehicle_type_id":"4","last_reported":1784705518,"current_range_meters":20400,"station_id":"ce4bgjp2rcd13ifvqbh0","pricing_plan_id":"cebpf4jnsgd1na2vs0mg"},{"bike_id":"cefdada5-be26-4dba-80f7-cf68209c7686","system_id":"levelo_inurba_marseille","lat":43.22931,"lon":5.35379,"is_reserved":false,"is_disabled":false,"rental_uris":{"android":"levelo://app?vid=cefdada5-be26-4dba-80f7-cf68209c7686","ios":"levelo://app?vid=cefdada5-be26-4dba-80f7-cf68209c7686"},"vehicle_type_id":"4","last_reported":1784705518,"current_range_meters":26000,"station_id":"cpo3532slgdg3j2ikp40","pricing_plan_id":"cebpf4jnsgd1na2vs0mg"},{"bike_id":"9439bbcb-7d6e-4bda-b434-395a083f2a8c","system_id":"levelo_inurba_marseille","lat":43.28718,"lon":5.39993,"is_reserved":false,"is_disabled":false,"rental_uris":{"android":"levelo://app?vid=9439bbcb-7d6e-4bda-b434-395a083f2a8c","ios":"levelo://app?vid=9439bbcb-7d6e-4bda-b434-395a083f2a8c"},"vehicle_type_id":"4","last_reported":1784705518,"current_range_meters":39200,"station_id":"ce4bho92rcd13ifvqh3g","pricing_plan_id":"cebpf4jnsgd1na2vs0mg"},{"bike_id":"35400483-fb0a-4b5d-82c5-7959e787f0bb","system_id":"levelo_inurba_marseille","lat":43.27442,"lon":5.39388,"is_reserved":false,"is_disabled":false,"rental_uris":{"android":"levelo://app?vid=35400483-fb0a-4b5d-82c5-7959e787f0bb","ios":"levelo://app?vid=35400483-fb0a-4b5d-82c5-7959e787f0bb"},"vehicle_type_id":"4","last_reported":1784705518,"current_range_meters":19600,"station_id":"ce4bhdp2rcd13ifvqf20","pricing_plan_id":"cebpf4jnsgd1na2vs0mg"},{"bike_id":"18c11ec0-362c-4026-b108-3a02844d6b5c","system_id":"levelo_inurba_marseille","lat":43.24188,"lon":5.38802,"is_reserved":false,"is_disabled":false,"rental_uris":{"android":"levelo://app?vid=18c11ec0-362c-4026-b108-3a02844d6b5c","ios":"levelo://app?vid=18c11ec0-362c-4026-b108-3a02844d6b5c"},"vehicle_type_id":"4","last_reported":1784705518,"current_range_meters":27200,"station_id":"","pricing_plan_id":"cebpf4jnsgd1na2vs0mg"},{"bike_id":"34874540-0570-40af-85da-6e3053493a31","system_id":"levelo_inurba_marseille","lat":43.29225,"lon":5.36069,"is_reserved":false,"is_disabled":false,"rental_uris":{"android":"levelo://app?vid=34874540-0570-40af-85da-6e3053493a31","ios":"levelo://app?vid=34874540-0570-40af-85da-6e3053493a31"},"vehicle_type_id":"4","last_reported":1784705518,"current_range_meters":21600,"station_id":"ce4bhbh2rcd13ifvqeqg","pricing_plan_id":"cebpf4jnsgd1na2vs0mg"},{"bike_id":"9b283179-210a-4336-a14d-ac3412104c48","system_id":"levelo_inurba_marseille","lat":43.32457,"lon":5.36539,"is_reserved":false,"is_disabled":false,"rental_uris":{"android":"levelo://app?vid=9b283179-210a-4336-a14d-ac3412104c48","ios":"levelo://app?vid=9b283179-210a-4336-a14d-ac3412104c48"},"vehicle_type_id":"4","last_reported":1784705518,"current_range_meters":33600,"station_id":"ce4bhs12rcd13ifvqhvg","pricing_plan_id":"cebpf4jnsgd1na2vs0mg"},{"bike_id":"65d6e314-9a62-486c-a1bc-61ef35484daf","system_id":"levelo_inurba_marseille","lat":43.29558,"lon":5.37495,"is_reserved":false,"is_disabled":false,"rental_uris":{"android":"levelo://app?vid=65d6e314-9a62-486c-a1bc-61ef35484daf","ios":"levelo://app?vid=65d6e314-9a62-486c-a1bc-61ef35484daf"},"vehicle_type_id":"4","last_reported":1784705518,"current_range_meters":31200,"station_id":"ce4bgh92rcd13ifvqb50","pricing_plan_id":"cebpf4jnsgd1na2vs0mg"},{"bike_id":"06a47a70-c4aa-4b09-8775-c059e958d2f4","system_id":"levelo_inurba_marseille","lat":43.28388,"lon":5.37501,"is_reserved":false,"is_disabled":false,"rental_uris":{"android":"levelo://app?vid=06a47a70-c4aa-4b09-8775-c059e958d2f4","ios":"levelo://app?vid=06a47a70-c4aa-4b09-8775-c059e958d2f4"},"vehicle_type_id":"4","last_reported":1784705518,"current_range_meters":26000,"station_id":"ce4bh412rcd13ifvqds0","pricing_plan_id":"cebpf4jnsgd1na2vs0mg"},{"bike_id":"8b980fe2-831a-474f-9257-aac80a862f21","system_id":"levelo_inurba_marseille","lat":43.32368,"lon":5.36771,"is_reserved":false,"is_disabled":false,"rental_uris":{"android":"levelo://app?vid=8b980fe2-831a-474f-9257-aac80a862f21","ios":"levelo://app?vid=8b980fe2-831a-474f-9257-aac80a862f21"},"vehicle_type_id":"4","last_reported":1784705518,"current_range_meters":39200,"station_id":"ce4bhsh2rcd13ifvqi2g","pricing_plan_id":"cebpf4jnsgd1na2vs0mg"},{"bike_id":"9c24dfc9-a9f6-48fe-9987-84002be90209","system_id":"levelo_inurba_marseille","lat":43.27678,"lon":5.38878,"is_reserved":false,"is_disabled":false,"rental_uris":{"android":"levelo://app?vid=9c24dfc9-a9f6-48fe-9987-84002be90209","ios":"levelo://app?vid=9c24dfc9-a9f6-48fe-9987-84002be90209"},"vehicle_type_id":"4","last_reported":1784705518,"current_range_meters":38000,"station_id":"ce4bhi12rcd13ifvqfo0","pricing_plan_id":"cebpf4jnsgd1na2vs0mg"},{"bike_id":"602348b5-0ec3-410d-8b93-57596fc7f6ae","system_id":"levelo_inurba_marseille","lat":43.29732,"lon":5.37677,"is_reserved":false,"is_disabled":false,"rental_uris":{"android":"levelo://app?vid=602348b5-0ec3-410d-8b93-57596fc7f6ae","ios":"levelo://app?vid=602348b5-0ec3-410d-8b93-57596fc7f6ae"},"vehicle_type_id":"4","last_reported":1784705518,"current_range_meters":24000,"station_id":"ce4bgkh2rcd13ifvqbl0","pricing_plan_id":"cebpf4jnsgd1na2vs0mg"},{"bike_id":"3cff31ea-c3fd-4a9e-aa7d-f699c19fe715","system_id":"levelo_inurba_marseille","lat":43.28531,"lon":5.44101,"is_reserved":false,"is_disabled":false,"rental_uris":{"android":"levelo://app?vid=3cff31ea-c3fd-4a9e-aa7d-f699c19fe715","ios":"levelo://app?vid=3cff31ea-c3fd-4a9e-aa7d-f699c19fe715"},"vehicle_type_id":"4","last_reported":1784705518,"current_range_meters":31200,"station_id":"st_d3j3df2ikq2c7380ej80","pricing_plan_id":"cebpf4jnsgd1na2vs0mg"},{"bike_id":"cf051e94-0c14-4035-9ea7-3057f94c3e01","system_id":"levelo_inurba_marseille","lat":43.29219,"lon":5.39693,"is_reserved":false,"is_disabled":false,"rental_uris":{"android":"levelo://app?vid=cf051e94-0c14-4035-9ea7-3057f94c3e01","ios":"levelo://app?vid=cf051e94-0c14-4035-9ea7-3057f94c3e01"},"vehicle_type_id":"4","last_reported":1784705518,"current_range_meters":24800,"station_id":"","pricing_plan_id":"cebpf4jnsgd1na2vs0mg"},{"bike_id":"7b9dd402-2791-437b-bfc4-2ba4f88e27eb","system_id":"levelo_inurba_marseille","lat":43.28461,"lon":5.37529,"is_reserved":false,"is_disabled":false,"rental_uris":{"android":"levelo://app?vid=7b9dd402-2791-437b-bfc4-2ba4f88e27eb","ios":"levelo://app?vid=7b9dd402-2791-437b-bfc4-2ba4f88e27eb"},"vehicle_type_id":"4","last_reported":1784705518,"current_range_meters":39200,"station_id":"","pricing_plan_id":"cebpf4jnsgd1na2vs0mg"},{"bike_id":"ea65f945-5804-4f4c-a343-1c5b9664c0e2","system_id":"levelo_inurba_marseille","lat":43.30941,"lon":5.39045,"is_reserved":false,"is_disabled":false,"rental_uris":{"android":"levelo://app?vid=ea65f945-5804-4f4c-a343-1c5b9664c0e2","ios":"levelo://app?vid=ea65f945-5804-4f4c-a343-1c5b9664c0e2"},"vehicle_type_id":"4","last_reported":1784705518,"current_range_meters":38000,"station_id":"ce4bgup2rcd13ifvqco0","pricing_plan_id":"cebpf4jnsgd1na2vs0mg"},{"bike_id":"238398fc-83d7-4dbe-918b-1e8e7bd4a603","system_id":"levelo_inurba_marseille","lat":43.31265,"lon":5.39018,"is_reserved":false,"is_disabled":false,"rental_uris":{"android":"levelo://app?vid=238398fc-83d7-4dbe-918b-1e8e7bd4a603","ios":"levelo://app?vid=238398fc-83d7-4dbe-918b-1e8e7bd4a603"},"vehicle_type_id":"4","last_reported":1784705518,"current_range_meters":24400,"station_id":"","pricing_plan_id":"cebpf4jnsgd1na2vs0mg"},{"bike_id":"78e7e967-a8d7-4345-8d31-93c9d317e74b","system_id":"levelo_inurba_marseille","lat":43.30452,"lon":5.40915,"is_reserved":false,"is_disabled":false,"rental_uris":{"android":"levelo://app?vid=78e7e967-a8d7-4345-8d31-93c9d317e74b","ios":"levelo://app?vid=78e7e967-a8d7-4345-8d31-93c9d317e74b"},"vehicle_type_id":"4","last_reported":1784705518,"current_range_meters":26000,"station_id":"","pricing_plan_id":"cebpf4jnsgd1na2vs0mg"},{"bike_id":"f1288106-a8c3-4624-ad2a-44299213b3e2","system_id":"levelo_inurba_marseille","lat":43.29574,"lon":5.36756,"is_reserved":false,"is_disabled":true,"rental_uris":{"android":"levelo://app?vid=f1288106-a8c3-4624-ad2a-44299213b3e2","ios":"levelo://app?vid=f1288106-a8c3-4624-ad2a-44299213b3e2"},"vehicle_type_id":"4","last_reported":1784705518,"current_range_meters":4400,"station_id":"","pricing_plan_id":"cebpf4jnsgd1na2vs0mg"},{"bike_id":"ab52afa5-a3f8-4d43-abb5-6d3bdce56e41","system_id":"levelo_inurba_marseille","lat":43.29847,"lon":5.376757,"is_reserved":false,"is_disabled":false,"rental_uris":{"android":"levelo://app?vid=ab52afa5-a3f8-4d43-abb5-6d3bdce56e41","ios":"levelo://app?vid=ab52afa5-a3f8-4d43-abb5-6d3bdce56e41"},"vehicle_type_id":"4","last_reported":1784705518,"current_range_meters":26000,"station_id":"ce4bgjh2rcd13ifvqbg0","pricing_plan_id":"cebpf4jnsgd1na2vs0mg"},{"bike_id":"ab907c16-2123-44c2-912f-95e0f2737c03","system_id":"levelo_inurba_marseille","lat":43.30389,"lon":5.42718,"is_reserved":false,"is_disabled":true,"rental_uris":{"android":"levelo://app?vid=ab907c16-2123-44c2-912f-95e0f2737c03","ios":"levelo://app?vid=ab907c16-2123-44c2-912f-95e0f2737c03"},"vehicle_type_id":"4","last_reported":1784705518,"current_range_meters":24400,"station_id":"","pricing_plan_id":"cebpf4jnsgd1na2vs0mg"},{"bike_id":"9958bf3e-9f9b-4b76-97c7-d14660691215","system_id":"levelo_inurba_marseille","lat":43.27994,"lon":5.38696,"is_reserved":false,"is_disabled":false,"rental_uris":{"android":"levelo://app?vid=9958bf3e-9f9b-4b76-97c7-d14660691215","ios":"levelo://app?vid=9958bf3e-9f9b-4b76-97c7-d14660691215"},"vehicle_type_id":"4","last_reported":1784705518,"current_range_meters":20800,"station_id":"ce4bhg12rcd13ifvqf80","pricing_plan_id":"cebpf4jnsgd1na2vs0mg"},{"bike_id":"dfee7efb-895a-48ea-b82d-10465457f9f7","system_id":"levelo_inurba_marseille","lat":43.29851,"lon":5.36265,"is_reserved":false,"is_disabled":false,"rental_uris":{"android":"levelo://app?vid=dfee7efb-895a-48ea-b82d-10465457f9f7","ios":"levelo://app?vid=dfee7efb-895a-48ea-b82d-10465457f9f7"},"vehicle_type_id":"4","last_reported":1784705518,"current_range_meters":32400,"station_id":"ce4bgpp2rcd13ifvqc3g","pricing_plan_id":"cebpf4jnsgd1na2vs0mg"},{"bike_id":"def8c373-7641-42dd-9974-e44012237799","system_id":"levelo_inurba_marseille","lat":43.31673,"lon":5.38758,"is_reserved":false,"is_disabled":false,"rental_uris":{"android":"levelo://app?vid=def8c373-7641-42dd-9974-e44012237799","ios":"levelo://app?vid=def8c373-7641-42dd-9974-e44012237799"},"vehicle_type_id":"4","last_reported":1784705518,"current_range_meters":38000,"station_id":"","pricing_plan_id":"cebpf4jnsgd1na2vs0mg"},{"bike_id":"0a12ee92-64d8-4503-b04e-bf6dd52ce119","system_id":"levelo_inurba_marseille","lat":43.26495,"lon":5.39547,"is_reserved":false,"is_disabled":false,"rental_uris":{"android":"levelo://app?vid=0a12ee92-64d8-4503-b04e-bf6dd52ce119","ios":"levelo://app?vid=0a12ee92-64d8-4503-b04e-bf6dd52ce119"},"vehicle_type_id":"4","last_reported":1784705518,"current_range_meters":35200,"station_id":"ce4bhi12rcd13ifvqfq0","pricing_plan_id":"cebpf4jnsgd1na2vs0mg"},{"bike_id":"c520161e-c250-4161-a55a-6b287776d8da","system_id":"levelo_inurba_marseille","lat":43.28472,"lon":5.4839,"is_reserved":false,"is_disabled":false,"rental_uris":{"android":"levelo://app?vid=c520161e-c250-4161-a55a-6b287776d8da","ios":"levelo://app?vid=c520161e-c250-4161-a55a-6b287776d8da"},"vehicle_type_id":"4","last_reported":1784705518,"current_range_meters":28000,"station_id":"st_d3svhcjqgbts73a3dn0g","pricing_plan_id":"cebpf4jnsgd1na2vs0mg"},{"bike_id":"5326a61d-4052-4baf-bbd3-97dda62fe6d7","system_id":"levelo_inurba_marseille","lat":43.28543,"lon":5.44127,"is_reserved":false,"is_disabled":false,"rental_uris":{"android":"levelo://app?vid=5326a61d-4052-4baf-bbd3-97dda62fe6d7","ios":"levelo://app?vid=5326a61d-4052-4baf-bbd3-97dda62fe6d7"},"vehicle_type_id":"4","last_reported":1784705518,"current_range_meters":26000,"station_id":"st_d3j3df2ikq2c7380ej80","pricing_plan_id":"cebpf4jnsgd1na2vs0mg"},{"bike_id":"9dd62f13-e7e5-487d-80bd-6e353adc7a88","system_id":"levelo_inurba_marseille","lat":43.31363,"lon":5.36664,"is_reserved":false,"is_disabled":false,"rental_uris":{"android":"levelo://app?vid=9dd62f13-e7e5-487d-80bd-6e353adc7a88","ios":"levelo://app?vid=9dd62f13-e7e5-487d-80bd-6e353adc7a88"},"vehicle_type_id":"4","last_reported":1784705518,"current_range_meters":26000,"station_id":"ce4bgr92rcd13ifvqc6g","pricing_plan_id":"cebpf4jnsgd1na2vs0mg"},{"bike_id":"633d303a-38a1-4092-8d37-b6dde787785b","system_id":"levelo_inurba_marseille","lat":43.29983,"lon":5.37188,"is_reserved":false,"is_disabled":false,"rental_uris":{"android":"levelo://app?vid=633d303a-38a1-4092-8d37-b6dde787785b","ios":"levelo://app?vid=633d303a-38a1-4092-8d37-b6dde787785b"},"vehicle_type_id":"4","last_reported":1784705518,"current_range_meters":38400,"station_id":"ce4bgr92rcd13ifvqc7g","pricing_plan_id":"cebpf4jnsgd1na2vs0mg"},{"bike_id":"d49ddb09-8c89-468f-b37c-b7c0c3ff11dc","system_id":"levelo_inurba_marseille","lat":43.31496,"lon":5.3731,"is_reserved":false,"is_disabled":false,"rental_uris":{"android":"levelo://app?vid=d49ddb09-8c89-468f-b37c-b7c0c3ff11dc","ios":"levelo://app?vid=d49ddb09-8c89-468f-b37c-b7c0c3ff11dc"},"vehicle_type_id":"4","last_reported":1784705518,"current_range_meters":38800,"station_id":"ce4bgt12rcd13ifvqcd0","pricing_plan_id":"cebpf4jnsgd1na2vs0mg"},{"bike_id":"3c152ce7-b1e3-46b6-9481-1d5804cf459e","system_id":"levelo_inurba_marseille","lat":43.26186,"lon":5.37444,"is_reserved":false,"is_disabled":false,"rental_uris":{"android":"levelo://app?vid=3c152ce7-b1e3-46b6-9481-1d5804cf459e","ios":"levelo://app?vid=3c152ce7-b1e3-46b6-9481-1d5804cf459e"},"vehicle_type_id":"4","last_reported":1784705518,"current_range_meters":36400,"station_id":"ce4bhgp2rcd13ifvqfc0","pricing_plan_id":"cebpf4jnsgd1na2vs0mg"},{"bike_id":"0a2c2a8e-f477-40f4-b43e-7f6280e73440","system_id":"levelo_inurba_marseille","lat":43.27953,"lon":5.41047,"is_reserved":false,"is_disabled":false,"rental_uris":{"android":"levelo://app?vid=0a2c2a8e-f477-40f4-b43e-7f6280e73440","ios":"levelo://app?vid=0a2c2a8e-f477-40f4-b43e-7f6280e73440"},"vehicle_type_id":"4","last_reported":1784705518,"current_range_meters":35200,"station_id":"ce4bhnp2rcd13ifvqh0g","pricing_plan_id":"cebpf4jnsgd1na2vs0mg"},{"bike_id":"08b86f9d-3a67-42e7-a41b-1723e770b453","system_id":"levelo_inurba_marseille","lat":43.26672,"lon":5.38261,"is_reserved":false,"is_disabled":false,"rental_uris":{"android":"levelo://app?vid=08b86f9d-3a67-42e7-a41b-1723e770b453","ios":"levelo://app?vid=08b86f9d-3a67-42e7-a41b-1723e770b453"},"vehicle_type_id":"4","last_reported":1784705518,"current_range_meters":19600,"station_id":"ce4bhg92rcd13ifvqf90","pricing_plan_id":"cebpf4jnsgd1na2vs0mg"},{"bike_id":"bb2918a9-df21-4958-ba3a-eac0bc90ca99","system_id":"levelo_inurba_marseille","lat":43.2927,"lon":5.38439,"is_reserved":false,"is_disabled":false,"rental_uris":{"android":"levelo://app?vid=bb2918a9-df21-4958-ba3a-eac0bc90ca99","ios":"levelo://app?vid=bb2918a9-df21-4958-ba3a-eac0bc90ca99"},"vehicle_type_id":"4","last_reported":1784705518,"current_range_meters":25200,"station_id":"ce4bh692rcd13ifvqea0","pricing_plan_id":"cebpf4jnsgd1na2vs0mg"},{"bike_id":"c9517488-1214-41f7-8c87-36f0f8598c38","system_id":"levelo_inurba_marseille","lat":43.29656,"lon":5.40597,"is_reserved":false,"is_disabled":false,"rental_uris":{"android":"levelo://app?vid=c9517488-1214-41f7-8c87-36f0f8598c38","ios":"levelo://app?vid=c9517488-1214-41f7-8c87-36f0f8598c38"},"vehicle_type_id":"4","last_reported":1784705518,"current_range_meters":23200,"station_id":"ce4bh0h2rcd13ifvqd60","pricing_plan_id":"cebpf4jnsgd1na2vs0mg"},{"bike_id":"3e457f7a-8eb1-4700-8f56-a42e1626efcb","system_id":"levelo_inurba_marseille","lat":43.30556,"lon":5.38433,"is_reserved":false,"is_disabled":false,"rental_uris":{"android":"levelo://app?vid=3e457f7a-8eb1-4700-8f56-a42e1626efcb","ios":"levelo://app?vid=3e457f7a-8eb1-4700-8f56-a42e1626efcb"},"vehicle_type_id":"4","last_reported":1784705518,"current_range_meters":39200,"station_id":"ce4bgg92rcd13ifvqb30","pricing_plan_id":"cebpf4jnsgd1na2vs0mg"},{"bike_id":"3a34f52e-1e5b-45cf-b1c8-7a76d3f0220c","system_id":"levelo_inurba_marseille","lat":43.29228,"lon":5.41757,"is_reserved":false,"is_disabled":false,"rental_uris":{"android":"levelo://app?vid=3a34f52e-1e5b-45cf-b1c8-7a76d3f0220c","ios":"levelo://app?vid=3a34f52e-1e5b-45cf-b1c8-7a76d3f0220c"},"vehicle_type_id":"4","last_reported":1784705518,"current_range_meters":32000,"station_id":"","pricing_plan_id":"cebpf4jnsgd1na2vs0mg"},{"bike_id":"deab0385-0efa-4bfa-9d6c-fc9e57b19cd0","system_id":"levelo_inurba_marseille","lat":43.30047,"lon":5.37005,"is_reserved":false,"is_disabled":true,"rental_uris":{"android":"levelo://app?vid=deab0385-0efa-4bfa-9d6c-fc9e57b19cd0","ios":"levelo://app?vid=deab0385-0efa-4bfa-9d6c-fc9e57b19cd0"},"vehicle_type_id":"4","last_reported":1784705518,"current_range_meters":1200,"station_id":"","pricing_plan_id":"cebpf4jnsgd1na2vs0mg"},{"bike_id":"f0a96dd2-b70d-431b-8e7a-60e3acc7e31a","system_id":"levelo_inurba_marseille","lat":43.3371,"lon":5.37416,"is_reserved":false,"is_disabled":false,"rental_uris":{"android":"levelo://app?vid=f0a96dd2-b70d-431b-8e7a-60e3acc7e31a","ios":"levelo://app?vid=f0a96dd2-b70d-431b-8e7a-60e3acc7e31a"},"vehicle_type_id":"4","last_reported":1784705518,"current_range_meters":39200,"station_id":"","pricing_plan_id":"cebpf4jnsgd1na2vs0mg"},{"bike_id":"b8e43a89-3bb1-4279-9cee-f7b093c9b703","system_id":"levelo_inurba_marseille","lat":43.33718,"lon":5.37415,"is_reserved":false,"is_disabled":false,"rental_uris":{"android":"levelo://app?vid=b8e43a89-3bb1-4279-9cee-f7b093c9b703","ios":"levelo://app?vid=b8e43a89-3bb1-4279-9cee-f7b093c9b703"},"vehicle_type_id":"4","last_reported":1784705518,"current_range_meters":16000,"station_id":"","pricing_plan_id":"cebpf4jnsgd1na2vs0mg"},{"bike_id":"17c972c8-62bc-4f74-981b-be6d27c5f45d","system_id":"levelo_inurba_marseille","lat":43.25629,"lon":5.40467,"is_reserved":false,"is_disabled":false,"rental_uris":{"android":"levelo://app?vid=17c972c8-62bc-4f74-981b-be6d27c5f45d","ios":"levelo://app?vid=17c972c8-62bc-4f74-981b-be6d27c5f45d"},"vehicle_type_id":"4","last_reported":1784705518,"current_range_meters":34800,"station_id":"st_d9f0okuplk6c73bumsr0","pricing_plan_id":"cebpf4jnsgd1na2vs0mg"},{"bike_id":"17ec69e9-f82e-42b7-8fd3-de92d2bea59d","system_id":"levelo_inurba_marseille","lat":43.25336,"lon":5.42181,"is_reserved":false,"is_disabled":false,"rental_uris":{"android":"levelo://app?vid=17ec69e9-f82e-42b7-8fd3-de92d2bea59d","ios":"levelo://app?vid=17ec69e9-f82e-42b7-8fd3-de92d2bea59d"},"vehicle_type_id":"4","last_reported":1784705518,"current_range_meters":24400,"station_id":"st_d2m65c5bi1j21697t3ng","pricing_plan_id":"cebpf4jnsgd1na2vs0mg"},{"bike_id":"ee5f6ab8-1a2d-4287-80ce-57c0b6b23df9","system_id":"levelo_inurba_marseille","lat":43.27218,"lon":5.3919,"is_reserved":false,"is_disabled":false,"rental_uris":{"android":"levelo://app?vid=ee5f6ab8-1a2d-4287-80ce-57c0b6b23df9","ios":"levelo://app?vid=ee5f6ab8-1a2d-4287-80ce-57c0b6b23df9"},"vehicle_type_id":"4","last_reported":1784705518,"current_range_meters":38000,"station_id":"ce4bhhp2rcd13ifvqfm0","pricing_plan_id":"cebpf4jnsgd1na2vs0mg"},{"bike_id":"92413b5a-42ed-42d9-8ad5-e4bd0ff2c382","system_id":"levelo_inurba_marseille","lat":43.27986,"lon":5.41653,"is_reserved":false,"is_disabled":false,"rental_uris":{"android":"levelo://app?vid=92413b5a-42ed-42d9-8ad5-e4bd0ff2c382","ios":"levelo://app?vid=92413b5a-42ed-42d9-8ad5-e4bd0ff2c382"},"vehicle_type_id":"4","last_reported":1784705518,"current_range_meters":38800,"station_id":"ce4bho12rcd13ifvqh1g","pricing_plan_id":"cebpf4jnsgd1na2vs0mg"},{"bike_id":"d04b1cc2-fe6e-4dba-aea7-64f488d8a8da","system_id":"levelo_inurba_marseille","lat":43.28714,"lon":5.37291,"is_reserved":false,"is_disabled":false,"rental_uris":{"android":"levelo://app?vid=d04b1cc2-fe6e-4dba-aea7-64f488d8a8da","ios":"levelo://app?vid=d04b1cc2-fe6e-4dba-aea7-64f488d8a8da"},"vehicle_type_id":"4","last_reported":1784705518,"current_range_meters":30400,"station_id":"","pricing_plan_id":"cebpf4jnsgd1na2vs0mg"},{"bike_id":"7208e764-a6a8-4b11-8bba-44cadaf876f5","system_id":"levelo_inurba_marseille","lat":43.27371,"lon":5.36244,"is_reserved":false,"is_disabled":false,"rental_uris":{"android":"levelo://app?vid=7208e764-a6a8-4b11-8bba-44cadaf876f5","ios":"levelo://app?vid=7208e764-a6a8-4b11-8bba-44cadaf876f5"},"vehicle_type_id":"4","last_reported":1784705518,"current_range_meters":16000,"station_id":"ce4bhbh2rcd13ifvqeo0","pricing_plan_id":"cebpf4jnsgd1na2vs0mg"},{"bike_id":"ed561fd9-a97f-4b5d-a877-fb337381b6be","system_id":"levelo_inurba_marseille","lat":43.31337,"lon":5.36729,"is_reserved":false,"is_disabled":false,"rental_uris":{"android":"levelo://app?vid=ed561fd9-a97f-4b5d-a877-fb337381b6be","ios":"levelo://app?vid=ed561fd9-a97f-4b5d-a877-fb337381b6be"},"vehicle_type_id":"4","last_reported":1784705518,"current_range_meters":20400,"station_id":"ce4bgr92rcd13ifvqc6g","pricing_plan_id":"cebpf4jnsgd1na2vs0mg"},{"bike_id":"3c861df6-627a-4ace-9f1f-64311652ac14","system_id":"levelo_inurba_marseille","lat":43.22942,"lon":5.35367,"is_reserved":false,"is_disabled":false,"rental_uris":{"android":"levelo://app?vid=3c861df6-627a-4ace-9f1f-64311652ac14","ios":"levelo://app?vid=3c861df6-627a-4ace-9f1f-64311652ac14"},"vehicle_type_id":"4","last_reported":1784705518,"current_range_meters":32800,"station_id":"cpo3532slgdg3j2ikp40","pricing_plan_id":"cebpf4jnsgd1na2vs0mg"},{"bike_id":"13bbfe3b-874b-44d7-9abb-922c8de23c11","system_id":"levelo_inurba_marseille","lat":43.23286,"lon":5.35393,"is_reserved":false,"is_disabled":false,"rental_uris":{"android":"levelo://app?vid=13bbfe3b-874b-44d7-9abb-922c8de23c11","ios":"levelo://app?vid=13bbfe3b-874b-44d7-9abb-922c8de23c11"},"vehicle_type_id":"4","last_reported":1784705518,"current_range_meters":23200,"station_id":"","pricing_plan_id":"cebpf4jnsgd1na2vs0mg"},{"bike_id":"3ac60090-c5e5-44d0-a073-6ea75c4049d6","system_id":"levelo_inurba_marseille","lat":43.27211,"lon":5.3918,"is_reserved":false,"is_disabled":false,"rental_uris":{"android":"levelo://app?vid=3ac60090-c5e5-44d0-a073-6ea75c4049d6","ios":"levelo://app?vid=3ac60090-c5e5-44d0-a073-6ea75c4049d6"},"vehicle_type_id":"4","last_reported":1784705518,"current_range_meters":33600,"station_id":"ce4bhhp2rcd13ifvqfm0","pricing_plan_id":"cebpf4jnsgd1na2vs0mg"},{"bike_id":"30825c26-f695-46d5-995e-3e23d104a40c","system_id":"levelo_inurba_marseille","lat":43.30535,"lon":5.36556,"is_reserved":false,"is_disabled":true,"rental_uris":{"android":"levelo://app?vid=30825c26-f695-46d5-995e-3e23d104a40c","ios":"levelo://app?vid=30825c26-f695-46d5-995e-3e23d104a40c"},"vehicle_type_id":"4","last_reported":1784705518,"current_range_meters":2000,"station_id":"ce4bgs12rcd13ifvqcag","pricing_plan_id":"cebpf4jnsgd1na2vs0mg"},{"bike_id":"fce27f18-8500-4a5d-a4a6-107a599c9591","system_id":"levelo_inurba_marseille","lat":43.2319,"lon":5.35553,"is_reserved":false,"is_disabled":false,"rental_uris":{"android":"levelo://app?vid=fce27f18-8500-4a5d-a4a6-107a599c9591","ios":"levelo://app?vid=fce27f18-8500-4a5d-a4a6-107a599c9591"},"vehicle_type_id":"4","last_reported":1784705518,"current_range_meters":29600,"station_id":"ce4bhu92rcd13ifvqi70","pricing_plan_id":"cebpf4jnsgd1na2vs0mg"},{"bike_id":"6ed5f8c3-6da8-4cec-bfad-13253a432d70","system_id":"levelo_inurba_marseille","lat":43.29407,"lon":5.38575,"is_reserved":false,"is_disabled":true,"rental_uris":{"android":"levelo://app?vid=6ed5f8c3-6da8-4cec-bfad-13253a432d70","ios":"levelo://app?vid=6ed5f8c3-6da8-4cec-bfad-13253a432d70"},"vehicle_type_id":"4","last_reported":1784705518,"current_range_meters":33200,"station_id":"","pricing_plan_id":"cebpf4jnsgd1na2vs0mg"},{"bike_id":"4674463f-7189-45e7-9644-099b2d5a4c26","system_id":"levelo_inurba_marseille","lat":43.30867,"lon":5.37184,"is_reserved":false,"is_disabled":false,"rental_uris":{"android":"levelo://app?vid=4674463f-7189-45e7-9644-099b2d5a4c26","ios":"levelo://app?vid=4674463f-7189-45e7-9644-099b2d5a4c26"},"vehicle_type_id":"4","last_reported":1784705518,"current_range_meters":6000,"station_id":"ce4bguh2rcd13ifvqckg","pricing_plan_id":"cebpf4jnsgd1na2vs0mg"},{"bike_id":"0dee0085-d5a5-4c48-b3f1-a323bb744f3d","system_id":"levelo_inurba_marseille","lat":43.22603,"lon":5.41638,"is_reserved":false,"is_disabled":false,"rental_uris":{"android":"levelo://app?vid=0dee0085-d5a5-4c48-b3f1-a323bb744f3d","ios":"levelo://app?vid=0dee0085-d5a5-4c48-b3f1-a323bb744f3d"},"vehicle_type_id":"4","last_reported":1784705518,"current_range_meters":32400,"station_id":"st_d2o4gvlbi1j2169b742g","pricing_plan_id":"cebpf4jnsgd1na2vs0mg"},{"bike_id":"8a65fa08-afa5-40fd-8147-5fcd43bb3d2d","system_id":"levelo_inurba_marseille","lat":43.28692,"lon":5.39981,"is_reserved":false,"is_disabled":false,"rental_uris":{"android":"levelo://app?vid=8a65fa08-afa5-40fd-8147-5fcd43bb3d2d","ios":"levelo://app?vid=8a65fa08-afa5-40fd-8147-5fcd43bb3d2d"},"vehicle_type_id":"4","last_reported":1784705518,"current_range_meters":32000,"station_id":"ce4bho92rcd13ifvqh3g","pricing_plan_id":"cebpf4jnsgd1na2vs0mg"},{"bike_id":"0b2c45f2-fdaa-45fe-9511-e6426cab85f6","system_id":"levelo_inurba_marseille","lat":43.27487,"lon":5.42426,"is_reserved":false,"is_disabled":false,"rental_uris":{"android":"levelo://app?vid=0b2c45f2-fdaa-45fe-9511-e6426cab85f6","ios":"levelo://app?vid=0b2c45f2-fdaa-45fe-9511-e6426cab85f6"},"vehicle_type_id":"4","last_reported":1784705518,"current_range_meters":19600,"station_id":"ce4bhn92rcd13ifvqgrg","pricing_plan_id":"cebpf4jnsgd1na2vs0mg"},{"bike_id":"30860ffd-ec21-4a88-a40f-00c5476d440a","system_id":"levelo_inurba_marseille","lat":43.26682,"lon":5.38271,"is_reserved":false,"is_disabled":false,"rental_uris":{"android":"levelo://app?vid=30860ffd-ec21-4a88-a40f-00c5476d440a","ios":"levelo://app?vid=30860ffd-ec21-4a88-a40f-00c5476d440a"},"vehicle_type_id":"4","last_reported":1784705518,"current_range_meters":24000,"station_id":"ce4bhg92rcd13ifvqf90","pricing_plan_id":"cebpf4jnsgd1na2vs0mg"},{"bike_id":"06907f06-508d-4e32-b126-3e286827d8c0","system_id":"levelo_inurba_marseille","lat":43.24947,"lon":5.40507,"is_reserved":false,"is_disabled":false,"rental_uris":{"android":"levelo://app?vid=06907f06-508d-4e32-b126-3e286827d8c0","ios":"levelo://app?vid=06907f06-508d-4e32-b126-3e286827d8c0"},"vehicle_type_id":"4","last_reported":1784705518,"current_range_meters":39200,"station_id":"st_d2ngiaodas8pm72gd1h0","pricing_plan_id":"cebpf4jnsgd1na2vs0mg"},{"bike_id":"5e001310-485f-437c-bff2-2bcd03b008c6","system_id":"levelo_inurba_marseille","lat":43.27229,"lon":5.39177,"is_reserved":false,"is_disabled":false,"rental_uris":{"android":"levelo://app?vid=5e001310-485f-437c-bff2-2bcd03b008c6","ios":"levelo://app?vid=5e001310-485f-437c-bff2-2bcd03b008c6"},"vehicle_type_id":"4","last_reported":1784705518,"current_range_meters":32000,"station_id":"ce4bhhp2rcd13ifvqfm0","pricing_plan_id":"cebpf4jnsgd1na2vs0mg"},{"bike_id":"dad5eff3-cb3a-4459-ba39-741abe4a6c6c","system_id":"levelo_inurba_marseille","lat":43.32107,"lon":5.36785,"is_reserved":false,"is_disabled":false,"rental_uris":{"android":"levelo://app?vid=dad5eff3-cb3a-4459-ba39-741abe4a6c6c","ios":"levelo://app?vid=dad5eff3-cb3a-4459-ba39-741abe4a6c6c"},"vehicle_type_id":"4","last_reported":1784705518,"current_range_meters":9200,"station_id":"ce4bhrh2rcd13ifvqhug","pricing_plan_id":"cebpf4jnsgd1na2vs0mg"},{"bike_id":"39c8f94e-10d8-484e-94e2-aca6feb826f6","system_id":"levelo_inurba_marseille","lat":43.28147,"lon":5.42641,"is_reserved":false,"is_disabled":false,"rental_uris":{"android":"levelo://app?vid=39c8f94e-10d8-484e-94e2-aca6feb826f6","ios":"levelo://app?vid=39c8f94e-10d8-484e-94e2-aca6feb826f6"},"vehicle_type_id":"4","last_reported":1784705518,"current_range_meters":33200,"station_id":"ce4bhnh2rcd13ifvqgug","pricing_plan_id":"cebpf4jnsgd1na2vs0mg"},{"bike_id":"ba57db37-e11d-45a9-9693-eb12606aa600","system_id":"levelo_inurba_marseille","lat":43.27994,"lon":5.40034,"is_reserved":false,"is_disabled":false,"rental_uris":{"android":"levelo://app?vid=ba57db37-e11d-45a9-9693-eb12606aa600","ios":"levelo://app?vid=ba57db37-e11d-45a9-9693-eb12606aa600"},"vehicle_type_id":"4","last_reported":1784705518,"current_range_meters":39200,"station_id":"ce4bho92rcd13ifvqh4g","pricing_plan_id":"cebpf4jnsgd1na2vs0mg"},{"bike_id":"a5551c5d-bed7-49e5-a83a-8da2b64da0c4","system_id":"levelo_inurba_marseille","lat":43.30923,"lon":5.3686,"is_reserved":false,"is_disabled":false,"rental_uris":{"android":"levelo://app?vid=a5551c5d-bed7-49e5-a83a-8da2b64da0c4","ios":"levelo://app?vid=a5551c5d-bed7-49e5-a83a-8da2b64da0c4"},"vehicle_type_id":"4","last_reported":1784705518,"current_range_meters":35200,"station_id":"ce4bgn92rcd13ifvqbvg","pricing_plan_id":"cebpf4jnsgd1na2vs0mg"},{"bike_id":"e2a7024c-7996-4d5b-8595-fc0df99c43db","system_id":"levelo_inurba_marseille","lat":43.27071,"lon":5.42278,"is_reserved":false,"is_disabled":false,"rental_uris":{"android":"levelo://app?vid=e2a7024c-7996-4d5b-8595-fc0df99c43db","ios":"levelo://app?vid=e2a7024c-7996-4d5b-8595-fc0df99c43db"},"vehicle_type_id":"4","last_reported":1784705518,"current_range_meters":34000,"station_id":"ce4bhk92rcd13ifvqgb0","pricing_plan_id":"cebpf4jnsgd1na2vs0mg"},{"bike_id":"8d8673aa-a69c-4d74-931d-06b8f35221f4","system_id":"levelo_inurba_marseille","lat":43.26694,"lon":5.41984,"is_reserved":false,"is_disabled":false,"rental_uris":{"android":"levelo://app?vid=8d8673aa-a69c-4d74-931d-06b8f35221f4","ios":"levelo://app?vid=8d8673aa-a69c-4d74-931d-06b8f35221f4"},"vehicle_type_id":"4","last_reported":1784705518,"current_range_meters":27200,"station_id":"","pricing_plan_id":"cebpf4jnsgd1na2vs0mg"},{"bike_id":"3f638b57-dd8d-420f-8855-679bd8264ed8","system_id":"levelo_inurba_marseille","lat":43.28706,"lon":5.37392,"is_reserved":false,"is_disabled":false,"rental_uris":{"android":"levelo://app?vid=3f638b57-dd8d-420f-8855-679bd8264ed8","ios":"levelo://app?vid=3f638b57-dd8d-420f-8855-679bd8264ed8"},"vehicle_type_id":"4","last_reported":1784705518,"current_range_meters":6400,"station_id":"ce4bh3p2rcd13ifvqdq0","pricing_plan_id":"cebpf4jnsgd1na2vs0mg"},{"bike_id":"bb6c1d94-b8a1-4d7e-8e26-2628675f7e1d","system_id":"levelo_inurba_marseille","lat":43.29577,"lon":5.37713,"is_reserved":false,"is_disabled":true,"rental_uris":{"android":"levelo://app?vid=bb6c1d94-b8a1-4d7e-8e26-2628675f7e1d","ios":"levelo://app?vid=bb6c1d94-b8a1-4d7e-8e26-2628675f7e1d"},"vehicle_type_id":"4","last_reported":1784705518,"current_range_meters":24800,"station_id":"","pricing_plan_id":"cebpf4jnsgd1na2vs0mg"},{"bike_id":"7b78cce7-94ca-41c9-a11e-655e38486b7a","system_id":"levelo_inurba_marseille","lat":43.29281,"lon":5.40177,"is_reserved":false,"is_disabled":false,"rental_uris":{"android":"levelo://app?vid=7b78cce7-94ca-41c9-a11e-655e38486b7a","ios":"levelo://app?vid=7b78cce7-94ca-41c9-a11e-655e38486b7a"},"vehicle_type_id":"4","last_reported":1784705518,"current_range_meters":19600,"station_id":"","pricing_plan_id":"cebpf4jnsgd1na2vs0mg"},{"bike_id":"a8d558f7-f6c9-460e-8c57-eb92c7ff4ad2","system_id":"levelo_inurba_marseille","lat":43.31239,"lon":5.36872,"is_reserved":false,"is_disabled":false,"rental_uris":{"android":"levelo://app?vid=a8d558f7-f6c9-460e-8c57-eb92c7ff4ad2","ios":"levelo://app?vid=a8d558f7-f6c9-460e-8c57-eb92c7ff4ad2"},"vehicle_type_id":"4","last_reported":1784705518,"current_range_meters":33200,"station_id":"ce4bgl92rcd13ifvqbq0","pricing_plan_id":"cebpf4jnsgd1na2vs0mg"},{"bike_id":"1f5d690e-ec61-49f6-987c-1b19bb5fd774","system_id":"levelo_inurba_marseille","lat":43.32349,"lon":5.38867,"is_reserved":false,"is_disabled":false,"rental_uris":{"android":"levelo://app?vid=1f5d690e-ec61-49f6-987c-1b19bb5fd774","ios":"levelo://app?vid=1f5d690e-ec61-49f6-987c-1b19bb5fd774"},"vehicle_type_id":"4","last_reported":1784705518,"current_range_meters":32800,"station_id":"ce4bhqp2rcd13ifvqhog","pricing_plan_id":"cebpf4jnsgd1na2vs0mg"},{"bike_id":"1fade11d-8e73-4748-8586-d9741ca55ced","system_id":"levelo_inurba_marseille","lat":43.317152,"lon":5.437034,"is_reserved":false,"is_disabled":false,"rental_uris":{"android":"levelo://app?vid=1fade11d-8e73-4748-8586-d9741ca55ced","ios":"levelo://app?vid=1fade11d-8e73-4748-8586-d9741ca55ced"},"vehicle_type_id":"4","last_reported":1784705518,"current_range_meters":32400,"station_id":"ce4bhp92rcd13ifvqhcg","pricing_plan_id":"cebpf4jnsgd1na2vs0mg"},{"bike_id":"647b1b80-7a84-4c19-adf0-0b9340791b69","system_id":"levelo_inurba_marseille","lat":43.28104,"lon":5.37863,"is_reserved":false,"is_disabled":true,"rental_uris":{"android":"levelo://app?vid=647b1b80-7a84-4c19-adf0-0b9340791b69","ios":"levelo://app?vid=647b1b80-7a84-4c19-adf0-0b9340791b69"},"vehicle_type_id":"4","last_reported":1784705518,"current_range_meters":1200,"station_id":"ce4bha12rcd13ifvqee0","pricing_plan_id":"cebpf4jnsgd1na2vs0mg"},{"bike_id":"86eb6eff-89f2-451a-8236-1b576243dc9a","system_id":"levelo_inurba_marseille","lat":43.27812,"lon":5.40724,"is_reserved":false,"is_disabled":false,"rental_uris":{"android":"levelo://app?vid=86eb6eff-89f2-451a-8236-1b576243dc9a","ios":"levelo://app?vid=86eb6eff-89f2-451a-8236-1b576243dc9a"},"vehicle_type_id":"4","last_reported":1784705518,"current_range_meters":10000,"station_id":"ce4bhnh2rcd13ifvqgtg","pricing_plan_id":"cebpf4jnsgd1na2vs0mg"},{"bike_id":"63a56c07-5d6f-412d-84a7-24ea5e8b27d1","system_id":"levelo_inurba_marseille","lat":43.24988,"lon":5.3893,"is_reserved":false,"is_disabled":false,"rental_uris":{"android":"levelo://app?vid=63a56c07-5d6f-412d-84a7-24ea5e8b27d1","ios":"levelo://app?vid=63a56c07-5d6f-412d-84a7-24ea5e8b27d1"},"vehicle_type_id":"4","last_reported":1784705518,"current_range_meters":28400,"station_id":"ce4bhgp2rcd13ifvqfd0","pricing_plan_id":"cebpf4jnsgd1na2vs0mg"},{"bike_id":"36f797d9-5b95-4843-b50e-7f80ed979ebf","system_id":"levelo_inurba_marseille","lat":43.25574,"lon":5.38228,"is_reserved":false,"is_disabled":false,"rental_uris":{"android":"levelo://app?vid=36f797d9-5b95-4843-b50e-7f80ed979ebf","ios":"levelo://app?vid=36f797d9-5b95-4843-b50e-7f80ed979ebf"},"vehicle_type_id":"4","last_reported":1784705518,"current_range_meters":26800,"station_id":"ce4bhih2rcd13ifvqfs0","pricing_plan_id":"cebpf4jnsgd1na2vs0mg"},{"bike_id":"a31cea0c-4cff-4f6d-8f93-36842670158b","system_id":"levelo_inurba_marseille","lat":43.29712,"lon":5.36615,"is_reserved":false,"is_disabled":true,"rental_uris":{"android":"levelo://app?vid=a31cea0c-4cff-4f6d-8f93-36842670158b","ios":"levelo://app?vid=a31cea0c-4cff-4f6d-8f93-36842670158b"},"vehicle_type_id":"4","last_reported":1784705518,"current_range_meters":9200,"station_id":"ce4bgn12rcd13ifvqbt0","pricing_plan_id":"cebpf4jnsgd1na2vs0mg"},{"bike_id":"e8c902bd-a573-4f2f-8842-c26d601b1271","system_id":"levelo_inurba_marseille","lat":43.25815,"lon":5.39427,"is_reserved":false,"is_disabled":false,"rental_uris":{"android":"levelo://app?vid=e8c902bd-a573-4f2f-8842-c26d601b1271","ios":"levelo://app?vid=e8c902bd-a573-4f2f-8842-c26d601b1271"},"vehicle_type_id":"4","last_reported":1784705518,"current_range_meters":8000,"station_id":"ce4bhip2rcd13ifvqft0","pricing_plan_id":"cebpf4jnsgd1na2vs0mg"},{"bike_id":"e8e76fdb-2435-48b2-aa84-a6718b0c1249","system_id":"levelo_inurba_marseille","lat":43.26572,"lon":5.37297,"is_reserved":false,"is_disabled":false,"rental_uris":{"android":"levelo://app?vid=e8e76fdb-2435-48b2-aa84-a6718b0c1249","ios":"levelo://app?vid=e8e76fdb-2435-48b2-aa84-a6718b0c1249"},"vehicle_type_id":"4","last_reported":1784705518,"current_range_meters":38800,"station_id":"ce4bhg12rcd13ifvqf70","pricing_plan_id":"cebpf4jnsgd1na2vs0mg"},{"bike_id":"6d609200-2c64-463b-bd0e-70a61a4731c2","system_id":"levelo_inurba_marseille","lat":43.24075,"lon":5.37745,"is_reserved":false,"is_disabled":false,"rental_uris":{"android":"levelo://app?vid=6d609200-2c64-463b-bd0e-70a61a4731c2","ios":"levelo://app?vid=6d609200-2c64-463b-bd0e-70a61a4731c2"},"vehicle_type_id":"4","last_reported":1784705518,"current_range_meters":37600,"station_id":"ce4bhnp2rcd13ifvqgvg","pricing_plan_id":"cebpf4jnsgd1na2vs0mg"},{"bike_id":"7fc20b3d-d340-481e-b013-792b63b53f76","system_id":"levelo_inurba_marseille","lat":43.26545,"lon":5.37289,"is_reserved":false,"is_disabled":false,"rental_uris":{"android":"levelo://app?vid=7fc20b3d-d340-481e-b013-792b63b53f76","ios":"levelo://app?vid=7fc20b3d-d340-481e-b013-792b63b53f76"},"vehicle_type_id":"4","last_reported":1784705518,"current_range_meters":25200,"station_id":"ce4bhg12rcd13ifvqf70","pricing_plan_id":"cebpf4jnsgd1na2vs0mg"},{"bike_id":"747d888c-b833-4d91-8098-768070d4079e","system_id":"levelo_inurba_marseille","lat":43.3056,"lon":5.38204,"is_reserved":false,"is_disabled":false,"rental_uris":{"android":"levelo://app?vid=747d888c-b833-4d91-8098-768070d4079e","ios":"levelo://app?vid=747d888c-b833-4d91-8098-768070d4079e"},"vehicle_type_id":"4","last_reported":1784705518,"current_range_meters":37600,"station_id":"","pricing_plan_id":"cebpf4jnsgd1na2vs0mg"},{"bike_id":"425cee52-7ff4-408d-b63f-f1bb20a33257","system_id":"levelo_inurba_marseille","lat":43.27475,"lon":5.42519,"is_reserved":false,"is_disabled":false,"rental_uris":{"android":"levelo://app?vid=425cee52-7ff4-408d-b63f-f1bb20a33257","ios":"levelo://app?vid=425cee52-7ff4-408d-b63f-f1bb20a33257"},"vehicle_type_id":"4","last_reported":1784705518,"current_range_meters":38400,"station_id":"st_d8t4bh7nbrqs73arha60","pricing_plan_id":"cebpf4jnsgd1na2vs0mg"},{"bike_id":"acb6c310-64e8-4ffb-9d0e-3645b38213aa","system_id":"levelo_inurba_marseille","lat":43.22559,"lon":5.41643,"is_reserved":false,"is_disabled":false,"rental_uris":{"android":"levelo://app?vid=acb6c310-64e8-4ffb-9d0e-3645b38213aa","ios":"levelo://app?vid=acb6c310-64e8-4ffb-9d0e-3645b38213aa"},"vehicle_type_id":"4","last_reported":1784705518,"current_range_meters":9600,"station_id":"st_d2o4gvlbi1j2169b742g","pricing_plan_id":"cebpf4jnsgd1na2vs0mg"},{"bike_id":"73db504f-68cc-4816-908b-084ee5c25663","system_id":"levelo_inurba_marseille","lat":43.31357,"lon":5.38503,"is_reserved":false,"is_disabled":false,"rental_uris":{"android":"levelo://app?vid=73db504f-68cc-4816-908b-084ee5c25663","ios":"levelo://app?vid=73db504f-68cc-4816-908b-084ee5c25663"},"vehicle_type_id":"4","last_reported":1784705518,"current_range_meters":8400,"station_id":"ce4bgt92rcd13ifvqcf0","pricing_plan_id":"cebpf4jnsgd1na2vs0mg"},{"bike_id":"f25146f3-8ff6-4d67-9a95-c279a86e6f46","system_id":"levelo_inurba_marseille","lat":43.26658,"lon":5.38253,"is_reserved":false,"is_disabled":false,"rental_uris":{"android":"levelo://app?vid=f25146f3-8ff6-4d67-9a95-c279a86e6f46","ios":"levelo://app?vid=f25146f3-8ff6-4d67-9a95-c279a86e6f46"},"vehicle_type_id":"4","last_reported":1784705518,"current_range_meters":24800,"station_id":"ce4bhg92rcd13ifvqf90","pricing_plan_id":"cebpf4jnsgd1na2vs0mg"},{"bike_id":"2b2d5806-a98a-4b6d-8666-219c96826a65","system_id":"levelo_inurba_marseille","lat":43.33025,"lon":5.39053,"is_reserved":false,"is_disabled":false,"rental_uris":{"android":"levelo://app?vid=2b2d5806-a98a-4b6d-8666-219c96826a65","ios":"levelo://app?vid=2b2d5806-a98a-4b6d-8666-219c96826a65"},"vehicle_type_id":"4","last_reported":1784705518,"current_range_meters":9600,"station_id":"ce4bhr92rcd13ifvqhrg","pricing_plan_id":"cebpf4jnsgd1na2vs0mg"},{"bike_id":"b37e1ab2-cb37-4a75-aff8-2f2d7ed20491","system_id":"levelo_inurba_marseille","lat":43.27921,"lon":5.39599,"is_reserved":false,"is_disabled":false,"rental_uris":{"android":"levelo://app?vid=b37e1ab2-cb37-4a75-aff8-2f2d7ed20491","ios":"levelo://app?vid=b37e1ab2-cb37-4a75-aff8-2f2d7ed20491"},"vehicle_type_id":"4","last_reported":1784705518,"current_range_meters":30400,"station_id":"ce4bhf92rcd13ifvqf40","pricing_plan_id":"cebpf4jnsgd1na2vs0mg"},{"bike_id":"64b5ca9a-68e5-4637-81a3-5df013bba2c6","system_id":"levelo_inurba_marseille","lat":43.28807,"lon":5.37475,"is_reserved":false,"is_disabled":false,"rental_uris":{"android":"levelo://app?vid=64b5ca9a-68e5-4637-81a3-5df013bba2c6","ios":"levelo://app?vid=64b5ca9a-68e5-4637-81a3-5df013bba2c6"},"vehicle_type_id":"4","last_reported":1784705518,"current_range_meters":28400,"station_id":"","pricing_plan_id":"cebpf4jnsgd1na2vs0mg"},{"bike_id":"e4c3a333-22a8-4ef0-a8a5-dc42f579f5a4","system_id":"levelo_inurba_marseille","lat":43.2467,"lon":5.38165,"is_reserved":false,"is_disabled":false,"rental_uris":{"android":"levelo://app?vid=e4c3a333-22a8-4ef0-a8a5-dc42f579f5a4","ios":"levelo://app?vid=e4c3a333-22a8-4ef0-a8a5-dc42f579f5a4"},"vehicle_type_id":"4","last_reported":1784705518,"current_range_meters":38400,"station_id":"ce4bhih2rcd13ifvqfr0","pricing_plan_id":"cebpf4jnsgd1na2vs0mg"},{"bike_id":"550d52cf-f2da-49d7-9241-7e04a849abf7","system_id":"levelo_inurba_marseille","lat":43.26558,"lon":5.4032,"is_reserved":false,"is_disabled":false,"rental_uris":{"android":"levelo://app?vid=550d52cf-f2da-49d7-9241-7e04a849abf7","ios":"levelo://app?vid=550d52cf-f2da-49d7-9241-7e04a849abf7"},"vehicle_type_id":"4","last_reported":1784705518,"current_range_meters":34800,"station_id":"ce4bhmp2rcd13ifvqgng","pricing_plan_id":"cebpf4jnsgd1na2vs0mg"},{"bike_id":"d51b899f-0167-4a78-b368-b89c3cd81980","system_id":"levelo_inurba_marseille","lat":43.31345,"lon":5.367,"is_reserved":false,"is_disabled":false,"rental_uris":{"android":"levelo://app?vid=d51b899f-0167-4a78-b368-b89c3cd81980","ios":"levelo://app?vid=d51b899f-0167-4a78-b368-b89c3cd81980"},"vehicle_type_id":"4","last_reported":1784705518,"current_range_meters":32800,"station_id":"ce4bgr92rcd13ifvqc6g","pricing_plan_id":"cebpf4jnsgd1na2vs0mg"},{"bike_id":"aee2475a-fb2d-4bb0-a551-1145de4b2b3a","system_id":"levelo_inurba_marseille","lat":43.23196,"lon":5.35544,"is_reserved":false,"is_disabled":false,"rental_uris":{"android":"levelo://app?vid=aee2475a-fb2d-4bb0-a551-1145de4b2b3a","ios":"levelo://app?vid=aee2475a-fb2d-4bb0-a551-1145de4b2b3a"},"vehicle_type_id":"4","last_reported":1784705518,"current_range_meters":38400,"station_id":"ce4bhu92rcd13ifvqi70","pricing_plan_id":"cebpf4jnsgd1na2vs0mg"},{"bike_id":"852376dd-f04f-4afc-82a9-1351bd20ef1f","system_id":"levelo_inurba_marseille","lat":43.23038,"lon":5.35486,"is_reserved":false,"is_disabled":false,"rental_uris":{"android":"levelo://app?vid=852376dd-f04f-4afc-82a9-1351bd20ef1f","ios":"levelo://app?vid=852376dd-f04f-4afc-82a9-1351bd20ef1f"},"vehicle_type_id":"4","last_reported":1784705518,"current_range_meters":39200,"station_id":"cpo3342slgdg3j2ifvpg","pricing_plan_id":"cebpf4jnsgd1na2vs0mg"},{"bike_id":"47ff0f9f-308b-4144-bd8b-574e9767fcd6","system_id":"levelo_inurba_marseille","lat":43.23061,"lon":5.35497,"is_reserved":false,"is_disabled":false,"rental_uris":{"android":"levelo://app?vid=47ff0f9f-308b-4144-bd8b-574e9767fcd6","ios":"levelo://app?vid=47ff0f9f-308b-4144-bd8b-574e9767fcd6"},"vehicle_type_id":"4","last_reported":1784705518,"current_range_meters":32800,"station_id":"cpo3342slgdg3j2ifvpg","pricing_plan_id":"cebpf4jnsgd1na2vs0mg"},{"bike_id":"bace381c-6258-4d80-80f1-070c343af026","system_id":"levelo_inurba_marseille","lat":43.33159,"lon":5.37694,"is_reserved":false,"is_disabled":false,"rental_uris":{"android":"levelo://app?vid=bace381c-6258-4d80-80f1-070c343af026","ios":"levelo://app?vid=bace381c-6258-4d80-80f1-070c343af026"},"vehicle_type_id":"4","last_reported":1784705518,"current_range_meters":10800,"station_id":"st_d46cu089ee8s73dldbu0","pricing_plan_id":"cebpf4jnsgd1na2vs0mg"},{"bike_id":"30c4ac33-0ab1-4d38-9ba3-d2fd3f9488d1","system_id":"levelo_inurba_marseille","lat":43.24172,"lon":5.39745,"is_reserved":false,"is_disabled":false,"rental_uris":{"android":"levelo://app?vid=30c4ac33-0ab1-4d38-9ba3-d2fd3f9488d1","ios":"levelo://app?vid=30c4ac33-0ab1-4d38-9ba3-d2fd3f9488d1"},"vehicle_type_id":"4","last_reported":1784705518,"current_range_meters":40000,"station_id":"ce4bhn12rcd13ifvqgpg","pricing_plan_id":"cebpf4jnsgd1na2vs0mg"},{"bike_id":"78fe8861-1675-43d6-a7e3-b96619cd5ecb","system_id":"levelo_inurba_marseille","lat":43.29298,"lon":5.37178,"is_reserved":false,"is_disabled":false,"rental_uris":{"android":"levelo://app?vid=78fe8861-1675-43d6-a7e3-b96619cd5ecb","ios":"levelo://app?vid=78fe8861-1675-43d6-a7e3-b96619cd5ecb"},"vehicle_type_id":"4","last_reported":1784705518,"current_range_meters":29600,"station_id":"ce4bgh92rcd13ifvqb40","pricing_plan_id":"cebpf4jnsgd1na2vs0mg"},{"bike_id":"3bd23bf9-e7c4-48ea-9a19-dc3245545753","system_id":"levelo_inurba_marseille","lat":43.28288,"lon":5.40516,"is_reserved":false,"is_disabled":false,"rental_uris":{"android":"levelo://app?vid=3bd23bf9-e7c4-48ea-9a19-dc3245545753","ios":"levelo://app?vid=3bd23bf9-e7c4-48ea-9a19-dc3245545753"},"vehicle_type_id":"4","last_reported":1784705518,"current_range_meters":8800,"station_id":"","pricing_plan_id":"cebpf4jnsgd1na2vs0mg"},{"bike_id":"e9e543b0-8ca5-47a6-998c-4902ea53cdd4","system_id":"levelo_inurba_marseille","lat":43.25191,"lon":5.37315,"is_reserved":false,"is_disabled":true,"rental_uris":{"android":"levelo://app?vid=e9e543b0-8ca5-47a6-998c-4902ea53cdd4","ios":"levelo://app?vid=e9e543b0-8ca5-47a6-998c-4902ea53cdd4"},"vehicle_type_id":"4","last_reported":1784705518,"current_range_meters":12000,"station_id":"","pricing_plan_id":"cebpf4jnsgd1na2vs0mg"},{"bike_id":"4f31e804-3597-4927-9198-b18f1598804e","system_id":"levelo_inurba_marseille","lat":43.27925,"lon":5.39572,"is_reserved":false,"is_disabled":false,"rental_uris":{"android":"levelo://app?vid=4f31e804-3597-4927-9198-b18f1598804e","ios":"levelo://app?vid=4f31e804-3597-4927-9198-b18f1598804e"},"vehicle_type_id":"4","last_reported":1784705518,"current_range_meters":39200,"station_id":"ce4bhf92rcd13ifvqf40","pricing_plan_id":"cebpf4jnsgd1na2vs0mg"},{"bike_id":"80da8efa-3197-44cd-82e7-35459a2da312","system_id":"levelo_inurba_marseille","lat":43.2319,"lon":5.35555,"is_reserved":false,"is_disabled":false,"rental_uris":{"android":"levelo://app?vid=80da8efa-3197-44cd-82e7-35459a2da312","ios":"levelo://app?vid=80da8efa-3197-44cd-82e7-35459a2da312"},"vehicle_type_id":"4","last_reported":1784705518,"current_range_meters":18800,"station_id":"ce4bhu92rcd13ifvqi70","pricing_plan_id":"cebpf4jnsgd1na2vs0mg"},{"bike_id":"884107ee-73de-4e40-b23c-8e2f8e217094","system_id":"levelo_inurba_marseille","lat":43.29373,"lon":5.37815,"is_reserved":false,"is_disabled":false,"rental_uris":{"android":"levelo://app?vid=884107ee-73de-4e40-b23c-8e2f8e217094","ios":"levelo://app?vid=884107ee-73de-4e40-b23c-8e2f8e217094"},"vehicle_type_id":"4","last_reported":1784705518,"current_range_meters":3200,"station_id":"ce4bgjh2rcd13ifvqbf0","pricing_plan_id":"cebpf4jnsgd1na2vs0mg"},{"bike_id":"8f31f3af-0aa6-4421-8e2c-a77a880bef79","system_id":"levelo_inurba_marseille","lat":43.273726,"lon":5.398294,"is_reserved":false,"is_disabled":false,"rental_uris":{"android":"levelo://app?vid=8f31f3af-0aa6-4421-8e2c-a77a880bef79","ios":"levelo://app?vid=8f31f3af-0aa6-4421-8e2c-a77a880bef79"},"vehicle_type_id":"4","last_reported":1784705518,"current_range_meters":8400,"station_id":"","pricing_plan_id":"cebpf4jnsgd1na2vs0mg"},{"bike_id":"285820f9-9811-40a5-87b0-0491a6035481","system_id":"levelo_inurba_marseille","lat":43.27184,"lon":5.40997,"is_reserved":false,"is_disabled":false,"rental_uris":{"android":"levelo://app?vid=285820f9-9811-40a5-87b0-0491a6035481","ios":"levelo://app?vid=285820f9-9811-40a5-87b0-0491a6035481"},"vehicle_type_id":"4","last_reported":1784705518,"current_range_meters":33600,"station_id":"ce4bhl12rcd13ifvqgf0","pricing_plan_id":"cebpf4jnsgd1na2vs0mg"},{"bike_id":"7211ad7f-c876-4593-9d5a-b8d2a8ea0667","system_id":"levelo_inurba_marseille","lat":43.28713,"lon":5.37386,"is_reserved":false,"is_disabled":false,"rental_uris":{"android":"levelo://app?vid=7211ad7f-c876-4593-9d5a-b8d2a8ea0667","ios":"levelo://app?vid=7211ad7f-c876-4593-9d5a-b8d2a8ea0667"},"vehicle_type_id":"4","last_reported":1784705518,"current_range_meters":7200,"station_id":"ce4bh3p2rcd13ifvqdq0","pricing_plan_id":"cebpf4jnsgd1na2vs0mg"},{"bike_id":"83925a5d-2fdb-4961-87af-9524cc4451ad","system_id":"levelo_inurba_marseille","lat":43.30954,"lon":5.39072,"is_reserved":false,"is_disabled":false,"rental_uris":{"android":"levelo://app?vid=83925a5d-2fdb-4961-87af-9524cc4451ad","ios":"levelo://app?vid=83925a5d-2fdb-4961-87af-9524cc4451ad"},"vehicle_type_id":"4","last_reported":1784705518,"current_range_meters":39200,"station_id":"ce4bgup2rcd13ifvqco0","pricing_plan_id":"cebpf4jnsgd1na2vs0mg"},{"bike_id":"dfd808b2-eb0f-42c3-bea8-e719e619a590","system_id":"levelo_inurba_marseille","lat":43.26766,"lon":5.39416,"is_reserved":false,"is_disabled":true,"rental_uris":{"android":"levelo://app?vid=dfd808b2-eb0f-42c3-bea8-e719e619a590","ios":"levelo://app?vid=dfd808b2-eb0f-42c3-bea8-e719e619a590"},"vehicle_type_id":"4","last_reported":1784705518,"current_range_meters":37600,"station_id":"ce4bhh12rcd13ifvqfg0","pricing_plan_id":"cebpf4jnsgd1na2vs0mg"},{"bike_id":"1a8f7e32-5d47-4694-89a5-a9089b244299","system_id":"levelo_inurba_marseille","lat":43.28082,"lon":5.38494,"is_reserved":false,"is_disabled":false,"rental_uris":{"android":"levelo://app?vid=1a8f7e32-5d47-4694-89a5-a9089b244299","ios":"levelo://app?vid=1a8f7e32-5d47-4694-89a5-a9089b244299"},"vehicle_type_id":"4","last_reported":1784705518,"current_range_meters":6000,"station_id":"","pricing_plan_id":"cebpf4jnsgd1na2vs0mg"},{"bike_id":"bb96650a-3021-4a12-aa1c-45954489ce0e","system_id":"levelo_inurba_marseille","lat":43.34143,"lon":5.40901,"is_reserved":false,"is_disabled":false,"rental_uris":{"android":"levelo://app?vid=bb96650a-3021-4a12-aa1c-45954489ce0e","ios":"levelo://app?vid=bb96650a-3021-4a12-aa1c-45954489ce0e"},"vehicle_type_id":"4","last_reported":1784705518,"current_range_meters":37600,"station_id":"ce4bhqh2rcd13ifvqhlg","pricing_plan_id":"cebpf4jnsgd1na2vs0mg"},{"bike_id":"b323910a-6111-4048-a57e-507adde7aa78","system_id":"levelo_inurba_marseille","lat":43.28403,"lon":5.37519,"is_reserved":false,"is_disabled":false,"rental_uris":{"android":"levelo://app?vid=b323910a-6111-4048-a57e-507adde7aa78","ios":"levelo://app?vid=b323910a-6111-4048-a57e-507adde7aa78"},"vehicle_type_id":"4","last_reported":1784705518,"current_range_meters":22400,"station_id":"","pricing_plan_id":"cebpf4jnsgd1na2vs0mg"},{"bike_id":"55905200-eaa2-4ede-b0e7-e8e4672cccac","system_id":"levelo_inurba_marseille","lat":43.3016,"lon":5.4311,"is_reserved":false,"is_disabled":false,"rental_uris":{"android":"levelo://app?vid=55905200-eaa2-4ede-b0e7-e8e4672cccac","ios":"levelo://app?vid=55905200-eaa2-4ede-b0e7-e8e4672cccac"},"vehicle_type_id":"4","last_reported":1784705518,"current_range_meters":18800,"station_id":"st_d3js3co5814s73ftftug","pricing_plan_id":"cebpf4jnsgd1na2vs0mg"},{"bike_id":"bef127d2-f52e-4948-bdc1-d0efdc383b1d","system_id":"levelo_inurba_marseille","lat":43.30154,"lon":5.38097,"is_reserved":false,"is_disabled":false,"rental_uris":{"android":"levelo://app?vid=bef127d2-f52e-4948-bdc1-d0efdc383b1d","ios":"levelo://app?vid=bef127d2-f52e-4948-bdc1-d0efdc383b1d"},"vehicle_type_id":"4","last_reported":1784705518,"current_range_meters":31200,"station_id":"ce4bgjp2rcd13ifvqbh0","pricing_plan_id":"cebpf4jnsgd1na2vs0mg"},{"bike_id":"7b7c350c-7fa0-4260-b6c2-812c00fe7727","system_id":"levelo_inurba_marseille","lat":43.32102,"lon":5.36763,"is_reserved":false,"is_disabled":false,"rental_uris":{"android":"levelo://app?vid=7b7c350c-7fa0-4260-b6c2-812c00fe7727","ios":"levelo://app?vid=7b7c350c-7fa0-4260-b6c2-812c00fe7727"},"vehicle_type_id":"4","last_reported":1784705518,"current_range_meters":28000,"station_id":"ce4bhrh2rcd13ifvqhug","pricing_plan_id":"cebpf4jnsgd1na2vs0mg"},{"bike_id":"002b6de9-4906-4900-bd53-a26437451aab","system_id":"levelo_inurba_marseille","lat":43.33259,"lon":5.35881,"is_reserved":false,"is_disabled":false,"rental_uris":{"android":"levelo://app?vid=002b6de9-4906-4900-bd53-a26437451aab","ios":"levelo://app?vid=002b6de9-4906-4900-bd53-a26437451aab"},"vehicle_type_id":"4","last_reported":1784705518,"current_range_meters":13600,"station_id":"","pricing_plan_id":"cebpf4jnsgd1na2vs0mg"},{"bike_id":"ae4d8230-91d6-494c-8f79-2d710589d93c","system_id":"levelo_inurba_marseille","lat":43.29909,"lon":5.37482,"is_reserved":false,"is_disabled":false,"rental_uris":{"android":"levelo://app?vid=ae4d8230-91d6-494c-8f79-2d710589d93c","ios":"levelo://app?vid=ae4d8230-91d6-494c-8f79-2d710589d93c"},"vehicle_type_id":"4","last_reported":1784705518,"current_range_meters":33200,"station_id":"ce4bgjh2rcd13ifvqbg0","pricing_plan_id":"cebpf4jnsgd1na2vs0mg"},{"bike_id":"94f1b0ad-aaa9-4b51-806c-9eae39355e9b","system_id":"levelo_inurba_marseille","lat":43.27366,"lon":5.36259,"is_reserved":false,"is_disabled":false,"rental_uris":{"android":"levelo://app?vid=94f1b0ad-aaa9-4b51-806c-9eae39355e9b","ios":"levelo://app?vid=94f1b0ad-aaa9-4b51-806c-9eae39355e9b"},"vehicle_type_id":"4","last_reported":1784705518,"current_range_meters":30400,"station_id":"ce4bhbh2rcd13ifvqeo0","pricing_plan_id":"cebpf4jnsgd1na2vs0mg"},{"bike_id":"01eb238c-e3e6-4d22-bd10-686d896b8aba","system_id":"levelo_inurba_marseille","lat":43.26919,"lon":5.40237,"is_reserved":false,"is_disabled":false,"rental_uris":{"android":"levelo://app?vid=01eb238c-e3e6-4d22-bd10-686d896b8aba","ios":"levelo://app?vid=01eb238c-e3e6-4d22-bd10-686d896b8aba"},"vehicle_type_id":"4","last_reported":1784705518,"current_range_meters":37600,"station_id":"cjm6bp8fraef2m0cb0m0","pricing_plan_id":"cebpf4jnsgd1na2vs0mg"},{"bike_id":"3d185dea-3134-4b35-9cee-49aed1f0c978","system_id":"levelo_inurba_marseille","lat":43.2475,"lon":5.38207,"is_reserved":false,"is_disabled":true,"rental_uris":{"android":"levelo://app?vid=3d185dea-3134-4b35-9cee-49aed1f0c978","ios":"levelo://app?vid=3d185dea-3134-4b35-9cee-49aed1f0c978"},"vehicle_type_id":"4","last_reported":1784705518,"current_range_meters":37600,"station_id":"","pricing_plan_id":"cebpf4jnsgd1na2vs0mg"},{"bike_id":"d0553fb2-1bea-4060-8280-35454604a01a","system_id":"levelo_inurba_marseille","lat":43.286187,"lon":5.405365,"is_reserved":false,"is_disabled":false,"rental_uris":{"android":"levelo://app?vid=d0553fb2-1bea-4060-8280-35454604a01a","ios":"levelo://app?vid=d0553fb2-1bea-4060-8280-35454604a01a"},"vehicle_type_id":"4","last_reported":1784705518,"current_range_meters":24000,"station_id":"","pricing_plan_id":"cebpf4jnsgd1na2vs0mg"},{"bike_id":"ba8332a1-4488-4cf4-9483-e0497d9712ec","system_id":"levelo_inurba_marseille","lat":43.28965,"lon":5.36391,"is_reserved":false,"is_disabled":true,"rental_uris":{"android":"levelo://app?vid=ba8332a1-4488-4cf4-9483-e0497d9712ec","ios":"levelo://app?vid=ba8332a1-4488-4cf4-9483-e0497d9712ec"},"vehicle_type_id":"4","last_reported":1784705518,"current_range_meters":39200,"station_id":"ce4bhc92rcd13ifvqetg","pricing_plan_id":"cebpf4jnsgd1na2vs0mg"},{"bike_id":"ce108e18-ce9f-4352-9623-ee914eaaea5a","system_id":"levelo_inurba_marseille","lat":43.2602,"lon":5.37548,"is_reserved":false,"is_disabled":false,"rental_uris":{"android":"levelo://app?vid=ce108e18-ce9f-4352-9623-ee914eaaea5a","ios":"levelo://app?vid=ce108e18-ce9f-4352-9623-ee914eaaea5a"},"vehicle_type_id":"4","last_reported":1784705518,"current_range_meters":8800,"station_id":"ce4bhgh2rcd13ifvqfa0","pricing_plan_id":"cebpf4jnsgd1na2vs0mg"},{"bike_id":"cd388cd5-096c-4c7a-a704-3c0210fbcb15","system_id":"levelo_inurba_marseille","lat":43.29972,"lon":5.37155,"is_reserved":false,"is_disabled":false,"rental_uris":{"android":"levelo://app?vid=cd388cd5-096c-4c7a-a704-3c0210fbcb15","ios":"levelo://app?vid=cd388cd5-096c-4c7a-a704-3c0210fbcb15"},"vehicle_type_id":"4","last_reported":1784705518,"current_range_meters":32000,"station_id":"ce4bgr92rcd13ifvqc7g","pricing_plan_id":"cebpf4jnsgd1na2vs0mg"},{"bike_id":"1981d3ef-d7ae-460e-a247-e2f1120f8322","system_id":"levelo_inurba_marseille","lat":43.24584,"lon":5.41922,"is_reserved":false,"is_disabled":false,"rental_uris":{"android":"levelo://app?vid=1981d3ef-d7ae-460e-a247-e2f1120f8322","ios":"levelo://app?vid=1981d3ef-d7ae-460e-a247-e2f1120f8322"},"vehicle_type_id":"4","last_reported":1784705518,"current_range_meters":18000,"station_id":"","pricing_plan_id":"cebpf4jnsgd1na2vs0mg"},{"bike_id":"765bb8ac-324f-4630-ac9a-8d0c0df64292","system_id":"levelo_inurba_marseille","lat":43.28142,"lon":5.38331,"is_reserved":false,"is_disabled":false,"rental_uris":{"android":"levelo://app?vid=765bb8ac-324f-4630-ac9a-8d0c0df64292","ios":"levelo://app?vid=765bb8ac-324f-4630-ac9a-8d0c0df64292"},"vehicle_type_id":"4","last_reported":1784705518,"current_range_meters":14400,"station_id":"","pricing_plan_id":"cebpf4jnsgd1na2vs0mg"},{"bike_id":"bbb6d84d-52b2-4523-b78b-60cb354411ef","system_id":"levelo_inurba_marseille","lat":43.32123,"lon":5.36755,"is_reserved":false,"is_disabled":false,"rental_uris":{"android":"levelo://app?vid=bbb6d84d-52b2-4523-b78b-60cb354411ef","ios":"levelo://app?vid=bbb6d84d-52b2-4523-b78b-60cb354411ef"},"vehicle_type_id":"4","last_reported":1784705518,"current_range_meters":36800,"station_id":"ce4bhrh2rcd13ifvqhug","pricing_plan_id":"cebpf4jnsgd1na2vs0mg"},{"bike_id":"90ea02a9-5a25-44ca-86d4-2a29b49bf101","system_id":"levelo_inurba_marseille","lat":43.27666,"lon":5.38842,"is_reserved":false,"is_disabled":false,"rental_uris":{"android":"levelo://app?vid=90ea02a9-5a25-44ca-86d4-2a29b49bf101","ios":"levelo://app?vid=90ea02a9-5a25-44ca-86d4-2a29b49bf101"},"vehicle_type_id":"4","last_reported":1784705518,"current_range_meters":13600,"station_id":"ce4bhi12rcd13ifvqfo0","pricing_plan_id":"cebpf4jnsgd1na2vs0mg"},{"bike_id":"e0d9154b-8af8-4919-a711-4e5b3ba1d809","system_id":"levelo_inurba_marseille","lat":43.27806,"lon":5.40721,"is_reserved":false,"is_disabled":false,"rental_uris":{"android":"levelo://app?vid=e0d9154b-8af8-4919-a711-4e5b3ba1d809","ios":"levelo://app?vid=e0d9154b-8af8-4919-a711-4e5b3ba1d809"},"vehicle_type_id":"4","last_reported":1784705518,"current_range_meters":39200,"station_id":"ce4bhnh2rcd13ifvqgtg","pricing_plan_id":"cebpf4jnsgd1na2vs0mg"},{"bike_id":"a9863fcb-8ca0-4220-b083-cb27e96475fe","system_id":"levelo_inurba_marseille","lat":43.23185,"lon":5.35551,"is_reserved":false,"is_disabled":false,"rental_uris":{"android":"levelo://app?vid=a9863fcb-8ca0-4220-b083-cb27e96475fe","ios":"levelo://app?vid=a9863fcb-8ca0-4220-b083-cb27e96475fe"},"vehicle_type_id":"4","last_reported":1784705518,"current_range_meters":9200,"station_id":"ce4bhu92rcd13ifvqi70","pricing_plan_id":"cebpf4jnsgd1na2vs0mg"},{"bike_id":"497040b1-a999-4fce-aba0-7e94bbf2a204","system_id":"levelo_inurba_marseille","lat":43.24381,"lon":5.37048,"is_reserved":false,"is_disabled":false,"rental_uris":{"android":"levelo://app?vid=497040b1-a999-4fce-aba0-7e94bbf2a204","ios":"levelo://app?vid=497040b1-a999-4fce-aba0-7e94bbf2a204"},"vehicle_type_id":"4","last_reported":1784705518,"current_range_meters":24000,"station_id":"ce4bhhh2rcd13ifvqfk0","pricing_plan_id":"cebpf4jnsgd1na2vs0mg"},{"bike_id":"5fcc690c-968d-411a-bd52-a89d444c152f","system_id":"levelo_inurba_marseille","lat":43.29092,"lon":5.38138,"is_reserved":false,"is_disabled":false,"rental_uris":{"android":"levelo://app?vid=5fcc690c-968d-411a-bd52-a89d444c152f","ios":"levelo://app?vid=5fcc690c-968d-411a-bd52-a89d444c152f"},"vehicle_type_id":"4","last_reported":1784705518,"current_range_meters":38800,"station_id":"ce4bh512rcd13ifvqe2g","pricing_plan_id":"cebpf4jnsgd1na2vs0mg"},{"bike_id":"a8da38aa-f94e-4c2e-80f0-e41e78a1c855","system_id":"levelo_inurba_marseille","lat":43.29763,"lon":5.38088,"is_reserved":false,"is_disabled":true,"rental_uris":{"android":"levelo://app?vid=a8da38aa-f94e-4c2e-80f0-e41e78a1c855","ios":"levelo://app?vid=a8da38aa-f94e-4c2e-80f0-e41e78a1c855"},"vehicle_type_id":"4","last_reported":1784705518,"current_range_meters":38800,"station_id":"ce4bgip2rcd13ifvqbb0","pricing_plan_id":"cebpf4jnsgd1na2vs0mg"},{"bike_id":"e194fbb0-bc81-4444-b407-bf005b5be095","system_id":"levelo_inurba_marseille","lat":43.31234,"lon":5.36841,"is_reserved":false,"is_disabled":false,"rental_uris":{"android":"levelo://app?vid=e194fbb0-bc81-4444-b407-bf005b5be095","ios":"levelo://app?vid=e194fbb0-bc81-4444-b407-bf005b5be095"},"vehicle_type_id":"4","last_reported":1784705518,"current_range_meters":28000,"station_id":"ce4bgl92rcd13ifvqbq0","pricing_plan_id":"cebpf4jnsgd1na2vs0mg"},{"bike_id":"ef50bd35-d62c-4dfa-bea8-564105575a7a","system_id":"levelo_inurba_marseille","lat":43.29569,"lon":5.39045,"is_reserved":false,"is_disabled":true,"rental_uris":{"android":"levelo://app?vid=ef50bd35-d62c-4dfa-bea8-564105575a7a","ios":"levelo://app?vid=ef50bd35-d62c-4dfa-bea8-564105575a7a"},"vehicle_type_id":"4","last_reported":1784705518,"current_range_meters":18800,"station_id":"","pricing_plan_id":"cebpf4jnsgd1na2vs0mg"},{"bike_id":"1a0d21e2-d830-4fdb-8b2b-a7ffd64c267e","system_id":"levelo_inurba_marseille","lat":43.28154,"lon":5.42647,"is_reserved":false,"is_disabled":false,"rental_uris":{"android":"levelo://app?vid=1a0d21e2-d830-4fdb-8b2b-a7ffd64c267e","ios":"levelo://app?vid=1a0d21e2-d830-4fdb-8b2b-a7ffd64c267e"},"vehicle_type_id":"4","last_reported":1784705518,"current_range_meters":10800,"station_id":"ce4bhnh2rcd13ifvqgug","pricing_plan_id":"cebpf4jnsgd1na2vs0mg"},{"bike_id":"354a079f-ed28-41a7-a06b-85ab194fda38","system_id":"levelo_inurba_marseille","lat":43.29454,"lon":5.39759,"is_reserved":false,"is_disabled":true,"rental_uris":{"android":"levelo://app?vid=354a079f-ed28-41a7-a06b-85ab194fda38","ios":"levelo://app?vid=354a079f-ed28-41a7-a06b-85ab194fda38"},"vehicle_type_id":"4","last_reported":1784705518,"current_range_meters":6000,"station_id":"ce4bh3h2rcd13ifvqdo0","pricing_plan_id":"cebpf4jnsgd1na2vs0mg"},{"bike_id":"5c914183-7de6-46d0-90c1-c07e2a51c967","system_id":"levelo_inurba_marseille","lat":43.28942,"lon":5.39636,"is_reserved":false,"is_disabled":false,"rental_uris":{"android":"levelo://app?vid=5c914183-7de6-46d0-90c1-c07e2a51c967","ios":"levelo://app?vid=5c914183-7de6-46d0-90c1-c07e2a51c967"},"vehicle_type_id":"4","last_reported":1784705518,"current_range_meters":39200,"station_id":"ce4bh3h2rcd13ifvqdn0","pricing_plan_id":"cebpf4jnsgd1na2vs0mg"},{"bike_id":"22218a5b-00c8-4f24-bfd2-0bbd31251d2e","system_id":"levelo_inurba_marseille","lat":43.28344,"lon":5.38098,"is_reserved":false,"is_disabled":false,"rental_uris":{"android":"levelo://app?vid=22218a5b-00c8-4f24-bfd2-0bbd31251d2e","ios":"levelo://app?vid=22218a5b-00c8-4f24-bfd2-0bbd31251d2e"},"vehicle_type_id":"4","last_reported":1784705518,"current_range_meters":3600,"station_id":"ce4bh412rcd13ifvqdr0","pricing_plan_id":"cebpf4jnsgd1na2vs0mg"},{"bike_id":"fa1e86bf-1110-4640-a0b5-4c444df6ac60","system_id":"levelo_inurba_marseille","lat":43.2899,"lon":5.43909,"is_reserved":false,"is_disabled":false,"rental_uris":{"android":"levelo://app?vid=fa1e86bf-1110-4640-a0b5-4c444df6ac60","ios":"levelo://app?vid=fa1e86bf-1110-4640-a0b5-4c444df6ac60"},"vehicle_type_id":"4","last_reported":1784705518,"current_range_meters":32000,"station_id":"","pricing_plan_id":"cebpf4jnsgd1na2vs0mg"},{"bike_id":"27e1e4c5-a07c-4ba9-9e46-007cc925fb39","system_id":"levelo_inurba_marseille","lat":43.25523,"lon":5.41601,"is_reserved":false,"is_disabled":false,"rental_uris":{"android":"levelo://app?vid=27e1e4c5-a07c-4ba9-9e46-007cc925fb39","ios":"levelo://app?vid=27e1e4c5-a07c-4ba9-9e46-007cc925fb39"},"vehicle_type_id":"4","last_reported":1784705518,"current_range_meters":11600,"station_id":"","pricing_plan_id":"cebpf4jnsgd1na2vs0mg"},{"bike_id":"9b3a0b08-cb44-4059-b987-aa0d29c4c6d0","system_id":"levelo_inurba_marseille","lat":43.2842,"lon":5.37524,"is_reserved":false,"is_disabled":false,"rental_uris":{"android":"levelo://app?vid=9b3a0b08-cb44-4059-b987-aa0d29c4c6d0","ios":"levelo://app?vid=9b3a0b08-cb44-4059-b987-aa0d29c4c6d0"},"vehicle_type_id":"4","last_reported":1784705518,"current_range_meters":9600,"station_id":"ce4bh412rcd13ifvqds0","pricing_plan_id":"cebpf4jnsgd1na2vs0mg"},{"bike_id":"4aed0d2f-4083-4f21-b63f-b9dc9b692a27","system_id":"levelo_inurba_marseille","lat":43.31757,"lon":5.39017,"is_reserved":false,"is_disabled":false,"rental_uris":{"android":"levelo://app?vid=4aed0d2f-4083-4f21-b63f-b9dc9b692a27","ios":"levelo://app?vid=4aed0d2f-4083-4f21-b63f-b9dc9b692a27"},"vehicle_type_id":"4","last_reported":1784705518,"current_range_meters":39200,"station_id":"ce4bhqp2rcd13ifvqhng","pricing_plan_id":"cebpf4jnsgd1na2vs0mg"},{"bike_id":"72ce9887-e860-4c8e-b9ce-067be284aebb","system_id":"levelo_inurba_marseille","lat":43.22936,"lon":5.35376,"is_reserved":false,"is_disabled":false,"rental_uris":{"android":"levelo://app?vid=72ce9887-e860-4c8e-b9ce-067be284aebb","ios":"levelo://app?vid=72ce9887-e860-4c8e-b9ce-067be284aebb"},"vehicle_type_id":"4","last_reported":1784705518,"current_range_meters":37600,"station_id":"cpo3532slgdg3j2ikp40","pricing_plan_id":"cebpf4jnsgd1na2vs0mg"},{"bike_id":"5a87d78f-bce0-4026-a623-b63371d564c6","system_id":"levelo_inurba_marseille","lat":43.29173,"lon":5.35778,"is_reserved":false,"is_disabled":true,"rental_uris":{"android":"levelo://app?vid=5a87d78f-bce0-4026-a623-b63371d564c6","ios":"levelo://app?vid=5a87d78f-bce0-4026-a623-b63371d564c6"},"vehicle_type_id":"4","last_reported":1784705518,"current_range_meters":37600,"station_id":"ce4bhb12rcd13ifvqel0","pricing_plan_id":"cebpf4jnsgd1na2vs0mg"},{"bike_id":"081c7c77-de6d-424b-ac53-15a24f512dc4","system_id":"levelo_inurba_marseille","lat":43.30915,"lon":5.36855,"is_reserved":false,"is_disabled":false,"rental_uris":{"android":"levelo://app?vid=081c7c77-de6d-424b-ac53-15a24f512dc4","ios":"levelo://app?vid=081c7c77-de6d-424b-ac53-15a24f512dc4"},"vehicle_type_id":"4","last_reported":1784705518,"current_range_meters":24000,"station_id":"ce4bgn92rcd13ifvqbvg","pricing_plan_id":"cebpf4jnsgd1na2vs0mg"},{"bike_id":"9100f690-6f00-4cc3-868f-2ddb790bdb54","system_id":"levelo_inurba_marseille","lat":43.30937,"lon":5.38902,"is_reserved":false,"is_disabled":false,"rental_uris":{"android":"levelo://app?vid=9100f690-6f00-4cc3-868f-2ddb790bdb54","ios":"levelo://app?vid=9100f690-6f00-4cc3-868f-2ddb790bdb54"},"vehicle_type_id":"4","last_reported":1784705518,"current_range_meters":39200,"station_id":"ce4bgup2rcd13ifvqco0","pricing_plan_id":"cebpf4jnsgd1na2vs0mg"},{"bike_id":"8a7cd93c-ad25-4e5d-86ac-87a4c41bc9fc","system_id":"levelo_inurba_marseille","lat":43.31435,"lon":5.3738,"is_reserved":false,"is_disabled":true,"rental_uris":{"android":"levelo://app?vid=8a7cd93c-ad25-4e5d-86ac-87a4c41bc9fc","ios":"levelo://app?vid=8a7cd93c-ad25-4e5d-86ac-87a4c41bc9fc"},"vehicle_type_id":"4","last_reported":1784705518,"current_range_meters":23200,"station_id":"","pricing_plan_id":"cebpf4jnsgd1na2vs0mg"},{"bike_id":"1ae20384-5ccd-4145-9a1d-f626b16c7a9e","system_id":"levelo_inurba_marseille","lat":43.31132,"lon":5.46446,"is_reserved":false,"is_disabled":false,"rental_uris":{"android":"levelo://app?vid=1ae20384-5ccd-4145-9a1d-f626b16c7a9e","ios":"levelo://app?vid=1ae20384-5ccd-4145-9a1d-f626b16c7a9e"},"vehicle_type_id":"4","last_reported":1784705518,"current_range_meters":3600,"station_id":"","pricing_plan_id":"cebpf4jnsgd1na2vs0mg"},{"bike_id":"c5032ade-04c2-4ad9-acd6-0c757f219d04","system_id":"levelo_inurba_marseille","lat":43.31888,"lon":5.36805,"is_reserved":false,"is_disabled":false,"rental_uris":{"android":"levelo://app?vid=c5032ade-04c2-4ad9-acd6-0c757f219d04","ios":"levelo://app?vid=c5032ade-04c2-4ad9-acd6-0c757f219d04"},"vehicle_type_id":"4","last_reported":1784705518,"current_range_meters":12000,"station_id":"st_d6o2h0d0559c73evc1b0","pricing_plan_id":"cebpf4jnsgd1na2vs0mg"},{"bike_id":"479a25b1-c1db-4e38-9802-13b8f5b183f0","system_id":"levelo_inurba_marseille","lat":43.28481,"lon":5.48393,"is_reserved":false,"is_disabled":false,"rental_uris":{"android":"levelo://app?vid=479a25b1-c1db-4e38-9802-13b8f5b183f0","ios":"levelo://app?vid=479a25b1-c1db-4e38-9802-13b8f5b183f0"},"vehicle_type_id":"4","last_reported":1784705518,"current_range_meters":30000,"station_id":"st_d3svhcjqgbts73a3dn0g","pricing_plan_id":"cebpf4jnsgd1na2vs0mg"},{"bike_id":"5ba3de10-889b-4152-aef4-4bff1e010d26","system_id":"levelo_inurba_marseille","lat":43.32122,"lon":5.36806,"is_reserved":false,"is_disabled":false,"rental_uris":{"android":"levelo://app?vid=5ba3de10-889b-4152-aef4-4bff1e010d26","ios":"levelo://app?vid=5ba3de10-889b-4152-aef4-4bff1e010d26"},