{"last_updated":1730319041,"ttl":60,"version":"2.2","data":{"bikes":[{"bike_id":"cff4c6c9-6f1d-42eb-aa93-5e57000071a7","system_id":"levelo_inurba_marseille","lat":43.30798,"lon":5.37641,"is_reserved":false,"is_disabled":false,"rental_uris":{"android":"levelo://app?vid=cff4c6c9-6f1d-42eb-aa93-5e57000071a7","ios":"levelo://app?vid=cff4c6c9-6f1d-42eb-aa93-5e57000071a7"},"vehicle_type_id":"4","last_reported":1730319041,"current_range_meters":5600,"station_id":"ce4bgv92rcd13ifvqcq0","pricing_plan_id":"cebpf4jnsgd1na2vs0mg"},{"bike_id":"a104ad06-bb07-461d-9ecb-1e4260eb4fb6","system_id":"levelo_inurba_marseille","lat":43.25827,"lon":5.39433,"is_reserved":false,"is_disabled":false,"rental_uris":{"android":"levelo://app?vid=a104ad06-bb07-461d-9ecb-1e4260eb4fb6","ios":"levelo://app?vid=a104ad06-bb07-461d-9ecb-1e4260eb4fb6"},"vehicle_type_id":"4","last_reported":1730319041,"current_range_meters":30000,"station_id":"ce4bhip2rcd13ifvqft0","pricing_plan_id":"cebpf4jnsgd1na2vs0mg"},{"bike_id":"3da51d05-81b9-4ba2-ad89-ac0f7239fef8","system_id":"levelo_inurba_marseille","lat":43.2902,"lon":5.38625,"is_reserved":false,"is_disabled":false,"rental_uris":{"android":"levelo://app?vid=3da51d05-81b9-4ba2-ad89-ac0f7239fef8","ios":"levelo://app?vid=3da51d05-81b9-4ba2-ad89-ac0f7239fef8"},"vehicle_type_id":"4","last_reported":1730319041,"current_range_meters":38800,"station_id":"ce4bh4p2rcd13ifvqe0g","pricing_plan_id":"cebpf4jnsgd1na2vs0mg"},{"bike_id":"2a347eed-13fd-4905-95b1-82c4eb9969f8","system_id":"levelo_inurba_marseille","lat":43.2558,"lon":5.38234,"is_reserved":false,"is_disabled":false,"rental_uris":{"android":"levelo://app?vid=2a347eed-13fd-4905-95b1-82c4eb9969f8","ios":"levelo://app?vid=2a347eed-13fd-4905-95b1-82c4eb9969f8"},"vehicle_type_id":"4","last_reported":1730319041,"current_range_meters":29600,"station_id":"ce4bhih2rcd13ifvqfs0","pricing_plan_id":"cebpf4jnsgd1na2vs0mg"},{"bike_id":"0de6ca80-f2d2-47d7-817f-04e1396a1291","system_id":"levelo_inurba_marseille","lat":43.29419,"lon":5.3862,"is_reserved":false,"is_disabled":false,"rental_uris":{"android":"levelo://app?vid=0de6ca80-f2d2-47d7-817f-04e1396a1291","ios":"levelo://app?vid=0de6ca80-f2d2-47d7-817f-04e1396a1291"},"vehicle_type_id":"4","last_reported":1730319041,"current_range_meters":17200,"station_id":"ce4bh2h2rcd13ifvqdh0","pricing_plan_id":"cebpf4jnsgd1na2vs0mg"},{"bike_id":"f64c1e7d-3ae9-4dfc-8ec2-0a90d036364f","system_id":"levelo_inurba_marseille","lat":43.32107,"lon":5.36787,"is_reserved":false,"is_disabled":false,"rental_uris":{"android":"levelo://app?vid=f64c1e7d-3ae9-4dfc-8ec2-0a90d036364f","ios":"levelo://app?vid=f64c1e7d-3ae9-4dfc-8ec2-0a90d036364f"},"vehicle_type_id":"4","last_reported":1730319041,"current_range_meters":24400,"station_id":"ce4bhrh2rcd13ifvqhug","pricing_plan_id":"cebpf4jnsgd1na2vs0mg"},{"bike_id":"5372a642-d5b3-44d2-bd95-093c5716325a","system_id":"levelo_inurba_marseille","lat":43.29567,"lon":5.39961,"is_reserved":false,"is_disabled":false,"rental_uris":{"android":"levelo://app?vid=5372a642-d5b3-44d2-bd95-093c5716325a","ios":"levelo://app?vid=5372a642-d5b3-44d2-bd95-093c5716325a"},"vehicle_type_id":"4","last_reported":1730319041,"current_range_meters":24800,"station_id":"ce4bh312rcd13ifvqdj0","pricing_plan_id":"cebpf4jnsgd1na2vs0mg"},{"bike_id":"73d25c27-d738-480e-a6c6-c05a03ece27a","system_id":"levelo_inurba_marseille","lat":43.2418,"lon":5.39723,"is_reserved":false,"is_disabled":false,"rental_uris":{"android":"levelo://app?vid=73d25c27-d738-480e-a6c6-c05a03ece27a","ios":"levelo://app?vid=73d25c27-d738-480e-a6c6-c05a03ece27a"},"vehicle_type_id":"4","last_reported":1730319041,"current_range_meters":28800,"station_id":"ce4bhn12rcd13ifvqgpg","pricing_plan_id":"cebpf4jnsgd1na2vs0mg"},{"bike_id":"ffafe7f4-8b13-4c59-b7d7-39000f913431","system_id":"levelo_inurba_marseille","lat":43.29033,"lon":5.38129,"is_reserved":false,"is_disabled":false,"rental_uris":{"android":"levelo://app?vid=ffafe7f4-8b13-4c59-b7d7-39000f913431","ios":"levelo://app?vid=ffafe7f4-8b13-4c59-b7d7-39000f913431"},"vehicle_type_id":"4","last_reported":1730319041,"current_range_meters":38800,"station_id":"ce4bh4p2rcd13ifvqe1g","pricing_plan_id":"cebpf4jnsgd1na2vs0mg"},{"bike_id":"e2af6361-2614-4581-b7b8-8ba4460f545f","system_id":"levelo_inurba_marseille","lat":43.30336,"lon":5.4034,"is_reserved":false,"is_disabled":false,"rental_uris":{"android":"levelo://app?vid=e2af6361-2614-4581-b7b8-8ba4460f545f","ios":"levelo://app?vid=e2af6361-2614-4581-b7b8-8ba4460f545f"},"vehicle_type_id":"4","last_reported":1730319041,"current_range_meters":2000,"station_id":"","pricing_plan_id":"cebpf4jnsgd1na2vs0mg"},{"bike_id":"ddf9b3ae-2d28-4b9a-aa4e-ff6ba36b5432","system_id":"levelo_inurba_marseille","lat":43.30648,"lon":5.40085,"is_reserved":false,"is_disabled":false,"rental_uris":{"android":"levelo://app?vid=ddf9b3ae-2d28-4b9a-aa4e-ff6ba36b5432","ios":"levelo://app?vid=ddf9b3ae-2d28-4b9a-aa4e-ff6ba36b5432"},"vehicle_type_id":"4","last_reported":1730319041,"current_range_meters":38800,"station_id":"ce4bh112rcd13ifvqda0","pricing_plan_id":"cebpf4jnsgd1na2vs0mg"},{"bike_id":"d95e1778-c026-4417-abab-07f94db85611","system_id":"levelo_inurba_marseille","lat":43.29298,"lon":5.3745,"is_reserved":false,"is_disabled":false,"rental_uris":{"android":"levelo://app?vid=d95e1778-c026-4417-abab-07f94db85611","ios":"levelo://app?vid=d95e1778-c026-4417-abab-07f94db85611"},"vehicle_type_id":"4","last_reported":1730319041,"current_range_meters":26800,"station_id":"ce4bgi12rcd13ifvqb70","pricing_plan_id":"cebpf4jnsgd1na2vs0mg"},{"bike_id":"aab306d7-157f-4168-8b9d-63846703cc70","system_id":"levelo_inurba_marseille","lat":43.31993,"lon":5.38162,"is_reserved":false,"is_disabled":false,"rental_uris":{"android":"levelo://app?vid=aab306d7-157f-4168-8b9d-63846703cc70","ios":"levelo://app?vid=aab306d7-157f-4168-8b9d-63846703cc70"},"vehicle_type_id":"4","last_reported":1730319041,"current_range_meters":8400,"station_id":"ce4bhr12rcd13ifvqhpg","pricing_plan_id":"cebpf4jnsgd1na2vs0mg"},{"bike_id":"9954bd12-bb79-46a3-ac82-8e3d09336217","system_id":"levelo_inurba_marseille","lat":43.29716,"lon":5.37698,"is_reserved":false,"is_disabled":false,"rental_uris":{"android":"levelo://app?vid=9954bd12-bb79-46a3-ac82-8e3d09336217","ios":"levelo://app?vid=9954bd12-bb79-46a3-ac82-8e3d09336217"},"vehicle_type_id":"4","last_reported":1730319041,"current_range_meters":8400,"station_id":"","pricing_plan_id":"cebpf4jnsgd1na2vs0mg"},{"bike_id":"bbf8f708-5e9b-41bf-bc19-afef39d244c3","system_id":"levelo_inurba_marseille","lat":43.27499,"lon":5.42448,"is_reserved":false,"is_disabled":false,"rental_uris":{"android":"levelo://app?vid=bbf8f708-5e9b-41bf-bc19-afef39d244c3","ios":"levelo://app?vid=bbf8f708-5e9b-41bf-bc19-afef39d244c3"},"vehicle_type_id":"4","last_reported":1730319041,"current_range_meters":28000,"station_id":"ce4bhn92rcd13ifvqgrg","pricing_plan_id":"cebpf4jnsgd1na2vs0mg"},{"bike_id":"32fa9473-207f-445d-af23-a2acafe02a58","system_id":"levelo_inurba_marseille","lat":43.29041,"lon":5.37565,"is_reserved":false,"is_disabled":false,"rental_uris":{"android":"levelo://app?vid=32fa9473-207f-445d-af23-a2acafe02a58","ios":"levelo://app?vid=32fa9473-207f-445d-af23-a2acafe02a58"},"vehicle_type_id":"4","last_reported":1730319041,"current_range_meters":8400,"station_id":"ce4bh692rcd13ifvqe90","pricing_plan_id":"cebpf4jnsgd1na2vs0mg"},{"bike_id":"3dac59c2-2cc7-40c9-a36d-e65fe941fc71","system_id":"levelo_inurba_marseille","lat":43.29963,"lon":5.38496,"is_reserved":false,"is_disabled":false,"rental_uris":{"android":"levelo://app?vid=3dac59c2-2cc7-40c9-a36d-e65fe941fc71","ios":"levelo://app?vid=3dac59c2-2cc7-40c9-a36d-e65fe941fc71"},"vehicle_type_id":"4","last_reported":1730319041,"current_range_meters":37600,"station_id":"ce4bgj92rcd13ifvqbd0","pricing_plan_id":"cebpf4jnsgd1na2vs0mg"},{"bike_id":"91f75106-8073-486e-8037-1d5f2fa10c75","system_id":"levelo_inurba_marseille","lat":43.31996,"lon":5.38145,"is_reserved":false,"is_disabled":false,"rental_uris":{"android":"levelo://app?vid=91f75106-8073-486e-8037-1d5f2fa10c75","ios":"levelo://app?vid=91f75106-8073-486e-8037-1d5f2fa10c75"},"vehicle_type_id":"4","last_reported":1730319041,"current_range_meters":10800,"station_id":"ce4bhr12rcd13ifvqhpg","pricing_plan_id":"cebpf4jnsgd1na2vs0mg"},{"bike_id":"4075e605-7e2d-4335-883e-4292dc011012","system_id":"levelo_inurba_marseille","lat":43.23962,"lon":5.36629,"is_reserved":false,"is_disabled":false,"rental_uris":{"android":"levelo://app?vid=4075e605-7e2d-4335-883e-4292dc011012","ios":"levelo://app?vid=4075e605-7e2d-4335-883e-4292dc011012"},"vehicle_type_id":"4","last_reported":1730319041,"current_range_meters":8000,"station_id":"ce4bhi12rcd13ifvqfp0","pricing_plan_id":"cebpf4jnsgd1na2vs0mg"},{"bike_id":"f36e9cd2-95c8-4430-8440-3ecb98bca9c3","system_id":"levelo_inurba_marseille","lat":43.28157,"lon":5.4264,"is_reserved":false,"is_disabled":false,"rental_uris":{"android":"levelo://app?vid=f36e9cd2-95c8-4430-8440-3ecb98bca9c3","ios":"levelo://app?vid=f36e9cd2-95c8-4430-8440-3ecb98bca9c3"},"vehicle_type_id":"4","last_reported":1730319041,"current_range_meters":32400,"station_id":"ce4bhnh2rcd13ifvqgug","pricing_plan_id":"cebpf4jnsgd1na2vs0mg"},{"bike_id":"5894683d-7e20-4366-92cf-6240636e951d","system_id":"levelo_inurba_marseille","lat":43.30887,"lon":5.3719,"is_reserved":false,"is_disabled":false,"rental_uris":{"android":"levelo://app?vid=5894683d-7e20-4366-92cf-6240636e951d","ios":"levelo://app?vid=5894683d-7e20-4366-92cf-6240636e951d"},"vehicle_type_id":"4","last_reported":1730319041,"current_range_meters":33600,"station_id":"ce4bguh2rcd13ifvqckg","pricing_plan_id":"cebpf4jnsgd1na2vs0mg"},{"bike_id":"6e003a89-a438-4d10-bb4b-cca9e159742e","system_id":"levelo_inurba_marseille","lat":43.29705,"lon":5.36616,"is_reserved":false,"is_disabled":false,"rental_uris":{"android":"levelo://app?vid=6e003a89-a438-4d10-bb4b-cca9e159742e","ios":"levelo://app?vid=6e003a89-a438-4d10-bb4b-cca9e159742e"},"vehicle_type_id":"4","last_reported":1730319041,"current_range_meters":36400,"station_id":"ce4bgn12rcd13ifvqbt0","pricing_plan_id":"cebpf4jnsgd1na2vs0mg"},{"bike_id":"50637344-4a20-4d06-ada1-2bdfc12f146e","system_id":"levelo_inurba_marseille","lat":43.31276,"lon":5.40173,"is_reserved":false,"is_disabled":false,"rental_uris":{"android":"levelo://app?vid=50637344-4a20-4d06-ada1-2bdfc12f146e","ios":"levelo://app?vid=50637344-4a20-4d06-ada1-2bdfc12f146e"},"vehicle_type_id":"4","last_reported":1730319041,"current_range_meters":31200,"station_id":"ce4bh092rcd13ifvqd30","pricing_plan_id":"cebpf4jnsgd1na2vs0mg"},{"bike_id":"4fdebd51-c654-406e-9372-5e0d2f07272a","system_id":"levelo_inurba_marseille","lat":43.2903,"lon":5.37566,"is_reserved":false,"is_disabled":false,"rental_uris":{"android":"levelo://app?vid=4fdebd51-c654-406e-9372-5e0d2f07272a","ios":"levelo://app?vid=4fdebd51-c654-406e-9372-5e0d2f07272a"},"vehicle_type_id":"4","last_reported":1730319041,"current_range_meters":17200,"station_id":"ce4bh692rcd13ifvqe90","pricing_plan_id":"cebpf4jnsgd1na2vs0mg"},{"bike_id":"42db849c-c424-40ba-b8d3-e14718fb40f6","system_id":"levelo_inurba_marseille","lat":43.29037,"lon":5.37563,"is_reserved":false,"is_disabled":false,"rental_uris":{"android":"levelo://app?vid=42db849c-c424-40ba-b8d3-e14718fb40f6","ios":"levelo://app?vid=42db849c-c424-40ba-b8d3-e14718fb40f6"},"vehicle_type_id":"4","last_reported":1730319041,"current_range_meters":6400,"station_id":"ce4bh692rcd13ifvqe90","pricing_plan_id":"cebpf4jnsgd1na2vs0mg"},{"bike_id":"0a52d1c1-8f6f-4b50-aac6-8604eb20db08","system_id":"levelo_inurba_marseille","lat":43.29213,"lon":5.39327,"is_reserved":false,"is_disabled":false,"rental_uris":{"android":"levelo://app?vid=0a52d1c1-8f6f-4b50-aac6-8604eb20db08","ios":"levelo://app?vid=0a52d1c1-8f6f-4b50-aac6-8604eb20db08"},"vehicle_type_id":"4","last_reported":1730319041,"current_range_meters":38400,"station_id":"ce4bh192rcd13ifvqdd0","pricing_plan_id":"cebpf4jnsgd1na2vs0mg"},{"bike_id":"2d65310e-a7ab-47d2-aed2-2ce5aa88e32d","system_id":"levelo_inurba_marseille","lat":43.2509,"lon":5.39523,"is_reserved":false,"is_disabled":false,"rental_uris":{"android":"levelo://app?vid=2d65310e-a7ab-47d2-aed2-2ce5aa88e32d","ios":"levelo://app?vid=2d65310e-a7ab-47d2-aed2-2ce5aa88e32d"},"vehicle_type_id":"4","last_reported":1730319041,"current_range_meters":10000,"station_id":"ce4bhm12rcd13ifvqgkg","pricing_plan_id":"cebpf4jnsgd1na2vs0mg"},{"bike_id":"acd4be18-09d6-480d-b11b-520844b93da4","system_id":"levelo_inurba_marseille","lat":43.28462,"lon":5.35886,"is_reserved":false,"is_disabled":false,"rental_uris":{"android":"levelo://app?vid=acd4be18-09d6-480d-b11b-520844b93da4","ios":"levelo://app?vid=acd4be18-09d6-480d-b11b-520844b93da4"},"vehicle_type_id":"4","last_reported":1730319041,"current_range_meters":12000,"station_id":"ce4bhah2rcd13ifvqei0","pricing_plan_id":"cebpf4jnsgd1na2vs0mg"},{"bike_id":"7453b1a8-93f1-4692-8261-659392084231","system_id":"levelo_inurba_marseille","lat":43.2707,"lon":5.42277,"is_reserved":false,"is_disabled":false,"rental_uris":{"android":"levelo://app?vid=7453b1a8-93f1-4692-8261-659392084231","ios":"levelo://app?vid=7453b1a8-93f1-4692-8261-659392084231"},"vehicle_type_id":"4","last_reported":1730319041,"current_range_meters":20400,"station_id":"ce4bhk92rcd13ifvqgb0","pricing_plan_id":"cebpf4jnsgd1na2vs0mg"},{"bike_id":"16dab154-e271-47bf-bfd2-e63a33868458","system_id":"levelo_inurba_marseille","lat":43.295367,"lon":5.396915,"is_reserved":false,"is_disabled":false,"rental_uris":{"android":"levelo://app?vid=16dab154-e271-47bf-bfd2-e63a33868458","ios":"levelo://app?vid=16dab154-e271-47bf-bfd2-e63a33868458"},"vehicle_type_id":"4","last_reported":1730319041,"current_range_meters":29600,"station_id":"ce4bh312rcd13ifvqdj0","pricing_plan_id":"cebpf4jnsgd1na2vs0mg"},{"bike_id":"7d6049c8-b9a9-4487-b2a7-036eaeeedb74","system_id":"levelo_inurba_marseille","lat":43.27069,"lon":5.4228,"is_reserved":false,"is_disabled":false,"rental_uris":{"android":"levelo://app?vid=7d6049c8-b9a9-4487-b2a7-036eaeeedb74","ios":"levelo://app?vid=7d6049c8-b9a9-4487-b2a7-036eaeeedb74"},"vehicle_type_id":"4","last_reported":1730319041,"current_range_meters":8400,"station_id":"ce4bhk92rcd13ifvqgb0","pricing_plan_id":"cebpf4jnsgd1na2vs0mg"},{"bike_id":"fb5a2724-742e-49b7-bd99-72f47d63698a","system_id":"levelo_inurba_marseille","lat":43.29871,"lon":5.39741,"is_reserved":false,"is_disabled":false,"rental_uris":{"android":"levelo://app?vid=fb5a2724-742e-49b7-bd99-72f47d63698a","ios":"levelo://app?vid=fb5a2724-742e-49b7-bd99-72f47d63698a"},"vehicle_type_id":"4","last_reported":1730319041,"current_range_meters":38800,"station_id":"ce4bh0h2rcd13ifvqd50","pricing_plan_id":"cebpf4jnsgd1na2vs0mg"},{"bike_id":"42e61598-64ce-4f84-97eb-90c09ebd9abe","system_id":"levelo_inurba_marseille","lat":43.232,"lon":5.40005,"is_reserved":false,"is_disabled":false,"rental_uris":{"android":"levelo://app?vid=42e61598-64ce-4f84-97eb-90c09ebd9abe","ios":"levelo://app?vid=42e61598-64ce-4f84-97eb-90c09ebd9abe"},"vehicle_type_id":"4","last_reported":1730319041,"current_range_meters":19600,"station_id":"ce4bhn12rcd13ifvqgqg","pricing_plan_id":"cebpf4jnsgd1na2vs0mg"},{"bike_id":"2e150edf-38d9-4766-b289-87e9d4d96ebf","system_id":"levelo_inurba_marseille","lat":43.29416,"lon":5.38615,"is_reserved":false,"is_disabled":false,"rental_uris":{"android":"levelo://app?vid=2e150edf-38d9-4766-b289-87e9d4d96ebf","ios":"levelo://app?vid=2e150edf-38d9-4766-b289-87e9d4d96ebf"},"vehicle_type_id":"4","last_reported":1730319041,"current_range_meters":38800,"station_id":"ce4bh2h2rcd13ifvqdh0","pricing_plan_id":"cebpf4jnsgd1na2vs0mg"},{"bike_id":"23edcc01-ea0d-4da5-b14b-aec7926ff6a9","system_id":"levelo_inurba_marseille","lat":43.27427,"lon":5.39405,"is_reserved":false,"is_disabled":false,"rental_uris":{"android":"levelo://app?vid=23edcc01-ea0d-4da5-b14b-aec7926ff6a9","ios":"levelo://app?vid=23edcc01-ea0d-4da5-b14b-aec7926ff6a9"},"vehicle_type_id":"4","last_reported":1730319041,"current_range_meters":38800,"station_id":"ce4bhdp2rcd13ifvqf20","pricing_plan_id":"cebpf4jnsgd1na2vs0mg"},{"bike_id":"84e3706e-4f3c-4b11-89a3-977f76074d98","system_id":"levelo_inurba_marseille","lat":43.2904,"lon":5.35907,"is_reserved":false,"is_disabled":false,"rental_uris":{"android":"levelo://app?vid=84e3706e-4f3c-4b11-89a3-977f76074d98","ios":"levelo://app?vid=84e3706e-4f3c-4b11-89a3-977f76074d98"},"vehicle_type_id":"4","last_reported":1730319041,"current_range_meters":12800,"station_id":"ce4bha92rcd13ifvqeg0","pricing_plan_id":"cebpf4jnsgd1na2vs0mg"},{"bike_id":"a9d7e6e9-c401-45bf-95b8-6d2f12471466","system_id":"levelo_inurba_marseille","lat":43.29532,"lon":5.3854,"is_reserved":false,"is_disabled":false,"rental_uris":{"android":"levelo://app?vid=a9d7e6e9-c401-45bf-95b8-6d2f12471466","ios":"levelo://app?vid=a9d7e6e9-c401-45bf-95b8-6d2f12471466"},"vehicle_type_id":"4","last_reported":1730319041,"current_range_meters":5600,"station_id":"ce4bgih2rcd13ifvqba0","pricing_plan_id":"cebpf4jnsgd1na2vs0mg"},{"bike_id":"c573c73f-75e4-475a-bcd6-666ce297695e","system_id":"levelo_inurba_marseille","lat":43.23188,"lon":5.3998,"is_reserved":false,"is_disabled":false,"rental_uris":{"android":"levelo://app?vid=c573c73f-75e4-475a-bcd6-666ce297695e","ios":"levelo://app?vid=c573c73f-75e4-475a-bcd6-666ce297695e"},"vehicle_type_id":"4","last_reported":1730319041,"current_range_meters":28800,"station_id":"ce4bhn12rcd13ifvqgqg","pricing_plan_id":"cebpf4jnsgd1na2vs0mg"},{"bike_id":"22100f1e-21c2-4789-b81b-b82ca3ee087b","system_id":"levelo_inurba_marseille","lat":43.3122,"lon":5.36842,"is_reserved":false,"is_disabled":false,"rental_uris":{"android":"levelo://app?vid=22100f1e-21c2-4789-b81b-b82ca3ee087b","ios":"levelo://app?vid=22100f1e-21c2-4789-b81b-b82ca3ee087b"},"vehicle_type_id":"4","last_reported":1730319041,"current_range_meters":37600,"station_id":"ce4bgl92rcd13ifvqbq0","pricing_plan_id":"cebpf4jnsgd1na2vs0mg"},{"bike_id":"a65b7600-bc14-4cb1-bd98-91e0257743b9","system_id":"levelo_inurba_marseille","lat":43.24071,"lon":5.37754,"is_reserved":false,"is_disabled":false,"rental_uris":{"android":"levelo://app?vid=a65b7600-bc14-4cb1-bd98-91e0257743b9","ios":"levelo://app?vid=a65b7600-bc14-4cb1-bd98-91e0257743b9"},"vehicle_type_id":"4","last_reported":1730319041,"current_range_meters":8800,"station_id":"ce4bhnp2rcd13ifvqgvg","pricing_plan_id":"cebpf4jnsgd1na2vs0mg"},{"bike_id":"ad334cfb-e3df-4170-a537-30db60569bf2","system_id":"levelo_inurba_marseille","lat":43.30138,"lon":5.39848,"is_reserved":false,"is_disabled":false,"rental_uris":{"android":"levelo://app?vid=ad334cfb-e3df-4170-a537-30db60569bf2","ios":"levelo://app?vid=ad334cfb-e3df-4170-a537-30db60569bf2"},"vehicle_type_id":"4","last_reported":1730319041,"current_range_meters":2800,"station_id":"ce4bh0h2rcd13ifvqd40","pricing_plan_id":"cebpf4jnsgd1na2vs0mg"},{"bike_id":"70bb78fe-4bef-4d56-a833-affc0bdfc9f3","system_id":"levelo_inurba_marseille","lat":43.232,"lon":5.3556,"is_reserved":false,"is_disabled":false,"rental_uris":{"android":"levelo://app?vid=70bb78fe-4bef-4d56-a833-affc0bdfc9f3","ios":"levelo://app?vid=70bb78fe-4bef-4d56-a833-affc0bdfc9f3"},"vehicle_type_id":"4","last_reported":1730319041,"current_range_meters":38800,"station_id":"ce4bhu92rcd13ifvqi70","pricing_plan_id":"cebpf4jnsgd1na2vs0mg"},{"bike_id":"5d625bc2-68ce-4557-aa47-6454b48c46f9","system_id":"levelo_inurba_marseille","lat":43.2922,"lon":5.39339,"is_reserved":false,"is_disabled":false,"rental_uris":{"android":"levelo://app?vid=5d625bc2-68ce-4557-aa47-6454b48c46f9","ios":"levelo://app?vid=5d625bc2-68ce-4557-aa47-6454b48c46f9"},"vehicle_type_id":"4","last_reported":1730319041,"current_range_meters":38400,"station_id":"ce4bh192rcd13ifvqdd0","pricing_plan_id":"cebpf4jnsgd1na2vs0mg"},{"bike_id":"e5ce0e06-d41d-4de3-b321-e60dc07c26f0","system_id":"levelo_inurba_marseille","lat":43.30411,"lon":5.43351,"is_reserved":false,"is_disabled":false,"rental_uris":{"android":"levelo://app?vid=e5ce0e06-d41d-4de3-b321-e60dc07c26f0","ios":"levelo://app?vid=e5ce0e06-d41d-4de3-b321-e60dc07c26f0"},"vehicle_type_id":"4","last_reported":1730319041,"current_range_meters":7200,"station_id":"","pricing_plan_id":"cebpf4jnsgd1na2vs0mg"},{"bike_id":"c24b1b71-8503-4383-b487-f7f9a744b14c","system_id":"levelo_inurba_marseille","lat":43.29032,"lon":5.38632,"is_reserved":false,"is_disabled":false,"rental_uris":{"android":"levelo://app?vid=c24b1b71-8503-4383-b487-f7f9a744b14c","ios":"levelo://app?vid=c24b1b71-8503-4383-b487-f7f9a744b14c"},"vehicle_type_id":"4","last_reported":1730319041,"current_range_meters":35600,"station_id":"ce4bh4p2rcd13ifvqe0g","pricing_plan_id":"cebpf4jnsgd1na2vs0mg"},{"bike_id":"3c868789-73cc-418e-a715-7a914441694c","system_id":"levelo_inurba_marseille","lat":43.29535,"lon":5.38544,"is_reserved":false,"is_disabled":false,"rental_uris":{"android":"levelo://app?vid=3c868789-73cc-418e-a715-7a914441694c","ios":"levelo://app?vid=3c868789-73cc-418e-a715-7a914441694c"},"vehicle_type_id":"4","last_reported":1730319041,"current_range_meters":4800,"station_id":"ce4bgih2rcd13ifvqba0","pricing_plan_id":"cebpf4jnsgd1na2vs0mg"},{"bike_id":"8b397be0-3ef3-49f7-8a7b-a0dd80431d49","system_id":"levelo_inurba_marseille","lat":43.305952,"lon":5.393589,"is_reserved":false,"is_disabled":false,"rental_uris":{"android":"levelo://app?vid=8b397be0-3ef3-49f7-8a7b-a0dd80431d49","ios":"levelo://app?vid=8b397be0-3ef3-49f7-8a7b-a0dd80431d49"},"vehicle_type_id":"4","last_reported":1730319041,"current_range_meters":38800,"station_id":"ce4bh0p2rcd13ifvqd80","pricing_plan_id":"cebpf4jnsgd1na2vs0mg"},{"bike_id":"dacc2c28-0d92-455a-bc27-97f14e35045e","system_id":"levelo_inurba_marseille","lat":43.29527,"lon":5.38536,"is_reserved":false,"is_disabled":false,"rental_uris":{"android":"levelo://app?vid=dacc2c28-0d92-455a-bc27-97f14e35045e","ios":"levelo://app?vid=dacc2c28-0d92-455a-bc27-97f14e35045e"},"vehicle_type_id":"4","last_reported":1730319041,"current_range_meters":34800,"station_id":"ce4bgih2rcd13ifvqba0","pricing_plan_id":"cebpf4jnsgd1na2vs0mg"},{"bike_id":"5c244c3d-8fd7-4c95-b825-2f7fe2f15994","system_id":"levelo_inurba_marseille","lat":43.23189,"lon":5.35543,"is_reserved":false,"is_disabled":false,"rental_uris":{"android":"levelo://app?vid=5c244c3d-8fd7-4c95-b825-2f7fe2f15994","ios":"levelo://app?vid=5c244c3d-8fd7-4c95-b825-2f7fe2f15994"},"vehicle_type_id":"4","last_reported":1730319041,"current_range_meters":38800,"station_id":"ce4bhu92rcd13ifvqi70","pricing_plan_id":"cebpf4jnsgd1na2vs0mg"},{"bike_id":"7d1fe817-f784-45b3-a7f6-2e79abcfa29c","system_id":"levelo_inurba_marseille","lat":43.337444,"lon":5.374475,"is_reserved":false,"is_disabled":false,"rental_uris":{"android":"levelo://app?vid=7d1fe817-f784-45b3-a7f6-2e79abcfa29c","ios":"levelo://app?vid=7d1fe817-f784-45b3-a7f6-2e79abcfa29c"},"vehicle_type_id":"4","last_reported":1730319041,"current_range_meters":38000,"station_id":"","pricing_plan_id":"cebpf4jnsgd1na2vs0mg"},{"bike_id":"1f24c15a-bb06-45b1-943b-20c7e7528441","system_id":"levelo_inurba_marseille","lat":43.281501,"lon":5.426262,"is_reserved":false,"is_disabled":false,"rental_uris":{"android":"levelo://app?vid=1f24c15a-bb06-45b1-943b-20c7e7528441","ios":"levelo://app?vid=1f24c15a-bb06-45b1-943b-20c7e7528441"},"vehicle_type_id":"4","last_reported":1730319041,"current_range_meters":27200,"station_id":"ce4bhnh2rcd13ifvqgug","pricing_plan_id":"cebpf4jnsgd1na2vs0mg"},{"bike_id":"b36e4830-2996-4a48-af1a-0e271204aae5","system_id":"levelo_inurba_marseille","lat":43.29226,"lon":5.36066,"is_reserved":false,"is_disabled":false,"rental_uris":{"android":"levelo://app?vid=b36e4830-2996-4a48-af1a-0e271204aae5","ios":"levelo://app?vid=b36e4830-2996-4a48-af1a-0e271204aae5"},"vehicle_type_id":"4","last_reported":1730319041,"current_range_meters":6000,"station_id":"ce4bhbh2rcd13ifvqeqg","pricing_plan_id":"cebpf4jnsgd1na2vs0mg"},{"bike_id":"d552518e-c7e3-4c70-a784-d671d466bdc3","system_id":"levelo_inurba_marseille","lat":43.255695,"lon":5.409415,"is_reserved":false,"is_disabled":false,"rental_uris":{"android":"levelo://app?vid=d552518e-c7e3-4c70-a784-d671d466bdc3","ios":"levelo://app?vid=d552518e-c7e3-4c70-a784-d671d466bdc3"},"vehicle_type_id":"4","last_reported":1730319041,"current_range_meters":36800,"station_id":"ce4bhkp2rcd13ifvqgd0","pricing_plan_id":"cebpf4jnsgd1na2vs0mg"},{"bike_id":"66c20561-0e9a-46f4-a205-c900c96faf02","system_id":"levelo_inurba_marseille","lat":43.28467,"lon":5.35892,"is_reserved":false,"is_disabled":false,"rental_uris":{"android":"levelo://app?vid=66c20561-0e9a-46f4-a205-c900c96faf02","ios":"levelo://app?vid=66c20561-0e9a-46f4-a205-c900c96faf02"},"vehicle_type_id":"4","last_reported":1730319041,"current_range_meters":30400,"station_id":"ce4bhah2rcd13ifvqei0","pricing_plan_id":"cebpf4jnsgd1na2vs0mg"},{"bike_id":"d9756f3c-8cb0-46d7-bc3b-462c65789eef","system_id":"levelo_inurba_marseille","lat":43.30885,"lon":5.39634,"is_reserved":false,"is_disabled":false,"rental_uris":{"android":"levelo://app?vid=d9756f3c-8cb0-46d7-bc3b-462c65789eef","ios":"levelo://app?vid=d9756f3c-8cb0-46d7-bc3b-462c65789eef"},"vehicle_type_id":"4","last_reported":1730319041,"current_range_meters":38400,"station_id":"ce4bh012rcd13ifvqcv0","pricing_plan_id":"cebpf4jnsgd1na2vs0mg"},{"bike_id":"37b08927-785c-42a3-8528-bd7a11bfcaf6","system_id":"levelo_inurba_marseille","lat":43.284546,"lon":5.358864,"is_reserved":false,"is_disabled":false,"rental_uris":{"android":"levelo://app?vid=37b08927-785c-42a3-8528-bd7a11bfcaf6","ios":"levelo://app?vid=37b08927-785c-42a3-8528-bd7a11bfcaf6"},"vehicle_type_id":"4","last_reported":1730319041,"current_range_meters":3600,"station_id":"ce4bhah2rcd13ifvqej0","pricing_plan_id":"cebpf4jnsgd1na2vs0mg"},{"bike_id":"d4c75cb5-db79-44b2-ae3d-0051411fdd9b","system_id":"levelo_inurba_marseille","lat":43.28105,"lon":5.37839,"is_reserved":false,"is_disabled":false,"rental_uris":{"android":"levelo://app?vid=d4c75cb5-db79-44b2-ae3d-0051411fdd9b","ios":"levelo://app?vid=d4c75cb5-db79-44b2-ae3d-0051411fdd9b"},"vehicle_type_id":"4","last_reported":1730319041,"current_range_meters":4800,"station_id":"ce4bha12rcd13ifvqee0","pricing_plan_id":"cebpf4jnsgd1na2vs0mg"},{"bike_id":"dbfb6dd1-0f5b-4e34-8e73-2f268a82fe76","system_id":"levelo_inurba_marseille","lat":43.27997,"lon":5.41663,"is_reserved":false,"is_disabled":false,"rental_uris":{"android":"levelo://app?vid=dbfb6dd1-0f5b-4e34-8e73-2f268a82fe76","ios":"levelo://app?vid=dbfb6dd1-0f5b-4e34-8e73-2f268a82fe76"},"vehicle_type_id":"4","last_reported":1730319041,"current_range_meters":37600,"station_id":"ce4bho12rcd13ifvqh1g","pricing_plan_id":"cebpf4jnsgd1na2vs0mg"},{"bike_id":"8caca5c0-9801-40e0-a1b4-64752edaeadf","system_id":"levelo_inurba_marseille","lat":43.30938,"lon":5.40141,"is_reserved":false,"is_disabled":false,"rental_uris":{"android":"levelo://app?vid=8caca5c0-9801-40e0-a1b4-64752edaeadf","ios":"levelo://app?vid=8caca5c0-9801-40e0-a1b4-64752edaeadf"},"vehicle_type_id":"4","last_reported":1730319041,"current_range_meters":11200,"station_id":"ce4bgvp2rcd13ifvqct0","pricing_plan_id":"cebpf4jnsgd1na2vs0mg"},{"bike_id":"92adf987-4779-4b78-ad9c-8e29ab9175f3","system_id":"levelo_inurba_marseille","lat":43.23194,"lon":5.35555,"is_reserved":false,"is_disabled":false,"rental_uris":{"android":"levelo://app?vid=92adf987-4779-4b78-ad9c-8e29ab9175f3","ios":"levelo://app?vid=92adf987-4779-4b78-ad9c-8e29ab9175f3"},"vehicle_type_id":"4","last_reported":1730319041,"current_range_meters":10800,"station_id":"ce4bhu92rcd13ifvqi70","pricing_plan_id":"cebpf4jnsgd1na2vs0mg"},{"bike_id":"0d9e2dc0-7e48-44a4-9d02-16fb20798af5","system_id":"levelo_inurba_marseille","lat":43.23178,"lon":5.39987,"is_reserved":false,"is_disabled":false,"rental_uris":{"android":"levelo://app?vid=0d9e2dc0-7e48-44a4-9d02-16fb20798af5","ios":"levelo://app?vid=0d9e2dc0-7e48-44a4-9d02-16fb20798af5"},"vehicle_type_id":"4","last_reported":1730319041,"current_range_meters":25200,"station_id":"ce4bhn12rcd13ifvqgqg","pricing_plan_id":"cebpf4jnsgd1na2vs0mg"},{"bike_id":"ce2310f1-0848-4180-8bb1-c79c12d253ca","system_id":"levelo_inurba_marseille","lat":43.33747,"lon":5.37442,"is_reserved":false,"is_disabled":false,"rental_uris":{"android":"levelo://app?vid=ce2310f1-0848-4180-8bb1-c79c12d253ca","ios":"levelo://app?vid=ce2310f1-0848-4180-8bb1-c79c12d253ca"},"vehicle_type_id":"4","last_reported":1730319041,"current_range_meters":34800,"station_id":"","pricing_plan_id":"cebpf4jnsgd1na2vs0mg"},{"bike_id":"b2ff0e90-4591-4514-8c9c-14f9348963a5","system_id":"levelo_inurba_marseille","lat":43.29608,"lon":5.37726,"is_reserved":false,"is_disabled":false,"rental_uris":{"android":"levelo://app?vid=b2ff0e90-4591-4514-8c9c-14f9348963a5","ios":"levelo://app?vid=b2ff0e90-4591-4514-8c9c-14f9348963a5"},"vehicle_type_id":"4","last_reported":1730319041,"current_range_meters":38400,"station_id":"ce4bgi92rcd13ifvqb90","pricing_plan_id":"cebpf4jnsgd1na2vs0mg"},{"bike_id":"23022d2f-0e40-4eff-9608-2ce8f17a88ca","system_id":"levelo_inurba_marseille","lat":43.29409,"lon":5.38625,"is_reserved":false,"is_disabled":false,"rental_uris":{"android":"levelo://app?vid=23022d2f-0e40-4eff-9608-2ce8f17a88ca","ios":"levelo://app?vid=23022d2f-0e40-4eff-9608-2ce8f17a88ca"},"vehicle_type_id":"4","last_reported":1730319041,"current_range_meters":32000,"station_id":"ce4bh2h2rcd13ifvqdh0","pricing_plan_id":"cebpf4jnsgd1na2vs0mg"},{"bike_id":"732b37a6-efdd-47ef-8967-40ea3129b214","system_id":"levelo_inurba_marseille","lat":43.265,"lon":5.39544,"is_reserved":false,"is_disabled":false,"rental_uris":{"android":"levelo://app?vid=732b37a6-efdd-47ef-8967-40ea3129b214","ios":"levelo://app?vid=732b37a6-efdd-47ef-8967-40ea3129b214"},"vehicle_type_id":"4","last_reported":1730319041,"current_range_meters":12000,"station_id":"ce4bhi12rcd13ifvqfq0","pricing_plan_id":"cebpf4jnsgd1na2vs0mg"},{"bike_id":"7dfaf496-2e50-463a-a103-b8570a0c6a9a","system_id":"levelo_inurba_marseille","lat":43.24391,"lon":5.37057,"is_reserved":false,"is_disabled":false,"rental_uris":{"android":"levelo://app?vid=7dfaf496-2e50-463a-a103-b8570a0c6a9a","ios":"levelo://app?vid=7dfaf496-2e50-463a-a103-b8570a0c6a9a"},"vehicle_type_id":"4","last_reported":1730319041,"current_range_meters":29600,"station_id":"ce4bhhh2rcd13ifvqfk0","pricing_plan_id":"cebpf4jnsgd1na2vs0mg"},{"bike_id":"ec6bf2c6-81ba-4965-828b-92e734ee6e46","system_id":"levelo_inurba_marseille","lat":43.23198,"lon":5.35556,"is_reserved":false,"is_disabled":false,"rental_uris":{"android":"levelo://app?vid=ec6bf2c6-81ba-4965-828b-92e734ee6e46","ios":"levelo://app?vid=ec6bf2c6-81ba-4965-828b-92e734ee6e46"},"vehicle_type_id":"4","last_reported":1730319041,"current_range_meters":27600,"station_id":"ce4bhu92rcd13ifvqi70","pricing_plan_id":"cebpf4jnsgd1na2vs0mg"},{"bike_id":"aae35d77-0f39-4d25-8ec7-f0dafb620351","system_id":"levelo_inurba_marseille","lat":43.30884,"lon":5.39654,"is_reserved":false,"is_disabled":false,"rental_uris":{"android":"levelo://app?vid=aae35d77-0f39-4d25-8ec7-f0dafb620351","ios":"levelo://app?vid=aae35d77-0f39-4d25-8ec7-f0dafb620351"},"vehicle_type_id":"4","last_reported":1730319041,"current_range_meters":4800,"station_id":"ce4bh012rcd13ifvqcv0","pricing_plan_id":"cebpf4jnsgd1na2vs0mg"},{"bike_id":"c237e753-8def-4df1-b535-359b5fcd2537","system_id":"levelo_inurba_marseille","lat":43.29871,"lon":5.38908,"is_reserved":false,"is_disabled":false,"rental_uris":{"android":"levelo://app?vid=c237e753-8def-4df1-b535-359b5fcd2537","ios":"levelo://app?vid=c237e753-8def-4df1-b535-359b5fcd2537"},"vehicle_type_id":"4","last_reported":1730319041,"current_range_meters":30400,"station_id":"ce4bh392rcd13ifvqdl0","pricing_plan_id":"cebpf4jnsgd1na2vs0mg"},{"bike_id":"dfc15097-286b-4a19-888e-24b66d859567","system_id":"levelo_inurba_marseille","lat":43.26835,"lon":5.41116,"is_reserved":false,"is_disabled":false,"rental_uris":{"android":"levelo://app?vid=dfc15097-286b-4a19-888e-24b66d859567","ios":"levelo://app?vid=dfc15097-286b-4a19-888e-24b66d859567"},"vehicle_type_id":"4","last_reported":1730319041,"current_range_meters":14000,"station_id":"","pricing_plan_id":"cebpf4jnsgd1na2vs0mg"},{"bike_id":"d491b133-8b8a-4429-862c-f3651ad64e53","system_id":"levelo_inurba_marseille","lat":43.25582,"lon":5.38241,"is_reserved":false,"is_disabled":false,"rental_uris":{"android":"levelo://app?vid=d491b133-8b8a-4429-862c-f3651ad64e53","ios":"levelo://app?vid=d491b133-8b8a-4429-862c-f3651ad64e53"},"vehicle_type_id":"4","last_reported":1730319041,"current_range_meters":38800,"station_id":"ce4bhih2rcd13ifvqfs0","pricing_plan_id":"cebpf4jnsgd1na2vs0mg"},{"bike_id":"62874f0c-2696-4712-9a95-c582d9bfbbaa","system_id":"levelo_inurba_marseille","lat":43.27842,"lon":5.41219,"is_reserved":false,"is_disabled":false,"rental_uris":{"android":"levelo://app?vid=62874f0c-2696-4712-9a95-c582d9bfbbaa","ios":"levelo://app?vid=62874f0c-2696-4712-9a95-c582d9bfbbaa"},"vehicle_type_id":"4","last_reported":1730319041,"current_range_meters":16800,"station_id":"","pricing_plan_id":"cebpf4jnsgd1na2vs0mg"},{"bike_id":"6ad783cb-41da-4545-85fe-6fd00e6a9ab3","system_id":"levelo_inurba_marseille","lat":43.2903,"lon":5.38634,"is_reserved":false,"is_disabled":false,"rental_uris":{"android":"levelo://app?vid=6ad783cb-41da-4545-85fe-6fd00e6a9ab3","ios":"levelo://app?vid=6ad783cb-41da-4545-85fe-6fd00e6a9ab3"},"vehicle_type_id":"4","last_reported":1730319041,"current_range_meters":38000,"station_id":"ce4bh4p2rcd13ifvqe0g","pricing_plan_id":"cebpf4jnsgd1na2vs0mg"},{"bike_id":"030c80e0-aac5-4c81-9c1b-b4cd24c05688","system_id":"levelo_inurba_marseille","lat":43.27945,"lon":5.41043,"is_reserved":false,"is_disabled":false,"rental_uris":{"android":"levelo://app?vid=030c80e0-aac5-4c81-9c1b-b4cd24c05688","ios":"levelo://app?vid=030c80e0-aac5-4c81-9c1b-b4cd24c05688"},"vehicle_type_id":"4","last_reported":1730319041,"current_range_meters":28400,"station_id":"ce4bhnp2rcd13ifvqh0g","pricing_plan_id":"cebpf4jnsgd1na2vs0mg"},{"bike_id":"7b9e9323-c448-4f36-bf32-b9a660efe9b2","system_id":"levelo_inurba_marseille","lat":43.3047,"lon":5.39798,"is_reserved":false,"is_disabled":false,"rental_uris":{"android":"levelo://app?vid=7b9e9323-c448-4f36-bf32-b9a660efe9b2","ios":"levelo://app?vid=7b9e9323-c448-4f36-bf32-b9a660efe9b2"},"vehicle_type_id":"4","last_reported":1730319041,"current_range_meters":36400,"station_id":"ce4bh9p2rcd13ifvqed0","pricing_plan_id":"cebpf4jnsgd1na2vs0mg"},{"bike_id":"436a6a69-d3b4-4bdf-8c98-78260ced3e10","system_id":"levelo_inurba_marseille","lat":43.28701,"lon":5.37373,"is_reserved":false,"is_disabled":false,"rental_uris":{"android":"levelo://app?vid=436a6a69-d3b4-4bdf-8c98-78260ced3e10","ios":"levelo://app?vid=436a6a69-d3b4-4bdf-8c98-78260ced3e10"},"vehicle_type_id":"4","last_reported":1730319041,"current_range_meters":8400,"station_id":"ce4bh3p2rcd13ifvqdq0","pricing_plan_id":"cebpf4jnsgd1na2vs0mg"},{"bike_id":"d7c91e27-01ff-4e63-931a-06879363336d","system_id":"levelo_inurba_marseille","lat":43.3013,"lon":5.38773,"is_reserved":false,"is_disabled":false,"rental_uris":{"android":"levelo://app?vid=d7c91e27-01ff-4e63-931a-06879363336d","ios":"levelo://app?vid=d7c91e27-01ff-4e63-931a-06879363336d"},"vehicle_type_id":"4","last_reported":1730319041,"current_range_meters":38800,"station_id":"ce4bghh2rcd13ifvqb60","pricing_plan_id":"cebpf4jnsgd1na2vs0mg"},{"bike_id":"276cf55d-80aa-4b16-9239-4f998895924b","system_id":"levelo_inurba_marseille","lat":43.29531,"lon":5.38552,"is_reserved":false,"is_disabled":false,"rental_uris":{"android":"levelo://app?vid=276cf55d-80aa-4b16-9239-4f998895924b","ios":"levelo://app?vid=276cf55d-80aa-4b16-9239-4f998895924b"},"vehicle_type_id":"4","last_reported":1730319041,"current_range_meters":27200,"station_id":"ce4bgih2rcd13ifvqba0","pricing_plan_id":"cebpf4jnsgd1na2vs0mg"},{"bike_id":"2370a04e-d358-4a29-b67a-890bf50b34fd","system_id":"levelo_inurba_marseille","lat":43.24168,"lon":5.36405,"is_reserved":false,"is_disabled":false,"rental_uris":{"android":"levelo://app?vid=2370a04e-d358-4a29-b67a-890bf50b34fd","ios":"levelo://app?vid=2370a04e-d358-4a29-b67a-890bf50b34fd"},"vehicle_type_id":"4","last_reported":1730319041,"current_range_meters":38800,"station_id":"cpo36qri1sfpv3e86is0","pricing_plan_id":"cebpf4jnsgd1na2vs0mg"},{"bike_id":"2d09b255-c383-4598-b26d-af21dea65632","system_id":"levelo_inurba_marseille","lat":43.28413,"lon":5.37517,"is_reserved":false,"is_disabled":false,"rental_uris":{"android":"levelo://app?vid=2d09b255-c383-4598-b26d-af21dea65632","ios":"levelo://app?vid=2d09b255-c383-4598-b26d-af21dea65632"},"vehicle_type_id":"4","last_reported":1730319041,"current_range_meters":33600,"station_id":"ce4bh412rcd13ifvqds0","pricing_plan_id":"cebpf4jnsgd1na2vs0mg"},{"bike_id":"b3842801-0c7b-461b-aa8d-97adac92c8b5","system_id":"levelo_inurba_marseille","lat":43.28841,"lon":5.39321,"is_reserved":false,"is_disabled":false,"rental_uris":{"android":"levelo://app?vid=b3842801-0c7b-461b-aa8d-97adac92c8b5","ios":"levelo://app?vid=b3842801-0c7b-461b-aa8d-97adac92c8b5"},"vehicle_type_id":"4","last_reported":1730319041,"current_range_meters":38800,"station_id":"ce4bh2p2rcd13ifvqdi0","pricing_plan_id":"cebpf4jnsgd1na2vs0mg"},{"bike_id":"335d4dc5-ed27-4ea9-92a7-0c3cc738682d","system_id":"levelo_inurba_marseille","lat":43.29531,"lon":5.38551,"is_reserved":false,"is_disabled":false,"rental_uris":{"android":"levelo://app?vid=335d4dc5-ed27-4ea9-92a7-0c3cc738682d","ios":"levelo://app?vid=335d4dc5-ed27-4ea9-92a7-0c3cc738682d"},"vehicle_type_id":"4","last_reported":1730319041,"current_range_meters":5600,"station_id":"ce4bgih2rcd13ifvqba0","pricing_plan_id":"cebpf4jnsgd1na2vs0mg"},{"bike_id":"e211564f-4f61-4066-af9f-fd09d8cad2c1","system_id":"levelo_inurba_marseille","lat":43.2953,"lon":5.38541,"is_reserved":false,"is_disabled":false,"rental_uris":{"android":"levelo://app?vid=e211564f-4f61-4066-af9f-fd09d8cad2c1","ios":"levelo://app?vid=e211564f-4f61-4066-af9f-fd09d8cad2c1"},"vehicle_type_id":"4","last_reported":1730319041,"current_range_meters":16800,"station_id":"ce4bgih2rcd13ifvqba0","pricing_plan_id":"cebpf4jnsgd1na2vs0mg"},{"bike_id":"6865a594-0529-4e73-9b45-04c7b9711cd8","system_id":"levelo_inurba_marseille","lat":43.29031,"lon":5.38624,"is_reserved":false,"is_disabled":false,"rental_uris":{"android":"levelo://app?vid=6865a594-0529-4e73-9b45-04c7b9711cd8","ios":"levelo://app?vid=6865a594-0529-4e73-9b45-04c7b9711cd8"},"vehicle_type_id":"4","last_reported":1730319041,"current_range_meters":38800,"station_id":"ce4bh4p2rcd13ifvqe0g","pricing_plan_id":"cebpf4jnsgd1na2vs0mg"},{"bike_id":"03e26363-1adc-494c-8098-91070571fba5","system_id":"levelo_inurba_marseille","lat":43.2319,"lon":5.3554,"is_reserved":false,"is_disabled":false,"rental_uris":{"android":"levelo://app?vid=03e26363-1adc-494c-8098-91070571fba5","ios":"levelo://app?vid=03e26363-1adc-494c-8098-91070571fba5"},"vehicle_type_id":"4","last_reported":1730319041,"current_range_meters":28800,"station_id":"ce4bhu92rcd13ifvqi70","pricing_plan_id":"cebpf4jnsgd1na2vs0mg"},{"bike_id":"63a6c0b0-e00b-49ef-86c8-bda47e5a2f0d","system_id":"levelo_inurba_marseille","lat":43.30097,"lon":5.39073,"is_reserved":false,"is_disabled":false,"rental_uris":{"android":"levelo://app?vid=63a6c0b0-e00b-49ef-86c8-bda47e5a2f0d","ios":"levelo://app?vid=63a6c0b0-e00b-49ef-86c8-bda47e5a2f0d"},"vehicle_type_id":"4","last_reported":1730319041,"current_range_meters":3200,"station_id":"ce4bh192rcd13ifvqdb0","pricing_plan_id":"cebpf4jnsgd1na2vs0mg"},{"bike_id":"dc190658-8553-4551-b8cb-354443b662cd","system_id":"levelo_inurba_marseille","lat":43.23193,"lon":5.35556,"is_reserved":false,"is_disabled":false,"rental_uris":{"android":"levelo://app?vid=dc190658-8553-4551-b8cb-354443b662cd","ios":"levelo://app?vid=dc190658-8553-4551-b8cb-354443b662cd"},"vehicle_type_id":"4","last_reported":1730319041,"current_range_meters":10800,"station_id":"ce4bhu92rcd13ifvqi70","pricing_plan_id":"cebpf4jnsgd1na2vs0mg"},{"bike_id":"ce574fee-58c0-4c73-ae30-615833cc2d67","system_id":"levelo_inurba_marseille","lat":43.30426,"lon":5.38884,"is_reserved":false,"is_disabled":false,"rental_uris":{"android":"levelo://app?vid=ce574fee-58c0-4c73-ae30-615833cc2d67","ios":"levelo://app?vid=ce574fee-58c0-4c73-ae30-615833cc2d67"},"vehicle_type_id":"4","last_reported":1730319041,"current_range_meters":10800,"station_id":"ce4bgk12rcd13ifvqbi0","pricing_plan_id":"cebpf4jnsgd1na2vs0mg"},{"bike_id":"a2639c52-e629-4815-84df-c6f865663d76","system_id":"levelo_inurba_marseille","lat":43.2655,"lon":5.37288,"is_reserved":false,"is_disabled":false,"rental_uris":{"android":"levelo://app?vid=a2639c52-e629-4815-84df-c6f865663d76","ios":"levelo://app?vid=a2639c52-e629-4815-84df-c6f865663d76"},"vehicle_type_id":"4","last_reported":1730319041,"current_range_meters":36800,"station_id":"ce4bhg12rcd13ifvqf70","pricing_plan_id":"cebpf4jnsgd1na2vs0mg"},{"bike_id":"e1eb58d9-877a-4047-a16b-ca449d2ff5b0","system_id":"levelo_inurba_marseille","lat":43.28417,"lon":5.37519,"is_reserved":false,"is_disabled":false,"rental_uris":{"android":"levelo://app?vid=e1eb58d9-877a-4047-a16b-ca449d2ff5b0","ios":"levelo://app?vid=e1eb58d9-877a-4047-a16b-ca449d2ff5b0"},"vehicle_type_id":"4","last_reported":1730319041,"current_range_meters":18000,"station_id":"ce4bh412rcd13ifvqds0","pricing_plan_id":"cebpf4jnsgd1na2vs0mg"},{"bike_id":"7f270bf6-247e-4179-9a7e-a15659822bc2","system_id":"levelo_inurba_marseille","lat":43.29288,"lon":5.36804,"is_reserved":false,"is_disabled":false,"rental_uris":{"android":"levelo://app?vid=7f270bf6-247e-4179-9a7e-a15659822bc2","ios":"levelo://app?vid=7f270bf6-247e-4179-9a7e-a15659822bc2"},"vehicle_type_id":"4","last_reported":1730319041,"current_range_meters":37600,"station_id":"","pricing_plan_id":"cebpf4jnsgd1na2vs0mg"},{"bike_id":"c628fee8-65ae-47f5-971a-44c6dd08c503","system_id":"levelo_inurba_marseille","lat":43.31332,"lon":5.39692,"is_reserved":false,"is_disabled":false,"rental_uris":{"android":"levelo://app?vid=c628fee8-65ae-47f5-971a-44c6dd08c503","ios":"levelo://app?vid=c628fee8-65ae-47f5-971a-44c6dd08c503"},"vehicle_type_id":"4","last_reported":1730319041,"current_range_meters":28000,"station_id":"ce4bgvp2rcd13ifvqcu0","pricing_plan_id":"cebpf4jnsgd1na2vs0mg"},{"bike_id":"599f087a-0d72-4a42-a196-c89c14e1947a","system_id":"levelo_inurba_marseille","lat":43.31179,"lon":5.38707,"is_reserved":false,"is_disabled":false,"rental_uris":{"android":"levelo://app?vid=599f087a-0d72-4a42-a196-c89c14e1947a","ios":"levelo://app?vid=599f087a-0d72-4a42-a196-c89c14e1947a"},"vehicle_type_id":"4","last_reported":1730319041,"current_range_meters":27200,"station_id":"ce4bgv12rcd13ifvqcp0","pricing_plan_id":"cebpf4jnsgd1na2vs0mg"},{"bike_id":"f15eb44c-c3d8-4b09-a8f8-f8e8b1c103e3","system_id":"levelo_inurba_marseille","lat":43.272064,"lon":5.391819,"is_reserved":false,"is_disabled":false,"rental_uris":{"android":"levelo://app?vid=f15eb44c-c3d8-4b09-a8f8-f8e8b1c103e3","ios":"levelo://app?vid=f15eb44c-c3d8-4b09-a8f8-f8e8b1c103e3"},"vehicle_type_id":"4","last_reported":1730319041,"current_range_meters":19200,"station_id":"ce4bh3h2rcd13ifvqdo0","pricing_plan_id":"cebpf4jnsgd1na2vs0mg"},{"bike_id":"b43dda27-0960-40d0-bad1-74630555b584","system_id":"levelo_inurba_marseille","lat":43.289642,"lon":5.366394,"is_reserved":false,"is_disabled":false,"rental_uris":{"android":"levelo://app?vid=b43dda27-0960-40d0-bad1-74630555b584","ios":"levelo://app?vid=b43dda27-0960-40d0-bad1-74630555b584"},"vehicle_type_id":"4","last_reported":1730319041,"current_range_meters":6800,"station_id":"ce4bgi92rcd13ifvqb90","pricing_plan_id":"cebpf4jnsgd1na2vs0mg"},{"bike_id":"5266335c-fb51-4166-a0ab-8099a4c09e4b","system_id":"levelo_inurba_marseille","lat":43.32287,"lon":5.38279,"is_reserved":false,"is_disabled":false,"rental_uris":{"android":"levelo://app?vid=5266335c-fb51-4166-a0ab-8099a4c09e4b","ios":"levelo://app?vid=5266335c-fb51-4166-a0ab-8099a4c09e4b"},"vehicle_type_id":"4","last_reported":1730319041,"current_range_meters":3600,"station_id":"ce4bhr12rcd13ifvqhqg","pricing_plan_id":"cebpf4jnsgd1na2vs0mg"},{"bike_id":"8492bd51-4172-4940-bd0e-24f88e4032f5","system_id":"levelo_inurba_marseille","lat":43.3248,"lon":5.36563,"is_reserved":false,"is_disabled":false,"rental_uris":{"android":"levelo://app?vid=8492bd51-4172-4940-bd0e-24f88e4032f5","ios":"levelo://app?vid=8492bd51-4172-4940-bd0e-24f88e4032f5"},"vehicle_type_id":"4","last_reported":1730319041,"current_range_meters":12000,"station_id":"ce4bhs12rcd13ifvqhvg","pricing_plan_id":"cebpf4jnsgd1na2vs0mg"},{"bike_id":"203cdc68-feff-483d-ac1a-996e1a200a5a","system_id":"levelo_inurba_marseille","lat":43.27918,"lon":5.39583,"is_reserved":false,"is_disabled":false,"rental_uris":{"android":"levelo://app?vid=203cdc68-feff-483d-ac1a-996e1a200a5a","ios":"levelo://app?vid=203cdc68-feff-483d-ac1a-996e1a200a5a"},"vehicle_type_id":"4","last_reported":1730319041,"current_range_meters":30800,"station_id":"ce4bhf92rcd13ifvqf40","pricing_plan_id":"cebpf4jnsgd1na2vs0mg"},{"bike_id":"5e2729da-8449-4f1f-9dd1-92e4be3a137f","system_id":"levelo_inurba_marseille","lat":43.26961,"lon":5.38636,"is_reserved":false,"is_disabled":false,"rental_uris":{"android":"levelo://app?vid=5e2729da-8449-4f1f-9dd1-92e4be3a137f","ios":"levelo://app?vid=5e2729da-8449-4f1f-9dd1-92e4be3a137f"},"vehicle_type_id":"4","last_reported":1730319041,"current_range_meters":8800,"station_id":"ce4bhh92rcd13ifvqfh0","pricing_plan_id":"cebpf4jnsgd1na2vs0mg"},{"bike_id":"a863dbde-8004-4ac2-a94c-9a3818c68787","system_id":"levelo_inurba_marseille","lat":43.29025,"lon":5.38622,"is_reserved":false,"is_disabled":false,"rental_uris":{"android":"levelo://app?vid=a863dbde-8004-4ac2-a94c-9a3818c68787","ios":"levelo://app?vid=a863dbde-8004-4ac2-a94c-9a3818c68787"},"vehicle_type_id":"4","last_reported":1730319041,"current_range_meters":39200,"station_id":"ce4bh4p2rcd13ifvqe0g","pricing_plan_id":"cebpf4jnsgd1na2vs0mg"},{"bike_id":"096ac633-b8d9-4d6e-9fd6-ffedb4ceb6d7","system_id":"levelo_inurba_marseille","lat":43.28939,"lon":5.36636,"is_reserved":false,"is_disabled":false,"rental_uris":{"android":"levelo://app?vid=096ac633-b8d9-4d6e-9fd6-ffedb4ceb6d7","ios":"levelo://app?vid=096ac633-b8d9-4d6e-9fd6-ffedb4ceb6d7"},"vehicle_type_id":"4","last_reported":1730319041,"current_range_meters":29600,"station_id":"ce4bhap2rcd13ifvqek0","pricing_plan_id":"cebpf4jnsgd1na2vs0mg"},{"bike_id":"160c0687-9460-48d0-ae05-1e9114a151e3","system_id":"levelo_inurba_marseille","lat":43.2885,"lon":5.3586,"is_reserved":false,"is_disabled":false,"rental_uris":{"android":"levelo://app?vid=160c0687-9460-48d0-ae05-1e9114a151e3","ios":"levelo://app?vid=160c0687-9460-48d0-ae05-1e9114a151e3"},"vehicle_type_id":"4","last_reported":1730319041,"current_range_meters":19600,"station_id":"ce4bhb12rcd13ifvqem0","pricing_plan_id":"cebpf4jnsgd1na2vs0mg"},{"bike_id":"4c58c52f-566c-453a-bb6c-e72139ca7e2f","system_id":"levelo_inurba_marseille","lat":43.29564,"lon":5.37524,"is_reserved":false,"is_disabled":false,"rental_uris":{"android":"levelo://app?vid=4c58c52f-566c-453a-bb6c-e72139ca7e2f","ios":"levelo://app?vid=4c58c52f-566c-453a-bb6c-e72139ca7e2f"},"vehicle_type_id":"4","last_reported":1730319041,"current_range_meters":38000,"station_id":"ce4bgh92rcd13ifvqb50","pricing_plan_id":"cebpf4jnsgd1na2vs0mg"},{"bike_id":"4ee55179-cf91-4054-9351-af3c46bdc271","system_id":"levelo_inurba_marseille","lat":43.29248,"lon":5.38436,"is_reserved":false,"is_disabled":false,"rental_uris":{"android":"levelo://app?vid=4ee55179-cf91-4054-9351-af3c46bdc271","ios":"levelo://app?vid=4ee55179-cf91-4054-9351-af3c46bdc271"},"vehicle_type_id":"4","last_reported":1730319041,"current_range_meters":38800,"station_id":"ce4bh692rcd13ifvqea0","pricing_plan_id":"cebpf4jnsgd1na2vs0mg"},{"bike_id":"fbb11bf0-6f49-45c1-810c-8f2d67e3de9e","system_id":"levelo_inurba_marseille","lat":43.29415,"lon":5.38638,"is_reserved":false,"is_disabled":false,"rental_uris":{"android":"levelo://app?vid=fbb11bf0-6f49-45c1-810c-8f2d67e3de9e","ios":"levelo://app?vid=fbb11bf0-6f49-45c1-810c-8f2d67e3de9e"},"vehicle_type_id":"4","last_reported":1730319041,"current_range_meters":38800,"station_id":"ce4bh2h2rcd13ifvqdh0","pricing_plan_id":"cebpf4jnsgd1na2vs0mg"},{"bike_id":"46b5cbff-b7f7-46bb-929c-5abf4de6fb0c","system_id":"levelo_inurba_marseille","lat":43.29964,"lon":5.38493,"is_reserved":false,"is_disabled":false,"rental_uris":{"android":"levelo://app?vid=46b5cbff-b7f7-46bb-929c-5abf4de6fb0c","ios":"levelo://app?vid=46b5cbff-b7f7-46bb-929c-5abf4de6fb0c"},"vehicle_type_id":"4","last_reported":1730319041,"current_range_meters":18000,"station_id":"ce4bgj92rcd13ifvqbd0","pricing_plan_id":"cebpf4jnsgd1na2vs0mg"},{"bike_id":"58f6ce57-7d4d-4ffa-83e9-e345d2bb3a78","system_id":"levelo_inurba_marseille","lat":43.2953,"lon":5.38551,"is_reserved":false,"is_disabled":false,"rental_uris":{"android":"levelo://app?vid=58f6ce57-7d4d-4ffa-83e9-e345d2bb3a78","ios":"levelo://app?vid=58f6ce57-7d4d-4ffa-83e9-e345d2bb3a78"},"vehicle_type_id":"4","last_reported":1730319041,"current_range_meters":25200,"station_id":"ce4bgih2rcd13ifvqba0","pricing_plan_id":"cebpf4jnsgd1na2vs0mg"},{"bike_id":"c5add913-57c4-4a7c-aea0-f0a5f29353a1","system_id":"levelo_inurba_marseille","lat":43.26932,"lon":5.3892,"is_reserved":false,"is_disabled":false,"rental_uris":{"android":"levelo://app?vid=c5add913-57c4-4a7c-aea0-f0a5f29353a1","ios":"levelo://app?vid=c5add913-57c4-4a7c-aea0-f0a5f29353a1"},"vehicle_type_id":"4","last_reported":1730319041,"current_range_meters":4800,"station_id":"ce4bhhh2rcd13ifvqfl0","pricing_plan_id":"cebpf4jnsgd1na2vs0mg"},{"bike_id":"7ad1c9ff-f920-4f37-a20f-c6324d37747c","system_id":"levelo_inurba_marseille","lat":43.29028,"lon":5.3862,"is_reserved":false,"is_disabled":false,"rental_uris":{"android":"levelo://app?vid=7ad1c9ff-f920-4f37-a20f-c6324d37747c","ios":"levelo://app?vid=7ad1c9ff-f920-4f37-a20f-c6324d37747c"},"vehicle_type_id":"4","last_reported":1730319041,"current_range_meters":38000,"station_id":"ce4bh4p2rcd13ifvqe0g","pricing_plan_id":"cebpf4jnsgd1na2vs0mg"},{"bike_id":"cb074488-0b98-4a71-9ffe-621fdf8b0a6f","system_id":"levelo_inurba_marseille","lat":43.29418,"lon":5.38634,"is_reserved":false,"is_disabled":false,"rental_uris":{"android":"levelo://app?vid=cb074488-0b98-4a71-9ffe-621fdf8b0a6f","ios":"levelo://app?vid=cb074488-0b98-4a71-9ffe-621fdf8b0a6f"},"vehicle_type_id":"4","last_reported":1730319041,"current_range_meters":21600,"station_id":"ce4bh2h2rcd13ifvqdh0","pricing_plan_id":"cebpf4jnsgd1na2vs0mg"},{"bike_id":"e826a637-15f1-4eaf-9a52-aa5a7923d99a","system_id":"levelo_inurba_marseille","lat":43.29419,"lon":5.38628,"is_reserved":false,"is_disabled":false,"rental_uris":{"android":"levelo://app?vid=e826a637-15f1-4eaf-9a52-aa5a7923d99a","ios":"levelo://app?vid=e826a637-15f1-4eaf-9a52-aa5a7923d99a"},"vehicle_type_id":"4","last_reported":1730319041,"current_range_meters":4800,"station_id":"ce4bh2h2rcd13ifvqdh0","pricing_plan_id":"cebpf4jnsgd1na2vs0mg"},{"bike_id":"9133542d-fc9b-4b3c-b11d-00bf63954fb8","system_id":"levelo_inurba_marseille","lat":43.29419,"lon":5.38629,"is_reserved":false,"is_disabled":false,"rental_uris":{"android":"levelo://app?vid=9133542d-fc9b-4b3c-b11d-00bf63954fb8","ios":"levelo://app?vid=9133542d-fc9b-4b3c-b11d-00bf63954fb8"},"vehicle_type_id":"4","last_reported":1730319041,"current_range_meters":28000,"station_id":"ce4bh2h2rcd13ifvqdh0","pricing_plan_id":"cebpf4jnsgd1na2vs0mg"},{"bike_id":"345dd814-9bd8-484b-ac66-95609b363e3e","system_id":"levelo_inurba_marseille","lat":43.2857,"lon":5.39502,"is_reserved":false,"is_disabled":false,"rental_uris":{"android":"levelo://app?vid=345dd814-9bd8-484b-ac66-95609b363e3e","ios":"levelo://app?vid=345dd814-9bd8-484b-ac66-95609b363e3e"},"vehicle_type_id":"4","last_reported":1730319041,"current_range_meters":17600,"station_id":"ce4bh292rcd13ifvqdg0","pricing_plan_id":"cebpf4jnsgd1na2vs0mg"},{"bike_id":"5049a314-2c75-4c3d-a857-10f6375236ba","system_id":"levelo_inurba_marseille","lat":43.32344,"lon":5.40616,"is_reserved":false,"is_disabled":false,"rental_uris":{"android":"levelo://app?vid=5049a314-2c75-4c3d-a857-10f6375236ba","ios":"levelo://app?vid=5049a314-2c75-4c3d-a857-10f6375236ba"},"vehicle_type_id":"4","last_reported":1730319041,"current_range_meters":30400,"station_id":"ce4bhq92rcd13ifvqhjg","pricing_plan_id":"cebpf4jnsgd1na2vs0mg"},{"bike_id":"b6b8ecb0-81ed-4397-b9a4-530bc9e9e03a","system_id":"levelo_inurba_marseille","lat":43.29273,"lon":5.36853,"is_reserved":false,"is_disabled":false,"rental_uris":{"android":"levelo://app?vid=b6b8ecb0-81ed-4397-b9a4-530bc9e9e03a","ios":"levelo://app?vid=b6b8ecb0-81ed-4397-b9a4-530bc9e9e03a"},"vehicle_type_id":"4","last_reported":1730319041,"current_range_meters":38800,"station_id":"ce4bhbp2rcd13ifvqesg","pricing_plan_id":"cebpf4jnsgd1na2vs0mg"},{"bike_id":"351f89fc-0456-47b3-aef6-ed75d4e3bb82","system_id":"levelo_inurba_marseille","lat":43.28434,"lon":5.39179,"is_reserved":false,"is_disabled":false,"rental_uris":{"android":"levelo://app?vid=351f89fc-0456-47b3-aef6-ed75d4e3bb82","ios":"levelo://app?vid=351f89fc-0456-47b3-aef6-ed75d4e3bb82"},"vehicle_type_id":"4","last_reported":1730319041,"current_range_meters":14800,"station_id":"ce4bhoh2rcd13ifvqh5g","pricing_plan_id":"cebpf4jnsgd1na2vs0mg"},{"bike_id":"5ff74640-5d39-40f8-808a-e5695df59fd4","system_id":"levelo_inurba_marseille","lat":43.27194,"lon":5.41015,"is_reserved":false,"is_disabled":false,"rental_uris":{"android":"levelo://app?vid=5ff74640-5d39-40f8-808a-e5695df59fd4","ios":"levelo://app?vid=5ff74640-5d39-40f8-808a-e5695df59fd4"},"vehicle_type_id":"4","last_reported":1730319041,"current_range_meters":12000,"station_id":"ce4bhl12rcd13ifvqgf0","pricing_plan_id":"cebpf4jnsgd1na2vs0mg"},{"bike_id":"43f96fe9-2966-43bc-81a8-568837fb3199","system_id":"levelo_inurba_marseille","lat":43.29522,"lon":5.39401,"is_reserved":false,"is_disabled":false,"rental_uris":{"android":"levelo://app?vid=43f96fe9-2966-43bc-81a8-568837fb3199","ios":"levelo://app?vid=43f96fe9-2966-43bc-81a8-568837fb3199"},"vehicle_type_id":"4","last_reported":1730319041,"current_range_meters":24400,"station_id":"ce4bh292rcd13ifvqdf0","pricing_plan_id":"cebpf4jnsgd1na2vs0mg"},{"bike_id":"3c1c29e2-3184-4593-99af-3455f230ba6f","system_id":"levelo_inurba_marseille","lat":43.24178,"lon":5.39719,"is_reserved":false,"is_disabled":false,"rental_uris":{"android":"levelo://app?vid=3c1c29e2-3184-4593-99af-3455f230ba6f","ios":"levelo://app?vid=3c1c29e2-3184-4593-99af-3455f230ba6f"},"vehicle_type_id":"4","last_reported":1730319041,"current_range_meters":26000,"station_id":"ce4bhn12rcd13ifvqgpg","pricing_plan_id":"cebpf4jnsgd1na2vs0mg"},{"bike_id":"fd54f319-ba11-4beb-af32-4ac88b813a76","system_id":"levelo_inurba_marseille","lat":43.28082,"lon":5.3966,"is_reserved":false,"is_disabled":false,"rental_uris":{"android":"levelo://app?vid=fd54f319-ba11-4beb-af32-4ac88b813a76","ios":"levelo://app?vid=fd54f319-ba11-4beb-af32-4ac88b813a76"},"vehicle_type_id":"4","last_reported":1730319041,"current_range_meters":8000,"station_id":"ce4bho12rcd13ifvqh2g","pricing_plan_id":"cebpf4jnsgd1na2vs0mg"},{"bike_id":"07efe90e-3619-4f4f-83bf-bcdfcc5b9334","system_id":"levelo_inurba_marseille","lat":43.26558,"lon":5.37284,"is_reserved":false,"is_disabled":false,"rental_uris":{"android":"levelo://app?vid=07efe90e-3619-4f4f-83bf-bcdfcc5b9334","ios":"levelo://app?vid=07efe90e-3619-4f4f-83bf-bcdfcc5b9334"},"vehicle_type_id":"4","last_reported":1730319041,"current_range_meters":25600,"station_id":"ce4bhg12rcd13ifvqf70","pricing_plan_id":"cebpf4jnsgd1na2vs0mg"},{"bike_id":"62e9561e-ad05-4f0e-b75e-5d2e36048b40","system_id":"levelo_inurba_marseille","lat":43.31714,"lon":5.43709,"is_reserved":false,"is_disabled":false,"rental_uris":{"android":"levelo://app?vid=62e9561e-ad05-4f0e-b75e-5d2e36048b40","ios":"levelo://app?vid=62e9561e-ad05-4f0e-b75e-5d2e36048b40"},"vehicle_type_id":"4","last_reported":1730319041,"current_range_meters":38800,"station_id":"ce4bhp92rcd13ifvqhcg","pricing_plan_id":"cebpf4jnsgd1na2vs0mg"},{"bike_id":"a89c13b3-7367-4140-bb29-c6016f983bab","system_id":"levelo_inurba_marseille","lat":43.24659,"lon":5.38893,"is_reserved":false,"is_disabled":false,"rental_uris":{"android":"levelo://app?vid=a89c13b3-7367-4140-bb29-c6016f983bab","ios":"levelo://app?vid=a89c13b3-7367-4140-bb29-c6016f983bab"},"vehicle_type_id":"4","last_reported":1730319041,"current_range_meters":8400,"station_id":"ce4bhg12rcd13ifvqf60","pricing_plan_id":"cebpf4jnsgd1na2vs0mg"},{"bike_id":"1d62463f-6312-4b72-a0ce-2ebbdeb8eea6","system_id":"levelo_inurba_marseille","lat":43.29424,"lon":5.38633,"is_reserved":false,"is_disabled":false,"rental_uris":{"android":"levelo://app?vid=1d62463f-6312-4b72-a0ce-2ebbdeb8eea6","ios":"levelo://app?vid=1d62463f-6312-4b72-a0ce-2ebbdeb8eea6"},"vehicle_type_id":"4","last_reported":1730319041,"current_range_meters":37600,"station_id":"ce4bh2h2rcd13ifvqdh0","pricing_plan_id":"cebpf4jnsgd1na2vs0mg"},{"bike_id":"c25c2169-3dc8-41aa-aaad-528d911ae769","system_id":"levelo_inurba_marseille","lat":43.28691,"lon":5.37371,"is_reserved":false,"is_disabled":false,"rental_uris":{"android":"levelo://app?vid=c25c2169-3dc8-41aa-aaad-528d911ae769","ios":"levelo://app?vid=c25c2169-3dc8-41aa-aaad-528d911ae769"},"vehicle_type_id":"4","last_reported":1730319041,"current_range_meters":27600,"station_id":"ce4bh3p2rcd13ifvqdq0","pricing_plan_id":"cebpf4jnsgd1na2vs0mg"},{"bike_id":"5e3e5e15-a26a-4370-a4d7-22b0461d60e4","system_id":"levelo_inurba_marseille","lat":43.31996,"lon":5.38146,"is_reserved":false,"is_disabled":false,"rental_uris":{"android":"levelo://app?vid=5e3e5e15-a26a-4370-a4d7-22b0461d60e4","ios":"levelo://app?vid=5e3e5e15-a26a-4370-a4d7-22b0461d60e4"},"vehicle_type_id":"4","last_reported":1730319041,"current_range_meters":19600,"station_id":"ce4bhr12rcd13ifvqhpg","pricing_plan_id":"cebpf4jnsgd1na2vs0mg"},{"bike_id":"ce42ab34-a3fe-4c5d-a6f7-a079cc661235","system_id":"levelo_inurba_marseille","lat":43.25586,"lon":5.3824,"is_reserved":false,"is_disabled":false,"rental_uris":{"android":"levelo://app?vid=ce42ab34-a3fe-4c5d-a6f7-a079cc661235","ios":"levelo://app?vid=ce42ab34-a3fe-4c5d-a6f7-a079cc661235"},"vehicle_type_id":"4","last_reported":1730319041,"current_range_meters":28400,"station_id":"ce4bhih2rcd13ifvqfs0","pricing_plan_id":"cebpf4jnsgd1na2vs0mg"},{"bike_id":"3271d7f6-0f65-475f-8b65-c5efde785335","system_id":"levelo_inurba_marseille","lat":43.23196,"lon":5.35558,"is_reserved":false,"is_disabled":false,"rental_uris":{"android":"levelo://app?vid=3271d7f6-0f65-475f-8b65-c5efde785335","ios":"levelo://app?vid=3271d7f6-0f65-475f-8b65-c5efde785335"},"vehicle_type_id":"4","last_reported":1730319041,"current_range_meters":38000,"station_id":"ce4bhu92rcd13ifvqi70","pricing_plan_id":"cebpf4jnsgd1na2vs0mg"},{"bike_id":"212b4f94-c603-40f5-87c0-7bc98bd7fa2a","system_id":"levelo_inurba_marseille","lat":43.3248,"lon":5.3657,"is_reserved":false,"is_disabled":false,"rental_uris":{"android":"levelo://app?vid=212b4f94-c603-40f5-87c0-7bc98bd7fa2a","ios":"levelo://app?vid=212b4f94-c603-40f5-87c0-7bc98bd7fa2a"},"vehicle_type_id":"4","last_reported":1730319041,"current_range_meters":30000,"station_id":"ce4bhs12rcd13ifvqhvg","pricing_plan_id":"cebpf4jnsgd1na2vs0mg"},{"bike_id":"a24f67e4-74a8-44e9-a535-25412ca17985","system_id":"levelo_inurba_marseille","lat":43.2931,"lon":5.37447,"is_reserved":false,"is_disabled":false,"rental_uris":{"android":"levelo://app?vid=a24f67e4-74a8-44e9-a535-25412ca17985","ios":"levelo://app?vid=a24f67e4-74a8-44e9-a535-25412ca17985"},"vehicle_type_id":"4","last_reported":1730319041,"current_range_meters":38000,"station_id":"ce4bgi12rcd13ifvqb70","pricing_plan_id":"cebpf4jnsgd1na2vs0mg"},{"bike_id":"03865702-e498-401e-a421-0f0a3bd3d7a9","system_id":"levelo_inurba_marseille","lat":43.29524,"lon":5.39393,"is_reserved":false,"is_disabled":false,"rental_uris":{"android":"levelo://app?vid=03865702-e498-401e-a421-0f0a3bd3d7a9","ios":"levelo://app?vid=03865702-e498-401e-a421-0f0a3bd3d7a9"},"vehicle_type_id":"4","last_reported":1730319041,"current_range_meters":17200,"station_id":"ce4bh292rcd13ifvqdf0","pricing_plan_id":"cebpf4jnsgd1na2vs0mg"},{"bike_id":"f99547b6-e0b7-4a86-b4bb-f600f8ca5cb2","system_id":"levelo_inurba_marseille","lat":43.24171,"lon":5.36399,"is_reserved":false,"is_disabled":false,"rental_uris":{"android":"levelo://app?vid=f99547b6-e0b7-4a86-b4bb-f600f8ca5cb2","ios":"levelo://app?vid=f99547b6-e0b7-4a86-b4bb-f600f8ca5cb2"},"vehicle_type_id":"4","last_reported":1730319041,"current_range_meters":21600,"station_id":"cpo36qri1sfpv3e86is0","pricing_plan_id":"cebpf4jnsgd1na2vs0mg"},{"bike_id":"3aef9ec9-a2ac-4017-a651-b2c523715ff6","system_id":"levelo_inurba_marseille","lat":43.29417,"lon":5.38625,"is_reserved":false,"is_disabled":false,"rental_uris":{"android":"levelo://app?vid=3aef9ec9-a2ac-4017-a651-b2c523715ff6","ios":"levelo://app?vid=3aef9ec9-a2ac-4017-a651-b2c523715ff6"},"vehicle_type_id":"4","last_reported":1730319041,"current_range_meters":36400,"station_id":"ce4bh2h2rcd13ifvqdh0","pricing_plan_id":"cebpf4jnsgd1na2vs0mg"},{"bike_id":"f671dc0c-6728-4ca7-9978-83427f241816","system_id":"levelo_inurba_marseille","lat":43.28472,"lon":5.38433,"is_reserved":false,"is_disabled":false,"rental_uris":{"android":"levelo://app?vid=f671dc0c-6728-4ca7-9978-83427f241816","ios":"levelo://app?vid=f671dc0c-6728-4ca7-9978-83427f241816"},"vehicle_type_id":"4","last_reported":1730319041,"current_range_meters":32000,"station_id":"ce4bh512rcd13ifvqe3g","pricing_plan_id":"cebpf4jnsgd1na2vs0mg"},{"bike_id":"316319bb-3e9d-410b-ab6b-6fff78134e81","system_id":"levelo_inurba_marseille","lat":43.28606,"lon":5.39484,"is_reserved":false,"is_disabled":false,"rental_uris":{"android":"levelo://app?vid=316319bb-3e9d-410b-ab6b-6fff78134e81","ios":"levelo://app?vid=316319bb-3e9d-410b-ab6b-6fff78134e81"},"vehicle_type_id":"4","last_reported":1730319041,"current_range_meters":19200,"station_id":"ce4bh292rcd13ifvqdg0","pricing_plan_id":"cebpf4jnsgd1na2vs0mg"},{"bike_id":"34f42d50-21a3-4bf9-b0d5-8f30889a8727","system_id":"levelo_inurba_marseille","lat":43.24178,"lon":5.39719,"is_reserved":false,"is_disabled":false,"rental_uris":{"android":"levelo://app?vid=34f42d50-21a3-4bf9-b0d5-8f30889a8727","ios":"levelo://app?vid=34f42d50-21a3-4bf9-b0d5-8f30889a8727"},"vehicle_type_id":"4","last_reported":1730319041,"current_range_meters":30000,"station_id":"ce4bhn12rcd13ifvqgpg","pricing_plan_id":"cebpf4jnsgd1na2vs0mg"},{"bike_id":"afc8a59e-718c-432c-b226-d6be0903e5fb","system_id":"levelo_inurba_marseille","lat":43.24394,"lon":5.37067,"is_reserved":false,"is_disabled":false,"rental_uris":{"android":"levelo://app?vid=afc8a59e-718c-432c-b226-d6be0903e5fb","ios":"levelo://app?vid=afc8a59e-718c-432c-b226-d6be0903e5fb"},"vehicle_type_id":"4","last_reported":1730319041,"current_range_meters":31200,"station_id":"ce4bhhh2rcd13ifvqfk0","pricing_plan_id":"cebpf4jnsgd1na2vs0mg"},{"bike_id":"7d17fd15-22e3-4d92-a512-a8f0e728950d","system_id":"levelo_inurba_marseille","lat":43.27942,"lon":5.41044,"is_reserved":false,"is_disabled":false,"rental_uris":{"android":"levelo://app?vid=7d17fd15-22e3-4d92-a512-a8f0e728950d","ios":"levelo://app?vid=7d17fd15-22e3-4d92-a512-a8f0e728950d"},"vehicle_type_id":"4","last_reported":1730319041,"current_range_meters":23200,"station_id":"ce4bhnp2rcd13ifvqh0g","pricing_plan_id":"cebpf4jnsgd1na2vs0mg"},{"bike_id":"72e37474-1bc8-4568-aec8-ce5464e6b828","system_id":"levelo_inurba_marseille","lat":43.23194,"lon":5.35552,"is_reserved":false,"is_disabled":false,"rental_uris":{"android":"levelo://app?vid=72e37474-1bc8-4568-aec8-ce5464e6b828","ios":"levelo://app?vid=72e37474-1bc8-4568-aec8-ce5464e6b828"},"vehicle_type_id":"4","last_reported":1730319041,"current_range_meters":27600,"station_id":"ce4bhu92rcd13ifvqi70","pricing_plan_id":"cebpf4jnsgd1na2vs0mg"},{"bike_id":"7ad71fe2-eb9b-4e4a-92ec-41d406fe0d94","system_id":"levelo_inurba_marseille","lat":43.28003,"lon":5.41665,"is_reserved":false,"is_disabled":false,"rental_uris":{"android":"levelo://app?vid=7ad71fe2-eb9b-4e4a-92ec-41d406fe0d94","ios":"levelo://app?vid=7ad71fe2-eb9b-4e4a-92ec-41d406fe0d94"},"vehicle_type_id":"4","last_reported":1730319041,"current_range_meters":11600,"station_id":"ce4bho12rcd13ifvqh1g","pricing_plan_id":"cebpf4jnsgd1na2vs0mg"},{"bike_id":"b91cd24d-829b-446c-a913-61bc5de8f4dc","system_id":"levelo_inurba_marseille","lat":43.2439,"lon":5.37061,"is_reserved":false,"is_disabled":false,"rental_uris":{"android":"levelo://app?vid=b91cd24d-829b-446c-a913-61bc5de8f4dc","ios":"levelo://app?vid=b91cd24d-829b-446c-a913-61bc5de8f4dc"},"vehicle_type_id":"4","last_reported":1730319041,"current_range_meters":10800,"station_id":"ce4bhhh2rcd13ifvqfk0","pricing_plan_id":"cebpf4jnsgd1na2vs0mg"},{"bike_id":"eb2c0dc1-663f-4340-8327-0bcb8f051533","system_id":"levelo_inurba_marseille","lat":43.27814,"lon":5.40711,"is_reserved":false,"is_disabled":false,"rental_uris":{"android":"levelo://app?vid=eb2c0dc1-663f-4340-8327-0bcb8f051533","ios":"levelo://app?vid=eb2c0dc1-663f-4340-8327-0bcb8f051533"},"vehicle_type_id":"4","last_reported":1730319041,"current_range_meters":38400,"station_id":"ce4bhnh2rcd13ifvqgtg","pricing_plan_id":"cebpf4jnsgd1na2vs0mg"},{"bike_id":"b9a42de5-e92c-4a68-a4e2-5f21cbf671b3","system_id":"levelo_inurba_marseille","lat":43.29525,"lon":5.38529,"is_reserved":false,"is_disabled":false,"rental_uris":{"android":"levelo://app?vid=b9a42de5-e92c-4a68-a4e2-5f21cbf671b3","ios":"levelo://app?vid=b9a42de5-e92c-4a68-a4e2-5f21cbf671b3"},"vehicle_type_id":"4","last_reported":1730319041,"current_range_meters":6400,"station_id":"ce4bgih2rcd13ifvqba0","pricing_plan_id":"cebpf4jnsgd1na2vs0mg"},{"bike_id":"bde005bd-331c-4264-8e9a-eca876b999ec","system_id":"levelo_inurba_marseille","lat":43.29516,"lon":5.39037,"is_reserved":false,"is_disabled":false,"rental_uris":{"android":"levelo://app?vid=bde005bd-331c-4264-8e9a-eca876b999ec","ios":"levelo://app?vid=bde005bd-331c-4264-8e9a-eca876b999ec"},"vehicle_type_id":"4","last_reported":1730319041,"current_range_meters":14800,"station_id":"ce4bh3p2rcd13ifvqdp0","pricing_plan_id":"cebpf4jnsgd1na2vs0mg"},{"bike_id":"88dc58c8-a632-450d-98e1-c0f672ee9cc5","system_id":"levelo_inurba_marseille","lat":43.24387,"lon":5.37053,"is_reserved":false,"is_disabled":false,"rental_uris":{"android":"levelo://app?vid=88dc58c8-a632-450d-98e1-c0f672ee9cc5","ios":"levelo://app?vid=88dc58c8-a632-450d-98e1-c0f672ee9cc5"},"vehicle_type_id":"4","last_reported":1730319041,"current_range_meters":30400,"station_id":"ce4bhhh2rcd13ifvqfk0","pricing_plan_id":"cebpf4jnsgd1na2vs0mg"},{"bike_id":"54d2e7c1-0997-4e85-b497-01eca9eb4f00","system_id":"levelo_inurba_marseille","lat":43.23186,"lon":5.35556,"is_reserved":false,"is_disabled":false,"rental_uris":{"android":"levelo://app?vid=54d2e7c1-0997-4e85-b497-01eca9eb4f00","ios":"levelo://app?vid=54d2e7c1-0997-4e85-b497-01eca9eb4f00"},"vehicle_type_id":"4","last_reported":1730319041,"current_range_meters":13600,"station_id":"ce4bhu92rcd13ifvqi70","pricing_plan_id":"cebpf4jnsgd1na2vs0mg"},{"bike_id":"03a568f6-414d-4d28-9207-f96676ac1d4f","system_id":"levelo_inurba_marseille","lat":43.24181,"lon":5.39726,"is_reserved":false,"is_disabled":false,"rental_uris":{"android":"levelo://app?vid=03a568f6-414d-4d28-9207-f96676ac1d4f","ios":"levelo://app?vid=03a568f6-414d-4d28-9207-f96676ac1d4f"},"vehicle_type_id":"4","last_reported":1730319041,"current_range_meters":38800,"station_id":"ce4bhn12rcd13ifvqgpg","pricing_plan_id":"cebpf4jnsgd1na2vs0mg"},{"bike_id":"62a0f219-5e5a-40db-ad05-523b4b3ed5cb","system_id":"levelo_inurba_marseille","lat":43.29793,"lon":5.40402,"is_reserved":false,"is_disabled":false,"rental_uris":{"android":"levelo://app?vid=62a0f219-5e5a-40db-ad05-523b4b3ed5cb","ios":"levelo://app?vid=62a0f219-5e5a-40db-ad05-523b4b3ed5cb"},"vehicle_type_id":"4","last_reported":1730319041,"current_range_meters":18800,"station_id":"ce4bh112rcd13ifvqd90","pricing_plan_id":"cebpf4jnsgd1na2vs0mg"},{"bike_id":"5a93f91c-f767-4fb4-bed4-861622bee50c","system_id":"levelo_inurba_marseille","lat":43.28154,"lon":5.42649,"is_reserved":false,"is_disabled":false,"rental_uris":{"android":"levelo://app?vid=5a93f91c-f767-4fb4-bed4-861622bee50c","ios":"levelo://app?vid=5a93f91c-f767-4fb4-bed4-861622bee50c"},"vehicle_type_id":"4","last_reported":1730319041,"current_range_meters":30800,"station_id":"ce4bhnh2rcd13ifvqgug","pricing_plan_id":"cebpf4jnsgd1na2vs0mg"},{"bike_id":"7d8fd4e1-58f8-46c3-bead-41805d3e46d9","system_id":"levelo_inurba_marseille","lat":43.29022,"lon":5.38638,"is_reserved":false,"is_disabled":false,"rental_uris":{"android":"levelo://app?vid=7d8fd4e1-58f8-46c3-bead-41805d3e46d9","ios":"levelo://app?vid=7d8fd4e1-58f8-46c3-bead-41805d3e46d9"},"vehicle_type_id":"4","last_reported":1730319041,"current_range_meters":24000,"station_id":"ce4bh4p2rcd13ifvqe0g","pricing_plan_id":"cebpf4jnsgd1na2vs0mg"},{"bike_id":"e7796527-3310-4152-8da1-d72e0df4c9ca","system_id":"levelo_inurba_marseille","lat":43.28164,"lon":5.42649,"is_reserved":false,"is_disabled":false,"rental_uris":{"android":"levelo://app?vid=e7796527-3310-4152-8da1-d72e0df4c9ca","ios":"levelo://app?vid=e7796527-3310-4152-8da1-d72e0df4c9ca"},"vehicle_type_id":"4","last_reported":1730319041,"current_range_meters":39200,"station_id":"ce4bhnh2rcd13ifvqgug","pricing_plan_id":"cebpf4jnsgd1na2vs0mg"},{"bike_id":"ff09f701-440f-4443-be5f-ddd7e20380f9","system_id":"levelo_inurba_marseille","lat":43.26503,"lon":5.39548,"is_reserved":false,"is_disabled":false,"rental_uris":{"android":"levelo://app?vid=ff09f701-440f-4443-be5f-ddd7e20380f9","ios":"levelo://app?vid=ff09f701-440f-4443-be5f-ddd7e20380f9"},"vehicle_type_id":"4","last_reported":1730319041,"current_range_meters":34800,"station_id":"ce4bhi12rcd13ifvqfq0","pricing_plan_id":"cebpf4jnsgd1na2vs0mg"},{"bike_id":"65bc2bb4-154e-464e-a42c-34d4569d26d6","system_id":"levelo_inurba_marseille","lat":43.28158,"lon":5.42641,"is_reserved":false,"is_disabled":false,"rental_uris":{"android":"levelo://app?vid=65bc2bb4-154e-464e-a42c-34d4569d26d6","ios":"levelo://app?vid=65bc2bb4-154e-464e-a42c-34d4569d26d6"},"vehicle_type_id":"4","last_reported":1730319041,"current_range_meters":36800,"station_id":"ce4bhnh2rcd13ifvqgug","pricing_plan_id":"cebpf4jnsgd1na2vs0mg"},{"bike_id":"fa6343cd-ed36-4250-a2c2-d770c7c281d8","system_id":"levelo_inurba_marseille","lat":43.28411,"lon":5.34972,"is_reserved":false,"is_disabled":false,"rental_uris":{"android":"levelo://app?vid=fa6343cd-ed36-4250-a2c2-d770c7c281d8","ios":"levelo://app?vid=fa6343cd-ed36-4250-a2c2-d770c7c281d8"},"vehicle_type_id":"4","last_reported":1730319041,"current_range_meters":22800,"station_id":"ce4bhbh2rcd13ifvqepg","pricing_plan_id":"cebpf4jnsgd1na2vs0mg"},{"bike_id":"321401c5-e2a3-486b-8381-ba3552293205","system_id":"levelo_inurba_marseille","lat":43.28462,"lon":5.35887,"is_reserved":false,"is_disabled":false,"rental_uris":{"android":"levelo://app?vid=321401c5-e2a3-486b-8381-ba3552293205","ios":"levelo://app?vid=321401c5-e2a3-486b-8381-ba3552293205"},"vehicle_type_id":"4","last_reported":1730319041,"current_range_meters":18800,"station_id":"ce4bhah2rcd13ifvqei0","pricing_plan_id":"cebpf4jnsgd1na2vs0mg"},{"bike_id":"6a82fa07-8188-4814-8932-59b917fb1e21","system_id":"levelo_inurba_marseille","lat":43.29202,"lon":5.39312,"is_reserved":false,"is_disabled":false,"rental_uris":{"android":"levelo://app?vid=6a82fa07-8188-4814-8932-59b917fb1e21","ios":"levelo://app?vid=6a82fa07-8188-4814-8932-59b917fb1e21"},"vehicle_type_id":"4","last_reported":1730319041,"current_range_meters":38000,"station_id":"ce4bh192rcd13ifvqdd0","pricing_plan_id":"cebpf4jnsgd1na2vs0mg"},{"bike_id":"4383f0fb-f67d-4b86-b5dd-8ff7443f7389","system_id":"levelo_inurba_marseille","lat":43.29309,"lon":5.37164,"is_reserved":false,"is_disabled":false,"rental_uris":{"android":"levelo://app?vid=4383f0fb-f67d-4b86-b5dd-8ff7443f7389","ios":"levelo://app?vid=4383f0fb-f67d-4b86-b5dd-8ff7443f7389"},"vehicle_type_id":"4","last_reported":1730319041,"current_range_meters":4400,"station_id":"ce4bgh92rcd13ifvqb40","pricing_plan_id":"cebpf4jnsgd1na2vs0mg"},{"bike_id":"cbd6e71b-da90-49a9-852e-9e6ceb2a79ce","system_id":"levelo_inurba_marseille","lat":43.23187,"lon":5.39984,"is_reserved":false,"is_disabled":false,"rental_uris":{"android":"levelo://app?vid=cbd6e71b-da90-49a9-852e-9e6ceb2a79ce","ios":"levelo://app?vid=cbd6e71b-da90-49a9-852e-9e6ceb2a79ce"},"vehicle_type_id":"4","last_reported":1730319041,"current_range_meters":38800,"station_id":"ce4bhn12rcd13ifvqgqg","pricing_plan_id":"cebpf4jnsgd1na2vs0mg"},{"bike_id":"3004047f-f32d-4c87-9f16-9ecb49a728d2","system_id":"levelo_inurba_marseille","lat":43.29045,"lon":5.35899,"is_reserved":false,"is_disabled":false,"rental_uris":{"android":"levelo://app?vid=3004047f-f32d-4c87-9f16-9ecb49a728d2","ios":"levelo://app?vid=3004047f-f32d-4c87-9f16-9ecb49a728d2"},"vehicle_type_id":"4","last_reported":1730319041,"current_range_meters":22800,"station_id":"ce4bha92rcd13ifvqeg0","pricing_plan_id":"cebpf4jnsgd1na2vs0mg"},{"bike_id":"9ec77140-2846-4e58-a1b8-dfda5b93d692","system_id":"levelo_inurba_marseille","lat":43.2953,"lon":5.38539,"is_reserved":false,"is_disabled":false,"rental_uris":{"android":"levelo://app?vid=9ec77140-2846-4e58-a1b8-dfda5b93d692","ios":"levelo://app?vid=9ec77140-2846-4e58-a1b8-dfda5b93d692"},"vehicle_type_id":"4","last_reported":1730319041,"current_range_meters":38800,"station_id":"ce4bgih2rcd13ifvqba0","pricing_plan_id":"cebpf4jnsgd1na2vs0mg"},{"bike_id":"2e1f0f58-85d5-4a96-9765-92fa471f93a1","system_id":"levelo_inurba_marseille","lat":43.27971,"lon":5.38738,"is_reserved":false,"is_disabled":false,"rental_uris":{"android":"levelo://app?vid=2e1f0f58-85d5-4a96-9765-92fa471f93a1","ios":"levelo://app?vid=2e1f0f58-85d5-4a96-9765-92fa471f93a1"},"vehicle_type_id":"4","last_reported":1730319041,"current_range_meters":18000,"station_id":"ce4bhg12rcd13ifvqf80","pricing_plan_id":"cebpf4jnsgd1na2vs0mg"},{"bike_id":"1995d42f-9bb2-423e-a419-1706f5fab24e","system_id":"levelo_inurba_marseille","lat":43.27075,"lon":5.42278,"is_reserved":false,"is_disabled":false,"rental_uris":{"android":"levelo://app?vid=1995d42f-9bb2-423e-a419-1706f5fab24e","ios":"levelo://app?vid=1995d42f-9bb2-423e-a419-1706f5fab24e"},"vehicle_type_id":"4","last_reported":1730319041,"current_range_meters":32000,"station_id":"ce4bhk92rcd13ifvqgb0","pricing_plan_id":"cebpf4jnsgd1na2vs0mg"},{"bike_id":"be4cec61-2fbe-4c41-bc8f-6cef6f495468","system_id":"levelo_inurba_marseille","lat":43.31331,"lon":5.39698,"is_reserved":false,"is_disabled":false,"rental_uris":{"android":"levelo://app?vid=be4cec61-2fbe-4c41-bc8f-6cef6f495468","ios":"levelo://app?vid=be4cec61-2fbe-4c41-bc8f-6cef6f495468"},"vehicle_type_id":"4","last_reported":1730319041,"current_range_meters":38800,"station_id":"ce4bgvp2rcd13ifvqcu0","pricing_plan_id":"cebpf4jnsgd1na2vs0mg"},{"bike_id":"8162e4a8-23c1-4020-bbef-be4a2e70aefe","system_id":"levelo_inurba_marseille","lat":43.23195,"lon":5.35552,"is_reserved":false,"is_disabled":false,"rental_uris":{"android":"levelo://app?vid=8162e4a8-23c1-4020-bbef-be4a2e70aefe","ios":"levelo://app?vid=8162e4a8-23c1-4020-bbef-be4a2e70aefe"},"vehicle_type_id":"4","last_reported":1730319041,"current_range_meters":8400,"station_id":"ce4bhu92rcd13ifvqi70","pricing_plan_id":"cebpf4jnsgd1na2vs0mg"},{"bike_id":"5e391bf2-e688-4c34-982f-0877ec2e96d6","system_id":"levelo_inurba_marseille","lat":43.295287,"lon":5.385451,"is_reserved":false,"is_disabled":false,"rental_uris":{"android":"levelo://app?vid=5e391bf2-e688-4c34-982f-0877ec2e96d6","ios":"levelo://app?vid=5e391bf2-e688-4c34-982f-0877ec2e96d6"},"vehicle_type_id":"4","last_reported":1730319041,"current_range_meters":14800,"station_id":"ce4bgih2rcd13ifvqba0","pricing_plan_id":"cebpf4jnsgd1na2vs0mg"},{"bike_id":"3404184c-b4dd-4158-81d3-b380ad6360a5","system_id":"levelo_inurba_marseille","lat":43.30938,"lon":5.40148,"is_reserved":false,"is_disabled":false,"rental_uris":{"android":"levelo://app?vid=3404184c-b4dd-4158-81d3-b380ad6360a5","ios":"levelo://app?vid=3404184c-b4dd-4158-81d3-b380ad6360a5"},"vehicle_type_id":"4","last_reported":1730319041,"current_range_meters":38800,"station_id":"ce4bgvp2rcd13ifvqct0","pricing_plan_id":"cebpf4jnsgd1na2vs0mg"},{"bike_id":"4c9d1e06-f3f0-41b4-9b77-1e0a54f146d2","system_id":"levelo_inurba_marseille","lat":43.3189,"lon":5.40726,"is_reserved":false,"is_disabled":false,"rental_uris":{"android":"levelo://app?vid=4c9d1e06-f3f0-41b4-9b77-1e0a54f146d2","ios":"levelo://app?vid=4c9d1e06-f3f0-41b4-9b77-1e0a54f146d2"},"vehicle_type_id":"4","last_reported":1730319041,"current_range_meters":16400,"station_id":"ce4bhq12rcd13ifvqhig","pricing_plan_id":"cebpf4jnsgd1na2vs0mg"},{"bike_id":"28119a98-9838-4fae-a923-151b5b190589","system_id":"levelo_inurba_marseille","lat":43.29426,"lon":5.3861,"is_reserved":false,"is_disabled":false,"rental_uris":{"android":"levelo://app?vid=28119a98-9838-4fae-a923-151b5b190589","ios":"levelo://app?vid=28119a98-9838-4fae-a923-151b5b190589"},"vehicle_type_id":"4","last_reported":1730319041,"current_range_meters":14400,"station_id":"ce4bh2h2rcd13ifvqdh0","pricing_plan_id":"cebpf4jnsgd1na2vs0mg"},{"bike_id":"dede9cb1-9f36-49ac-88f6-956d5d0a7a6f","system_id":"levelo_inurba_marseille","lat":43.30242,"lon":5.40049,"is_reserved":false,"is_disabled":false,"rental_uris":{"android":"levelo://app?vid=dede9cb1-9f36-49ac-88f6-956d5d0a7a6f","ios":"levelo://app?vid=dede9cb1-9f36-49ac-88f6-956d5d0a7a6f"},"vehicle_type_id":"4","last_reported":1730319041,"current_range_meters":38800,"station_id":"ce4bgvh2rcd13ifvqcs0","pricing_plan_id":"cebpf4jnsgd1na2vs0mg"},{"bike_id":"01873621-66c2-43af-8810-09f11e46034b","system_id":"levelo_inurba_marseille","lat":43.28412,"lon":5.37515,"is_reserved":false,"is_disabled":false,"rental_uris":{"android":"levelo://app?vid=01873621-66c2-43af-8810-09f11e46034b","ios":"levelo://app?vid=01873621-66c2-43af-8810-09f11e46034b"},"vehicle_type_id":"4","last_reported":1730319041,"current_range_meters":10000,"station_id":"ce4bh412rcd13ifvqds0","pricing_plan_id":"cebpf4jnsgd1na2vs0mg"},{"bike_id":"4e56aed2-21a5-45c8-af95-efc825fda15f","system_id":"levelo_inurba_marseille","lat":43.29524,"lon":5.38535,"is_reserved":false,"is_disabled":false,"rental_uris":{"android":"levelo://app?vid=4e56aed2-21a5-45c8-af95-efc825fda15f","ios":"levelo://app?vid=4e56aed2-21a5-45c8-af95-efc825fda15f"},"vehicle_type_id":"4","last_reported":1730319041,"current_range_meters":11600,"station_id":"ce4bgih2rcd13ifvqba0","pricing_plan_id":"cebpf4jnsgd1na2vs0mg"},{"bike_id":"3c341a1b-93e3-4a5e-8c46-2e4238196d02","system_id":"levelo_inurba_marseille","lat":43.27912,"lon":5.38006,"is_reserved":false,"is_disabled":false,"rental_uris":{"android":"levelo://app?vid=3c341a1b-93e3-4a5e-8c46-2e4238196d02","ios":"levelo://app?vid=3c341a1b-93e3-4a5e-8c46-2e4238196d02"},"vehicle_type_id":"4","last_reported":1730319041,"current_range_meters":26000,"station_id":"ce4bhf92rcd13ifvqf50","pricing_plan_id":"cebpf4jnsgd1na2vs0mg"},{"bike_id":"1ace14c5-1992-46b1-87cf-4a1d3c62f592","system_id":"levelo_inurba_marseille","lat":43.28153,"lon":5.42631,"is_reserved":false,"is_disabled":false,"rental_uris":{"android":"levelo://app?vid=1ace14c5-1992-46b1-87cf-4a1d3c62f592","ios":"levelo://app?vid=1ace14c5-1992-46b1-87cf-4a1d3c62f592"},"vehicle_type_id":"4","last_reported":1730319041,"current_range_meters":20000,"station_id":"ce4bhnh2rcd13ifvqgug","pricing_plan_id":"cebpf4jnsgd1na2vs0mg"},{"bike_id":"0d1d919a-0ac6-4b40-add0-6ce675499ae9","system_id":"levelo_inurba_marseille","lat":43.2407,"lon":5.37767,"is_reserved":false,"is_disabled":false,"rental_uris":{"android":"levelo://app?vid=0d1d919a-0ac6-4b40-add0-6ce675499ae9","ios":"levelo://app?vid=0d1d919a-0ac6-4b40-add0-6ce675499ae9"},"vehicle_type_id":"4","last_reported":1730319041,"current_range_meters":14400,"station_id":"ce4bhnp2rcd13ifvqgvg","pricing_plan_id":"cebpf4jnsgd1na2vs0mg"},{"bike_id":"8785c527-ebc9-4d4b-a104-dc84f78b82df","system_id":"levelo_inurba_marseille","lat":43.24086,"lon":5.37737,"is_reserved":false,"is_disabled":false,"rental_uris":{"android":"levelo://app?vid=8785c527-ebc9-4d4b-a104-dc84f78b82df","ios":"levelo://app?vid=8785c527-ebc9-4d4b-a104-dc84f78b82df"},"vehicle_type_id":"4","last_reported":1730319041,"current_range_meters":6800,"station_id":"ce4bhnp2rcd13ifvqgvg","pricing_plan_id":"cebpf4jnsgd1na2vs0mg"},{"bike_id":"379d974e-51a1-4b04-b633-c4150016c54e","system_id":"levelo_inurba_marseille","lat":43.28409,"lon":5.37516,"is_reserved":false,"is_disabled":false,"rental_uris":{"android":"levelo://app?vid=379d974e-51a1-4b04-b633-c4150016c54e","ios":"levelo://app?vid=379d974e-51a1-4b04-b633-c4150016c54e"},"vehicle_type_id":"4","last_reported":1730319041,"current_range_meters":38000,"station_id":"ce4bh412rcd13ifvqds0","pricing_plan_id":"cebpf4jnsgd1na2vs0mg"},{"bike_id":"73b91a5c-462b-445d-ac2c-3b2ae6e44141","system_id":"levelo_inurba_marseille","lat":43.28661,"lon":5.36344,"is_reserved":false,"is_disabled":false,"rental_uris":{"android":"levelo://app?vid=73b91a5c-462b-445d-ac2c-3b2ae6e44141","ios":"levelo://app?vid=73b91a5c-462b-445d-ac2c-3b2ae6e44141"},"vehicle_type_id":"4","last_reported":1730319041,"current_range_meters":34800,"station_id":"ce4bhah2rcd13ifvqej0","pricing_plan_id":"cebpf4jnsgd1na2vs0mg"},{"bike_id":"96c434e9-836c-43d3-8467-cd2711b63433","system_id":"levelo_inurba_marseille","lat":43.270887,"lon":5.423466,"is_reserved":false,"is_disabled":false,"rental_uris":{"android":"levelo://app?vid=96c434e9-836c-43d3-8467-cd2711b63433","ios":"levelo://app?vid=96c434e9-836c-43d3-8467-cd2711b63433"},"vehicle_type_id":"4","last_reported":1730319041,"current_range_meters":36400,"station_id":"ce4bh492rcd13ifvqdug","pricing_plan_id":"cebpf4jnsgd1na2vs0mg"},{"bike_id":"68c21e97-2af1-47d0-9677-8b14c36e24b9","system_id":"levelo_inurba_marseille","lat":43.31722,"lon":5.42395,"is_reserved":false,"is_disabled":false,"rental_uris":{"android":"levelo://app?vid=68c21e97-2af1-47d0-9677-8b14c36e24b9","ios":"levelo://app?vid=68c21e97-2af1-47d0-9677-8b14c36e24b9"},"vehicle_type_id":"4","last_reported":1730319041,"current_range_meters":38800,"station_id":"ce4bhp92rcd13ifvqhbg","pricing_plan_id":"cebpf4jnsgd1na2vs0mg"},{"bike_id":"33d7239f-73a3-4ee6-886d-d4f39be7304a","system_id":"levelo_inurba_marseille","lat":43.31822,"lon":5.37432,"is_reserved":false,"is_disabled":false,"rental_uris":{"android":"levelo://app?vid=33d7239f-73a3-4ee6-886d-d4f39be7304a","ios":"levelo://app?vid=33d7239f-73a3-4ee6-886d-d4f39be7304a"},"vehicle_type_id":"4","last_reported":1730319041,"current_range_meters":17600,"station_id":"","pricing_plan_id":"cebpf4jnsgd1na2vs0mg"},{"bike_id":"c30c20a3-a003-4e47-981b-d4a01d18b8ed","system_id":"levelo_inurba_marseille","lat":43.24172,"lon":5.364,"is_reserved":false,"is_disabled":false,"rental_uris":{"android":"levelo://app?vid=c30c20a3-a003-4e47-981b-d4a01d18b8ed","ios":"levelo://app?vid=c30c20a3-a003-4e47-981b-d4a01d18b8ed"},"vehicle_type_id":"4","last_reported":1730319041,"current_range_meters":38400,"station_id":"cpo36qri1sfpv3e86is0","pricing_plan_id":"cebpf4jnsgd1na2vs0mg"},{"bike_id":"9edcd5ee-cd62-4f23-b16e-7e3d5548a910","system_id":"levelo_inurba_marseille","lat":43.29921,"lon":5.37655,"is_reserved":false,"is_disabled":false,"rental_uris":{"android":"levelo://app?vid=9edcd5ee-cd62-4f23-b16e-7e3d5548a910","ios":"levelo://app?vid=9edcd5ee-cd62-4f23-b16e-7e3d5548a910"},"vehicle_type_id":"4","last_reported":1730319041,"current_range_meters":12400,"station_id":"ce4bgl92rcd13ifvqbq0","pricing_plan_id":"cebpf4jnsgd1na2vs0mg"},{"bike_id":"d2e0efbb-61ff-424a-9cde-183324d21273","system_id":"levelo_inurba_marseille","lat":43.23966,"lon":5.36631,"is_reserved":false,"is_disabled":false,"rental_uris":{"android":"levelo://app?vid=d2e0efbb-61ff-424a-9cde-183324d21273","ios":"levelo://app?vid=d2e0efbb-61ff-424a-9cde-183324d21273"},"vehicle_type_id":"4","last_reported":1730319041,"current_range_meters":35600,"station_id":"ce4bhi12rcd13ifvqfp0","pricing_plan_id":"cebpf4jnsgd1na2vs0mg"},{"bike_id":"b1427b84-e67e-4730-8904-bf47b9afc8aa","system_id":"levelo_inurba_marseille","lat":43.30794,"lon":5.37644,"is_reserved":false,"is_disabled":false,"rental_uris":{"android":"levelo://app?vid=b1427b84-e67e-4730-8904-bf47b9afc8aa","ios":"levelo://app?vid=b1427b84-e67e-4730-8904-bf47b9afc8aa"},"vehicle_type_id":"4","last_reported":1730319041,"current_range_meters":24800,"station_id":"ce4bgv92rcd13ifvqcq0","pricing_plan_id":"cebpf4jnsgd1na2vs0mg"},{"bike_id":"b20fb1e4-4b79-4452-a809-6de7d5007f57","system_id":"levelo_inurba_marseille","lat":43.29175,"lon":5.3715,"is_reserved":false,"is_disabled":false,"rental_uris":{"android":"levelo://app?vid=b20fb1e4-4b79-4452-a809-6de7d5007f57","ios":"levelo://app?vid=b20fb1e4-4b79-4452-a809-6de7d5007f57"},"vehicle_type_id":"4","last_reported":1730319041,"current_range_meters":2000,"station_id":"ce4bha92rcd13ifvqeh0","pricing_plan_id":"cebpf4jnsgd1na2vs0mg"},{"bike_id":"2b6c68f3-ef95-416e-8a00-afd2715afd77","system_id":"levelo_inurba_marseille","lat":43.30641,"lon":5.40072,"is_reserved":false,"is_disabled":false,"rental_uris":{"android":"levelo://app?vid=2b6c68f3-ef95-416e-8a00-afd2715afd77","ios":"levelo://app?vid=2b6c68f3-ef95-416e-8a00-afd2715afd77"},"vehicle_type_id":"4","last_reported":1730319041,"current_range_meters":38800,"station_id":"ce4bh112rcd13ifvqda0","pricing_plan_id":"cebpf4jnsgd1na2vs0mg"},{"bike_id":"06be41f9-8626-41f4-bc00-6dec28012c26","system_id":"levelo_inurba_marseille","lat":43.29598,"lon":5.38103,"is_reserved":false,"is_disabled":false,"rental_uris":{"android":"levelo://app?vid=06be41f9-8626-41f4-bc00-6dec28012c26","ios":"levelo://app?vid=06be41f9-8626-41f4-bc00-6dec28012c26"},"vehicle_type_id":"4","last_reported":1730319041,"current_range_meters":39200,"station_id":"ce4bgl12rcd13ifvqbo0","pricing_plan_id":"cebpf4jnsgd1na2vs0mg"},{"bike_id":"0d4d4282-45da-4586-91b9-0c81e308bc66","system_id":"levelo_inurba_marseille","lat":43.30092,"lon":5.39078,"is_reserved":false,"is_disabled":false,"rental_uris":{"android":"levelo://app?vid=0d4d4282-45da-4586-91b9-0c81e308bc66","ios":"levelo://app?vid=0d4d4282-45da-4586-91b9-0c81e308bc66"},"vehicle_type_id":"4","last_reported":1730319041,"current_range_meters":14000,"station_id":"ce4bh192rcd13ifvqdb0","pricing_plan_id":"cebpf4jnsgd1na2vs0mg"},{"bike_id":"8fbee397-c726-4d42-ae6d-7e6a955a3eb5","system_id":"levelo_inurba_marseille","lat":43.2306,"lon":5.3549,"is_reserved":false,"is_disabled":false,"rental_uris":{"android":"levelo://app?vid=8fbee397-c726-4d42-ae6d-7e6a955a3eb5","ios":"levelo://app?vid=8fbee397-c726-4d42-ae6d-7e6a955a3eb5"},"vehicle_type_id":"4","last_reported":1730319041,"current_range_meters":38800,"station_id":"cpo3342slgdg3j2ifvpg","pricing_plan_id":"cebpf4jnsgd1na2vs0mg"},{"bike_id":"58e40eb8-71b3-4bfe-9852-2e56467aa978","system_id":"levelo_inurba_marseille","lat":43.29076,"lon":5.37171,"is_reserved":false,"is_disabled":false,"rental_uris":{"android":"levelo://app?vid=58e40eb8-71b3-4bfe-9852-2e56467aa978","ios":"levelo://app?vid=58e40eb8-71b3-4bfe-9852-2e56467aa978"},"vehicle_type_id":"4","last_reported":1730319041,"current_range_meters":40000,"station_id":"ce4bh5p2rcd13ifvqe4g","pricing_plan_id":"cebpf4jnsgd1na2vs0mg"},{"bike_id":"fea23d88-9bbb-4ffa-af08-7b03ca37348f","system_id":"levelo_inurba_marseille","lat":43.23187,"lon":5.40002,"is_reserved":false,"is_disabled":false,"rental_uris":{"android":"levelo://app?vid=fea23d88-9bbb-4ffa-af08-7b03ca37348f","ios":"levelo://app?vid=fea23d88-9bbb-4ffa-af08-7b03ca37348f"},"vehicle_type_id":"4","last_reported":1730319041,"current_range_meters":28800,"station_id":"ce4bhn12rcd13ifvqgqg","pricing_plan_id":"cebpf4jnsgd1na2vs0mg"},{"bike_id":"9f311678-4272-4cd4-bcdf-3f3fc6153097","system_id":"levelo_inurba_marseille","lat":43.29966,"lon":5.38501,"is_reserved":false,"is_disabled":false,"rental_uris":{"android":"levelo://app?vid=9f311678-4272-4cd4-bcdf-3f3fc6153097","ios":"levelo://app?vid=9f311678-4272-4cd4-bcdf-3f3fc6153097"},"vehicle_type_id":"4","last_reported":1730319041,"current_range_meters":20000,"station_id":"ce4bgj92rcd13ifvqbd0","pricing_plan_id":"cebpf4jnsgd1na2vs0mg"},{"bike_id":"160c3125-d109-49e3-a687-ede78b99dea2","system_id":"levelo_inurba_marseille","lat":43.23195,"lon":5.35543,"is_reserved":false,"is_disabled":false,"rental_uris":{"android":"levelo://app?vid=160c3125-d109-49e3-a687-ede78b99dea2","ios":"levelo://app?vid=160c3125-d109-49e3-a687-ede78b99dea2"},"vehicle_type_id":"4","last_reported":1730319041,"current_range_meters":38000,"station_id":"ce4bhu92rcd13ifvqi70","pricing_plan_id":"cebpf4jnsgd1na2vs0mg"},{"bike_id":"c1bf4a91-a646-4162-907b-90b1796a78e8","system_id":"levelo_inurba_marseille","lat":43.29892,"lon":5.43657,"is_reserved":false,"is_disabled":false,"rental_uris":{"android":"levelo://app?vid=c1bf4a91-a646-4162-907b-90b1796a78e8","ios":"levelo://app?vid=c1bf4a91-a646-4162-907b-90b1796a78e8"},"vehicle_type_id":"4","last_reported":1730319041,"current_range_meters":38000,"station_id":"ce4bhpp2rcd13ifvqhfg","pricing_plan_id":"cebpf4jnsgd1na2vs0mg"},{"bike_id":"7eb31cb5-824d-4530-a724-655bf9400806","system_id":"levelo_inurba_marseille","lat":43.28843,"lon":5.35845,"is_reserved":false,"is_disabled":false,"rental_uris":{"android":"levelo://app?vid=7eb31cb5-824d-4530-a724-655bf9400806","ios":"levelo://app?vid=7eb31cb5-824d-4530-a724-655bf9400806"},"vehicle_type_id":"4","last_reported":1730319041,"current_range_meters":12800,"station_id":"ce4bhb12rcd13ifvqem0","pricing_plan_id":"cebpf4jnsgd1na2vs0mg"},{"bike_id":"a5531b79-303f-4b62-af9b-20f9b33630e4","system_id":"levelo_inurba_marseille","lat":43.29418,"lon":5.38628,"is_reserved":false,"is_disabled":false,"rental_uris":{"android":"levelo://app?vid=a5531b79-303f-4b62-af9b-20f9b33630e4","ios":"levelo://app?vid=a5531b79-303f-4b62-af9b-20f9b33630e4"},"vehicle_type_id":"4","last_reported":1730319041,"current_range_meters":8400,"station_id":"ce4bh2h2rcd13ifvqdh0","pricing_plan_id":"cebpf4jnsgd1na2vs0mg"},{"bike_id":"d08dcb05-94fa-46fa-a9b5-b62e0c8f0fa5","system_id":"levelo_inurba_marseille","lat":43.30327,"lon":5.40434,"is_reserved":false,"is_disabled":false,"rental_uris":{"android":"levelo://app?vid=d08dcb05-94fa-46fa-a9b5-b62e0c8f0fa5","ios":"levelo://app?vid=d08dcb05-94fa-46fa-a9b5-b62e0c8f0fa5"},"vehicle_type_id":"4","last_reported":1730319041,"current_range_meters":11200,"station_id":"ce4bh012rcd13ifvqd10","pricing_plan_id":"cebpf4jnsgd1na2vs0mg"},{"bike_id":"d10e0873-5b48-4de1-be1a-c88c819ef6f0","system_id":"levelo_inurba_marseille","lat":43.340515,"lon":5.409918,"is_reserved":false,"is_disabled":false,"rental_uris":{"android":"levelo://app?vid=d10e0873-5b48-4de1-be1a-c88c819ef6f0","ios":"levelo://app?vid=d10e0873-5b48-4de1-be1a-c88c819ef6f0"},"vehicle_type_id":"4","last_reported":1730319041,"current_range_meters":4400,"station_id":"ce4bhqh2rcd13ifvqhlg","pricing_plan_id":"cebpf4jnsgd1na2vs0mg"},{"bike_id":"a05ba2eb-182a-4b34-8c0b-1dc715f18bf5","system_id":"levelo_inurba_marseille","lat":43.27945,"lon":5.41046,"is_reserved":false,"is_disabled":false,"rental_uris":{"android":"levelo://app?vid=a05ba2eb-182a-4b34-8c0b-1dc715f18bf5","ios":"levelo://app?vid=a05ba2eb-182a-4b34-8c0b-1dc715f18bf5"},"vehicle_type_id":"4","last_reported":1730319041,"current_range_meters":17200,"station_id":"ce4bhnp2rcd13ifvqh0g","pricing_plan_id":"cebpf4jnsgd1na2vs0mg"},{"bike_id":"3127cf4a-ffae-4fb2-8bf0-a64dafac008e","system_id":"levelo_inurba_marseille","lat":43.29532,"lon":5.38539,"is_reserved":false,"is_disabled":false,"rental_uris":{"android":"levelo://app?vid=3127cf4a-ffae-4fb2-8bf0-a64dafac008e","ios":"levelo://app?vid=3127cf4a-ffae-4fb2-8bf0-a64dafac008e"},"vehicle_type_id":"4","last_reported":1730319041,"current_range_meters":21600,"station_id":"ce4bgih2rcd13ifvqba0","pricing_plan_id":"cebpf4jnsgd1na2vs0mg"},{"bike_id":"c4a47581-2099-4e6e-b3ec-751ed472bddb","system_id":"levelo_inurba_marseille","lat":43.29259,"lon":5.38437,"is_reserved":false,"is_disabled":false,"rental_uris":{"android":"levelo://app?vid=c4a47581-2099-4e6e-b3ec-751ed472bddb","ios":"levelo://app?vid=c4a47581-2099-4e6e-b3ec-751ed472bddb"},"vehicle_type_id":"4","last_reported":1730319041,"current_range_meters":30400,"station_id":"ce4bh692rcd13ifvqea0","pricing_plan_id":"cebpf4jnsgd1na2vs0mg"},{"bike_id":"ec1e4f1b-7275-421f-a7fa-e29f21f69d87","system_id":"levelo_inurba_marseille","lat":43.28465,"lon":5.35891,"is_reserved":false,"is_disabled":false,"rental_uris":{"android":"levelo://app?vid=ec1e4f1b-7275-421f-a7fa-e29f21f69d87","ios":"levelo://app?vid=ec1e4f1b-7275-421f-a7fa-e29f21f69d87"},"vehicle_type_id":"4","last_reported":1730319041,"current_range_meters":12400,"station_id":"ce4bhah2rcd13ifvqei0","pricing_plan_id":"cebpf4jnsgd1na2vs0mg"},{"bike_id":"c9511f39-ca70-4b78-a26d-1a6d45da226b","system_id":"levelo_inurba_marseille","lat":43.29252,"lon":5.38443,"is_reserved":false,"is_disabled":false,"rental_uris":{"android":"levelo://app?vid=c9511f39-ca70-4b78-a26d-1a6d45da226b","ios":"levelo://app?vid=c9511f39-ca70-4b78-a26d-1a6d45da226b"},"vehicle_type_id":"4","last_reported":1730319041,"current_range_meters":16400,"station_id":"ce4bh692rcd13ifvqea0","pricing_plan_id":"cebpf4jnsgd1na2vs0mg"},{"bike_id":"07ade4e1-5357-41fa-9282-9fdb3d51a0af","system_id":"levelo_inurba_marseille","lat":43.28411,"lon":5.37517,"is_reserved":false,"is_disabled":false,"rental_uris":{"android":"levelo://app?vid=07ade4e1-5357-41fa-9282-9fdb3d51a0af","ios":"levelo://app?vid=07ade4e1-5357-41fa-9282-9fdb3d51a0af"},"vehicle_type_id":"4","last_reported":1730319041,"current_range_meters":33600,"station_id":"ce4bh412rcd13ifvqds0","pricing_plan_id":"cebpf4jnsgd1na2vs0mg"},{"bike_id":"2e809025-5e8a-42c1-bf86-4d20f51e1fb4","system_id":"levelo_inurba_marseille","lat":43.28077,"lon":5.39659,"is_reserved":false,"is_disabled":false,"rental_uris":{"android":"levelo://app?vid=2e809025-5e8a-42c1-bf86-4d20f51e1fb4","ios":"levelo://app?vid=2e809025-5e8a-42c1-bf86-4d20f51e1fb4"},"vehicle_type_id":"4","last_reported":1730319041,"current_range_meters":32400,"station_id":"ce4bho12rcd13ifvqh2g","pricing_plan_id":"cebpf4jnsgd1na2vs0mg"},{"bike_id":"bfb1a2f2-5dd7-404a-90bb-be56759f829f","system_id":"levelo_inurba_marseille","lat":43.28012,"lon":5.41646,"is_reserved":false,"is_disabled":false,"rental_uris":{"android":"levelo://app?vid=bfb1a2f2-5dd7-404a-90bb-be56759f829f","ios":"levelo://app?vid=bfb1a2f2-5dd7-404a-90bb-be56759f829f"},"vehicle_type_id":"4","last_reported":1730319041,"current_range_meters":35600,"station_id":"ce4bho12rcd13ifvqh1g","pricing_plan_id":"cebpf4jnsgd1na2vs0mg"},{"bike_id":"2d4ec3cc-69dc-4cf2-b1fc-40e0c2eec644","system_id":"levelo_inurba_marseille","lat":43.27952,"lon":5.41048,"is_reserved":false,"is_disabled":false,"rental_uris":{"android":"levelo://app?vid=2d4ec3cc-69dc-4cf2-b1fc-40e0c2eec644","ios":"levelo://app?vid=2d4ec3cc-69dc-4cf2-b1fc-40e0c2eec644"},"vehicle_type_id":"4","last_reported":1730319041,"current_range_meters":36800,"station_id":"ce4bhnp2rcd13ifvqh0g","pricing_plan_id":"cebpf4jnsgd1na2vs0mg"},{"bike_id":"5d807717-477f-4424-a938-9705f88ffbaa","system_id":"levelo_inurba_marseille","lat":43.296967,"lon":5.373499,"is_reserved":false,"is_disabled":false,"rental_uris":{"android":"levelo://app?vid=5d807717-477f-4424-a938-9705f88ffbaa","ios":"levelo://app?vid=5d807717-477f-4424-a938-9705f88ffbaa"},"vehicle_type_id":"4","last_reported":1730319041,"current_range_meters":37600,"station_id":"ce4bgk12rcd13ifvqbj0","pricing_plan_id":"cebpf4jnsgd1na2vs0mg"},{"bike_id":"e8293b4e-059a-4396-9bed-846c599622d5","system_id":"levelo_inurba_marseille","lat":43.27166,"lon":5.40988,"is_reserved":false,"is_disabled":false,"rental_uris":{"android":"levelo://app?vid=e8293b4e-059a-4396-9bed-846c599622d5","ios":"levelo://app?vid=e8293b4e-059a-4396-9bed-846c599622d5"},"vehicle_type_id":"4","last_reported":1730319041,"current_range_meters":30400,"station_id":"ce4bhl12rcd13ifvqgf0","pricing_plan_id":"cebpf4jnsgd1na2vs0mg"},{"bike_id":"f39afa2a-055f-44a9-b09c-11920c641e3c","system_id":"levelo_inurba_marseille","lat":43.26559,"lon":5.37281,"is_reserved":false,"is_disabled":false,"rental_uris":{"android":"levelo://app?vid=f39afa2a-055f-44a9-b09c-11920c641e3c","ios":"levelo://app?vid=f39afa2a-055f-44a9-b09c-11920c641e3c"},"vehicle_type_id":"4","last_reported":1730319041,"current_range_meters":36000,"station_id":"ce4bhg12rcd13ifvqf70","pricing_plan_id":"cebpf4jnsgd1na2vs0mg"},{"bike_id":"a309ecd6-9a4e-42cd-ba82-bcedad3aed2a","system_id":"levelo_inurba_marseille","lat":43.28567,"lon":5.39492,"is_reserved":false,"is_disabled":false,"rental_uris":{"android":"levelo://app?vid=a309ecd6-9a4e-42cd-ba82-bcedad3aed2a","ios":"levelo://app?vid=a309ecd6-9a4e-42cd-ba82-bcedad3aed2a"},"vehicle_type_id":"4","last_reported":1730319041,"current_range_meters":9600,"station_id":"ce4bh292rcd13ifvqdg0","pricing_plan_id":"cebpf4jnsgd1na2vs0mg"},{"bike_id":"a5001193-9024-4db1-ba9b-9d4c76328d94","system_id":"levelo_inurba_marseille","lat":43.309296,"lon":5.401441,"is_reserved":false,"is_disabled":false,"rental_uris":{"android":"levelo://app?vid=a5001193-9024-4db1-ba9b-9d4c76328d94","ios":"levelo://app?vid=a5001193-9024-4db1-ba9b-9d4c76328d94"},"vehicle_type_id":"4","last_reported":1730319041,"current_range_meters":36400,"station_id":"ce4bgvp2rcd13ifvqct0","pricing_plan_id":"cebpf4jnsgd1na2vs0mg"},{"bike_id":"034eab16-d28f-488a-a9fe-7910a45c3edb","system_id":"levelo_inurba_marseille","lat":43.28429,"lon":5.3918,"is_reserved":false,"is_disabled":false,"rental_uris":{"android":"levelo://app?vid=034eab16-d28f-488a-a9fe-7910a45c3edb","ios":"levelo://app?vid=034eab16-d28f-488a-a9fe-7910a45c3edb"},"vehicle_type_id":"4","last_reported":1730319041,"current_range_meters":11200,"station_id":"ce4bhoh2rcd13ifvqh5g","pricing_plan_id":"cebpf4jnsgd1na2vs0mg"},{"bike_id":"9fd4b2b2-0a0e-491b-83e6-72c7bb4b5517","system_id":"levelo_inurba_marseille","lat":43.29025,"lon":5.37562,"is_reserved":false,"is_disabled":false,"rental_uris":{"android":"levelo://app?vid=9fd4b2b2-0a0e-491b-83e6-72c7bb4b5517","ios":"levelo://app?vid=9fd4b2b2-0a0e-491b-83e6-72c7bb4b5517"},"vehicle_type_id":"4","last_reported":1730319041,"current_range_meters":9200,"station_id":"ce4bh692rcd13ifvqe90","pricing_plan_id":"cebpf4jnsgd1na2vs0mg"},{"bike_id":"06d2168c-a1af-4009-b8fd-9a6b7dd7757b","system_id":"levelo_inurba_marseille","lat":43.29265,"lon":5.38439,"is_reserved":false,"is_disabled":false,"rental_uris":{"android":"levelo://app?vid=06d2168c-a1af-4009-b8fd-9a6b7dd7757b","ios":"levelo://app?vid=06d2168c-a1af-4009-b8fd-9a6b7dd7757b"},"vehicle_type_id":"4","last_reported":1730319041,"current_range_meters":31200,"station_id":"ce4bh692rcd13ifvqea0","pricing_plan_id":"cebpf4jnsgd1na2vs0mg"},{"bike_id":"00570a9a-70dc-4fd9-a21d-b33665529146","system_id":"levelo_inurba_marseille","lat":43.23971,"lon":5.36635,"is_reserved":false,"is_disabled":false,"rental_uris":{"android":"levelo://app?vid=00570a9a-70dc-4fd9-a21d-b33665529146","ios":"levelo://app?vid=00570a9a-70dc-4fd9-a21d-b33665529146"},"vehicle_type_id":"4","last_reported":1730319041,"current_range_meters":39200,"station_id":"ce4bhi12rcd13ifvqfp0","pricing_plan_id":"cebpf4jnsgd1na2vs0mg"},{"bike_id":"9592eb1a-4a46-4535-b3fe-0af141dace43","system_id":"levelo_inurba_marseille","lat":43.23961,"lon":5.36638,"is_reserved":false,"is_disabled":false,"rental_uris":{"android":"levelo://app?vid=9592eb1a-4a46-4535-b3fe-0af141dace43","ios":"levelo://app?vid=9592eb1a-4a46-4535-b3fe-0af141dace43"},"vehicle_type_id":"4","last_reported":1730319041,"current_range_meters":30000,"station_id":"ce4bhi12rcd13ifvqfp0","pricing_plan_id":"cebpf4jnsgd1na2vs0mg"},{"bike_id":"81b2834c-191c-4999-ad54-e0e851a62353","system_id":"levelo_inurba_marseille","lat":43.27816,"lon":5.4071,"is_reserved":false,"is_disabled":false,"rental_uris":{"android":"levelo://app?vid=81b2834c-191c-4999-ad54-e0e851a62353","ios":"levelo://app?vid=81b2834c-191c-4999-ad54-e0e851a62353"},"vehicle_type_id":"4","last_reported":1730319041,"current_range_meters":38000,"station_id":"ce4bhnh2rcd13ifvqgtg","pricing_plan_id":"cebpf4jnsgd1na2vs0mg"},{"bike_id":"648717b2-fb29-4c39-8ef4-947345253620","system_id":"levelo_inurba_marseille","lat":43.23968,"lon":5.36633,"is_reserved":false,"is_disabled":false,"rental_uris":{"android":"levelo://app?vid=648717b2-fb29-4c39-8ef4-947345253620","ios":"levelo://app?vid=648717b2-fb29-4c39-8ef4-947345253620"},"vehicle_type_id":"4","last_reported":1730319041,"current_range_meters":25600,"station_id":"ce4bhi12rcd13ifvqfp0","pricing_plan_id":"cebpf4jnsgd1na2vs0mg"},