{"last_updated":1779022525,"ttl":60,"version":"2.2","data":{"bikes":[{"bike_id":"7fd7c1bb-0ed2-4eb7-959c-daab2eec52f3","system_id":"levelo_inurba_marseille","lat":43.24584,"lon":5.39528,"is_reserved":false,"is_disabled":true,"rental_uris":{"android":"levelo://app?vid=7fd7c1bb-0ed2-4eb7-959c-daab2eec52f3","ios":"levelo://app?vid=7fd7c1bb-0ed2-4eb7-959c-daab2eec52f3"},"vehicle_type_id":"4","last_reported":1779022526,"current_range_meters":2800,"station_id":"ce4bhlp2rcd13ifvqgjg","pricing_plan_id":"cebpf4jnsgd1na2vs0mg"},{"bike_id":"6dc16f1d-e4da-4a93-8782-57eeb7ef112c","system_id":"levelo_inurba_marseille","lat":43.24936,"lon":5.40474,"is_reserved":false,"is_disabled":false,"rental_uris":{"android":"levelo://app?vid=6dc16f1d-e4da-4a93-8782-57eeb7ef112c","ios":"levelo://app?vid=6dc16f1d-e4da-4a93-8782-57eeb7ef112c"},"vehicle_type_id":"4","last_reported":1779022526,"current_range_meters":2800,"station_id":"st_d2ngiaodas8pm72gd1h0","pricing_plan_id":"cebpf4jnsgd1na2vs0mg"},{"bike_id":"9328df09-7c77-4ef9-a326-cd1cda9dd29d","system_id":"levelo_inurba_marseille","lat":43.3077,"lon":5.38514,"is_reserved":false,"is_disabled":false,"rental_uris":{"android":"levelo://app?vid=9328df09-7c77-4ef9-a326-cd1cda9dd29d","ios":"levelo://app?vid=9328df09-7c77-4ef9-a326-cd1cda9dd29d"},"vehicle_type_id":"4","last_reported":1779022526,"current_range_meters":2800,"station_id":"","pricing_plan_id":"cebpf4jnsgd1na2vs0mg"},{"bike_id":"3a229d51-2988-4927-a3b4-da503305749c","system_id":"levelo_inurba_marseille","lat":43.23813,"lon":5.36642,"is_reserved":false,"is_disabled":false,"rental_uris":{"android":"levelo://app?vid=3a229d51-2988-4927-a3b4-da503305749c","ios":"levelo://app?vid=3a229d51-2988-4927-a3b4-da503305749c"},"vehicle_type_id":"4","last_reported":1779022526,"current_range_meters":2800,"station_id":"st_d3nk18o9ro0c73en2l3g","pricing_plan_id":"cebpf4jnsgd1na2vs0mg"},{"bike_id":"b1b1c9ad-0e11-41a8-95b1-ee1803460284","system_id":"levelo_inurba_marseille","lat":43.33547,"lon":5.37464,"is_reserved":false,"is_disabled":false,"rental_uris":{"android":"levelo://app?vid=b1b1c9ad-0e11-41a8-95b1-ee1803460284","ios":"levelo://app?vid=b1b1c9ad-0e11-41a8-95b1-ee1803460284"},"vehicle_type_id":"4","last_reported":1779022526,"current_range_meters":2800,"station_id":"st_d46tts09ee8s73dlu43g","pricing_plan_id":"cebpf4jnsgd1na2vs0mg"},{"bike_id":"af129f76-da70-4ffd-baf7-9be53bfd5d5d","system_id":"levelo_inurba_marseille","lat":43.26552,"lon":5.37293,"is_reserved":false,"is_disabled":false,"rental_uris":{"android":"levelo://app?vid=af129f76-da70-4ffd-baf7-9be53bfd5d5d","ios":"levelo://app?vid=af129f76-da70-4ffd-baf7-9be53bfd5d5d"},"vehicle_type_id":"4","last_reported":1779022526,"current_range_meters":2800,"station_id":"ce4bhg12rcd13ifvqf70","pricing_plan_id":"cebpf4jnsgd1na2vs0mg"},{"bike_id":"5b61ad3d-c4b3-4bf0-9170-da55ed29dbbb","system_id":"levelo_inurba_marseille","lat":43.3074,"lon":5.39238,"is_reserved":false,"is_disabled":false,"rental_uris":{"android":"levelo://app?vid=5b61ad3d-c4b3-4bf0-9170-da55ed29dbbb","ios":"levelo://app?vid=5b61ad3d-c4b3-4bf0-9170-da55ed29dbbb"},"vehicle_type_id":"4","last_reported":1779022526,"current_range_meters":2800,"station_id":"","pricing_plan_id":"cebpf4jnsgd1na2vs0mg"},{"bike_id":"dc437964-578c-4f7a-be1e-9a5b7abec9f5","system_id":"levelo_inurba_marseille","lat":43.2454,"lon":5.37615,"is_reserved":false,"is_disabled":false,"rental_uris":{"android":"levelo://app?vid=dc437964-578c-4f7a-be1e-9a5b7abec9f5","ios":"levelo://app?vid=dc437964-578c-4f7a-be1e-9a5b7abec9f5"},"vehicle_type_id":"4","last_reported":1779022526,"current_range_meters":2800,"station_id":"","pricing_plan_id":"cebpf4jnsgd1na2vs0mg"},{"bike_id":"2f135b37-3602-4330-8c13-5a80ab6197c1","system_id":"levelo_inurba_marseille","lat":43.2695,"lon":5.38946,"is_reserved":false,"is_disabled":false,"rental_uris":{"android":"levelo://app?vid=2f135b37-3602-4330-8c13-5a80ab6197c1","ios":"levelo://app?vid=2f135b37-3602-4330-8c13-5a80ab6197c1"},"vehicle_type_id":"4","last_reported":1779022526,"current_range_meters":2800,"station_id":"ce4bhhh2rcd13ifvqfl0","pricing_plan_id":"cebpf4jnsgd1na2vs0mg"},{"bike_id":"13d8c240-8d5c-4448-8712-2109fc96bf1e","system_id":"levelo_inurba_marseille","lat":43.2257,"lon":5.41628,"is_reserved":false,"is_disabled":false,"rental_uris":{"android":"levelo://app?vid=13d8c240-8d5c-4448-8712-2109fc96bf1e","ios":"levelo://app?vid=13d8c240-8d5c-4448-8712-2109fc96bf1e"},"vehicle_type_id":"4","last_reported":1779022526,"current_range_meters":3200,"station_id":"st_d2o4gvlbi1j2169b742g","pricing_plan_id":"cebpf4jnsgd1na2vs0mg"},{"bike_id":"6e7b9d2e-4ef1-43cb-b344-df85c95d538f","system_id":"levelo_inurba_marseille","lat":43.24635,"lon":5.43144,"is_reserved":false,"is_disabled":false,"rental_uris":{"android":"levelo://app?vid=6e7b9d2e-4ef1-43cb-b344-df85c95d538f","ios":"levelo://app?vid=6e7b9d2e-4ef1-43cb-b344-df85c95d538f"},"vehicle_type_id":"4","last_reported":1779022526,"current_range_meters":3200,"station_id":"st_d2m6c4gdas8pm72e190g","pricing_plan_id":"cebpf4jnsgd1na2vs0mg"},{"bike_id":"2c16faf4-4152-4d1b-bc38-7eb92ab9aa56","system_id":"levelo_inurba_marseille","lat":43.23984,"lon":5.36614,"is_reserved":false,"is_disabled":false,"rental_uris":{"android":"levelo://app?vid=2c16faf4-4152-4d1b-bc38-7eb92ab9aa56","ios":"levelo://app?vid=2c16faf4-4152-4d1b-bc38-7eb92ab9aa56"},"vehicle_type_id":"4","last_reported":1779022526,"current_range_meters":3200,"station_id":"ce4bhi12rcd13ifvqfp0","pricing_plan_id":"cebpf4jnsgd1na2vs0mg"},{"bike_id":"b9fc383d-7675-4ac1-96a8-b14863e064c9","system_id":"levelo_inurba_marseille","lat":43.31309,"lon":5.37276,"is_reserved":false,"is_disabled":false,"rental_uris":{"android":"levelo://app?vid=b9fc383d-7675-4ac1-96a8-b14863e064c9","ios":"levelo://app?vid=b9fc383d-7675-4ac1-96a8-b14863e064c9"},"vehicle_type_id":"4","last_reported":1779022526,"current_range_meters":3200,"station_id":"","pricing_plan_id":"cebpf4jnsgd1na2vs0mg"},{"bike_id":"2ee809bb-d63f-4087-b626-672eb38eefa3","system_id":"levelo_inurba_marseille","lat":43.2722,"lon":5.39191,"is_reserved":false,"is_disabled":false,"rental_uris":{"android":"levelo://app?vid=2ee809bb-d63f-4087-b626-672eb38eefa3","ios":"levelo://app?vid=2ee809bb-d63f-4087-b626-672eb38eefa3"},"vehicle_type_id":"4","last_reported":1779022526,"current_range_meters":3200,"station_id":"ce4bhhp2rcd13ifvqfm0","pricing_plan_id":"cebpf4jnsgd1na2vs0mg"},{"bike_id":"668be714-b1b0-4a0f-9463-f5a0dd695346","system_id":"levelo_inurba_marseille","lat":43.27974,"lon":5.36341,"is_reserved":false,"is_disabled":false,"rental_uris":{"android":"levelo://app?vid=668be714-b1b0-4a0f-9463-f5a0dd695346","ios":"levelo://app?vid=668be714-b1b0-4a0f-9463-f5a0dd695346"},"vehicle_type_id":"4","last_reported":1779022526,"current_range_meters":3200,"station_id":"","pricing_plan_id":"cebpf4jnsgd1na2vs0mg"},{"bike_id":"ed50d361-1e97-4bd9-a7e1-bb7a3f76a74b","system_id":"levelo_inurba_marseille","lat":43.25492,"lon":5.37648,"is_reserved":false,"is_disabled":false,"rental_uris":{"android":"levelo://app?vid=ed50d361-1e97-4bd9-a7e1-bb7a3f76a74b","ios":"levelo://app?vid=ed50d361-1e97-4bd9-a7e1-bb7a3f76a74b"},"vehicle_type_id":"4","last_reported":1779022526,"current_range_meters":3600,"station_id":"ce4bhh12rcd13ifvqff0","pricing_plan_id":"cebpf4jnsgd1na2vs0mg"},{"bike_id":"6031a3ca-9feb-4ef0-93e7-a84c42b52ac6","system_id":"levelo_inurba_marseille","lat":43.28271,"lon":5.3508,"is_reserved":false,"is_disabled":false,"rental_uris":{"android":"levelo://app?vid=6031a3ca-9feb-4ef0-93e7-a84c42b52ac6","ios":"levelo://app?vid=6031a3ca-9feb-4ef0-93e7-a84c42b52ac6"},"vehicle_type_id":"4","last_reported":1779022526,"current_range_meters":3600,"station_id":"ce4bhbp2rcd13ifvqerg","pricing_plan_id":"cebpf4jnsgd1na2vs0mg"},{"bike_id":"45cedd21-335f-45f1-88a1-52644f5449ee","system_id":"levelo_inurba_marseille","lat":43.24808,"lon":5.37454,"is_reserved":false,"is_disabled":false,"rental_uris":{"android":"levelo://app?vid=45cedd21-335f-45f1-88a1-52644f5449ee","ios":"levelo://app?vid=45cedd21-335f-45f1-88a1-52644f5449ee"},"vehicle_type_id":"4","last_reported":1779022526,"current_range_meters":3600,"station_id":"ce4bhgh2rcd13ifvqfb0","pricing_plan_id":"cebpf4jnsgd1na2vs0mg"},{"bike_id":"382ff4b9-2418-4168-8893-5755275d56e3","system_id":"levelo_inurba_marseille","lat":43.29229,"lon":5.3608,"is_reserved":false,"is_disabled":false,"rental_uris":{"android":"levelo://app?vid=382ff4b9-2418-4168-8893-5755275d56e3","ios":"levelo://app?vid=382ff4b9-2418-4168-8893-5755275d56e3"},"vehicle_type_id":"4","last_reported":1779022526,"current_range_meters":3600,"station_id":"ce4bhbh2rcd13ifvqeqg","pricing_plan_id":"cebpf4jnsgd1na2vs0mg"},{"bike_id":"9ed94da8-b622-4ab0-ae02-edb7323ea989","system_id":"levelo_inurba_marseille","lat":43.25179,"lon":5.37507,"is_reserved":false,"is_disabled":false,"rental_uris":{"android":"levelo://app?vid=9ed94da8-b622-4ab0-ae02-edb7323ea989","ios":"levelo://app?vid=9ed94da8-b622-4ab0-ae02-edb7323ea989"},"vehicle_type_id":"4","last_reported":1779022526,"current_range_meters":3600,"station_id":"","pricing_plan_id":"cebpf4jnsgd1na2vs0mg"},{"bike_id":"810ef53a-5aff-49f3-99db-34213da1b1cf","system_id":"levelo_inurba_marseille","lat":43.28707,"lon":5.46676,"is_reserved":false,"is_disabled":false,"rental_uris":{"android":"levelo://app?vid=810ef53a-5aff-49f3-99db-34213da1b1cf","ios":"levelo://app?vid=810ef53a-5aff-49f3-99db-34213da1b1cf"},"vehicle_type_id":"4","last_reported":1779022526,"current_range_meters":3600,"station_id":"st_d6tc3vkotcvc738tfjhg","pricing_plan_id":"cebpf4jnsgd1na2vs0mg"},{"bike_id":"bb974f9b-34ba-417f-b373-bce2024a8062","system_id":"levelo_inurba_marseille","lat":43.211846,"lon":5.350833,"is_reserved":false,"is_disabled":false,"rental_uris":{"android":"levelo://app?vid=bb974f9b-34ba-417f-b373-bce2024a8062","ios":"levelo://app?vid=bb974f9b-34ba-417f-b373-bce2024a8062"},"vehicle_type_id":"4","last_reported":1779022526,"current_range_meters":3600,"station_id":"st_cvj6sg6p6f1abm77japg","pricing_plan_id":"cebpf4jnsgd1na2vs0mg"},{"bike_id":"3c3d7722-d84d-4727-97ab-4f8f34d3c901","system_id":"levelo_inurba_marseille","lat":43.250086,"lon":5.389324,"is_reserved":false,"is_disabled":false,"rental_uris":{"android":"levelo://app?vid=3c3d7722-d84d-4727-97ab-4f8f34d3c901","ios":"levelo://app?vid=3c3d7722-d84d-4727-97ab-4f8f34d3c901"},"vehicle_type_id":"4","last_reported":1779022526,"current_range_meters":3600,"station_id":"ce4bhgp2rcd13ifvqfd0","pricing_plan_id":"cebpf4jnsgd1na2vs0mg"},{"bike_id":"458a84e5-1d18-4800-844a-22918065535a","system_id":"levelo_inurba_marseille","lat":43.21186,"lon":5.35091,"is_reserved":false,"is_disabled":false,"rental_uris":{"android":"levelo://app?vid=458a84e5-1d18-4800-844a-22918065535a","ios":"levelo://app?vid=458a84e5-1d18-4800-844a-22918065535a"},"vehicle_type_id":"4","last_reported":1779022526,"current_range_meters":3600,"station_id":"st_cvj6sg6p6f1abm77japg","pricing_plan_id":"cebpf4jnsgd1na2vs0mg"},{"bike_id":"988eedb6-3351-4389-806b-f5b991f40449","system_id":"levelo_inurba_marseille","lat":43.290026,"lon":5.356166,"is_reserved":false,"is_disabled":false,"rental_uris":{"android":"levelo://app?vid=988eedb6-3351-4389-806b-f5b991f40449","ios":"levelo://app?vid=988eedb6-3351-4389-806b-f5b991f40449"},"vehicle_type_id":"4","last_reported":1779022526,"current_range_meters":3600,"station_id":"ce4bhb92rcd13ifvqen0","pricing_plan_id":"cebpf4jnsgd1na2vs0mg"},{"bike_id":"c091a819-21d8-46ac-8161-23f60b78cf02","system_id":"levelo_inurba_marseille","lat":43.27602,"lon":5.36153,"is_reserved":false,"is_disabled":true,"rental_uris":{"android":"levelo://app?vid=c091a819-21d8-46ac-8161-23f60b78cf02","ios":"levelo://app?vid=c091a819-21d8-46ac-8161-23f60b78cf02"},"vehicle_type_id":"4","last_reported":1779022526,"current_range_meters":4000,"station_id":"ce4bgj92rcd13ifvqbe0","pricing_plan_id":"cebpf4jnsgd1na2vs0mg"},{"bike_id":"b4a7c6b2-3526-483d-a36e-8f7263378ebc","system_id":"levelo_inurba_marseille","lat":43.24388,"lon":5.37053,"is_reserved":false,"is_disabled":false,"rental_uris":{"android":"levelo://app?vid=b4a7c6b2-3526-483d-a36e-8f7263378ebc","ios":"levelo://app?vid=b4a7c6b2-3526-483d-a36e-8f7263378ebc"},"vehicle_type_id":"4","last_reported":1779022526,"current_range_meters":4000,"station_id":"ce4bhhh2rcd13ifvqfk0","pricing_plan_id":"cebpf4jnsgd1na2vs0mg"},{"bike_id":"a942035f-8519-4924-9de0-7784af08f8fa","system_id":"levelo_inurba_marseille","lat":43.29875,"lon":5.39731,"is_reserved":false,"is_disabled":false,"rental_uris":{"android":"levelo://app?vid=a942035f-8519-4924-9de0-7784af08f8fa","ios":"levelo://app?vid=a942035f-8519-4924-9de0-7784af08f8fa"},"vehicle_type_id":"4","last_reported":1779022526,"current_range_meters":4000,"station_id":"ce4bh0h2rcd13ifvqd50","pricing_plan_id":"cebpf4jnsgd1na2vs0mg"},{"bike_id":"616353f1-4754-4f57-9465-e46d49d24354","system_id":"levelo_inurba_marseille","lat":43.33627,"lon":5.36305,"is_reserved":false,"is_disabled":false,"rental_uris":{"android":"levelo://app?vid=616353f1-4754-4f57-9465-e46d49d24354","ios":"levelo://app?vid=616353f1-4754-4f57-9465-e46d49d24354"},"vehicle_type_id":"4","last_reported":1779022526,"current_range_meters":4000,"station_id":"","pricing_plan_id":"cebpf4jnsgd1na2vs0mg"},{"bike_id":"35cc111d-eb53-47e4-98f0-c750725b8810","system_id":"levelo_inurba_marseille","lat":43.212,"lon":5.35077,"is_reserved":false,"is_disabled":false,"rental_uris":{"android":"levelo://app?vid=35cc111d-eb53-47e4-98f0-c750725b8810","ios":"levelo://app?vid=35cc111d-eb53-47e4-98f0-c750725b8810"},"vehicle_type_id":"4","last_reported":1779022526,"current_range_meters":4000,"station_id":"st_cvj6sg6p6f1abm77japg","pricing_plan_id":"cebpf4jnsgd1na2vs0mg"},{"bike_id":"47d45c32-c9fa-42a4-aaf5-8791f7a2b097","system_id":"levelo_inurba_marseille","lat":43.26561,"lon":5.39012,"is_reserved":false,"is_disabled":true,"rental_uris":{"android":"levelo://app?vid=47d45c32-c9fa-42a4-aaf5-8791f7a2b097","ios":"levelo://app?vid=47d45c32-c9fa-42a4-aaf5-8791f7a2b097"},"vehicle_type_id":"4","last_reported":1779022526,"current_range_meters":4000,"station_id":"ce4bhe12rcd13ifvqf30","pricing_plan_id":"cebpf4jnsgd1na2vs0mg"},{"bike_id":"4ee69d41-30d6-469e-829a-74d2ce79aff4","system_id":"levelo_inurba_marseille","lat":43.33546,"lon":5.37467,"is_reserved":false,"is_disabled":false,"rental_uris":{"android":"levelo://app?vid=4ee69d41-30d6-469e-829a-74d2ce79aff4","ios":"levelo://app?vid=4ee69d41-30d6-469e-829a-74d2ce79aff4"},"vehicle_type_id":"4","last_reported":1779022526,"current_range_meters":4000,"station_id":"st_d46tts09ee8s73dlu43g","pricing_plan_id":"cebpf4jnsgd1na2vs0mg"},{"bike_id":"edd5c786-8d24-46bc-bdcd-f0f00a11c1c1","system_id":"levelo_inurba_marseille","lat":43.25523,"lon":5.37646,"is_reserved":false,"is_disabled":true,"rental_uris":{"android":"levelo://app?vid=edd5c786-8d24-46bc-bdcd-f0f00a11c1c1","ios":"levelo://app?vid=edd5c786-8d24-46bc-bdcd-f0f00a11c1c1"},"vehicle_type_id":"4","last_reported":1779022526,"current_range_meters":4000,"station_id":"ce4bhh12rcd13ifvqff0","pricing_plan_id":"cebpf4jnsgd1na2vs0mg"},{"bike_id":"b5700011-a486-4e56-b8fb-207aaf85d4db","system_id":"levelo_inurba_marseille","lat":43.31879,"lon":5.36819,"is_reserved":false,"is_disabled":false,"rental_uris":{"android":"levelo://app?vid=b5700011-a486-4e56-b8fb-207aaf85d4db","ios":"levelo://app?vid=b5700011-a486-4e56-b8fb-207aaf85d4db"},"vehicle_type_id":"4","last_reported":1779022526,"current_range_meters":4000,"station_id":"st_d6o2h0d0559c73evc1b0","pricing_plan_id":"cebpf4jnsgd1na2vs0mg"},{"bike_id":"228eb895-fcc0-4a95-b252-7e10eb4da836","system_id":"levelo_inurba_marseille","lat":43.23169,"lon":5.437,"is_reserved":false,"is_disabled":false,"rental_uris":{"android":"levelo://app?vid=228eb895-fcc0-4a95-b252-7e10eb4da836","ios":"levelo://app?vid=228eb895-fcc0-4a95-b252-7e10eb4da836"},"vehicle_type_id":"4","last_reported":1779022526,"current_range_meters":4400,"station_id":"ce4bhmp2rcd13ifvqgog","pricing_plan_id":"cebpf4jnsgd1na2vs0mg"},{"bike_id":"df3b4c65-b594-43d2-9619-bf34b1560986","system_id":"levelo_inurba_marseille","lat":43.3353,"lon":5.37443,"is_reserved":false,"is_disabled":false,"rental_uris":{"android":"levelo://app?vid=df3b4c65-b594-43d2-9619-bf34b1560986","ios":"levelo://app?vid=df3b4c65-b594-43d2-9619-bf34b1560986"},"vehicle_type_id":"4","last_reported":1779022526,"current_range_meters":4400,"station_id":"st_d46tts09ee8s73dlu43g","pricing_plan_id":"cebpf4jnsgd1na2vs0mg"},{"bike_id":"31377f31-2715-44bc-b730-1af1ece20a20","system_id":"levelo_inurba_marseille","lat":43.25095,"lon":5.39508,"is_reserved":false,"is_disabled":false,"rental_uris":{"android":"levelo://app?vid=31377f31-2715-44bc-b730-1af1ece20a20","ios":"levelo://app?vid=31377f31-2715-44bc-b730-1af1ece20a20"},"vehicle_type_id":"4","last_reported":1779022526,"current_range_meters":4400,"station_id":"ce4bhm12rcd13ifvqgkg","pricing_plan_id":"cebpf4jnsgd1na2vs0mg"},{"bike_id":"ef20a65f-19f4-4491-8360-61efaea0f2fe","system_id":"levelo_inurba_marseille","lat":43.27666,"lon":5.41371,"is_reserved":false,"is_disabled":false,"rental_uris":{"android":"levelo://app?vid=ef20a65f-19f4-4491-8360-61efaea0f2fe","ios":"levelo://app?vid=ef20a65f-19f4-4491-8360-61efaea0f2fe"},"vehicle_type_id":"4","last_reported":1779022526,"current_range_meters":4400,"station_id":"","pricing_plan_id":"cebpf4jnsgd1na2vs0mg"},{"bike_id":"1124e8ed-181a-445d-9220-36e963831e6c","system_id":"levelo_inurba_marseille","lat":43.23901,"lon":5.3746,"is_reserved":false,"is_disabled":true,"rental_uris":{"android":"levelo://app?vid=1124e8ed-181a-445d-9220-36e963831e6c","ios":"levelo://app?vid=1124e8ed-181a-445d-9220-36e963831e6c"},"vehicle_type_id":"4","last_reported":1779022526,"current_range_meters":4400,"station_id":"st_d6sm7csbq4hs73f8fpjg","pricing_plan_id":"cebpf4jnsgd1na2vs0mg"},{"bike_id":"7c9517e3-38cb-4a87-948b-926583eebece","system_id":"levelo_inurba_marseille","lat":43.21199,"lon":5.35089,"is_reserved":false,"is_disabled":false,"rental_uris":{"android":"levelo://app?vid=7c9517e3-38cb-4a87-948b-926583eebece","ios":"levelo://app?vid=7c9517e3-38cb-4a87-948b-926583eebece"},"vehicle_type_id":"4","last_reported":1779022526,"current_range_meters":4400,"station_id":"st_cvj6sg6p6f1abm77japg","pricing_plan_id":"cebpf4jnsgd1na2vs0mg"},{"bike_id":"0d50daf1-0ebe-4070-a3f4-50a2aaf9e668","system_id":"levelo_inurba_marseille","lat":43.24546,"lon":5.39536,"is_reserved":false,"is_disabled":true,"rental_uris":{"android":"levelo://app?vid=0d50daf1-0ebe-4070-a3f4-50a2aaf9e668","ios":"levelo://app?vid=0d50daf1-0ebe-4070-a3f4-50a2aaf9e668"},"vehicle_type_id":"4","last_reported":1779022526,"current_range_meters":4400,"station_id":"ce4bhlp2rcd13ifvqgjg","pricing_plan_id":"cebpf4jnsgd1na2vs0mg"},{"bike_id":"5bd709cf-a859-4d99-8c17-5c3611eb97a4","system_id":"levelo_inurba_marseille","lat":43.28413,"lon":5.34978,"is_reserved":false,"is_disabled":false,"rental_uris":{"android":"levelo://app?vid=5bd709cf-a859-4d99-8c17-5c3611eb97a4","ios":"levelo://app?vid=5bd709cf-a859-4d99-8c17-5c3611eb97a4"},"vehicle_type_id":"4","last_reported":1779022526,"current_range_meters":4400,"station_id":"ce4bhbh2rcd13ifvqepg","pricing_plan_id":"cebpf4jnsgd1na2vs0mg"},{"bike_id":"b3154e5e-6225-4535-a223-cf0e598af43c","system_id":"levelo_inurba_marseille","lat":43.28265,"lon":5.35071,"is_reserved":false,"is_disabled":false,"rental_uris":{"android":"levelo://app?vid=b3154e5e-6225-4535-a223-cf0e598af43c","ios":"levelo://app?vid=b3154e5e-6225-4535-a223-cf0e598af43c"},"vehicle_type_id":"4","last_reported":1779022526,"current_range_meters":4400,"station_id":"ce4bhbp2rcd13ifvqerg","pricing_plan_id":"cebpf4jnsgd1na2vs0mg"},{"bike_id":"d16f212b-c708-4336-af89-f6d336d8d79c","system_id":"levelo_inurba_marseille","lat":43.28707,"lon":5.46689,"is_reserved":false,"is_disabled":false,"rental_uris":{"android":"levelo://app?vid=d16f212b-c708-4336-af89-f6d336d8d79c","ios":"levelo://app?vid=d16f212b-c708-4336-af89-f6d336d8d79c"},"vehicle_type_id":"4","last_reported":1779022526,"current_range_meters":4800,"station_id":"st_d6tc3vkotcvc738tfjhg","pricing_plan_id":"cebpf4jnsgd1na2vs0mg"},{"bike_id":"0ae83f00-cd52-4656-b159-c66bfad4a07d","system_id":"levelo_inurba_marseille","lat":43.217407,"lon":5.346077,"is_reserved":false,"is_disabled":false,"rental_uris":{"android":"levelo://app?vid=0ae83f00-cd52-4656-b159-c66bfad4a07d","ios":"levelo://app?vid=0ae83f00-cd52-4656-b159-c66bfad4a07d"},"vehicle_type_id":"4","last_reported":1779022526,"current_range_meters":4800,"station_id":"st_cvj6r9ubvosntc0bgbag","pricing_plan_id":"cebpf4jnsgd1na2vs0mg"},{"bike_id":"ed4acfe3-c7d2-44e0-92e3-9e43103cc976","system_id":"levelo_inurba_marseille","lat":43.28622,"lon":5.35108,"is_reserved":false,"is_disabled":false,"rental_uris":{"android":"levelo://app?vid=ed4acfe3-c7d2-44e0-92e3-9e43103cc976","ios":"levelo://app?vid=ed4acfe3-c7d2-44e0-92e3-9e43103cc976"},"vehicle_type_id":"4","last_reported":1779022526,"current_range_meters":4800,"station_id":"ce4bhch2rcd13ifvqeug","pricing_plan_id":"cebpf4jnsgd1na2vs0mg"},{"bike_id":"82f8ad24-3d3c-47a4-9b8d-2da712a2b86f","system_id":"levelo_inurba_marseille","lat":43.29294,"lon":5.37424,"is_reserved":false,"is_disabled":false,"rental_uris":{"android":"levelo://app?vid=82f8ad24-3d3c-47a4-9b8d-2da712a2b86f","ios":"levelo://app?vid=82f8ad24-3d3c-47a4-9b8d-2da712a2b86f"},"vehicle_type_id":"4","last_reported":1779022526,"current_range_meters":4800,"station_id":"ce4bgi12rcd13ifvqb70","pricing_plan_id":"cebpf4jnsgd1na2vs0mg"},{"bike_id":"bd40cf55-601a-440c-ab8f-d78872810061","system_id":"levelo_inurba_marseille","lat":43.26223,"lon":5.37436,"is_reserved":false,"is_disabled":false,"rental_uris":{"android":"levelo://app?vid=bd40cf55-601a-440c-ab8f-d78872810061","ios":"levelo://app?vid=bd40cf55-601a-440c-ab8f-d78872810061"},"vehicle_type_id":"4","last_reported":1779022526,"current_range_meters":4800,"station_id":"","pricing_plan_id":"cebpf4jnsgd1na2vs0mg"},{"bike_id":"9c9a1a74-3f10-44f1-99ca-6350204cb216","system_id":"levelo_inurba_marseille","lat":43.23115,"lon":5.43712,"is_reserved":false,"is_disabled":false,"rental_uris":{"android":"levelo://app?vid=9c9a1a74-3f10-44f1-99ca-6350204cb216","ios":"levelo://app?vid=9c9a1a74-3f10-44f1-99ca-6350204cb216"},"vehicle_type_id":"4","last_reported":1779022526,"current_range_meters":4800,"station_id":"ce4bhmp2rcd13ifvqgog","pricing_plan_id":"cebpf4jnsgd1na2vs0mg"},{"bike_id":"1f255333-0dee-46a8-8f6a-ce22f3ff59bd","system_id":"levelo_inurba_marseille","lat":43.22532,"lon":5.34833,"is_reserved":false,"is_disabled":true,"rental_uris":{"android":"levelo://app?vid=1f255333-0dee-46a8-8f6a-ce22f3ff59bd","ios":"levelo://app?vid=1f255333-0dee-46a8-8f6a-ce22f3ff59bd"},"vehicle_type_id":"4","last_reported":1779022526,"current_range_meters":4800,"station_id":"st_cvj5dfep6f1abm77gieg","pricing_plan_id":"cebpf4jnsgd1na2vs0mg"},{"bike_id":"5a4b6ebd-3444-47dc-bed0-9f9e72cfe85e","system_id":"levelo_inurba_marseille","lat":43.24388,"lon":5.3705,"is_reserved":false,"is_disabled":false,"rental_uris":{"android":"levelo://app?vid=5a4b6ebd-3444-47dc-bed0-9f9e72cfe85e","ios":"levelo://app?vid=5a4b6ebd-3444-47dc-bed0-9f9e72cfe85e"},"vehicle_type_id":"4","last_reported":1779022526,"current_range_meters":4800,"station_id":"ce4bhhh2rcd13ifvqfk0","pricing_plan_id":"cebpf4jnsgd1na2vs0mg"},{"bike_id":"9c6f21a0-479c-4e0b-b731-bba89f4e20c2","system_id":"levelo_inurba_marseille","lat":43.292,"lon":5.36044,"is_reserved":false,"is_disabled":false,"rental_uris":{"android":"levelo://app?vid=9c6f21a0-479c-4e0b-b731-bba89f4e20c2","ios":"levelo://app?vid=9c6f21a0-479c-4e0b-b731-bba89f4e20c2"},"vehicle_type_id":"4","last_reported":1779022526,"current_range_meters":4800,"station_id":"ce4bhbh2rcd13ifvqeqg","pricing_plan_id":"cebpf4jnsgd1na2vs0mg"},{"bike_id":"e8c45e34-6dc2-4f97-8014-220724bbe45d","system_id":"levelo_inurba_marseille","lat":43.291702,"lon":5.37149,"is_reserved":false,"is_disabled":false,"rental_uris":{"android":"levelo://app?vid=e8c45e34-6dc2-4f97-8014-220724bbe45d","ios":"levelo://app?vid=e8c45e34-6dc2-4f97-8014-220724bbe45d"},"vehicle_type_id":"4","last_reported":1779022526,"current_range_meters":5600,"station_id":"ce4bha92rcd13ifvqeh0","pricing_plan_id":"cebpf4jnsgd1na2vs0mg"},{"bike_id":"59ebfeaf-288c-4113-86b3-96065d458976","system_id":"levelo_inurba_marseille","lat":43.3317,"lon":5.37684,"is_reserved":false,"is_disabled":false,"rental_uris":{"android":"levelo://app?vid=59ebfeaf-288c-4113-86b3-96065d458976","ios":"levelo://app?vid=59ebfeaf-288c-4113-86b3-96065d458976"},"vehicle_type_id":"4","last_reported":1779022526,"current_range_meters":5600,"station_id":"st_d46cu089ee8s73dldbu0","pricing_plan_id":"cebpf4jnsgd1na2vs0mg"},{"bike_id":"79446d17-55d1-4c22-b660-bf34de1cc0f1","system_id":"levelo_inurba_marseille","lat":43.24397,"lon":5.37058,"is_reserved":false,"is_disabled":false,"rental_uris":{"android":"levelo://app?vid=79446d17-55d1-4c22-b660-bf34de1cc0f1","ios":"levelo://app?vid=79446d17-55d1-4c22-b660-bf34de1cc0f1"},"vehicle_type_id":"4","last_reported":1779022526,"current_range_meters":5600,"station_id":"ce4bhhh2rcd13ifvqfk0","pricing_plan_id":"cebpf4jnsgd1na2vs0mg"},{"bike_id":"8a355f4a-bc87-4bf0-a3f6-abb1dad8c842","system_id":"levelo_inurba_marseille","lat":43.21197,"lon":5.35074,"is_reserved":false,"is_disabled":false,"rental_uris":{"android":"levelo://app?vid=8a355f4a-bc87-4bf0-a3f6-abb1dad8c842","ios":"levelo://app?vid=8a355f4a-bc87-4bf0-a3f6-abb1dad8c842"},"vehicle_type_id":"4","last_reported":1779022526,"current_range_meters":5600,"station_id":"st_cvj6sg6p6f1abm77japg","pricing_plan_id":"cebpf4jnsgd1na2vs0mg"},{"bike_id":"39f5e5e3-bdaa-431e-ab82-46a06c8cb2ae","system_id":"levelo_inurba_marseille","lat":43.24468,"lon":5.42536,"is_reserved":false,"is_disabled":false,"rental_uris":{"android":"levelo://app?vid=39f5e5e3-bdaa-431e-ab82-46a06c8cb2ae","ios":"levelo://app?vid=39f5e5e3-bdaa-431e-ab82-46a06c8cb2ae"},"vehicle_type_id":"4","last_reported":1779022526,"current_range_meters":5600,"station_id":"st_d4a3vfp97mjs738cd8kg","pricing_plan_id":"cebpf4jnsgd1na2vs0mg"},{"bike_id":"1113b640-f8a0-4693-bedb-97bbd24f9a6f","system_id":"levelo_inurba_marseille","lat":43.29984,"lon":5.36747,"is_reserved":false,"is_disabled":false,"rental_uris":{"android":"levelo://app?vid=1113b640-f8a0-4693-bedb-97bbd24f9a6f","ios":"levelo://app?vid=1113b640-f8a0-4693-bedb-97bbd24f9a6f"},"vehicle_type_id":"4","last_reported":1779022526,"current_range_meters":5600,"station_id":"","pricing_plan_id":"cebpf4jnsgd1na2vs0mg"},{"bike_id":"fd4f9e14-a624-4da8-8d92-1fa94bd52034","system_id":"levelo_inurba_marseille","lat":43.24783,"lon":5.37465,"is_reserved":false,"is_disabled":false,"rental_uris":{"android":"levelo://app?vid=fd4f9e14-a624-4da8-8d92-1fa94bd52034","ios":"levelo://app?vid=fd4f9e14-a624-4da8-8d92-1fa94bd52034"},"vehicle_type_id":"4","last_reported":1779022526,"current_range_meters":5600,"station_id":"ce4bhgh2rcd13ifvqfb0","pricing_plan_id":"cebpf4jnsgd1na2vs0mg"},{"bike_id":"41ed03a9-ce21-4903-a810-ca307a88c332","system_id":"levelo_inurba_marseille","lat":43.26228,"lon":5.40416,"is_reserved":false,"is_disabled":false,"rental_uris":{"android":"levelo://app?vid=41ed03a9-ce21-4903-a810-ca307a88c332","ios":"levelo://app?vid=41ed03a9-ce21-4903-a810-ca307a88c332"},"vehicle_type_id":"4","last_reported":1779022526,"current_range_meters":5600,"station_id":"ce4bhmh2rcd13ifvqgmg","pricing_plan_id":"cebpf4jnsgd1na2vs0mg"},{"bike_id":"539b7819-7c2d-4df1-86c3-4209b535ea89","system_id":"levelo_inurba_marseille","lat":43.23192,"lon":5.35546,"is_reserved":false,"is_disabled":false,"rental_uris":{"android":"levelo://app?vid=539b7819-7c2d-4df1-86c3-4209b535ea89","ios":"levelo://app?vid=539b7819-7c2d-4df1-86c3-4209b535ea89"},"vehicle_type_id":"4","last_reported":1779022526,"current_range_meters":5600,"station_id":"ce4bhu92rcd13ifvqi70","pricing_plan_id":"cebpf4jnsgd1na2vs0mg"},{"bike_id":"34f7f1f5-8ba0-489b-b7dd-dccaca73dbd0","system_id":"levelo_inurba_marseille","lat":43.29972,"lon":5.41332,"is_reserved":false,"is_disabled":false,"rental_uris":{"android":"levelo://app?vid=34f7f1f5-8ba0-489b-b7dd-dccaca73dbd0","ios":"levelo://app?vid=34f7f1f5-8ba0-489b-b7dd-dccaca73dbd0"},"vehicle_type_id":"4","last_reported":1779022526,"current_range_meters":5600,"station_id":"ce4bhp12rcd13ifvqh9g","pricing_plan_id":"cebpf4jnsgd1na2vs0mg"},{"bike_id":"bd23f2fa-8f30-487e-98d7-3125ee47779b","system_id":"levelo_inurba_marseille","lat":43.2751,"lon":5.43508,"is_reserved":false,"is_disabled":false,"rental_uris":{"android":"levelo://app?vid=bd23f2fa-8f30-487e-98d7-3125ee47779b","ios":"levelo://app?vid=bd23f2fa-8f30-487e-98d7-3125ee47779b"},"vehicle_type_id":"4","last_reported":1779022526,"current_range_meters":5600,"station_id":"","pricing_plan_id":"cebpf4jnsgd1na2vs0mg"},{"bike_id":"6b5f5f89-ab34-448a-b2c7-ae8a3e9a30f4","system_id":"levelo_inurba_marseille","lat":43.31904,"lon":5.40701,"is_reserved":false,"is_disabled":true,"rental_uris":{"android":"levelo://app?vid=6b5f5f89-ab34-448a-b2c7-ae8a3e9a30f4","ios":"levelo://app?vid=6b5f5f89-ab34-448a-b2c7-ae8a3e9a30f4"},"vehicle_type_id":"4","last_reported":1779022526,"current_range_meters":5600,"station_id":"ce4bhq12rcd13ifvqhig","pricing_plan_id":"cebpf4jnsgd1na2vs0mg"},{"bike_id":"dba68f5b-73cd-4db8-b1a3-9c3f5397f948","system_id":"levelo_inurba_marseille","lat":43.24668,"lon":5.38169,"is_reserved":false,"is_disabled":false,"rental_uris":{"android":"levelo://app?vid=dba68f5b-73cd-4db8-b1a3-9c3f5397f948","ios":"levelo://app?vid=dba68f5b-73cd-4db8-b1a3-9c3f5397f948"},"vehicle_type_id":"4","last_reported":1779022526,"current_range_meters":5600,"station_id":"ce4bhih2rcd13ifvqfr0","pricing_plan_id":"cebpf4jnsgd1na2vs0mg"},{"bike_id":"4e5bd537-c85f-4cfa-a272-100a01edb9bf","system_id":"levelo_inurba_marseille","lat":43.3168,"lon":5.40483,"is_reserved":false,"is_disabled":false,"rental_uris":{"android":"levelo://app?vid=4e5bd537-c85f-4cfa-a272-100a01edb9bf","ios":"levelo://app?vid=4e5bd537-c85f-4cfa-a272-100a01edb9bf"},"vehicle_type_id":"4","last_reported":1779022526,"current_range_meters":6000,"station_id":"ce4bh012rcd13ifvqd00","pricing_plan_id":"cebpf4jnsgd1na2vs0mg"},{"bike_id":"77aefab8-8e6e-4772-bad4-79cb2d83ab10","system_id":"levelo_inurba_marseille","lat":43.28272,"lon":5.3507,"is_reserved":false,"is_disabled":false,"rental_uris":{"android":"levelo://app?vid=77aefab8-8e6e-4772-bad4-79cb2d83ab10","ios":"levelo://app?vid=77aefab8-8e6e-4772-bad4-79cb2d83ab10"},"vehicle_type_id":"4","last_reported":1779022526,"current_range_meters":6000,"station_id":"ce4bhbp2rcd13ifvqerg","pricing_plan_id":"cebpf4jnsgd1na2vs0mg"},{"bike_id":"54897ba8-3610-4b05-bfde-39d86e634db7","system_id":"levelo_inurba_marseille","lat":43.28283,"lon":5.35068,"is_reserved":false,"is_disabled":false,"rental_uris":{"android":"levelo://app?vid=54897ba8-3610-4b05-bfde-39d86e634db7","ios":"levelo://app?vid=54897ba8-3610-4b05-bfde-39d86e634db7"},"vehicle_type_id":"4","last_reported":1779022526,"current_range_meters":6000,"station_id":"ce4bhbp2rcd13ifvqerg","pricing_plan_id":"cebpf4jnsgd1na2vs0mg"},{"bike_id":"33a8c2e2-02c3-42f2-9f5e-df7fdca1e263","system_id":"levelo_inurba_marseille","lat":43.2861,"lon":5.36397,"is_reserved":false,"is_disabled":false,"rental_uris":{"android":"levelo://app?vid=33a8c2e2-02c3-42f2-9f5e-df7fdca1e263","ios":"levelo://app?vid=33a8c2e2-02c3-42f2-9f5e-df7fdca1e263"},"vehicle_type_id":"4","last_reported":1779022526,"current_range_meters":6000,"station_id":"","pricing_plan_id":"cebpf4jnsgd1na2vs0mg"},{"bike_id":"37ca5b86-b3d0-4bc0-80e9-3ce47d4dd8d3","system_id":"levelo_inurba_marseille","lat":43.23897,"lon":5.37456,"is_reserved":false,"is_disabled":false,"rental_uris":{"android":"levelo://app?vid=37ca5b86-b3d0-4bc0-80e9-3ce47d4dd8d3","ios":"levelo://app?vid=37ca5b86-b3d0-4bc0-80e9-3ce47d4dd8d3"},"vehicle_type_id":"4","last_reported":1779022526,"current_range_meters":6000,"station_id":"st_d6sm7csbq4hs73f8fpjg","pricing_plan_id":"cebpf4jnsgd1na2vs0mg"},{"bike_id":"ee51b083-ba62-43a1-8a0a-7eff9e26d1d2","system_id":"levelo_inurba_marseille","lat":43.24662,"lon":5.38155,"is_reserved":false,"is_disabled":false,"rental_uris":{"android":"levelo://app?vid=ee51b083-ba62-43a1-8a0a-7eff9e26d1d2","ios":"levelo://app?vid=ee51b083-ba62-43a1-8a0a-7eff9e26d1d2"},"vehicle_type_id":"4","last_reported":1779022526,"current_range_meters":6000,"station_id":"ce4bhih2rcd13ifvqfr0","pricing_plan_id":"cebpf4jnsgd1na2vs0mg"},{"bike_id":"ae8622c3-2a1f-4fdf-a659-933c6d80c9e4","system_id":"levelo_inurba_marseille","lat":43.29763,"lon":5.42771,"is_reserved":false,"is_disabled":false,"rental_uris":{"android":"levelo://app?vid=ae8622c3-2a1f-4fdf-a659-933c6d80c9e4","ios":"levelo://app?vid=ae8622c3-2a1f-4fdf-a659-933c6d80c9e4"},"vehicle_type_id":"4","last_reported":1779022526,"current_range_meters":6000,"station_id":"st_d3md5207bmas73dh9klg","pricing_plan_id":"cebpf4jnsgd1na2vs0mg"},{"bike_id":"c050486d-5df0-4fcf-9653-c603140d3eb9","system_id":"levelo_inurba_marseille","lat":43.249952,"lon":5.389289,"is_reserved":false,"is_disabled":false,"rental_uris":{"android":"levelo://app?vid=c050486d-5df0-4fcf-9653-c603140d3eb9","ios":"levelo://app?vid=c050486d-5df0-4fcf-9653-c603140d3eb9"},"vehicle_type_id":"4","last_reported":1779022526,"current_range_meters":6000,"station_id":"ce4bhgp2rcd13ifvqfd0","pricing_plan_id":"cebpf4jnsgd1na2vs0mg"},{"bike_id":"ad1f6fd4-c9ff-4829-9d36-b7cf41ff39ba","system_id":"levelo_inurba_marseille","lat":43.27974,"lon":5.38734,"is_reserved":false,"is_disabled":true,"rental_uris":{"android":"levelo://app?vid=ad1f6fd4-c9ff-4829-9d36-b7cf41ff39ba","ios":"levelo://app?vid=ad1f6fd4-c9ff-4829-9d36-b7cf41ff39ba"},"vehicle_type_id":"4","last_reported":1779022526,"current_range_meters":6000,"station_id":"ce4bhg12rcd13ifvqf80","pricing_plan_id":"cebpf4jnsgd1na2vs0mg"},{"bike_id":"0c51c1ec-6061-4157-a13c-33014ecc65fe","system_id":"levelo_inurba_marseille","lat":43.22565,"lon":5.41637,"is_reserved":false,"is_disabled":false,"rental_uris":{"android":"levelo://app?vid=0c51c1ec-6061-4157-a13c-33014ecc65fe","ios":"levelo://app?vid=0c51c1ec-6061-4157-a13c-33014ecc65fe"},"vehicle_type_id":"4","last_reported":1779022526,"current_range_meters":6000,"station_id":"st_d2o4gvlbi1j2169b742g","pricing_plan_id":"cebpf4jnsgd1na2vs0mg"},{"bike_id":"23c89db2-3379-4954-bc52-79e3a03adb59","system_id":"levelo_inurba_marseille","lat":43.27382,"lon":5.3625,"is_reserved":false,"is_disabled":false,"rental_uris":{"android":"levelo://app?vid=23c89db2-3379-4954-bc52-79e3a03adb59","ios":"levelo://app?vid=23c89db2-3379-4954-bc52-79e3a03adb59"},"vehicle_type_id":"4","last_reported":1779022526,"current_range_meters":6000,"station_id":"ce4bhbh2rcd13ifvqeo0","pricing_plan_id":"cebpf4jnsgd1na2vs0mg"},{"bike_id":"c66e49a7-8e9a-4b1b-a1f9-8e7e886dbf72","system_id":"levelo_inurba_marseille","lat":43.32547,"lon":5.41426,"is_reserved":false,"is_disabled":false,"rental_uris":{"android":"levelo://app?vid=c66e49a7-8e9a-4b1b-a1f9-8e7e886dbf72","ios":"levelo://app?vid=c66e49a7-8e9a-4b1b-a1f9-8e7e886dbf72"},"vehicle_type_id":"4","last_reported":1779022526,"current_range_meters":6400,"station_id":"ce4bhq12rcd13ifvqhhg","pricing_plan_id":"cebpf4jnsgd1na2vs0mg"},{"bike_id":"92203d82-e7cf-4fee-bd03-88ec7a4f90a0","system_id":"levelo_inurba_marseille","lat":43.31164,"lon":5.40126,"is_reserved":false,"is_disabled":false,"rental_uris":{"android":"levelo://app?vid=92203d82-e7cf-4fee-bd03-88ec7a4f90a0","ios":"levelo://app?vid=92203d82-e7cf-4fee-bd03-88ec7a4f90a0"},"vehicle_type_id":"4","last_reported":1779022526,"current_range_meters":6400,"station_id":"","pricing_plan_id":"cebpf4jnsgd1na2vs0mg"},{"bike_id":"72ee4756-97ac-4126-8325-581c21191cde","system_id":"levelo_inurba_marseille","lat":43.260327,"lon":5.375491,"is_reserved":false,"is_disabled":false,"rental_uris":{"android":"levelo://app?vid=72ee4756-97ac-4126-8325-581c21191cde","ios":"levelo://app?vid=72ee4756-97ac-4126-8325-581c21191cde"},"vehicle_type_id":"4","last_reported":1779022526,"current_range_meters":6400,"station_id":"ce4bhgh2rcd13ifvqfa0","pricing_plan_id":"cebpf4jnsgd1na2vs0mg"},{"bike_id":"10644868-b904-4276-baa9-ed96c85e24ad","system_id":"levelo_inurba_marseille","lat":43.28424,"lon":5.3498,"is_reserved":false,"is_disabled":false,"rental_uris":{"android":"levelo://app?vid=10644868-b904-4276-baa9-ed96c85e24ad","ios":"levelo://app?vid=10644868-b904-4276-baa9-ed96c85e24ad"},"vehicle_type_id":"4","last_reported":1779022526,"current_range_meters":6400,"station_id":"ce4bhbh2rcd13ifvqepg","pricing_plan_id":"cebpf4jnsgd1na2vs0mg"},{"bike_id":"cde832f5-61c9-4423-ac99-7113bd3c4dd5","system_id":"levelo_inurba_marseille","lat":43.25506,"lon":5.37648,"is_reserved":false,"is_disabled":false,"rental_uris":{"android":"levelo://app?vid=cde832f5-61c9-4423-ac99-7113bd3c4dd5","ios":"levelo://app?vid=cde832f5-61c9-4423-ac99-7113bd3c4dd5"},"vehicle_type_id":"4","last_reported":1779022526,"current_range_meters":6400,"station_id":"ce4bhh12rcd13ifvqff0","pricing_plan_id":"cebpf4jnsgd1na2vs0mg"},{"bike_id":"a8222677-82b2-4472-800a-515258994e8a","system_id":"levelo_inurba_marseille","lat":43.23965,"lon":5.3662,"is_reserved":false,"is_disabled":false,"rental_uris":{"android":"levelo://app?vid=a8222677-82b2-4472-800a-515258994e8a","ios":"levelo://app?vid=a8222677-82b2-4472-800a-515258994e8a"},"vehicle_type_id":"4","last_reported":1779022526,"current_range_meters":6400,"station_id":"ce4bhi12rcd13ifvqfp0","pricing_plan_id":"cebpf4jnsgd1na2vs0mg"},{"bike_id":"2b54f3bf-670e-4a0d-85f4-209df580e8b4","system_id":"levelo_inurba_marseille","lat":43.29793,"lon":5.37096,"is_reserved":false,"is_disabled":false,"rental_uris":{"android":"levelo://app?vid=2b54f3bf-670e-4a0d-85f4-209df580e8b4","ios":"levelo://app?vid=2b54f3bf-670e-4a0d-85f4-209df580e8b4"},"vehicle_type_id":"4","last_reported":1779022526,"current_range_meters":6400,"station_id":"ce4bgop2rcd13ifvqc1g","pricing_plan_id":"cebpf4jnsgd1na2vs0mg"},{"bike_id":"b1aef4be-4457-4f5e-bf73-fe51d0fce871","system_id":"levelo_inurba_marseille","lat":43.2119,"lon":5.35069,"is_reserved":false,"is_disabled":false,"rental_uris":{"android":"levelo://app?vid=b1aef4be-4457-4f5e-bf73-fe51d0fce871","ios":"levelo://app?vid=b1aef4be-4457-4f5e-bf73-fe51d0fce871"},"vehicle_type_id":"4","last_reported":1779022526,"current_range_meters":6400,"station_id":"st_cvj6sg6p6f1abm77japg","pricing_plan_id":"cebpf4jnsgd1na2vs0mg"},{"bike_id":"5e7b0534-26dc-4029-a0c5-7d2f1d5ca9f4","system_id":"levelo_inurba_marseille","lat":43.225342,"lon":5.348298,"is_reserved":false,"is_disabled":false,"rental_uris":{"android":"levelo://app?vid=5e7b0534-26dc-4029-a0c5-7d2f1d5ca9f4","ios":"levelo://app?vid=5e7b0534-26dc-4029-a0c5-7d2f1d5ca9f4"},"vehicle_type_id":"4","last_reported":1779022526,"current_range_meters":6400,"station_id":"st_cvj5dfep6f1abm77gieg","pricing_plan_id":"cebpf4jnsgd1na2vs0mg"},{"bike_id":"f1489f24-eb0d-4f47-a199-01b2b7e3cea5","system_id":"levelo_inurba_marseille","lat":43.30356,"lon":5.42459,"is_reserved":false,"is_disabled":false,"rental_uris":{"android":"levelo://app?vid=f1489f24-eb0d-4f47-a199-01b2b7e3cea5","ios":"levelo://app?vid=f1489f24-eb0d-4f47-a199-01b2b7e3cea5"},"vehicle_type_id":"4","last_reported":1779022526,"current_range_meters":6400,"station_id":"ce4bhoh2rcd13ifvqh6g","pricing_plan_id":"cebpf4jnsgd1na2vs0mg"},{"bike_id":"d3f8cb08-f3cd-416b-953a-eae8db0a255e","system_id":"levelo_inurba_marseille","lat":43.26811,"lon":5.40824,"is_reserved":false,"is_disabled":false,"rental_uris":{"android":"levelo://app?vid=d3f8cb08-f3cd-416b-953a-eae8db0a255e","ios":"levelo://app?vid=d3f8cb08-f3cd-416b-953a-eae8db0a255e"},"vehicle_type_id":"4","last_reported":1779022526,"current_range_meters":6400,"station_id":"","pricing_plan_id":"cebpf4jnsgd1na2vs0mg"},{"bike_id":"359f87c3-b148-4039-b20d-4c62d962d317","system_id":"levelo_inurba_marseille","lat":43.2316,"lon":5.43727,"is_reserved":false,"is_disabled":false,"rental_uris":{"android":"levelo://app?vid=359f87c3-b148-4039-b20d-4c62d962d317","ios":"levelo://app?vid=359f87c3-b148-4039-b20d-4c62d962d317"},"vehicle_type_id":"4","last_reported":1779022526,"current_range_meters":6400,"station_id":"ce4bhmp2rcd13ifvqgog","pricing_plan_id":"cebpf4jnsgd1na2vs0mg"},{"bike_id":"60e91d52-408f-41b9-86d8-fcefe5d5a260","system_id":"levelo_inurba_marseille","lat":43.287,"lon":5.46681,"is_reserved":false,"is_disabled":false,"rental_uris":{"android":"levelo://app?vid=60e91d52-408f-41b9-86d8-fcefe5d5a260","ios":"levelo://app?vid=60e91d52-408f-41b9-86d8-fcefe5d5a260"},"vehicle_type_id":"4","last_reported":1779022526,"current_range_meters":6400,"station_id":"st_d6tc3vkotcvc738tfjhg","pricing_plan_id":"cebpf4jnsgd1na2vs0mg"},{"bike_id":"032fbbce-f9a4-4bef-952a-0977318b2380","system_id":"levelo_inurba_marseille","lat":43.24809,"lon":5.37458,"is_reserved":false,"is_disabled":false,"rental_uris":{"android":"levelo://app?vid=032fbbce-f9a4-4bef-952a-0977318b2380","ios":"levelo://app?vid=032fbbce-f9a4-4bef-952a-0977318b2380"},"vehicle_type_id":"4","last_reported":1779022526,"current_range_meters":6800,"station_id":"ce4bhgh2rcd13ifvqfb0","pricing_plan_id":"cebpf4jnsgd1na2vs0mg"},{"bike_id":"6839dca7-9bcd-4e70-9727-b627bf31d892","system_id":"levelo_inurba_marseille","lat":43.286617,"lon":5.386735,"is_reserved":false,"is_disabled":false,"rental_uris":{"android":"levelo://app?vid=6839dca7-9bcd-4e70-9727-b627bf31d892","ios":"levelo://app?vid=6839dca7-9bcd-4e70-9727-b627bf31d892"},"vehicle_type_id":"4","last_reported":1779022526,"current_range_meters":6800,"station_id":"ce4bh492rcd13ifvqdug","pricing_plan_id":"cebpf4jnsgd1na2vs0mg"},{"bike_id":"0a95d297-c3a3-464f-9528-624a1f033ca3","system_id":"levelo_inurba_marseille","lat":43.21192,"lon":5.35073,"is_reserved":false,"is_disabled":false,"rental_uris":{"android":"levelo://app?vid=0a95d297-c3a3-464f-9528-624a1f033ca3","ios":"levelo://app?vid=0a95d297-c3a3-464f-9528-624a1f033ca3"},"vehicle_type_id":"4","last_reported":1779022526,"current_range_meters":6800,"station_id":"st_cvj6sg6p6f1abm77japg","pricing_plan_id":"cebpf4jnsgd1na2vs0mg"},{"bike_id":"c7c45be6-5d9a-4e09-909b-32656e36375a","system_id":"levelo_inurba_marseille","lat":43.25193,"lon":5.37436,"is_reserved":false,"is_disabled":false,"rental_uris":{"android":"levelo://app?vid=c7c45be6-5d9a-4e09-909b-32656e36375a","ios":"levelo://app?vid=c7c45be6-5d9a-4e09-909b-32656e36375a"},"vehicle_type_id":"4","last_reported":1779022526,"current_range_meters":6800,"station_id":"","pricing_plan_id":"cebpf4jnsgd1na2vs0mg"},{"bike_id":"898ea1b1-38c7-4a45-9b94-20d8ecc43cb6","system_id":"levelo_inurba_marseille","lat":43.24809,"lon":5.37484,"is_reserved":false,"is_disabled":false,"rental_uris":{"android":"levelo://app?vid=898ea1b1-38c7-4a45-9b94-20d8ecc43cb6","ios":"levelo://app?vid=898ea1b1-38c7-4a45-9b94-20d8ecc43cb6"},"vehicle_type_id":"4","last_reported":1779022526,"current_range_meters":6800,"station_id":"ce4bhgh2rcd13ifvqfb0","pricing_plan_id":"cebpf4jnsgd1na2vs0mg"},{"bike_id":"a72a8680-05df-46ea-a8d1-7be23dcf6f78","system_id":"levelo_inurba_marseille","lat":43.24978,"lon":5.38928,"is_reserved":false,"is_disabled":false,"rental_uris":{"android":"levelo://app?vid=a72a8680-05df-46ea-a8d1-7be23dcf6f78","ios":"levelo://app?vid=a72a8680-05df-46ea-a8d1-7be23dcf6f78"},"vehicle_type_id":"4","last_reported":1779022526,"current_range_meters":6800,"station_id":"ce4bhgp2rcd13ifvqfd0","pricing_plan_id":"cebpf4jnsgd1na2vs0mg"},{"bike_id":"76fccc65-2c05-4b78-8b6e-a22058b12a6d","system_id":"levelo_inurba_marseille","lat":43.243854,"lon":5.370492,"is_reserved":false,"is_disabled":false,"rental_uris":{"android":"levelo://app?vid=76fccc65-2c05-4b78-8b6e-a22058b12a6d","ios":"levelo://app?vid=76fccc65-2c05-4b78-8b6e-a22058b12a6d"},"vehicle_type_id":"4","last_reported":1779022526,"current_range_meters":6800,"station_id":"ce4bhhh2rcd13ifvqfk0","pricing_plan_id":"cebpf4jnsgd1na2vs0mg"},{"bike_id":"829b528b-8d2e-4c8b-9d30-6b5a68718446","system_id":"levelo_inurba_marseille","lat":43.28264,"lon":5.35089,"is_reserved":false,"is_disabled":false,"rental_uris":{"android":"levelo://app?vid=829b528b-8d2e-4c8b-9d30-6b5a68718446","ios":"levelo://app?vid=829b528b-8d2e-4c8b-9d30-6b5a68718446"},"vehicle_type_id":"4","last_reported":1779022526,"current_range_meters":6800,"station_id":"ce4bhbp2rcd13ifvqerg","pricing_plan_id":"cebpf4jnsgd1na2vs0mg"},{"bike_id":"b23ea0d7-6111-436e-b31d-88cf9deb47e0","system_id":"levelo_inurba_marseille","lat":43.24379,"lon":5.37091,"is_reserved":false,"is_disabled":false,"rental_uris":{"android":"levelo://app?vid=b23ea0d7-6111-436e-b31d-88cf9deb47e0","ios":"levelo://app?vid=b23ea0d7-6111-436e-b31d-88cf9deb47e0"},"vehicle_type_id":"4","last_reported":1779022526,"current_range_meters":6800,"station_id":"ce4bhhh2rcd13ifvqfk0","pricing_plan_id":"cebpf4jnsgd1na2vs0mg"},{"bike_id":"7459919c-7f08-455e-a31c-3cdf295400d3","system_id":"levelo_inurba_marseille","lat":43.28614,"lon":5.35103,"is_reserved":false,"is_disabled":false,"rental_uris":{"android":"levelo://app?vid=7459919c-7f08-455e-a31c-3cdf295400d3","ios":"levelo://app?vid=7459919c-7f08-455e-a31c-3cdf295400d3"},"vehicle_type_id":"4","last_reported":1779022526,"current_range_meters":6800,"station_id":"ce4bhch2rcd13ifvqeug","pricing_plan_id":"cebpf4jnsgd1na2vs0mg"},{"bike_id":"8837b884-d799-4a91-aa20-2eea6f1ef20d","system_id":"levelo_inurba_marseille","lat":43.29645,"lon":5.37844,"is_reserved":false,"is_disabled":false,"rental_uris":{"android":"levelo://app?vid=8837b884-d799-4a91-aa20-2eea6f1ef20d","ios":"levelo://app?vid=8837b884-d799-4a91-aa20-2eea6f1ef20d"},"vehicle_type_id":"4","last_reported":1779022526,"current_range_meters":7200,"station_id":"","pricing_plan_id":"cebpf4jnsgd1na2vs0mg"},{"bike_id":"b878c3a3-9c69-44f8-9ee3-1dd19843bae4","system_id":"levelo_inurba_marseille","lat":43.28107,"lon":5.3893,"is_reserved":false,"is_disabled":false,"rental_uris":{"android":"levelo://app?vid=b878c3a3-9c69-44f8-9ee3-1dd19843bae4","ios":"levelo://app?vid=b878c3a3-9c69-44f8-9ee3-1dd19843bae4"},"vehicle_type_id":"4","last_reported":1779022526,"current_range_meters":7200,"station_id":"","pricing_plan_id":"cebpf4jnsgd1na2vs0mg"},{"bike_id":"4205fef4-5bd1-439a-b6c6-88b1921fd314","system_id":"levelo_inurba_marseille","lat":43.22572,"lon":5.41632,"is_reserved":false,"is_disabled":false,"rental_uris":{"android":"levelo://app?vid=4205fef4-5bd1-439a-b6c6-88b1921fd314","ios":"levelo://app?vid=4205fef4-5bd1-439a-b6c6-88b1921fd314"},"vehicle_type_id":"4","last_reported":1779022526,"current_range_meters":7200,"station_id":"st_d2o4gvlbi1j2169b742g","pricing_plan_id":"cebpf4jnsgd1na2vs0mg"},{"bike_id":"d2b2c17a-ea55-4d09-b1b4-c2cd5226f326","system_id":"levelo_inurba_marseille","lat":43.27377,"lon":5.36259,"is_reserved":false,"is_disabled":false,"rental_uris":{"android":"levelo://app?vid=d2b2c17a-ea55-4d09-b1b4-c2cd5226f326","ios":"levelo://app?vid=d2b2c17a-ea55-4d09-b1b4-c2cd5226f326"},"vehicle_type_id":"4","last_reported":1779022526,"current_range_meters":7200,"station_id":"ce4bhbh2rcd13ifvqeo0","pricing_plan_id":"cebpf4jnsgd1na2vs0mg"},{"bike_id":"dbf94776-63a1-426f-85ae-41abd5903310","system_id":"levelo_inurba_marseille","lat":43.30835,"lon":5.36949,"is_reserved":false,"is_disabled":false,"rental_uris":{"android":"levelo://app?vid=dbf94776-63a1-426f-85ae-41abd5903310","ios":"levelo://app?vid=dbf94776-63a1-426f-85ae-41abd5903310"},"vehicle_type_id":"4","last_reported":1779022526,"current_range_meters":7200,"station_id":"ce4bguh2rcd13ifvqckg","pricing_plan_id":"cebpf4jnsgd1na2vs0mg"},{"bike_id":"d6e6e32a-ba56-415f-9ef6-78535eab1df5","system_id":"levelo_inurba_marseille","lat":43.292801,"lon":5.401149,"is_reserved":false,"is_disabled":true,"rental_uris":{"android":"levelo://app?vid=d6e6e32a-ba56-415f-9ef6-78535eab1df5","ios":"levelo://app?vid=d6e6e32a-ba56-415f-9ef6-78535eab1df5"},"vehicle_type_id":"4","last_reported":1779022526,"current_range_meters":7200,"station_id":"ce4bh312rcd13ifvqdk0","pricing_plan_id":"cebpf4jnsgd1na2vs0mg"},{"bike_id":"15ef3c5d-f3ad-486e-ad37-fb6d372889c5","system_id":"levelo_inurba_marseille","lat":43.292152,"lon":5.359791,"is_reserved":false,"is_disabled":false,"rental_uris":{"android":"levelo://app?vid=15ef3c5d-f3ad-486e-ad37-fb6d372889c5","ios":"levelo://app?vid=15ef3c5d-f3ad-486e-ad37-fb6d372889c5"},"vehicle_type_id":"4","last_reported":1779022526,"current_range_meters":7200,"station_id":"ce4bhbh2rcd13ifvqeqg","pricing_plan_id":"cebpf4jnsgd1na2vs0mg"},{"bike_id":"74d40d6b-f540-40b8-a678-d60c19f55df8","system_id":"levelo_inurba_marseille","lat":43.29948,"lon":5.36531,"is_reserved":false,"is_disabled":false,"rental_uris":{"android":"levelo://app?vid=74d40d6b-f540-40b8-a678-d60c19f55df8","ios":"levelo://app?vid=74d40d6b-f540-40b8-a678-d60c19f55df8"},"vehicle_type_id":"4","last_reported":1779022526,"current_range_meters":7200,"station_id":"ce4bgm92rcd13ifvqbr0","pricing_plan_id":"cebpf4jnsgd1na2vs0mg"},{"bike_id":"4d31ed6e-13e0-4959-aa6c-cce6ffc3f7ff","system_id":"levelo_inurba_marseille","lat":43.27462,"lon":5.41661,"is_reserved":false,"is_disabled":false,"rental_uris":{"android":"levelo://app?vid=4d31ed6e-13e0-4959-aa6c-cce6ffc3f7ff","ios":"levelo://app?vid=4d31ed6e-13e0-4959-aa6c-cce6ffc3f7ff"},"vehicle_type_id":"4","last_reported":1779022526,"current_range_meters":7200,"station_id":"","pricing_plan_id":"cebpf4jnsgd1na2vs0mg"},{"bike_id":"c1af0b24-ac3d-4445-8bd9-2cd83483b876","system_id":"levelo_inurba_marseille","lat":43.28436,"lon":5.34967,"is_reserved":false,"is_disabled":false,"rental_uris":{"android":"levelo://app?vid=c1af0b24-ac3d-4445-8bd9-2cd83483b876","ios":"levelo://app?vid=c1af0b24-ac3d-4445-8bd9-2cd83483b876"},"vehicle_type_id":"4","last_reported":1779022526,"current_range_meters":7200,"station_id":"ce4bhbh2rcd13ifvqepg","pricing_plan_id":"cebpf4jnsgd1na2vs0mg"},{"bike_id":"0e7bc89c-a25b-417d-b70d-75f2b4a97038","system_id":"levelo_inurba_marseille","lat":43.24668,"lon":5.38161,"is_reserved":false,"is_disabled":false,"rental_uris":{"android":"levelo://app?vid=0e7bc89c-a25b-417d-b70d-75f2b4a97038","ios":"levelo://app?vid=0e7bc89c-a25b-417d-b70d-75f2b4a97038"},"vehicle_type_id":"4","last_reported":1779022526,"current_range_meters":7200,"station_id":"ce4bhih2rcd13ifvqfr0","pricing_plan_id":"cebpf4jnsgd1na2vs0mg"},{"bike_id":"3a1e6ad4-3d7b-4b96-badc-0bcb522bacf3","system_id":"levelo_inurba_marseille","lat":43.29039,"lon":5.386407,"is_reserved":false,"is_disabled":false,"rental_uris":{"android":"levelo://app?vid=3a1e6ad4-3d7b-4b96-badc-0bcb522bacf3","ios":"levelo://app?vid=3a1e6ad4-3d7b-4b96-badc-0bcb522bacf3"},"vehicle_type_id":"4","last_reported":1779022526,"current_range_meters":7200,"station_id":"ce4bh4p2rcd13ifvqe0g","pricing_plan_id":"cebpf4jnsgd1na2vs0mg"},{"bike_id":"6309bb83-16de-49b5-b945-ff87fed43bc6","system_id":"levelo_inurba_marseille","lat":43.2119,"lon":5.35057,"is_reserved":false,"is_disabled":false,"rental_uris":{"android":"levelo://app?vid=6309bb83-16de-49b5-b945-ff87fed43bc6","ios":"levelo://app?vid=6309bb83-16de-49b5-b945-ff87fed43bc6"},"vehicle_type_id":"4","last_reported":1779022526,"current_range_meters":7200,"station_id":"st_cvj6sg6p6f1abm77japg","pricing_plan_id":"cebpf4jnsgd1na2vs0mg"},{"bike_id":"e6bbcb34-20bf-4ce5-b5b7-6243a17e2e8d","system_id":"levelo_inurba_marseille","lat":43.21199,"lon":5.35054,"is_reserved":false,"is_disabled":false,"rental_uris":{"android":"levelo://app?vid=e6bbcb34-20bf-4ce5-b5b7-6243a17e2e8d","ios":"levelo://app?vid=e6bbcb34-20bf-4ce5-b5b7-6243a17e2e8d"},"vehicle_type_id":"4","last_reported":1779022526,"current_range_meters":7200,"station_id":"st_cvj6sg6p6f1abm77japg","pricing_plan_id":"cebpf4jnsgd1na2vs0mg"},{"bike_id":"288a4726-1258-46ec-a70f-c345081256cd","system_id":"levelo_inurba_marseille","lat":43.24172,"lon":5.36389,"is_reserved":false,"is_disabled":false,"rental_uris":{"android":"levelo://app?vid=288a4726-1258-46ec-a70f-c345081256cd","ios":"levelo://app?vid=288a4726-1258-46ec-a70f-c345081256cd"},"vehicle_type_id":"4","last_reported":1779022526,"current_range_meters":7200,"station_id":"cpo36qri1sfpv3e86is0","pricing_plan_id":"cebpf4jnsgd1na2vs0mg"},{"bike_id":"f12dce49-227a-48b9-9d64-195abb2796ea","system_id":"levelo_inurba_marseille","lat":43.24165,"lon":5.36409,"is_reserved":false,"is_disabled":false,"rental_uris":{"android":"levelo://app?vid=f12dce49-227a-48b9-9d64-195abb2796ea","ios":"levelo://app?vid=f12dce49-227a-48b9-9d64-195abb2796ea"},"vehicle_type_id":"4","last_reported":1779022526,"current_range_meters":7200,"station_id":"cpo36qri1sfpv3e86is0","pricing_plan_id":"cebpf4jnsgd1na2vs0mg"},{"bike_id":"c2b6143b-d098-4b2c-8058-799b831dba6b","system_id":"levelo_inurba_marseille","lat":43.24814,"lon":5.37437,"is_reserved":false,"is_disabled":false,"rental_uris":{"android":"levelo://app?vid=c2b6143b-d098-4b2c-8058-799b831dba6b","ios":"levelo://app?vid=c2b6143b-d098-4b2c-8058-799b831dba6b"},"vehicle_type_id":"4","last_reported":1779022526,"current_range_meters":7200,"station_id":"ce4bhgh2rcd13ifvqfb0","pricing_plan_id":"cebpf4jnsgd1na2vs0mg"},{"bike_id":"df4f184e-16c8-4c32-b6b5-5ed8d07fffef","system_id":"levelo_inurba_marseille","lat":43.29267,"lon":5.40306,"is_reserved":false,"is_disabled":false,"rental_uris":{"android":"levelo://app?vid=df4f184e-16c8-4c32-b6b5-5ed8d07fffef","ios":"levelo://app?vid=df4f184e-16c8-4c32-b6b5-5ed8d07fffef"},"vehicle_type_id":"4","last_reported":1779022526,"current_range_meters":7200,"station_id":"","pricing_plan_id":"cebpf4jnsgd1na2vs0mg"},{"bike_id":"e4a68cfa-90bf-4d02-8a71-80228ddf9cac","system_id":"levelo_inurba_marseille","lat":43.32104,"lon":5.36782,"is_reserved":false,"is_disabled":false,"rental_uris":{"android":"levelo://app?vid=e4a68cfa-90bf-4d02-8a71-80228ddf9cac","ios":"levelo://app?vid=e4a68cfa-90bf-4d02-8a71-80228ddf9cac"},"vehicle_type_id":"4","last_reported":1779022526,"current_range_meters":7200,"station_id":"ce4bhrh2rcd13ifvqhug","pricing_plan_id":"cebpf4jnsgd1na2vs0mg"},{"bike_id":"e5a5356a-5a82-48fa-a186-098cb07b4070","system_id":"levelo_inurba_marseille","lat":43.29789,"lon":5.38101,"is_reserved":false,"is_disabled":false,"rental_uris":{"android":"levelo://app?vid=e5a5356a-5a82-48fa-a186-098cb07b4070","ios":"levelo://app?vid=e5a5356a-5a82-48fa-a186-098cb07b4070"},"vehicle_type_id":"4","last_reported":1779022526,"current_range_meters":7200,"station_id":"ce4bgip2rcd13ifvqbb0","pricing_plan_id":"cebpf4jnsgd1na2vs0mg"},{"bike_id":"e161ba30-d581-44ab-b81c-5f59de5d89c7","system_id":"levelo_inurba_marseille","lat":43.23898,"lon":5.37457,"is_reserved":false,"is_disabled":true,"rental_uris":{"android":"levelo://app?vid=e161ba30-d581-44ab-b81c-5f59de5d89c7","ios":"levelo://app?vid=e161ba30-d581-44ab-b81c-5f59de5d89c7"},"vehicle_type_id":"4","last_reported":1779022526,"current_range_meters":7200,"station_id":"st_d6sm7csbq4hs73f8fpjg","pricing_plan_id":"cebpf4jnsgd1na2vs0mg"},{"bike_id":"cfd13266-6071-4a81-84b3-34d70693dbe8","system_id":"levelo_inurba_marseille","lat":43.24404,"lon":5.37073,"is_reserved":false,"is_disabled":false,"rental_uris":{"android":"levelo://app?vid=cfd13266-6071-4a81-84b3-34d70693dbe8","ios":"levelo://app?vid=cfd13266-6071-4a81-84b3-34d70693dbe8"},"vehicle_type_id":"4","last_reported":1779022526,"current_range_meters":7200,"station_id":"ce4bhhh2rcd13ifvqfk0","pricing_plan_id":"cebpf4jnsgd1na2vs0mg"},{"bike_id":"7e819ae7-df7e-4297-b3ea-562b578e4346","system_id":"levelo_inurba_marseille","lat":43.23969,"lon":5.36622,"is_reserved":false,"is_disabled":false,"rental_uris":{"android":"levelo://app?vid=7e819ae7-df7e-4297-b3ea-562b578e4346","ios":"levelo://app?vid=7e819ae7-df7e-4297-b3ea-562b578e4346"},"vehicle_type_id":"4","last_reported":1779022526,"current_range_meters":7200,"station_id":"ce4bhi12rcd13ifvqfp0","pricing_plan_id":"cebpf4jnsgd1na2vs0mg"},{"bike_id":"f6339ac7-6f1c-40eb-8be6-31a304b57f38","system_id":"levelo_inurba_marseille","lat":43.24168,"lon":5.36388,"is_reserved":false,"is_disabled":false,"rental_uris":{"android":"levelo://app?vid=f6339ac7-6f1c-40eb-8be6-31a304b57f38","ios":"levelo://app?vid=f6339ac7-6f1c-40eb-8be6-31a304b57f38"},"vehicle_type_id":"4","last_reported":1779022526,"current_range_meters":7200,"station_id":"cpo36qri1sfpv3e86is0","pricing_plan_id":"cebpf4jnsgd1na2vs0mg"},{"bike_id":"cd5eec59-c72d-43dc-86ac-987041838eb7","system_id":"levelo_inurba_marseille","lat":43.28416,"lon":5.34978,"is_reserved":false,"is_disabled":false,"rental_uris":{"android":"levelo://app?vid=cd5eec59-c72d-43dc-86ac-987041838eb7","ios":"levelo://app?vid=cd5eec59-c72d-43dc-86ac-987041838eb7"},"vehicle_type_id":"4","last_reported":1779022526,"current_range_meters":7200,"station_id":"ce4bhbh2rcd13ifvqepg","pricing_plan_id":"cebpf4jnsgd1na2vs0mg"},{"bike_id":"bb6646ee-08fa-4064-a90d-46f154dac55c","system_id":"levelo_inurba_marseille","lat":43.28277,"lon":5.35078,"is_reserved":false,"is_disabled":false,"rental_uris":{"android":"levelo://app?vid=bb6646ee-08fa-4064-a90d-46f154dac55c","ios":"levelo://app?vid=bb6646ee-08fa-4064-a90d-46f154dac55c"},"vehicle_type_id":"4","last_reported":1779022526,"current_range_meters":7200,"station_id":"ce4bhbp2rcd13ifvqerg","pricing_plan_id":"cebpf4jnsgd1na2vs0mg"},{"bike_id":"f66c1f35-c8c5-4631-922e-044e3147355b","system_id":"levelo_inurba_marseille","lat":43.32097,"lon":5.36799,"is_reserved":false,"is_disabled":false,"rental_uris":{"android":"levelo://app?vid=f66c1f35-c8c5-4631-922e-044e3147355b","ios":"levelo://app?vid=f66c1f35-c8c5-4631-922e-044e3147355b"},"vehicle_type_id":"4","last_reported":1779022526,"current_range_meters":7200,"station_id":"ce4bhrh2rcd13ifvqhug","pricing_plan_id":"cebpf4jnsgd1na2vs0mg"},{"bike_id":"27aed03a-8374-4347-913e-9b1e82ca96ff","system_id":"levelo_inurba_marseille","lat":43.24159,"lon":5.36405,"is_reserved":false,"is_disabled":false,"rental_uris":{"android":"levelo://app?vid=27aed03a-8374-4347-913e-9b1e82ca96ff","ios":"levelo://app?vid=27aed03a-8374-4347-913e-9b1e82ca96ff"},"vehicle_type_id":"4","last_reported":1779022526,"current_range_meters":8000,"station_id":"cpo36qri1sfpv3e86is0","pricing_plan_id":"cebpf4jnsgd1na2vs0mg"},{"bike_id":"e6adddb4-cf5a-45f0-9c7a-79e04b64ad00","system_id":"levelo_inurba_marseille","lat":43.23182,"lon":5.39979,"is_reserved":false,"is_disabled":false,"rental_uris":{"android":"levelo://app?vid=e6adddb4-cf5a-45f0-9c7a-79e04b64ad00","ios":"levelo://app?vid=e6adddb4-cf5a-45f0-9c7a-79e04b64ad00"},"vehicle_type_id":"4","last_reported":1779022526,"current_range_meters":8000,"station_id":"ce4bhn12rcd13ifvqgqg","pricing_plan_id":"cebpf4jnsgd1na2vs0mg"},{"bike_id":"90cdffea-1c50-4ffd-8284-48fc41d50102","system_id":"levelo_inurba_marseille","lat":43.28863,"lon":5.42521,"is_reserved":false,"is_disabled":false,"rental_uris":{"android":"levelo://app?vid=90cdffea-1c50-4ffd-8284-48fc41d50102","ios":"levelo://app?vid=90cdffea-1c50-4ffd-8284-48fc41d50102"},"vehicle_type_id":"4","last_reported":1779022526,"current_range_meters":8000,"station_id":"st_d3b462108ojc7389ooeg","pricing_plan_id":"cebpf4jnsgd1na2vs0mg"},{"bike_id":"1dd7d753-327a-4a0e-96a8-c35b8f67f696","system_id":"levelo_inurba_marseille","lat":43.23963,"lon":5.36618,"is_reserved":false,"is_disabled":false,"rental_uris":{"android":"levelo://app?vid=1dd7d753-327a-4a0e-96a8-c35b8f67f696","ios":"levelo://app?vid=1dd7d753-327a-4a0e-96a8-c35b8f67f696"},"vehicle_type_id":"4","last_reported":1779022526,"current_range_meters":8000,"station_id":"ce4bhi12rcd13ifvqfp0","pricing_plan_id":"cebpf4jnsgd1na2vs0mg"},{"bike_id":"df7e8916-902d-4ff1-81c5-b9162df57ef8","system_id":"levelo_inurba_marseille","lat":43.28265,"lon":5.35058,"is_reserved":false,"is_disabled":true,"rental_uris":{"android":"levelo://app?vid=df7e8916-902d-4ff1-81c5-b9162df57ef8","ios":"levelo://app?vid=df7e8916-902d-4ff1-81c5-b9162df57ef8"},"vehicle_type_id":"4","last_reported":1779022526,"current_range_meters":8000,"station_id":"ce4bhbp2rcd13ifvqerg","pricing_plan_id":"cebpf4jnsgd1na2vs0mg"},{"bike_id":"c25bb2bb-dc7b-45d8-a755-b97e94cf666e","system_id":"levelo_inurba_marseille","lat":43.27963,"lon":5.3868,"is_reserved":false,"is_disabled":true,"rental_uris":{"android":"levelo://app?vid=c25bb2bb-dc7b-45d8-a755-b97e94cf666e","ios":"levelo://app?vid=c25bb2bb-dc7b-45d8-a755-b97e94cf666e"},"vehicle_type_id":"4","last_reported":1779022526,"current_range_meters":8000,"station_id":"","pricing_plan_id":"cebpf4jnsgd1na2vs0mg"},{"bike_id":"315f2aad-f2f6-4575-b1eb-01ac17147634","system_id":"levelo_inurba_marseille","lat":43.21193,"lon":5.35081,"is_reserved":false,"is_disabled":false,"rental_uris":{"android":"levelo://app?vid=315f2aad-f2f6-4575-b1eb-01ac17147634","ios":"levelo://app?vid=315f2aad-f2f6-4575-b1eb-01ac17147634"},"vehicle_type_id":"4","last_reported":1779022526,"current_range_meters":8000,"station_id":"st_cvj6sg6p6f1abm77japg","pricing_plan_id":"cebpf4jnsgd1na2vs0mg"},{"bike_id":"f996d1a5-8826-40b7-94d9-0b28d82e7c45","system_id":"levelo_inurba_marseille","lat":43.21192,"lon":5.35075,"is_reserved":false,"is_disabled":false,"rental_uris":{"android":"levelo://app?vid=f996d1a5-8826-40b7-94d9-0b28d82e7c45","ios":"levelo://app?vid=f996d1a5-8826-40b7-94d9-0b28d82e7c45"},"vehicle_type_id":"4","last_reported":1779022526,"current_range_meters":8000,"station_id":"st_cvj6sg6p6f1abm77japg","pricing_plan_id":"cebpf4jnsgd1na2vs0mg"},{"bike_id":"c2d9d8a7-d510-42d7-aeb7-b6e3b2a508fa","system_id":"levelo_inurba_marseille","lat":43.24646,"lon":5.38927,"is_reserved":false,"is_disabled":false,"rental_uris":{"android":"levelo://app?vid=c2d9d8a7-d510-42d7-aeb7-b6e3b2a508fa","ios":"levelo://app?vid=c2d9d8a7-d510-42d7-aeb7-b6e3b2a508fa"},"vehicle_type_id":"4","last_reported":1779022526,"current_range_meters":8000,"station_id":"ce4bhg12rcd13ifvqf60","pricing_plan_id":"cebpf4jnsgd1na2vs0mg"},{"bike_id":"d7ee4d21-e079-4dcd-88c2-d5121789a4b2","system_id":"levelo_inurba_marseille","lat":43.24334,"lon":5.38439,"is_reserved":false,"is_disabled":false,"rental_uris":{"android":"levelo://app?vid=d7ee4d21-e079-4dcd-88c2-d5121789a4b2","ios":"levelo://app?vid=d7ee4d21-e079-4dcd-88c2-d5121789a4b2"},"vehicle_type_id":"4","last_reported":1779022526,"current_range_meters":8000,"station_id":"","pricing_plan_id":"cebpf4jnsgd1na2vs0mg"},{"bike_id":"05538a87-8ae7-43a8-a523-ae2a66a335d0","system_id":"levelo_inurba_marseille","lat":43.31057,"lon":5.3717,"is_reserved":false,"is_disabled":false,"rental_uris":{"android":"levelo://app?vid=05538a87-8ae7-43a8-a523-ae2a66a335d0","ios":"levelo://app?vid=05538a87-8ae7-43a8-a523-ae2a66a335d0"},"vehicle_type_id":"4","last_reported":1779022526,"current_range_meters":8000,"station_id":"st_d4kl2rp97mjs73e7tdfg","pricing_plan_id":"cebpf4jnsgd1na2vs0mg"},{"bike_id":"47f3d0a8-9d27-404a-af9f-48dcc9a0d973","system_id":"levelo_inurba_marseille","lat":43.29199,"lon":5.35783,"is_reserved":false,"is_disabled":false,"rental_uris":{"android":"levelo://app?vid=47f3d0a8-9d27-404a-af9f-48dcc9a0d973","ios":"levelo://app?vid=47f3d0a8-9d27-404a-af9f-48dcc9a0d973"},"vehicle_type_id":"4","last_reported":1779022526,"current_range_meters":8000,"station_id":"ce4bhb12rcd13ifvqel0","pricing_plan_id":"cebpf4jnsgd1na2vs0mg"},{"bike_id":"73d7181d-919c-47ee-a9b7-24323f565b39","system_id":"levelo_inurba_marseille","lat":43.28418,"lon":5.34989,"is_reserved":false,"is_disabled":false,"rental_uris":{"android":"levelo://app?vid=73d7181d-919c-47ee-a9b7-24323f565b39","ios":"levelo://app?vid=73d7181d-919c-47ee-a9b7-24323f565b39"},"vehicle_type_id":"4","last_reported":1779022526,"current_range_meters":8000,"station_id":"ce4bhbh2rcd13ifvqepg","pricing_plan_id":"cebpf4jnsgd1na2vs0mg"},{"bike_id":"cf1cf58e-c228-4f7c-94c5-68d3fccf5c1d","system_id":"levelo_inurba_marseille","lat":43.28411,"lon":5.34997,"is_reserved":false,"is_disabled":false,"rental_uris":{"android":"levelo://app?vid=cf1cf58e-c228-4f7c-94c5-68d3fccf5c1d","ios":"levelo://app?vid=cf1cf58e-c228-4f7c-94c5-68d3fccf5c1d"},"vehicle_type_id":"4","last_reported":1779022526,"current_range_meters":8000,"station_id":"ce4bhbh2rcd13ifvqepg","pricing_plan_id":"cebpf4jnsgd1na2vs0mg"},{"bike_id":"b82c18d9-c5aa-4bb0-9404-19d838a33380","system_id":"levelo_inurba_marseille","lat":43.26367,"lon":5.4108,"is_reserved":false,"is_disabled":false,"rental_uris":{"android":"levelo://app?vid=b82c18d9-c5aa-4bb0-9404-19d838a33380","ios":"levelo://app?vid=b82c18d9-c5aa-4bb0-9404-19d838a33380"},"vehicle_type_id":"4","last_reported":1779022526,"current_range_meters":8000,"station_id":"st_d4e5ca6na9uc73bfl5fg","pricing_plan_id":"cebpf4jnsgd1na2vs0mg"},{"bike_id":"98b29b95-e9a4-4760-a23d-24855b7ec05d","system_id":"levelo_inurba_marseille","lat":43.33161,"lon":5.37718,"is_reserved":false,"is_disabled":false,"rental_uris":{"android":"levelo://app?vid=98b29b95-e9a4-4760-a23d-24855b7ec05d","ios":"levelo://app?vid=98b29b95-e9a4-4760-a23d-24855b7ec05d"},"vehicle_type_id":"4","last_reported":1779022526,"current_range_meters":8000,"station_id":"st_d46cu089ee8s73dldbu0","pricing_plan_id":"cebpf4jnsgd1na2vs0mg"},{"bike_id":"b8e5fe81-9167-43b2-abff-bfa3ae9ce47c","system_id":"levelo_inurba_marseille","lat":43.3315,"lon":5.37715,"is_reserved":false,"is_disabled":false,"rental_uris":{"android":"levelo://app?vid=b8e5fe81-9167-43b2-abff-bfa3ae9ce47c","ios":"levelo://app?vid=b8e5fe81-9167-43b2-abff-bfa3ae9ce47c"},"vehicle_type_id":"4","last_reported":1779022526,"current_range_meters":8000,"station_id":"st_d46cu089ee8s73dldbu0","pricing_plan_id":"cebpf4jnsgd1na2vs0mg"},{"bike_id":"a47f1c82-4471-44a1-95ce-68eddfe6d81a","system_id":"levelo_inurba_marseille","lat":43.24168,"lon":5.36405,"is_reserved":false,"is_disabled":false,"rental_uris":{"android":"levelo://app?vid=a47f1c82-4471-44a1-95ce-68eddfe6d81a","ios":"levelo://app?vid=a47f1c82-4471-44a1-95ce-68eddfe6d81a"},"vehicle_type_id":"4","last_reported":1779022526,"current_range_meters":8000,"station_id":"cpo36qri1sfpv3e86is0","pricing_plan_id":"cebpf4jnsgd1na2vs0mg"},{"bike_id":"f973dc85-ddbb-4538-a61e-8505740eaf57","system_id":"levelo_inurba_marseille","lat":43.24174,"lon":5.36395,"is_reserved":false,"is_disabled":false,"rental_uris":{"android":"levelo://app?vid=f973dc85-ddbb-4538-a61e-8505740eaf57","ios":"levelo://app?vid=f973dc85-ddbb-4538-a61e-8505740eaf57"},"vehicle_type_id":"4","last_reported":1779022526,"current_range_meters":8000,"station_id":"cpo36qri1sfpv3e86is0","pricing_plan_id":"cebpf4jnsgd1na2vs0mg"},{"bike_id":"76ee4074-9696-4c4d-b584-29f98234f852","system_id":"levelo_inurba_marseille","lat":43.2417,"lon":5.36401,"is_reserved":false,"is_disabled":false,"rental_uris":{"android":"levelo://app?vid=76ee4074-9696-4c4d-b584-29f98234f852","ios":"levelo://app?vid=76ee4074-9696-4c4d-b584-29f98234f852"},"vehicle_type_id":"4","last_reported":1779022526,"current_range_meters":8000,"station_id":"cpo36qri1sfpv3e86is0","pricing_plan_id":"cebpf4jnsgd1na2vs0mg"},{"bike_id":"698b85c5-bf11-437e-913f-7d2243a0f74a","system_id":"levelo_inurba_marseille","lat":43.26241,"lon":5.37563,"is_reserved":false,"is_disabled":false,"rental_uris":{"android":"levelo://app?vid=698b85c5-bf11-437e-913f-7d2243a0f74a","ios":"levelo://app?vid=698b85c5-bf11-437e-913f-7d2243a0f74a"},"vehicle_type_id":"4","last_reported":1779022526,"current_range_meters":8000,"station_id":"","pricing_plan_id":"cebpf4jnsgd1na2vs0mg"},{"bike_id":"5fa27f55-b9ab-4839-bde9-689d1d71f360","system_id":"levelo_inurba_marseille","lat":43.21191,"lon":5.35079,"is_reserved":false,"is_disabled":false,"rental_uris":{"android":"levelo://app?vid=5fa27f55-b9ab-4839-bde9-689d1d71f360","ios":"levelo://app?vid=5fa27f55-b9ab-4839-bde9-689d1d71f360"},"vehicle_type_id":"4","last_reported":1779022526,"current_range_meters":8000,"station_id":"st_cvj6sg6p6f1abm77japg","pricing_plan_id":"cebpf4jnsgd1na2vs0mg"},{"bike_id":"b5f0d8fe-6229-473f-9a48-969fb03f1654","system_id":"levelo_inurba_marseille","lat":43.284189,"lon":5.349789,"is_reserved":false,"is_disabled":false,"rental_uris":{"android":"levelo://app?vid=b5f0d8fe-6229-473f-9a48-969fb03f1654","ios":"levelo://app?vid=b5f0d8fe-6229-473f-9a48-969fb03f1654"},"vehicle_type_id":"4","last_reported":1779022526,"current_range_meters":8400,"station_id":"ce4bhbh2rcd13ifvqepg","pricing_plan_id":"cebpf4jnsgd1na2vs0mg"},{"bike_id":"b1d3e025-5343-43b8-abdd-24c134f1802b","system_id":"levelo_inurba_marseille","lat":43.21742,"lon":5.34604,"is_reserved":false,"is_disabled":false,"rental_uris":{"android":"levelo://app?vid=b1d3e025-5343-43b8-abdd-24c134f1802b","ios":"levelo://app?vid=b1d3e025-5343-43b8-abdd-24c134f1802b"},"vehicle_type_id":"4","last_reported":1779022526,"current_range_meters":8400,"station_id":"st_cvj6r9ubvosntc0bgbag","pricing_plan_id":"cebpf4jnsgd1na2vs0mg"},{"bike_id":"4b27839d-9a04-406f-9540-246382bf47cf","system_id":"levelo_inurba_marseille","lat":43.26594,"lon":5.39677,"is_reserved":false,"is_disabled":false,"rental_uris":{"android":"levelo://app?vid=4b27839d-9a04-406f-9540-246382bf47cf","ios":"levelo://app?vid=4b27839d-9a04-406f-9540-246382bf47cf"},"vehicle_type_id":"4","last_reported":1779022526,"current_range_meters":8400,"station_id":"","pricing_plan_id":"cebpf4jnsgd1na2vs0mg"},{"bike_id":"548c531f-8dd2-4ca6-ad8b-07f3c741527f","system_id":"levelo_inurba_marseille","lat":43.2679,"lon":5.39419,"is_reserved":false,"is_disabled":false,"rental_uris":{"android":"levelo://app?vid=548c531f-8dd2-4ca6-ad8b-07f3c741527f","ios":"levelo://app?vid=548c531f-8dd2-4ca6-ad8b-07f3c741527f"},"vehicle_type_id":"4","last_reported":1779022526,"current_range_meters":8400,"station_id":"ce4bhh12rcd13ifvqfg0","pricing_plan_id":"cebpf4jnsgd1na2vs0mg"},{"bike_id":"1569d417-2c8c-46b9-b389-8c80f587bd9b","system_id":"levelo_inurba_marseille","lat":43.29435,"lon":5.3757,"is_reserved":false,"is_disabled":false,"rental_uris":{"android":"levelo://app?vid=1569d417-2c8c-46b9-b389-8c80f587bd9b","ios":"levelo://app?vid=1569d417-2c8c-46b9-b389-8c80f587bd9b"},"vehicle_type_id":"4","last_reported":1779022526,"current_range_meters":8400,"station_id":"","pricing_plan_id":"cebpf4jnsgd1na2vs0mg"},{"bike_id":"abc99932-c216-422a-aab0-a9df05a5d1ea","system_id":"levelo_inurba_marseille","lat":43.30945,"lon":5.39036,"is_reserved":false,"is_disabled":true,"rental_uris":{"android":"levelo://app?vid=abc99932-c216-422a-aab0-a9df05a5d1ea","ios":"levelo://app?vid=abc99932-c216-422a-aab0-a9df05a5d1ea"},"vehicle_type_id":"4","last_reported":1779022526,"current_range_meters":8400,"station_id":"ce4bgup2rcd13ifvqco0","pricing_plan_id":"cebpf4jnsgd1na2vs0mg"},{"bike_id":"faee37e4-92c2-4ba8-8eb0-6758fa6b3abe","system_id":"levelo_inurba_marseille","lat":43.21181,"lon":5.35084,"is_reserved":false,"is_disabled":false,"rental_uris":{"android":"levelo://app?vid=faee37e4-92c2-4ba8-8eb0-6758fa6b3abe","ios":"levelo://app?vid=faee37e4-92c2-4ba8-8eb0-6758fa6b3abe"},"vehicle_type_id":"4","last_reported":1779022526,"current_range_meters":8400,"station_id":"st_cvj6sg6p6f1abm77japg","pricing_plan_id":"cebpf4jnsgd1na2vs0mg"},{"bike_id":"b2f7955a-0c1e-4f8a-a6ce-8e1fa1dfbae6","system_id":"levelo_inurba_marseille","lat":43.31512,"lon":5.3726,"is_reserved":false,"is_disabled":false,"rental_uris":{"android":"levelo://app?vid=b2f7955a-0c1e-4f8a-a6ce-8e1fa1dfbae6","ios":"levelo://app?vid=b2f7955a-0c1e-4f8a-a6ce-8e1fa1dfbae6"},"vehicle_type_id":"4","last_reported":1779022526,"current_range_meters":8400,"station_id":"ce4bgt12rcd13ifvqcd0","pricing_plan_id":"cebpf4jnsgd1na2vs0mg"},{"bike_id":"22485252-5bcd-4276-afec-c72bb105bbb4","system_id":"levelo_inurba_marseille","lat":43.28277,"lon":5.35064,"is_reserved":false,"is_disabled":true,"rental_uris":{"android":"levelo://app?vid=22485252-5bcd-4276-afec-c72bb105bbb4","ios":"levelo://app?vid=22485252-5bcd-4276-afec-c72bb105bbb4"},"vehicle_type_id":"4","last_reported":1779022526,"current_range_meters":8400,"station_id":"ce4bhbp2rcd13ifvqerg","pricing_plan_id":"cebpf4jnsgd1na2vs0mg"},{"bike_id":"62b3362a-4297-4f99-b131-a33886f7d376","system_id":"levelo_inurba_marseille","lat":43.29214,"lon":5.36099,"is_reserved":false,"is_disabled":false,"rental_uris":{"android":"levelo://app?vid=62b3362a-4297-4f99-b131-a33886f7d376","ios":"levelo://app?vid=62b3362a-4297-4f99-b131-a33886f7d376"},"vehicle_type_id":"4","last_reported":1779022526,"current_range_meters":8400,"station_id":"ce4bhbh2rcd13ifvqeqg","pricing_plan_id":"cebpf4jnsgd1na2vs0mg"},{"bike_id":"87c9f314-f0a2-4f1c-b6db-0158c2096ddd","system_id":"levelo_inurba_marseille","lat":43.28417,"lon":5.34984,"is_reserved":false,"is_disabled":false,"rental_uris":{"android":"levelo://app?vid=87c9f314-f0a2-4f1c-b6db-0158c2096ddd","ios":"levelo://app?vid=87c9f314-f0a2-4f1c-b6db-0158c2096ddd"},"vehicle_type_id":"4","last_reported":1779022526,"current_range_meters":8400,"station_id":"ce4bhbh2rcd13ifvqepg","pricing_plan_id":"cebpf4jnsgd1na2vs0mg"},{"bike_id":"b3e1b6e3-5999-4f29-95eb-3732e611c93a","system_id":"levelo_inurba_marseille","lat":43.28409,"lon":5.34988,"is_reserved":false,"is_disabled":false,"rental_uris":{"android":"levelo://app?vid=b3e1b6e3-5999-4f29-95eb-3732e611c93a","ios":"levelo://app?vid=b3e1b6e3-5999-4f29-95eb-3732e611c93a"},"vehicle_type_id":"4","last_reported":1779022526,"current_range_meters":8400,"station_id":"ce4bhbh2rcd13ifvqepg","pricing_plan_id":"cebpf4jnsgd1na2vs0mg"},{"bike_id":"f2317ff5-4023-4f3e-8cda-2481600613ad","system_id":"levelo_inurba_marseille","lat":43.29819,"lon":5.41673,"is_reserved":false,"is_disabled":false,"rental_uris":{"android":"levelo://app?vid=f2317ff5-4023-4f3e-8cda-2481600613ad","ios":"levelo://app?vid=f2317ff5-4023-4f3e-8cda-2481600613ad"},"vehicle_type_id":"4","last_reported":1779022526,"current_range_meters":8400,"station_id":"","pricing_plan_id":"cebpf4jnsgd1na2vs0mg"},{"bike_id":"0396681e-7b25-47a3-a905-bf5e66858498","system_id":"levelo_inurba_marseille","lat":43.2737,"lon":5.36235,"is_reserved":false,"is_disabled":false,"rental_uris":{"android":"levelo://app?vid=0396681e-7b25-47a3-a905-bf5e66858498","ios":"levelo://app?vid=0396681e-7b25-47a3-a905-bf5e66858498"},"vehicle_type_id":"4","last_reported":1779022526,"current_range_meters":8400,"station_id":"ce4bhbh2rcd13ifvqeo0","pricing_plan_id":"cebpf4jnsgd1na2vs0mg"},{"bike_id":"94f81ac9-3964-4ff0-8eac-6f07920af01e","system_id":"levelo_inurba_marseille","lat":43.23136,"lon":5.43751,"is_reserved":false,"is_disabled":false,"rental_uris":{"android":"levelo://app?vid=94f81ac9-3964-4ff0-8eac-6f07920af01e","ios":"levelo://app?vid=94f81ac9-3964-4ff0-8eac-6f07920af01e"},"vehicle_type_id":"4","last_reported":1779022526,"current_range_meters":8400,"station_id":"ce4bhmp2rcd13ifvqgog","pricing_plan_id":"cebpf4jnsgd1na2vs0mg"},{"bike_id":"e8c9cc4e-c37c-4a51-ab3c-15c0f69976d2","system_id":"levelo_inurba_marseille","lat":43.31235,"lon":5.37833,"is_reserved":false,"is_disabled":false,"rental_uris":{"android":"levelo://app?vid=e8c9cc4e-c37c-4a51-ab3c-15c0f69976d2","ios":"levelo://app?vid=e8c9cc4e-c37c-4a51-ab3c-15c0f69976d2"},"vehicle_type_id":"4","last_reported":1779022526,"current_range_meters":8400,"station_id":"","pricing_plan_id":"cebpf4jnsgd1na2vs0mg"},{"bike_id":"68fcd666-2bd6-4178-b790-a8e4ae545292","system_id":"levelo_inurba_marseille","lat":43.23964,"lon":5.3663,"is_reserved":false,"is_disabled":false,"rental_uris":{"android":"levelo://app?vid=68fcd666-2bd6-4178-b790-a8e4ae545292","ios":"levelo://app?vid=68fcd666-2bd6-4178-b790-a8e4ae545292"},"vehicle_type_id":"4","last_reported":1779022526,"current_range_meters":8800,"station_id":"ce4bhi12rcd13ifvqfp0","pricing_plan_id":"cebpf4jnsgd1na2vs0mg"},{"bike_id":"f3f4d17a-6479-4d5a-8586-9fc4892c7131","system_id":"levelo_inurba_marseille","lat":43.3169,"lon":5.40489,"is_reserved":false,"is_disabled":false,"rental_uris":{"android":"levelo://app?vid=f3f4d17a-6479-4d5a-8586-9fc4892c7131","ios":"levelo://app?vid=f3f4d17a-6479-4d5a-8586-9fc4892c7131"},"vehicle_type_id":"4","last_reported":1779022526,"current_range_meters":8800,"station_id":"ce4bh012rcd13ifvqd00","pricing_plan_id":"cebpf4jnsgd1na2vs0mg"},{"bike_id":"fb111f7b-b356-43a1-adea-9de7c624eee1","system_id":"levelo_inurba_marseille","lat":43.24659,"lon":5.38144,"is_reserved":false,"is_disabled":false,"rental_uris":{"android":"levelo://app?vid=fb111f7b-b356-43a1-adea-9de7c624eee1","ios":"levelo://app?vid=fb111f7b-b356-43a1-adea-9de7c624eee1"},"vehicle_type_id":"4","last_reported":1779022526,"current_range_meters":8800,"station_id":"ce4bhih2rcd13ifvqfr0","pricing_plan_id":"cebpf4jnsgd1na2vs0mg"},{"bike_id":"e18be694-5d76-40ca-8d90-a42137ec1788","system_id":"levelo_inurba_marseille","lat":43.28619,"lon":5.351,"is_reserved":false,"is_disabled":false,"rental_uris":{"android":"levelo://app?vid=e18be694-5d76-40ca-8d90-a42137ec1788","ios":"levelo://app?vid=e18be694-5d76-40ca-8d90-a42137ec1788"},"vehicle_type_id":"4","last_reported":1779022526,"current_range_meters":8800,"station_id":"ce4bhch2rcd13ifvqeug","pricing_plan_id":"cebpf4jnsgd1na2vs0mg"},{"bike_id":"daa8acdc-33d0-45b4-b768-4eae1fc6c4dc","system_id":"levelo_inurba_marseille","lat":43.27076,"lon":5.38317,"is_reserved":false,"is_disabled":false,"rental_uris":{"android":"levelo://app?vid=daa8acdc-33d0-45b4-b768-4eae1fc6c4dc","ios":"levelo://app?vid=daa8acdc-33d0-45b4-b768-4eae1fc6c4dc"},"vehicle_type_id":"4","last_reported":1779022526,"current_range_meters":8800,"station_id":"st_d3n2fo6cfp8s73cte1j0","pricing_plan_id":"cebpf4jnsgd1na2vs0mg"},{"bike_id":"d257b167-ca2a-4810-a9e7-05efe0fc7d78","system_id":"levelo_inurba_marseille","lat":43.24418,"lon":5.37073,"is_reserved":false,"is_disabled":false,"rental_uris":{"android":"levelo://app?vid=d257b167-ca2a-4810-a9e7-05efe0fc7d78","ios":"levelo://app?vid=d257b167-ca2a-4810-a9e7-05efe0fc7d78"},"vehicle_type_id":"4","last_reported":1779022526,"current_range_meters":8800,"station_id":"ce4bhhh2rcd13ifvqfk0","pricing_plan_id":"cebpf4jnsgd1na2vs0mg"},{"bike_id":"217c5494-5e80-4db8-9a97-47864a3bbd12","system_id":"levelo_inurba_marseille","lat":43.241657,"lon":5.36388,"is_reserved":false,"is_disabled":true,"rental_uris":{"android":"levelo://app?vid=217c5494-5e80-4db8-9a97-47864a3bbd12","ios":"levelo://app?vid=217c5494-5e80-4db8-9a97-47864a3bbd12"},"vehicle_type_id":"4","last_reported":1779022526,"current_range_meters":8800,"station_id":"cpo36qri1sfpv3e86is0","pricing_plan_id":"cebpf4jnsgd1na2vs0mg"},{"bike_id":"16fa7b4f-51de-49e2-a649-5656b893a0fa","system_id":"levelo_inurba_marseille","lat":43.30541,"lon":5.36514,"is_reserved":false,"is_disabled":false,"rental_uris":{"android":"levelo://app?vid=16fa7b4f-51de-49e2-a649-5656b893a0fa","ios":"levelo://app?vid=16fa7b4f-51de-49e2-a649-5656b893a0fa"},"vehicle_type_id":"4","last_reported":1779022526,"current_range_meters":8800,"station_id":"ce4bgs12rcd13ifvqcag","pricing_plan_id":"cebpf4jnsgd1na2vs0mg"},{"bike_id":"01662dcd-a9d6-4772-887a-9d6ab86916a2","system_id":"levelo_inurba_marseille","lat":43.2736,"lon":5.36227,"is_reserved":false,"is_disabled":false,"rental_uris":{"android":"levelo://app?vid=01662dcd-a9d6-4772-887a-9d6ab86916a2","ios":"levelo://app?vid=01662dcd-a9d6-4772-887a-9d6ab86916a2"},"vehicle_type_id":"4","last_reported":1779022526,"current_range_meters":8800,"station_id":"ce4bhbh2rcd13ifvqeo0","pricing_plan_id":"cebpf4jnsgd1na2vs0mg"},{"bike_id":"49bebcbb-ed5e-4a8e-96ec-d9de5550e466","system_id":"levelo_inurba_marseille","lat":43.27233,"lon":5.392,"is_reserved":false,"is_disabled":true,"rental_uris":{"android":"levelo://app?vid=49bebcbb-ed5e-4a8e-96ec-d9de5550e466","ios":"levelo://app?vid=49bebcbb-ed5e-4a8e-96ec-d9de5550e466"},"vehicle_type_id":"4","last_reported":1779022526,"current_range_meters":8800,"station_id":"ce4bhhp2rcd13ifvqfm0","pricing_plan_id":"cebpf4jnsgd1na2vs0mg"},{"bike_id":"7767d8f6-aa40-43bb-9512-cf65ea3a5dec","system_id":"levelo_inurba_marseille","lat":43.24769,"lon":5.37446,"is_reserved":false,"is_disabled":false,"rental_uris":{"android":"levelo://app?vid=7767d8f6-aa40-43bb-9512-cf65ea3a5dec","ios":"levelo://app?vid=7767d8f6-aa40-43bb-9512-cf65ea3a5dec"},"vehicle_type_id":"4","last_reported":1779022526,"current_range_meters":8800,"station_id":"ce4bhgh2rcd13ifvqfb0","pricing_plan_id":"cebpf4jnsgd1na2vs0mg"},{"bike_id":"bca26c93-c769-4928-af0a-dc9dfc377ede","system_id":"levelo_inurba_marseille","lat":43.29276,"lon":5.37632,"is_reserved":false,"is_disabled":false,"rental_uris":{"android":"levelo://app?vid=bca26c93-c769-4928-af0a-dc9dfc377ede","ios":"levelo://app?vid=bca26c93-c769-4928-af0a-dc9dfc377ede"},"vehicle_type_id":"4","last_reported":1779022526,"current_range_meters":8800,"station_id":"ce4bgi12rcd13ifvqb80","pricing_plan_id":"cebpf4jnsgd1na2vs0mg"},{"bike_id":"7b0dedda-323f-40ee-96e1-38c6490ad0b3","system_id":"levelo_inurba_marseille","lat":43.217341,"lon":5.346069,"is_reserved":false,"is_disabled":false,"rental_uris":{"android":"levelo://app?vid=7b0dedda-323f-40ee-96e1-38c6490ad0b3","ios":"levelo://app?vid=7b0dedda-323f-40ee-96e1-38c6490ad0b3"},"vehicle_type_id":"4","last_reported":1779022526,"current_range_meters":8800,"station_id":"st_cvj6r9ubvosntc0bgbag","pricing_plan_id":"cebpf4jnsgd1na2vs0mg"},{"bike_id":"3f9245e8-dda2-4c87-92ec-d0d25f0dd702","system_id":"levelo_inurba_marseille","lat":43.31895,"lon":5.36802,"is_reserved":false,"is_disabled":false,"rental_uris":{"android":"levelo://app?vid=3f9245e8-dda2-4c87-92ec-d0d25f0dd702","ios":"levelo://app?vid=3f9245e8-dda2-4c87-92ec-d0d25f0dd702"},"vehicle_type_id":"4","last_reported":1779022526,"current_range_meters":8800,"station_id":"st_d6o2h0d0559c73evc1b0","pricing_plan_id":"cebpf4jnsgd1na2vs0mg"},{"bike_id":"e4d61e6b-cc9f-4a22-88fd-a59a882d6668","system_id":"levelo_inurba_marseille","lat":43.29211,"lon":5.3599,"is_reserved":false,"is_disabled":true,"rental_uris":{"android":"levelo://app?vid=e4d61e6b-cc9f-4a22-88fd-a59a882d6668","ios":"levelo://app?vid=e4d61e6b-cc9f-4a22-88fd-a59a882d6668"},"vehicle_type_id":"4","last_reported":1779022526,"current_range_meters":8800,"station_id":"ce4bhbh2rcd13ifvqeqg","pricing_plan_id":"cebpf4jnsgd1na2vs0mg"},{"bike_id":"bcbc335c-6f9a-41f9-b795-147be9ac21f8","system_id":"levelo_inurba_marseille","lat":43.27997,"lon":5.4004,"is_reserved":false,"is_disabled":false,"rental_uris":{"android":"levelo://app?vid=bcbc335c-6f9a-41f9-b795-147be9ac21f8","ios":"levelo://app?vid=bcbc335c-6f9a-41f9-b795-147be9ac21f8"},"vehicle_type_id":"4","last_reported":1779022526,"current_range_meters":8800,"station_id":"ce4bho92rcd13ifvqh4g","pricing_plan_id":"cebpf4jnsgd1na2vs0mg"},{"bike_id":"45bec345-9f9f-43e7-9120-bd4fb3a84dd0","system_id":"levelo_inurba_marseille","lat":43.2552,"lon":5.37656,"is_reserved":false,"is_disabled":false,"rental_uris":{"android":"levelo://app?vid=45bec345-9f9f-43e7-9120-bd4fb3a84dd0","ios":"levelo://app?vid=45bec345-9f9f-43e7-9120-bd4fb3a84dd0"},"vehicle_type_id":"4","last_reported":1779022526,"current_range_meters":8800,"station_id":"ce4bhh12rcd13ifvqff0","pricing_plan_id":"cebpf4jnsgd1na2vs0mg"},{"bike_id":"c0e1fec8-3ee4-4f19-8290-05094a1c4088","system_id":"levelo_inurba_marseille","lat":43.337444,"lon":5.374475,"is_reserved":false,"is_disabled":false,"rental_uris":{"android":"levelo://app?vid=c0e1fec8-3ee4-4f19-8290-05094a1c4088","ios":"levelo://app?vid=c0e1fec8-3ee4-4f19-8290-05094a1c4088"},"vehicle_type_id":"4","last_reported":1779022526,"current_range_meters":8800,"station_id":"","pricing_plan_id":"cebpf4jnsgd1na2vs0mg"},{"bike_id":"010100e5-5e1b-4322-b68a-6837b7af9352","system_id":"levelo_inurba_marseille","lat":43.25336,"lon":5.41347,"is_reserved":false,"is_disabled":false,"rental_uris":{"android":"levelo://app?vid=010100e5-5e1b-4322-b68a-6837b7af9352","ios":"levelo://app?vid=010100e5-5e1b-4322-b68a-6837b7af9352"},"vehicle_type_id":"4","last_reported":1779022526,"current_range_meters":8800,"station_id":"","pricing_plan_id":"cebpf4jnsgd1na2vs0mg"},{"bike_id":"6c9da77d-1b01-4c86-8922-f3e76a447e4d","system_id":"levelo_inurba_marseille","lat":43.23979,"lon":5.36615,"is_reserved":false,"is_disabled":false,"rental_uris":{"android":"levelo://app?vid=6c9da77d-1b01-4c86-8922-f3e76a447e4d","ios":"levelo://app?vid=6c9da77d-1b01-4c86-8922-f3e76a447e4d"},"vehicle_type_id":"4","last_reported":1779022526,"current_range_meters":8800,"station_id":"ce4bhi12rcd13ifvqfp0","pricing_plan_id":"cebpf4jnsgd1na2vs0mg"},{"bike_id":"018964d7-3586-4845-8635-3a0e76181faf","system_id":"levelo_inurba_marseille","lat":43.33237,"lon":5.40578,"is_reserved":false,"is_disabled":false,"rental_uris":{"android":"levelo://app?vid=018964d7-3586-4845-8635-3a0e76181faf","ios":"levelo://app?vid=018964d7-3586-4845-8635-3a0e76181faf"},"vehicle_type_id":"4","last_reported":1779022526,"current_range_meters":8800,"station_id":"","pricing_plan_id":"cebpf4jnsgd1na2vs0mg"},{"bike_id":"6277fb5f-25a0-43c5-af2d-05c12b8fcaab","system_id":"levelo_inurba_marseille","lat":43.28434,"lon":5.34985,"is_reserved":false,"is_disabled":false,"rental_uris":{"android":"levelo://app?vid=6277fb5f-25a0-43c5-af2d-05c12b8fcaab","ios":"levelo://app?vid=6277fb5f-25a0-43c5-af2d-05c12b8fcaab"},"vehicle_type_id":"4","last_reported":1779022526,"current_range_meters":8800,"station_id":"ce4bhbh2rcd13ifvqepg","pricing_plan_id":"cebpf4jnsgd1na2vs0mg"},{"bike_id":"98a03e86-e01c-4fb9-b35a-a52b39a72471","system_id":"levelo_inurba_marseille","lat":43.22565,"lon":5.41627,"is_reserved":false,"is_disabled":false,"rental_uris":{"android":"levelo://app?vid=98a03e86-e01c-4fb9-b35a-a52b39a72471","ios":"levelo://app?vid=98a03e86-e01c-4fb9-b35a-a52b39a72471"},"vehicle_type_id":"4","last_reported":1779022526,"current_range_meters":8800,"station_id":"st_d2o4gvlbi1j2169b742g","pricing_plan_id":"cebpf4jnsgd1na2vs0mg"},{"bike_id":"4a5adfac-77da-4ecc-852c-34d7369bab43","system_id":"levelo_inurba_marseille","lat":43.32077,"lon":5.36709,"is_reserved":false,"is_disabled":false,"rental_uris":{"android":"levelo://app?vid=4a5adfac-77da-4ecc-852c-34d7369bab43","ios":"levelo://app?vid=4a5adfac-77da-4ecc-852c-34d7369bab43"},"vehicle_type_id":"4","last_reported":1779022526,"current_range_meters":8800,"station_id":"ce4bhrh2rcd13ifvqhug","pricing_plan_id":"cebpf4jnsgd1na2vs0mg"},{"bike_id":"4ef2207c-92b6-4109-9bcf-b1ac57108438","system_id":"levelo_inurba_marseille","lat":43.31366,"lon":5.44132,"is_reserved":false,"is_disabled":false,"rental_uris":{"android":"levelo://app?vid=4ef2207c-92b6-4109-9bcf-b1ac57108438","ios":"levelo://app?vid=4ef2207c-92b6-4109-9bcf-b1ac57108438"},"vehicle_type_id":"4","last_reported":1779022526,"current_range_meters":8800,"station_id":"","pricing_plan_id":"cebpf4jnsgd1na2vs0mg"},{"bike_id":"6043e87c-43af-4bb6-a467-45887edbd8bb","system_id":"levelo_inurba_marseille","lat":43.2465,"lon":5.38179,"is_reserved":false,"is_disabled":false,"rental_uris":{"android":"levelo://app?vid=6043e87c-43af-4bb6-a467-45887edbd8bb","ios":"levelo://app?vid=6043e87c-43af-4bb6-a467-45887edbd8bb"},"vehicle_type_id":"4","last_reported":1779022526,"current_range_meters":8800,"station_id":"ce4bhih2rcd13ifvqfr0","pricing_plan_id":"cebpf4jnsgd1na2vs0mg"},{"bike_id":"129eb57f-6884-4be2-a171-4c602ebeb0be","system_id":"levelo_inurba_marseille","lat":43.28613,"lon":5.37059,"is_reserved":false,"is_disabled":false,"rental_uris":{"android":"levelo://app?vid=129eb57f-6884-4be2-a171-4c602ebeb0be","ios":"levelo://app?vid=129eb57f-6884-4be2-a171-4c602ebeb0be"},"vehicle_type_id":"4","last_reported":1779022526,"current_range_meters":8800,"station_id":"ce4bht12rcd13ifvqi60","pricing_plan_id":"cebpf4jnsgd1na2vs0mg"},{"bike_id":"0511996d-2886-41db-ae63-a00ba642c1f1","system_id":"levelo_inurba_marseille","lat":43.23154,"lon":5.43726,"is_reserved":false,"is_disabled":false,"rental_uris":{"android":"levelo://app?vid=0511996d-2886-41db-ae63-a00ba642c1f1","ios":"levelo://app?vid=0511996d-2886-41db-ae63-a00ba642c1f1"},"vehicle_type_id":"4","last_reported":1779022526,"current_range_meters":8800,"station_id":"ce4bhmp2rcd13ifvqgog","pricing_plan_id":"cebpf4jnsgd1na2vs0mg"},{"bike_id":"d68046dc-3888-4231-8d31-1ee84c9e2e72","system_id":"levelo_inurba_marseille","lat":43.31718,"lon":5.37738,"is_reserved":false,"is_disabled":false,"rental_uris":{"android":"levelo://app?vid=d68046dc-3888-4231-8d31-1ee84c9e2e72","ios":"levelo://app?vid=d68046dc-3888-4231-8d31-1ee84c9e2e72"},"vehicle_type_id":"4","last_reported":1779022526,"current_range_meters":8800,"station_id":"ce4bgth2rcd13ifvqch0","pricing_plan_id":"cebpf4jnsgd1na2vs0mg"},{"bike_id":"5d7d847e-d6bf-44b4-8a7f-84ab3b8ede8e","system_id":"levelo_inurba_marseille","lat":43.26447,"lon":5.41048,"is_reserved":false,"is_disabled":false,"rental_uris":{"android":"levelo://app?vid=5d7d847e-d6bf-44b4-8a7f-84ab3b8ede8e","ios":"levelo://app?vid=5d7d847e-d6bf-44b4-8a7f-84ab3b8ede8e"},"vehicle_type_id":"4","last_reported":1779022526,"current_range_meters":8800,"station_id":"st_d4e5ca6na9uc73bfl5fg","pricing_plan_id":"cebpf4jnsgd1na2vs0mg"},{"bike_id":"e1dced0f-17de-4e06-aae7-1fb86cc3c6e1","system_id":"levelo_inurba_marseille","lat":43.21205,"lon":5.35119,"is_reserved":false,"is_disabled":false,"rental_uris":{"android":"levelo://app?vid=e1dced0f-17de-4e06-aae7-1fb86cc3c6e1","ios":"levelo://app?vid=e1dced0f-17de-4e06-aae7-1fb86cc3c6e1"},"vehicle_type_id":"4","last_reported":1779022526,"current_range_meters":9200,"station_id":"st_cvj6sg6p6f1abm77japg","pricing_plan_id":"cebpf4jnsgd1na2vs0mg"},{"bike_id":"0a112fbf-8b41-4590-a94f-d50d1b6d228a","system_id":"levelo_inurba_marseille","lat":43.23069,"lon":5.35492,"is_reserved":false,"is_disabled":false,"rental_uris":{"android":"levelo://app?vid=0a112fbf-8b41-4590-a94f-d50d1b6d228a","ios":"levelo://app?vid=0a112fbf-8b41-4590-a94f-d50d1b6d228a"},"vehicle_type_id":"4","last_reported":1779022526,"current_range_meters":9200,"station_id":"cpo3342slgdg3j2ifvpg","pricing_plan_id":"cebpf4jnsgd1na2vs0mg"},{"bike_id":"97bea49d-e520-496d-9f1c-e37f3aba8afe","system_id":"levelo_inurba_marseille","lat":43.2481,"lon":5.37454,"is_reserved":false,"is_disabled":false,"rental_uris":{"android":"levelo://app?vid=97bea49d-e520-496d-9f1c-e37f3aba8afe","ios":"levelo://app?vid=97bea49d-e520-496d-9f1c-e37f3aba8afe"},"vehicle_type_id":"4","last_reported":1779022526,"current_range_meters":9200,"station_id":"ce4bhgh2rcd13ifvqfb0","pricing_plan_id":"cebpf4jnsgd1na2vs0mg"},{"bike_id":"e0e11049-b025-40de-92ed-c9aaea44a9c4","system_id":"levelo_inurba_marseille","lat":43.2256,"lon":5.41627,"is_reserved":false,"is_disabled":false,"rental_uris":{"android":"levelo://app?vid=e0e11049-b025-40de-92ed-c9aaea44a9c4","ios":"levelo://app?vid=e0e11049-b025-40de-92ed-c9aaea44a9c4"},"vehicle_type_id":"4","last_reported":1779022526,"current_range_meters":9200,"station_id":"st_d2o4gvlbi1j2169b742g","pricing_plan_id":"cebpf4jnsgd1na2vs0mg"},{"bike_id":"c7fecf63-02eb-450e-b066-ec1bf392eaa2","system_id":"levelo_inurba_marseille","lat":43.26028,"lon":5.37551,"is_reserved":false,"is_disabled":false,"rental_uris":{"android":"levelo://app?vid=c7fecf63-02eb-450e-b066-ec1bf392eaa2","ios":"levelo://app?vid=c7fecf63-02eb-450e-b066-ec1bf392eaa2"},"vehicle_type_id":"4","last_reported":1779022526,"current_range_meters":9200,"station_id":"ce4bhgh2rcd13ifvqfa0","pricing_plan_id":"cebpf4jnsgd1na2vs0mg"},{"bike_id":"d0fa1085-71d5-4c78-88e7-9a865971d5d1","system_id":"levelo_inurba_marseille","lat":43.22572,"lon":5.41623,"is_reserved":false,"is_disabled":false,"rental_uris":{"android":"levelo://app?vid=d0fa1085-71d5-4c78-88e7-9a865971d5d1","ios":"levelo://app?vid=d0fa1085-71d5-4c78-88e7-9a865971d5d1"},"vehicle_type_id":"4","last_reported":1779022526,"current_range_meters":9200,"station_id":"st_d2o4gvlbi1j2169b742g","pricing_plan_id":"cebpf4jnsgd1na2vs0mg"},{"bike_id":"e0eb7b1f-1840-489f-bc08-366c36638bd0","system_id":"levelo_inurba_marseille","lat":43.28621,"lon":5.35119,"is_reserved":false,"is_disabled":false,"rental_uris":{"android":"levelo://app?vid=e0eb7b1f-1840-489f-bc08-366c36638bd0","ios":"levelo://app?vid=e0eb7b1f-1840-489f-bc08-366c36638bd0"},"vehicle_type_id":"4","last_reported":1779022526,"current_range_meters":9200,"station_id":"ce4bhch2rcd13ifvqeug","pricing_plan_id":"cebpf4jnsgd1na2vs0mg"},{"bike_id":"a53493d3-e405-4949-bdf9-cf8d5b59189e","system_id":"levelo_inurba_marseille","lat":43.24745,"lon":5.37464,"is_reserved":false,"is_disabled":false,"rental_uris":{"android":"levelo://app?vid=a53493d3-e405-4949-bdf9-cf8d5b59189e","ios":"levelo://app?vid=a53493d3-e405-4949-bdf9-cf8d5b59189e"},"vehicle_type_id":"4","last_reported":1779022526,"current_range_meters":9200,"station_id":"","pricing_plan_id":"cebpf4jnsgd1na2vs0mg"},{"bike_id":"cc124e1f-fc89-489e-90e3-232a4dcc39c0","system_id":"levelo_inurba_marseille","lat":43.24799,"lon":5.37467,"is_reserved":false,"is_disabled":false,"rental_uris":{"android":"levelo://app?vid=cc124e1f-fc89-489e-90e3-232a4dcc39c0","ios":"levelo://app?vid=cc124e1f-fc89-489e-90e3-232a4dcc39c0"},"vehicle_type_id":"4","last_reported":1779022526,"current_range_meters":9200,"station_id":"ce4bhgh2rcd13ifvqfb0","pricing_plan_id":"cebpf4jnsgd1na2vs0mg"},{"bike_id":"6bd7bd0a-340b-449f-8028-b4f4e39c8346","system_id":"levelo_inurba_marseille","lat":43.23965,"lon":5.36621,"is_reserved":false,"is_disabled":false,"rental_uris":{"android":"levelo://app?vid=6bd7bd0a-340b-449f-8028-b4f4e39c8346","ios":"levelo://app?vid=6bd7bd0a-340b-449f-8028-b4f4e39c8346"},"vehicle_type_id":"4","last_reported":1779022526,"current_range_meters":9200,"station_id":"ce4bhi12rcd13ifvqfp0","pricing_plan_id":"cebpf4jnsgd1na2vs0mg"},{"bike_id":"9fdfc4d7-f3b4-4e8c-a1bc-42e849e2dce8","system_id":"levelo_inurba_marseille","lat":43.22567,"lon":5.41632,"is_reserved":false,"is_disabled":false,"rental_uris":{"android":"levelo://app?vid=9fdfc4d7-f3b4-4e8c-a1bc-42e849e2dce8","ios":"levelo://app?vid=9fdfc4d7-f3b4-4e8c-a1bc-42e849e2dce8"},"vehicle_type_id":"4","last_reported":1779022526,"current_range_meters":9200,"station_id":"st_d2o4gvlbi1j2169b742g","pricing_plan_id":"cebpf4jnsgd1na2vs0mg"},{"bike_id":"af64f58f-63f1-4ee7-995f-30b450f66b55","system_id":"levelo_inurba_marseille","lat":43.29021,"lon":5.35639,"is_reserved":false,"is_disabled":false,"rental_uris":{"android":"levelo://app?vid=af64f58f-63f1-4ee7-995f-30b450f66b55","ios":"levelo://app?vid=af64f58f-63f1-4ee7-995f-30b450f66b55"},"vehicle_type_id":"4","last_reported":1779022526,"current_range_meters":9200,"station_id":"ce4bhb92rcd13ifvqen0","pricing_plan_id":"cebpf4jnsgd1na2vs0mg"},{"bike_id":"4b5e0329-856a-4f74-90f0-8ec0ecb452c7","system_id":"levelo_inurba_marseille","lat":43.24176,"lon":5.36388,"is_reserved":false,"is_disabled":false,"rental_uris":{"android":"levelo://app?vid=4b5e0329-856a-4f74-90f0-8ec0ecb452c7","ios":"levelo://app?vid=4b5e0329-856a-4f74-90f0-8ec0ecb452c7"},"vehicle_type_id":"4","last_reported":1779022526,"current_range_meters":9200,"station_id":"cpo36qri1sfpv3e86is0","pricing_plan_id":"cebpf4jnsgd1na2vs0mg"},{"bike_id":"21c70277-23ef-4eba-a87e-9710cbc69787","system_id":"levelo_inurba_marseille","lat":43.23068,"lon":5.35489,"is_reserved":false,"is_disabled":false,"rental_uris":{"android":"levelo://app?vid=21c70277-23ef-4eba-a87e-9710cbc69787","ios":"levelo://app?vid=21c70277-23ef-4eba-a87e-9710cbc69787"},"vehicle_type_id":"4","last_reported":1779022526,"current_range_meters":9200,"station_id":"cpo3342slgdg3j2ifvpg","pricing_plan_id":"cebpf4jnsgd1na2vs0mg"},{"bike_id":"29e5acc4-7b88-4657-b222-b8cedf804a83","system_id":"levelo_inurba_marseille","lat":43.30374,"lon":5.41887,"is_reserved":false,"is_disabled":false,"rental_uris":{"android":"levelo://app?vid=29e5acc4-7b88-4657-b222-b8cedf804a83","ios":"levelo://app?vid=29e5acc4-7b88-4657-b222-b8cedf804a83"},"vehicle_type_id":"4","last_reported":1779022526,"current_range_meters":9200,"station_id":"ce4bhop2rcd13ifvqh7g","pricing_plan_id":"cebpf4jnsgd1na2vs0mg"},{"bike_id":"d7f2102e-3b1b-4ad4-bc12-cc010cb7503a","system_id":"levelo_inurba_marseille","lat":43.2465,"lon":5.38188,"is_reserved":false,"is_disabled":false,"rental_uris":{"android":"levelo://app?vid=d7f2102e-3b1b-4ad4-bc12-cc010cb7503a","ios":"levelo://app?vid=d7f2102e-3b1b-4ad4-bc12-cc010cb7503a"},"vehicle_type_id":"4","last_reported":1779022526,"current_range_meters":9200,"station_id":"ce4bhih2rcd13ifvqfr0","pricing_plan_id":"cebpf4jnsgd1na2vs0mg"},{"bike_id":"12ca6fcb-de54-45fd-bc9e-5b97f33ae291","system_id":"levelo_inurba_marseille","lat":43.29974,"lon":5.41325,"is_reserved":false,"is_disabled":false,"rental_uris":{"android":"levelo://app?vid=12ca6fcb-de54-45fd-bc9e-5b97f33ae291","ios":"levelo://app?vid=12ca6fcb-de54-45fd-bc9e-5b97f33ae291"},"vehicle_type_id":"4","last_reported":1779022526,"current_range_meters":9200,"station_id":"ce4bhp12rcd13ifvqh9g","pricing_plan_id":"cebpf4jnsgd1na2vs0mg"},{"bike_id":"0190dbda-d90e-49ba-86b5-5d667179cbcc","system_id":"levelo_inurba_marseille","lat":43.26318,"lon":5.40282,"is_reserved":false,"is_disabled":false,"rental_uris":{"android":"levelo://app?vid=0190dbda-d90e-49ba-86b5-5d667179cbcc","ios":"levelo://app?vid=0190dbda-d90e-49ba-86b5-5d667179cbcc"},"vehicle_type_id":"4","last_reported":1779022526,"current_range_meters":9200,"station_id":"","pricing_plan_id":"cebpf4jnsgd1na2vs0mg"},{"bike_id":"4a625781-0ed4-4c1d-9025-fbd024655fae","system_id":"levelo_inurba_marseille","lat":43.26225,"lon":5.40513,"is_reserved":false,"is_disabled":true,"rental_uris":{"android":"levelo://app?vid=4a625781-0ed4-4c1d-9025-fbd024655fae","ios":"levelo://app?vid=4a625781-0ed4-4c1d-9025-fbd024655fae"},"vehicle_type_id":"4","last_reported":1779022526,"current_range_meters":9200,"station_id":"","pricing_plan_id":"cebpf4jnsgd1na2vs0mg"},{"bike_id":"9dd185a7-e00d-40de-8a57-3d4541a28e4c","system_id":"levelo_inurba_marseille","lat":43.21743,"lon":5.34604,"is_reserved":false,"is_disabled":false,"rental_uris":{"android":"levelo://app?vid=9dd185a7-e00d-40de-8a57-3d4541a28e4c","ios":"levelo://app?vid=9dd185a7-e00d-40de-8a57-3d4541a28e4c"},"vehicle_type_id":"4","last_reported":1779022526,"current_range_meters":9200,"station_id":"st_cvj6r9ubvosntc0bgbag","pricing_plan_id":"cebpf4jnsgd1na2vs0mg"},{"bike_id":"f553f91d-a609-4c84-b3fb-59492c0c1e7f","system_id":"levelo_inurba_marseille","lat":43.21193,"lon":5.35068,"is_reserved":false,"is_disabled":false,"rental_uris":{"android":"levelo://app?vid=f553f91d-a609-4c84-b3fb-59492c0c1e7f","ios":"levelo://app?vid=f553f91d-a609-4c84-b3fb-59492c0c1e7f"},"vehicle_type_id":"4","last_reported":1779022526,"current_range_meters":9200,"station_id":"st_cvj6sg6p6f1abm77japg","pricing_plan_id":"cebpf4jnsgd1na2vs0mg"},{"bike_id":"1c037ec3-68fe-43ed-b46b-5853e2c88353","system_id":"levelo_inurba_marseille","lat":43.21195,"lon":5.35086,"is_reserved":false,"is_disabled":false,"rental_uris":{"android":"levelo://app?vid=1c037ec3-68fe-43ed-b46b-5853e2c88353","ios":"levelo://app?vid=1c037ec3-68fe-43ed-b46b-5853e2c88353"},"vehicle_type_id":"4","last_reported":1779022526,"current_range_meters":9600,"station_id":"st_cvj6sg6p6f1abm77japg","pricing_plan_id":"cebpf4jnsgd1na2vs0mg"},{"bike_id":"8b84d26c-5777-43e5-895a-0b89b4f5aacf","system_id":"levelo_inurba_marseille","lat":43.33545,"lon":5.3746,"is_reserved":false,"is_disabled":false,"rental_uris":{"android":"levelo://app?vid=8b84d26c-5777-43e5-895a-0b89b4f5aacf","ios":"levelo://app?vid=8b84d26c-5777-43e5-895a-0b89b4f5aacf"},"vehicle_type_id":"4","last_reported":1779022526,"current_range_meters":9600,"station_id":"st_d46tts09ee8s73dlu43g","pricing_plan_id":"cebpf4jnsgd1na2vs0mg"},{"bike_id":"0dbe8bdc-605e-420e-9d92-e9bb238a9b76","system_id":"levelo_inurba_marseille","lat":43.26231,"lon":5.40445,"is_reserved":false,"is_disabled":false,"rental_uris":{"android":"levelo://app?vid=0dbe8bdc-605e-420e-9d92-e9bb238a9b76","ios":"levelo://app?vid=0dbe8bdc-605e-420e-9d92-e9bb238a9b76"},"vehicle_type_id":"4","last_reported":1779022526,"current_range_meters":9600,"station_id":"ce4bhmh2rcd13ifvqgmg","pricing_plan_id":"cebpf4jnsgd1na2vs0mg"},{"bike_id":"e8871535-90ff-4570-95dd-a763a473184c","system_id":"levelo_inurba_marseille","lat":43.239647,"lon":5.366361,"is_reserved":false,"is_disabled":false,"rental_uris":{"android":"levelo://app?vid=e8871535-90ff-4570-95dd-a763a473184c","ios":"levelo://app?vid=e8871535-90ff-4570-95dd-a763a473184c"},"vehicle_type_id":"4","last_reported":1779022526,"current_range_meters":9600,"station_id":"ce4bhi12rcd13ifvqfp0","pricing_plan_id":"cebpf4jnsgd1na2vs0mg"},{"bike_id":"a5fa04cd-fd57-4f47-85a2-f306f6062b7f","system_id":"levelo_inurba_marseille","lat":43.29941,"lon":5.36554,"is_reserved":false,"is_disabled":false,"rental_uris":{"android":"levelo://app?vid=a5fa04cd-fd57-4f47-85a2-f306f6062b7f","ios":"levelo://app?vid=a5fa04cd-fd57-4f47-85a2-f306f6062b7f"},"vehicle_type_id":"4","last_reported":1779022526,"current_range_meters":9600,"station_id":"ce4bgm92rcd13ifvqbr0","pricing_plan_id":"cebpf4jnsgd1na2vs0mg"},