{"last_updated":1769095194,"ttl":60,"version":"2.2","data":{"bikes":[{"bike_id":"5f477738-733e-4c98-961a-33429c5938fd","system_id":"levelo_inurba_marseille","lat":43.260586,"lon":5.393984,"is_reserved":false,"is_disabled":false,"rental_uris":{"android":"levelo://app?vid=5f477738-733e-4c98-961a-33429c5938fd","ios":"levelo://app?vid=5f477738-733e-4c98-961a-33429c5938fd"},"vehicle_type_id":"4","last_reported":1769095195,"current_range_meters":2800,"station_id":"ce4bhh92rcd13ifvqfj0","pricing_plan_id":"cebpf4jnsgd1na2vs0mg"},{"bike_id":"19c9b524-76f1-4e5d-8be9-000b11a19079","system_id":"levelo_inurba_marseille","lat":43.25007,"lon":5.38905,"is_reserved":false,"is_disabled":false,"rental_uris":{"android":"levelo://app?vid=19c9b524-76f1-4e5d-8be9-000b11a19079","ios":"levelo://app?vid=19c9b524-76f1-4e5d-8be9-000b11a19079"},"vehicle_type_id":"4","last_reported":1769095195,"current_range_meters":2800,"station_id":"ce4bhgp2rcd13ifvqfd0","pricing_plan_id":"cebpf4jnsgd1na2vs0mg"},{"bike_id":"23952ec8-a0f1-4bc7-aad6-a1231657c9e9","system_id":"levelo_inurba_marseille","lat":43.26539,"lon":5.37326,"is_reserved":false,"is_disabled":false,"rental_uris":{"android":"levelo://app?vid=23952ec8-a0f1-4bc7-aad6-a1231657c9e9","ios":"levelo://app?vid=23952ec8-a0f1-4bc7-aad6-a1231657c9e9"},"vehicle_type_id":"4","last_reported":1769095195,"current_range_meters":2800,"station_id":"ce4bhg12rcd13ifvqf70","pricing_plan_id":"cebpf4jnsgd1na2vs0mg"},{"bike_id":"87f08eb2-ee07-40f9-86ff-11c94286f401","system_id":"levelo_inurba_marseille","lat":43.24668,"lon":5.38144,"is_reserved":false,"is_disabled":false,"rental_uris":{"android":"levelo://app?vid=87f08eb2-ee07-40f9-86ff-11c94286f401","ios":"levelo://app?vid=87f08eb2-ee07-40f9-86ff-11c94286f401"},"vehicle_type_id":"4","last_reported":1769095195,"current_range_meters":2800,"station_id":"ce4bhih2rcd13ifvqfr0","pricing_plan_id":"cebpf4jnsgd1na2vs0mg"},{"bike_id":"1faea985-2c7d-46b3-a0c7-11ff4bef455a","system_id":"levelo_inurba_marseille","lat":43.24659,"lon":5.38889,"is_reserved":false,"is_disabled":false,"rental_uris":{"android":"levelo://app?vid=1faea985-2c7d-46b3-a0c7-11ff4bef455a","ios":"levelo://app?vid=1faea985-2c7d-46b3-a0c7-11ff4bef455a"},"vehicle_type_id":"4","last_reported":1769095195,"current_range_meters":2800,"station_id":"ce4bhg12rcd13ifvqf60","pricing_plan_id":"cebpf4jnsgd1na2vs0mg"},{"bike_id":"b272fed6-c566-416f-b007-fe9813267cfb","system_id":"levelo_inurba_marseille","lat":43.2795,"lon":5.38688,"is_reserved":false,"is_disabled":false,"rental_uris":{"android":"levelo://app?vid=b272fed6-c566-416f-b007-fe9813267cfb","ios":"levelo://app?vid=b272fed6-c566-416f-b007-fe9813267cfb"},"vehicle_type_id":"4","last_reported":1769095195,"current_range_meters":2800,"station_id":"ce4bhg12rcd13ifvqf80","pricing_plan_id":"cebpf4jnsgd1na2vs0mg"},{"bike_id":"ef6fae58-91e5-4bb7-aaac-7e9985256503","system_id":"levelo_inurba_marseille","lat":43.29267,"lon":5.40911,"is_reserved":false,"is_disabled":false,"rental_uris":{"android":"levelo://app?vid=ef6fae58-91e5-4bb7-aaac-7e9985256503","ios":"levelo://app?vid=ef6fae58-91e5-4bb7-aaac-7e9985256503"},"vehicle_type_id":"4","last_reported":1769095195,"current_range_meters":2800,"station_id":"ce4bh192rcd13ifvqdc0","pricing_plan_id":"cebpf4jnsgd1na2vs0mg"},{"bike_id":"87376c51-7b52-4611-acd2-49441baafe3f","system_id":"levelo_inurba_marseille","lat":43.24614,"lon":5.40223,"is_reserved":false,"is_disabled":false,"rental_uris":{"android":"levelo://app?vid=87376c51-7b52-4611-acd2-49441baafe3f","ios":"levelo://app?vid=87376c51-7b52-4611-acd2-49441baafe3f"},"vehicle_type_id":"4","last_reported":1769095195,"current_range_meters":2800,"station_id":"","pricing_plan_id":"cebpf4jnsgd1na2vs0mg"},{"bike_id":"db3f14e4-220b-415c-9e28-2fe041e49f9a","system_id":"levelo_inurba_marseille","lat":43.26063,"lon":5.39393,"is_reserved":false,"is_disabled":false,"rental_uris":{"android":"levelo://app?vid=db3f14e4-220b-415c-9e28-2fe041e49f9a","ios":"levelo://app?vid=db3f14e4-220b-415c-9e28-2fe041e49f9a"},"vehicle_type_id":"4","last_reported":1769095195,"current_range_meters":3200,"station_id":"ce4bhh92rcd13ifvqfj0","pricing_plan_id":"cebpf4jnsgd1na2vs0mg"},{"bike_id":"628d1d29-948b-4815-bc3f-a0ef2ac1c781","system_id":"levelo_inurba_marseille","lat":43.241648,"lon":5.363988,"is_reserved":false,"is_disabled":false,"rental_uris":{"android":"levelo://app?vid=628d1d29-948b-4815-bc3f-a0ef2ac1c781","ios":"levelo://app?vid=628d1d29-948b-4815-bc3f-a0ef2ac1c781"},"vehicle_type_id":"4","last_reported":1769095195,"current_range_meters":3200,"station_id":"cpo36qri1sfpv3e86is0","pricing_plan_id":"cebpf4jnsgd1na2vs0mg"},{"bike_id":"9d8f6b40-000e-4394-ad1e-cfceb15b7d69","system_id":"levelo_inurba_marseille","lat":43.279538,"lon":5.387305,"is_reserved":false,"is_disabled":false,"rental_uris":{"android":"levelo://app?vid=9d8f6b40-000e-4394-ad1e-cfceb15b7d69","ios":"levelo://app?vid=9d8f6b40-000e-4394-ad1e-cfceb15b7d69"},"vehicle_type_id":"4","last_reported":1769095195,"current_range_meters":3200,"station_id":"ce4bhg12rcd13ifvqf80","pricing_plan_id":"cebpf4jnsgd1na2vs0mg"},{"bike_id":"85a00108-f046-4ab5-9d8b-3a6b8b1df9c8","system_id":"levelo_inurba_marseille","lat":43.29731,"lon":5.37687,"is_reserved":false,"is_disabled":false,"rental_uris":{"android":"levelo://app?vid=85a00108-f046-4ab5-9d8b-3a6b8b1df9c8","ios":"levelo://app?vid=85a00108-f046-4ab5-9d8b-3a6b8b1df9c8"},"vehicle_type_id":"4","last_reported":1769095195,"current_range_meters":3200,"station_id":"ce4bgkh2rcd13ifvqbl0","pricing_plan_id":"cebpf4jnsgd1na2vs0mg"},{"bike_id":"0b64e895-792b-4498-9172-5f40249c5668","system_id":"levelo_inurba_marseille","lat":43.26053,"lon":5.39384,"is_reserved":false,"is_disabled":false,"rental_uris":{"android":"levelo://app?vid=0b64e895-792b-4498-9172-5f40249c5668","ios":"levelo://app?vid=0b64e895-792b-4498-9172-5f40249c5668"},"vehicle_type_id":"4","last_reported":1769095195,"current_range_meters":3200,"station_id":"ce4bhh92rcd13ifvqfj0","pricing_plan_id":"cebpf4jnsgd1na2vs0mg"},{"bike_id":"bf9df301-dc0d-41cc-96a1-27301e9f819b","system_id":"levelo_inurba_marseille","lat":43.28482,"lon":5.4839,"is_reserved":false,"is_disabled":false,"rental_uris":{"android":"levelo://app?vid=bf9df301-dc0d-41cc-96a1-27301e9f819b","ios":"levelo://app?vid=bf9df301-dc0d-41cc-96a1-27301e9f819b"},"vehicle_type_id":"4","last_reported":1769095195,"current_range_meters":3200,"station_id":"st_d3svhcjqgbts73a3dn0g","pricing_plan_id":"cebpf4jnsgd1na2vs0mg"},{"bike_id":"c410668a-fb9f-4d89-8357-51bcc7148eda","system_id":"levelo_inurba_marseille","lat":43.241772,"lon":5.397253,"is_reserved":false,"is_disabled":false,"rental_uris":{"android":"levelo://app?vid=c410668a-fb9f-4d89-8357-51bcc7148eda","ios":"levelo://app?vid=c410668a-fb9f-4d89-8357-51bcc7148eda"},"vehicle_type_id":"4","last_reported":1769095195,"current_range_meters":3200,"station_id":"ce4bhn12rcd13ifvqgpg","pricing_plan_id":"cebpf4jnsgd1na2vs0mg"},{"bike_id":"00f23658-92e1-4882-9fad-3304193da7c6","system_id":"levelo_inurba_marseille","lat":43.30303,"lon":5.36909,"is_reserved":false,"is_disabled":false,"rental_uris":{"android":"levelo://app?vid=00f23658-92e1-4882-9fad-3304193da7c6","ios":"levelo://app?vid=00f23658-92e1-4882-9fad-3304193da7c6"},"vehicle_type_id":"4","last_reported":1769095195,"current_range_meters":3200,"station_id":"ce4bgqh2rcd13ifvqc5g","pricing_plan_id":"cebpf4jnsgd1na2vs0mg"},{"bike_id":"95fda948-346d-41ac-a472-6de74dfff667","system_id":"levelo_inurba_marseille","lat":43.24954,"lon":5.40494,"is_reserved":false,"is_disabled":false,"rental_uris":{"android":"levelo://app?vid=95fda948-346d-41ac-a472-6de74dfff667","ios":"levelo://app?vid=95fda948-346d-41ac-a472-6de74dfff667"},"vehicle_type_id":"4","last_reported":1769095195,"current_range_meters":3200,"station_id":"st_d2ngiaodas8pm72gd1h0","pricing_plan_id":"cebpf4jnsgd1na2vs0mg"},{"bike_id":"39ca1a83-0f88-447f-8826-bf9ee8606443","system_id":"levelo_inurba_marseille","lat":43.30129,"lon":5.43114,"is_reserved":false,"is_disabled":false,"rental_uris":{"android":"levelo://app?vid=39ca1a83-0f88-447f-8826-bf9ee8606443","ios":"levelo://app?vid=39ca1a83-0f88-447f-8826-bf9ee8606443"},"vehicle_type_id":"4","last_reported":1769095195,"current_range_meters":3200,"station_id":"st_d3js3co5814s73ftftug","pricing_plan_id":"cebpf4jnsgd1na2vs0mg"},{"bike_id":"c0db7285-41a2-48d5-8666-424ca161e485","system_id":"levelo_inurba_marseille","lat":43.24645,"lon":5.38912,"is_reserved":false,"is_disabled":false,"rental_uris":{"android":"levelo://app?vid=c0db7285-41a2-48d5-8666-424ca161e485","ios":"levelo://app?vid=c0db7285-41a2-48d5-8666-424ca161e485"},"vehicle_type_id":"4","last_reported":1769095195,"current_range_meters":3200,"station_id":"ce4bhg12rcd13ifvqf60","pricing_plan_id":"cebpf4jnsgd1na2vs0mg"},{"bike_id":"1f374d1d-5345-4f57-ac3a-925f20df0c7e","system_id":"levelo_inurba_marseille","lat":43.22561,"lon":5.41625,"is_reserved":false,"is_disabled":false,"rental_uris":{"android":"levelo://app?vid=1f374d1d-5345-4f57-ac3a-925f20df0c7e","ios":"levelo://app?vid=1f374d1d-5345-4f57-ac3a-925f20df0c7e"},"vehicle_type_id":"4","last_reported":1769095195,"current_range_meters":3600,"station_id":"st_d2o4gvlbi1j2169b742g","pricing_plan_id":"cebpf4jnsgd1na2vs0mg"},{"bike_id":"e3aca005-1b5b-4763-88f2-c59ddcce8099","system_id":"levelo_inurba_marseille","lat":43.29542,"lon":5.39396,"is_reserved":false,"is_disabled":false,"rental_uris":{"android":"levelo://app?vid=e3aca005-1b5b-4763-88f2-c59ddcce8099","ios":"levelo://app?vid=e3aca005-1b5b-4763-88f2-c59ddcce8099"},"vehicle_type_id":"4","last_reported":1769095195,"current_range_meters":3600,"station_id":"ce4bh292rcd13ifvqdf0","pricing_plan_id":"cebpf4jnsgd1na2vs0mg"},{"bike_id":"90a5aedd-b07d-4cc0-a009-b2ca457046db","system_id":"levelo_inurba_marseille","lat":43.31472,"lon":5.38259,"is_reserved":false,"is_disabled":false,"rental_uris":{"android":"levelo://app?vid=90a5aedd-b07d-4cc0-a009-b2ca457046db","ios":"levelo://app?vid=90a5aedd-b07d-4cc0-a009-b2ca457046db"},"vehicle_type_id":"4","last_reported":1769095195,"current_range_meters":3600,"station_id":"","pricing_plan_id":"cebpf4jnsgd1na2vs0mg"},{"bike_id":"99d65f09-c0e6-4f0f-b72f-6e110c0f1bd4","system_id":"levelo_inurba_marseille","lat":43.29046,"lon":5.37552,"is_reserved":false,"is_disabled":false,"rental_uris":{"android":"levelo://app?vid=99d65f09-c0e6-4f0f-b72f-6e110c0f1bd4","ios":"levelo://app?vid=99d65f09-c0e6-4f0f-b72f-6e110c0f1bd4"},"vehicle_type_id":"4","last_reported":1769095195,"current_range_meters":3600,"station_id":"ce4bh692rcd13ifvqe90","pricing_plan_id":"cebpf4jnsgd1na2vs0mg"},{"bike_id":"94e447ef-188e-4e98-a497-4fbe709caccf","system_id":"levelo_inurba_marseille","lat":43.23999,"lon":5.36597,"is_reserved":false,"is_disabled":false,"rental_uris":{"android":"levelo://app?vid=94e447ef-188e-4e98-a497-4fbe709caccf","ios":"levelo://app?vid=94e447ef-188e-4e98-a497-4fbe709caccf"},"vehicle_type_id":"4","last_reported":1769095195,"current_range_meters":3600,"station_id":"ce4bhi12rcd13ifvqfp0","pricing_plan_id":"cebpf4jnsgd1na2vs0mg"},{"bike_id":"545e4f83-e51a-49da-ad95-1c0f7558160f","system_id":"levelo_inurba_marseille","lat":43.24791,"lon":5.37458,"is_reserved":false,"is_disabled":false,"rental_uris":{"android":"levelo://app?vid=545e4f83-e51a-49da-ad95-1c0f7558160f","ios":"levelo://app?vid=545e4f83-e51a-49da-ad95-1c0f7558160f"},"vehicle_type_id":"4","last_reported":1769095195,"current_range_meters":3600,"station_id":"ce4bhgh2rcd13ifvqfb0","pricing_plan_id":"cebpf4jnsgd1na2vs0mg"},{"bike_id":"57560f65-e4ea-4eda-9d46-c69dedf142ff","system_id":"levelo_inurba_marseille","lat":43.26333,"lon":5.41058,"is_reserved":false,"is_disabled":false,"rental_uris":{"android":"levelo://app?vid=57560f65-e4ea-4eda-9d46-c69dedf142ff","ios":"levelo://app?vid=57560f65-e4ea-4eda-9d46-c69dedf142ff"},"vehicle_type_id":"4","last_reported":1769095195,"current_range_meters":3600,"station_id":"st_d4e5ca6na9uc73bfl5fg","pricing_plan_id":"cebpf4jnsgd1na2vs0mg"},{"bike_id":"ee33ab3a-e3bc-40d4-a67a-4cd737f87d9a","system_id":"levelo_inurba_marseille","lat":43.29925,"lon":5.37469,"is_reserved":false,"is_disabled":false,"rental_uris":{"android":"levelo://app?vid=ee33ab3a-e3bc-40d4-a67a-4cd737f87d9a","ios":"levelo://app?vid=ee33ab3a-e3bc-40d4-a67a-4cd737f87d9a"},"vehicle_type_id":"4","last_reported":1769095195,"current_range_meters":3600,"station_id":"ce4bgjh2rcd13ifvqbg0","pricing_plan_id":"cebpf4jnsgd1na2vs0mg"},{"bike_id":"f5dbe3f0-b000-4485-bfe7-7e6728e7222b","system_id":"levelo_inurba_marseille","lat":43.27371,"lon":5.36272,"is_reserved":false,"is_disabled":false,"rental_uris":{"android":"levelo://app?vid=f5dbe3f0-b000-4485-bfe7-7e6728e7222b","ios":"levelo://app?vid=f5dbe3f0-b000-4485-bfe7-7e6728e7222b"},"vehicle_type_id":"4","last_reported":1769095195,"current_range_meters":3600,"station_id":"ce4bhbh2rcd13ifvqeo0","pricing_plan_id":"cebpf4jnsgd1na2vs0mg"},{"bike_id":"bfb393b2-23ff-41fa-960f-ead817f6b5c8","system_id":"levelo_inurba_marseille","lat":43.245519,"lon":5.395271,"is_reserved":false,"is_disabled":false,"rental_uris":{"android":"levelo://app?vid=bfb393b2-23ff-41fa-960f-ead817f6b5c8","ios":"levelo://app?vid=bfb393b2-23ff-41fa-960f-ead817f6b5c8"},"vehicle_type_id":"4","last_reported":1769095195,"current_range_meters":3600,"station_id":"ce4bhlp2rcd13ifvqgjg","pricing_plan_id":"cebpf4jnsgd1na2vs0mg"},{"bike_id":"4087bb75-4971-4ccd-b853-6fe0d7ff5481","system_id":"levelo_inurba_marseille","lat":43.26555,"lon":5.37286,"is_reserved":false,"is_disabled":false,"rental_uris":{"android":"levelo://app?vid=4087bb75-4971-4ccd-b853-6fe0d7ff5481","ios":"levelo://app?vid=4087bb75-4971-4ccd-b853-6fe0d7ff5481"},"vehicle_type_id":"4","last_reported":1769095195,"current_range_meters":3600,"station_id":"ce4bhg12rcd13ifvqf70","pricing_plan_id":"cebpf4jnsgd1na2vs0mg"},{"bike_id":"34f60833-f4b4-4fe8-9369-551914a61488","system_id":"levelo_inurba_marseille","lat":43.29346,"lon":5.37284,"is_reserved":false,"is_disabled":false,"rental_uris":{"android":"levelo://app?vid=34f60833-f4b4-4fe8-9369-551914a61488","ios":"levelo://app?vid=34f60833-f4b4-4fe8-9369-551914a61488"},"vehicle_type_id":"4","last_reported":1769095195,"current_range_meters":3600,"station_id":"","pricing_plan_id":"cebpf4jnsgd1na2vs0mg"},{"bike_id":"71dd9af8-403b-4168-8c26-53797b988791","system_id":"levelo_inurba_marseille","lat":43.30142,"lon":5.38085,"is_reserved":false,"is_disabled":false,"rental_uris":{"android":"levelo://app?vid=71dd9af8-403b-4168-8c26-53797b988791","ios":"levelo://app?vid=71dd9af8-403b-4168-8c26-53797b988791"},"vehicle_type_id":"4","last_reported":1769095195,"current_range_meters":4000,"station_id":"ce4bgjp2rcd13ifvqbh0","pricing_plan_id":"cebpf4jnsgd1na2vs0mg"},{"bike_id":"5eaf03ad-8436-449a-bded-fe922f662081","system_id":"levelo_inurba_marseille","lat":43.2534,"lon":5.42173,"is_reserved":false,"is_disabled":false,"rental_uris":{"android":"levelo://app?vid=5eaf03ad-8436-449a-bded-fe922f662081","ios":"levelo://app?vid=5eaf03ad-8436-449a-bded-fe922f662081"},"vehicle_type_id":"4","last_reported":1769095195,"current_range_meters":4000,"station_id":"st_d2m65c5bi1j21697t3ng","pricing_plan_id":"cebpf4jnsgd1na2vs0mg"},{"bike_id":"be97faea-9ab9-49de-a3ee-582d3dc62628","system_id":"levelo_inurba_marseille","lat":43.27942,"lon":5.41042,"is_reserved":false,"is_disabled":false,"rental_uris":{"android":"levelo://app?vid=be97faea-9ab9-49de-a3ee-582d3dc62628","ios":"levelo://app?vid=be97faea-9ab9-49de-a3ee-582d3dc62628"},"vehicle_type_id":"4","last_reported":1769095195,"current_range_meters":4000,"station_id":"ce4bhnp2rcd13ifvqh0g","pricing_plan_id":"cebpf4jnsgd1na2vs0mg"},{"bike_id":"5550a5b9-adf4-46c0-959f-1b39fcd94aad","system_id":"levelo_inurba_marseille","lat":43.29692,"lon":5.37313,"is_reserved":false,"is_disabled":false,"rental_uris":{"android":"levelo://app?vid=5550a5b9-adf4-46c0-959f-1b39fcd94aad","ios":"levelo://app?vid=5550a5b9-adf4-46c0-959f-1b39fcd94aad"},"vehicle_type_id":"4","last_reported":1769095195,"current_range_meters":4000,"station_id":"ce4bgk12rcd13ifvqbj0","pricing_plan_id":"cebpf4jnsgd1na2vs0mg"},{"bike_id":"8a457243-22fd-4dc7-8209-caaae49cb16a","system_id":"levelo_inurba_marseille","lat":43.31682,"lon":5.40475,"is_reserved":false,"is_disabled":false,"rental_uris":{"android":"levelo://app?vid=8a457243-22fd-4dc7-8209-caaae49cb16a","ios":"levelo://app?vid=8a457243-22fd-4dc7-8209-caaae49cb16a"},"vehicle_type_id":"4","last_reported":1769095195,"current_range_meters":4000,"station_id":"ce4bh012rcd13ifvqd00","pricing_plan_id":"cebpf4jnsgd1na2vs0mg"},{"bike_id":"d891b86b-9c4a-46fd-b64a-73de9353aaf0","system_id":"levelo_inurba_marseille","lat":43.309586,"lon":5.3904,"is_reserved":false,"is_disabled":false,"rental_uris":{"android":"levelo://app?vid=d891b86b-9c4a-46fd-b64a-73de9353aaf0","ios":"levelo://app?vid=d891b86b-9c4a-46fd-b64a-73de9353aaf0"},"vehicle_type_id":"4","last_reported":1769095195,"current_range_meters":4000,"station_id":"ce4bgup2rcd13ifvqco0","pricing_plan_id":"cebpf4jnsgd1na2vs0mg"},{"bike_id":"fe2a828f-710f-491e-b529-f22ca09a8365","system_id":"levelo_inurba_marseille","lat":43.30737,"lon":5.40944,"is_reserved":false,"is_disabled":false,"rental_uris":{"android":"levelo://app?vid=fe2a828f-710f-491e-b529-f22ca09a8365","ios":"levelo://app?vid=fe2a828f-710f-491e-b529-f22ca09a8365"},"vehicle_type_id":"4","last_reported":1769095195,"current_range_meters":4000,"station_id":"","pricing_plan_id":"cebpf4jnsgd1na2vs0mg"},{"bike_id":"3e081028-0584-4571-90a3-56081bf50e13","system_id":"levelo_inurba_marseille","lat":43.30946,"lon":5.39025,"is_reserved":false,"is_disabled":false,"rental_uris":{"android":"levelo://app?vid=3e081028-0584-4571-90a3-56081bf50e13","ios":"levelo://app?vid=3e081028-0584-4571-90a3-56081bf50e13"},"vehicle_type_id":"4","last_reported":1769095195,"current_range_meters":4000,"station_id":"ce4bgup2rcd13ifvqco0","pricing_plan_id":"cebpf4jnsgd1na2vs0mg"},{"bike_id":"488d3d36-c3f0-4390-80be-f0194a76248a","system_id":"levelo_inurba_marseille","lat":43.255817,"lon":5.404344,"is_reserved":false,"is_disabled":false,"rental_uris":{"android":"levelo://app?vid=488d3d36-c3f0-4390-80be-f0194a76248a","ios":"levelo://app?vid=488d3d36-c3f0-4390-80be-f0194a76248a"},"vehicle_type_id":"4","last_reported":1769095195,"current_range_meters":4000,"station_id":"","pricing_plan_id":"cebpf4jnsgd1na2vs0mg"},{"bike_id":"c3c9d165-9f18-496b-a420-1a5a46ea337c","system_id":"levelo_inurba_marseille","lat":43.30534,"lon":5.36757,"is_reserved":false,"is_disabled":false,"rental_uris":{"android":"levelo://app?vid=c3c9d165-9f18-496b-a420-1a5a46ea337c","ios":"levelo://app?vid=c3c9d165-9f18-496b-a420-1a5a46ea337c"},"vehicle_type_id":"4","last_reported":1769095195,"current_range_meters":4000,"station_id":"ce4bgrp2rcd13ifvqc9g","pricing_plan_id":"cebpf4jnsgd1na2vs0mg"},{"bike_id":"a4d44896-ca37-4d0e-8595-a2aee6d5f8ab","system_id":"levelo_inurba_marseille","lat":43.32094,"lon":5.36779,"is_reserved":false,"is_disabled":false,"rental_uris":{"android":"levelo://app?vid=a4d44896-ca37-4d0e-8595-a2aee6d5f8ab","ios":"levelo://app?vid=a4d44896-ca37-4d0e-8595-a2aee6d5f8ab"},"vehicle_type_id":"4","last_reported":1769095195,"current_range_meters":4000,"station_id":"ce4bhrh2rcd13ifvqhug","pricing_plan_id":"cebpf4jnsgd1na2vs0mg"},{"bike_id":"91c6b80f-ebf8-40dd-9043-2f1efcca7d75","system_id":"levelo_inurba_marseille","lat":43.29517,"lon":5.38541,"is_reserved":false,"is_disabled":true,"rental_uris":{"android":"levelo://app?vid=91c6b80f-ebf8-40dd-9043-2f1efcca7d75","ios":"levelo://app?vid=91c6b80f-ebf8-40dd-9043-2f1efcca7d75"},"vehicle_type_id":"4","last_reported":1769095195,"current_range_meters":4000,"station_id":"ce4bgih2rcd13ifvqba0","pricing_plan_id":"cebpf4jnsgd1na2vs0mg"},{"bike_id":"cf4879cd-2695-4eda-bb2d-494e0b01495a","system_id":"levelo_inurba_marseille","lat":43.27818,"lon":5.40711,"is_reserved":false,"is_disabled":false,"rental_uris":{"android":"levelo://app?vid=cf4879cd-2695-4eda-bb2d-494e0b01495a","ios":"levelo://app?vid=cf4879cd-2695-4eda-bb2d-494e0b01495a"},"vehicle_type_id":"4","last_reported":1769095195,"current_range_meters":4400,"station_id":"ce4bhnh2rcd13ifvqgtg","pricing_plan_id":"cebpf4jnsgd1na2vs0mg"},{"bike_id":"e2c75bb6-a8f5-4d10-8f8c-b5c9ff3756c1","system_id":"levelo_inurba_marseille","lat":43.305443,"lon":5.365275,"is_reserved":false,"is_disabled":false,"rental_uris":{"android":"levelo://app?vid=e2c75bb6-a8f5-4d10-8f8c-b5c9ff3756c1","ios":"levelo://app?vid=e2c75bb6-a8f5-4d10-8f8c-b5c9ff3756c1"},"vehicle_type_id":"4","last_reported":1769095195,"current_range_meters":4400,"station_id":"ce4bgs12rcd13ifvqcag","pricing_plan_id":"cebpf4jnsgd1na2vs0mg"},{"bike_id":"206441f8-aeae-4f5a-aba6-5de70a26d57c","system_id":"levelo_inurba_marseille","lat":43.26572,"lon":5.37327,"is_reserved":false,"is_disabled":false,"rental_uris":{"android":"levelo://app?vid=206441f8-aeae-4f5a-aba6-5de70a26d57c","ios":"levelo://app?vid=206441f8-aeae-4f5a-aba6-5de70a26d57c"},"vehicle_type_id":"4","last_reported":1769095195,"current_range_meters":4400,"station_id":"ce4bhg12rcd13ifvqf70","pricing_plan_id":"cebpf4jnsgd1na2vs0mg"},{"bike_id":"f3a01c85-86e9-4a7c-837b-602faf4bbfde","system_id":"levelo_inurba_marseille","lat":43.28038,"lon":5.38761,"is_reserved":false,"is_disabled":false,"rental_uris":{"android":"levelo://app?vid=f3a01c85-86e9-4a7c-837b-602faf4bbfde","ios":"levelo://app?vid=f3a01c85-86e9-4a7c-837b-602faf4bbfde"},"vehicle_type_id":"4","last_reported":1769095195,"current_range_meters":4400,"station_id":"","pricing_plan_id":"cebpf4jnsgd1na2vs0mg"},{"bike_id":"dde7b0e0-bbd1-44de-82f6-999f8e69694c","system_id":"levelo_inurba_marseille","lat":43.25487,"lon":5.37648,"is_reserved":false,"is_disabled":false,"rental_uris":{"android":"levelo://app?vid=dde7b0e0-bbd1-44de-82f6-999f8e69694c","ios":"levelo://app?vid=dde7b0e0-bbd1-44de-82f6-999f8e69694c"},"vehicle_type_id":"4","last_reported":1769095195,"current_range_meters":4400,"station_id":"ce4bhh12rcd13ifvqff0","pricing_plan_id":"cebpf4jnsgd1na2vs0mg"},{"bike_id":"a1ab9501-f96c-426e-8fbc-d87d97e64b36","system_id":"levelo_inurba_marseille","lat":43.28998,"lon":5.37853,"is_reserved":false,"is_disabled":false,"rental_uris":{"android":"levelo://app?vid=a1ab9501-f96c-426e-8fbc-d87d97e64b36","ios":"levelo://app?vid=a1ab9501-f96c-426e-8fbc-d87d97e64b36"},"vehicle_type_id":"4","last_reported":1769095195,"current_range_meters":4400,"station_id":"ce4bh9p2rcd13ifvqed0","pricing_plan_id":"cebpf4jnsgd1na2vs0mg"},{"bike_id":"d8f34b5e-d831-4a3d-8643-93f2f2dfecae","system_id":"levelo_inurba_marseille","lat":43.24171,"lon":5.36396,"is_reserved":false,"is_disabled":false,"rental_uris":{"android":"levelo://app?vid=d8f34b5e-d831-4a3d-8643-93f2f2dfecae","ios":"levelo://app?vid=d8f34b5e-d831-4a3d-8643-93f2f2dfecae"},"vehicle_type_id":"4","last_reported":1769095195,"current_range_meters":4400,"station_id":"cpo36qri1sfpv3e86is0","pricing_plan_id":"cebpf4jnsgd1na2vs0mg"},{"bike_id":"290ed5b5-7a96-4f56-a8c8-91b30ca7b39f","system_id":"levelo_inurba_marseille","lat":43.299633,"lon":5.385041,"is_reserved":false,"is_disabled":false,"rental_uris":{"android":"levelo://app?vid=290ed5b5-7a96-4f56-a8c8-91b30ca7b39f","ios":"levelo://app?vid=290ed5b5-7a96-4f56-a8c8-91b30ca7b39f"},"vehicle_type_id":"4","last_reported":1769095195,"current_range_meters":4400,"station_id":"ce4bgj92rcd13ifvqbd0","pricing_plan_id":"cebpf4jnsgd1na2vs0mg"},{"bike_id":"70942bdb-cce8-4766-ba54-c7a8cb5b950f","system_id":"levelo_inurba_marseille","lat":43.25595,"lon":5.38213,"is_reserved":false,"is_disabled":false,"rental_uris":{"android":"levelo://app?vid=70942bdb-cce8-4766-ba54-c7a8cb5b950f","ios":"levelo://app?vid=70942bdb-cce8-4766-ba54-c7a8cb5b950f"},"vehicle_type_id":"4","last_reported":1769095195,"current_range_meters":4400,"station_id":"ce4bhih2rcd13ifvqfs0","pricing_plan_id":"cebpf4jnsgd1na2vs0mg"},{"bike_id":"b1976e7f-f8b8-4864-9e87-b9955da362dc","system_id":"levelo_inurba_marseille","lat":43.2867,"lon":5.3897,"is_reserved":false,"is_disabled":false,"rental_uris":{"android":"levelo://app?vid=b1976e7f-f8b8-4864-9e87-b9955da362dc","ios":"levelo://app?vid=b1976e7f-f8b8-4864-9e87-b9955da362dc"},"vehicle_type_id":"4","last_reported":1769095195,"current_range_meters":4400,"station_id":"","pricing_plan_id":"cebpf4jnsgd1na2vs0mg"},{"bike_id":"94d782ce-d646-4a15-909c-4c48f4840c8d","system_id":"levelo_inurba_marseille","lat":43.2582,"lon":5.39387,"is_reserved":false,"is_disabled":false,"rental_uris":{"android":"levelo://app?vid=94d782ce-d646-4a15-909c-4c48f4840c8d","ios":"levelo://app?vid=94d782ce-d646-4a15-909c-4c48f4840c8d"},"vehicle_type_id":"4","last_reported":1769095195,"current_range_meters":4400,"station_id":"ce4bhip2rcd13ifvqft0","pricing_plan_id":"cebpf4jnsgd1na2vs0mg"},{"bike_id":"b8f5ce09-f55d-440f-8cf4-dce8baf44f4c","system_id":"levelo_inurba_marseille","lat":43.24996,"lon":5.38934,"is_reserved":false,"is_disabled":false,"rental_uris":{"android":"levelo://app?vid=b8f5ce09-f55d-440f-8cf4-dce8baf44f4c","ios":"levelo://app?vid=b8f5ce09-f55d-440f-8cf4-dce8baf44f4c"},"vehicle_type_id":"4","last_reported":1769095195,"current_range_meters":4400,"station_id":"ce4bhgp2rcd13ifvqfd0","pricing_plan_id":"cebpf4jnsgd1na2vs0mg"},{"bike_id":"ebc59118-e1a4-482d-84d0-eafb34b0b9ea","system_id":"levelo_inurba_marseille","lat":43.23779,"lon":5.36634,"is_reserved":false,"is_disabled":false,"rental_uris":{"android":"levelo://app?vid=ebc59118-e1a4-482d-84d0-eafb34b0b9ea","ios":"levelo://app?vid=ebc59118-e1a4-482d-84d0-eafb34b0b9ea"},"vehicle_type_id":"4","last_reported":1769095195,"current_range_meters":4800,"station_id":"st_d3nk18o9ro0c73en2l3g","pricing_plan_id":"cebpf4jnsgd1na2vs0mg"},{"bike_id":"abb88afc-d82b-4ba7-ab70-224a7abe4dfa","system_id":"levelo_inurba_marseille","lat":43.32494,"lon":5.38299,"is_reserved":false,"is_disabled":false,"rental_uris":{"android":"levelo://app?vid=abb88afc-d82b-4ba7-ab70-224a7abe4dfa","ios":"levelo://app?vid=abb88afc-d82b-4ba7-ab70-224a7abe4dfa"},"vehicle_type_id":"4","last_reported":1769095195,"current_range_meters":4800,"station_id":"st_d4asgbiv49dc73anf9m0","pricing_plan_id":"cebpf4jnsgd1na2vs0mg"},{"bike_id":"607c435d-5fb0-4f63-b221-a58bdcfdc9c2","system_id":"levelo_inurba_marseille","lat":43.25016,"lon":5.38946,"is_reserved":false,"is_disabled":false,"rental_uris":{"android":"levelo://app?vid=607c435d-5fb0-4f63-b221-a58bdcfdc9c2","ios":"levelo://app?vid=607c435d-5fb0-4f63-b221-a58bdcfdc9c2"},"vehicle_type_id":"4","last_reported":1769095195,"current_range_meters":4800,"station_id":"ce4bhgp2rcd13ifvqfd0","pricing_plan_id":"cebpf4jnsgd1na2vs0mg"},{"bike_id":"24da7d1f-4c31-464c-8591-7c8451c98bcf","system_id":"levelo_inurba_marseille","lat":43.231568,"lon":5.437188,"is_reserved":false,"is_disabled":false,"rental_uris":{"android":"levelo://app?vid=24da7d1f-4c31-464c-8591-7c8451c98bcf","ios":"levelo://app?vid=24da7d1f-4c31-464c-8591-7c8451c98bcf"},"vehicle_type_id":"4","last_reported":1769095195,"current_range_meters":4800,"station_id":"ce4bhmp2rcd13ifvqgog","pricing_plan_id":"cebpf4jnsgd1na2vs0mg"},{"bike_id":"3998b630-1550-4129-b95e-2d12a38501a1","system_id":"levelo_inurba_marseille","lat":43.2557,"lon":5.38238,"is_reserved":false,"is_disabled":false,"rental_uris":{"android":"levelo://app?vid=3998b630-1550-4129-b95e-2d12a38501a1","ios":"levelo://app?vid=3998b630-1550-4129-b95e-2d12a38501a1"},"vehicle_type_id":"4","last_reported":1769095195,"current_range_meters":4800,"station_id":"ce4bhih2rcd13ifvqfs0","pricing_plan_id":"cebpf4jnsgd1na2vs0mg"},{"bike_id":"def5f42b-be7f-44a7-b591-92654dafa523","system_id":"levelo_inurba_marseille","lat":43.291747,"lon":5.371484,"is_reserved":false,"is_disabled":false,"rental_uris":{"android":"levelo://app?vid=def5f42b-be7f-44a7-b591-92654dafa523","ios":"levelo://app?vid=def5f42b-be7f-44a7-b591-92654dafa523"},"vehicle_type_id":"4","last_reported":1769095195,"current_range_meters":4800,"station_id":"ce4bha92rcd13ifvqeh0","pricing_plan_id":"cebpf4jnsgd1na2vs0mg"},{"bike_id":"b3d7b933-76dd-49aa-9a51-177cf092002b","system_id":"levelo_inurba_marseille","lat":43.24545,"lon":5.39526,"is_reserved":false,"is_disabled":false,"rental_uris":{"android":"levelo://app?vid=b3d7b933-76dd-49aa-9a51-177cf092002b","ios":"levelo://app?vid=b3d7b933-76dd-49aa-9a51-177cf092002b"},"vehicle_type_id":"4","last_reported":1769095195,"current_range_meters":4800,"station_id":"ce4bhlp2rcd13ifvqgjg","pricing_plan_id":"cebpf4jnsgd1na2vs0mg"},{"bike_id":"aec5c08c-9f05-47e9-bb02-2d63b83fc483","system_id":"levelo_inurba_marseille","lat":43.26752,"lon":5.3923,"is_reserved":false,"is_disabled":false,"rental_uris":{"android":"levelo://app?vid=aec5c08c-9f05-47e9-bb02-2d63b83fc483","ios":"levelo://app?vid=aec5c08c-9f05-47e9-bb02-2d63b83fc483"},"vehicle_type_id":"4","last_reported":1769095195,"current_range_meters":4800,"station_id":"","pricing_plan_id":"cebpf4jnsgd1na2vs0mg"},{"bike_id":"a7427b0f-7e85-43b0-9b85-c9697e38edaf","system_id":"levelo_inurba_marseille","lat":43.292047,"lon":5.38165,"is_reserved":false,"is_disabled":false,"rental_uris":{"android":"levelo://app?vid=a7427b0f-7e85-43b0-9b85-c9697e38edaf","ios":"levelo://app?vid=a7427b0f-7e85-43b0-9b85-c9697e38edaf"},"vehicle_type_id":"4","last_reported":1769095195,"current_range_meters":5600,"station_id":"ce4bhs12rcd13ifvqhvg","pricing_plan_id":"cebpf4jnsgd1na2vs0mg"},{"bike_id":"37a6ba89-0d66-46be-ad14-7de2d3d5b58b","system_id":"levelo_inurba_marseille","lat":43.27075,"lon":5.40239,"is_reserved":false,"is_disabled":false,"rental_uris":{"android":"levelo://app?vid=37a6ba89-0d66-46be-ad14-7de2d3d5b58b","ios":"levelo://app?vid=37a6ba89-0d66-46be-ad14-7de2d3d5b58b"},"vehicle_type_id":"4","last_reported":1769095195,"current_range_meters":5600,"station_id":"ce4bhk92rcd13ifvqgc0","pricing_plan_id":"cebpf4jnsgd1na2vs0mg"},{"bike_id":"68226070-db87-4f3a-bcca-d8c5e4b321f8","system_id":"levelo_inurba_marseille","lat":43.30164,"lon":5.38146,"is_reserved":false,"is_disabled":false,"rental_uris":{"android":"levelo://app?vid=68226070-db87-4f3a-bcca-d8c5e4b321f8","ios":"levelo://app?vid=68226070-db87-4f3a-bcca-d8c5e4b321f8"},"vehicle_type_id":"4","last_reported":1769095195,"current_range_meters":5600,"station_id":"","pricing_plan_id":"cebpf4jnsgd1na2vs0mg"},{"bike_id":"abe0bd04-0384-4418-9a38-a152e2f74a0e","system_id":"levelo_inurba_marseille","lat":43.24079,"lon":5.37757,"is_reserved":false,"is_disabled":false,"rental_uris":{"android":"levelo://app?vid=abe0bd04-0384-4418-9a38-a152e2f74a0e","ios":"levelo://app?vid=abe0bd04-0384-4418-9a38-a152e2f74a0e"},"vehicle_type_id":"4","last_reported":1769095195,"current_range_meters":5600,"station_id":"ce4bhnp2rcd13ifvqgvg","pricing_plan_id":"cebpf4jnsgd1na2vs0mg"},{"bike_id":"c5ce8352-3569-43f4-b61c-9c49854b9ea4","system_id":"levelo_inurba_marseille","lat":43.26533,"lon":5.37321,"is_reserved":false,"is_disabled":false,"rental_uris":{"android":"levelo://app?vid=c5ce8352-3569-43f4-b61c-9c49854b9ea4","ios":"levelo://app?vid=c5ce8352-3569-43f4-b61c-9c49854b9ea4"},"vehicle_type_id":"4","last_reported":1769095195,"current_range_meters":5600,"station_id":"ce4bhg12rcd13ifvqf70","pricing_plan_id":"cebpf4jnsgd1na2vs0mg"},{"bike_id":"29f74426-d1e6-45fa-80d1-29c4a94139b2","system_id":"levelo_inurba_marseille","lat":43.31378,"lon":5.36714,"is_reserved":false,"is_disabled":false,"rental_uris":{"android":"levelo://app?vid=29f74426-d1e6-45fa-80d1-29c4a94139b2","ios":"levelo://app?vid=29f74426-d1e6-45fa-80d1-29c4a94139b2"},"vehicle_type_id":"4","last_reported":1769095195,"current_range_meters":5600,"station_id":"ce4bgr92rcd13ifvqc6g","pricing_plan_id":"cebpf4jnsgd1na2vs0mg"},{"bike_id":"04f11d8b-80b9-4111-b325-ba4503a237b7","system_id":"levelo_inurba_marseille","lat":43.30138,"lon":5.38782,"is_reserved":false,"is_disabled":false,"rental_uris":{"android":"levelo://app?vid=04f11d8b-80b9-4111-b325-ba4503a237b7","ios":"levelo://app?vid=04f11d8b-80b9-4111-b325-ba4503a237b7"},"vehicle_type_id":"4","last_reported":1769095195,"current_range_meters":5600,"station_id":"ce4bghh2rcd13ifvqb60","pricing_plan_id":"cebpf4jnsgd1na2vs0mg"},{"bike_id":"a58670c2-d079-4df2-8fc6-e62a88e4641e","system_id":"levelo_inurba_marseille","lat":43.30462,"lon":5.37913,"is_reserved":false,"is_disabled":false,"rental_uris":{"android":"levelo://app?vid=a58670c2-d079-4df2-8fc6-e62a88e4641e","ios":"levelo://app?vid=a58670c2-d079-4df2-8fc6-e62a88e4641e"},"vehicle_type_id":"4","last_reported":1769095195,"current_range_meters":5600,"station_id":"ce4bgup2rcd13ifvqcn0","pricing_plan_id":"cebpf4jnsgd1na2vs0mg"},{"bike_id":"133dd31b-7e8b-494a-b027-d9d75407821f","system_id":"levelo_inurba_marseille","lat":43.32421,"lon":5.36546,"is_reserved":false,"is_disabled":false,"rental_uris":{"android":"levelo://app?vid=133dd31b-7e8b-494a-b027-d9d75407821f","ios":"levelo://app?vid=133dd31b-7e8b-494a-b027-d9d75407821f"},"vehicle_type_id":"4","last_reported":1769095195,"current_range_meters":5600,"station_id":"","pricing_plan_id":"cebpf4jnsgd1na2vs0mg"},{"bike_id":"b05d35a6-a4b1-4f68-ab22-eac501a6370f","system_id":"levelo_inurba_marseille","lat":43.32357,"lon":5.36738,"is_reserved":false,"is_disabled":false,"rental_uris":{"android":"levelo://app?vid=b05d35a6-a4b1-4f68-ab22-eac501a6370f","ios":"levelo://app?vid=b05d35a6-a4b1-4f68-ab22-eac501a6370f"},"vehicle_type_id":"4","last_reported":1769095195,"current_range_meters":5600,"station_id":"ce4bhsh2rcd13ifvqi2g","pricing_plan_id":"cebpf4jnsgd1na2vs0mg"},{"bike_id":"cbcb104d-c6f2-4fd4-9d16-61015d97dcf2","system_id":"levelo_inurba_marseille","lat":43.284182,"lon":5.349948,"is_reserved":false,"is_disabled":false,"rental_uris":{"android":"levelo://app?vid=cbcb104d-c6f2-4fd4-9d16-61015d97dcf2","ios":"levelo://app?vid=cbcb104d-c6f2-4fd4-9d16-61015d97dcf2"},"vehicle_type_id":"4","last_reported":1769095195,"current_range_meters":5600,"station_id":"ce4bhbh2rcd13ifvqepg","pricing_plan_id":"cebpf4jnsgd1na2vs0mg"},{"bike_id":"5784a8be-39eb-4378-bf2a-dd6686dccecf","system_id":"levelo_inurba_marseille","lat":43.23158,"lon":5.43698,"is_reserved":false,"is_disabled":false,"rental_uris":{"android":"levelo://app?vid=5784a8be-39eb-4378-bf2a-dd6686dccecf","ios":"levelo://app?vid=5784a8be-39eb-4378-bf2a-dd6686dccecf"},"vehicle_type_id":"4","last_reported":1769095195,"current_range_meters":5600,"station_id":"ce4bhmp2rcd13ifvqgog","pricing_plan_id":"cebpf4jnsgd1na2vs0mg"},{"bike_id":"dc4ceef8-23de-4910-9db6-c2c9947acc9d","system_id":"levelo_inurba_marseille","lat":43.301385,"lon":5.374185,"is_reserved":false,"is_disabled":false,"rental_uris":{"android":"levelo://app?vid=dc4ceef8-23de-4910-9db6-c2c9947acc9d","ios":"levelo://app?vid=dc4ceef8-23de-4910-9db6-c2c9947acc9d"},"vehicle_type_id":"4","last_reported":1769095195,"current_range_meters":5600,"station_id":"ce4bgs92rcd13ifvqcc0","pricing_plan_id":"cebpf4jnsgd1na2vs0mg"},{"bike_id":"a7dca984-2a89-4f7d-a4b2-c4b75083a65d","system_id":"levelo_inurba_marseille","lat":43.24661,"lon":5.38901,"is_reserved":false,"is_disabled":false,"rental_uris":{"android":"levelo://app?vid=a7dca984-2a89-4f7d-a4b2-c4b75083a65d","ios":"levelo://app?vid=a7dca984-2a89-4f7d-a4b2-c4b75083a65d"},"vehicle_type_id":"4","last_reported":1769095195,"current_range_meters":5600,"station_id":"ce4bh392rcd13ifvqdl0","pricing_plan_id":"cebpf4jnsgd1na2vs0mg"},{"bike_id":"beb99d3a-6147-4b1a-9c23-62ca2bec7b3f","system_id":"levelo_inurba_marseille","lat":43.26543,"lon":5.39518,"is_reserved":false,"is_disabled":false,"rental_uris":{"android":"levelo://app?vid=beb99d3a-6147-4b1a-9c23-62ca2bec7b3f","ios":"levelo://app?vid=beb99d3a-6147-4b1a-9c23-62ca2bec7b3f"},"vehicle_type_id":"4","last_reported":1769095195,"current_range_meters":5600,"station_id":"","pricing_plan_id":"cebpf4jnsgd1na2vs0mg"},{"bike_id":"f8b49300-54ec-4418-8820-9111b0eec7ac","system_id":"levelo_inurba_marseille","lat":43.30947,"lon":5.39027,"is_reserved":false,"is_disabled":false,"rental_uris":{"android":"levelo://app?vid=f8b49300-54ec-4418-8820-9111b0eec7ac","ios":"levelo://app?vid=f8b49300-54ec-4418-8820-9111b0eec7ac"},"vehicle_type_id":"4","last_reported":1769095195,"current_range_meters":5600,"station_id":"ce4bgup2rcd13ifvqco0","pricing_plan_id":"cebpf4jnsgd1na2vs0mg"},{"bike_id":"737cdf6e-8c2e-4b43-8e7d-478c69e4c6a4","system_id":"levelo_inurba_marseille","lat":43.3317,"lon":5.38923,"is_reserved":false,"is_disabled":false,"rental_uris":{"android":"levelo://app?vid=737cdf6e-8c2e-4b43-8e7d-478c69e4c6a4","ios":"levelo://app?vid=737cdf6e-8c2e-4b43-8e7d-478c69e4c6a4"},"vehicle_type_id":"4","last_reported":1769095195,"current_range_meters":5600,"station_id":"","pricing_plan_id":"cebpf4jnsgd1na2vs0mg"},{"bike_id":"fc5d102e-6a36-4a5b-99d5-23cf30eec9b5","system_id":"levelo_inurba_marseille","lat":43.23188,"lon":5.35566,"is_reserved":false,"is_disabled":false,"rental_uris":{"android":"levelo://app?vid=fc5d102e-6a36-4a5b-99d5-23cf30eec9b5","ios":"levelo://app?vid=fc5d102e-6a36-4a5b-99d5-23cf30eec9b5"},"vehicle_type_id":"4","last_reported":1769095195,"current_range_meters":6000,"station_id":"ce4bhu92rcd13ifvqi70","pricing_plan_id":"cebpf4jnsgd1na2vs0mg"},{"bike_id":"bd3222b3-dffe-4214-a25c-da1b23e1c71b","system_id":"levelo_inurba_marseille","lat":43.32332,"lon":5.36739,"is_reserved":false,"is_disabled":false,"rental_uris":{"android":"levelo://app?vid=bd3222b3-dffe-4214-a25c-da1b23e1c71b","ios":"levelo://app?vid=bd3222b3-dffe-4214-a25c-da1b23e1c71b"},"vehicle_type_id":"4","last_reported":1769095195,"current_range_meters":6000,"station_id":"ce4bhsh2rcd13ifvqi2g","pricing_plan_id":"cebpf4jnsgd1na2vs0mg"},{"bike_id":"f6eb85c1-f53f-4dc1-8797-0471cff4e32e","system_id":"levelo_inurba_marseille","lat":43.28542,"lon":5.39118,"is_reserved":false,"is_disabled":false,"rental_uris":{"android":"levelo://app?vid=f6eb85c1-f53f-4dc1-8797-0471cff4e32e","ios":"levelo://app?vid=f6eb85c1-f53f-4dc1-8797-0471cff4e32e"},"vehicle_type_id":"4","last_reported":1769095195,"current_range_meters":6000,"station_id":"","pricing_plan_id":"cebpf4jnsgd1na2vs0mg"},{"bike_id":"01c732cc-5cd6-4f68-aa5b-bba65270e62e","system_id":"levelo_inurba_marseille","lat":43.30978,"lon":5.39005,"is_reserved":false,"is_disabled":false,"rental_uris":{"android":"levelo://app?vid=01c732cc-5cd6-4f68-aa5b-bba65270e62e","ios":"levelo://app?vid=01c732cc-5cd6-4f68-aa5b-bba65270e62e"},"vehicle_type_id":"4","last_reported":1769095195,"current_range_meters":6000,"station_id":"ce4bgup2rcd13ifvqco0","pricing_plan_id":"cebpf4jnsgd1na2vs0mg"},{"bike_id":"811e4109-4554-441e-908e-4c588b5c7adf","system_id":"levelo_inurba_marseille","lat":43.29729,"lon":5.36876,"is_reserved":false,"is_disabled":false,"rental_uris":{"android":"levelo://app?vid=811e4109-4554-441e-908e-4c588b5c7adf","ios":"levelo://app?vid=811e4109-4554-441e-908e-4c588b5c7adf"},"vehicle_type_id":"4","last_reported":1769095195,"current_range_meters":6000,"station_id":"","pricing_plan_id":"cebpf4jnsgd1na2vs0mg"},{"bike_id":"9bb0f388-af68-4c86-a61d-00963ee40b6c","system_id":"levelo_inurba_marseille","lat":43.29574,"lon":5.39975,"is_reserved":false,"is_disabled":false,"rental_uris":{"android":"levelo://app?vid=9bb0f388-af68-4c86-a61d-00963ee40b6c","ios":"levelo://app?vid=9bb0f388-af68-4c86-a61d-00963ee40b6c"},"vehicle_type_id":"4","last_reported":1769095195,"current_range_meters":6000,"station_id":"ce4bh312rcd13ifvqdj0","pricing_plan_id":"cebpf4jnsgd1na2vs0mg"},{"bike_id":"63550df3-d87e-4087-bfb2-31599e2ca646","system_id":"levelo_inurba_marseille","lat":43.25821,"lon":5.39425,"is_reserved":false,"is_disabled":false,"rental_uris":{"android":"levelo://app?vid=63550df3-d87e-4087-bfb2-31599e2ca646","ios":"levelo://app?vid=63550df3-d87e-4087-bfb2-31599e2ca646"},"vehicle_type_id":"4","last_reported":1769095195,"current_range_meters":6000,"station_id":"ce4bhip2rcd13ifvqft0","pricing_plan_id":"cebpf4jnsgd1na2vs0mg"},{"bike_id":"96211231-e125-49f0-8cc9-82b3d3d6626e","system_id":"levelo_inurba_marseille","lat":43.25945,"lon":5.40903,"is_reserved":false,"is_disabled":false,"rental_uris":{"android":"levelo://app?vid=96211231-e125-49f0-8cc9-82b3d3d6626e","ios":"levelo://app?vid=96211231-e125-49f0-8cc9-82b3d3d6626e"},"vehicle_type_id":"4","last_reported":1769095195,"current_range_meters":6400,"station_id":"ce4bhm92rcd13ifvqglg","pricing_plan_id":"cebpf4jnsgd1na2vs0mg"},{"bike_id":"c11faaac-eca6-4ce6-8839-b7eb66c57162","system_id":"levelo_inurba_marseille","lat":43.28168,"lon":5.42629,"is_reserved":false,"is_disabled":false,"rental_uris":{"android":"levelo://app?vid=c11faaac-eca6-4ce6-8839-b7eb66c57162","ios":"levelo://app?vid=c11faaac-eca6-4ce6-8839-b7eb66c57162"},"vehicle_type_id":"4","last_reported":1769095195,"current_range_meters":6400,"station_id":"ce4bhnh2rcd13ifvqgug","pricing_plan_id":"cebpf4jnsgd1na2vs0mg"},{"bike_id":"8c6a33ab-51cc-4e6b-b9c1-7081f396265e","system_id":"levelo_inurba_marseille","lat":43.30306,"lon":5.36905,"is_reserved":false,"is_disabled":false,"rental_uris":{"android":"levelo://app?vid=8c6a33ab-51cc-4e6b-b9c1-7081f396265e","ios":"levelo://app?vid=8c6a33ab-51cc-4e6b-b9c1-7081f396265e"},"vehicle_type_id":"4","last_reported":1769095195,"current_range_meters":6400,"station_id":"ce4bgqh2rcd13ifvqc5g","pricing_plan_id":"cebpf4jnsgd1na2vs0mg"},{"bike_id":"f98220fc-889d-44fd-83c4-b74d36c9d0de","system_id":"levelo_inurba_marseille","lat":43.30126,"lon":5.43107,"is_reserved":false,"is_disabled":false,"rental_uris":{"android":"levelo://app?vid=f98220fc-889d-44fd-83c4-b74d36c9d0de","ios":"levelo://app?vid=f98220fc-889d-44fd-83c4-b74d36c9d0de"},"vehicle_type_id":"4","last_reported":1769095195,"current_range_meters":6400,"station_id":"st_d3js3co5814s73ftftug","pricing_plan_id":"cebpf4jnsgd1na2vs0mg"},{"bike_id":"09570679-3769-40a4-92a8-64d8ec729917","system_id":"levelo_inurba_marseille","lat":43.28611,"lon":5.39873,"is_reserved":false,"is_disabled":false,"rental_uris":{"android":"levelo://app?vid=09570679-3769-40a4-92a8-64d8ec729917","ios":"levelo://app?vid=09570679-3769-40a4-92a8-64d8ec729917"},"vehicle_type_id":"4","last_reported":1769095195,"current_range_meters":6400,"station_id":"st_d4a7ka997mjs738ck50g","pricing_plan_id":"cebpf4jnsgd1na2vs0mg"},{"bike_id":"66b52710-c980-4dbe-934a-c3e8ffc0f9e1","system_id":"levelo_inurba_marseille","lat":43.33161,"lon":5.37671,"is_reserved":false,"is_disabled":false,"rental_uris":{"android":"levelo://app?vid=66b52710-c980-4dbe-934a-c3e8ffc0f9e1","ios":"levelo://app?vid=66b52710-c980-4dbe-934a-c3e8ffc0f9e1"},"vehicle_type_id":"4","last_reported":1769095195,"current_range_meters":6400,"station_id":"st_d46cu089ee8s73dldbu0","pricing_plan_id":"cebpf4jnsgd1na2vs0mg"},{"bike_id":"26b75af5-7ae4-4c9e-852d-f4607cbb3b5b","system_id":"levelo_inurba_marseille","lat":43.24547,"lon":5.39517,"is_reserved":false,"is_disabled":false,"rental_uris":{"android":"levelo://app?vid=26b75af5-7ae4-4c9e-852d-f4607cbb3b5b","ios":"levelo://app?vid=26b75af5-7ae4-4c9e-852d-f4607cbb3b5b"},"vehicle_type_id":"4","last_reported":1769095195,"current_range_meters":6400,"station_id":"ce4bhlp2rcd13ifvqgjg","pricing_plan_id":"cebpf4jnsgd1na2vs0mg"},{"bike_id":"d68cd528-87dc-4a28-8471-721b0cea6df0","system_id":"levelo_inurba_marseille","lat":43.28172,"lon":5.39264,"is_reserved":false,"is_disabled":false,"rental_uris":{"android":"levelo://app?vid=d68cd528-87dc-4a28-8471-721b0cea6df0","ios":"levelo://app?vid=d68cd528-87dc-4a28-8471-721b0cea6df0"},"vehicle_type_id":"4","last_reported":1769095195,"current_range_meters":6400,"station_id":"","pricing_plan_id":"cebpf4jnsgd1na2vs0mg"},{"bike_id":"87ee419d-8b8f-42c7-8dbd-4387230607b6","system_id":"levelo_inurba_marseille","lat":43.304985,"lon":5.367097,"is_reserved":false,"is_disabled":false,"rental_uris":{"android":"levelo://app?vid=87ee419d-8b8f-42c7-8dbd-4387230607b6","ios":"levelo://app?vid=87ee419d-8b8f-42c7-8dbd-4387230607b6"},"vehicle_type_id":"4","last_reported":1769095195,"current_range_meters":6400,"station_id":"ce4bgrp2rcd13ifvqc9g","pricing_plan_id":"cebpf4jnsgd1na2vs0mg"},{"bike_id":"62931247-4aff-4f68-9011-cb1aa7863151","system_id":"levelo_inurba_marseille","lat":43.25571,"lon":5.3822,"is_reserved":false,"is_disabled":false,"rental_uris":{"android":"levelo://app?vid=62931247-4aff-4f68-9011-cb1aa7863151","ios":"levelo://app?vid=62931247-4aff-4f68-9011-cb1aa7863151"},"vehicle_type_id":"4","last_reported":1769095195,"current_range_meters":6400,"station_id":"ce4bhih2rcd13ifvqfs0","pricing_plan_id":"cebpf4jnsgd1na2vs0mg"},{"bike_id":"5b8789d8-8a74-46cb-9a03-3650cf54c996","system_id":"levelo_inurba_marseille","lat":43.24649,"lon":5.43137,"is_reserved":false,"is_disabled":false,"rental_uris":{"android":"levelo://app?vid=5b8789d8-8a74-46cb-9a03-3650cf54c996","ios":"levelo://app?vid=5b8789d8-8a74-46cb-9a03-3650cf54c996"},"vehicle_type_id":"4","last_reported":1769095195,"current_range_meters":6400,"station_id":"st_d2m6c4gdas8pm72e190g","pricing_plan_id":"cebpf4jnsgd1na2vs0mg"},{"bike_id":"af3e4ec7-913b-43cf-991c-29cf9d90a50c","system_id":"levelo_inurba_marseille","lat":43.310528,"lon":5.37163,"is_reserved":false,"is_disabled":false,"rental_uris":{"android":"levelo://app?vid=af3e4ec7-913b-43cf-991c-29cf9d90a50c","ios":"levelo://app?vid=af3e4ec7-913b-43cf-991c-29cf9d90a50c"},"vehicle_type_id":"4","last_reported":1769095195,"current_range_meters":6400,"station_id":"st_d4kl2rp97mjs73e7tdfg","pricing_plan_id":"cebpf4jnsgd1na2vs0mg"},{"bike_id":"489ef5b0-5c17-43ce-a302-97debd2f4401","system_id":"levelo_inurba_marseille","lat":43.23145,"lon":5.43722,"is_reserved":false,"is_disabled":false,"rental_uris":{"android":"levelo://app?vid=489ef5b0-5c17-43ce-a302-97debd2f4401","ios":"levelo://app?vid=489ef5b0-5c17-43ce-a302-97debd2f4401"},"vehicle_type_id":"4","last_reported":1769095195,"current_range_meters":6400,"station_id":"ce4bhmp2rcd13ifvqgog","pricing_plan_id":"cebpf4jnsgd1na2vs0mg"},{"bike_id":"3206456b-45fe-4b57-ad6e-10515c2f78b7","system_id":"levelo_inurba_marseille","lat":43.24474,"lon":5.42548,"is_reserved":false,"is_disabled":false,"rental_uris":{"android":"levelo://app?vid=3206456b-45fe-4b57-ad6e-10515c2f78b7","ios":"levelo://app?vid=3206456b-45fe-4b57-ad6e-10515c2f78b7"},"vehicle_type_id":"4","last_reported":1769095195,"current_range_meters":6400,"station_id":"st_d4a3vfp97mjs738cd8kg","pricing_plan_id":"cebpf4jnsgd1na2vs0mg"},{"bike_id":"09299833-1cab-4d88-9fd7-ec3ed736bdf9","system_id":"levelo_inurba_marseille","lat":43.25705,"lon":5.42224,"is_reserved":false,"is_disabled":false,"rental_uris":{"android":"levelo://app?vid=09299833-1cab-4d88-9fd7-ec3ed736bdf9","ios":"levelo://app?vid=09299833-1cab-4d88-9fd7-ec3ed736bdf9"},"vehicle_type_id":"4","last_reported":1769095195,"current_range_meters":6400,"station_id":"","pricing_plan_id":"cebpf4jnsgd1na2vs0mg"},{"bike_id":"f937a57b-876e-4112-8def-d43cc1095f9c","system_id":"levelo_inurba_marseille","lat":43.25919,"lon":5.40891,"is_reserved":false,"is_disabled":false,"rental_uris":{"android":"levelo://app?vid=f937a57b-876e-4112-8def-d43cc1095f9c","ios":"levelo://app?vid=f937a57b-876e-4112-8def-d43cc1095f9c"},"vehicle_type_id":"4","last_reported":1769095195,"current_range_meters":6800,"station_id":"ce4bhm92rcd13ifvqglg","pricing_plan_id":"cebpf4jnsgd1na2vs0mg"},{"bike_id":"a1741a52-a546-4534-ad36-cf76c017eb0a","system_id":"levelo_inurba_marseille","lat":43.29442,"lon":5.39756,"is_reserved":false,"is_disabled":false,"rental_uris":{"android":"levelo://app?vid=a1741a52-a546-4534-ad36-cf76c017eb0a","ios":"levelo://app?vid=a1741a52-a546-4534-ad36-cf76c017eb0a"},"vehicle_type_id":"4","last_reported":1769095195,"current_range_meters":6800,"station_id":"ce4bh3h2rcd13ifvqdo0","pricing_plan_id":"cebpf4jnsgd1na2vs0mg"},{"bike_id":"d8344329-153b-4a08-9de8-fc84530e10b9","system_id":"levelo_inurba_marseille","lat":43.23793,"lon":5.36626,"is_reserved":false,"is_disabled":false,"rental_uris":{"android":"levelo://app?vid=d8344329-153b-4a08-9de8-fc84530e10b9","ios":"levelo://app?vid=d8344329-153b-4a08-9de8-fc84530e10b9"},"vehicle_type_id":"4","last_reported":1769095195,"current_range_meters":6800,"station_id":"st_d3nk18o9ro0c73en2l3g","pricing_plan_id":"cebpf4jnsgd1na2vs0mg"},{"bike_id":"b24c9d20-79a1-4e93-84fe-7651d2e88df1","system_id":"levelo_inurba_marseille","lat":43.30537,"lon":5.36691,"is_reserved":false,"is_disabled":false,"rental_uris":{"android":"levelo://app?vid=b24c9d20-79a1-4e93-84fe-7651d2e88df1","ios":"levelo://app?vid=b24c9d20-79a1-4e93-84fe-7651d2e88df1"},"vehicle_type_id":"4","last_reported":1769095195,"current_range_meters":6800,"station_id":"ce4bgrp2rcd13ifvqc9g","pricing_plan_id":"cebpf4jnsgd1na2vs0mg"},{"bike_id":"c1bbfc44-868e-41cc-a3f9-f190df3e03a4","system_id":"levelo_inurba_marseille","lat":43.29626,"lon":5.37708,"is_reserved":false,"is_disabled":false,"rental_uris":{"android":"levelo://app?vid=c1bbfc44-868e-41cc-a3f9-f190df3e03a4","ios":"levelo://app?vid=c1bbfc44-868e-41cc-a3f9-f190df3e03a4"},"vehicle_type_id":"4","last_reported":1769095195,"current_range_meters":6800,"station_id":"ce4bgi92rcd13ifvqb90","pricing_plan_id":"cebpf4jnsgd1na2vs0mg"},{"bike_id":"db52c014-7507-43f9-8010-c9eb4d059d84","system_id":"levelo_inurba_marseille","lat":43.25068,"lon":5.39544,"is_reserved":false,"is_disabled":false,"rental_uris":{"android":"levelo://app?vid=db52c014-7507-43f9-8010-c9eb4d059d84","ios":"levelo://app?vid=db52c014-7507-43f9-8010-c9eb4d059d84"},"vehicle_type_id":"4","last_reported":1769095195,"current_range_meters":6800,"station_id":"ce4bhm12rcd13ifvqgkg","pricing_plan_id":"cebpf4jnsgd1na2vs0mg"},{"bike_id":"40e66f64-0000-4962-8a77-6ec935775e75","system_id":"levelo_inurba_marseille","lat":43.28461,"lon":5.35882,"is_reserved":false,"is_disabled":false,"rental_uris":{"android":"levelo://app?vid=40e66f64-0000-4962-8a77-6ec935775e75","ios":"levelo://app?vid=40e66f64-0000-4962-8a77-6ec935775e75"},"vehicle_type_id":"4","last_reported":1769095195,"current_range_meters":6800,"station_id":"ce4bhah2rcd13ifvqei0","pricing_plan_id":"cebpf4jnsgd1na2vs0mg"},{"bike_id":"9d86a94f-f259-4bff-8fc3-bc1bf1b477e4","system_id":"levelo_inurba_marseille","lat":43.25878,"lon":5.418,"is_reserved":false,"is_disabled":false,"rental_uris":{"android":"levelo://app?vid=9d86a94f-f259-4bff-8fc3-bc1bf1b477e4","ios":"levelo://app?vid=9d86a94f-f259-4bff-8fc3-bc1bf1b477e4"},"vehicle_type_id":"4","last_reported":1769095195,"current_range_meters":6800,"station_id":"","pricing_plan_id":"cebpf4jnsgd1na2vs0mg"},{"bike_id":"aab071b1-6621-4740-8694-b39d8c49a952","system_id":"levelo_inurba_marseille","lat":43.29088,"lon":5.38135,"is_reserved":false,"is_disabled":false,"rental_uris":{"android":"levelo://app?vid=aab071b1-6621-4740-8694-b39d8c49a952","ios":"levelo://app?vid=aab071b1-6621-4740-8694-b39d8c49a952"},"vehicle_type_id":"4","last_reported":1769095195,"current_range_meters":6800,"station_id":"ce4bh512rcd13ifvqe2g","pricing_plan_id":"cebpf4jnsgd1na2vs0mg"},{"bike_id":"14fe4f53-71ef-47f2-aa2d-cb67e84106d0","system_id":"levelo_inurba_marseille","lat":43.29489,"lon":5.43307,"is_reserved":false,"is_disabled":false,"rental_uris":{"android":"levelo://app?vid=14fe4f53-71ef-47f2-aa2d-cb67e84106d0","ios":"levelo://app?vid=14fe4f53-71ef-47f2-aa2d-cb67e84106d0"},"vehicle_type_id":"4","last_reported":1769095195,"current_range_meters":6800,"station_id":"st_d3j5ugp08ojc73fj9d10","pricing_plan_id":"cebpf4jnsgd1na2vs0mg"},{"bike_id":"9442084c-3381-47e8-b2dc-95ca76f97342","system_id":"levelo_inurba_marseille","lat":43.25008,"lon":5.38954,"is_reserved":false,"is_disabled":false,"rental_uris":{"android":"levelo://app?vid=9442084c-3381-47e8-b2dc-95ca76f97342","ios":"levelo://app?vid=9442084c-3381-47e8-b2dc-95ca76f97342"},"vehicle_type_id":"4","last_reported":1769095195,"current_range_meters":6800,"station_id":"ce4bhgp2rcd13ifvqfd0","pricing_plan_id":"cebpf4jnsgd1na2vs0mg"},{"bike_id":"ddac16df-da7b-4c1e-8c96-25bd2dbc1226","system_id":"levelo_inurba_marseille","lat":43.323538,"lon":5.367407,"is_reserved":false,"is_disabled":false,"rental_uris":{"android":"levelo://app?vid=ddac16df-da7b-4c1e-8c96-25bd2dbc1226","ios":"levelo://app?vid=ddac16df-da7b-4c1e-8c96-25bd2dbc1226"},"vehicle_type_id":"4","last_reported":1769095195,"current_range_meters":6800,"station_id":"ce4bhsh2rcd13ifvqi2g","pricing_plan_id":"cebpf4jnsgd1na2vs0mg"},{"bike_id":"68a97176-b5f0-40c2-844b-54696f24afa8","system_id":"levelo_inurba_marseille","lat":43.296008,"lon":5.377315,"is_reserved":false,"is_disabled":false,"rental_uris":{"android":"levelo://app?vid=68a97176-b5f0-40c2-844b-54696f24afa8","ios":"levelo://app?vid=68a97176-b5f0-40c2-844b-54696f24afa8"},"vehicle_type_id":"4","last_reported":1769095195,"current_range_meters":6800,"station_id":"ce4bgi92rcd13ifvqb90","pricing_plan_id":"cebpf4jnsgd1na2vs0mg"},{"bike_id":"f39628e7-f451-4af8-80af-ee31b074b0b2","system_id":"levelo_inurba_marseille","lat":43.28542,"lon":5.44088,"is_reserved":false,"is_disabled":false,"rental_uris":{"android":"levelo://app?vid=f39628e7-f451-4af8-80af-ee31b074b0b2","ios":"levelo://app?vid=f39628e7-f451-4af8-80af-ee31b074b0b2"},"vehicle_type_id":"4","last_reported":1769095195,"current_range_meters":6800,"station_id":"st_d3j3df2ikq2c7380ej80","pricing_plan_id":"cebpf4jnsgd1na2vs0mg"},{"bike_id":"6fedd87d-43f4-49d4-8c29-92430be6252f","system_id":"levelo_inurba_marseille","lat":43.28067,"lon":5.36654,"is_reserved":false,"is_disabled":false,"rental_uris":{"android":"levelo://app?vid=6fedd87d-43f4-49d4-8c29-92430be6252f","ios":"levelo://app?vid=6fedd87d-43f4-49d4-8c29-92430be6252f"},"vehicle_type_id":"4","last_reported":1769095195,"current_range_meters":6800,"station_id":"","pricing_plan_id":"cebpf4jnsgd1na2vs0mg"},{"bike_id":"c9dee47c-00b4-4792-bb20-0e804a11ccd5","system_id":"levelo_inurba_marseille","lat":43.30115,"lon":5.38109,"is_reserved":false,"is_disabled":false,"rental_uris":{"android":"levelo://app?vid=c9dee47c-00b4-4792-bb20-0e804a11ccd5","ios":"levelo://app?vid=c9dee47c-00b4-4792-bb20-0e804a11ccd5"},"vehicle_type_id":"4","last_reported":1769095195,"current_range_meters":6800,"station_id":"ce4bgjp2rcd13ifvqbh0","pricing_plan_id":"cebpf4jnsgd1na2vs0mg"},{"bike_id":"33299776-2c9b-4959-8c33-6a412a8deb29","system_id":"levelo_inurba_marseille","lat":43.23167,"lon":5.43691,"is_reserved":false,"is_disabled":false,"rental_uris":{"android":"levelo://app?vid=33299776-2c9b-4959-8c33-6a412a8deb29","ios":"levelo://app?vid=33299776-2c9b-4959-8c33-6a412a8deb29"},"vehicle_type_id":"4","last_reported":1769095195,"current_range_meters":6800,"station_id":"ce4bhmp2rcd13ifvqgog","pricing_plan_id":"cebpf4jnsgd1na2vs0mg"},{"bike_id":"22bc6d8e-7e0c-4234-afe0-c88e2589ac70","system_id":"levelo_inurba_marseille","lat":43.27091,"lon":5.39933,"is_reserved":false,"is_disabled":false,"rental_uris":{"android":"levelo://app?vid=22bc6d8e-7e0c-4234-afe0-c88e2589ac70","ios":"levelo://app?vid=22bc6d8e-7e0c-4234-afe0-c88e2589ac70"},"vehicle_type_id":"4","last_reported":1769095195,"current_range_meters":6800,"station_id":"","pricing_plan_id":"cebpf4jnsgd1na2vs0mg"},{"bike_id":"14a8ee4e-79d5-40ba-9f2d-be4d84ed1852","system_id":"levelo_inurba_marseille","lat":43.23143,"lon":5.43735,"is_reserved":false,"is_disabled":false,"rental_uris":{"android":"levelo://app?vid=14a8ee4e-79d5-40ba-9f2d-be4d84ed1852","ios":"levelo://app?vid=14a8ee4e-79d5-40ba-9f2d-be4d84ed1852"},"vehicle_type_id":"4","last_reported":1769095195,"current_range_meters":6800,"station_id":"ce4bhmp2rcd13ifvqgog","pricing_plan_id":"cebpf4jnsgd1na2vs0mg"},{"bike_id":"596c41c7-2beb-4c3c-8922-aa97d708cd66","system_id":"levelo_inurba_marseille","lat":43.32363,"lon":5.3679,"is_reserved":false,"is_disabled":false,"rental_uris":{"android":"levelo://app?vid=596c41c7-2beb-4c3c-8922-aa97d708cd66","ios":"levelo://app?vid=596c41c7-2beb-4c3c-8922-aa97d708cd66"},"vehicle_type_id":"4","last_reported":1769095195,"current_range_meters":6800,"station_id":"ce4bhsh2rcd13ifvqi2g","pricing_plan_id":"cebpf4jnsgd1na2vs0mg"},{"bike_id":"f04e5f60-a34c-4fc7-aa13-09b56396abb3","system_id":"levelo_inurba_marseille","lat":43.29636,"lon":5.37687,"is_reserved":false,"is_disabled":false,"rental_uris":{"android":"levelo://app?vid=f04e5f60-a34c-4fc7-aa13-09b56396abb3","ios":"levelo://app?vid=f04e5f60-a34c-4fc7-aa13-09b56396abb3"},"vehicle_type_id":"4","last_reported":1769095195,"current_range_meters":6800,"station_id":"ce4bgi92rcd13ifvqb90","pricing_plan_id":"cebpf4jnsgd1na2vs0mg"},{"bike_id":"dfb6b791-badd-4621-9306-ea3c833e2455","system_id":"levelo_inurba_marseille","lat":43.32736,"lon":5.40878,"is_reserved":false,"is_disabled":false,"rental_uris":{"android":"levelo://app?vid=dfb6b791-badd-4621-9306-ea3c833e2455","ios":"levelo://app?vid=dfb6b791-badd-4621-9306-ea3c833e2455"},"vehicle_type_id":"4","last_reported":1769095195,"current_range_meters":6800,"station_id":"","pricing_plan_id":"cebpf4jnsgd1na2vs0mg"},{"bike_id":"9602bfb2-a38b-4065-8c80-dc0f09d03485","system_id":"levelo_inurba_marseille","lat":43.23201,"lon":5.35537,"is_reserved":false,"is_disabled":false,"rental_uris":{"android":"levelo://app?vid=9602bfb2-a38b-4065-8c80-dc0f09d03485","ios":"levelo://app?vid=9602bfb2-a38b-4065-8c80-dc0f09d03485"},"vehicle_type_id":"4","last_reported":1769095195,"current_range_meters":6800,"station_id":"ce4bhu92rcd13ifvqi70","pricing_plan_id":"cebpf4jnsgd1na2vs0mg"},{"bike_id":"bc155171-5926-4120-a41f-255ec3666b8f","system_id":"levelo_inurba_marseille","lat":43.30176,"lon":5.38107,"is_reserved":false,"is_disabled":false,"rental_uris":{"android":"levelo://app?vid=bc155171-5926-4120-a41f-255ec3666b8f","ios":"levelo://app?vid=bc155171-5926-4120-a41f-255ec3666b8f"},"vehicle_type_id":"4","last_reported":1769095195,"current_range_meters":7200,"station_id":"ce4bgjp2rcd13ifvqbh0","pricing_plan_id":"cebpf4jnsgd1na2vs0mg"},{"bike_id":"29ad5b02-8f29-4102-99b2-dc3b5666e6fc","system_id":"levelo_inurba_marseille","lat":43.27893,"lon":5.39604,"is_reserved":false,"is_disabled":false,"rental_uris":{"android":"levelo://app?vid=29ad5b02-8f29-4102-99b2-dc3b5666e6fc","ios":"levelo://app?vid=29ad5b02-8f29-4102-99b2-dc3b5666e6fc"},"vehicle_type_id":"4","last_reported":1769095195,"current_range_meters":7200,"station_id":"ce4bhf92rcd13ifvqf40","pricing_plan_id":"cebpf4jnsgd1na2vs0mg"},{"bike_id":"f9143ecb-aade-4bb9-990c-9859476787e9","system_id":"levelo_inurba_marseille","lat":43.2379,"lon":5.36608,"is_reserved":false,"is_disabled":false,"rental_uris":{"android":"levelo://app?vid=f9143ecb-aade-4bb9-990c-9859476787e9","ios":"levelo://app?vid=f9143ecb-aade-4bb9-990c-9859476787e9"},"vehicle_type_id":"4","last_reported":1769095195,"current_range_meters":7200,"station_id":"st_d3nk18o9ro0c73en2l3g","pricing_plan_id":"cebpf4jnsgd1na2vs0mg"},{"bike_id":"a0f898d9-83f1-4ac9-932e-8cf1f6205158","system_id":"levelo_inurba_marseille","lat":43.31223,"lon":5.36954,"is_reserved":false,"is_disabled":false,"rental_uris":{"android":"levelo://app?vid=a0f898d9-83f1-4ac9-932e-8cf1f6205158","ios":"levelo://app?vid=a0f898d9-83f1-4ac9-932e-8cf1f6205158"},"vehicle_type_id":"4","last_reported":1769095195,"current_range_meters":7200,"station_id":"","pricing_plan_id":"cebpf4jnsgd1na2vs0mg"},{"bike_id":"3b364841-63d1-4d4f-bb34-83c89b251a49","system_id":"levelo_inurba_marseille","lat":43.308905,"lon":5.372013,"is_reserved":false,"is_disabled":false,"rental_uris":{"android":"levelo://app?vid=3b364841-63d1-4d4f-bb34-83c89b251a49","ios":"levelo://app?vid=3b364841-63d1-4d4f-bb34-83c89b251a49"},"vehicle_type_id":"4","last_reported":1769095195,"current_range_meters":7200,"station_id":"ce4bguh2rcd13ifvqckg","pricing_plan_id":"cebpf4jnsgd1na2vs0mg"},{"bike_id":"861bb7de-0e5d-4b2e-aab7-e5d1b3a5eab9","system_id":"levelo_inurba_marseille","lat":43.23147,"lon":5.437213,"is_reserved":false,"is_disabled":false,"rental_uris":{"android":"levelo://app?vid=861bb7de-0e5d-4b2e-aab7-e5d1b3a5eab9","ios":"levelo://app?vid=861bb7de-0e5d-4b2e-aab7-e5d1b3a5eab9"},"vehicle_type_id":"4","last_reported":1769095195,"current_range_meters":7200,"station_id":"ce4bhmp2rcd13ifvqgog","pricing_plan_id":"cebpf4jnsgd1na2vs0mg"},{"bike_id":"5630e9f9-70f3-4757-a8dd-7793cc2c1fe2","system_id":"levelo_inurba_marseille","lat":43.25585,"lon":5.38205,"is_reserved":false,"is_disabled":false,"rental_uris":{"android":"levelo://app?vid=5630e9f9-70f3-4757-a8dd-7793cc2c1fe2","ios":"levelo://app?vid=5630e9f9-70f3-4757-a8dd-7793cc2c1fe2"},"vehicle_type_id":"4","last_reported":1769095195,"current_range_meters":7200,"station_id":"ce4bhih2rcd13ifvqfs0","pricing_plan_id":"cebpf4jnsgd1na2vs0mg"},{"bike_id":"4489f64d-8723-4d4d-92e1-f258f8a6eaac","system_id":"levelo_inurba_marseille","lat":43.3026,"lon":5.40039,"is_reserved":false,"is_disabled":false,"rental_uris":{"android":"levelo://app?vid=4489f64d-8723-4d4d-92e1-f258f8a6eaac","ios":"levelo://app?vid=4489f64d-8723-4d4d-92e1-f258f8a6eaac"},"vehicle_type_id":"4","last_reported":1769095195,"current_range_meters":7200,"station_id":"ce4bgvh2rcd13ifvqcs0","pricing_plan_id":"cebpf4jnsgd1na2vs0mg"},{"bike_id":"4928f917-3a44-41bf-91c6-d758a671a217","system_id":"levelo_inurba_marseille","lat":43.30536,"lon":5.36548,"is_reserved":false,"is_disabled":false,"rental_uris":{"android":"levelo://app?vid=4928f917-3a44-41bf-91c6-d758a671a217","ios":"levelo://app?vid=4928f917-3a44-41bf-91c6-d758a671a217"},"vehicle_type_id":"4","last_reported":1769095195,"current_range_meters":7200,"station_id":"ce4bgs12rcd13ifvqcag","pricing_plan_id":"cebpf4jnsgd1na2vs0mg"},{"bike_id":"c0693eec-9292-445b-a6b4-302b95058933","system_id":"levelo_inurba_marseille","lat":43.27967,"lon":5.38681,"is_reserved":false,"is_disabled":false,"rental_uris":{"android":"levelo://app?vid=c0693eec-9292-445b-a6b4-302b95058933","ios":"levelo://app?vid=c0693eec-9292-445b-a6b4-302b95058933"},"vehicle_type_id":"4","last_reported":1769095195,"current_range_meters":7200,"station_id":"ce4bhg12rcd13ifvqf80","pricing_plan_id":"cebpf4jnsgd1na2vs0mg"},{"bike_id":"6cde08db-2d60-4fc0-a7d5-505f4f93c6d4","system_id":"levelo_inurba_marseille","lat":43.335495,"lon":5.374638,"is_reserved":false,"is_disabled":false,"rental_uris":{"android":"levelo://app?vid=6cde08db-2d60-4fc0-a7d5-505f4f93c6d4","ios":"levelo://app?vid=6cde08db-2d60-4fc0-a7d5-505f4f93c6d4"},"vehicle_type_id":"4","last_reported":1769095195,"current_range_meters":7200,"station_id":"","pricing_plan_id":"cebpf4jnsgd1na2vs0mg"},{"bike_id":"53f2879f-b266-431f-832c-1df1cfd5ed6b","system_id":"levelo_inurba_marseille","lat":43.30553,"lon":5.3653,"is_reserved":false,"is_disabled":false,"rental_uris":{"android":"levelo://app?vid=53f2879f-b266-431f-832c-1df1cfd5ed6b","ios":"levelo://app?vid=53f2879f-b266-431f-832c-1df1cfd5ed6b"},"vehicle_type_id":"4","last_reported":1769095195,"current_range_meters":7200,"station_id":"ce4bgs12rcd13ifvqcag","pricing_plan_id":"cebpf4jnsgd1na2vs0mg"},{"bike_id":"12d65139-8fbd-418b-8523-1b0952363e37","system_id":"levelo_inurba_marseille","lat":43.24671,"lon":5.38867,"is_reserved":false,"is_disabled":false,"rental_uris":{"android":"levelo://app?vid=12d65139-8fbd-418b-8523-1b0952363e37","ios":"levelo://app?vid=12d65139-8fbd-418b-8523-1b0952363e37"},"vehicle_type_id":"4","last_reported":1769095195,"current_range_meters":8000,"station_id":"ce4bhg12rcd13ifvqf60","pricing_plan_id":"cebpf4jnsgd1na2vs0mg"},{"bike_id":"21dfa8a3-e203-4e9a-b1e2-5d984980663c","system_id":"levelo_inurba_marseille","lat":43.30151,"lon":5.38075,"is_reserved":false,"is_disabled":false,"rental_uris":{"android":"levelo://app?vid=21dfa8a3-e203-4e9a-b1e2-5d984980663c","ios":"levelo://app?vid=21dfa8a3-e203-4e9a-b1e2-5d984980663c"},"vehicle_type_id":"4","last_reported":1769095195,"current_range_meters":8000,"station_id":"ce4bgjp2rcd13ifvqbh0","pricing_plan_id":"cebpf4jnsgd1na2vs0mg"},{"bike_id":"090da4bf-e1ff-427c-b741-8d3293006606","system_id":"levelo_inurba_marseille","lat":43.231986,"lon":5.355523,"is_reserved":false,"is_disabled":false,"rental_uris":{"android":"levelo://app?vid=090da4bf-e1ff-427c-b741-8d3293006606","ios":"levelo://app?vid=090da4bf-e1ff-427c-b741-8d3293006606"},"vehicle_type_id":"4","last_reported":1769095195,"current_range_meters":8000,"station_id":"ce4bhu92rcd13ifvqi70","pricing_plan_id":"cebpf4jnsgd1na2vs0mg"},{"bike_id":"b53456d2-0b9c-41b3-9cdb-8499eaa6161f","system_id":"levelo_inurba_marseille","lat":43.30949,"lon":5.39054,"is_reserved":false,"is_disabled":false,"rental_uris":{"android":"levelo://app?vid=b53456d2-0b9c-41b3-9cdb-8499eaa6161f","ios":"levelo://app?vid=b53456d2-0b9c-41b3-9cdb-8499eaa6161f"},"vehicle_type_id":"4","last_reported":1769095195,"current_range_meters":8000,"station_id":"ce4bgup2rcd13ifvqco0","pricing_plan_id":"cebpf4jnsgd1na2vs0mg"},{"bike_id":"541d5a44-dde4-426d-8d84-9ca52b8319ea","system_id":"levelo_inurba_marseille","lat":43.32078,"lon":5.415,"is_reserved":false,"is_disabled":false,"rental_uris":{"android":"levelo://app?vid=541d5a44-dde4-426d-8d84-9ca52b8319ea","ios":"levelo://app?vid=541d5a44-dde4-426d-8d84-9ca52b8319ea"},"vehicle_type_id":"4","last_reported":1769095195,"current_range_meters":8000,"station_id":"","pricing_plan_id":"cebpf4jnsgd1na2vs0mg"},{"bike_id":"ae72a7f7-0a78-43a1-a80c-a2893de3e9bb","system_id":"levelo_inurba_marseille","lat":43.24807,"lon":5.37453,"is_reserved":false,"is_disabled":false,"rental_uris":{"android":"levelo://app?vid=ae72a7f7-0a78-43a1-a80c-a2893de3e9bb","ios":"levelo://app?vid=ae72a7f7-0a78-43a1-a80c-a2893de3e9bb"},"vehicle_type_id":"4","last_reported":1769095195,"current_range_meters":8000,"station_id":"ce4bhgh2rcd13ifvqfb0","pricing_plan_id":"cebpf4jnsgd1na2vs0mg"},{"bike_id":"983dfa04-9e71-401d-b498-feaefa1c2d24","system_id":"levelo_inurba_marseille","lat":43.27014,"lon":5.39213,"is_reserved":false,"is_disabled":false,"rental_uris":{"android":"levelo://app?vid=983dfa04-9e71-401d-b498-feaefa1c2d24","ios":"levelo://app?vid=983dfa04-9e71-401d-b498-feaefa1c2d24"},"vehicle_type_id":"4","last_reported":1769095195,"current_range_meters":8000,"station_id":"","pricing_plan_id":"cebpf4jnsgd1na2vs0mg"},{"bike_id":"bca2f72e-00dc-416a-9eb6-45c1808c0c68","system_id":"levelo_inurba_marseille","lat":43.304688,"lon":5.379023,"is_reserved":false,"is_disabled":false,"rental_uris":{"android":"levelo://app?vid=bca2f72e-00dc-416a-9eb6-45c1808c0c68","ios":"levelo://app?vid=bca2f72e-00dc-416a-9eb6-45c1808c0c68"},"vehicle_type_id":"4","last_reported":1769095195,"current_range_meters":8000,"station_id":"ce4bgup2rcd13ifvqcn0","pricing_plan_id":"cebpf4jnsgd1na2vs0mg"},{"bike_id":"983434e7-b7db-4a47-ba3e-cd485de0f943","system_id":"levelo_inurba_marseille","lat":43.30157,"lon":5.38093,"is_reserved":false,"is_disabled":false,"rental_uris":{"android":"levelo://app?vid=983434e7-b7db-4a47-ba3e-cd485de0f943","ios":"levelo://app?vid=983434e7-b7db-4a47-ba3e-cd485de0f943"},"vehicle_type_id":"4","last_reported":1769095195,"current_range_meters":8000,"station_id":"ce4bgjp2rcd13ifvqbh0","pricing_plan_id":"cebpf4jnsgd1na2vs0mg"},{"bike_id":"88824d73-5bff-442c-b413-6f648659efb5","system_id":"levelo_inurba_marseille","lat":43.3123,"lon":5.36873,"is_reserved":false,"is_disabled":false,"rental_uris":{"android":"levelo://app?vid=88824d73-5bff-442c-b413-6f648659efb5","ios":"levelo://app?vid=88824d73-5bff-442c-b413-6f648659efb5"},"vehicle_type_id":"4","last_reported":1769095195,"current_range_meters":8000,"station_id":"ce4bgl92rcd13ifvqbq0","pricing_plan_id":"cebpf4jnsgd1na2vs0mg"},{"bike_id":"28261f31-32ed-4e89-ad3f-8e625b13a63b","system_id":"levelo_inurba_marseille","lat":43.28668,"lon":5.38663,"is_reserved":false,"is_disabled":false,"rental_uris":{"android":"levelo://app?vid=28261f31-32ed-4e89-ad3f-8e625b13a63b","ios":"levelo://app?vid=28261f31-32ed-4e89-ad3f-8e625b13a63b"},"vehicle_type_id":"4","last_reported":1769095195,"current_range_meters":8000,"station_id":"ce4bh492rcd13ifvqdug","pricing_plan_id":"cebpf4jnsgd1na2vs0mg"},{"bike_id":"436a31be-69ae-46d2-9f22-806921ec8f8a","system_id":"levelo_inurba_marseille","lat":43.2317,"lon":5.39979,"is_reserved":false,"is_disabled":false,"rental_uris":{"android":"levelo://app?vid=436a31be-69ae-46d2-9f22-806921ec8f8a","ios":"levelo://app?vid=436a31be-69ae-46d2-9f22-806921ec8f8a"},"vehicle_type_id":"4","last_reported":1769095195,"current_range_meters":8000,"station_id":"ce4bhn12rcd13ifvqgqg","pricing_plan_id":"cebpf4jnsgd1na2vs0mg"},{"bike_id":"6359b856-d770-4718-bd0d-5e1e4aab56d4","system_id":"levelo_inurba_marseille","lat":43.29559,"lon":5.37529,"is_reserved":false,"is_disabled":false,"rental_uris":{"android":"levelo://app?vid=6359b856-d770-4718-bd0d-5e1e4aab56d4","ios":"levelo://app?vid=6359b856-d770-4718-bd0d-5e1e4aab56d4"},"vehicle_type_id":"4","last_reported":1769095195,"current_range_meters":8000,"station_id":"ce4bgh92rcd13ifvqb50","pricing_plan_id":"cebpf4jnsgd1na2vs0mg"},{"bike_id":"2fa28398-73c6-40b0-abd2-13b571db7bc0","system_id":"levelo_inurba_marseille","lat":43.26229,"lon":5.37908,"is_reserved":false,"is_disabled":false,"rental_uris":{"android":"levelo://app?vid=2fa28398-73c6-40b0-abd2-13b571db7bc0","ios":"levelo://app?vid=2fa28398-73c6-40b0-abd2-13b571db7bc0"},"vehicle_type_id":"4","last_reported":1769095195,"current_range_meters":8000,"station_id":"ce4bhjp2rcd13ifvqg90","pricing_plan_id":"cebpf4jnsgd1na2vs0mg"},{"bike_id":"fb3ff625-62fd-4ae8-9254-8c4981e04e71","system_id":"levelo_inurba_marseille","lat":43.33158,"lon":5.37696,"is_reserved":false,"is_disabled":false,"rental_uris":{"android":"levelo://app?vid=fb3ff625-62fd-4ae8-9254-8c4981e04e71","ios":"levelo://app?vid=fb3ff625-62fd-4ae8-9254-8c4981e04e71"},"vehicle_type_id":"4","last_reported":1769095195,"current_range_meters":8000,"station_id":"st_d46cu089ee8s73dldbu0","pricing_plan_id":"cebpf4jnsgd1na2vs0mg"},{"bike_id":"2bd7b052-198e-4662-8aa6-61b0cac79738","system_id":"levelo_inurba_marseille","lat":43.27286,"lon":5.3911,"is_reserved":false,"is_disabled":false,"rental_uris":{"android":"levelo://app?vid=2bd7b052-198e-4662-8aa6-61b0cac79738","ios":"levelo://app?vid=2bd7b052-198e-4662-8aa6-61b0cac79738"},"vehicle_type_id":"4","last_reported":1769095195,"current_range_meters":8000,"station_id":"ce4bhgp2rcd13ifvqfe0","pricing_plan_id":"cebpf4jnsgd1na2vs0mg"},{"bike_id":"3ceb4388-6cc5-4ff4-b32c-76f5f4981409","system_id":"levelo_inurba_marseille","lat":43.23182,"lon":5.39974,"is_reserved":false,"is_disabled":false,"rental_uris":{"android":"levelo://app?vid=3ceb4388-6cc5-4ff4-b32c-76f5f4981409","ios":"levelo://app?vid=3ceb4388-6cc5-4ff4-b32c-76f5f4981409"},"vehicle_type_id":"4","last_reported":1769095195,"current_range_meters":8000,"station_id":"ce4bhn12rcd13ifvqgqg","pricing_plan_id":"cebpf4jnsgd1na2vs0mg"},{"bike_id":"dc46bf46-763d-4b7a-9b3b-47e7a09bc6be","system_id":"levelo_inurba_marseille","lat":43.32194,"lon":5.40572,"is_reserved":false,"is_disabled":false,"rental_uris":{"android":"levelo://app?vid=dc46bf46-763d-4b7a-9b3b-47e7a09bc6be","ios":"levelo://app?vid=dc46bf46-763d-4b7a-9b3b-47e7a09bc6be"},"vehicle_type_id":"4","last_reported":1769095195,"current_range_meters":8000,"station_id":"","pricing_plan_id":"cebpf4jnsgd1na2vs0mg"},{"bike_id":"cbd6d55e-5809-4853-9878-dbbf6af6a148","system_id":"levelo_inurba_marseille","lat":43.28879,"lon":5.42531,"is_reserved":false,"is_disabled":false,"rental_uris":{"android":"levelo://app?vid=cbd6d55e-5809-4853-9878-dbbf6af6a148","ios":"levelo://app?vid=cbd6d55e-5809-4853-9878-dbbf6af6a148"},"vehicle_type_id":"4","last_reported":1769095195,"current_range_meters":8400,"station_id":"st_d3b462108ojc7389ooeg","pricing_plan_id":"cebpf4jnsgd1na2vs0mg"},{"bike_id":"6055bb6e-3d5f-4359-bcc3-e96115ee8c1f","system_id":"levelo_inurba_marseille","lat":43.25576,"lon":5.38247,"is_reserved":false,"is_disabled":false,"rental_uris":{"android":"levelo://app?vid=6055bb6e-3d5f-4359-bcc3-e96115ee8c1f","ios":"levelo://app?vid=6055bb6e-3d5f-4359-bcc3-e96115ee8c1f"},"vehicle_type_id":"4","last_reported":1769095195,"current_range_meters":8400,"station_id":"ce4bhih2rcd13ifvqfs0","pricing_plan_id":"cebpf4jnsgd1na2vs0mg"},{"bike_id":"733d2f54-cd81-4838-963b-331436b0807a","system_id":"levelo_inurba_marseille","lat":43.28174,"lon":5.42619,"is_reserved":false,"is_disabled":false,"rental_uris":{"android":"levelo://app?vid=733d2f54-cd81-4838-963b-331436b0807a","ios":"levelo://app?vid=733d2f54-cd81-4838-963b-331436b0807a"},"vehicle_type_id":"4","last_reported":1769095195,"current_range_meters":8400,"station_id":"ce4bhnh2rcd13ifvqgug","pricing_plan_id":"cebpf4jnsgd1na2vs0mg"},{"bike_id":"fd925f8e-899e-40ec-9287-4e65251eafb1","system_id":"levelo_inurba_marseille","lat":43.26832,"lon":5.38494,"is_reserved":false,"is_disabled":false,"rental_uris":{"android":"levelo://app?vid=fd925f8e-899e-40ec-9287-4e65251eafb1","ios":"levelo://app?vid=fd925f8e-899e-40ec-9287-4e65251eafb1"},"vehicle_type_id":"4","last_reported":1769095195,"current_range_meters":8400,"station_id":"","pricing_plan_id":"cebpf4jnsgd1na2vs0mg"},{"bike_id":"a1cf0267-a9c6-4cb7-b49a-598a4cc67209","system_id":"levelo_inurba_marseille","lat":43.23208,"lon":5.35552,"is_reserved":false,"is_disabled":false,"rental_uris":{"android":"levelo://app?vid=a1cf0267-a9c6-4cb7-b49a-598a4cc67209","ios":"levelo://app?vid=a1cf0267-a9c6-4cb7-b49a-598a4cc67209"},"vehicle_type_id":"4","last_reported":1769095195,"current_range_meters":8400,"station_id":"ce4bhu92rcd13ifvqi70","pricing_plan_id":"cebpf4jnsgd1na2vs0mg"},{"bike_id":"9864eb71-e1a9-41e3-a300-f80070833647","system_id":"levelo_inurba_marseille","lat":43.26569,"lon":5.4032,"is_reserved":false,"is_disabled":false,"rental_uris":{"android":"levelo://app?vid=9864eb71-e1a9-41e3-a300-f80070833647","ios":"levelo://app?vid=9864eb71-e1a9-41e3-a300-f80070833647"},"vehicle_type_id":"4","last_reported":1769095195,"current_range_meters":8400,"station_id":"ce4bhmp2rcd13ifvqgng","pricing_plan_id":"cebpf4jnsgd1na2vs0mg"},{"bike_id":"cc9f4717-497d-46b4-8770-89f5df0571cd","system_id":"levelo_inurba_marseille","lat":43.24405,"lon":5.37059,"is_reserved":false,"is_disabled":false,"rental_uris":{"android":"levelo://app?vid=cc9f4717-497d-46b4-8770-89f5df0571cd","ios":"levelo://app?vid=cc9f4717-497d-46b4-8770-89f5df0571cd"},"vehicle_type_id":"4","last_reported":1769095195,"current_range_meters":8400,"station_id":"ce4bhhh2rcd13ifvqfk0","pricing_plan_id":"cebpf4jnsgd1na2vs0mg"},{"bike_id":"c462c4a3-3f5e-4fd1-8a2f-56615210c468","system_id":"levelo_inurba_marseille","lat":43.25814,"lon":5.38574,"is_reserved":false,"is_disabled":false,"rental_uris":{"android":"levelo://app?vid=c462c4a3-3f5e-4fd1-8a2f-56615210c468","ios":"levelo://app?vid=c462c4a3-3f5e-4fd1-8a2f-56615210c468"},"vehicle_type_id":"4","last_reported":1769095195,"current_range_meters":8400,"station_id":"","pricing_plan_id":"cebpf4jnsgd1na2vs0mg"},{"bike_id":"25b36d77-ea13-4410-8c99-3aca3715918b","system_id":"levelo_inurba_marseille","lat":43.2655,"lon":5.37287,"is_reserved":false,"is_disabled":false,"rental_uris":{"android":"levelo://app?vid=25b36d77-ea13-4410-8c99-3aca3715918b","ios":"levelo://app?vid=25b36d77-ea13-4410-8c99-3aca3715918b"},"vehicle_type_id":"4","last_reported":1769095195,"current_range_meters":8400,"station_id":"ce4bhg12rcd13ifvqf70","pricing_plan_id":"cebpf4jnsgd1na2vs0mg"},{"bike_id":"ddf34765-2ba9-4014-9e29-60d328dcfc7a","system_id":"levelo_inurba_marseille","lat":43.30141,"lon":5.38779,"is_reserved":false,"is_disabled":false,"rental_uris":{"android":"levelo://app?vid=ddf34765-2ba9-4014-9e29-60d328dcfc7a","ios":"levelo://app?vid=ddf34765-2ba9-4014-9e29-60d328dcfc7a"},"vehicle_type_id":"4","last_reported":1769095195,"current_range_meters":8400,"station_id":"ce4bghh2rcd13ifvqb60","pricing_plan_id":"cebpf4jnsgd1na2vs0mg"},{"bike_id":"2403f0bf-de39-4f6c-b1d8-f725bb90dee3","system_id":"levelo_inurba_marseille","lat":43.24168,"lon":5.36386,"is_reserved":false,"is_disabled":false,"rental_uris":{"android":"levelo://app?vid=2403f0bf-de39-4f6c-b1d8-f725bb90dee3","ios":"levelo://app?vid=2403f0bf-de39-4f6c-b1d8-f725bb90dee3"},"vehicle_type_id":"4","last_reported":1769095195,"current_range_meters":8400,"station_id":"cpo36qri1sfpv3e86is0","pricing_plan_id":"cebpf4jnsgd1na2vs0mg"},{"bike_id":"83fd25b2-0eb6-4c52-a978-8a8a8a40284a","system_id":"levelo_inurba_marseille","lat":43.26942,"lon":5.38643,"is_reserved":false,"is_disabled":false,"rental_uris":{"android":"levelo://app?vid=83fd25b2-0eb6-4c52-a978-8a8a8a40284a","ios":"levelo://app?vid=83fd25b2-0eb6-4c52-a978-8a8a8a40284a"},"vehicle_type_id":"4","last_reported":1769095195,"current_range_meters":8400,"station_id":"ce4bhh92rcd13ifvqfh0","pricing_plan_id":"cebpf4jnsgd1na2vs0mg"},{"bike_id":"249a4cf7-06f6-4fea-96cc-c9c6b750c37f","system_id":"levelo_inurba_marseille","lat":43.24165,"lon":5.36393,"is_reserved":false,"is_disabled":false,"rental_uris":{"android":"levelo://app?vid=249a4cf7-06f6-4fea-96cc-c9c6b750c37f","ios":"levelo://app?vid=249a4cf7-06f6-4fea-96cc-c9c6b750c37f"},"vehicle_type_id":"4","last_reported":1769095195,"current_range_meters":8400,"station_id":"cpo36qri1sfpv3e86is0","pricing_plan_id":"cebpf4jnsgd1na2vs0mg"},{"bike_id":"48a13fb2-aa96-4e6e-9601-12ca0a4fdb46","system_id":"levelo_inurba_marseille","lat":43.24657,"lon":5.38901,"is_reserved":false,"is_disabled":false,"rental_uris":{"android":"levelo://app?vid=48a13fb2-aa96-4e6e-9601-12ca0a4fdb46","ios":"levelo://app?vid=48a13fb2-aa96-4e6e-9601-12ca0a4fdb46"},"vehicle_type_id":"4","last_reported":1769095195,"current_range_meters":8400,"station_id":"ce4bhg12rcd13ifvqf60","pricing_plan_id":"cebpf4jnsgd1na2vs0mg"},{"bike_id":"1e999c51-473b-420a-9516-36f5ce8605d7","system_id":"levelo_inurba_marseille","lat":43.26789,"lon":5.39415,"is_reserved":false,"is_disabled":false,"rental_uris":{"android":"levelo://app?vid=1e999c51-473b-420a-9516-36f5ce8605d7","ios":"levelo://app?vid=1e999c51-473b-420a-9516-36f5ce8605d7"},"vehicle_type_id":"4","last_reported":1769095195,"current_range_meters":8400,"station_id":"ce4bhh12rcd13ifvqfg0","pricing_plan_id":"cebpf4jnsgd1na2vs0mg"},{"bike_id":"40e5e2c7-0e64-4220-a47b-eba55999faf7","system_id":"levelo_inurba_marseille","lat":43.2258,"lon":5.41615,"is_reserved":false,"is_disabled":false,"rental_uris":{"android":"levelo://app?vid=40e5e2c7-0e64-4220-a47b-eba55999faf7","ios":"levelo://app?vid=40e5e2c7-0e64-4220-a47b-eba55999faf7"},"vehicle_type_id":"4","last_reported":1769095195,"current_range_meters":8400,"station_id":"st_d2o4gvlbi1j2169b742g","pricing_plan_id":"cebpf4jnsgd1na2vs0mg"},{"bike_id":"c9c91417-1c93-40bd-ac7d-c76d147f675b","system_id":"levelo_inurba_marseille","lat":43.25007,"lon":5.38928,"is_reserved":false,"is_disabled":false,"rental_uris":{"android":"levelo://app?vid=c9c91417-1c93-40bd-ac7d-c76d147f675b","ios":"levelo://app?vid=c9c91417-1c93-40bd-ac7d-c76d147f675b"},"vehicle_type_id":"4","last_reported":1769095195,"current_range_meters":8400,"station_id":"ce4bhgp2rcd13ifvqfd0","pricing_plan_id":"cebpf4jnsgd1na2vs0mg"},{"bike_id":"2d64dc0e-f294-4bb2-981a-3db6d70fcf26","system_id":"levelo_inurba_marseille","lat":43.27936,"lon":5.4104,"is_reserved":false,"is_disabled":false,"rental_uris":{"android":"levelo://app?vid=2d64dc0e-f294-4bb2-981a-3db6d70fcf26","ios":"levelo://app?vid=2d64dc0e-f294-4bb2-981a-3db6d70fcf26"},"vehicle_type_id":"4","last_reported":1769095195,"current_range_meters":8400,"station_id":"ce4bhnp2rcd13ifvqh0g","pricing_plan_id":"cebpf4jnsgd1na2vs0mg"},{"bike_id":"20c1cc69-3a0d-4679-b45c-9954ef47fca5","system_id":"levelo_inurba_marseille","lat":43.23064,"lon":5.35481,"is_reserved":false,"is_disabled":false,"rental_uris":{"android":"levelo://app?vid=20c1cc69-3a0d-4679-b45c-9954ef47fca5","ios":"levelo://app?vid=20c1cc69-3a0d-4679-b45c-9954ef47fca5"},"vehicle_type_id":"4","last_reported":1769095195,"current_range_meters":8400,"station_id":"cpo3342slgdg3j2ifvpg","pricing_plan_id":"cebpf4jnsgd1na2vs0mg"},{"bike_id":"ac9a53e6-8b03-42d1-9d22-200e9aa358de","system_id":"levelo_inurba_marseille","lat":43.32479,"lon":5.36557,"is_reserved":false,"is_disabled":false,"rental_uris":{"android":"levelo://app?vid=ac9a53e6-8b03-42d1-9d22-200e9aa358de","ios":"levelo://app?vid=ac9a53e6-8b03-42d1-9d22-200e9aa358de"},"vehicle_type_id":"4","last_reported":1769095195,"current_range_meters":8400,"station_id":"ce4bhs12rcd13ifvqhvg","pricing_plan_id":"cebpf4jnsgd1na2vs0mg"},{"bike_id":"7a44288c-76ef-42bd-aa63-09fedbfa4f09","system_id":"levelo_inurba_marseille","lat":43.24454,"lon":5.4254,"is_reserved":false,"is_disabled":false,"rental_uris":{"android":"levelo://app?vid=7a44288c-76ef-42bd-aa63-09fedbfa4f09","ios":"levelo://app?vid=7a44288c-76ef-42bd-aa63-09fedbfa4f09"},"vehicle_type_id":"4","last_reported":1769095195,"current_range_meters":8400,"station_id":"st_d4a3vfp97mjs738cd8kg","pricing_plan_id":"cebpf4jnsgd1na2vs0mg"},{"bike_id":"3e2deb9e-e71a-4d11-940d-76cd444019bd","system_id":"levelo_inurba_marseille","lat":43.30129,"lon":5.4311,"is_reserved":false,"is_disabled":false,"rental_uris":{"android":"levelo://app?vid=3e2deb9e-e71a-4d11-940d-76cd444019bd","ios":"levelo://app?vid=3e2deb9e-e71a-4d11-940d-76cd444019bd"},"vehicle_type_id":"4","last_reported":1769095195,"current_range_meters":8800,"station_id":"st_d3js3co5814s73ftftug","pricing_plan_id":"cebpf4jnsgd1na2vs0mg"},{"bike_id":"c810b0da-c681-48b0-962c-29a278949d7e","system_id":"levelo_inurba_marseille","lat":43.22922,"lon":5.35384,"is_reserved":false,"is_disabled":false,"rental_uris":{"android":"levelo://app?vid=c810b0da-c681-48b0-962c-29a278949d7e","ios":"levelo://app?vid=c810b0da-c681-48b0-962c-29a278949d7e"},"vehicle_type_id":"4","last_reported":1769095195,"current_range_meters":8800,"station_id":"cpo3532slgdg3j2ikp40","pricing_plan_id":"cebpf4jnsgd1na2vs0mg"},{"bike_id":"a333461f-9170-4c47-bf93-d1142fe0641a","system_id":"levelo_inurba_marseille","lat":43.30152,"lon":5.38088,"is_reserved":false,"is_disabled":false,"rental_uris":{"android":"levelo://app?vid=a333461f-9170-4c47-bf93-d1142fe0641a","ios":"levelo://app?vid=a333461f-9170-4c47-bf93-d1142fe0641a"},"vehicle_type_id":"4","last_reported":1769095195,"current_range_meters":8800,"station_id":"ce4bgjp2rcd13ifvqbh0","pricing_plan_id":"cebpf4jnsgd1na2vs0mg"},{"bike_id":"dcaca286-10d8-44fb-a8e8-d4128ccf9b29","system_id":"levelo_inurba_marseille","lat":43.2318,"lon":5.40005,"is_reserved":false,"is_disabled":false,"rental_uris":{"android":"levelo://app?vid=dcaca286-10d8-44fb-a8e8-d4128ccf9b29","ios":"levelo://app?vid=dcaca286-10d8-44fb-a8e8-d4128ccf9b29"},"vehicle_type_id":"4","last_reported":1769095195,"current_range_meters":8800,"station_id":"ce4bhn12rcd13ifvqgqg","pricing_plan_id":"cebpf4jnsgd1na2vs0mg"},{"bike_id":"df35a8ec-47d0-4fab-bae0-0d5ed6802023","system_id":"levelo_inurba_marseille","lat":43.30251,"lon":5.4005,"is_reserved":false,"is_disabled":false,"rental_uris":{"android":"levelo://app?vid=df35a8ec-47d0-4fab-bae0-0d5ed6802023","ios":"levelo://app?vid=df35a8ec-47d0-4fab-bae0-0d5ed6802023"},"vehicle_type_id":"4","last_reported":1769095195,"current_range_meters":8800,"station_id":"ce4bgvh2rcd13ifvqcs0","pricing_plan_id":"cebpf4jnsgd1na2vs0mg"},{"bike_id":"1081ad71-3e25-4f87-9eb2-c759963767f1","system_id":"levelo_inurba_marseille","lat":43.30155,"lon":5.3809,"is_reserved":false,"is_disabled":false,"rental_uris":{"android":"levelo://app?vid=1081ad71-3e25-4f87-9eb2-c759963767f1","ios":"levelo://app?vid=1081ad71-3e25-4f87-9eb2-c759963767f1"},"vehicle_type_id":"4","last_reported":1769095195,"current_range_meters":8800,"station_id":"ce4bgjp2rcd13ifvqbh0","pricing_plan_id":"cebpf4jnsgd1na2vs0mg"},{"bike_id":"7b199e38-0157-436f-a28e-db281c7c4145","system_id":"levelo_inurba_marseille","lat":43.298702,"lon":5.397366,"is_reserved":false,"is_disabled":false,"rental_uris":{"android":"levelo://app?vid=7b199e38-0157-436f-a28e-db281c7c4145","ios":"levelo://app?vid=7b199e38-0157-436f-a28e-db281c7c4145"},"vehicle_type_id":"4","last_reported":1769095195,"current_range_meters":8800,"station_id":"ce4bh0h2rcd13ifvqd50","pricing_plan_id":"cebpf4jnsgd1na2vs0mg"},{"bike_id":"9bcc74ff-bb21-459b-8c89-b1049e46743c","system_id":"levelo_inurba_marseille","lat":43.24641,"lon":5.43148,"is_reserved":false,"is_disabled":false,"rental_uris":{"android":"levelo://app?vid=9bcc74ff-bb21-459b-8c89-b1049e46743c","ios":"levelo://app?vid=9bcc74ff-bb21-459b-8c89-b1049e46743c"},"vehicle_type_id":"4","last_reported":1769095195,"current_range_meters":8800,"station_id":"st_d2m6c4gdas8pm72e190g","pricing_plan_id":"cebpf4jnsgd1na2vs0mg"},{"bike_id":"a5ca9e7e-cafe-43b0-9883-bce7ab8ae3ac","system_id":"levelo_inurba_marseille","lat":43.26363,"lon":5.41065,"is_reserved":false,"is_disabled":false,"rental_uris":{"android":"levelo://app?vid=a5ca9e7e-cafe-43b0-9883-bce7ab8ae3ac","ios":"levelo://app?vid=a5ca9e7e-cafe-43b0-9883-bce7ab8ae3ac"},"vehicle_type_id":"4","last_reported":1769095195,"current_range_meters":8800,"station_id":"st_d4e5ca6na9uc73bfl5fg","pricing_plan_id":"cebpf4jnsgd1na2vs0mg"},{"bike_id":"05d6e816-c599-4137-a30a-5127b06dbfc0","system_id":"levelo_inurba_marseille","lat":43.28171,"lon":5.42612,"is_reserved":false,"is_disabled":false,"rental_uris":{"android":"levelo://app?vid=05d6e816-c599-4137-a30a-5127b06dbfc0","ios":"levelo://app?vid=05d6e816-c599-4137-a30a-5127b06dbfc0"},"vehicle_type_id":"4","last_reported":1769095195,"current_range_meters":8800,"station_id":"ce4bhnh2rcd13ifvqgug","pricing_plan_id":"cebpf4jnsgd1na2vs0mg"},{"bike_id":"7ba23323-6ddc-445c-8627-b0bc6c465bc3","system_id":"levelo_inurba_marseille","lat":43.32483,"lon":5.36575,"is_reserved":false,"is_disabled":false,"rental_uris":{"android":"levelo://app?vid=7ba23323-6ddc-445c-8627-b0bc6c465bc3","ios":"levelo://app?vid=7ba23323-6ddc-445c-8627-b0bc6c465bc3"},"vehicle_type_id":"4","last_reported":1769095195,"current_range_meters":8800,"station_id":"ce4bhs12rcd13ifvqhvg","pricing_plan_id":"cebpf4jnsgd1na2vs0mg"},{"bike_id":"b73a6f96-050e-47b1-b548-3cc6793b5531","system_id":"levelo_inurba_marseille","lat":43.246636,"lon":5.381671,"is_reserved":false,"is_disabled":false,"rental_uris":{"android":"levelo://app?vid=b73a6f96-050e-47b1-b548-3cc6793b5531","ios":"levelo://app?vid=b73a6f96-050e-47b1-b548-3cc6793b5531"},"vehicle_type_id":"4","last_reported":1769095195,"current_range_meters":8800,"station_id":"ce4bhih2rcd13ifvqfr0","pricing_plan_id":"cebpf4jnsgd1na2vs0mg"},{"bike_id":"11e3415c-5f3b-4ead-a1ad-e801ec8c2563","system_id":"levelo_inurba_marseille","lat":43.29251,"lon":5.37617,"is_reserved":false,"is_disabled":false,"rental_uris":{"android":"levelo://app?vid=11e3415c-5f3b-4ead-a1ad-e801ec8c2563","ios":"levelo://app?vid=11e3415c-5f3b-4ead-a1ad-e801ec8c2563"},"vehicle_type_id":"4","last_reported":1769095195,"current_range_meters":8800,"station_id":"ce4bgi12rcd13ifvqb80","pricing_plan_id":"cebpf4jnsgd1na2vs0mg"},{"bike_id":"9f9c4f85-7d9e-4e8a-9123-cbd1f8de03db","system_id":"levelo_inurba_marseille","lat":43.31862,"lon":5.38996,"is_reserved":false,"is_disabled":false,"rental_uris":{"android":"levelo://app?vid=9f9c4f85-7d9e-4e8a-9123-cbd1f8de03db","ios":"levelo://app?vid=9f9c4f85-7d9e-4e8a-9123-cbd1f8de03db"},"vehicle_type_id":"4","last_reported":1769095195,"current_range_meters":8800,"station_id":"","pricing_plan_id":"cebpf4jnsgd1na2vs0mg"},{"bike_id":"85769ba7-7e14-43db-85b5-49d42466c490","system_id":"levelo_inurba_marseille","lat":43.29596,"lon":5.37752,"is_reserved":false,"is_disabled":false,"rental_uris":{"android":"levelo://app?vid=85769ba7-7e14-43db-85b5-49d42466c490","ios":"levelo://app?vid=85769ba7-7e14-43db-85b5-49d42466c490"},"vehicle_type_id":"4","last_reported":1769095195,"current_range_meters":8800,"station_id":"ce4bgi92rcd13ifvqb90","pricing_plan_id":"cebpf4jnsgd1na2vs0mg"},{"bike_id":"509f7f3f-9006-49eb-8dbb-f644397d8f4d","system_id":"levelo_inurba_marseille","lat":43.33162,"lon":5.37683,"is_reserved":false,"is_disabled":false,"rental_uris":{"android":"levelo://app?vid=509f7f3f-9006-49eb-8dbb-f644397d8f4d","ios":"levelo://app?vid=509f7f3f-9006-49eb-8dbb-f644397d8f4d"},"vehicle_type_id":"4","last_reported":1769095195,"current_range_meters":8800,"station_id":"st_d46cu089ee8s73dldbu0","pricing_plan_id":"cebpf4jnsgd1na2vs0mg"},{"bike_id":"324cd82f-1083-4204-b317-811809b2300e","system_id":"levelo_inurba_marseille","lat":43.29146,"lon":5.37246,"is_reserved":false,"is_disabled":false,"rental_uris":{"android":"levelo://app?vid=324cd82f-1083-4204-b317-811809b2300e","ios":"levelo://app?vid=324cd82f-1083-4204-b317-811809b2300e"},"vehicle_type_id":"4","last_reported":1769095195,"current_range_meters":8800,"station_id":"","pricing_plan_id":"cebpf4jnsgd1na2vs0mg"},{"bike_id":"884b714b-de31-400c-acad-491c87710532","system_id":"levelo_inurba_marseille","lat":43.2991,"lon":5.43681,"is_reserved":false,"is_disabled":false,"rental_uris":{"android":"levelo://app?vid=884b714b-de31-400c-acad-491c87710532","ios":"levelo://app?vid=884b714b-de31-400c-acad-491c87710532"},"vehicle_type_id":"4","last_reported":1769095195,"current_range_meters":8800,"station_id":"ce4bhpp2rcd13ifvqhfg","pricing_plan_id":"cebpf4jnsgd1na2vs0mg"},{"bike_id":"18761cd6-d5fc-4160-a754-7fd1a732d945","system_id":"levelo_inurba_marseille","lat":43.29492,"lon":5.43307,"is_reserved":false,"is_disabled":false,"rental_uris":{"android":"levelo://app?vid=18761cd6-d5fc-4160-a754-7fd1a732d945","ios":"levelo://app?vid=18761cd6-d5fc-4160-a754-7fd1a732d945"},"vehicle_type_id":"4","last_reported":1769095195,"current_range_meters":8800,"station_id":"st_d3j5ugp08ojc73fj9d10","pricing_plan_id":"cebpf4jnsgd1na2vs0mg"},{"bike_id":"46c07e62-b218-4525-89f8-8264de6ed4ba","system_id":"levelo_inurba_marseille","lat":43.27349,"lon":5.39106,"is_reserved":false,"is_disabled":false,"rental_uris":{"android":"levelo://app?vid=46c07e62-b218-4525-89f8-8264de6ed4ba","ios":"levelo://app?vid=46c07e62-b218-4525-89f8-8264de6ed4ba"},"vehicle_type_id":"4","last_reported":1769095195,"current_range_meters":9200,"station_id":"ce4bhgp2rcd13ifvqfe0","pricing_plan_id":"cebpf4jnsgd1na2vs0mg"},{"bike_id":"4289f0cf-d95b-41d5-8ced-ea98ca673e4a","system_id":"levelo_inurba_marseille","lat":43.2467,"lon":5.38144,"is_reserved":false,"is_disabled":false,"rental_uris":{"android":"levelo://app?vid=4289f0cf-d95b-41d5-8ced-ea98ca673e4a","ios":"levelo://app?vid=4289f0cf-d95b-41d5-8ced-ea98ca673e4a"},"vehicle_type_id":"4","last_reported":1769095195,"current_range_meters":9200,"station_id":"ce4bhih2rcd13ifvqfr0","pricing_plan_id":"cebpf4jnsgd1na2vs0mg"},{"bike_id":"d7c24f4a-9a70-44b1-a898-96a70f41d5a0","system_id":"levelo_inurba_marseille","lat":43.29022,"lon":5.39983,"is_reserved":false,"is_disabled":false,"rental_uris":{"android":"levelo://app?vid=d7c24f4a-9a70-44b1-a898-96a70f41d5a0","ios":"levelo://app?vid=d7c24f4a-9a70-44b1-a898-96a70f41d5a0"},"vehicle_type_id":"4","last_reported":1769095195,"current_range_meters":9200,"station_id":"ce4bh392rcd13ifvqdm0","pricing_plan_id":"cebpf4jnsgd1na2vs0mg"},{"bike_id":"41d246f5-59cb-4ae2-830f-3407f26d8555","system_id":"levelo_inurba_marseille","lat":43.30518,"lon":5.36711,"is_reserved":false,"is_disabled":false,"rental_uris":{"android":"levelo://app?vid=41d246f5-59cb-4ae2-830f-3407f26d8555","ios":"levelo://app?vid=41d246f5-59cb-4ae2-830f-3407f26d8555"},"vehicle_type_id":"4","last_reported":1769095195,"current_range_meters":9200,"station_id":"ce4bgrp2rcd13ifvqc9g","pricing_plan_id":"cebpf4jnsgd1na2vs0mg"},{"bike_id":"d2dd2bd5-35c6-4cf8-86dc-87c4bf274249","system_id":"levelo_inurba_marseille","lat":43.24641,"lon":5.38879,"is_reserved":false,"is_disabled":false,"rental_uris":{"android":"levelo://app?vid=d2dd2bd5-35c6-4cf8-86dc-87c4bf274249","ios":"levelo://app?vid=d2dd2bd5-35c6-4cf8-86dc-87c4bf274249"},"vehicle_type_id":"4","last_reported":1769095195,"current_range_meters":9200,"station_id":"ce4bhg12rcd13ifvqf60","pricing_plan_id":"cebpf4jnsgd1na2vs0mg"},{"bike_id":"acd9753d-26e3-4f04-bd58-d34a3f6a0ad6","system_id":"levelo_inurba_marseille","lat":43.32472,"lon":5.36546,"is_reserved":false,"is_disabled":false,"rental_uris":{"android":"levelo://app?vid=acd9753d-26e3-4f04-bd58-d34a3f6a0ad6","ios":"levelo://app?vid=acd9753d-26e3-4f04-bd58-d34a3f6a0ad6"},"vehicle_type_id":"4","last_reported":1769095195,"current_range_meters":9200,"station_id":"ce4bhs12rcd13ifvqhvg","pricing_plan_id":"cebpf4jnsgd1na2vs0mg"},{"bike_id":"bd145bbc-2bdd-43b0-b724-51193076f341","system_id":"levelo_inurba_marseille","lat":43.23963,"lon":5.36622,"is_reserved":false,"is_disabled":false,"rental_uris":{"android":"levelo://app?vid=bd145bbc-2bdd-43b0-b724-51193076f341","ios":"levelo://app?vid=bd145bbc-2bdd-43b0-b724-51193076f341"},"vehicle_type_id":"4","last_reported":1769095195,"current_range_meters":9200,"station_id":"ce4bhi12rcd13ifvqfp0","pricing_plan_id":"cebpf4jnsgd1na2vs0mg"},{"bike_id":"ac38a438-4179-4ac1-8c09-396dc592af6b","system_id":"levelo_inurba_marseille","lat":43.231841,"lon":5.399827,"is_reserved":false,"is_disabled":false,"rental_uris":{"android":"levelo://app?vid=ac38a438-4179-4ac1-8c09-396dc592af6b","ios":"levelo://app?vid=ac38a438-4179-4ac1-8c09-396dc592af6b"},"vehicle_type_id":"4","last_reported":1769095195,"current_range_meters":9200,"station_id":"ce4bhn12rcd13ifvqgqg","pricing_plan_id":"cebpf4jnsgd1na2vs0mg"},{"bike_id":"e5eb27b5-8cd8-4495-8ae8-cfcbea3b123a","system_id":"levelo_inurba_marseille","lat":43.25981,"lon":5.40876,"is_reserved":false,"is_disabled":false,"rental_uris":{"android":"levelo://app?vid=e5eb27b5-8cd8-4495-8ae8-cfcbea3b123a","ios":"levelo://app?vid=e5eb27b5-8cd8-4495-8ae8-cfcbea3b123a"},"vehicle_type_id":"4","last_reported":1769095195,"current_range_meters":9200,"station_id":"","pricing_plan_id":"cebpf4jnsgd1na2vs0mg"},{"bike_id":"00edf71e-f871-4128-9c58-23f4f30e5be5","system_id":"levelo_inurba_marseille","lat":43.24386,"lon":5.37047,"is_reserved":false,"is_disabled":false,"rental_uris":{"android":"levelo://app?vid=00edf71e-f871-4128-9c58-23f4f30e5be5","ios":"levelo://app?vid=00edf71e-f871-4128-9c58-23f4f30e5be5"},"vehicle_type_id":"4","last_reported":1769095195,"current_range_meters":9200,"station_id":"ce4bhhh2rcd13ifvqfk0","pricing_plan_id":"cebpf4jnsgd1na2vs0mg"},{"bike_id":"0f3ab52f-5900-407d-adf2-c47497925b64","system_id":"levelo_inurba_marseille","lat":43.265469,"lon":5.37272,"is_reserved":false,"is_disabled":false,"rental_uris":{"android":"levelo://app?vid=0f3ab52f-5900-407d-adf2-c47497925b64","ios":"levelo://app?vid=0f3ab52f-5900-407d-adf2-c47497925b64"},"vehicle_type_id":"4","last_reported":1769095195,"current_range_meters":9200,"station_id":"ce4bhg12rcd13ifvqf70","pricing_plan_id":"cebpf4jnsgd1na2vs0mg"},{"bike_id":"6d8d924d-fbd9-4488-83e7-37fe203f91a1","system_id":"levelo_inurba_marseille","lat":43.292665,"lon":5.409051,"is_reserved":false,"is_disabled":false,"rental_uris":{"android":"levelo://app?vid=6d8d924d-fbd9-4488-83e7-37fe203f91a1","ios":"levelo://app?vid=6d8d924d-fbd9-4488-83e7-37fe203f91a1"},"vehicle_type_id":"4","last_reported":1769095195,"current_range_meters":9200,"station_id":"ce4bh192rcd13ifvqdc0","pricing_plan_id":"cebpf4jnsgd1na2vs0mg"},{"bike_id":"92295e8e-aa68-4e38-8fb7-fb93e0d44651","system_id":"levelo_inurba_marseille","lat":43.23198,"lon":5.35538,"is_reserved":false,"is_disabled":false,"rental_uris":{"android":"levelo://app?vid=92295e8e-aa68-4e38-8fb7-fb93e0d44651","ios":"levelo://app?vid=92295e8e-aa68-4e38-8fb7-fb93e0d44651"},"vehicle_type_id":"4","last_reported":1769095195,"current_range_meters":9200,"station_id":"ce4bhu92rcd13ifvqi70","pricing_plan_id":"cebpf4jnsgd1na2vs0mg"},{"bike_id":"16590669-22b9-475f-acf3-c7e2ee0e80fd","system_id":"levelo_inurba_marseille","lat":43.25008,"lon":5.389197,"is_reserved":false,"is_disabled":false,"rental_uris":{"android":"levelo://app?vid=16590669-22b9-475f-acf3-c7e2ee0e80fd","ios":"levelo://app?vid=16590669-22b9-475f-acf3-c7e2ee0e80fd"},"vehicle_type_id":"4","last_reported":1769095195,"current_range_meters":9200,"station_id":"ce4bhgp2rcd13ifvqfd0","pricing_plan_id":"cebpf4jnsgd1na2vs0mg"},{"bike_id":"4e0ffb1c-92be-4814-8d3c-06e4ed37bd48","system_id":"levelo_inurba_marseille","lat":43.25574,"lon":5.3822,"is_reserved":false,"is_disabled":false,"rental_uris":{"android":"levelo://app?vid=4e0ffb1c-92be-4814-8d3c-06e4ed37bd48","ios":"levelo://app?vid=4e0ffb1c-92be-4814-8d3c-06e4ed37bd48"},"vehicle_type_id":"4","last_reported":1769095195,"current_range_meters":9200,"station_id":"ce4bhih2rcd13ifvqfs0","pricing_plan_id":"cebpf4jnsgd1na2vs0mg"},{"bike_id":"88188b24-2096-4127-ae81-f4888fd46d09","system_id":"levelo_inurba_marseille","lat":43.30462,"lon":5.37902,"is_reserved":false,"is_disabled":false,"rental_uris":{"android":"levelo://app?vid=88188b24-2096-4127-ae81-f4888fd46d09","ios":"levelo://app?vid=88188b24-2096-4127-ae81-f4888fd46d09"},"vehicle_type_id":"4","last_reported":1769095195,"current_range_meters":9600,"station_id":"ce4bgup2rcd13ifvqcn0","pricing_plan_id":"cebpf4jnsgd1na2vs0mg"},{"bike_id":"dfd7598e-a0e7-4cbb-8bc0-69f51592cff8","system_id":"levelo_inurba_marseille","lat":43.29888,"lon":5.3759,"is_reserved":false,"is_disabled":false,"rental_uris":{"android":"levelo://app?vid=dfd7598e-a0e7-4cbb-8bc0-69f51592cff8","ios":"levelo://app?vid=dfd7598e-a0e7-4cbb-8bc0-69f51592cff8"},"vehicle_type_id":"4","last_reported":1769095195,"current_range_meters":9600,"station_id":"","pricing_plan_id":"cebpf4jnsgd1na2vs0mg"},{"bike_id":"49891982-a8c8-4b0f-93e4-ab147552d545","system_id":"levelo_inurba_marseille","lat":43.28154,"lon":5.42648,"is_reserved":false,"is_disabled":false,"rental_uris":{"android":"levelo://app?vid=49891982-a8c8-4b0f-93e4-ab147552d545","ios":"levelo://app?vid=49891982-a8c8-4b0f-93e4-ab147552d545"},"vehicle_type_id":"4","last_reported":1769095195,"current_range_meters":9600,"station_id":"ce4bhnh2rcd13ifvqgug","pricing_plan_id":"cebpf4jnsgd1na2vs0mg"},{"bike_id":"1143d8bb-b3f3-4123-acc8-d00a51c8fc2d","system_id":"levelo_inurba_marseille","lat":43.29893,"lon":5.37158,"is_reserved":false,"is_disabled":false,"rental_uris":{"android":"levelo://app?vid=1143d8bb-b3f3-4123-acc8-d00a51c8fc2d","ios":"levelo://app?vid=1143d8bb-b3f3-4123-acc8-d00a51c8fc2d"},"vehicle_type_id":"4","last_reported":1769095195,"current_range_meters":9600,"station_id":"","pricing_plan_id":"cebpf4jnsgd1na2vs0mg"},{"bike_id":"c3951c0b-5cf3-4e17-9b18-9d6323f02f12","system_id":"levelo_inurba_marseille","lat":43.31686,"lon":5.40492,"is_reserved":false,"is_disabled":false,"rental_uris":{"android":"levelo://app?vid=c3951c0b-5cf3-4e17-9b18-9d6323f02f12","ios":"levelo://app?vid=c3951c0b-5cf3-4e17-9b18-9d6323f02f12"},"vehicle_type_id":"4","last_reported":1769095195,"current_range_meters":9600,"station_id":"ce4bh012rcd13ifvqd00","pricing_plan_id":"cebpf4jnsgd1na2vs0mg"},{"bike_id":"b57df7ad-97cd-44b3-a204-ea83c250292c","system_id":"levelo_inurba_marseille","lat":43.23187,"lon":5.35565,"is_reserved":false,"is_disabled":false,"rental_uris":{"android":"levelo://app?vid=b57df7ad-97cd-44b3-a204-ea83c250292c","ios":"levelo://app?vid=b57df7ad-97cd-44b3-a204-ea83c250292c"},"vehicle_type_id":"4","last_reported":1769095195,"current_range_meters":9600,"station_id":"ce4bhu92rcd13ifvqi70","pricing_plan_id":"cebpf4jnsgd1na2vs0mg"},{"bike_id":"ad177f13-d3ea-4b03-b441-56bc918bc2da","system_id":"levelo_inurba_marseille","lat":43.29731,"lon":5.3769,"is_reserved":false,"is_disabled":false,"rental_uris":{"android":"levelo://app?vid=ad177f13-d3ea-4b03-b441-56bc918bc2da","ios":"levelo://app?vid=ad177f13-d3ea-4b03-b441-56bc918bc2da"},"vehicle_type_id":"4","last_reported":1769095195,"current_range_meters":9600,"station_id":"ce4bgkh2rcd13ifvqbl0","pricing_plan_id":"cebpf4jnsgd1na2vs0mg"},{"bike_id":"5560fc7f-1e40-4887-b56f-d8792953a489","system_id":"levelo_inurba_marseille","lat":43.24166,"lon":5.36389,"is_reserved":false,"is_disabled":false,"rental_uris":{"android":"levelo://app?vid=5560fc7f-1e40-4887-b56f-d8792953a489","ios":"levelo://app?vid=5560fc7f-1e40-4887-b56f-d8792953a489"},"vehicle_type_id":"4","last_reported":1769095195,"current_range_meters":9600,"station_id":"cpo36qri1sfpv3e86is0","pricing_plan_id":"cebpf4jnsgd1na2vs0mg"},{"bike_id":"331e95f6-bf51-485a-a7ad-bc0709282adf","system_id":"levelo_inurba_marseille","lat":43.29256,"lon":5.40848,"is_reserved":false,"is_disabled":false,"rental_uris":{"android":"levelo://app?vid=331e95f6-bf51-485a-a7ad-bc0709282adf","ios":"levelo://app?vid=331e95f6-bf51-485a-a7ad-bc0709282adf"},"vehicle_type_id":"4","last_reported":1769095195,"current_range_meters":9600,"station_id":"","pricing_plan_id":"cebpf4jnsgd1na2vs0mg"},{"bike_id":"24b92ae7-5464-4b77-b1a2-3b457617dd02","system_id":"levelo_inurba_marseille","lat":43.23159,"lon":5.43702,"is_reserved":false,"is_disabled":false,"rental_uris":{"android":"levelo://app?vid=24b92ae7-5464-4b77-b1a2-3b457617dd02","ios":"levelo://app?vid=24b92ae7-5464-4b77-b1a2-3b457617dd02"},"vehicle_type_id":"4","last_reported":1769095195,"current_range_meters":9600,"station_id":"ce4bhmp2rcd13ifvqgog","pricing_plan_id":"cebpf4jnsgd1na2vs0mg"},