{"last_updated":1718406484,"ttl":30,"version":"2.2","data":{"bikes":[{"bike_id":"2e3078fa-652c-4412-b4f4-230a66c4e1d7","system_id":"levelo_inurba_marseille","lat":43.31341,"lon":5.367098,"is_reserved":false,"is_disabled":false,"rental_uris":{"android":"levelo://app?vid=2e3078fa-652c-4412-b4f4-230a66c4e1d7","ios":"levelo://app?vid=2e3078fa-652c-4412-b4f4-230a66c4e1d7"},"vehicle_type_id":"4","last_reported":1718406484,"current_range_meters":0,"station_id":"ce4bgr92rcd13ifvqc6g","pricing_plan_id":"cebpf4jnsgd1na2vs0mg"},{"bike_id":"7efa8bc7-5b22-414b-811b-324cbb19737f","system_id":"levelo_inurba_marseille","lat":43.31225,"lon":5.36852,"is_reserved":false,"is_disabled":false,"rental_uris":{"android":"levelo://app?vid=7efa8bc7-5b22-414b-811b-324cbb19737f","ios":"levelo://app?vid=7efa8bc7-5b22-414b-811b-324cbb19737f"},"vehicle_type_id":"4","last_reported":1718406484,"current_range_meters":12800,"station_id":"ce4bgl92rcd13ifvqbq0","pricing_plan_id":"cebpf4jnsgd1na2vs0mg"},{"bike_id":"e13614b1-53a6-4426-b28a-4f94a4b5f958","system_id":"levelo_inurba_marseille","lat":43.31224,"lon":5.36859,"is_reserved":false,"is_disabled":false,"rental_uris":{"android":"levelo://app?vid=e13614b1-53a6-4426-b28a-4f94a4b5f958","ios":"levelo://app?vid=e13614b1-53a6-4426-b28a-4f94a4b5f958"},"vehicle_type_id":"4","last_reported":1718406484,"current_range_meters":2400,"station_id":"ce4bgl92rcd13ifvqbq0","pricing_plan_id":"cebpf4jnsgd1na2vs0mg"},{"bike_id":"c9954a04-de5c-4f46-99c4-050e5539ff98","system_id":"levelo_inurba_marseille","lat":43.31241,"lon":5.36872,"is_reserved":false,"is_disabled":false,"rental_uris":{"android":"levelo://app?vid=c9954a04-de5c-4f46-99c4-050e5539ff98","ios":"levelo://app?vid=c9954a04-de5c-4f46-99c4-050e5539ff98"},"vehicle_type_id":"4","last_reported":1718406484,"current_range_meters":2800,"station_id":"ce4bgl92rcd13ifvqbq0","pricing_plan_id":"cebpf4jnsgd1na2vs0mg"},{"bike_id":"52067e97-3016-498d-82d5-0a8cc720ef87","system_id":"levelo_inurba_marseille","lat":43.309076,"lon":5.368465,"is_reserved":false,"is_disabled":false,"rental_uris":{"android":"levelo://app?vid=52067e97-3016-498d-82d5-0a8cc720ef87","ios":"levelo://app?vid=52067e97-3016-498d-82d5-0a8cc720ef87"},"vehicle_type_id":"4","last_reported":1718406484,"current_range_meters":10400,"station_id":"ce4bgn92rcd13ifvqbvg","pricing_plan_id":"cebpf4jnsgd1na2vs0mg"},{"bike_id":"611bda90-a173-446e-b4c3-95069a0e8616","system_id":"levelo_inurba_marseille","lat":43.309076,"lon":5.368465,"is_reserved":false,"is_disabled":false,"rental_uris":{"android":"levelo://app?vid=611bda90-a173-446e-b4c3-95069a0e8616","ios":"levelo://app?vid=611bda90-a173-446e-b4c3-95069a0e8616"},"vehicle_type_id":"4","last_reported":1718406484,"current_range_meters":7200,"station_id":"ce4bgn92rcd13ifvqbvg","pricing_plan_id":"cebpf4jnsgd1na2vs0mg"},{"bike_id":"5e309aa6-173a-470b-82ed-e9bb8882e190","system_id":"levelo_inurba_marseille","lat":43.309076,"lon":5.368465,"is_reserved":false,"is_disabled":false,"rental_uris":{"android":"levelo://app?vid=5e309aa6-173a-470b-82ed-e9bb8882e190","ios":"levelo://app?vid=5e309aa6-173a-470b-82ed-e9bb8882e190"},"vehicle_type_id":"4","last_reported":1718406484,"current_range_meters":6400,"station_id":"ce4bgn92rcd13ifvqbvg","pricing_plan_id":"cebpf4jnsgd1na2vs0mg"},{"bike_id":"bae4a66f-a790-4ca3-8cca-8bf19a01a866","system_id":"levelo_inurba_marseille","lat":43.314811,"lon":5.373103,"is_reserved":false,"is_disabled":false,"rental_uris":{"android":"levelo://app?vid=bae4a66f-a790-4ca3-8cca-8bf19a01a866","ios":"levelo://app?vid=bae4a66f-a790-4ca3-8cca-8bf19a01a866"},"vehicle_type_id":"4","last_reported":1718406484,"current_range_meters":4000,"station_id":"ce4bgt12rcd13ifvqcd0","pricing_plan_id":"cebpf4jnsgd1na2vs0mg"},{"bike_id":"5d47d206-a686-472b-a8d4-312d82b0d159","system_id":"levelo_inurba_marseille","lat":43.314811,"lon":5.373103,"is_reserved":false,"is_disabled":false,"rental_uris":{"android":"levelo://app?vid=5d47d206-a686-472b-a8d4-312d82b0d159","ios":"levelo://app?vid=5d47d206-a686-472b-a8d4-312d82b0d159"},"vehicle_type_id":"4","last_reported":1718406484,"current_range_meters":18800,"station_id":"ce4bgt12rcd13ifvqcd0","pricing_plan_id":"cebpf4jnsgd1na2vs0mg"},{"bike_id":"0c6406a9-efd0-41e6-ad1b-ede7cc0fcaf5","system_id":"levelo_inurba_marseille","lat":43.314811,"lon":5.373103,"is_reserved":false,"is_disabled":false,"rental_uris":{"android":"levelo://app?vid=0c6406a9-efd0-41e6-ad1b-ede7cc0fcaf5","ios":"levelo://app?vid=0c6406a9-efd0-41e6-ad1b-ede7cc0fcaf5"},"vehicle_type_id":"4","last_reported":1718406484,"current_range_meters":22000,"station_id":"ce4bgt12rcd13ifvqcd0","pricing_plan_id":"cebpf4jnsgd1na2vs0mg"},{"bike_id":"40c9b33a-594b-418d-9baf-994ece64122c","system_id":"levelo_inurba_marseille","lat":43.314811,"lon":5.373103,"is_reserved":false,"is_disabled":false,"rental_uris":{"android":"levelo://app?vid=40c9b33a-594b-418d-9baf-994ece64122c","ios":"levelo://app?vid=40c9b33a-594b-418d-9baf-994ece64122c"},"vehicle_type_id":"4","last_reported":1718406484,"current_range_meters":16800,"station_id":"ce4bgt12rcd13ifvqcd0","pricing_plan_id":"cebpf4jnsgd1na2vs0mg"},{"bike_id":"f0363f45-f2ab-42b4-830c-ef6ba5684a44","system_id":"levelo_inurba_marseille","lat":43.314811,"lon":5.373104,"is_reserved":false,"is_disabled":false,"rental_uris":{"android":"levelo://app?vid=f0363f45-f2ab-42b4-830c-ef6ba5684a44","ios":"levelo://app?vid=f0363f45-f2ab-42b4-830c-ef6ba5684a44"},"vehicle_type_id":"4","last_reported":1718406484,"current_range_meters":30000,"station_id":"ce4bgt12rcd13ifvqcd0","pricing_plan_id":"cebpf4jnsgd1na2vs0mg"},{"bike_id":"2116cb9b-aaf2-4314-b038-da55a98181cb","system_id":"levelo_inurba_marseille","lat":43.314811,"lon":5.373103,"is_reserved":false,"is_disabled":false,"rental_uris":{"android":"levelo://app?vid=2116cb9b-aaf2-4314-b038-da55a98181cb","ios":"levelo://app?vid=2116cb9b-aaf2-4314-b038-da55a98181cb"},"vehicle_type_id":"4","last_reported":1718406484,"current_range_meters":28800,"station_id":"ce4bgt12rcd13ifvqcd0","pricing_plan_id":"cebpf4jnsgd1na2vs0mg"},{"bike_id":"9dd61780-a087-4b77-b384-1a7cd62b6038","system_id":"levelo_inurba_marseille","lat":43.314811,"lon":5.373103,"is_reserved":false,"is_disabled":false,"rental_uris":{"android":"levelo://app?vid=9dd61780-a087-4b77-b384-1a7cd62b6038","ios":"levelo://app?vid=9dd61780-a087-4b77-b384-1a7cd62b6038"},"vehicle_type_id":"4","last_reported":1718406484,"current_range_meters":11600,"station_id":"ce4bgt12rcd13ifvqcd0","pricing_plan_id":"cebpf4jnsgd1na2vs0mg"},{"bike_id":"1af3649d-550c-453b-934a-17b08b6b3691","system_id":"levelo_inurba_marseille","lat":43.31495,"lon":5.37306,"is_reserved":false,"is_disabled":false,"rental_uris":{"android":"levelo://app?vid=1af3649d-550c-453b-934a-17b08b6b3691","ios":"levelo://app?vid=1af3649d-550c-453b-934a-17b08b6b3691"},"vehicle_type_id":"4","last_reported":1718406484,"current_range_meters":0,"station_id":"ce4bgt12rcd13ifvqcd0","pricing_plan_id":"cebpf4jnsgd1na2vs0mg"},{"bike_id":"37aa5a5a-2853-4617-b053-3d156c109bad","system_id":"levelo_inurba_marseille","lat":43.314811,"lon":5.373103,"is_reserved":false,"is_disabled":false,"rental_uris":{"android":"levelo://app?vid=37aa5a5a-2853-4617-b053-3d156c109bad","ios":"levelo://app?vid=37aa5a5a-2853-4617-b053-3d156c109bad"},"vehicle_type_id":"4","last_reported":1718406484,"current_range_meters":9200,"station_id":"ce4bgt12rcd13ifvqcd0","pricing_plan_id":"cebpf4jnsgd1na2vs0mg"},{"bike_id":"72da5da6-58f0-4fd7-9c34-d3966f0eaf12","system_id":"levelo_inurba_marseille","lat":43.31496,"lon":5.37307,"is_reserved":false,"is_disabled":false,"rental_uris":{"android":"levelo://app?vid=72da5da6-58f0-4fd7-9c34-d3966f0eaf12","ios":"levelo://app?vid=72da5da6-58f0-4fd7-9c34-d3966f0eaf12"},"vehicle_type_id":"4","last_reported":1718406484,"current_range_meters":0,"station_id":"ce4bgt12rcd13ifvqcd0","pricing_plan_id":"cebpf4jnsgd1na2vs0mg"},{"bike_id":"72651c0e-ab89-4764-86da-6cd1a59658e9","system_id":"levelo_inurba_marseille","lat":43.314811,"lon":5.373104,"is_reserved":false,"is_disabled":false,"rental_uris":{"android":"levelo://app?vid=72651c0e-ab89-4764-86da-6cd1a59658e9","ios":"levelo://app?vid=72651c0e-ab89-4764-86da-6cd1a59658e9"},"vehicle_type_id":"4","last_reported":1718406484,"current_range_meters":26800,"station_id":"ce4bgt12rcd13ifvqcd0","pricing_plan_id":"cebpf4jnsgd1na2vs0mg"},{"bike_id":"9c03b7e8-1082-4c71-9571-1841b325f305","system_id":"levelo_inurba_marseille","lat":43.309039,"lon":5.371797,"is_reserved":false,"is_disabled":false,"rental_uris":{"android":"levelo://app?vid=9c03b7e8-1082-4c71-9571-1841b325f305","ios":"levelo://app?vid=9c03b7e8-1082-4c71-9571-1841b325f305"},"vehicle_type_id":"4","last_reported":1718406484,"current_range_meters":10800,"station_id":"ce4bguh2rcd13ifvqckg","pricing_plan_id":"cebpf4jnsgd1na2vs0mg"},{"bike_id":"01840c60-a9d0-4ec0-87dd-fa5cf019c87b","system_id":"levelo_inurba_marseille","lat":43.309039,"lon":5.371797,"is_reserved":false,"is_disabled":false,"rental_uris":{"android":"levelo://app?vid=01840c60-a9d0-4ec0-87dd-fa5cf019c87b","ios":"levelo://app?vid=01840c60-a9d0-4ec0-87dd-fa5cf019c87b"},"vehicle_type_id":"4","last_reported":1718406484,"current_range_meters":5600,"station_id":"ce4bguh2rcd13ifvqckg","pricing_plan_id":"cebpf4jnsgd1na2vs0mg"},{"bike_id":"f08534af-dfc3-4e1b-99b9-84c26ad72ca3","system_id":"levelo_inurba_marseille","lat":43.308953,"lon":5.371937,"is_reserved":false,"is_disabled":false,"rental_uris":{"android":"levelo://app?vid=f08534af-dfc3-4e1b-99b9-84c26ad72ca3","ios":"levelo://app?vid=f08534af-dfc3-4e1b-99b9-84c26ad72ca3"},"vehicle_type_id":"4","last_reported":1718406484,"current_range_meters":24000,"station_id":"ce4bguh2rcd13ifvqckg","pricing_plan_id":"cebpf4jnsgd1na2vs0mg"},{"bike_id":"c79b2e30-4dbc-43ed-b83c-cae88cc9b399","system_id":"levelo_inurba_marseille","lat":43.305714,"lon":5.365633,"is_reserved":false,"is_disabled":false,"rental_uris":{"android":"levelo://app?vid=c79b2e30-4dbc-43ed-b83c-cae88cc9b399","ios":"levelo://app?vid=c79b2e30-4dbc-43ed-b83c-cae88cc9b399"},"vehicle_type_id":"4","last_reported":1718406484,"current_range_meters":6400,"station_id":"ce4bgs12rcd13ifvqcag","pricing_plan_id":"cebpf4jnsgd1na2vs0mg"},{"bike_id":"f32e5e6e-d400-466f-b3b2-2a24cee6197b","system_id":"levelo_inurba_marseille","lat":43.30612,"lon":5.37223,"is_reserved":false,"is_disabled":false,"rental_uris":{"android":"levelo://app?vid=f32e5e6e-d400-466f-b3b2-2a24cee6197b","ios":"levelo://app?vid=f32e5e6e-d400-466f-b3b2-2a24cee6197b"},"vehicle_type_id":"4","last_reported":1718406484,"current_range_meters":0,"station_id":"ce4bgqh2rcd13ifvqc4g","pricing_plan_id":"cebpf4jnsgd1na2vs0mg"},{"bike_id":"ed02ec71-a499-4334-a1f4-6aa9e4fb8f51","system_id":"levelo_inurba_marseille","lat":43.305989,"lon":5.37225,"is_reserved":false,"is_disabled":false,"rental_uris":{"android":"levelo://app?vid=ed02ec71-a499-4334-a1f4-6aa9e4fb8f51","ios":"levelo://app?vid=ed02ec71-a499-4334-a1f4-6aa9e4fb8f51"},"vehicle_type_id":"4","last_reported":1718406484,"current_range_meters":21200,"station_id":"ce4bgqh2rcd13ifvqc4g","pricing_plan_id":"cebpf4jnsgd1na2vs0mg"},{"bike_id":"0155cd2c-ce8f-4c57-9d81-44dd72a8e1fd","system_id":"levelo_inurba_marseille","lat":43.305989,"lon":5.37225,"is_reserved":false,"is_disabled":false,"rental_uris":{"android":"levelo://app?vid=0155cd2c-ce8f-4c57-9d81-44dd72a8e1fd","ios":"levelo://app?vid=0155cd2c-ce8f-4c57-9d81-44dd72a8e1fd"},"vehicle_type_id":"4","last_reported":1718406484,"current_range_meters":18400,"station_id":"ce4bgqh2rcd13ifvqc4g","pricing_plan_id":"cebpf4jnsgd1na2vs0mg"},{"bike_id":"f89614a8-f5c4-4648-92e0-c1aade932c26","system_id":"levelo_inurba_marseille","lat":43.311125,"lon":5.377624,"is_reserved":false,"is_disabled":false,"rental_uris":{"android":"levelo://app?vid=f89614a8-f5c4-4648-92e0-c1aade932c26","ios":"levelo://app?vid=f89614a8-f5c4-4648-92e0-c1aade932c26"},"vehicle_type_id":"4","last_reported":1718406484,"current_range_meters":14400,"station_id":"ce4bgt92rcd13ifvqcg0","pricing_plan_id":"cebpf4jnsgd1na2vs0mg"},{"bike_id":"3ea7b944-3536-4d68-9088-07b62d2d97e3","system_id":"levelo_inurba_marseille","lat":43.31114,"lon":5.377683,"is_reserved":false,"is_disabled":false,"rental_uris":{"android":"levelo://app?vid=3ea7b944-3536-4d68-9088-07b62d2d97e3","ios":"levelo://app?vid=3ea7b944-3536-4d68-9088-07b62d2d97e3"},"vehicle_type_id":"4","last_reported":1718406484,"current_range_meters":0,"station_id":"ce4bgt92rcd13ifvqcg0","pricing_plan_id":"cebpf4jnsgd1na2vs0mg"},{"bike_id":"e4312bed-eee6-4dd5-afff-5c67256f822e","system_id":"levelo_inurba_marseille","lat":43.307945,"lon":5.376487,"is_reserved":false,"is_disabled":false,"rental_uris":{"android":"levelo://app?vid=e4312bed-eee6-4dd5-afff-5c67256f822e","ios":"levelo://app?vid=e4312bed-eee6-4dd5-afff-5c67256f822e"},"vehicle_type_id":"4","last_reported":1718406484,"current_range_meters":26000,"station_id":"ce4bgv92rcd13ifvqcq0","pricing_plan_id":"cebpf4jnsgd1na2vs0mg"},{"bike_id":"5ef02dd2-d578-4661-92f9-3d63666fb17e","system_id":"levelo_inurba_marseille","lat":43.307945,"lon":5.376487,"is_reserved":false,"is_disabled":false,"rental_uris":{"android":"levelo://app?vid=5ef02dd2-d578-4661-92f9-3d63666fb17e","ios":"levelo://app?vid=5ef02dd2-d578-4661-92f9-3d63666fb17e"},"vehicle_type_id":"4","last_reported":1718406484,"current_range_meters":20800,"station_id":"ce4bgv92rcd13ifvqcq0","pricing_plan_id":"cebpf4jnsgd1na2vs0mg"},{"bike_id":"14e1f06e-bd28-4b3c-be29-1dda5e8f22f1","system_id":"levelo_inurba_marseille","lat":43.307945,"lon":5.376487,"is_reserved":false,"is_disabled":false,"rental_uris":{"android":"levelo://app?vid=14e1f06e-bd28-4b3c-be29-1dda5e8f22f1","ios":"levelo://app?vid=14e1f06e-bd28-4b3c-be29-1dda5e8f22f1"},"vehicle_type_id":"4","last_reported":1718406484,"current_range_meters":23600,"station_id":"ce4bgv92rcd13ifvqcq0","pricing_plan_id":"cebpf4jnsgd1na2vs0mg"},{"bike_id":"b24d921d-f2cd-4215-a600-5bdf732a5fec","system_id":"levelo_inurba_marseille","lat":43.307945,"lon":5.376487,"is_reserved":false,"is_disabled":false,"rental_uris":{"android":"levelo://app?vid=b24d921d-f2cd-4215-a600-5bdf732a5fec","ios":"levelo://app?vid=b24d921d-f2cd-4215-a600-5bdf732a5fec"},"vehicle_type_id":"4","last_reported":1718406484,"current_range_meters":20000,"station_id":"ce4bgv92rcd13ifvqcq0","pricing_plan_id":"cebpf4jnsgd1na2vs0mg"},{"bike_id":"0dcfd393-aec1-404d-b961-d57adf285077","system_id":"levelo_inurba_marseille","lat":43.307945,"lon":5.376487,"is_reserved":false,"is_disabled":false,"rental_uris":{"android":"levelo://app?vid=0dcfd393-aec1-404d-b961-d57adf285077","ios":"levelo://app?vid=0dcfd393-aec1-404d-b961-d57adf285077"},"vehicle_type_id":"4","last_reported":1718406484,"current_range_meters":18800,"station_id":"ce4bgv92rcd13ifvqcq0","pricing_plan_id":"cebpf4jnsgd1na2vs0mg"},{"bike_id":"852aab32-1489-4b04-b218-332b199c978b","system_id":"levelo_inurba_marseille","lat":43.307945,"lon":5.376487,"is_reserved":false,"is_disabled":false,"rental_uris":{"android":"levelo://app?vid=852aab32-1489-4b04-b218-332b199c978b","ios":"levelo://app?vid=852aab32-1489-4b04-b218-332b199c978b"},"vehicle_type_id":"4","last_reported":1718406484,"current_range_meters":9200,"station_id":"ce4bgv92rcd13ifvqcq0","pricing_plan_id":"cebpf4jnsgd1na2vs0mg"},{"bike_id":"3b3a1445-b0fb-4a4f-840e-a264f85c1f5d","system_id":"levelo_inurba_marseille","lat":43.31693,"lon":5.377375,"is_reserved":false,"is_disabled":false,"rental_uris":{"android":"levelo://app?vid=3b3a1445-b0fb-4a4f-840e-a264f85c1f5d","ios":"levelo://app?vid=3b3a1445-b0fb-4a4f-840e-a264f85c1f5d"},"vehicle_type_id":"4","last_reported":1718406484,"current_range_meters":13200,"station_id":"ce4bgth2rcd13ifvqch0","pricing_plan_id":"cebpf4jnsgd1na2vs0mg"},{"bike_id":"a4fae0a5-8e70-4ffa-beaf-8f66fe87f400","system_id":"levelo_inurba_marseille","lat":43.317075,"lon":5.377367,"is_reserved":false,"is_disabled":false,"rental_uris":{"android":"levelo://app?vid=a4fae0a5-8e70-4ffa-beaf-8f66fe87f400","ios":"levelo://app?vid=a4fae0a5-8e70-4ffa-beaf-8f66fe87f400"},"vehicle_type_id":"4","last_reported":1718406484,"current_range_meters":20000,"station_id":"ce4bgth2rcd13ifvqch0","pricing_plan_id":"cebpf4jnsgd1na2vs0mg"},{"bike_id":"e2a0830b-3111-4be7-9ddc-491150982b3f","system_id":"levelo_inurba_marseille","lat":43.317075,"lon":5.377367,"is_reserved":false,"is_disabled":false,"rental_uris":{"android":"levelo://app?vid=e2a0830b-3111-4be7-9ddc-491150982b3f","ios":"levelo://app?vid=e2a0830b-3111-4be7-9ddc-491150982b3f"},"vehicle_type_id":"4","last_reported":1718406484,"current_range_meters":20000,"station_id":"ce4bgth2rcd13ifvqch0","pricing_plan_id":"cebpf4jnsgd1na2vs0mg"},{"bike_id":"975604bd-74d0-48fc-8a96-3e02e171e0a0","system_id":"levelo_inurba_marseille","lat":43.317075,"lon":5.377367,"is_reserved":false,"is_disabled":false,"rental_uris":{"android":"levelo://app?vid=975604bd-74d0-48fc-8a96-3e02e171e0a0","ios":"levelo://app?vid=975604bd-74d0-48fc-8a96-3e02e171e0a0"},"vehicle_type_id":"4","last_reported":1718406484,"current_range_meters":5200,"station_id":"ce4bgth2rcd13ifvqch0","pricing_plan_id":"cebpf4jnsgd1na2vs0mg"},{"bike_id":"d533ecb6-7b2f-4639-97b0-9cef4975d955","system_id":"levelo_inurba_marseille","lat":43.317075,"lon":5.377367,"is_reserved":false,"is_disabled":false,"rental_uris":{"android":"levelo://app?vid=d533ecb6-7b2f-4639-97b0-9cef4975d955","ios":"levelo://app?vid=d533ecb6-7b2f-4639-97b0-9cef4975d955"},"vehicle_type_id":"4","last_reported":1718406484,"current_range_meters":2000,"station_id":"ce4bgth2rcd13ifvqch0","pricing_plan_id":"cebpf4jnsgd1na2vs0mg"},{"bike_id":"19dbe415-d5e6-4fb1-bfab-b695f1fae53e","system_id":"levelo_inurba_marseille","lat":43.31716,"lon":5.37753,"is_reserved":false,"is_disabled":false,"rental_uris":{"android":"levelo://app?vid=19dbe415-d5e6-4fb1-bfab-b695f1fae53e","ios":"levelo://app?vid=19dbe415-d5e6-4fb1-bfab-b695f1fae53e"},"vehicle_type_id":"4","last_reported":1718406484,"current_range_meters":19200,"station_id":"ce4bgth2rcd13ifvqch0","pricing_plan_id":"cebpf4jnsgd1na2vs0mg"},{"bike_id":"530f36e4-3552-4d1f-82f0-caabc503ab59","system_id":"levelo_inurba_marseille","lat":43.307945,"lon":5.376487,"is_reserved":false,"is_disabled":false,"rental_uris":{"android":"levelo://app?vid=530f36e4-3552-4d1f-82f0-caabc503ab59","ios":"levelo://app?vid=530f36e4-3552-4d1f-82f0-caabc503ab59"},"vehicle_type_id":"4","last_reported":1718406484,"current_range_meters":17600,"station_id":"ce4bgv92rcd13ifvqcq0","pricing_plan_id":"cebpf4jnsgd1na2vs0mg"},{"bike_id":"5a347d51-7fba-409b-89c5-b04496406be6","system_id":"levelo_inurba_marseille","lat":43.315289,"lon":5.380349,"is_reserved":false,"is_disabled":false,"rental_uris":{"android":"levelo://app?vid=5a347d51-7fba-409b-89c5-b04496406be6","ios":"levelo://app?vid=5a347d51-7fba-409b-89c5-b04496406be6"},"vehicle_type_id":"4","last_reported":1718406484,"current_range_meters":16400,"station_id":"ce4bhsp2rcd13ifvqi50","pricing_plan_id":"cebpf4jnsgd1na2vs0mg"},{"bike_id":"c96cd21a-8bff-441d-87bf-c0101f7589ca","system_id":"levelo_inurba_marseille","lat":43.31535,"lon":5.3803,"is_reserved":false,"is_disabled":false,"rental_uris":{"android":"levelo://app?vid=c96cd21a-8bff-441d-87bf-c0101f7589ca","ios":"levelo://app?vid=c96cd21a-8bff-441d-87bf-c0101f7589ca"},"vehicle_type_id":"4","last_reported":1718406484,"current_range_meters":0,"station_id":"ce4bhsp2rcd13ifvqi50","pricing_plan_id":"cebpf4jnsgd1na2vs0mg"},{"bike_id":"4c95a9c5-2ae1-4114-a943-ed99447add3d","system_id":"levelo_inurba_marseille","lat":43.315293,"lon":5.380349,"is_reserved":false,"is_disabled":false,"rental_uris":{"android":"levelo://app?vid=4c95a9c5-2ae1-4114-a943-ed99447add3d","ios":"levelo://app?vid=4c95a9c5-2ae1-4114-a943-ed99447add3d"},"vehicle_type_id":"4","last_reported":1718406484,"current_range_meters":0,"station_id":"ce4bhsp2rcd13ifvqi50","pricing_plan_id":"cebpf4jnsgd1na2vs0mg"},{"bike_id":"09eaf21c-2790-4d38-9fc1-55c059711a56","system_id":"levelo_inurba_marseille","lat":43.308012,"lon":5.381511,"is_reserved":false,"is_disabled":false,"rental_uris":{"android":"levelo://app?vid=09eaf21c-2790-4d38-9fc1-55c059711a56","ios":"levelo://app?vid=09eaf21c-2790-4d38-9fc1-55c059711a56"},"vehicle_type_id":"4","last_reported":1718406484,"current_range_meters":18000,"station_id":"ce4bgt12rcd13ifvqce0","pricing_plan_id":"cebpf4jnsgd1na2vs0mg"},{"bike_id":"2eabd005-fae4-47a2-b0e7-f77fd91916fd","system_id":"levelo_inurba_marseille","lat":43.308012,"lon":5.381511,"is_reserved":false,"is_disabled":false,"rental_uris":{"android":"levelo://app?vid=2eabd005-fae4-47a2-b0e7-f77fd91916fd","ios":"levelo://app?vid=2eabd005-fae4-47a2-b0e7-f77fd91916fd"},"vehicle_type_id":"4","last_reported":1718406484,"current_range_meters":13600,"station_id":"ce4bgt12rcd13ifvqce0","pricing_plan_id":"cebpf4jnsgd1na2vs0mg"},{"bike_id":"7d59d62b-1357-4392-8295-58759f11d8f9","system_id":"levelo_inurba_marseille","lat":43.308012,"lon":5.381511,"is_reserved":false,"is_disabled":false,"rental_uris":{"android":"levelo://app?vid=7d59d62b-1357-4392-8295-58759f11d8f9","ios":"levelo://app?vid=7d59d62b-1357-4392-8295-58759f11d8f9"},"vehicle_type_id":"4","last_reported":1718406484,"current_range_meters":30800,"station_id":"ce4bgt12rcd13ifvqce0","pricing_plan_id":"cebpf4jnsgd1na2vs0mg"},{"bike_id":"c96794e9-fe5a-4d6c-8b4b-42758fe16dd9","system_id":"levelo_inurba_marseille","lat":43.308012,"lon":5.381511,"is_reserved":false,"is_disabled":false,"rental_uris":{"android":"levelo://app?vid=c96794e9-fe5a-4d6c-8b4b-42758fe16dd9","ios":"levelo://app?vid=c96794e9-fe5a-4d6c-8b4b-42758fe16dd9"},"vehicle_type_id":"4","last_reported":1718406484,"current_range_meters":5600,"station_id":"ce4bgt12rcd13ifvqce0","pricing_plan_id":"cebpf4jnsgd1na2vs0mg"},{"bike_id":"0ba23905-ff83-40ed-b0ad-ad7ebbe028bd","system_id":"levelo_inurba_marseille","lat":43.308012,"lon":5.381511,"is_reserved":false,"is_disabled":false,"rental_uris":{"android":"levelo://app?vid=0ba23905-ff83-40ed-b0ad-ad7ebbe028bd","ios":"levelo://app?vid=0ba23905-ff83-40ed-b0ad-ad7ebbe028bd"},"vehicle_type_id":"4","last_reported":1718406484,"current_range_meters":31200,"station_id":"ce4bgt12rcd13ifvqce0","pricing_plan_id":"cebpf4jnsgd1na2vs0mg"},{"bike_id":"5a038958-57aa-405a-8185-a69c51a7019f","system_id":"levelo_inurba_marseille","lat":43.308012,"lon":5.381511,"is_reserved":false,"is_disabled":false,"rental_uris":{"android":"levelo://app?vid=5a038958-57aa-405a-8185-a69c51a7019f","ios":"levelo://app?vid=5a038958-57aa-405a-8185-a69c51a7019f"},"vehicle_type_id":"4","last_reported":1718406484,"current_range_meters":22800,"station_id":"ce4bgt12rcd13ifvqce0","pricing_plan_id":"cebpf4jnsgd1na2vs0mg"},{"bike_id":"97712a19-d6b9-443c-97f2-0c8207bf480e","system_id":"levelo_inurba_marseille","lat":43.304606,"lon":5.379026,"is_reserved":false,"is_disabled":false,"rental_uris":{"android":"levelo://app?vid=97712a19-d6b9-443c-97f2-0c8207bf480e","ios":"levelo://app?vid=97712a19-d6b9-443c-97f2-0c8207bf480e"},"vehicle_type_id":"4","last_reported":1718406484,"current_range_meters":13600,"station_id":"ce4bgup2rcd13ifvqcn0","pricing_plan_id":"cebpf4jnsgd1na2vs0mg"},{"bike_id":"e716aefd-c62b-4c19-ab42-7adb803b7b11","system_id":"levelo_inurba_marseille","lat":43.319885,"lon":5.380368,"is_reserved":false,"is_disabled":false,"rental_uris":{"android":"levelo://app?vid=e716aefd-c62b-4c19-ab42-7adb803b7b11","ios":"levelo://app?vid=e716aefd-c62b-4c19-ab42-7adb803b7b11"},"vehicle_type_id":"4","last_reported":1718406484,"current_range_meters":19200,"station_id":"","pricing_plan_id":"cebpf4jnsgd1na2vs0mg"},{"bike_id":"f0185fca-021e-4a22-93d1-a3cc783f552c","system_id":"levelo_inurba_marseille","lat":43.324771,"lon":5.36557,"is_reserved":false,"is_disabled":false,"rental_uris":{"android":"levelo://app?vid=f0185fca-021e-4a22-93d1-a3cc783f552c","ios":"levelo://app?vid=f0185fca-021e-4a22-93d1-a3cc783f552c"},"vehicle_type_id":"4","last_reported":1718406484,"current_range_meters":8400,"station_id":"ce4bhs12rcd13ifvqhvg","pricing_plan_id":"cebpf4jnsgd1na2vs0mg"},{"bike_id":"6dec15cc-e747-4cb5-84eb-ab6384b7b1a1","system_id":"levelo_inurba_marseille","lat":43.310804,"lon":5.38359,"is_reserved":false,"is_disabled":false,"rental_uris":{"android":"levelo://app?vid=6dec15cc-e747-4cb5-84eb-ab6384b7b1a1","ios":"levelo://app?vid=6dec15cc-e747-4cb5-84eb-ab6384b7b1a1"},"vehicle_type_id":"4","last_reported":1718406484,"current_range_meters":0,"station_id":"ce4bgv92rcd13ifvqcr0","pricing_plan_id":"cebpf4jnsgd1na2vs0mg"},{"bike_id":"ad703c5d-26da-4b5b-b1fb-74262646b453","system_id":"levelo_inurba_marseille","lat":43.310804,"lon":5.38359,"is_reserved":false,"is_disabled":false,"rental_uris":{"android":"levelo://app?vid=ad703c5d-26da-4b5b-b1fb-74262646b453","ios":"levelo://app?vid=ad703c5d-26da-4b5b-b1fb-74262646b453"},"vehicle_type_id":"4","last_reported":1718406484,"current_range_meters":9200,"station_id":"ce4bgv92rcd13ifvqcr0","pricing_plan_id":"cebpf4jnsgd1na2vs0mg"},{"bike_id":"7ff2b4ad-9ec8-45cc-a413-e0bd74a93024","system_id":"levelo_inurba_marseille","lat":43.310804,"lon":5.38359,"is_reserved":false,"is_disabled":false,"rental_uris":{"android":"levelo://app?vid=7ff2b4ad-9ec8-45cc-a413-e0bd74a93024","ios":"levelo://app?vid=7ff2b4ad-9ec8-45cc-a413-e0bd74a93024"},"vehicle_type_id":"4","last_reported":1718406484,"current_range_meters":2000,"station_id":"ce4bgv92rcd13ifvqcr0","pricing_plan_id":"cebpf4jnsgd1na2vs0mg"},{"bike_id":"5b3a28c3-783d-4436-ba63-0089a8908912","system_id":"levelo_inurba_marseille","lat":43.310804,"lon":5.38359,"is_reserved":false,"is_disabled":false,"rental_uris":{"android":"levelo://app?vid=5b3a28c3-783d-4436-ba63-0089a8908912","ios":"levelo://app?vid=5b3a28c3-783d-4436-ba63-0089a8908912"},"vehicle_type_id":"4","last_reported":1718406484,"current_range_meters":8400,"station_id":"ce4bgv92rcd13ifvqcr0","pricing_plan_id":"cebpf4jnsgd1na2vs0mg"},{"bike_id":"cbdde84d-a083-43f8-8e03-66f3edde86b1","system_id":"levelo_inurba_marseille","lat":43.302784,"lon":5.377158,"is_reserved":false,"is_disabled":false,"rental_uris":{"android":"levelo://app?vid=cbdde84d-a083-43f8-8e03-66f3edde86b1","ios":"levelo://app?vid=cbdde84d-a083-43f8-8e03-66f3edde86b1"},"vehicle_type_id":"4","last_reported":1718406484,"current_range_meters":6800,"station_id":"ce4bguh2rcd13ifvqcj0","pricing_plan_id":"cebpf4jnsgd1na2vs0mg"},{"bike_id":"7b6e0317-cd81-40a7-bccb-7f015155462b","system_id":"levelo_inurba_marseille","lat":43.302784,"lon":5.377158,"is_reserved":false,"is_disabled":false,"rental_uris":{"android":"levelo://app?vid=7b6e0317-cd81-40a7-bccb-7f015155462b","ios":"levelo://app?vid=7b6e0317-cd81-40a7-bccb-7f015155462b"},"vehicle_type_id":"4","last_reported":1718406484,"current_range_meters":26400,"station_id":"ce4bguh2rcd13ifvqcj0","pricing_plan_id":"cebpf4jnsgd1na2vs0mg"},{"bike_id":"0e116910-8a7f-4094-aaa4-8bd916e6a482","system_id":"levelo_inurba_marseille","lat":43.30143,"lon":5.37413,"is_reserved":false,"is_disabled":false,"rental_uris":{"android":"levelo://app?vid=0e116910-8a7f-4094-aaa4-8bd916e6a482","ios":"levelo://app?vid=0e116910-8a7f-4094-aaa4-8bd916e6a482"},"vehicle_type_id":"4","last_reported":1718406484,"current_range_meters":12000,"station_id":"ce4bgs92rcd13ifvqcc0","pricing_plan_id":"cebpf4jnsgd1na2vs0mg"},{"bike_id":"0d35c13a-7572-4f9a-827c-95f9db1433b9","system_id":"levelo_inurba_marseille","lat":43.30148,"lon":5.37421,"is_reserved":false,"is_disabled":false,"rental_uris":{"android":"levelo://app?vid=0d35c13a-7572-4f9a-827c-95f9db1433b9","ios":"levelo://app?vid=0d35c13a-7572-4f9a-827c-95f9db1433b9"},"vehicle_type_id":"4","last_reported":1718406484,"current_range_meters":7200,"station_id":"ce4bgs92rcd13ifvqcc0","pricing_plan_id":"cebpf4jnsgd1na2vs0mg"},{"bike_id":"8291b89a-4855-48c8-b76e-8707207c49ec","system_id":"levelo_inurba_marseille","lat":43.319935,"lon":5.381699,"is_reserved":false,"is_disabled":false,"rental_uris":{"android":"levelo://app?vid=8291b89a-4855-48c8-b76e-8707207c49ec","ios":"levelo://app?vid=8291b89a-4855-48c8-b76e-8707207c49ec"},"vehicle_type_id":"4","last_reported":1718406484,"current_range_meters":15600,"station_id":"ce4bhr12rcd13ifvqhpg","pricing_plan_id":"cebpf4jnsgd1na2vs0mg"},{"bike_id":"818623b9-b397-4266-8366-5129d670243d","system_id":"levelo_inurba_marseille","lat":43.32,"lon":5.38151,"is_reserved":false,"is_disabled":false,"rental_uris":{"android":"levelo://app?vid=818623b9-b397-4266-8366-5129d670243d","ios":"levelo://app?vid=818623b9-b397-4266-8366-5129d670243d"},"vehicle_type_id":"4","last_reported":1718406484,"current_range_meters":31200,"station_id":"ce4bhr12rcd13ifvqhpg","pricing_plan_id":"cebpf4jnsgd1na2vs0mg"},{"bike_id":"57861364-c824-4c4b-aa44-7d113ad5f29f","system_id":"levelo_inurba_marseille","lat":43.32001,"lon":5.38161,"is_reserved":false,"is_disabled":false,"rental_uris":{"android":"levelo://app?vid=57861364-c824-4c4b-aa44-7d113ad5f29f","ios":"levelo://app?vid=57861364-c824-4c4b-aa44-7d113ad5f29f"},"vehicle_type_id":"4","last_reported":1718406484,"current_range_meters":1600,"station_id":"ce4bhr12rcd13ifvqhpg","pricing_plan_id":"cebpf4jnsgd1na2vs0mg"},{"bike_id":"5aaae974-ba1d-4021-b53c-d92a573b567b","system_id":"levelo_inurba_marseille","lat":43.31998,"lon":5.38167,"is_reserved":false,"is_disabled":false,"rental_uris":{"android":"levelo://app?vid=5aaae974-ba1d-4021-b53c-d92a573b567b","ios":"levelo://app?vid=5aaae974-ba1d-4021-b53c-d92a573b567b"},"vehicle_type_id":"4","last_reported":1718406484,"current_range_meters":20000,"station_id":"ce4bhr12rcd13ifvqhpg","pricing_plan_id":"cebpf4jnsgd1na2vs0mg"},{"bike_id":"39a44efd-d5f1-48d9-973b-d5d5532428a1","system_id":"levelo_inurba_marseille","lat":43.313571,"lon":5.384829,"is_reserved":false,"is_disabled":false,"rental_uris":{"android":"levelo://app?vid=39a44efd-d5f1-48d9-973b-d5d5532428a1","ios":"levelo://app?vid=39a44efd-d5f1-48d9-973b-d5d5532428a1"},"vehicle_type_id":"4","last_reported":1718406484,"current_range_meters":22800,"station_id":"ce4bgt92rcd13ifvqcf0","pricing_plan_id":"cebpf4jnsgd1na2vs0mg"},{"bike_id":"1a125627-43b0-4923-abb8-1c7db17fe7cf","system_id":"levelo_inurba_marseille","lat":43.313571,"lon":5.384829,"is_reserved":false,"is_disabled":false,"rental_uris":{"android":"levelo://app?vid=1a125627-43b0-4923-abb8-1c7db17fe7cf","ios":"levelo://app?vid=1a125627-43b0-4923-abb8-1c7db17fe7cf"},"vehicle_type_id":"4","last_reported":1718406484,"current_range_meters":31600,"station_id":"ce4bgt92rcd13ifvqcf0","pricing_plan_id":"cebpf4jnsgd1na2vs0mg"},{"bike_id":"61737e6f-fe06-43e3-b704-acd1200ceba2","system_id":"levelo_inurba_marseille","lat":43.313571,"lon":5.384829,"is_reserved":false,"is_disabled":false,"rental_uris":{"android":"levelo://app?vid=61737e6f-fe06-43e3-b704-acd1200ceba2","ios":"levelo://app?vid=61737e6f-fe06-43e3-b704-acd1200ceba2"},"vehicle_type_id":"4","last_reported":1718406484,"current_range_meters":12800,"station_id":"ce4bgt92rcd13ifvqcf0","pricing_plan_id":"cebpf4jnsgd1na2vs0mg"},{"bike_id":"37471f4c-741d-4423-ad28-3beb8104ff11","system_id":"levelo_inurba_marseille","lat":43.299829,"lon":5.370078,"is_reserved":false,"is_disabled":false,"rental_uris":{"android":"levelo://app?vid=37471f4c-741d-4423-ad28-3beb8104ff11","ios":"levelo://app?vid=37471f4c-741d-4423-ad28-3beb8104ff11"},"vehicle_type_id":"4","last_reported":1718406484,"current_range_meters":12000,"station_id":"","pricing_plan_id":"cebpf4jnsgd1na2vs0mg"},{"bike_id":"ccd6f9d2-2c80-4cb3-8b6e-521160acfebe","system_id":"levelo_inurba_marseille","lat":43.313571,"lon":5.384829,"is_reserved":false,"is_disabled":false,"rental_uris":{"android":"levelo://app?vid=ccd6f9d2-2c80-4cb3-8b6e-521160acfebe","ios":"levelo://app?vid=ccd6f9d2-2c80-4cb3-8b6e-521160acfebe"},"vehicle_type_id":"4","last_reported":1718406484,"current_range_meters":4400,"station_id":"ce4bgt92rcd13ifvqcf0","pricing_plan_id":"cebpf4jnsgd1na2vs0mg"},{"bike_id":"aa89d3b3-4361-4b16-a95e-28eae6dbdf47","system_id":"levelo_inurba_marseille","lat":43.313571,"lon":5.384829,"is_reserved":false,"is_disabled":false,"rental_uris":{"android":"levelo://app?vid=aa89d3b3-4361-4b16-a95e-28eae6dbdf47","ios":"levelo://app?vid=aa89d3b3-4361-4b16-a95e-28eae6dbdf47"},"vehicle_type_id":"4","last_reported":1718406484,"current_range_meters":21200,"station_id":"ce4bgt92rcd13ifvqcf0","pricing_plan_id":"cebpf4jnsgd1na2vs0mg"},{"bike_id":"0f9614f7-32f3-4021-9b48-329a3b8ad4ad","system_id":"levelo_inurba_marseille","lat":43.313571,"lon":5.384829,"is_reserved":false,"is_disabled":false,"rental_uris":{"android":"levelo://app?vid=0f9614f7-32f3-4021-9b48-329a3b8ad4ad","ios":"levelo://app?vid=0f9614f7-32f3-4021-9b48-329a3b8ad4ad"},"vehicle_type_id":"4","last_reported":1718406484,"current_range_meters":28400,"station_id":"ce4bgt92rcd13ifvqcf0","pricing_plan_id":"cebpf4jnsgd1na2vs0mg"},{"bike_id":"7867a7fc-f408-4d24-a99e-23e91a58f98f","system_id":"levelo_inurba_marseille","lat":43.32004,"lon":5.38207,"is_reserved":false,"is_disabled":false,"rental_uris":{"android":"levelo://app?vid=7867a7fc-f408-4d24-a99e-23e91a58f98f","ios":"levelo://app?vid=7867a7fc-f408-4d24-a99e-23e91a58f98f"},"vehicle_type_id":"4","last_reported":1718406484,"current_range_meters":31200,"station_id":"ce4bhr12rcd13ifvqhpg","pricing_plan_id":"cebpf4jnsgd1na2vs0mg"},{"bike_id":"52e5d2b5-ceb6-4f95-a393-83084ee8bd93","system_id":"levelo_inurba_marseille","lat":43.305364,"lon":5.384119,"is_reserved":false,"is_disabled":false,"rental_uris":{"android":"levelo://app?vid=52e5d2b5-ceb6-4f95-a393-83084ee8bd93","ios":"levelo://app?vid=52e5d2b5-ceb6-4f95-a393-83084ee8bd93"},"vehicle_type_id":"4","last_reported":1718406484,"current_range_meters":11600,"station_id":"ce4bgg92rcd13ifvqb30","pricing_plan_id":"cebpf4jnsgd1na2vs0mg"},{"bike_id":"6a9d39a5-2e83-4acf-8d88-0c1eb6ba9e91","system_id":"levelo_inurba_marseille","lat":43.3055,"lon":5.38434,"is_reserved":false,"is_disabled":false,"rental_uris":{"android":"levelo://app?vid=6a9d39a5-2e83-4acf-8d88-0c1eb6ba9e91","ios":"levelo://app?vid=6a9d39a5-2e83-4acf-8d88-0c1eb6ba9e91"},"vehicle_type_id":"4","last_reported":1718406484,"current_range_meters":16400,"station_id":"ce4bgg92rcd13ifvqb30","pricing_plan_id":"cebpf4jnsgd1na2vs0mg"},{"bike_id":"76e7cdfe-3b92-437c-bdb5-0fde9722f536","system_id":"levelo_inurba_marseille","lat":43.30542,"lon":5.38429,"is_reserved":false,"is_disabled":false,"rental_uris":{"android":"levelo://app?vid=76e7cdfe-3b92-437c-bdb5-0fde9722f536","ios":"levelo://app?vid=76e7cdfe-3b92-437c-bdb5-0fde9722f536"},"vehicle_type_id":"4","last_reported":1718406484,"current_range_meters":21600,"station_id":"","pricing_plan_id":"cebpf4jnsgd1na2vs0mg"},{"bike_id":"f0e280d4-b222-4042-9639-ca529aa9f361","system_id":"levelo_inurba_marseille","lat":43.30541,"lon":5.38432,"is_reserved":false,"is_disabled":false,"rental_uris":{"android":"levelo://app?vid=f0e280d4-b222-4042-9639-ca529aa9f361","ios":"levelo://app?vid=f0e280d4-b222-4042-9639-ca529aa9f361"},"vehicle_type_id":"4","last_reported":1718406484,"current_range_meters":26000,"station_id":"ce4bgg92rcd13ifvqb30","pricing_plan_id":"cebpf4jnsgd1na2vs0mg"},{"bike_id":"bc82b490-002e-4d4f-8fcf-83c4669d46ff","system_id":"levelo_inurba_marseille","lat":43.299243,"lon":5.374807,"is_reserved":false,"is_disabled":false,"rental_uris":{"android":"levelo://app?vid=bc82b490-002e-4d4f-8fcf-83c4669d46ff","ios":"levelo://app?vid=bc82b490-002e-4d4f-8fcf-83c4669d46ff"},"vehicle_type_id":"4","last_reported":1718406484,"current_range_meters":9600,"station_id":"ce4bgjh2rcd13ifvqbg0","pricing_plan_id":"cebpf4jnsgd1na2vs0mg"},{"bike_id":"32eaedd3-5e62-45c4-a539-bd9f6347aa8a","system_id":"levelo_inurba_marseille","lat":43.311722,"lon":5.387247,"is_reserved":false,"is_disabled":false,"rental_uris":{"android":"levelo://app?vid=32eaedd3-5e62-45c4-a539-bd9f6347aa8a","ios":"levelo://app?vid=32eaedd3-5e62-45c4-a539-bd9f6347aa8a"},"vehicle_type_id":"4","last_reported":1718406484,"current_range_meters":8400,"station_id":"ce4bgv12rcd13ifvqcp0","pricing_plan_id":"cebpf4jnsgd1na2vs0mg"},{"bike_id":"414d985c-9e41-4bc1-9c14-8ab4deebb85a","system_id":"levelo_inurba_marseille","lat":43.311722,"lon":5.387247,"is_reserved":false,"is_disabled":false,"rental_uris":{"android":"levelo://app?vid=414d985c-9e41-4bc1-9c14-8ab4deebb85a","ios":"levelo://app?vid=414d985c-9e41-4bc1-9c14-8ab4deebb85a"},"vehicle_type_id":"4","last_reported":1718406484,"current_range_meters":19600,"station_id":"ce4bgv12rcd13ifvqcp0","pricing_plan_id":"cebpf4jnsgd1na2vs0mg"},{"bike_id":"aa2b0d81-04a8-4e7e-9002-c5e2083cb75a","system_id":"levelo_inurba_marseille","lat":43.311722,"lon":5.387247,"is_reserved":false,"is_disabled":false,"rental_uris":{"android":"levelo://app?vid=aa2b0d81-04a8-4e7e-9002-c5e2083cb75a","ios":"levelo://app?vid=aa2b0d81-04a8-4e7e-9002-c5e2083cb75a"},"vehicle_type_id":"4","last_reported":1718406484,"current_range_meters":7600,"station_id":"ce4bgv12rcd13ifvqcp0","pricing_plan_id":"cebpf4jnsgd1na2vs0mg"},{"bike_id":"8fc1c4d6-dda7-4b24-a3c3-f96552caae65","system_id":"levelo_inurba_marseille","lat":43.311722,"lon":5.387247,"is_reserved":false,"is_disabled":false,"rental_uris":{"android":"levelo://app?vid=8fc1c4d6-dda7-4b24-a3c3-f96552caae65","ios":"levelo://app?vid=8fc1c4d6-dda7-4b24-a3c3-f96552caae65"},"vehicle_type_id":"4","last_reported":1718406484,"current_range_meters":12000,"station_id":"ce4bgv12rcd13ifvqcp0","pricing_plan_id":"cebpf4jnsgd1na2vs0mg"},{"bike_id":"c98e4a66-3919-417d-a388-f293689c3289","system_id":"levelo_inurba_marseille","lat":43.297969,"lon":5.371134,"is_reserved":false,"is_disabled":false,"rental_uris":{"android":"levelo://app?vid=c98e4a66-3919-417d-a388-f293689c3289","ios":"levelo://app?vid=c98e4a66-3919-417d-a388-f293689c3289"},"vehicle_type_id":"4","last_reported":1718406484,"current_range_meters":11600,"station_id":"ce4bgop2rcd13ifvqc1g","pricing_plan_id":"cebpf4jnsgd1na2vs0mg"},{"bike_id":"e025e930-8f82-4879-b09c-3202c4ca43ad","system_id":"levelo_inurba_marseille","lat":43.322872,"lon":5.382756,"is_reserved":false,"is_disabled":false,"rental_uris":{"android":"levelo://app?vid=e025e930-8f82-4879-b09c-3202c4ca43ad","ios":"levelo://app?vid=e025e930-8f82-4879-b09c-3202c4ca43ad"},"vehicle_type_id":"4","last_reported":1718406484,"current_range_meters":23200,"station_id":"ce4bhr12rcd13ifvqhqg","pricing_plan_id":"cebpf4jnsgd1na2vs0mg"},{"bike_id":"391b494c-a31f-4c43-b3bf-04a22cc21978","system_id":"levelo_inurba_marseille","lat":43.322936,"lon":5.382679,"is_reserved":false,"is_disabled":false,"rental_uris":{"android":"levelo://app?vid=391b494c-a31f-4c43-b3bf-04a22cc21978","ios":"levelo://app?vid=391b494c-a31f-4c43-b3bf-04a22cc21978"},"vehicle_type_id":"4","last_reported":1718406484,"current_range_meters":31200,"station_id":"ce4bhr12rcd13ifvqhqg","pricing_plan_id":"cebpf4jnsgd1na2vs0mg"},{"bike_id":"5d8b5af3-5aa9-4fa2-8728-c9e5bc161eb0","system_id":"levelo_inurba_marseille","lat":43.322872,"lon":5.382756,"is_reserved":false,"is_disabled":false,"rental_uris":{"android":"levelo://app?vid=5d8b5af3-5aa9-4fa2-8728-c9e5bc161eb0","ios":"levelo://app?vid=5d8b5af3-5aa9-4fa2-8728-c9e5bc161eb0"},"vehicle_type_id":"4","last_reported":1718406484,"current_range_meters":25200,"station_id":"ce4bhr12rcd13ifvqhqg","pricing_plan_id":"cebpf4jnsgd1na2vs0mg"},{"bike_id":"50928f49-e7fd-4877-96f5-fc9204b20c47","system_id":"levelo_inurba_marseille","lat":43.322889,"lon":5.382769,"is_reserved":false,"is_disabled":false,"rental_uris":{"android":"levelo://app?vid=50928f49-e7fd-4877-96f5-fc9204b20c47","ios":"levelo://app?vid=50928f49-e7fd-4877-96f5-fc9204b20c47"},"vehicle_type_id":"4","last_reported":1718406484,"current_range_meters":31200,"station_id":"ce4bhr12rcd13ifvqhqg","pricing_plan_id":"cebpf4jnsgd1na2vs0mg"},{"bike_id":"705b4b01-8071-4387-8aca-114fcc2ebbf7","system_id":"levelo_inurba_marseille","lat":43.296131,"lon":5.370791,"is_reserved":false,"is_disabled":false,"rental_uris":{"android":"levelo://app?vid=705b4b01-8071-4387-8aca-114fcc2ebbf7","ios":"levelo://app?vid=705b4b01-8071-4387-8aca-114fcc2ebbf7"},"vehicle_type_id":"4","last_reported":1718406484,"current_range_meters":0,"station_id":"ce4bgnh2rcd13ifvqc0g","pricing_plan_id":"cebpf4jnsgd1na2vs0mg"},{"bike_id":"bc22ff36-cafa-4397-9f8f-dc8848104aed","system_id":"levelo_inurba_marseille","lat":43.309589,"lon":5.390258,"is_reserved":false,"is_disabled":false,"rental_uris":{"android":"levelo://app?vid=bc22ff36-cafa-4397-9f8f-dc8848104aed","ios":"levelo://app?vid=bc22ff36-cafa-4397-9f8f-dc8848104aed"},"vehicle_type_id":"4","last_reported":1718406484,"current_range_meters":6000,"station_id":"ce4bgup2rcd13ifvqco0","pricing_plan_id":"cebpf4jnsgd1na2vs0mg"},{"bike_id":"4438c9f2-5ac0-4b57-9413-210af7e5aab8","system_id":"levelo_inurba_marseille","lat":43.317647,"lon":5.39008,"is_reserved":false,"is_disabled":false,"rental_uris":{"android":"levelo://app?vid=4438c9f2-5ac0-4b57-9413-210af7e5aab8","ios":"levelo://app?vid=4438c9f2-5ac0-4b57-9413-210af7e5aab8"},"vehicle_type_id":"4","last_reported":1718406484,"current_range_meters":28800,"station_id":"ce4bhqp2rcd13ifvqhng","pricing_plan_id":"cebpf4jnsgd1na2vs0mg"},{"bike_id":"688b3b30-0d19-4109-b55e-e3d8d2c0d6c9","system_id":"levelo_inurba_marseille","lat":43.317557,"lon":5.390173,"is_reserved":false,"is_disabled":false,"rental_uris":{"android":"levelo://app?vid=688b3b30-0d19-4109-b55e-e3d8d2c0d6c9","ios":"levelo://app?vid=688b3b30-0d19-4109-b55e-e3d8d2c0d6c9"},"vehicle_type_id":"4","last_reported":1718406484,"current_range_meters":20800,"station_id":"ce4bhqp2rcd13ifvqhng","pricing_plan_id":"cebpf4jnsgd1na2vs0mg"},{"bike_id":"d51789ea-eb04-4e0b-b0d1-a567aa1af80c","system_id":"levelo_inurba_marseille","lat":43.304606,"lon":5.379026,"is_reserved":false,"is_disabled":false,"rental_uris":{"android":"levelo://app?vid=d51789ea-eb04-4e0b-b0d1-a567aa1af80c","ios":"levelo://app?vid=d51789ea-eb04-4e0b-b0d1-a567aa1af80c"},"vehicle_type_id":"4","last_reported":1718406484,"current_range_meters":0,"station_id":"ce4bgup2rcd13ifvqcn0","pricing_plan_id":"cebpf4jnsgd1na2vs0mg"},{"bike_id":"f13e63b5-8abd-4f62-8c54-f554ee194fee","system_id":"levelo_inurba_marseille","lat":43.29687,"lon":5.37815,"is_reserved":false,"is_disabled":false,"rental_uris":{"android":"levelo://app?vid=f13e63b5-8abd-4f62-8c54-f554ee194fee","ios":"levelo://app?vid=f13e63b5-8abd-4f62-8c54-f554ee194fee"},"vehicle_type_id":"4","last_reported":1718406484,"current_range_meters":21200,"station_id":"","pricing_plan_id":"cebpf4jnsgd1na2vs0mg"},{"bike_id":"4195d92b-b1f8-45ad-84a3-936b9d5c0c71","system_id":"levelo_inurba_marseille","lat":43.298037,"lon":5.381066,"is_reserved":false,"is_disabled":false,"rental_uris":{"android":"levelo://app?vid=4195d92b-b1f8-45ad-84a3-936b9d5c0c71","ios":"levelo://app?vid=4195d92b-b1f8-45ad-84a3-936b9d5c0c71"},"vehicle_type_id":"4","last_reported":1718406484,"current_range_meters":16800,"station_id":"ce4bgip2rcd13ifvqbb0","pricing_plan_id":"cebpf4jnsgd1na2vs0mg"},{"bike_id":"f2bd9630-59f7-4f50-a629-055a0f10a3c4","system_id":"levelo_inurba_marseille","lat":43.2958,"lon":5.37515,"is_reserved":false,"is_disabled":false,"rental_uris":{"android":"levelo://app?vid=f2bd9630-59f7-4f50-a629-055a0f10a3c4","ios":"levelo://app?vid=f2bd9630-59f7-4f50-a629-055a0f10a3c4"},"vehicle_type_id":"4","last_reported":1718406484,"current_range_meters":29200,"station_id":"ce4bgh92rcd13ifvqb50","pricing_plan_id":"cebpf4jnsgd1na2vs0mg"},{"bike_id":"0473cff9-d008-4f96-841a-cde42943d5a2","system_id":"levelo_inurba_marseille","lat":43.304274,"lon":5.388873,"is_reserved":false,"is_disabled":false,"rental_uris":{"android":"levelo://app?vid=0473cff9-d008-4f96-841a-cde42943d5a2","ios":"levelo://app?vid=0473cff9-d008-4f96-841a-cde42943d5a2"},"vehicle_type_id":"4","last_reported":1718406484,"current_range_meters":14800,"station_id":"ce4bgk12rcd13ifvqbi0","pricing_plan_id":"cebpf4jnsgd1na2vs0mg"},{"bike_id":"d64a8403-d1c8-4844-83f3-25f0209d434f","system_id":"levelo_inurba_marseille","lat":43.296217,"lon":5.377133,"is_reserved":false,"is_disabled":false,"rental_uris":{"android":"levelo://app?vid=d64a8403-d1c8-4844-83f3-25f0209d434f","ios":"levelo://app?vid=d64a8403-d1c8-4844-83f3-25f0209d434f"},"vehicle_type_id":"4","last_reported":1718406484,"current_range_meters":21200,"station_id":"ce4bgi92rcd13ifvqb90","pricing_plan_id":"cebpf4jnsgd1na2vs0mg"},{"bike_id":"96b76c05-df7c-419d-b68e-0aeb4f8c43ff","system_id":"levelo_inurba_marseille","lat":43.296263,"lon":5.377094,"is_reserved":false,"is_disabled":false,"rental_uris":{"android":"levelo://app?vid=96b76c05-df7c-419d-b68e-0aeb4f8c43ff","ios":"levelo://app?vid=96b76c05-df7c-419d-b68e-0aeb4f8c43ff"},"vehicle_type_id":"4","last_reported":1718406484,"current_range_meters":30000,"station_id":"ce4bgi92rcd13ifvqb90","pricing_plan_id":"cebpf4jnsgd1na2vs0mg"},{"bike_id":"7ba69c11-0808-4b78-8b4f-6a87aeed4d92","system_id":"levelo_inurba_marseille","lat":43.29519,"lon":5.375803,"is_reserved":false,"is_disabled":false,"rental_uris":{"android":"levelo://app?vid=7ba69c11-0808-4b78-8b4f-6a87aeed4d92","ios":"levelo://app?vid=7ba69c11-0808-4b78-8b4f-6a87aeed4d92"},"vehicle_type_id":"4","last_reported":1718406484,"current_range_meters":15600,"station_id":"","pricing_plan_id":"cebpf4jnsgd1na2vs0mg"},{"bike_id":"f9f6fe48-0fbe-4422-a0b8-e154eb173ee2","system_id":"levelo_inurba_marseille","lat":43.32367,"lon":5.388836,"is_reserved":false,"is_disabled":false,"rental_uris":{"android":"levelo://app?vid=f9f6fe48-0fbe-4422-a0b8-e154eb173ee2","ios":"levelo://app?vid=f9f6fe48-0fbe-4422-a0b8-e154eb173ee2"},"vehicle_type_id":"4","last_reported":1718406484,"current_range_meters":31200,"station_id":"ce4bhqp2rcd13ifvqhog","pricing_plan_id":"cebpf4jnsgd1na2vs0mg"},{"bike_id":"d77ba57f-1821-442f-a5da-652ebc4d1587","system_id":"levelo_inurba_marseille","lat":43.32367,"lon":5.388836,"is_reserved":false,"is_disabled":false,"rental_uris":{"android":"levelo://app?vid=d77ba57f-1821-442f-a5da-652ebc4d1587","ios":"levelo://app?vid=d77ba57f-1821-442f-a5da-652ebc4d1587"},"vehicle_type_id":"4","last_reported":1718406484,"current_range_meters":400,"station_id":"ce4bhqp2rcd13ifvqhog","pricing_plan_id":"cebpf4jnsgd1na2vs0mg"},{"bike_id":"8c4895f4-d13c-438b-bb8a-e6ac7f191673","system_id":"levelo_inurba_marseille","lat":43.32367,"lon":5.388836,"is_reserved":false,"is_disabled":false,"rental_uris":{"android":"levelo://app?vid=8c4895f4-d13c-438b-bb8a-e6ac7f191673","ios":"levelo://app?vid=8c4895f4-d13c-438b-bb8a-e6ac7f191673"},"vehicle_type_id":"4","last_reported":1718406484,"current_range_meters":18400,"station_id":"ce4bhqp2rcd13ifvqhog","pricing_plan_id":"cebpf4jnsgd1na2vs0mg"},{"bike_id":"761f8fdf-d282-4748-adcd-8c6947cfce67","system_id":"levelo_inurba_marseille","lat":43.32367,"lon":5.388836,"is_reserved":false,"is_disabled":false,"rental_uris":{"android":"levelo://app?vid=761f8fdf-d282-4748-adcd-8c6947cfce67","ios":"levelo://app?vid=761f8fdf-d282-4748-adcd-8c6947cfce67"},"vehicle_type_id":"4","last_reported":1718406484,"current_range_meters":22400,"station_id":"ce4bhqp2rcd13ifvqhog","pricing_plan_id":"cebpf4jnsgd1na2vs0mg"},{"bike_id":"f26ad03e-ef89-438b-ae04-33547955f59c","system_id":"levelo_inurba_marseille","lat":43.32367,"lon":5.388836,"is_reserved":false,"is_disabled":false,"rental_uris":{"android":"levelo://app?vid=f26ad03e-ef89-438b-ae04-33547955f59c","ios":"levelo://app?vid=f26ad03e-ef89-438b-ae04-33547955f59c"},"vehicle_type_id":"4","last_reported":1718406484,"current_range_meters":31200,"station_id":"ce4bhqp2rcd13ifvqhog","pricing_plan_id":"cebpf4jnsgd1na2vs0mg"},{"bike_id":"4335e433-c22a-44ea-a0f3-095ec8ca1c4d","system_id":"levelo_inurba_marseille","lat":43.32367,"lon":5.388836,"is_reserved":false,"is_disabled":false,"rental_uris":{"android":"levelo://app?vid=4335e433-c22a-44ea-a0f3-095ec8ca1c4d","ios":"levelo://app?vid=4335e433-c22a-44ea-a0f3-095ec8ca1c4d"},"vehicle_type_id":"4","last_reported":1718406484,"current_range_meters":27600,"station_id":"ce4bhqp2rcd13ifvqhog","pricing_plan_id":"cebpf4jnsgd1na2vs0mg"},{"bike_id":"794ee505-df9c-4cc1-8b0a-ca0e9787d3dd","system_id":"levelo_inurba_marseille","lat":43.32367,"lon":5.388836,"is_reserved":false,"is_disabled":false,"rental_uris":{"android":"levelo://app?vid=794ee505-df9c-4cc1-8b0a-ca0e9787d3dd","ios":"levelo://app?vid=794ee505-df9c-4cc1-8b0a-ca0e9787d3dd"},"vehicle_type_id":"4","last_reported":1718406484,"current_range_meters":19200,"station_id":"ce4bhqp2rcd13ifvqhog","pricing_plan_id":"cebpf4jnsgd1na2vs0mg"},{"bike_id":"6f024c8b-79fc-4ff5-9b24-c7d820dd6175","system_id":"levelo_inurba_marseille","lat":43.32367,"lon":5.388836,"is_reserved":false,"is_disabled":false,"rental_uris":{"android":"levelo://app?vid=6f024c8b-79fc-4ff5-9b24-c7d820dd6175","ios":"levelo://app?vid=6f024c8b-79fc-4ff5-9b24-c7d820dd6175"},"vehicle_type_id":"4","last_reported":1718406484,"current_range_meters":31200,"station_id":"ce4bhqp2rcd13ifvqhog","pricing_plan_id":"cebpf4jnsgd1na2vs0mg"},{"bike_id":"fc442686-acb0-47d8-8cb7-e2b6f9057e6c","system_id":"levelo_inurba_marseille","lat":43.2936,"lon":5.37835,"is_reserved":false,"is_disabled":false,"rental_uris":{"android":"levelo://app?vid=fc442686-acb0-47d8-8cb7-e2b6f9057e6c","ios":"levelo://app?vid=fc442686-acb0-47d8-8cb7-e2b6f9057e6c"},"vehicle_type_id":"4","last_reported":1718406484,"current_range_meters":9600,"station_id":"ce4bgjh2rcd13ifvqbf0","pricing_plan_id":"cebpf4jnsgd1na2vs0mg"},{"bike_id":"928e7e30-a0cf-46f2-9924-4e8f492bec3a","system_id":"levelo_inurba_marseille","lat":43.29323,"lon":5.37118,"is_reserved":false,"is_disabled":false,"rental_uris":{"android":"levelo://app?vid=928e7e30-a0cf-46f2-9924-4e8f492bec3a","ios":"levelo://app?vid=928e7e30-a0cf-46f2-9924-4e8f492bec3a"},"vehicle_type_id":"4","last_reported":1718406484,"current_range_meters":0,"station_id":"","pricing_plan_id":"cebpf4jnsgd1na2vs0mg"},{"bike_id":"774e3291-6b19-4467-9a11-37b30abf0f86","system_id":"levelo_inurba_marseille","lat":43.297147,"lon":5.384037,"is_reserved":false,"is_disabled":false,"rental_uris":{"android":"levelo://app?vid=774e3291-6b19-4467-9a11-37b30abf0f86","ios":"levelo://app?vid=774e3291-6b19-4467-9a11-37b30abf0f86"},"vehicle_type_id":"4","last_reported":1718406484,"current_range_meters":0,"station_id":"","pricing_plan_id":"cebpf4jnsgd1na2vs0mg"},{"bike_id":"802d4861-a920-4658-973c-d7f15d9d8057","system_id":"levelo_inurba_marseille","lat":43.292749,"lon":5.368402,"is_reserved":false,"is_disabled":false,"rental_uris":{"android":"levelo://app?vid=802d4861-a920-4658-973c-d7f15d9d8057","ios":"levelo://app?vid=802d4861-a920-4658-973c-d7f15d9d8057"},"vehicle_type_id":"4","last_reported":1718406484,"current_range_meters":20800,"station_id":"ce4bhbp2rcd13ifvqesg","pricing_plan_id":"cebpf4jnsgd1na2vs0mg"},{"bike_id":"1d0c46e4-6d06-41cd-bb47-9b6d4a9c1487","system_id":"levelo_inurba_marseille","lat":43.29279,"lon":5.3685,"is_reserved":false,"is_disabled":false,"rental_uris":{"android":"levelo://app?vid=1d0c46e4-6d06-41cd-bb47-9b6d4a9c1487","ios":"levelo://app?vid=1d0c46e4-6d06-41cd-bb47-9b6d4a9c1487"},"vehicle_type_id":"4","last_reported":1718406484,"current_range_meters":4000,"station_id":"ce4bhbp2rcd13ifvqesg","pricing_plan_id":"cebpf4jnsgd1na2vs0mg"},{"bike_id":"a4d56e58-44f5-4f42-bd82-5d9b8dc594b4","system_id":"levelo_inurba_marseille","lat":43.29305,"lon":5.37162,"is_reserved":false,"is_disabled":false,"rental_uris":{"android":"levelo://app?vid=a4d56e58-44f5-4f42-bd82-5d9b8dc594b4","ios":"levelo://app?vid=a4d56e58-44f5-4f42-bd82-5d9b8dc594b4"},"vehicle_type_id":"4","last_reported":1718406484,"current_range_meters":31200,"station_id":"ce4bgh92rcd13ifvqb40","pricing_plan_id":"cebpf4jnsgd1na2vs0mg"},{"bike_id":"86fb44c9-e2bd-480b-9d99-21f48e3602c3","system_id":"levelo_inurba_marseille","lat":43.29306,"lon":5.37179,"is_reserved":false,"is_disabled":false,"rental_uris":{"android":"levelo://app?vid=86fb44c9-e2bd-480b-9d99-21f48e3602c3","ios":"levelo://app?vid=86fb44c9-e2bd-480b-9d99-21f48e3602c3"},"vehicle_type_id":"4","last_reported":1718406484,"current_range_meters":31200,"station_id":"ce4bgh92rcd13ifvqb40","pricing_plan_id":"cebpf4jnsgd1na2vs0mg"},{"bike_id":"6fa6b162-d01c-48cc-b533-b9a965952eda","system_id":"levelo_inurba_marseille","lat":43.292749,"lon":5.368402,"is_reserved":false,"is_disabled":false,"rental_uris":{"android":"levelo://app?vid=6fa6b162-d01c-48cc-b533-b9a965952eda","ios":"levelo://app?vid=6fa6b162-d01c-48cc-b533-b9a965952eda"},"vehicle_type_id":"4","last_reported":1718406484,"current_range_meters":31200,"station_id":"ce4bhbp2rcd13ifvqesg","pricing_plan_id":"cebpf4jnsgd1na2vs0mg"},{"bike_id":"9e3cc614-a955-4ec2-b5d0-93c820c1c558","system_id":"levelo_inurba_marseille","lat":43.292749,"lon":5.368402,"is_reserved":false,"is_disabled":false,"rental_uris":{"android":"levelo://app?vid=9e3cc614-a955-4ec2-b5d0-93c820c1c558","ios":"levelo://app?vid=9e3cc614-a955-4ec2-b5d0-93c820c1c558"},"vehicle_type_id":"4","last_reported":1718406484,"current_range_meters":31200,"station_id":"ce4bhbp2rcd13ifvqesg","pricing_plan_id":"cebpf4jnsgd1na2vs0mg"},{"bike_id":"679678ba-1c83-4744-9028-16835389def0","system_id":"levelo_inurba_marseille","lat":43.29298,"lon":5.37457,"is_reserved":false,"is_disabled":false,"rental_uris":{"android":"levelo://app?vid=679678ba-1c83-4744-9028-16835389def0","ios":"levelo://app?vid=679678ba-1c83-4744-9028-16835389def0"},"vehicle_type_id":"4","last_reported":1718406484,"current_range_meters":0,"station_id":"ce4bgi12rcd13ifvqb70","pricing_plan_id":"cebpf4jnsgd1na2vs0mg"},{"bike_id":"c258ba91-9f3b-4cb1-85a4-d6db3ae9a53d","system_id":"levelo_inurba_marseille","lat":43.305994,"lon":5.393687,"is_reserved":false,"is_disabled":false,"rental_uris":{"android":"levelo://app?vid=c258ba91-9f3b-4cb1-85a4-d6db3ae9a53d","ios":"levelo://app?vid=c258ba91-9f3b-4cb1-85a4-d6db3ae9a53d"},"vehicle_type_id":"4","last_reported":1718406484,"current_range_meters":24800,"station_id":"ce4bh0p2rcd13ifvqd80","pricing_plan_id":"cebpf4jnsgd1na2vs0mg"},{"bike_id":"046e952e-b9b4-4d2a-a9ae-4454d830af3f","system_id":"levelo_inurba_marseille","lat":43.303002,"lon":5.392142,"is_reserved":false,"is_disabled":false,"rental_uris":{"android":"levelo://app?vid=046e952e-b9b4-4d2a-a9ae-4454d830af3f","ios":"levelo://app?vid=046e952e-b9b4-4d2a-a9ae-4454d830af3f"},"vehicle_type_id":"4","last_reported":1718406484,"current_range_meters":400,"station_id":"ce4bgkh2rcd13ifvqbk0","pricing_plan_id":"cebpf4jnsgd1na2vs0mg"},{"bike_id":"d42324e1-98b5-4699-a8d9-fd9d164d26cf","system_id":"levelo_inurba_marseille","lat":43.303002,"lon":5.392142,"is_reserved":false,"is_disabled":false,"rental_uris":{"android":"levelo://app?vid=d42324e1-98b5-4699-a8d9-fd9d164d26cf","ios":"levelo://app?vid=d42324e1-98b5-4699-a8d9-fd9d164d26cf"},"vehicle_type_id":"4","last_reported":1718406484,"current_range_meters":22000,"station_id":"ce4bgkh2rcd13ifvqbk0","pricing_plan_id":"cebpf4jnsgd1na2vs0mg"},{"bike_id":"16127323-b786-4b34-864c-a69966ca33cf","system_id":"levelo_inurba_marseille","lat":43.303002,"lon":5.392142,"is_reserved":false,"is_disabled":false,"rental_uris":{"android":"levelo://app?vid=16127323-b786-4b34-864c-a69966ca33cf","ios":"levelo://app?vid=16127323-b786-4b34-864c-a69966ca33cf"},"vehicle_type_id":"4","last_reported":1718406484,"current_range_meters":0,"station_id":"ce4bgkh2rcd13ifvqbk0","pricing_plan_id":"cebpf4jnsgd1na2vs0mg"},{"bike_id":"ae5402eb-b8d6-4785-841f-e6e97438a0ca","system_id":"levelo_inurba_marseille","lat":43.302992,"lon":5.392136,"is_reserved":false,"is_disabled":false,"rental_uris":{"android":"levelo://app?vid=ae5402eb-b8d6-4785-841f-e6e97438a0ca","ios":"levelo://app?vid=ae5402eb-b8d6-4785-841f-e6e97438a0ca"},"vehicle_type_id":"4","last_reported":1718406484,"current_range_meters":31200,"station_id":"ce4bgkh2rcd13ifvqbk0","pricing_plan_id":"cebpf4jnsgd1na2vs0mg"},{"bike_id":"2e0aacfe-f20b-4ceb-b4c9-8a89455eaa79","system_id":"levelo_inurba_marseille","lat":43.300852,"lon":5.390859,"is_reserved":false,"is_disabled":false,"rental_uris":{"android":"levelo://app?vid=2e0aacfe-f20b-4ceb-b4c9-8a89455eaa79","ios":"levelo://app?vid=2e0aacfe-f20b-4ceb-b4c9-8a89455eaa79"},"vehicle_type_id":"4","last_reported":1718406484,"current_range_meters":0,"station_id":"ce4bh192rcd13ifvqdb0","pricing_plan_id":"cebpf4jnsgd1na2vs0mg"},{"bike_id":"4422ec48-773f-4330-a91b-e7f12bd79150","system_id":"levelo_inurba_marseille","lat":43.29276,"lon":5.3762,"is_reserved":false,"is_disabled":false,"rental_uris":{"android":"levelo://app?vid=4422ec48-773f-4330-a91b-e7f12bd79150","ios":"levelo://app?vid=4422ec48-773f-4330-a91b-e7f12bd79150"},"vehicle_type_id":"4","last_reported":1718406484,"current_range_meters":6400,"station_id":"","pricing_plan_id":"cebpf4jnsgd1na2vs0mg"},{"bike_id":"15f9f583-e49a-4758-b75d-a37219f647c0","system_id":"levelo_inurba_marseille","lat":43.29176,"lon":5.37145,"is_reserved":false,"is_disabled":false,"rental_uris":{"android":"levelo://app?vid=15f9f583-e49a-4758-b75d-a37219f647c0","ios":"levelo://app?vid=15f9f583-e49a-4758-b75d-a37219f647c0"},"vehicle_type_id":"4","last_reported":1718406484,"current_range_meters":0,"station_id":"ce4bha92rcd13ifvqeh0","pricing_plan_id":"cebpf4jnsgd1na2vs0mg"},{"bike_id":"cd882586-30bd-4d57-9d70-c0de595bdfd8","system_id":"levelo_inurba_marseille","lat":43.298764,"lon":5.388973,"is_reserved":false,"is_disabled":false,"rental_uris":{"android":"levelo://app?vid=cd882586-30bd-4d57-9d70-c0de595bdfd8","ios":"levelo://app?vid=cd882586-30bd-4d57-9d70-c0de595bdfd8"},"vehicle_type_id":"4","last_reported":1718406484,"current_range_meters":18000,"station_id":"ce4bh392rcd13ifvqdl0","pricing_plan_id":"cebpf4jnsgd1na2vs0mg"},{"bike_id":"7dbdf34b-2270-481d-8470-0360b5327cc1","system_id":"levelo_inurba_marseille","lat":43.31327,"lon":5.39687,"is_reserved":false,"is_disabled":false,"rental_uris":{"android":"levelo://app?vid=7dbdf34b-2270-481d-8470-0360b5327cc1","ios":"levelo://app?vid=7dbdf34b-2270-481d-8470-0360b5327cc1"},"vehicle_type_id":"4","last_reported":1718406484,"current_range_meters":18800,"station_id":"","pricing_plan_id":"cebpf4jnsgd1na2vs0mg"},{"bike_id":"48bf27cb-6d54-408b-9bef-a53f493645d6","system_id":"levelo_inurba_marseille","lat":43.313291,"lon":5.396838,"is_reserved":false,"is_disabled":false,"rental_uris":{"android":"levelo://app?vid=48bf27cb-6d54-408b-9bef-a53f493645d6","ios":"levelo://app?vid=48bf27cb-6d54-408b-9bef-a53f493645d6"},"vehicle_type_id":"4","last_reported":1718406484,"current_range_meters":18400,"station_id":"ce4bgvp2rcd13ifvqcu0","pricing_plan_id":"cebpf4jnsgd1na2vs0mg"},{"bike_id":"1937b53e-9805-4d2d-8647-4f3d7cc2f669","system_id":"levelo_inurba_marseille","lat":43.313291,"lon":5.396838,"is_reserved":false,"is_disabled":false,"rental_uris":{"android":"levelo://app?vid=1937b53e-9805-4d2d-8647-4f3d7cc2f669","ios":"levelo://app?vid=1937b53e-9805-4d2d-8647-4f3d7cc2f669"},"vehicle_type_id":"4","last_reported":1718406484,"current_range_meters":12000,"station_id":"ce4bgvp2rcd13ifvqcu0","pricing_plan_id":"cebpf4jnsgd1na2vs0mg"},{"bike_id":"3ffc0be7-c40c-4891-9d9e-d0da5198f521","system_id":"levelo_inurba_marseille","lat":43.313291,"lon":5.396838,"is_reserved":false,"is_disabled":false,"rental_uris":{"android":"levelo://app?vid=3ffc0be7-c40c-4891-9d9e-d0da5198f521","ios":"levelo://app?vid=3ffc0be7-c40c-4891-9d9e-d0da5198f521"},"vehicle_type_id":"4","last_reported":1718406484,"current_range_meters":31200,"station_id":"ce4bgvp2rcd13ifvqcu0","pricing_plan_id":"cebpf4jnsgd1na2vs0mg"},{"bike_id":"c28a5f72-d922-40f1-ac46-b597ad2386c5","system_id":"levelo_inurba_marseille","lat":43.313335,"lon":5.396919,"is_reserved":false,"is_disabled":false,"rental_uris":{"android":"levelo://app?vid=c28a5f72-d922-40f1-ac46-b597ad2386c5","ios":"levelo://app?vid=c28a5f72-d922-40f1-ac46-b597ad2386c5"},"vehicle_type_id":"4","last_reported":1718406484,"current_range_meters":0,"station_id":"ce4bgvp2rcd13ifvqcu0","pricing_plan_id":"cebpf4jnsgd1na2vs0mg"},{"bike_id":"72b9fbbc-a239-4854-9f80-f967625f5dee","system_id":"levelo_inurba_marseille","lat":43.313291,"lon":5.396838,"is_reserved":false,"is_disabled":false,"rental_uris":{"android":"levelo://app?vid=72b9fbbc-a239-4854-9f80-f967625f5dee","ios":"levelo://app?vid=72b9fbbc-a239-4854-9f80-f967625f5dee"},"vehicle_type_id":"4","last_reported":1718406484,"current_range_meters":5200,"station_id":"ce4bgvp2rcd13ifvqcu0","pricing_plan_id":"cebpf4jnsgd1na2vs0mg"},{"bike_id":"346f0d8b-bca2-4939-aad7-a6ff3fb1386f","system_id":"levelo_inurba_marseille","lat":43.313291,"lon":5.396838,"is_reserved":false,"is_disabled":false,"rental_uris":{"android":"levelo://app?vid=346f0d8b-bca2-4939-aad7-a6ff3fb1386f","ios":"levelo://app?vid=346f0d8b-bca2-4939-aad7-a6ff3fb1386f"},"vehicle_type_id":"4","last_reported":1718406484,"current_range_meters":31600,"station_id":"ce4bgvp2rcd13ifvqcu0","pricing_plan_id":"cebpf4jnsgd1na2vs0mg"},{"bike_id":"d56efa1d-d124-40fb-a55e-7e1b521a3740","system_id":"levelo_inurba_marseille","lat":43.309038,"lon":5.396546,"is_reserved":false,"is_disabled":false,"rental_uris":{"android":"levelo://app?vid=d56efa1d-d124-40fb-a55e-7e1b521a3740","ios":"levelo://app?vid=d56efa1d-d124-40fb-a55e-7e1b521a3740"},"vehicle_type_id":"4","last_reported":1718406484,"current_range_meters":30000,"station_id":"ce4bh012rcd13ifvqcv0","pricing_plan_id":"cebpf4jnsgd1na2vs0mg"},{"bike_id":"78014082-e857-4060-a9a2-fe3d5bd17797","system_id":"levelo_inurba_marseille","lat":43.309038,"lon":5.396546,"is_reserved":false,"is_disabled":false,"rental_uris":{"android":"levelo://app?vid=78014082-e857-4060-a9a2-fe3d5bd17797","ios":"levelo://app?vid=78014082-e857-4060-a9a2-fe3d5bd17797"},"vehicle_type_id":"4","last_reported":1718406484,"current_range_meters":22400,"station_id":"ce4bh012rcd13ifvqcv0","pricing_plan_id":"cebpf4jnsgd1na2vs0mg"},{"bike_id":"5c0f9de8-5256-4655-aee6-3c15a0bd621f","system_id":"levelo_inurba_marseille","lat":43.29529,"lon":5.385581,"is_reserved":false,"is_disabled":false,"rental_uris":{"android":"levelo://app?vid=5c0f9de8-5256-4655-aee6-3c15a0bd621f","ios":"levelo://app?vid=5c0f9de8-5256-4655-aee6-3c15a0bd621f"},"vehicle_type_id":"4","last_reported":1718406484,"current_range_meters":15200,"station_id":"ce4bgih2rcd13ifvqba0","pricing_plan_id":"cebpf4jnsgd1na2vs0mg"},{"bike_id":"ed6e7833-b8eb-489e-9f81-1af1ed7c2abd","system_id":"levelo_inurba_marseille","lat":43.29529,"lon":5.385581,"is_reserved":false,"is_disabled":false,"rental_uris":{"android":"levelo://app?vid=ed6e7833-b8eb-489e-9f81-1af1ed7c2abd","ios":"levelo://app?vid=ed6e7833-b8eb-489e-9f81-1af1ed7c2abd"},"vehicle_type_id":"4","last_reported":1718406484,"current_range_meters":6400,"station_id":"ce4bgih2rcd13ifvqba0","pricing_plan_id":"cebpf4jnsgd1na2vs0mg"},{"bike_id":"df9477e0-eaab-446a-b5c4-9b16e5622d99","system_id":"levelo_inurba_marseille","lat":43.29529,"lon":5.385581,"is_reserved":false,"is_disabled":false,"rental_uris":{"android":"levelo://app?vid=df9477e0-eaab-446a-b5c4-9b16e5622d99","ios":"levelo://app?vid=df9477e0-eaab-446a-b5c4-9b16e5622d99"},"vehicle_type_id":"4","last_reported":1718406484,"current_range_meters":24800,"station_id":"ce4bgih2rcd13ifvqba0","pricing_plan_id":"cebpf4jnsgd1na2vs0mg"},{"bike_id":"037bc608-d88e-4863-819e-90067ad684ef","system_id":"levelo_inurba_marseille","lat":43.290779,"lon":5.371482,"is_reserved":false,"is_disabled":false,"rental_uris":{"android":"levelo://app?vid=037bc608-d88e-4863-819e-90067ad684ef","ios":"levelo://app?vid=037bc608-d88e-4863-819e-90067ad684ef"},"vehicle_type_id":"4","last_reported":1718406484,"current_range_meters":4000,"station_id":"ce4bh5p2rcd13ifvqe4g","pricing_plan_id":"cebpf4jnsgd1na2vs0mg"},{"bike_id":"d408cf40-9bc6-46e9-804b-b31e312e6969","system_id":"levelo_inurba_marseille","lat":43.302008,"lon":5.394694,"is_reserved":false,"is_disabled":false,"rental_uris":{"android":"levelo://app?vid=d408cf40-9bc6-46e9-804b-b31e312e6969","ios":"levelo://app?vid=d408cf40-9bc6-46e9-804b-b31e312e6969"},"vehicle_type_id":"4","last_reported":1718406484,"current_range_meters":6400,"station_id":"ce4bh0p2rcd13ifvqd70","pricing_plan_id":"cebpf4jnsgd1na2vs0mg"},{"bike_id":"ae499069-1e2e-4b93-8ed7-16b722d9e944","system_id":"levelo_inurba_marseille","lat":43.290624,"lon":5.359245,"is_reserved":false,"is_disabled":false,"rental_uris":{"android":"levelo://app?vid=ae499069-1e2e-4b93-8ed7-16b722d9e944","ios":"levelo://app?vid=ae499069-1e2e-4b93-8ed7-16b722d9e944"},"vehicle_type_id":"4","last_reported":1718406484,"current_range_meters":6400,"station_id":"ce4bha92rcd13ifvqeg0","pricing_plan_id":"cebpf4jnsgd1na2vs0mg"},{"bike_id":"3e525951-be83-4254-8eb4-bc98f1c66280","system_id":"levelo_inurba_marseille","lat":43.290624,"lon":5.359245,"is_reserved":false,"is_disabled":false,"rental_uris":{"android":"levelo://app?vid=3e525951-be83-4254-8eb4-bc98f1c66280","ios":"levelo://app?vid=3e525951-be83-4254-8eb4-bc98f1c66280"},"vehicle_type_id":"4","last_reported":1718406484,"current_range_meters":21600,"station_id":"ce4bha92rcd13ifvqeg0","pricing_plan_id":"cebpf4jnsgd1na2vs0mg"},{"bike_id":"5fa6c1c4-005f-4c23-b1b7-99929e717138","system_id":"levelo_inurba_marseille","lat":43.290631,"lon":5.359244,"is_reserved":false,"is_disabled":false,"rental_uris":{"android":"levelo://app?vid=5fa6c1c4-005f-4c23-b1b7-99929e717138","ios":"levelo://app?vid=5fa6c1c4-005f-4c23-b1b7-99929e717138"},"vehicle_type_id":"4","last_reported":1718406484,"current_range_meters":22000,"station_id":"ce4bha92rcd13ifvqeg0","pricing_plan_id":"cebpf4jnsgd1na2vs0mg"},{"bike_id":"c3dfd87e-1c26-45d5-b5fe-bec8a6969f82","system_id":"levelo_inurba_marseille","lat":43.29041,"lon":5.37573,"is_reserved":false,"is_disabled":false,"rental_uris":{"android":"levelo://app?vid=c3dfd87e-1c26-45d5-b5fe-bec8a6969f82","ios":"levelo://app?vid=c3dfd87e-1c26-45d5-b5fe-bec8a6969f82"},"vehicle_type_id":"4","last_reported":1718406484,"current_range_meters":25200,"station_id":"","pricing_plan_id":"cebpf4jnsgd1na2vs0mg"},{"bike_id":"4d8dc206-8521-4de1-beb2-f311d8a8e1c6","system_id":"levelo_inurba_marseille","lat":43.290327,"lon":5.375711,"is_reserved":false,"is_disabled":false,"rental_uris":{"android":"levelo://app?vid=4d8dc206-8521-4de1-beb2-f311d8a8e1c6","ios":"levelo://app?vid=4d8dc206-8521-4de1-beb2-f311d8a8e1c6"},"vehicle_type_id":"4","last_reported":1718406484,"current_range_meters":0,"station_id":"ce4bh692rcd13ifvqe90","pricing_plan_id":"cebpf4jnsgd1na2vs0mg"},{"bike_id":"0dc32367-f5e5-433a-83e2-9ead8284b9c8","system_id":"levelo_inurba_marseille","lat":43.289468,"lon":5.363719,"is_reserved":false,"is_disabled":false,"rental_uris":{"android":"levelo://app?vid=0dc32367-f5e5-433a-83e2-9ead8284b9c8","ios":"levelo://app?vid=0dc32367-f5e5-433a-83e2-9ead8284b9c8"},"vehicle_type_id":"4","last_reported":1718406484,"current_range_meters":4800,"station_id":"ce4bhc92rcd13ifvqetg","pricing_plan_id":"cebpf4jnsgd1na2vs0mg"},{"bike_id":"503f4c48-0812-4413-beaa-2ffab2fd53a2","system_id":"levelo_inurba_marseille","lat":43.289468,"lon":5.363719,"is_reserved":false,"is_disabled":false,"rental_uris":{"android":"levelo://app?vid=503f4c48-0812-4413-beaa-2ffab2fd53a2","ios":"levelo://app?vid=503f4c48-0812-4413-beaa-2ffab2fd53a2"},"vehicle_type_id":"4","last_reported":1718406484,"current_range_meters":12400,"station_id":"ce4bhc92rcd13ifvqetg","pricing_plan_id":"cebpf4jnsgd1na2vs0mg"},{"bike_id":"1af3feef-6fdd-458f-b222-078c7407a75f","system_id":"levelo_inurba_marseille","lat":43.294162,"lon":5.386292,"is_reserved":false,"is_disabled":false,"rental_uris":{"android":"levelo://app?vid=1af3feef-6fdd-458f-b222-078c7407a75f","ios":"levelo://app?vid=1af3feef-6fdd-458f-b222-078c7407a75f"},"vehicle_type_id":"4","last_reported":1718406484,"current_range_meters":0,"station_id":"ce4bh2h2rcd13ifvqdh0","pricing_plan_id":"cebpf4jnsgd1na2vs0mg"},{"bike_id":"07896ef5-0588-4278-b461-fd755b529b2c","system_id":"levelo_inurba_marseille","lat":43.289468,"lon":5.363719,"is_reserved":false,"is_disabled":false,"rental_uris":{"android":"levelo://app?vid=07896ef5-0588-4278-b461-fd755b529b2c","ios":"levelo://app?vid=07896ef5-0588-4278-b461-fd755b529b2c"},"vehicle_type_id":"4","last_reported":1718406484,"current_range_meters":10800,"station_id":"ce4bhc92rcd13ifvqetg","pricing_plan_id":"cebpf4jnsgd1na2vs0mg"},{"bike_id":"5c985fec-ca4e-4d07-9a97-b93b9a66bd89","system_id":"levelo_inurba_marseille","lat":43.289468,"lon":5.363719,"is_reserved":false,"is_disabled":false,"rental_uris":{"android":"levelo://app?vid=5c985fec-ca4e-4d07-9a97-b93b9a66bd89","ios":"levelo://app?vid=5c985fec-ca4e-4d07-9a97-b93b9a66bd89"},"vehicle_type_id":"4","last_reported":1718406484,"current_range_meters":10000,"station_id":"ce4bhc92rcd13ifvqetg","pricing_plan_id":"cebpf4jnsgd1na2vs0mg"},{"bike_id":"bf7f3605-7028-4f28-abbf-ab7da09a3970","system_id":"levelo_inurba_marseille","lat":43.292644,"lon":5.384257,"is_reserved":false,"is_disabled":false,"rental_uris":{"android":"levelo://app?vid=bf7f3605-7028-4f28-abbf-ab7da09a3970","ios":"levelo://app?vid=bf7f3605-7028-4f28-abbf-ab7da09a3970"},"vehicle_type_id":"4","last_reported":1718406484,"current_range_meters":0,"station_id":"ce4bh692rcd13ifvqea0","pricing_plan_id":"cebpf4jnsgd1na2vs0mg"},{"bike_id":"216522e7-d943-4660-9699-1212871e7755","system_id":"levelo_inurba_marseille","lat":43.304296,"lon":5.397513,"is_reserved":false,"is_disabled":false,"rental_uris":{"android":"levelo://app?vid=216522e7-d943-4660-9699-1212871e7755","ios":"levelo://app?vid=216522e7-d943-4660-9699-1212871e7755"},"vehicle_type_id":"4","last_reported":1718406484,"current_range_meters":7600,"station_id":"ce4bh092rcd13ifvqd20","pricing_plan_id":"cebpf4jnsgd1na2vs0mg"},{"bike_id":"f23e7c52-28fe-4f09-8d6f-2a27833f4b8a","system_id":"levelo_inurba_marseille","lat":43.292644,"lon":5.384257,"is_reserved":false,"is_disabled":false,"rental_uris":{"android":"levelo://app?vid=f23e7c52-28fe-4f09-8d6f-2a27833f4b8a","ios":"levelo://app?vid=f23e7c52-28fe-4f09-8d6f-2a27833f4b8a"},"vehicle_type_id":"4","last_reported":1718406484,"current_range_meters":22400,"station_id":"ce4bh692rcd13ifvqea0","pricing_plan_id":"cebpf4jnsgd1na2vs0mg"},{"bike_id":"4eaf905f-6145-4f27-ba46-43738122e40a","system_id":"levelo_inurba_marseille","lat":43.32947,"lon":5.39012,"is_reserved":false,"is_disabled":false,"rental_uris":{"android":"levelo://app?vid=4eaf905f-6145-4f27-ba46-43738122e40a","ios":"levelo://app?vid=4eaf905f-6145-4f27-ba46-43738122e40a"},"vehicle_type_id":"4","last_reported":1718406484,"current_range_meters":28400,"station_id":"","pricing_plan_id":"cebpf4jnsgd1na2vs0mg"},{"bike_id":"b56b83f8-aec4-4e8c-aee8-f859ba801242","system_id":"levelo_inurba_marseille","lat":43.304296,"lon":5.397513,"is_reserved":false,"is_disabled":false,"rental_uris":{"android":"levelo://app?vid=b56b83f8-aec4-4e8c-aee8-f859ba801242","ios":"levelo://app?vid=b56b83f8-aec4-4e8c-aee8-f859ba801242"},"vehicle_type_id":"4","last_reported":1718406484,"current_range_meters":10800,"station_id":"ce4bh092rcd13ifvqd20","pricing_plan_id":"cebpf4jnsgd1na2vs0mg"},{"bike_id":"d9064af3-68ae-40e5-9231-55a266b51664","system_id":"levelo_inurba_marseille","lat":43.304296,"lon":5.397513,"is_reserved":false,"is_disabled":false,"rental_uris":{"android":"levelo://app?vid=d9064af3-68ae-40e5-9231-55a266b51664","ios":"levelo://app?vid=d9064af3-68ae-40e5-9231-55a266b51664"},"vehicle_type_id":"4","last_reported":1718406484,"current_range_meters":8800,"station_id":"ce4bh092rcd13ifvqd20","pricing_plan_id":"cebpf4jnsgd1na2vs0mg"},{"bike_id":"d8995579-e80a-4467-973d-2cc332da88b9","system_id":"levelo_inurba_marseille","lat":43.29269,"lon":5.38449,"is_reserved":false,"is_disabled":false,"rental_uris":{"android":"levelo://app?vid=d8995579-e80a-4467-973d-2cc332da88b9","ios":"levelo://app?vid=d8995579-e80a-4467-973d-2cc332da88b9"},"vehicle_type_id":"4","last_reported":1718406484,"current_range_meters":0,"station_id":"ce4bh692rcd13ifvqea0","pricing_plan_id":"cebpf4jnsgd1na2vs0mg"},{"bike_id":"b66609ee-52fe-4f1f-b5d7-30ee9c6c852a","system_id":"levelo_inurba_marseille","lat":43.304296,"lon":5.397513,"is_reserved":false,"is_disabled":false,"rental_uris":{"android":"levelo://app?vid=b66609ee-52fe-4f1f-b5d7-30ee9c6c852a","ios":"levelo://app?vid=b66609ee-52fe-4f1f-b5d7-30ee9c6c852a"},"vehicle_type_id":"4","last_reported":1718406484,"current_range_meters":19600,"station_id":"ce4bh092rcd13ifvqd20","pricing_plan_id":"cebpf4jnsgd1na2vs0mg"},{"bike_id":"c15174e1-ae56-499b-821f-fc6230e7a4cd","system_id":"levelo_inurba_marseille","lat":43.290104,"lon":5.356111,"is_reserved":false,"is_disabled":false,"rental_uris":{"android":"levelo://app?vid=c15174e1-ae56-499b-821f-fc6230e7a4cd","ios":"levelo://app?vid=c15174e1-ae56-499b-821f-fc6230e7a4cd"},"vehicle_type_id":"4","last_reported":1718406484,"current_range_meters":7200,"station_id":"ce4bhb92rcd13ifvqen0","pricing_plan_id":"cebpf4jnsgd1na2vs0mg"},{"bike_id":"87963ac6-ca61-4656-b7a2-d9a1f50603cb","system_id":"levelo_inurba_marseille","lat":43.290995,"lon":5.381361,"is_reserved":false,"is_disabled":false,"rental_uris":{"android":"levelo://app?vid=87963ac6-ca61-4656-b7a2-d9a1f50603cb","ios":"levelo://app?vid=87963ac6-ca61-4656-b7a2-d9a1f50603cb"},"vehicle_type_id":"4","last_reported":1718406484,"current_range_meters":13600,"station_id":"ce4bh512rcd13ifvqe2g","pricing_plan_id":"cebpf4jnsgd1na2vs0mg"},{"bike_id":"7b6b5c2c-0d04-4c69-938c-efb4789c8d09","system_id":"levelo_inurba_marseille","lat":43.297815,"lon":5.393548,"is_reserved":false,"is_disabled":false,"rental_uris":{"android":"levelo://app?vid=7b6b5c2c-0d04-4c69-938c-efb4789c8d09","ios":"levelo://app?vid=7b6b5c2c-0d04-4c69-938c-efb4789c8d09"},"vehicle_type_id":"4","last_reported":1718406484,"current_range_meters":30800,"station_id":"chh1huq6cuj3fo74tm60","pricing_plan_id":"cebpf4jnsgd1na2vs0mg"},{"bike_id":"6709ac12-0296-41d9-8183-20e641bb5147","system_id":"levelo_inurba_marseille","lat":43.2898,"lon":5.37842,"is_reserved":false,"is_disabled":false,"rental_uris":{"android":"levelo://app?vid=6709ac12-0296-41d9-8183-20e641bb5147","ios":"levelo://app?vid=6709ac12-0296-41d9-8183-20e641bb5147"},"vehicle_type_id":"4","last_reported":1718406484,"current_range_meters":0,"station_id":"ce4bh9p2rcd13ifvqed0","pricing_plan_id":"cebpf4jnsgd1na2vs0mg"},{"bike_id":"6ac3b0a9-93c3-4985-8752-d9847ba51ae8","system_id":"levelo_inurba_marseille","lat":43.330442,"lon":5.389148,"is_reserved":false,"is_disabled":false,"rental_uris":{"android":"levelo://app?vid=6ac3b0a9-93c3-4985-8752-d9847ba51ae8","ios":"levelo://app?vid=6ac3b0a9-93c3-4985-8752-d9847ba51ae8"},"vehicle_type_id":"4","last_reported":1718406484,"current_range_meters":14000,"station_id":"ce4bhr92rcd13ifvqhrg","pricing_plan_id":"cebpf4jnsgd1na2vs0mg"},{"bike_id":"d926abe0-0e92-45db-b0f9-afb20588ea5b","system_id":"levelo_inurba_marseille","lat":43.330442,"lon":5.389148,"is_reserved":false,"is_disabled":false,"rental_uris":{"android":"levelo://app?vid=d926abe0-0e92-45db-b0f9-afb20588ea5b","ios":"levelo://app?vid=d926abe0-0e92-45db-b0f9-afb20588ea5b"},"vehicle_type_id":"4","last_reported":1718406484,"current_range_meters":31600,"station_id":"ce4bhr92rcd13ifvqhrg","pricing_plan_id":"cebpf4jnsgd1na2vs0mg"},{"bike_id":"df473650-67ac-44aa-89d7-280d6d752f14","system_id":"levelo_inurba_marseille","lat":43.330442,"lon":5.389148,"is_reserved":false,"is_disabled":false,"rental_uris":{"android":"levelo://app?vid=df473650-67ac-44aa-89d7-280d6d752f14","ios":"levelo://app?vid=df473650-67ac-44aa-89d7-280d6d752f14"},"vehicle_type_id":"4","last_reported":1718406484,"current_range_meters":31600,"station_id":"ce4bhr92rcd13ifvqhrg","pricing_plan_id":"cebpf4jnsgd1na2vs0mg"},{"bike_id":"38543960-4e89-4f5e-9b6a-e26fa0ccc29e","system_id":"levelo_inurba_marseille","lat":43.330442,"lon":5.389148,"is_reserved":false,"is_disabled":false,"rental_uris":{"android":"levelo://app?vid=38543960-4e89-4f5e-9b6a-e26fa0ccc29e","ios":"levelo://app?vid=38543960-4e89-4f5e-9b6a-e26fa0ccc29e"},"vehicle_type_id":"4","last_reported":1718406484,"current_range_meters":14400,"station_id":"ce4bhr92rcd13ifvqhrg","pricing_plan_id":"cebpf4jnsgd1na2vs0mg"},{"bike_id":"df4b3b69-caec-4af7-8944-58bbb088c20a","system_id":"levelo_inurba_marseille","lat":43.330442,"lon":5.389148,"is_reserved":false,"is_disabled":false,"rental_uris":{"android":"levelo://app?vid=df4b3b69-caec-4af7-8944-58bbb088c20a","ios":"levelo://app?vid=df4b3b69-caec-4af7-8944-58bbb088c20a"},"vehicle_type_id":"4","last_reported":1718406484,"current_range_meters":13200,"station_id":"ce4bhr92rcd13ifvqhrg","pricing_plan_id":"cebpf4jnsgd1na2vs0mg"},{"bike_id":"0cc032b9-06cb-43f8-b2e8-04fca84844ce","system_id":"levelo_inurba_marseille","lat":43.330442,"lon":5.389148,"is_reserved":false,"is_disabled":false,"rental_uris":{"android":"levelo://app?vid=0cc032b9-06cb-43f8-b2e8-04fca84844ce","ios":"levelo://app?vid=0cc032b9-06cb-43f8-b2e8-04fca84844ce"},"vehicle_type_id":"4","last_reported":1718406484,"current_range_meters":31600,"station_id":"ce4bhr92rcd13ifvqhrg","pricing_plan_id":"cebpf4jnsgd1na2vs0mg"},{"bike_id":"46980f1c-27b1-4202-ae54-34f005cdc9e9","system_id":"levelo_inurba_marseille","lat":43.330442,"lon":5.389148,"is_reserved":false,"is_disabled":false,"rental_uris":{"android":"levelo://app?vid=46980f1c-27b1-4202-ae54-34f005cdc9e9","ios":"levelo://app?vid=46980f1c-27b1-4202-ae54-34f005cdc9e9"},"vehicle_type_id":"4","last_reported":1718406484,"current_range_meters":18000,"station_id":"ce4bhr92rcd13ifvqhrg","pricing_plan_id":"cebpf4jnsgd1na2vs0mg"},{"bike_id":"d66a66b9-6b89-4ac3-a027-04ddf51ec1d1","system_id":"levelo_inurba_marseille","lat":43.330442,"lon":5.389148,"is_reserved":false,"is_disabled":false,"rental_uris":{"android":"levelo://app?vid=d66a66b9-6b89-4ac3-a027-04ddf51ec1d1","ios":"levelo://app?vid=d66a66b9-6b89-4ac3-a027-04ddf51ec1d1"},"vehicle_type_id":"4","last_reported":1718406484,"current_range_meters":19600,"station_id":"ce4bhr92rcd13ifvqhrg","pricing_plan_id":"cebpf4jnsgd1na2vs0mg"},{"bike_id":"2addb3bd-151a-48af-9634-6eaf9af7e696","system_id":"levelo_inurba_marseille","lat":43.28856,"lon":5.358371,"is_reserved":false,"is_disabled":false,"rental_uris":{"android":"levelo://app?vid=2addb3bd-151a-48af-9634-6eaf9af7e696","ios":"levelo://app?vid=2addb3bd-151a-48af-9634-6eaf9af7e696"},"vehicle_type_id":"4","last_reported":1718406484,"current_range_meters":0,"station_id":"ce4bhb12rcd13ifvqem0","pricing_plan_id":"cebpf4jnsgd1na2vs0mg"},{"bike_id":"2da90009-5d9f-4ac9-b216-121fd86ec5bf","system_id":"levelo_inurba_marseille","lat":43.28856,"lon":5.358371,"is_reserved":false,"is_disabled":false,"rental_uris":{"android":"levelo://app?vid=2da90009-5d9f-4ac9-b216-121fd86ec5bf","ios":"levelo://app?vid=2da90009-5d9f-4ac9-b216-121fd86ec5bf"},"vehicle_type_id":"4","last_reported":1718406484,"current_range_meters":4400,"station_id":"ce4bhb12rcd13ifvqem0","pricing_plan_id":"cebpf4jnsgd1na2vs0mg"},{"bike_id":"75821223-ecdc-445d-a7f1-7cb9915fb96d","system_id":"levelo_inurba_marseille","lat":43.30682,"lon":5.4003,"is_reserved":false,"is_disabled":false,"rental_uris":{"android":"levelo://app?vid=75821223-ecdc-445d-a7f1-7cb9915fb96d","ios":"levelo://app?vid=75821223-ecdc-445d-a7f1-7cb9915fb96d"},"vehicle_type_id":"4","last_reported":1718406484,"current_range_meters":20000,"station_id":"","pricing_plan_id":"cebpf4jnsgd1na2vs0mg"},{"bike_id":"50c38dfb-9776-40f6-ab31-8d5e1151c639","system_id":"levelo_inurba_marseille","lat":43.28856,"lon":5.358371,"is_reserved":false,"is_disabled":false,"rental_uris":{"android":"levelo://app?vid=50c38dfb-9776-40f6-ab31-8d5e1151c639","ios":"levelo://app?vid=50c38dfb-9776-40f6-ab31-8d5e1151c639"},"vehicle_type_id":"4","last_reported":1718406484,"current_range_meters":8800,"station_id":"ce4bhb12rcd13ifvqem0","pricing_plan_id":"cebpf4jnsgd1na2vs0mg"},{"bike_id":"d3c35657-eade-4aef-a1bd-4113799a0294","system_id":"levelo_inurba_marseille","lat":43.309371,"lon":5.401449,"is_reserved":false,"is_disabled":false,"rental_uris":{"android":"levelo://app?vid=d3c35657-eade-4aef-a1bd-4113799a0294","ios":"levelo://app?vid=d3c35657-eade-4aef-a1bd-4113799a0294"},"vehicle_type_id":"4","last_reported":1718406484,"current_range_meters":24400,"station_id":"ce4bgvp2rcd13ifvqct0","pricing_plan_id":"cebpf4jnsgd1na2vs0mg"},{"bike_id":"d8656cd5-b60d-4f95-a340-131276f655cf","system_id":"levelo_inurba_marseille","lat":43.309371,"lon":5.401449,"is_reserved":false,"is_disabled":false,"rental_uris":{"android":"levelo://app?vid=d8656cd5-b60d-4f95-a340-131276f655cf","ios":"levelo://app?vid=d8656cd5-b60d-4f95-a340-131276f655cf"},"vehicle_type_id":"4","last_reported":1718406484,"current_range_meters":16800,"station_id":"ce4bgvp2rcd13ifvqct0","pricing_plan_id":"cebpf4jnsgd1na2vs0mg"},{"bike_id":"cd384962-10eb-4420-9148-fd52dff90fac","system_id":"levelo_inurba_marseille","lat":43.309371,"lon":5.401449,"is_reserved":false,"is_disabled":false,"rental_uris":{"android":"levelo://app?vid=cd384962-10eb-4420-9148-fd52dff90fac","ios":"levelo://app?vid=cd384962-10eb-4420-9148-fd52dff90fac"},"vehicle_type_id":"4","last_reported":1718406484,"current_range_meters":31600,"station_id":"ce4bgvp2rcd13ifvqct0","pricing_plan_id":"cebpf4jnsgd1na2vs0mg"},{"bike_id":"33c2206e-a9b3-48c4-8cbe-4e1c60995a82","system_id":"levelo_inurba_marseille","lat":43.309371,"lon":5.401449,"is_reserved":false,"is_disabled":false,"rental_uris":{"android":"levelo://app?vid=33c2206e-a9b3-48c4-8cbe-4e1c60995a82","ios":"levelo://app?vid=33c2206e-a9b3-48c4-8cbe-4e1c60995a82"},"vehicle_type_id":"4","last_reported":1718406484,"current_range_meters":31600,"station_id":"ce4bgvp2rcd13ifvqct0","pricing_plan_id":"cebpf4jnsgd1na2vs0mg"},{"bike_id":"6a583d71-4af0-45cd-a34d-358bcdb42815","system_id":"levelo_inurba_marseille","lat":43.309371,"lon":5.401449,"is_reserved":false,"is_disabled":false,"rental_uris":{"android":"levelo://app?vid=6a583d71-4af0-45cd-a34d-358bcdb42815","ios":"levelo://app?vid=6a583d71-4af0-45cd-a34d-358bcdb42815"},"vehicle_type_id":"4","last_reported":1718406484,"current_range_meters":23200,"station_id":"ce4bgvp2rcd13ifvqct0","pricing_plan_id":"cebpf4jnsgd1na2vs0mg"},{"bike_id":"73b865ba-6fce-46da-b936-3c32df6b610a","system_id":"levelo_inurba_marseille","lat":43.309371,"lon":5.401449,"is_reserved":false,"is_disabled":false,"rental_uris":{"android":"levelo://app?vid=73b865ba-6fce-46da-b936-3c32df6b610a","ios":"levelo://app?vid=73b865ba-6fce-46da-b936-3c32df6b610a"},"vehicle_type_id":"4","last_reported":1718406484,"current_range_meters":18000,"station_id":"ce4bgvp2rcd13ifvqct0","pricing_plan_id":"cebpf4jnsgd1na2vs0mg"},{"bike_id":"bc52dfaf-babc-4138-b1b2-343e61745268","system_id":"levelo_inurba_marseille","lat":43.312609,"lon":5.401662,"is_reserved":false,"is_disabled":false,"rental_uris":{"android":"levelo://app?vid=bc52dfaf-babc-4138-b1b2-343e61745268","ios":"levelo://app?vid=bc52dfaf-babc-4138-b1b2-343e61745268"},"vehicle_type_id":"4","last_reported":1718406484,"current_range_meters":23600,"station_id":"ce4bh092rcd13ifvqd30","pricing_plan_id":"cebpf4jnsgd1na2vs0mg"},{"bike_id":"decd8d51-d73a-4f25-83fd-1393b7e0e1e2","system_id":"levelo_inurba_marseille","lat":43.309371,"lon":5.401449,"is_reserved":false,"is_disabled":false,"rental_uris":{"android":"levelo://app?vid=decd8d51-d73a-4f25-83fd-1393b7e0e1e2","ios":"levelo://app?vid=decd8d51-d73a-4f25-83fd-1393b7e0e1e2"},"vehicle_type_id":"4","last_reported":1718406484,"current_range_meters":31600,"station_id":"ce4bgvp2rcd13ifvqct0","pricing_plan_id":"cebpf4jnsgd1na2vs0mg"},{"bike_id":"c1e709f4-1a1d-4ad6-be47-9942c1330282","system_id":"levelo_inurba_marseille","lat":43.309371,"lon":5.401449,"is_reserved":false,"is_disabled":false,"rental_uris":{"android":"levelo://app?vid=c1e709f4-1a1d-4ad6-be47-9942c1330282","ios":"levelo://app?vid=c1e709f4-1a1d-4ad6-be47-9942c1330282"},"vehicle_type_id":"4","last_reported":1718406484,"current_range_meters":31600,"station_id":"ce4bgvp2rcd13ifvqct0","pricing_plan_id":"cebpf4jnsgd1na2vs0mg"},{"bike_id":"dbdf4748-bb56-474d-b70c-54870d128ab0","system_id":"levelo_inurba_marseille","lat":43.309371,"lon":5.401449,"is_reserved":false,"is_disabled":false,"rental_uris":{"android":"levelo://app?vid=dbdf4748-bb56-474d-b70c-54870d128ab0","ios":"levelo://app?vid=dbdf4748-bb56-474d-b70c-54870d128ab0"},"vehicle_type_id":"4","last_reported":1718406484,"current_range_meters":26800,"station_id":"ce4bgvp2rcd13ifvqct0","pricing_plan_id":"cebpf4jnsgd1na2vs0mg"},{"bike_id":"976f5fbc-a1c5-41d0-ae26-746d3aed1f98","system_id":"levelo_inurba_marseille","lat":43.3064,"lon":5.40067,"is_reserved":false,"is_disabled":false,"rental_uris":{"android":"levelo://app?vid=976f5fbc-a1c5-41d0-ae26-746d3aed1f98","ios":"levelo://app?vid=976f5fbc-a1c5-41d0-ae26-746d3aed1f98"},"vehicle_type_id":"4","last_reported":1718406484,"current_range_meters":9600,"station_id":"ce4bh112rcd13ifvqda0","pricing_plan_id":"cebpf4jnsgd1na2vs0mg"},{"bike_id":"125c9286-5755-444b-b903-e00077231b8b","system_id":"levelo_inurba_marseille","lat":43.309371,"lon":5.401449,"is_reserved":false,"is_disabled":false,"rental_uris":{"android":"levelo://app?vid=125c9286-5755-444b-b903-e00077231b8b","ios":"levelo://app?vid=125c9286-5755-444b-b903-e00077231b8b"},"vehicle_type_id":"4","last_reported":1718406484,"current_range_meters":20400,"station_id":"ce4bgvp2rcd13ifvqct0","pricing_plan_id":"cebpf4jnsgd1na2vs0mg"},{"bike_id":"352b29e8-4023-4ef4-966e-a6a876353d9e","system_id":"levelo_inurba_marseille","lat":43.309371,"lon":5.401449,"is_reserved":false,"is_disabled":false,"rental_uris":{"android":"levelo://app?vid=352b29e8-4023-4ef4-966e-a6a876353d9e","ios":"levelo://app?vid=352b29e8-4023-4ef4-966e-a6a876353d9e"},"vehicle_type_id":"4","last_reported":1718406484,"current_range_meters":31600,"station_id":"ce4bgvp2rcd13ifvqct0","pricing_plan_id":"cebpf4jnsgd1na2vs0mg"},{"bike_id":"e26f94ae-4111-459e-9747-baf92248da64","system_id":"levelo_inurba_marseille","lat":43.309371,"lon":5.401449,"is_reserved":false,"is_disabled":false,"rental_uris":{"android":"levelo://app?vid=e26f94ae-4111-459e-9747-baf92248da64","ios":"levelo://app?vid=e26f94ae-4111-459e-9747-baf92248da64"},"vehicle_type_id":"4","last_reported":1718406484,"current_range_meters":30800,"station_id":"ce4bgvp2rcd13ifvqct0","pricing_plan_id":"cebpf4jnsgd1na2vs0mg"},{"bike_id":"12565578-aac2-489a-95b2-e34d1d0b5ad1","system_id":"levelo_inurba_marseille","lat":43.3064,"lon":5.40073,"is_reserved":false,"is_disabled":false,"rental_uris":{"android":"levelo://app?vid=12565578-aac2-489a-95b2-e34d1d0b5ad1","ios":"levelo://app?vid=12565578-aac2-489a-95b2-e34d1d0b5ad1"},"vehicle_type_id":"4","last_reported":1718406484,"current_range_meters":4000,"station_id":"ce4bh112rcd13ifvqda0","pricing_plan_id":"cebpf4jnsgd1na2vs0mg"},{"bike_id":"121de1e9-1f1b-4601-b1d9-4b72c58528a7","system_id":"levelo_inurba_marseille","lat":43.306367,"lon":5.400723,"is_reserved":false,"is_disabled":false,"rental_uris":{"android":"levelo://app?vid=121de1e9-1f1b-4601-b1d9-4b72c58528a7","ios":"levelo://app?vid=121de1e9-1f1b-4601-b1d9-4b72c58528a7"},"vehicle_type_id":"4","last_reported":1718406484,"current_range_meters":0,"station_id":"ce4bh112rcd13ifvqda0","pricing_plan_id":"cebpf4jnsgd1na2vs0mg"},{"bike_id":"3ab4e3ec-07f5-4c5f-8645-e3937796c552","system_id":"levelo_inurba_marseille","lat":43.337562,"lon":5.3745,"is_reserved":false,"is_disabled":false,"rental_uris":{"android":"levelo://app?vid=3ab4e3ec-07f5-4c5f-8645-e3937796c552","ios":"levelo://app?vid=3ab4e3ec-07f5-4c5f-8645-e3937796c552"},"vehicle_type_id":"4","last_reported":1718406484,"current_range_meters":12800,"station_id":"","pricing_plan_id":"cebpf4jnsgd1na2vs0mg"},{"bike_id":"4606f127-24f6-49ab-9db3-cf76bf609f2b","system_id":"levelo_inurba_marseille","lat":43.33766,"lon":5.37423,"is_reserved":false,"is_disabled":false,"rental_uris":{"android":"levelo://app?vid=4606f127-24f6-49ab-9db3-cf76bf609f2b","ios":"levelo://app?vid=4606f127-24f6-49ab-9db3-cf76bf609f2b"},"vehicle_type_id":"4","last_reported":1718406484,"current_range_meters":12400,"station_id":"","pricing_plan_id":"cebpf4jnsgd1na2vs0mg"},{"bike_id":"3524e4ef-d297-4600-a277-f5c2e7a85327","system_id":"levelo_inurba_marseille","lat":43.337643,"lon":5.37437,"is_reserved":false,"is_disabled":false,"rental_uris":{"android":"levelo://app?vid=3524e4ef-d297-4600-a277-f5c2e7a85327","ios":"levelo://app?vid=3524e4ef-d297-4600-a277-f5c2e7a85327"},"vehicle_type_id":"4","last_reported":1718406484,"current_range_meters":29600,"station_id":"","pricing_plan_id":"cebpf4jnsgd1na2vs0mg"},{"bike_id":"c4d3eab3-e48a-490b-b7c2-00f86fe95975","system_id":"levelo_inurba_marseille","lat":43.30653,"lon":5.40093,"is_reserved":false,"is_disabled":false,"rental_uris":{"android":"levelo://app?vid=c4d3eab3-e48a-490b-b7c2-00f86fe95975","ios":"levelo://app?vid=c4d3eab3-e48a-490b-b7c2-00f86fe95975"},"vehicle_type_id":"4","last_reported":1718406484,"current_range_meters":0,"station_id":"ce4bh112rcd13ifvqda0","pricing_plan_id":"cebpf4jnsgd1na2vs0mg"},{"bike_id":"7a0286e9-caff-41c7-9c9b-09ddc43202b0","system_id":"levelo_inurba_marseille","lat":43.30651,"lon":5.40095,"is_reserved":false,"is_disabled":false,"rental_uris":{"android":"levelo://app?vid=7a0286e9-caff-41c7-9c9b-09ddc43202b0","ios":"levelo://app?vid=7a0286e9-caff-41c7-9c9b-09ddc43202b0"},"vehicle_type_id":"4","last_reported":1718406484,"current_range_meters":12800,"station_id":"ce4bh112rcd13ifvqda0","pricing_plan_id":"cebpf4jnsgd1na2vs0mg"},{"bike_id":"63f784d3-1cb6-416a-9047-8885a6f80c6c","system_id":"levelo_inurba_marseille","lat":43.306412,"lon":5.401035,"is_reserved":false,"is_disabled":false,"rental_uris":{"android":"levelo://app?vid=63f784d3-1cb6-416a-9047-8885a6f80c6c","ios":"levelo://app?vid=63f784d3-1cb6-416a-9047-8885a6f80c6c"},"vehicle_type_id":"4","last_reported":1718406484,"current_range_meters":9200,"station_id":"ce4bh112rcd13ifvqda0","pricing_plan_id":"cebpf4jnsgd1na2vs0mg"},{"bike_id":"c4fcfe05-f8d7-40e8-9d5d-8996fbffaf92","system_id":"levelo_inurba_marseille","lat":43.301117,"lon":5.398795,"is_reserved":false,"is_disabled":false,"rental_uris":{"android":"levelo://app?vid=c4fcfe05-f8d7-40e8-9d5d-8996fbffaf92","ios":"levelo://app?vid=c4fcfe05-f8d7-40e8-9d5d-8996fbffaf92"},"vehicle_type_id":"4","last_reported":1718406484,"current_range_meters":20400,"station_id":"ce4bh0h2rcd13ifvqd40","pricing_plan_id":"cebpf4jnsgd1na2vs0mg"},{"bike_id":"aebaeb25-2eeb-4b4f-aeb2-301f1b5cf663","system_id":"levelo_inurba_marseille","lat":43.30143,"lon":5.39868,"is_reserved":false,"is_disabled":false,"rental_uris":{"android":"levelo://app?vid=aebaeb25-2eeb-4b4f-aeb2-301f1b5cf663","ios":"levelo://app?vid=aebaeb25-2eeb-4b4f-aeb2-301f1b5cf663"},"vehicle_type_id":"4","last_reported":1718406484,"current_range_meters":14400,"station_id":"ce4bh0h2rcd13ifvqd40","pricing_plan_id":"cebpf4jnsgd1na2vs0mg"},{"bike_id":"28b84eb8-950d-4acc-8728-82ca71b22fdc","system_id":"levelo_inurba_marseille","lat":43.301117,"lon":5.398795,"is_reserved":false,"is_disabled":false,"rental_uris":{"android":"levelo://app?vid=28b84eb8-950d-4acc-8728-82ca71b22fdc","ios":"levelo://app?vid=28b84eb8-950d-4acc-8728-82ca71b22fdc"},"vehicle_type_id":"4","last_reported":1718406484,"current_range_meters":29200,"station_id":"ce4bh0h2rcd13ifvqd40","pricing_plan_id":"cebpf4jnsgd1na2vs0mg"},{"bike_id":"05b18811-1b9c-42d5-9a1f-7c92986385b1","system_id":"levelo_inurba_marseille","lat":43.28732,"lon":5.36086,"is_reserved":false,"is_disabled":false,"rental_uris":{"android":"levelo://app?vid=05b18811-1b9c-42d5-9a1f-7c92986385b1","ios":"levelo://app?vid=05b18811-1b9c-42d5-9a1f-7c92986385b1"},"vehicle_type_id":"4","last_reported":1718406484,"current_range_meters":20000,"station_id":"cki0cbj6b192h4jlfktg","pricing_plan_id":"cebpf4jnsgd1na2vs0mg"},{"bike_id":"80b67cb5-8017-428e-98bc-c332a1916d83","system_id":"levelo_inurba_marseille","lat":43.28727,"lon":5.36078,"is_reserved":false,"is_disabled":false,"rental_uris":{"android":"levelo://app?vid=80b67cb5-8017-428e-98bc-c332a1916d83","ios":"levelo://app?vid=80b67cb5-8017-428e-98bc-c332a1916d83"},"vehicle_type_id":"4","last_reported":1718406484,"current_range_meters":21600,"station_id":"cki0cbj6b192h4jlfktg","pricing_plan_id":"cebpf4jnsgd1na2vs0mg"},{"bike_id":"e63352fd-c1ec-4e8a-b8ad-751917f8d1ef","system_id":"levelo_inurba_marseille","lat":43.28727,"lon":5.36078,"is_reserved":false,"is_disabled":false,"rental_uris":{"android":"levelo://app?vid=e63352fd-c1ec-4e8a-b8ad-751917f8d1ef","ios":"levelo://app?vid=e63352fd-c1ec-4e8a-b8ad-751917f8d1ef"},"vehicle_type_id":"4","last_reported":1718406484,"current_range_meters":21200,"station_id":"cki0cbj6b192h4jlfktg","pricing_plan_id":"cebpf4jnsgd1na2vs0mg"},{"bike_id":"529965d4-eff2-40ef-b52e-7c959612c1e2","system_id":"levelo_inurba_marseille","lat":43.28727,"lon":5.36078,"is_reserved":false,"is_disabled":false,"rental_uris":{"android":"levelo://app?vid=529965d4-eff2-40ef-b52e-7c959612c1e2","ios":"levelo://app?vid=529965d4-eff2-40ef-b52e-7c959612c1e2"},"vehicle_type_id":"4","last_reported":1718406484,"current_range_meters":28000,"station_id":"cki0cbj6b192h4jlfktg","pricing_plan_id":"cebpf4jnsgd1na2vs0mg"},{"bike_id":"c4911710-9e21-4225-b977-4bd90e260991","system_id":"levelo_inurba_marseille","lat":43.28727,"lon":5.36078,"is_reserved":false,"is_disabled":false,"rental_uris":{"android":"levelo://app?vid=c4911710-9e21-4225-b977-4bd90e260991","ios":"levelo://app?vid=c4911710-9e21-4225-b977-4bd90e260991"},"vehicle_type_id":"4","last_reported":1718406484,"current_range_meters":21200,"station_id":"cki0cbj6b192h4jlfktg","pricing_plan_id":"cebpf4jnsgd1na2vs0mg"},{"bike_id":"2ae90bd9-62d5-47a0-a998-3bd06d445e18","system_id":"levelo_inurba_marseille","lat":43.28727,"lon":5.36078,"is_reserved":false,"is_disabled":false,"rental_uris":{"android":"levelo://app?vid=2ae90bd9-62d5-47a0-a998-3bd06d445e18","ios":"levelo://app?vid=2ae90bd9-62d5-47a0-a998-3bd06d445e18"},"vehicle_type_id":"4","last_reported":1718406484,"current_range_meters":11200,"station_id":"cki0cbj6b192h4jlfktg","pricing_plan_id":"cebpf4jnsgd1na2vs0mg"},{"bike_id":"0706aaf1-6020-420c-b9c2-ee0fe327b536","system_id":"levelo_inurba_marseille","lat":43.291503,"lon":5.38754,"is_reserved":false,"is_disabled":false,"rental_uris":{"android":"levelo://app?vid=0706aaf1-6020-420c-b9c2-ee0fe327b536","ios":"levelo://app?vid=0706aaf1-6020-420c-b9c2-ee0fe327b536"},"vehicle_type_id":"4","last_reported":1718406484,"current_range_meters":6000,"station_id":"","pricing_plan_id":"cebpf4jnsgd1na2vs0mg"},{"bike_id":"83422739-f413-4eb4-b2aa-42194efbfa5f","system_id":"levelo_inurba_marseille","lat":43.28715,"lon":5.37383,"is_reserved":false,"is_disabled":false,"rental_uris":{"android":"levelo://app?vid=83422739-f413-4eb4-b2aa-42194efbfa5f","ios":"levelo://app?vid=83422739-f413-4eb4-b2aa-42194efbfa5f"},"vehicle_type_id":"4","last_reported":1718406484,"current_range_meters":0,"station_id":"ce4bh3p2rcd13ifvqdq0","pricing_plan_id":"cebpf4jnsgd1na2vs0mg"},{"bike_id":"1147d2a7-98fa-47f5-9deb-76af98550752","system_id":"levelo_inurba_marseille","lat":43.320045,"lon":5.415046,"is_reserved":false,"is_disabled":false,"rental_uris":{"android":"levelo://app?vid=1147d2a7-98fa-47f5-9deb-76af98550752","ios":"levelo://app?vid=1147d2a7-98fa-47f5-9deb-76af98550752"},"vehicle_type_id":"4","last_reported":1718406484,"current_range_meters":17600,"station_id":"ce4bhq92rcd13ifvqhkg","pricing_plan_id":"cebpf4jnsgd1na2vs0mg"},{"bike_id":"372eddea-849e-42dc-b189-2d13eea71dd8","system_id":"levelo_inurba_marseille","lat":43.2867,"lon":5.36338,"is_reserved":false,"is_disabled":false,"rental_uris":{"android":"levelo://app?vid=372eddea-849e-42dc-b189-2d13eea71dd8","ios":"levelo://app?vid=372eddea-849e-42dc-b189-2d13eea71dd8"},"vehicle_type_id":"4","last_reported":1718406484,"current_range_meters":26400,"station_id":"ce4bhah2rcd13ifvqej0","pricing_plan_id":"cebpf4jnsgd1na2vs0mg"},{"bike_id":"e19d1e06-9998-462c-8b59-ee51b0eb1958","system_id":"levelo_inurba_marseille","lat":43.286591,"lon":5.363346,"is_reserved":false,"is_disabled":false,"rental_uris":{"android":"levelo://app?vid=e19d1e06-9998-462c-8b59-ee51b0eb1958","ios":"levelo://app?vid=e19d1e06-9998-462c-8b59-ee51b0eb1958"},"vehicle_type_id":"4","last_reported":1718406484,"current_range_meters":17200,"station_id":"ce4bhah2rcd13ifvqej0","pricing_plan_id":"cebpf4jnsgd1na2vs0mg"},{"bike_id":"ce348c92-6504-416f-b496-9917bf1fc3bd","system_id":"levelo_inurba_marseille","lat":43.286591,"lon":5.363346,"is_reserved":false,"is_disabled":false,"rental_uris":{"android":"levelo://app?vid=ce348c92-6504-416f-b496-9917bf1fc3bd","ios":"levelo://app?vid=ce348c92-6504-416f-b496-9917bf1fc3bd"},"vehicle_type_id":"4","last_reported":1718406484,"current_range_meters":16000,"station_id":"ce4bhah2rcd13ifvqej0","pricing_plan_id":"cebpf4jnsgd1na2vs0mg"},{"bike_id":"9be18083-b93a-477c-97a4-1addb18a1d25","system_id":"levelo_inurba_marseille","lat":43.286593,"lon":5.363346,"is_reserved":false,"is_disabled":false,"rental_uris":{"android":"levelo://app?vid=9be18083-b93a-477c-97a4-1addb18a1d25","ios":"levelo://app?vid=9be18083-b93a-477c-97a4-1addb18a1d25"},"vehicle_type_id":"4","last_reported":1718406484,"current_range_meters":9600,"station_id":"ce4bhah2rcd13ifvqej0","pricing_plan_id":"cebpf4jnsgd1na2vs0mg"},{"bike_id":"b19cf88b-d1e6-47b7-ab76-b3f63feacf60","system_id":"levelo_inurba_marseille","lat":43.286591,"lon":5.363346,"is_reserved":false,"is_disabled":false,"rental_uris":{"android":"levelo://app?vid=b19cf88b-d1e6-47b7-ab76-b3f63feacf60","ios":"levelo://app?vid=b19cf88b-d1e6-47b7-ab76-b3f63feacf60"},"vehicle_type_id":"4","last_reported":1718406484,"current_range_meters":7600,"station_id":"ce4bhah2rcd13ifvqej0","pricing_plan_id":"cebpf4jnsgd1na2vs0mg"},{"bike_id":"70c24340-7306-44aa-91c3-222ddcaeceed","system_id":"levelo_inurba_marseille","lat":43.286591,"lon":5.363346,"is_reserved":false,"is_disabled":false,"rental_uris":{"android":"levelo://app?vid=70c24340-7306-44aa-91c3-222ddcaeceed","ios":"levelo://app?vid=70c24340-7306-44aa-91c3-222ddcaeceed"},"vehicle_type_id":"4","last_reported":1718406484,"current_range_meters":9600,"station_id":"ce4bhah2rcd13ifvqej0","pricing_plan_id":"cebpf4jnsgd1na2vs0mg"},{"bike_id":"52cca767-23a0-4adf-85ea-22d399189035","system_id":"levelo_inurba_marseille","lat":43.286591,"lon":5.363346,"is_reserved":false,"is_disabled":false,"rental_uris":{"android":"levelo://app?vid=52cca767-23a0-4adf-85ea-22d399189035","ios":"levelo://app?vid=52cca767-23a0-4adf-85ea-22d399189035"},"vehicle_type_id":"4","last_reported":1718406484,"current_range_meters":6800,"station_id":"ce4bhah2rcd13ifvqej0","pricing_plan_id":"cebpf4jnsgd1na2vs0mg"},{"bike_id":"37d3714a-2529-4e7a-bd93-ad3f1cdd9489","system_id":"levelo_inurba_marseille","lat":43.2866,"lon":5.36349,"is_reserved":false,"is_disabled":false,"rental_uris":{"android":"levelo://app?vid=37d3714a-2529-4e7a-bd93-ad3f1cdd9489","ios":"levelo://app?vid=37d3714a-2529-4e7a-bd93-ad3f1cdd9489"},"vehicle_type_id":"4","last_reported":1718406484,"current_range_meters":6400,"station_id":"ce4bhah2rcd13ifvqej0","pricing_plan_id":"cebpf4jnsgd1na2vs0mg"},{"bike_id":"fdc6445a-2902-40f2-b59c-75f917dcbb48","system_id":"levelo_inurba_marseille","lat":43.286961,"lon":5.373785,"is_reserved":false,"is_disabled":false,"rental_uris":{"android":"levelo://app?vid=fdc6445a-2902-40f2-b59c-75f917dcbb48","ios":"levelo://app?vid=fdc6445a-2902-40f2-b59c-75f917dcbb48"},"vehicle_type_id":"4","last_reported":1718406484,"current_range_meters":23200,"station_id":"ce4bh3p2rcd13ifvqdq0","pricing_plan_id":"cebpf4jnsgd1na2vs0mg"},{"bike_id":"8a93981a-5979-4165-a7da-a0da5c345924","system_id":"levelo_inurba_marseille","lat":43.28655,"lon":5.363483,"is_reserved":false,"is_disabled":false,"rental_uris":{"android":"levelo://app?vid=8a93981a-5979-4165-a7da-a0da5c345924","ios":"levelo://app?vid=8a93981a-5979-4165-a7da-a0da5c345924"},"vehicle_type_id":"4","last_reported":1718406484,"current_range_meters":12800,"station_id":"ce4bhah2rcd13ifvqej0","pricing_plan_id":"cebpf4jnsgd1na2vs0mg"},{"bike_id":"3405af6c-ac9a-4b74-81e3-2192e1ff488c","system_id":"levelo_inurba_marseille","lat":43.295194,"lon":5.39397,"is_reserved":false,"is_disabled":false,"rental_uris":{"android":"levelo://app?vid=3405af6c-ac9a-4b74-81e3-2192e1ff488c","ios":"levelo://app?vid=3405af6c-ac9a-4b74-81e3-2192e1ff488c"},"vehicle_type_id":"4","last_reported":1718406484,"current_range_meters":0,"station_id":"ce4bh292rcd13ifvqdf0","pricing_plan_id":"cebpf4jnsgd1na2vs0mg"},{"bike_id":"2acec2ae-b5e3-469f-a346-3184ca57547a","system_id":"levelo_inurba_marseille","lat":43.302759,"lon":5.400793,"is_reserved":false,"is_disabled":false,"rental_uris":{"android":"levelo://app?vid=2acec2ae-b5e3-469f-a346-3184ca57547a","ios":"levelo://app?vid=2acec2ae-b5e3-469f-a346-3184ca57547a"},"vehicle_type_id":"4","last_reported":1718406484,"current_range_meters":29600,"station_id":"ce4bgvh2rcd13ifvqcs0","pricing_plan_id":"cebpf4jnsgd1na2vs0mg"},