{"last_updated":1718043043,"ttl":30,"version":"2.2","data":{"bikes":[{"bike_id":"2148f8c4-27cd-4f60-9cc2-07ebfbd7ba08","system_id":"levelo_inurba_marseille","lat":43.312282,"lon":5.367221,"is_reserved":false,"is_disabled":false,"rental_uris":{"android":"levelo://app?vid=2148f8c4-27cd-4f60-9cc2-07ebfbd7ba08","ios":"levelo://app?vid=2148f8c4-27cd-4f60-9cc2-07ebfbd7ba08"},"vehicle_type_id":"4","last_reported":1718043043,"current_range_meters":26000,"station_id":"","pricing_plan_id":"cebpf4jnsgd1na2vs0mg"},{"bike_id":"3e5b1f24-472e-4023-89d4-94628a35253f","system_id":"levelo_inurba_marseille","lat":43.313391,"lon":5.36706,"is_reserved":false,"is_disabled":false,"rental_uris":{"android":"levelo://app?vid=3e5b1f24-472e-4023-89d4-94628a35253f","ios":"levelo://app?vid=3e5b1f24-472e-4023-89d4-94628a35253f"},"vehicle_type_id":"4","last_reported":1718043043,"current_range_meters":13200,"station_id":"ce4bgr92rcd13ifvqc6g","pricing_plan_id":"cebpf4jnsgd1na2vs0mg"},{"bike_id":"2fa6c624-5bb8-4d21-add5-9a0f9d5c5da3","system_id":"levelo_inurba_marseille","lat":43.312239,"lon":5.368562,"is_reserved":false,"is_disabled":false,"rental_uris":{"android":"levelo://app?vid=2fa6c624-5bb8-4d21-add5-9a0f9d5c5da3","ios":"levelo://app?vid=2fa6c624-5bb8-4d21-add5-9a0f9d5c5da3"},"vehicle_type_id":"4","last_reported":1718043043,"current_range_meters":10000,"station_id":"ce4bgl92rcd13ifvqbq0","pricing_plan_id":"cebpf4jnsgd1na2vs0mg"},{"bike_id":"1ffa0e7e-5ea1-40cd-b2ba-538077a3cd80","system_id":"levelo_inurba_marseille","lat":43.312239,"lon":5.368562,"is_reserved":false,"is_disabled":false,"rental_uris":{"android":"levelo://app?vid=1ffa0e7e-5ea1-40cd-b2ba-538077a3cd80","ios":"levelo://app?vid=1ffa0e7e-5ea1-40cd-b2ba-538077a3cd80"},"vehicle_type_id":"4","last_reported":1718043043,"current_range_meters":18800,"station_id":"ce4bgl92rcd13ifvqbq0","pricing_plan_id":"cebpf4jnsgd1na2vs0mg"},{"bike_id":"385a2cf9-c1b4-4ed2-a13e-9282862b7e3d","system_id":"levelo_inurba_marseille","lat":43.312239,"lon":5.368562,"is_reserved":false,"is_disabled":false,"rental_uris":{"android":"levelo://app?vid=385a2cf9-c1b4-4ed2-a13e-9282862b7e3d","ios":"levelo://app?vid=385a2cf9-c1b4-4ed2-a13e-9282862b7e3d"},"vehicle_type_id":"4","last_reported":1718043043,"current_range_meters":26400,"station_id":"ce4bgl92rcd13ifvqbq0","pricing_plan_id":"cebpf4jnsgd1na2vs0mg"},{"bike_id":"9a1aaad6-a8a2-43ab-be92-77bd4b9ad281","system_id":"levelo_inurba_marseille","lat":43.309076,"lon":5.368465,"is_reserved":false,"is_disabled":false,"rental_uris":{"android":"levelo://app?vid=9a1aaad6-a8a2-43ab-be92-77bd4b9ad281","ios":"levelo://app?vid=9a1aaad6-a8a2-43ab-be92-77bd4b9ad281"},"vehicle_type_id":"4","last_reported":1718043043,"current_range_meters":30400,"station_id":"ce4bgn92rcd13ifvqbvg","pricing_plan_id":"cebpf4jnsgd1na2vs0mg"},{"bike_id":"e39650b1-88ba-4eef-a298-a507a3c01d3b","system_id":"levelo_inurba_marseille","lat":43.314811,"lon":5.373103,"is_reserved":false,"is_disabled":false,"rental_uris":{"android":"levelo://app?vid=e39650b1-88ba-4eef-a298-a507a3c01d3b","ios":"levelo://app?vid=e39650b1-88ba-4eef-a298-a507a3c01d3b"},"vehicle_type_id":"4","last_reported":1718043043,"current_range_meters":12000,"station_id":"ce4bgt12rcd13ifvqcd0","pricing_plan_id":"cebpf4jnsgd1na2vs0mg"},{"bike_id":"9e9c781b-a709-45dd-8b76-ca8b36c0d09b","system_id":"levelo_inurba_marseille","lat":43.314926,"lon":5.373073,"is_reserved":false,"is_disabled":false,"rental_uris":{"android":"levelo://app?vid=9e9c781b-a709-45dd-8b76-ca8b36c0d09b","ios":"levelo://app?vid=9e9c781b-a709-45dd-8b76-ca8b36c0d09b"},"vehicle_type_id":"4","last_reported":1718043043,"current_range_meters":8000,"station_id":"ce4bgt12rcd13ifvqcd0","pricing_plan_id":"cebpf4jnsgd1na2vs0mg"},{"bike_id":"6408d891-c491-4661-a2ac-49f821d68f31","system_id":"levelo_inurba_marseille","lat":43.31501,"lon":5.37313,"is_reserved":false,"is_disabled":false,"rental_uris":{"android":"levelo://app?vid=6408d891-c491-4661-a2ac-49f821d68f31","ios":"levelo://app?vid=6408d891-c491-4661-a2ac-49f821d68f31"},"vehicle_type_id":"4","last_reported":1718043043,"current_range_meters":2000,"station_id":"","pricing_plan_id":"cebpf4jnsgd1na2vs0mg"},{"bike_id":"9bd324f7-936e-4611-848a-cabbca1ec8bd","system_id":"levelo_inurba_marseille","lat":43.309034,"lon":5.371783,"is_reserved":false,"is_disabled":false,"rental_uris":{"android":"levelo://app?vid=9bd324f7-936e-4611-848a-cabbca1ec8bd","ios":"levelo://app?vid=9bd324f7-936e-4611-848a-cabbca1ec8bd"},"vehicle_type_id":"4","last_reported":1718043043,"current_range_meters":26800,"station_id":"ce4bguh2rcd13ifvqckg","pricing_plan_id":"cebpf4jnsgd1na2vs0mg"},{"bike_id":"fc4c8014-102e-4cff-bea5-c5be38e6afaf","system_id":"levelo_inurba_marseille","lat":43.30883,"lon":5.37183,"is_reserved":false,"is_disabled":false,"rental_uris":{"android":"levelo://app?vid=fc4c8014-102e-4cff-bea5-c5be38e6afaf","ios":"levelo://app?vid=fc4c8014-102e-4cff-bea5-c5be38e6afaf"},"vehicle_type_id":"4","last_reported":1718043043,"current_range_meters":26800,"station_id":"ce4bguh2rcd13ifvqckg","pricing_plan_id":"cebpf4jnsgd1na2vs0mg"},{"bike_id":"e1fd2ba7-6419-4c1e-93dc-c43b173651f6","system_id":"levelo_inurba_marseille","lat":43.31459,"lon":5.37388,"is_reserved":false,"is_disabled":false,"rental_uris":{"android":"levelo://app?vid=e1fd2ba7-6419-4c1e-93dc-c43b173651f6","ios":"levelo://app?vid=e1fd2ba7-6419-4c1e-93dc-c43b173651f6"},"vehicle_type_id":"4","last_reported":1718043043,"current_range_meters":0,"station_id":"","pricing_plan_id":"cebpf4jnsgd1na2vs0mg"},{"bike_id":"945d7d67-dd6f-488f-a0f7-3e4848490d3f","system_id":"levelo_inurba_marseille","lat":43.309034,"lon":5.371783,"is_reserved":false,"is_disabled":false,"rental_uris":{"android":"levelo://app?vid=945d7d67-dd6f-488f-a0f7-3e4848490d3f","ios":"levelo://app?vid=945d7d67-dd6f-488f-a0f7-3e4848490d3f"},"vehicle_type_id":"4","last_reported":1718043043,"current_range_meters":31200,"station_id":"ce4bguh2rcd13ifvqckg","pricing_plan_id":"cebpf4jnsgd1na2vs0mg"},{"bike_id":"15eed7f3-2021-47b3-96d7-4eaaccee7201","system_id":"levelo_inurba_marseille","lat":43.31639,"lon":5.374014,"is_reserved":false,"is_disabled":false,"rental_uris":{"android":"levelo://app?vid=15eed7f3-2021-47b3-96d7-4eaaccee7201","ios":"levelo://app?vid=15eed7f3-2021-47b3-96d7-4eaaccee7201"},"vehicle_type_id":"4","last_reported":1718043043,"current_range_meters":0,"station_id":"","pricing_plan_id":"cebpf4jnsgd1na2vs0mg"},{"bike_id":"2820adfd-7c0c-4701-8f74-fd040eca192c","system_id":"levelo_inurba_marseille","lat":43.305368,"lon":5.367343,"is_reserved":false,"is_disabled":false,"rental_uris":{"android":"levelo://app?vid=2820adfd-7c0c-4701-8f74-fd040eca192c","ios":"levelo://app?vid=2820adfd-7c0c-4701-8f74-fd040eca192c"},"vehicle_type_id":"4","last_reported":1718043043,"current_range_meters":26400,"station_id":"ce4bgrp2rcd13ifvqc9g","pricing_plan_id":"cebpf4jnsgd1na2vs0mg"},{"bike_id":"60f2dc25-2eee-45d8-9ef4-7e5519f5fd6f","system_id":"levelo_inurba_marseille","lat":43.309887,"lon":5.376602,"is_reserved":false,"is_disabled":false,"rental_uris":{"android":"levelo://app?vid=60f2dc25-2eee-45d8-9ef4-7e5519f5fd6f","ios":"levelo://app?vid=60f2dc25-2eee-45d8-9ef4-7e5519f5fd6f"},"vehicle_type_id":"4","last_reported":1718043043,"current_range_meters":15600,"station_id":"","pricing_plan_id":"cebpf4jnsgd1na2vs0mg"},{"bike_id":"52b468d6-0fa6-4cd3-891f-3d4a9a20eb5c","system_id":"levelo_inurba_marseille","lat":43.305989,"lon":5.37225,"is_reserved":false,"is_disabled":false,"rental_uris":{"android":"levelo://app?vid=52b468d6-0fa6-4cd3-891f-3d4a9a20eb5c","ios":"levelo://app?vid=52b468d6-0fa6-4cd3-891f-3d4a9a20eb5c"},"vehicle_type_id":"4","last_reported":1718043043,"current_range_meters":12800,"station_id":"ce4bgqh2rcd13ifvqc4g","pricing_plan_id":"cebpf4jnsgd1na2vs0mg"},{"bike_id":"9acdbfee-06f8-4073-8fe5-9b4605733876","system_id":"levelo_inurba_marseille","lat":43.305989,"lon":5.37225,"is_reserved":false,"is_disabled":false,"rental_uris":{"android":"levelo://app?vid=9acdbfee-06f8-4073-8fe5-9b4605733876","ios":"levelo://app?vid=9acdbfee-06f8-4073-8fe5-9b4605733876"},"vehicle_type_id":"4","last_reported":1718043043,"current_range_meters":4400,"station_id":"ce4bgqh2rcd13ifvqc4g","pricing_plan_id":"cebpf4jnsgd1na2vs0mg"},{"bike_id":"e5cca797-8ce3-4d93-ae18-edd2fc54e9c8","system_id":"levelo_inurba_marseille","lat":43.305989,"lon":5.37225,"is_reserved":false,"is_disabled":false,"rental_uris":{"android":"levelo://app?vid=e5cca797-8ce3-4d93-ae18-edd2fc54e9c8","ios":"levelo://app?vid=e5cca797-8ce3-4d93-ae18-edd2fc54e9c8"},"vehicle_type_id":"4","last_reported":1718043043,"current_range_meters":2400,"station_id":"ce4bgqh2rcd13ifvqc4g","pricing_plan_id":"cebpf4jnsgd1na2vs0mg"},{"bike_id":"0ddd0b51-dc71-4b76-b4e3-b10ebeac3418","system_id":"levelo_inurba_marseille","lat":43.291675,"lon":5.371583,"is_reserved":false,"is_disabled":false,"rental_uris":{"android":"levelo://app?vid=0ddd0b51-dc71-4b76-b4e3-b10ebeac3418","ios":"levelo://app?vid=0ddd0b51-dc71-4b76-b4e3-b10ebeac3418"},"vehicle_type_id":"4","last_reported":1718043043,"current_range_meters":10800,"station_id":"ce4bha92rcd13ifvqeh0","pricing_plan_id":"cebpf4jnsgd1na2vs0mg"},{"bike_id":"c253ff5b-f3ad-4d40-853d-dcd4a8266415","system_id":"levelo_inurba_marseille","lat":43.311125,"lon":5.377624,"is_reserved":false,"is_disabled":false,"rental_uris":{"android":"levelo://app?vid=c253ff5b-f3ad-4d40-853d-dcd4a8266415","ios":"levelo://app?vid=c253ff5b-f3ad-4d40-853d-dcd4a8266415"},"vehicle_type_id":"4","last_reported":1718043043,"current_range_meters":4000,"station_id":"ce4bgt92rcd13ifvqcg0","pricing_plan_id":"cebpf4jnsgd1na2vs0mg"},{"bike_id":"cb73b6b3-ff82-42ae-8ac5-b5e8a8050ee6","system_id":"levelo_inurba_marseille","lat":43.311125,"lon":5.377624,"is_reserved":false,"is_disabled":false,"rental_uris":{"android":"levelo://app?vid=cb73b6b3-ff82-42ae-8ac5-b5e8a8050ee6","ios":"levelo://app?vid=cb73b6b3-ff82-42ae-8ac5-b5e8a8050ee6"},"vehicle_type_id":"4","last_reported":1718043043,"current_range_meters":15600,"station_id":"ce4bgt92rcd13ifvqcg0","pricing_plan_id":"cebpf4jnsgd1na2vs0mg"},{"bike_id":"4d382e20-1b05-4908-b3ed-40f9e70857c2","system_id":"levelo_inurba_marseille","lat":43.317075,"lon":5.377367,"is_reserved":false,"is_disabled":false,"rental_uris":{"android":"levelo://app?vid=4d382e20-1b05-4908-b3ed-40f9e70857c2","ios":"levelo://app?vid=4d382e20-1b05-4908-b3ed-40f9e70857c2"},"vehicle_type_id":"4","last_reported":1718043043,"current_range_meters":26000,"station_id":"ce4bgth2rcd13ifvqch0","pricing_plan_id":"cebpf4jnsgd1na2vs0mg"},{"bike_id":"78afef82-8654-4e40-9ffd-b15f07746e8c","system_id":"levelo_inurba_marseille","lat":43.303046,"lon":5.368981,"is_reserved":false,"is_disabled":false,"rental_uris":{"android":"levelo://app?vid=78afef82-8654-4e40-9ffd-b15f07746e8c","ios":"levelo://app?vid=78afef82-8654-4e40-9ffd-b15f07746e8c"},"vehicle_type_id":"4","last_reported":1718043043,"current_range_meters":13600,"station_id":"ce4bgqh2rcd13ifvqc5g","pricing_plan_id":"cebpf4jnsgd1na2vs0mg"},{"bike_id":"f2f1be72-87b1-4705-981e-7ea1a8502ebe","system_id":"levelo_inurba_marseille","lat":43.303046,"lon":5.368981,"is_reserved":false,"is_disabled":false,"rental_uris":{"android":"levelo://app?vid=f2f1be72-87b1-4705-981e-7ea1a8502ebe","ios":"levelo://app?vid=f2f1be72-87b1-4705-981e-7ea1a8502ebe"},"vehicle_type_id":"4","last_reported":1718043043,"current_range_meters":13200,"station_id":"ce4bgqh2rcd13ifvqc5g","pricing_plan_id":"cebpf4jnsgd1na2vs0mg"},{"bike_id":"aa5edcc1-054e-42b3-8fc1-252693776f3b","system_id":"levelo_inurba_marseille","lat":43.315289,"lon":5.380349,"is_reserved":false,"is_disabled":false,"rental_uris":{"android":"levelo://app?vid=aa5edcc1-054e-42b3-8fc1-252693776f3b","ios":"levelo://app?vid=aa5edcc1-054e-42b3-8fc1-252693776f3b"},"vehicle_type_id":"4","last_reported":1718043043,"current_range_meters":7200,"station_id":"ce4bhsp2rcd13ifvqi50","pricing_plan_id":"cebpf4jnsgd1na2vs0mg"},{"bike_id":"b4ac6065-f9cb-484a-992b-caca636c253f","system_id":"levelo_inurba_marseille","lat":43.315289,"lon":5.380349,"is_reserved":false,"is_disabled":false,"rental_uris":{"android":"levelo://app?vid=b4ac6065-f9cb-484a-992b-caca636c253f","ios":"levelo://app?vid=b4ac6065-f9cb-484a-992b-caca636c253f"},"vehicle_type_id":"4","last_reported":1718043043,"current_range_meters":24400,"station_id":"ce4bhsp2rcd13ifvqi50","pricing_plan_id":"cebpf4jnsgd1na2vs0mg"},{"bike_id":"b57fa076-0a37-4e4d-89b8-2482990c5aaf","system_id":"levelo_inurba_marseille","lat":43.315289,"lon":5.380349,"is_reserved":false,"is_disabled":false,"rental_uris":{"android":"levelo://app?vid=b57fa076-0a37-4e4d-89b8-2482990c5aaf","ios":"levelo://app?vid=b57fa076-0a37-4e4d-89b8-2482990c5aaf"},"vehicle_type_id":"4","last_reported":1718043043,"current_range_meters":28000,"station_id":"ce4bhsp2rcd13ifvqi50","pricing_plan_id":"cebpf4jnsgd1na2vs0mg"},{"bike_id":"fd8866fd-575c-423f-89e7-2b3ec8c86f48","system_id":"levelo_inurba_marseille","lat":43.301939,"lon":5.366286,"is_reserved":false,"is_disabled":false,"rental_uris":{"android":"levelo://app?vid=fd8866fd-575c-423f-89e7-2b3ec8c86f48","ios":"levelo://app?vid=fd8866fd-575c-423f-89e7-2b3ec8c86f48"},"vehicle_type_id":"4","last_reported":1718043043,"current_range_meters":17600,"station_id":"ce4bgrh2rcd13ifvqc8g","pricing_plan_id":"cebpf4jnsgd1na2vs0mg"},{"bike_id":"b79598b9-6232-492c-8723-eabc41d9f79b","system_id":"levelo_inurba_marseille","lat":43.301939,"lon":5.366286,"is_reserved":false,"is_disabled":false,"rental_uris":{"android":"levelo://app?vid=b79598b9-6232-492c-8723-eabc41d9f79b","ios":"levelo://app?vid=b79598b9-6232-492c-8723-eabc41d9f79b"},"vehicle_type_id":"4","last_reported":1718043043,"current_range_meters":0,"station_id":"ce4bgrh2rcd13ifvqc8g","pricing_plan_id":"cebpf4jnsgd1na2vs0mg"},{"bike_id":"873bd422-2c6a-45c0-870b-805812ced187","system_id":"levelo_inurba_marseille","lat":43.308012,"lon":5.381511,"is_reserved":false,"is_disabled":false,"rental_uris":{"android":"levelo://app?vid=873bd422-2c6a-45c0-870b-805812ced187","ios":"levelo://app?vid=873bd422-2c6a-45c0-870b-805812ced187"},"vehicle_type_id":"4","last_reported":1718043043,"current_range_meters":0,"station_id":"ce4bgt12rcd13ifvqce0","pricing_plan_id":"cebpf4jnsgd1na2vs0mg"},{"bike_id":"32ef3534-33f7-4a8e-ae08-041aade35a6d","system_id":"levelo_inurba_marseille","lat":43.308012,"lon":5.381511,"is_reserved":false,"is_disabled":false,"rental_uris":{"android":"levelo://app?vid=32ef3534-33f7-4a8e-ae08-041aade35a6d","ios":"levelo://app?vid=32ef3534-33f7-4a8e-ae08-041aade35a6d"},"vehicle_type_id":"4","last_reported":1718043043,"current_range_meters":0,"station_id":"ce4bgt12rcd13ifvqce0","pricing_plan_id":"cebpf4jnsgd1na2vs0mg"},{"bike_id":"55ed16c8-b21b-45d6-a490-2a3b57fef01b","system_id":"levelo_inurba_marseille","lat":43.304606,"lon":5.379026,"is_reserved":false,"is_disabled":false,"rental_uris":{"android":"levelo://app?vid=55ed16c8-b21b-45d6-a490-2a3b57fef01b","ios":"levelo://app?vid=55ed16c8-b21b-45d6-a490-2a3b57fef01b"},"vehicle_type_id":"4","last_reported":1718043043,"current_range_meters":1600,"station_id":"ce4bgup2rcd13ifvqcn0","pricing_plan_id":"cebpf4jnsgd1na2vs0mg"},{"bike_id":"54c2c94a-f498-414f-8863-af1eeef84b9e","system_id":"levelo_inurba_marseille","lat":43.324771,"lon":5.36557,"is_reserved":false,"is_disabled":false,"rental_uris":{"android":"levelo://app?vid=54c2c94a-f498-414f-8863-af1eeef84b9e","ios":"levelo://app?vid=54c2c94a-f498-414f-8863-af1eeef84b9e"},"vehicle_type_id":"4","last_reported":1718043043,"current_range_meters":27200,"station_id":"ce4bhs12rcd13ifvqhvg","pricing_plan_id":"cebpf4jnsgd1na2vs0mg"},{"bike_id":"97a89233-b186-4d20-b87e-ba011f1363de","system_id":"levelo_inurba_marseille","lat":43.32484,"lon":5.36567,"is_reserved":false,"is_disabled":false,"rental_uris":{"android":"levelo://app?vid=97a89233-b186-4d20-b87e-ba011f1363de","ios":"levelo://app?vid=97a89233-b186-4d20-b87e-ba011f1363de"},"vehicle_type_id":"4","last_reported":1718043043,"current_range_meters":0,"station_id":"ce4bhs12rcd13ifvqhvg","pricing_plan_id":"cebpf4jnsgd1na2vs0mg"},{"bike_id":"31f05fe5-e943-4ec8-bb18-57dde8b62088","system_id":"levelo_inurba_marseille","lat":43.324875,"lon":5.365779,"is_reserved":false,"is_disabled":false,"rental_uris":{"android":"levelo://app?vid=31f05fe5-e943-4ec8-bb18-57dde8b62088","ios":"levelo://app?vid=31f05fe5-e943-4ec8-bb18-57dde8b62088"},"vehicle_type_id":"4","last_reported":1718043043,"current_range_meters":20400,"station_id":"ce4bhs12rcd13ifvqhvg","pricing_plan_id":"cebpf4jnsgd1na2vs0mg"},{"bike_id":"b5877aad-e2cb-4dbe-92b8-2fd15675fc4a","system_id":"levelo_inurba_marseille","lat":43.324771,"lon":5.36557,"is_reserved":false,"is_disabled":false,"rental_uris":{"android":"levelo://app?vid=b5877aad-e2cb-4dbe-92b8-2fd15675fc4a","ios":"levelo://app?vid=b5877aad-e2cb-4dbe-92b8-2fd15675fc4a"},"vehicle_type_id":"4","last_reported":1718043043,"current_range_meters":25600,"station_id":"ce4bhs12rcd13ifvqhvg","pricing_plan_id":"cebpf4jnsgd1na2vs0mg"},{"bike_id":"47599509-9eaa-4545-92ce-c9d3f3d03c5f","system_id":"levelo_inurba_marseille","lat":43.310804,"lon":5.38359,"is_reserved":false,"is_disabled":false,"rental_uris":{"android":"levelo://app?vid=47599509-9eaa-4545-92ce-c9d3f3d03c5f","ios":"levelo://app?vid=47599509-9eaa-4545-92ce-c9d3f3d03c5f"},"vehicle_type_id":"4","last_reported":1718043043,"current_range_meters":400,"station_id":"ce4bgv92rcd13ifvqcr0","pricing_plan_id":"cebpf4jnsgd1na2vs0mg"},{"bike_id":"97bb85be-22d7-4e24-a5b9-2163770045e3","system_id":"levelo_inurba_marseille","lat":43.302784,"lon":5.377158,"is_reserved":false,"is_disabled":false,"rental_uris":{"android":"levelo://app?vid=97bb85be-22d7-4e24-a5b9-2163770045e3","ios":"levelo://app?vid=97bb85be-22d7-4e24-a5b9-2163770045e3"},"vehicle_type_id":"4","last_reported":1718043043,"current_range_meters":26400,"station_id":"ce4bguh2rcd13ifvqcj0","pricing_plan_id":"cebpf4jnsgd1na2vs0mg"},{"bike_id":"732db763-6b26-4060-afd9-23e2827ca8fb","system_id":"levelo_inurba_marseille","lat":43.301429,"lon":5.37413,"is_reserved":false,"is_disabled":false,"rental_uris":{"android":"levelo://app?vid=732db763-6b26-4060-afd9-23e2827ca8fb","ios":"levelo://app?vid=732db763-6b26-4060-afd9-23e2827ca8fb"},"vehicle_type_id":"4","last_reported":1718043043,"current_range_meters":0,"station_id":"ce4bgs92rcd13ifvqcc0","pricing_plan_id":"cebpf4jnsgd1na2vs0mg"},{"bike_id":"251cecf0-9213-4d84-aa71-45edd27894f3","system_id":"levelo_inurba_marseille","lat":43.301429,"lon":5.37413,"is_reserved":false,"is_disabled":false,"rental_uris":{"android":"levelo://app?vid=251cecf0-9213-4d84-aa71-45edd27894f3","ios":"levelo://app?vid=251cecf0-9213-4d84-aa71-45edd27894f3"},"vehicle_type_id":"4","last_reported":1718043043,"current_range_meters":14800,"station_id":"ce4bgs92rcd13ifvqcc0","pricing_plan_id":"cebpf4jnsgd1na2vs0mg"},{"bike_id":"9b2f4846-59a5-4cff-861b-e8045bc2841f","system_id":"levelo_inurba_marseille","lat":43.31997,"lon":5.38143,"is_reserved":false,"is_disabled":false,"rental_uris":{"android":"levelo://app?vid=9b2f4846-59a5-4cff-861b-e8045bc2841f","ios":"levelo://app?vid=9b2f4846-59a5-4cff-861b-e8045bc2841f"},"vehicle_type_id":"4","last_reported":1718043043,"current_range_meters":0,"station_id":"ce4bhr12rcd13ifvqhpg","pricing_plan_id":"cebpf4jnsgd1na2vs0mg"},{"bike_id":"c4087748-8607-4a66-8a94-b65754a4cb91","system_id":"levelo_inurba_marseille","lat":43.313571,"lon":5.384829,"is_reserved":false,"is_disabled":false,"rental_uris":{"android":"levelo://app?vid=c4087748-8607-4a66-8a94-b65754a4cb91","ios":"levelo://app?vid=c4087748-8607-4a66-8a94-b65754a4cb91"},"vehicle_type_id":"4","last_reported":1718043043,"current_range_meters":28800,"station_id":"ce4bgt92rcd13ifvqcf0","pricing_plan_id":"cebpf4jnsgd1na2vs0mg"},{"bike_id":"1cd7a529-7aef-4e20-869b-3221dd695bc4","system_id":"levelo_inurba_marseille","lat":43.313571,"lon":5.384829,"is_reserved":false,"is_disabled":false,"rental_uris":{"android":"levelo://app?vid=1cd7a529-7aef-4e20-869b-3221dd695bc4","ios":"levelo://app?vid=1cd7a529-7aef-4e20-869b-3221dd695bc4"},"vehicle_type_id":"4","last_reported":1718043043,"current_range_meters":1600,"station_id":"ce4bgt92rcd13ifvqcf0","pricing_plan_id":"cebpf4jnsgd1na2vs0mg"},{"bike_id":"6074e2ba-d1f1-464d-8b2c-f99c74b9dab0","system_id":"levelo_inurba_marseille","lat":43.313571,"lon":5.384829,"is_reserved":false,"is_disabled":false,"rental_uris":{"android":"levelo://app?vid=6074e2ba-d1f1-464d-8b2c-f99c74b9dab0","ios":"levelo://app?vid=6074e2ba-d1f1-464d-8b2c-f99c74b9dab0"},"vehicle_type_id":"4","last_reported":1718043043,"current_range_meters":25600,"station_id":"ce4bgt92rcd13ifvqcf0","pricing_plan_id":"cebpf4jnsgd1na2vs0mg"},{"bike_id":"f6fafb32-9fc2-451b-b759-00021ae15fcc","system_id":"levelo_inurba_marseille","lat":43.313571,"lon":5.384829,"is_reserved":false,"is_disabled":false,"rental_uris":{"android":"levelo://app?vid=f6fafb32-9fc2-451b-b759-00021ae15fcc","ios":"levelo://app?vid=f6fafb32-9fc2-451b-b759-00021ae15fcc"},"vehicle_type_id":"4","last_reported":1718043043,"current_range_meters":12000,"station_id":"ce4bgt92rcd13ifvqcf0","pricing_plan_id":"cebpf4jnsgd1na2vs0mg"},{"bike_id":"d43c35ba-243d-480a-866d-48dcb7251a76","system_id":"levelo_inurba_marseille","lat":43.29935,"lon":5.36548,"is_reserved":false,"is_disabled":false,"rental_uris":{"android":"levelo://app?vid=d43c35ba-243d-480a-866d-48dcb7251a76","ios":"levelo://app?vid=d43c35ba-243d-480a-866d-48dcb7251a76"},"vehicle_type_id":"4","last_reported":1718043043,"current_range_meters":0,"station_id":"ce4bgm92rcd13ifvqbr0","pricing_plan_id":"cebpf4jnsgd1na2vs0mg"},{"bike_id":"d43ca46b-1f56-43dd-ae29-a1fb43705ae8","system_id":"levelo_inurba_marseille","lat":43.299724,"lon":5.371829,"is_reserved":false,"is_disabled":false,"rental_uris":{"android":"levelo://app?vid=d43ca46b-1f56-43dd-ae29-a1fb43705ae8","ios":"levelo://app?vid=d43ca46b-1f56-43dd-ae29-a1fb43705ae8"},"vehicle_type_id":"4","last_reported":1718043043,"current_range_meters":0,"station_id":"ce4bgr92rcd13ifvqc7g","pricing_plan_id":"cebpf4jnsgd1na2vs0mg"},{"bike_id":"4b971de1-1e09-4a8e-aec5-471d33f43360","system_id":"levelo_inurba_marseille","lat":43.299724,"lon":5.371829,"is_reserved":false,"is_disabled":false,"rental_uris":{"android":"levelo://app?vid=4b971de1-1e09-4a8e-aec5-471d33f43360","ios":"levelo://app?vid=4b971de1-1e09-4a8e-aec5-471d33f43360"},"vehicle_type_id":"4","last_reported":1718043043,"current_range_meters":0,"station_id":"ce4bgr92rcd13ifvqc7g","pricing_plan_id":"cebpf4jnsgd1na2vs0mg"},{"bike_id":"a1d54eab-1195-43bd-ac2a-ccfd7179edcd","system_id":"levelo_inurba_marseille","lat":43.299724,"lon":5.371829,"is_reserved":false,"is_disabled":false,"rental_uris":{"android":"levelo://app?vid=a1d54eab-1195-43bd-ac2a-ccfd7179edcd","ios":"levelo://app?vid=a1d54eab-1195-43bd-ac2a-ccfd7179edcd"},"vehicle_type_id":"4","last_reported":1718043043,"current_range_meters":3600,"station_id":"ce4bgr92rcd13ifvqc7g","pricing_plan_id":"cebpf4jnsgd1na2vs0mg"},{"bike_id":"63561957-3aec-4071-8672-130cd6a9295c","system_id":"levelo_inurba_marseille","lat":43.299724,"lon":5.371829,"is_reserved":false,"is_disabled":false,"rental_uris":{"android":"levelo://app?vid=63561957-3aec-4071-8672-130cd6a9295c","ios":"levelo://app?vid=63561957-3aec-4071-8672-130cd6a9295c"},"vehicle_type_id":"4","last_reported":1718043043,"current_range_meters":2000,"station_id":"ce4bgr92rcd13ifvqc7g","pricing_plan_id":"cebpf4jnsgd1na2vs0mg"},{"bike_id":"a8605b35-5517-428f-b2e7-da7535166037","system_id":"levelo_inurba_marseille","lat":43.298812,"lon":5.364964,"is_reserved":false,"is_disabled":false,"rental_uris":{"android":"levelo://app?vid=a8605b35-5517-428f-b2e7-da7535166037","ios":"levelo://app?vid=a8605b35-5517-428f-b2e7-da7535166037"},"vehicle_type_id":"4","last_reported":1718043043,"current_range_meters":6800,"station_id":"ce4bgm92rcd13ifvqbr0","pricing_plan_id":"cebpf4jnsgd1na2vs0mg"},{"bike_id":"4859f4a3-d1f1-4921-b81f-2e55859d6527","system_id":"levelo_inurba_marseille","lat":43.298433,"lon":5.362774,"is_reserved":false,"is_disabled":false,"rental_uris":{"android":"levelo://app?vid=4859f4a3-d1f1-4921-b81f-2e55859d6527","ios":"levelo://app?vid=4859f4a3-d1f1-4921-b81f-2e55859d6527"},"vehicle_type_id":"4","last_reported":1718043043,"current_range_meters":21200,"station_id":"ce4bgpp2rcd13ifvqc3g","pricing_plan_id":"cebpf4jnsgd1na2vs0mg"},{"bike_id":"44633568-3934-497b-8674-62af8ef7d3fb","system_id":"levelo_inurba_marseille","lat":43.30747,"lon":5.38592,"is_reserved":false,"is_disabled":false,"rental_uris":{"android":"levelo://app?vid=44633568-3934-497b-8674-62af8ef7d3fb","ios":"levelo://app?vid=44633568-3934-497b-8674-62af8ef7d3fb"},"vehicle_type_id":"4","last_reported":1718043043,"current_range_meters":18800,"station_id":"","pricing_plan_id":"cebpf4jnsgd1na2vs0mg"},{"bike_id":"a9e9911d-5428-4289-8956-36f475ae72c5","system_id":"levelo_inurba_marseille","lat":43.311722,"lon":5.387247,"is_reserved":false,"is_disabled":false,"rental_uris":{"android":"levelo://app?vid=a9e9911d-5428-4289-8956-36f475ae72c5","ios":"levelo://app?vid=a9e9911d-5428-4289-8956-36f475ae72c5"},"vehicle_type_id":"4","last_reported":1718043043,"current_range_meters":27600,"station_id":"ce4bgv12rcd13ifvqcp0","pricing_plan_id":"cebpf4jnsgd1na2vs0mg"},{"bike_id":"d27128ee-5f3e-4056-85a6-b1ddf082fb68","system_id":"levelo_inurba_marseille","lat":43.297163,"lon":5.365866,"is_reserved":false,"is_disabled":false,"rental_uris":{"android":"levelo://app?vid=d27128ee-5f3e-4056-85a6-b1ddf082fb68","ios":"levelo://app?vid=d27128ee-5f3e-4056-85a6-b1ddf082fb68"},"vehicle_type_id":"4","last_reported":1718043043,"current_range_meters":1200,"station_id":"ce4bgn12rcd13ifvqbt0","pricing_plan_id":"cebpf4jnsgd1na2vs0mg"},{"bike_id":"38644aed-3b93-4ee1-9fe7-72212d4fe0d0","system_id":"levelo_inurba_marseille","lat":43.296921,"lon":5.376579,"is_reserved":false,"is_disabled":false,"rental_uris":{"android":"levelo://app?vid=38644aed-3b93-4ee1-9fe7-72212d4fe0d0","ios":"levelo://app?vid=38644aed-3b93-4ee1-9fe7-72212d4fe0d0"},"vehicle_type_id":"4","last_reported":1718043043,"current_range_meters":30800,"station_id":"ce4bgkh2rcd13ifvqbl0","pricing_plan_id":"cebpf4jnsgd1na2vs0mg"},{"bike_id":"d91ca0e4-4181-4c41-9702-acd71868c0c7","system_id":"levelo_inurba_marseille","lat":43.296129,"lon":5.370777,"is_reserved":false,"is_disabled":false,"rental_uris":{"android":"levelo://app?vid=d91ca0e4-4181-4c41-9702-acd71868c0c7","ios":"levelo://app?vid=d91ca0e4-4181-4c41-9702-acd71868c0c7"},"vehicle_type_id":"4","last_reported":1718043043,"current_range_meters":2400,"station_id":"ce4bgnh2rcd13ifvqc0g","pricing_plan_id":"cebpf4jnsgd1na2vs0mg"},{"bike_id":"e7e98cc8-387d-4708-a54d-8d94673a5da4","system_id":"levelo_inurba_marseille","lat":43.296131,"lon":5.370791,"is_reserved":false,"is_disabled":false,"rental_uris":{"android":"levelo://app?vid=e7e98cc8-387d-4708-a54d-8d94673a5da4","ios":"levelo://app?vid=e7e98cc8-387d-4708-a54d-8d94673a5da4"},"vehicle_type_id":"4","last_reported":1718043043,"current_range_meters":8800,"station_id":"ce4bgnh2rcd13ifvqc0g","pricing_plan_id":"cebpf4jnsgd1na2vs0mg"},{"bike_id":"6a01cfbf-382e-4fa0-8500-f8028481a4d4","system_id":"levelo_inurba_marseille","lat":43.295279,"lon":5.375048,"is_reserved":false,"is_disabled":false,"rental_uris":{"android":"levelo://app?vid=6a01cfbf-382e-4fa0-8500-f8028481a4d4","ios":"levelo://app?vid=6a01cfbf-382e-4fa0-8500-f8028481a4d4"},"vehicle_type_id":"4","last_reported":1718043043,"current_range_meters":2000,"station_id":"ce4bgkp2rcd13ifvqbmg","pricing_plan_id":"cebpf4jnsgd1na2vs0mg"},{"bike_id":"7f2250f3-f1d1-4cbc-aa9b-4d578dbe08ef","system_id":"levelo_inurba_marseille","lat":43.296348,"lon":5.373467,"is_reserved":false,"is_disabled":false,"rental_uris":{"android":"levelo://app?vid=7f2250f3-f1d1-4cbc-aa9b-4d578dbe08ef","ios":"levelo://app?vid=7f2250f3-f1d1-4cbc-aa9b-4d578dbe08ef"},"vehicle_type_id":"4","last_reported":1718043043,"current_range_meters":0,"station_id":"","pricing_plan_id":"cebpf4jnsgd1na2vs0mg"},{"bike_id":"ad715637-58ab-4618-bd19-6437ba525832","system_id":"levelo_inurba_marseille","lat":43.29719,"lon":5.37691,"is_reserved":false,"is_disabled":false,"rental_uris":{"android":"levelo://app?vid=ad715637-58ab-4618-bd19-6437ba525832","ios":"levelo://app?vid=ad715637-58ab-4618-bd19-6437ba525832"},"vehicle_type_id":"4","last_reported":1718043043,"current_range_meters":25200,"station_id":"","pricing_plan_id":"cebpf4jnsgd1na2vs0mg"},{"bike_id":"11e7acee-f813-46a5-9c11-5a0dcffdd82a","system_id":"levelo_inurba_marseille","lat":43.299028,"lon":5.381509,"is_reserved":false,"is_disabled":false,"rental_uris":{"android":"levelo://app?vid=11e7acee-f813-46a5-9c11-5a0dcffdd82a","ios":"levelo://app?vid=11e7acee-f813-46a5-9c11-5a0dcffdd82a"},"vehicle_type_id":"4","last_reported":1718043043,"current_range_meters":10000,"station_id":"ce4bgj12rcd13ifvqbc0","pricing_plan_id":"cebpf4jnsgd1na2vs0mg"},{"bike_id":"dc7f4fee-96e6-4282-a7b9-a2e15ecbcf20","system_id":"levelo_inurba_marseille","lat":43.30952,"lon":5.39033,"is_reserved":false,"is_disabled":false,"rental_uris":{"android":"levelo://app?vid=dc7f4fee-96e6-4282-a7b9-a2e15ecbcf20","ios":"levelo://app?vid=dc7f4fee-96e6-4282-a7b9-a2e15ecbcf20"},"vehicle_type_id":"4","last_reported":1718043043,"current_range_meters":2400,"station_id":"ce4bgup2rcd13ifvqco0","pricing_plan_id":"cebpf4jnsgd1na2vs0mg"},{"bike_id":"1ad2a8fe-ecf7-4f51-965c-18cfee1c9fb7","system_id":"levelo_inurba_marseille","lat":43.309589,"lon":5.390258,"is_reserved":false,"is_disabled":false,"rental_uris":{"android":"levelo://app?vid=1ad2a8fe-ecf7-4f51-965c-18cfee1c9fb7","ios":"levelo://app?vid=1ad2a8fe-ecf7-4f51-965c-18cfee1c9fb7"},"vehicle_type_id":"4","last_reported":1718043043,"current_range_meters":0,"station_id":"ce4bgup2rcd13ifvqco0","pricing_plan_id":"cebpf4jnsgd1na2vs0mg"},{"bike_id":"55803ebc-4289-4ab4-9fad-9228c1794cd9","system_id":"levelo_inurba_marseille","lat":43.309589,"lon":5.390258,"is_reserved":false,"is_disabled":false,"rental_uris":{"android":"levelo://app?vid=55803ebc-4289-4ab4-9fad-9228c1794cd9","ios":"levelo://app?vid=55803ebc-4289-4ab4-9fad-9228c1794cd9"},"vehicle_type_id":"4","last_reported":1718043043,"current_range_meters":18800,"station_id":"ce4bgup2rcd13ifvqco0","pricing_plan_id":"cebpf4jnsgd1na2vs0mg"},{"bike_id":"8c77690f-3886-413a-91fd-8db50332479b","system_id":"levelo_inurba_marseille","lat":43.29713,"lon":5.37865,"is_reserved":false,"is_disabled":false,"rental_uris":{"android":"levelo://app?vid=8c77690f-3886-413a-91fd-8db50332479b","ios":"levelo://app?vid=8c77690f-3886-413a-91fd-8db50332479b"},"vehicle_type_id":"4","last_reported":1718043043,"current_range_meters":30400,"station_id":"","pricing_plan_id":"cebpf4jnsgd1na2vs0mg"},{"bike_id":"83a6a852-4f45-4d2a-9794-3bc21568fed9","system_id":"levelo_inurba_marseille","lat":43.299243,"lon":5.374807,"is_reserved":false,"is_disabled":false,"rental_uris":{"android":"levelo://app?vid=83a6a852-4f45-4d2a-9794-3bc21568fed9","ios":"levelo://app?vid=83a6a852-4f45-4d2a-9794-3bc21568fed9"},"vehicle_type_id":"4","last_reported":1718043043,"current_range_meters":28400,"station_id":"ce4bgjh2rcd13ifvqbg0","pricing_plan_id":"cebpf4jnsgd1na2vs0mg"},{"bike_id":"51327384-f7fd-4d6e-ade6-78b4751e9dfc","system_id":"levelo_inurba_marseille","lat":43.295748,"lon":5.37522,"is_reserved":false,"is_disabled":false,"rental_uris":{"android":"levelo://app?vid=51327384-f7fd-4d6e-ade6-78b4751e9dfc","ios":"levelo://app?vid=51327384-f7fd-4d6e-ade6-78b4751e9dfc"},"vehicle_type_id":"4","last_reported":1718043043,"current_range_meters":14400,"station_id":"ce4bgh92rcd13ifvqb50","pricing_plan_id":"cebpf4jnsgd1na2vs0mg"},{"bike_id":"b8db8391-bba3-43c5-818a-ee545f1b3a3b","system_id":"levelo_inurba_marseille","lat":43.295748,"lon":5.37522,"is_reserved":false,"is_disabled":false,"rental_uris":{"android":"levelo://app?vid=b8db8391-bba3-43c5-818a-ee545f1b3a3b","ios":"levelo://app?vid=b8db8391-bba3-43c5-818a-ee545f1b3a3b"},"vehicle_type_id":"4","last_reported":1718043043,"current_range_meters":22400,"station_id":"ce4bgh92rcd13ifvqb50","pricing_plan_id":"cebpf4jnsgd1na2vs0mg"},{"bike_id":"1a8f799d-6816-4a79-b340-68168338cc13","system_id":"levelo_inurba_marseille","lat":43.298037,"lon":5.381066,"is_reserved":false,"is_disabled":false,"rental_uris":{"android":"levelo://app?vid=1a8f799d-6816-4a79-b340-68168338cc13","ios":"levelo://app?vid=1a8f799d-6816-4a79-b340-68168338cc13"},"vehicle_type_id":"4","last_reported":1718043043,"current_range_meters":5200,"station_id":"ce4bgip2rcd13ifvqbb0","pricing_plan_id":"cebpf4jnsgd1na2vs0mg"},{"bike_id":"63860d33-41b9-4cf1-9e11-906009e2bb4f","system_id":"levelo_inurba_marseille","lat":43.296277,"lon":5.377108,"is_reserved":false,"is_disabled":false,"rental_uris":{"android":"levelo://app?vid=63860d33-41b9-4cf1-9e11-906009e2bb4f","ios":"levelo://app?vid=63860d33-41b9-4cf1-9e11-906009e2bb4f"},"vehicle_type_id":"4","last_reported":1718043043,"current_range_meters":1600,"station_id":"ce4bgi92rcd13ifvqb90","pricing_plan_id":"cebpf4jnsgd1na2vs0mg"},{"bike_id":"6d61ef17-75ec-4375-ba5d-3cbdcab8627a","system_id":"levelo_inurba_marseille","lat":43.296277,"lon":5.377108,"is_reserved":false,"is_disabled":false,"rental_uris":{"android":"levelo://app?vid=6d61ef17-75ec-4375-ba5d-3cbdcab8627a","ios":"levelo://app?vid=6d61ef17-75ec-4375-ba5d-3cbdcab8627a"},"vehicle_type_id":"4","last_reported":1718043043,"current_range_meters":0,"station_id":"ce4bgi92rcd13ifvqb90","pricing_plan_id":"cebpf4jnsgd1na2vs0mg"},{"bike_id":"8c5e5342-db97-417b-97a5-42fc88074eaa","system_id":"levelo_inurba_marseille","lat":43.29603,"lon":5.37726,"is_reserved":false,"is_disabled":false,"rental_uris":{"android":"levelo://app?vid=8c5e5342-db97-417b-97a5-42fc88074eaa","ios":"levelo://app?vid=8c5e5342-db97-417b-97a5-42fc88074eaa"},"vehicle_type_id":"4","last_reported":1718043043,"current_range_meters":0,"station_id":"ce4bgi92rcd13ifvqb90","pricing_plan_id":"cebpf4jnsgd1na2vs0mg"},{"bike_id":"adb60712-2fe4-42ec-a17e-6794804fb674","system_id":"levelo_inurba_marseille","lat":43.295279,"lon":5.375048,"is_reserved":false,"is_disabled":false,"rental_uris":{"android":"levelo://app?vid=adb60712-2fe4-42ec-a17e-6794804fb674","ios":"levelo://app?vid=adb60712-2fe4-42ec-a17e-6794804fb674"},"vehicle_type_id":"4","last_reported":1718043043,"current_range_meters":4400,"station_id":"ce4bgkp2rcd13ifvqbmg","pricing_plan_id":"cebpf4jnsgd1na2vs0mg"},{"bike_id":"cda1139f-d640-4ec7-b5f5-fa03c75651ad","system_id":"levelo_inurba_marseille","lat":43.298556,"lon":5.383843,"is_reserved":false,"is_disabled":false,"rental_uris":{"android":"levelo://app?vid=cda1139f-d640-4ec7-b5f5-fa03c75651ad","ios":"levelo://app?vid=cda1139f-d640-4ec7-b5f5-fa03c75651ad"},"vehicle_type_id":"4","last_reported":1718043043,"current_range_meters":26000,"station_id":"","pricing_plan_id":"cebpf4jnsgd1na2vs0mg"},{"bike_id":"ad269404-14c7-42ce-a853-ee3b545823ac","system_id":"levelo_inurba_marseille","lat":43.294637,"lon":5.358562,"is_reserved":false,"is_disabled":false,"rental_uris":{"android":"levelo://app?vid=ad269404-14c7-42ce-a853-ee3b545823ac","ios":"levelo://app?vid=ad269404-14c7-42ce-a853-ee3b545823ac"},"vehicle_type_id":"4","last_reported":1718043043,"current_range_meters":0,"station_id":"","pricing_plan_id":"cebpf4jnsgd1na2vs0mg"},{"bike_id":"95c3eefc-14b5-4e74-8f9f-9623766bd34b","system_id":"levelo_inurba_marseille","lat":43.32367,"lon":5.388836,"is_reserved":false,"is_disabled":false,"rental_uris":{"android":"levelo://app?vid=95c3eefc-14b5-4e74-8f9f-9623766bd34b","ios":"levelo://app?vid=95c3eefc-14b5-4e74-8f9f-9623766bd34b"},"vehicle_type_id":"4","last_reported":1718043043,"current_range_meters":18400,"station_id":"ce4bhqp2rcd13ifvqhog","pricing_plan_id":"cebpf4jnsgd1na2vs0mg"},{"bike_id":"8c21ce60-68a1-416b-947e-57782f077f4a","system_id":"levelo_inurba_marseille","lat":43.32374,"lon":5.388812,"is_reserved":false,"is_disabled":false,"rental_uris":{"android":"levelo://app?vid=8c21ce60-68a1-416b-947e-57782f077f4a","ios":"levelo://app?vid=8c21ce60-68a1-416b-947e-57782f077f4a"},"vehicle_type_id":"4","last_reported":1718043043,"current_range_meters":0,"station_id":"ce4bhqp2rcd13ifvqhog","pricing_plan_id":"cebpf4jnsgd1na2vs0mg"},{"bike_id":"6efa5a73-e8a3-4a86-99ce-d9fdc88f4933","system_id":"levelo_inurba_marseille","lat":43.304274,"lon":5.388873,"is_reserved":false,"is_disabled":false,"rental_uris":{"android":"levelo://app?vid=6efa5a73-e8a3-4a86-99ce-d9fdc88f4933","ios":"levelo://app?vid=6efa5a73-e8a3-4a86-99ce-d9fdc88f4933"},"vehicle_type_id":"4","last_reported":1718043043,"current_range_meters":14800,"station_id":"ce4bgk12rcd13ifvqbi0","pricing_plan_id":"cebpf4jnsgd1na2vs0mg"},{"bike_id":"2f5826d4-469e-4271-a490-9eefdfb016dc","system_id":"levelo_inurba_marseille","lat":43.29594,"lon":5.38101,"is_reserved":false,"is_disabled":false,"rental_uris":{"android":"levelo://app?vid=2f5826d4-469e-4271-a490-9eefdfb016dc","ios":"levelo://app?vid=2f5826d4-469e-4271-a490-9eefdfb016dc"},"vehicle_type_id":"4","last_reported":1718043043,"current_range_meters":24400,"station_id":"ce4bgl12rcd13ifvqbo0","pricing_plan_id":"cebpf4jnsgd1na2vs0mg"},{"bike_id":"2b979962-494b-499e-9897-7b958ee1fe17","system_id":"levelo_inurba_marseille","lat":43.29602,"lon":5.381084,"is_reserved":false,"is_disabled":false,"rental_uris":{"android":"levelo://app?vid=2b979962-494b-499e-9897-7b958ee1fe17","ios":"levelo://app?vid=2b979962-494b-499e-9897-7b958ee1fe17"},"vehicle_type_id":"4","last_reported":1718043043,"current_range_meters":0,"station_id":"ce4bgl12rcd13ifvqbo0","pricing_plan_id":"cebpf4jnsgd1na2vs0mg"},{"bike_id":"091d0760-44da-4d52-91d5-c81ebd757699","system_id":"levelo_inurba_marseille","lat":43.289184,"lon":5.366408,"is_reserved":false,"is_disabled":false,"rental_uris":{"android":"levelo://app?vid=091d0760-44da-4d52-91d5-c81ebd757699","ios":"levelo://app?vid=091d0760-44da-4d52-91d5-c81ebd757699"},"vehicle_type_id":"4","last_reported":1718043043,"current_range_meters":12400,"station_id":"ce4bhap2rcd13ifvqek0","pricing_plan_id":"cebpf4jnsgd1na2vs0mg"},{"bike_id":"f7bdef2c-3bce-4a0a-95bb-677dc579479c","system_id":"levelo_inurba_marseille","lat":43.292749,"lon":5.368402,"is_reserved":false,"is_disabled":false,"rental_uris":{"android":"levelo://app?vid=f7bdef2c-3bce-4a0a-95bb-677dc579479c","ios":"levelo://app?vid=f7bdef2c-3bce-4a0a-95bb-677dc579479c"},"vehicle_type_id":"4","last_reported":1718043043,"current_range_meters":26400,"station_id":"ce4bhbp2rcd13ifvqesg","pricing_plan_id":"cebpf4jnsgd1na2vs0mg"},{"bike_id":"b77b6b52-7ce9-4448-9247-f2ad34d8ad94","system_id":"levelo_inurba_marseille","lat":43.293259,"lon":5.371586,"is_reserved":false,"is_disabled":false,"rental_uris":{"android":"levelo://app?vid=b77b6b52-7ce9-4448-9247-f2ad34d8ad94","ios":"levelo://app?vid=b77b6b52-7ce9-4448-9247-f2ad34d8ad94"},"vehicle_type_id":"4","last_reported":1718043043,"current_range_meters":13200,"station_id":"ce4bgh92rcd13ifvqb40","pricing_plan_id":"cebpf4jnsgd1na2vs0mg"},{"bike_id":"4356786b-f5c6-4752-b6fe-d8cafe017b95","system_id":"levelo_inurba_marseille","lat":43.293249,"lon":5.371578,"is_reserved":false,"is_disabled":false,"rental_uris":{"android":"levelo://app?vid=4356786b-f5c6-4752-b6fe-d8cafe017b95","ios":"levelo://app?vid=4356786b-f5c6-4752-b6fe-d8cafe017b95"},"vehicle_type_id":"4","last_reported":1718043043,"current_range_meters":25200,"station_id":"ce4bgh92rcd13ifvqb40","pricing_plan_id":"cebpf4jnsgd1na2vs0mg"},{"bike_id":"10cb67f5-38c3-499f-b08b-f59fee9258c3","system_id":"levelo_inurba_marseille","lat":43.29278,"lon":5.36842,"is_reserved":false,"is_disabled":false,"rental_uris":{"android":"levelo://app?vid=10cb67f5-38c3-499f-b08b-f59fee9258c3","ios":"levelo://app?vid=10cb67f5-38c3-499f-b08b-f59fee9258c3"},"vehicle_type_id":"4","last_reported":1718043043,"current_range_meters":0,"station_id":"ce4bhbp2rcd13ifvqesg","pricing_plan_id":"cebpf4jnsgd1na2vs0mg"},{"bike_id":"114b5954-2f8a-4aec-8800-25b1aa3ae9a8","system_id":"levelo_inurba_marseille","lat":43.293076,"lon":5.371866,"is_reserved":false,"is_disabled":false,"rental_uris":{"android":"levelo://app?vid=114b5954-2f8a-4aec-8800-25b1aa3ae9a8","ios":"levelo://app?vid=114b5954-2f8a-4aec-8800-25b1aa3ae9a8"},"vehicle_type_id":"4","last_reported":1718043043,"current_range_meters":0,"station_id":"ce4bgh92rcd13ifvqb40","pricing_plan_id":"cebpf4jnsgd1na2vs0mg"},{"bike_id":"1ff6a1ea-6243-4da7-9ee3-e69bf18c1ec2","system_id":"levelo_inurba_marseille","lat":43.292749,"lon":5.368402,"is_reserved":false,"is_disabled":false,"rental_uris":{"android":"levelo://app?vid=1ff6a1ea-6243-4da7-9ee3-e69bf18c1ec2","ios":"levelo://app?vid=1ff6a1ea-6243-4da7-9ee3-e69bf18c1ec2"},"vehicle_type_id":"4","last_reported":1718043043,"current_range_meters":26400,"station_id":"ce4bhbp2rcd13ifvqesg","pricing_plan_id":"cebpf4jnsgd1na2vs0mg"},{"bike_id":"0e5b8604-382f-497e-8ac0-626064b6ad29","system_id":"levelo_inurba_marseille","lat":43.305994,"lon":5.393687,"is_reserved":false,"is_disabled":false,"rental_uris":{"android":"levelo://app?vid=0e5b8604-382f-497e-8ac0-626064b6ad29","ios":"levelo://app?vid=0e5b8604-382f-497e-8ac0-626064b6ad29"},"vehicle_type_id":"4","last_reported":1718043043,"current_range_meters":19200,"station_id":"ce4bh0p2rcd13ifvqd80","pricing_plan_id":"cebpf4jnsgd1na2vs0mg"},{"bike_id":"c3cf4517-687a-4757-b9fe-bfc075f0d30e","system_id":"levelo_inurba_marseille","lat":43.29303,"lon":5.37462,"is_reserved":false,"is_disabled":false,"rental_uris":{"android":"levelo://app?vid=c3cf4517-687a-4757-b9fe-bfc075f0d30e","ios":"levelo://app?vid=c3cf4517-687a-4757-b9fe-bfc075f0d30e"},"vehicle_type_id":"4","last_reported":1718043043,"current_range_meters":0,"station_id":"ce4bgi12rcd13ifvqb70","pricing_plan_id":"cebpf4jnsgd1na2vs0mg"},{"bike_id":"20bd20d1-f5b1-4475-9aa2-2367b8a8bd3f","system_id":"levelo_inurba_marseille","lat":43.303002,"lon":5.392142,"is_reserved":false,"is_disabled":false,"rental_uris":{"android":"levelo://app?vid=20bd20d1-f5b1-4475-9aa2-2367b8a8bd3f","ios":"levelo://app?vid=20bd20d1-f5b1-4475-9aa2-2367b8a8bd3f"},"vehicle_type_id":"4","last_reported":1718043043,"current_range_meters":4800,"station_id":"ce4bgkh2rcd13ifvqbk0","pricing_plan_id":"cebpf4jnsgd1na2vs0mg"},{"bike_id":"de8695ef-acff-4789-861e-f796d0e7b66b","system_id":"levelo_inurba_marseille","lat":43.302992,"lon":5.392136,"is_reserved":false,"is_disabled":false,"rental_uris":{"android":"levelo://app?vid=de8695ef-acff-4789-861e-f796d0e7b66b","ios":"levelo://app?vid=de8695ef-acff-4789-861e-f796d0e7b66b"},"vehicle_type_id":"4","last_reported":1718043043,"current_range_meters":7200,"station_id":"ce4bgkh2rcd13ifvqbk0","pricing_plan_id":"cebpf4jnsgd1na2vs0mg"},{"bike_id":"eb2e32b7-a45c-4027-b576-2e4111b73941","system_id":"levelo_inurba_marseille","lat":43.29369,"lon":5.37857,"is_reserved":false,"is_disabled":false,"rental_uris":{"android":"levelo://app?vid=eb2e32b7-a45c-4027-b576-2e4111b73941","ios":"levelo://app?vid=eb2e32b7-a45c-4027-b576-2e4111b73941"},"vehicle_type_id":"4","last_reported":1718043043,"current_range_meters":21200,"station_id":"ce4bgjh2rcd13ifvqbf0","pricing_plan_id":"cebpf4jnsgd1na2vs0mg"},{"bike_id":"faa7b94f-efc3-4e16-b4ec-9f07e35074ae","system_id":"levelo_inurba_marseille","lat":43.29367,"lon":5.37862,"is_reserved":false,"is_disabled":false,"rental_uris":{"android":"levelo://app?vid=faa7b94f-efc3-4e16-b4ec-9f07e35074ae","ios":"levelo://app?vid=faa7b94f-efc3-4e16-b4ec-9f07e35074ae"},"vehicle_type_id":"4","last_reported":1718043043,"current_range_meters":14800,"station_id":"ce4bgjh2rcd13ifvqbf0","pricing_plan_id":"cebpf4jnsgd1na2vs0mg"},{"bike_id":"48001463-218e-4237-be97-046f43904215","system_id":"levelo_inurba_marseille","lat":43.303002,"lon":5.392142,"is_reserved":false,"is_disabled":false,"rental_uris":{"android":"levelo://app?vid=48001463-218e-4237-be97-046f43904215","ios":"levelo://app?vid=48001463-218e-4237-be97-046f43904215"},"vehicle_type_id":"4","last_reported":1718043043,"current_range_meters":400,"station_id":"ce4bgkh2rcd13ifvqbk0","pricing_plan_id":"cebpf4jnsgd1na2vs0mg"},{"bike_id":"6751935b-e0ba-4f94-aa92-455bca207b59","system_id":"levelo_inurba_marseille","lat":43.292311,"lon":5.360731,"is_reserved":false,"is_disabled":false,"rental_uris":{"android":"levelo://app?vid=6751935b-e0ba-4f94-aa92-455bca207b59","ios":"levelo://app?vid=6751935b-e0ba-4f94-aa92-455bca207b59"},"vehicle_type_id":"4","last_reported":1718043043,"current_range_meters":17200,"station_id":"ce4bhbh2rcd13ifvqeqg","pricing_plan_id":"cebpf4jnsgd1na2vs0mg"},{"bike_id":"02964a2f-a9ac-47df-8336-e6ea8d31319f","system_id":"levelo_inurba_marseille","lat":43.30085,"lon":5.390856,"is_reserved":false,"is_disabled":false,"rental_uris":{"android":"levelo://app?vid=02964a2f-a9ac-47df-8336-e6ea8d31319f","ios":"levelo://app?vid=02964a2f-a9ac-47df-8336-e6ea8d31319f"},"vehicle_type_id":"4","last_reported":1718043043,"current_range_meters":30000,"station_id":"ce4bh192rcd13ifvqdb0","pricing_plan_id":"cebpf4jnsgd1na2vs0mg"},{"bike_id":"c11bbbf2-1d29-4c46-bc99-f5dec3d14c90","system_id":"levelo_inurba_marseille","lat":43.292311,"lon":5.360731,"is_reserved":false,"is_disabled":false,"rental_uris":{"android":"levelo://app?vid=c11bbbf2-1d29-4c46-bc99-f5dec3d14c90","ios":"levelo://app?vid=c11bbbf2-1d29-4c46-bc99-f5dec3d14c90"},"vehicle_type_id":"4","last_reported":1718043043,"current_range_meters":1200,"station_id":"ce4bhbh2rcd13ifvqeqg","pricing_plan_id":"cebpf4jnsgd1na2vs0mg"},{"bike_id":"544b8c15-ab35-4deb-8849-ea97a30ea482","system_id":"levelo_inurba_marseille","lat":43.29223,"lon":5.36056,"is_reserved":false,"is_disabled":false,"rental_uris":{"android":"levelo://app?vid=544b8c15-ab35-4deb-8849-ea97a30ea482","ios":"levelo://app?vid=544b8c15-ab35-4deb-8849-ea97a30ea482"},"vehicle_type_id":"4","last_reported":1718043043,"current_range_meters":15600,"station_id":"ce4bhbh2rcd13ifvqeqg","pricing_plan_id":"cebpf4jnsgd1na2vs0mg"},{"bike_id":"f7ffff59-2e22-4f41-b447-266419bb7765","system_id":"levelo_inurba_marseille","lat":43.292311,"lon":5.360731,"is_reserved":false,"is_disabled":false,"rental_uris":{"android":"levelo://app?vid=f7ffff59-2e22-4f41-b447-266419bb7765","ios":"levelo://app?vid=f7ffff59-2e22-4f41-b447-266419bb7765"},"vehicle_type_id":"4","last_reported":1718043043,"current_range_meters":26800,"station_id":"ce4bhbh2rcd13ifvqeqg","pricing_plan_id":"cebpf4jnsgd1na2vs0mg"},{"bike_id":"fa55e863-da92-4db8-936e-55887b54ed4f","system_id":"levelo_inurba_marseille","lat":43.298764,"lon":5.388973,"is_reserved":false,"is_disabled":false,"rental_uris":{"android":"levelo://app?vid=fa55e863-da92-4db8-936e-55887b54ed4f","ios":"levelo://app?vid=fa55e863-da92-4db8-936e-55887b54ed4f"},"vehicle_type_id":"4","last_reported":1718043043,"current_range_meters":4000,"station_id":"ce4bh392rcd13ifvqdl0","pricing_plan_id":"cebpf4jnsgd1na2vs0mg"},{"bike_id":"6401d1a8-8362-47b7-8a0c-ed32de4d8a9a","system_id":"levelo_inurba_marseille","lat":43.291671,"lon":5.371575,"is_reserved":false,"is_disabled":false,"rental_uris":{"android":"levelo://app?vid=6401d1a8-8362-47b7-8a0c-ed32de4d8a9a","ios":"levelo://app?vid=6401d1a8-8362-47b7-8a0c-ed32de4d8a9a"},"vehicle_type_id":"4","last_reported":1718043043,"current_range_meters":9600,"station_id":"ce4bha92rcd13ifvqeh0","pricing_plan_id":"cebpf4jnsgd1na2vs0mg"},{"bike_id":"dca5d73d-5ae3-4e18-80a7-f8cc5e3281e4","system_id":"levelo_inurba_marseille","lat":43.29476,"lon":5.38278,"is_reserved":false,"is_disabled":false,"rental_uris":{"android":"levelo://app?vid=dca5d73d-5ae3-4e18-80a7-f8cc5e3281e4","ios":"levelo://app?vid=dca5d73d-5ae3-4e18-80a7-f8cc5e3281e4"},"vehicle_type_id":"4","last_reported":1718043043,"current_range_meters":0,"station_id":"","pricing_plan_id":"cebpf4jnsgd1na2vs0mg"},{"bike_id":"825088de-67d6-4ed6-b831-3c50f10406e8","system_id":"levelo_inurba_marseille","lat":43.292011,"lon":5.358551,"is_reserved":false,"is_disabled":false,"rental_uris":{"android":"levelo://app?vid=825088de-67d6-4ed6-b831-3c50f10406e8","ios":"levelo://app?vid=825088de-67d6-4ed6-b831-3c50f10406e8"},"vehicle_type_id":"4","last_reported":1718043043,"current_range_meters":0,"station_id":"ce4bhb12rcd13ifvqel0","pricing_plan_id":"cebpf4jnsgd1na2vs0mg"},{"bike_id":"1de6a10d-f83c-4268-8803-fb232ffcc741","system_id":"levelo_inurba_marseille","lat":43.292071,"lon":5.358181,"is_reserved":false,"is_disabled":false,"rental_uris":{"android":"levelo://app?vid=1de6a10d-f83c-4268-8803-fb232ffcc741","ios":"levelo://app?vid=1de6a10d-f83c-4268-8803-fb232ffcc741"},"vehicle_type_id":"4","last_reported":1718043043,"current_range_meters":16000,"station_id":"ce4bhb12rcd13ifvqel0","pricing_plan_id":"cebpf4jnsgd1na2vs0mg"},{"bike_id":"fd7fb835-0899-4618-9e0d-f2e8e2365ec7","system_id":"levelo_inurba_marseille","lat":43.313291,"lon":5.396838,"is_reserved":false,"is_disabled":false,"rental_uris":{"android":"levelo://app?vid=fd7fb835-0899-4618-9e0d-f2e8e2365ec7","ios":"levelo://app?vid=fd7fb835-0899-4618-9e0d-f2e8e2365ec7"},"vehicle_type_id":"4","last_reported":1718043043,"current_range_meters":30800,"station_id":"ce4bgvp2rcd13ifvqcu0","pricing_plan_id":"cebpf4jnsgd1na2vs0mg"},{"bike_id":"20b74f49-48f9-4e30-a993-d9a131592355","system_id":"levelo_inurba_marseille","lat":43.291915,"lon":5.358288,"is_reserved":false,"is_disabled":false,"rental_uris":{"android":"levelo://app?vid=20b74f49-48f9-4e30-a993-d9a131592355","ios":"levelo://app?vid=20b74f49-48f9-4e30-a993-d9a131592355"},"vehicle_type_id":"4","last_reported":1718043043,"current_range_meters":9200,"station_id":"ce4bhb12rcd13ifvqel0","pricing_plan_id":"cebpf4jnsgd1na2vs0mg"},{"bike_id":"9ce313a9-6727-4562-87a6-a6819a409d26","system_id":"levelo_inurba_marseille","lat":43.291994,"lon":5.357886,"is_reserved":false,"is_disabled":false,"rental_uris":{"android":"levelo://app?vid=9ce313a9-6727-4562-87a6-a6819a409d26","ios":"levelo://app?vid=9ce313a9-6727-4562-87a6-a6819a409d26"},"vehicle_type_id":"4","last_reported":1718043043,"current_range_meters":25600,"station_id":"ce4bhb12rcd13ifvqel0","pricing_plan_id":"cebpf4jnsgd1na2vs0mg"},{"bike_id":"a1041922-e67b-4f65-92a3-b82b1f7b3238","system_id":"levelo_inurba_marseille","lat":43.291994,"lon":5.357886,"is_reserved":false,"is_disabled":false,"rental_uris":{"android":"levelo://app?vid=a1041922-e67b-4f65-92a3-b82b1f7b3238","ios":"levelo://app?vid=a1041922-e67b-4f65-92a3-b82b1f7b3238"},"vehicle_type_id":"4","last_reported":1718043043,"current_range_meters":28400,"station_id":"ce4bhb12rcd13ifvqel0","pricing_plan_id":"cebpf4jnsgd1na2vs0mg"},{"bike_id":"d45b43cc-7f9d-4dd6-ac2a-c0ab1ba0783c","system_id":"levelo_inurba_marseille","lat":43.313291,"lon":5.396838,"is_reserved":false,"is_disabled":false,"rental_uris":{"android":"levelo://app?vid=d45b43cc-7f9d-4dd6-ac2a-c0ab1ba0783c","ios":"levelo://app?vid=d45b43cc-7f9d-4dd6-ac2a-c0ab1ba0783c"},"vehicle_type_id":"4","last_reported":1718043043,"current_range_meters":20400,"station_id":"ce4bgvp2rcd13ifvqcu0","pricing_plan_id":"cebpf4jnsgd1na2vs0mg"},{"bike_id":"58912c00-1f3c-4b0d-90cd-9be0503ba43f","system_id":"levelo_inurba_marseille","lat":43.291896,"lon":5.357959,"is_reserved":false,"is_disabled":false,"rental_uris":{"android":"levelo://app?vid=58912c00-1f3c-4b0d-90cd-9be0503ba43f","ios":"levelo://app?vid=58912c00-1f3c-4b0d-90cd-9be0503ba43f"},"vehicle_type_id":"4","last_reported":1718043043,"current_range_meters":14400,"station_id":"","pricing_plan_id":"cebpf4jnsgd1na2vs0mg"},{"bike_id":"31588481-2fb4-4561-888d-7fffe718588e","system_id":"levelo_inurba_marseille","lat":43.309038,"lon":5.396546,"is_reserved":false,"is_disabled":false,"rental_uris":{"android":"levelo://app?vid=31588481-2fb4-4561-888d-7fffe718588e","ios":"levelo://app?vid=31588481-2fb4-4561-888d-7fffe718588e"},"vehicle_type_id":"4","last_reported":1718043043,"current_range_meters":0,"station_id":"ce4bh012rcd13ifvqcv0","pricing_plan_id":"cebpf4jnsgd1na2vs0mg"},{"bike_id":"915418bc-7bf6-414f-b453-6fbda2ab561b","system_id":"levelo_inurba_marseille","lat":43.309038,"lon":5.396546,"is_reserved":false,"is_disabled":false,"rental_uris":{"android":"levelo://app?vid=915418bc-7bf6-414f-b453-6fbda2ab561b","ios":"levelo://app?vid=915418bc-7bf6-414f-b453-6fbda2ab561b"},"vehicle_type_id":"4","last_reported":1718043043,"current_range_meters":25600,"station_id":"ce4bh012rcd13ifvqcv0","pricing_plan_id":"cebpf4jnsgd1na2vs0mg"},{"bike_id":"1c9224c0-6e44-465e-8896-767a1c6f3d8b","system_id":"levelo_inurba_marseille","lat":43.290779,"lon":5.371482,"is_reserved":false,"is_disabled":false,"rental_uris":{"android":"levelo://app?vid=1c9224c0-6e44-465e-8896-767a1c6f3d8b","ios":"levelo://app?vid=1c9224c0-6e44-465e-8896-767a1c6f3d8b"},"vehicle_type_id":"4","last_reported":1718043043,"current_range_meters":20800,"station_id":"ce4bh5p2rcd13ifvqe4g","pricing_plan_id":"cebpf4jnsgd1na2vs0mg"},{"bike_id":"7f53126c-37ca-43f0-a9be-7fd2e0ae640e","system_id":"levelo_inurba_marseille","lat":43.290751,"lon":5.371781,"is_reserved":false,"is_disabled":false,"rental_uris":{"android":"levelo://app?vid=7f53126c-37ca-43f0-a9be-7fd2e0ae640e","ios":"levelo://app?vid=7f53126c-37ca-43f0-a9be-7fd2e0ae640e"},"vehicle_type_id":"4","last_reported":1718043043,"current_range_meters":5600,"station_id":"ce4bh5p2rcd13ifvqe4g","pricing_plan_id":"cebpf4jnsgd1na2vs0mg"},{"bike_id":"50e53274-15a1-4196-9d39-72b97a5d3669","system_id":"levelo_inurba_marseille","lat":43.29058,"lon":5.37165,"is_reserved":false,"is_disabled":false,"rental_uris":{"android":"levelo://app?vid=50e53274-15a1-4196-9d39-72b97a5d3669","ios":"levelo://app?vid=50e53274-15a1-4196-9d39-72b97a5d3669"},"vehicle_type_id":"4","last_reported":1718043043,"current_range_meters":26000,"station_id":"ce4bh5p2rcd13ifvqe4g","pricing_plan_id":"cebpf4jnsgd1na2vs0mg"},{"bike_id":"031445f4-343c-4811-b46b-b66c0f279d1f","system_id":"levelo_inurba_marseille","lat":43.290779,"lon":5.371482,"is_reserved":false,"is_disabled":false,"rental_uris":{"android":"levelo://app?vid=031445f4-343c-4811-b46b-b66c0f279d1f","ios":"levelo://app?vid=031445f4-343c-4811-b46b-b66c0f279d1f"},"vehicle_type_id":"4","last_reported":1718043043,"current_range_meters":13600,"station_id":"ce4bh5p2rcd13ifvqe4g","pricing_plan_id":"cebpf4jnsgd1na2vs0mg"},{"bike_id":"7b54002b-f502-4319-9cd7-cb384d15772f","system_id":"levelo_inurba_marseille","lat":43.290509,"lon":5.371668,"is_reserved":false,"is_disabled":false,"rental_uris":{"android":"levelo://app?vid=7b54002b-f502-4319-9cd7-cb384d15772f","ios":"levelo://app?vid=7b54002b-f502-4319-9cd7-cb384d15772f"},"vehicle_type_id":"4","last_reported":1718043043,"current_range_meters":18400,"station_id":"ce4bh5p2rcd13ifvqe4g","pricing_plan_id":"cebpf4jnsgd1na2vs0mg"},{"bike_id":"6a8057a9-6b53-4a65-ba20-64f057c72e89","system_id":"levelo_inurba_marseille","lat":43.291698,"lon":5.378048,"is_reserved":false,"is_disabled":false,"rental_uris":{"android":"levelo://app?vid=6a8057a9-6b53-4a65-ba20-64f057c72e89","ios":"levelo://app?vid=6a8057a9-6b53-4a65-ba20-64f057c72e89"},"vehicle_type_id":"4","last_reported":1718043043,"current_range_meters":10400,"station_id":"","pricing_plan_id":"cebpf4jnsgd1na2vs0mg"},{"bike_id":"3624570e-fe37-4029-8874-3986f1770993","system_id":"levelo_inurba_marseille","lat":43.290305,"lon":5.372109,"is_reserved":false,"is_disabled":false,"rental_uris":{"android":"levelo://app?vid=3624570e-fe37-4029-8874-3986f1770993","ios":"levelo://app?vid=3624570e-fe37-4029-8874-3986f1770993"},"vehicle_type_id":"4","last_reported":1718043043,"current_range_meters":23600,"station_id":"ce4bh5p2rcd13ifvqe4g","pricing_plan_id":"cebpf4jnsgd1na2vs0mg"},{"bike_id":"88790bba-f417-49b0-8472-2c5136c55abc","system_id":"levelo_inurba_marseille","lat":43.302008,"lon":5.394694,"is_reserved":false,"is_disabled":false,"rental_uris":{"android":"levelo://app?vid=88790bba-f417-49b0-8472-2c5136c55abc","ios":"levelo://app?vid=88790bba-f417-49b0-8472-2c5136c55abc"},"vehicle_type_id":"4","last_reported":1718043043,"current_range_meters":25200,"station_id":"ce4bh0p2rcd13ifvqd70","pricing_plan_id":"cebpf4jnsgd1na2vs0mg"},{"bike_id":"d2f8acf8-873a-4b07-8249-ed9713201d57","system_id":"levelo_inurba_marseille","lat":43.290631,"lon":5.359244,"is_reserved":false,"is_disabled":false,"rental_uris":{"android":"levelo://app?vid=d2f8acf8-873a-4b07-8249-ed9713201d57","ios":"levelo://app?vid=d2f8acf8-873a-4b07-8249-ed9713201d57"},"vehicle_type_id":"4","last_reported":1718043043,"current_range_meters":1600,"station_id":"ce4bha92rcd13ifvqeg0","pricing_plan_id":"cebpf4jnsgd1na2vs0mg"},{"bike_id":"69f732e6-df62-4357-bc0e-de02b14b7518","system_id":"levelo_inurba_marseille","lat":43.290631,"lon":5.359244,"is_reserved":false,"is_disabled":false,"rental_uris":{"android":"levelo://app?vid=69f732e6-df62-4357-bc0e-de02b14b7518","ios":"levelo://app?vid=69f732e6-df62-4357-bc0e-de02b14b7518"},"vehicle_type_id":"4","last_reported":1718043043,"current_range_meters":800,"station_id":"ce4bha92rcd13ifvqeg0","pricing_plan_id":"cebpf4jnsgd1na2vs0mg"},{"bike_id":"c084bafe-3c2c-4e42-b95e-e531aa674491","system_id":"levelo_inurba_marseille","lat":43.290319,"lon":5.375732,"is_reserved":false,"is_disabled":false,"rental_uris":{"android":"levelo://app?vid=c084bafe-3c2c-4e42-b95e-e531aa674491","ios":"levelo://app?vid=c084bafe-3c2c-4e42-b95e-e531aa674491"},"vehicle_type_id":"4","last_reported":1718043043,"current_range_meters":19200,"station_id":"ce4bh692rcd13ifvqe90","pricing_plan_id":"cebpf4jnsgd1na2vs0mg"},{"bike_id":"f821b79b-675d-4bc3-b0f0-6f9064b2ecf7","system_id":"levelo_inurba_marseille","lat":43.294162,"lon":5.386292,"is_reserved":false,"is_disabled":false,"rental_uris":{"android":"levelo://app?vid=f821b79b-675d-4bc3-b0f0-6f9064b2ecf7","ios":"levelo://app?vid=f821b79b-675d-4bc3-b0f0-6f9064b2ecf7"},"vehicle_type_id":"4","last_reported":1718043043,"current_range_meters":12800,"station_id":"ce4bh2h2rcd13ifvqdh0","pricing_plan_id":"cebpf4jnsgd1na2vs0mg"},{"bike_id":"6a014e2c-8138-43b3-bdcf-bacd0549179c","system_id":"levelo_inurba_marseille","lat":43.28939,"lon":5.36632,"is_reserved":false,"is_disabled":false,"rental_uris":{"android":"levelo://app?vid=6a014e2c-8138-43b3-bdcf-bacd0549179c","ios":"levelo://app?vid=6a014e2c-8138-43b3-bdcf-bacd0549179c"},"vehicle_type_id":"4","last_reported":1718043043,"current_range_meters":0,"station_id":"ce4bhap2rcd13ifvqek0","pricing_plan_id":"cebpf4jnsgd1na2vs0mg"},{"bike_id":"18b216de-cb1d-4ed9-aa23-7f23240827e0","system_id":"levelo_inurba_marseille","lat":43.289389,"lon":5.366386,"is_reserved":false,"is_disabled":false,"rental_uris":{"android":"levelo://app?vid=18b216de-cb1d-4ed9-aa23-7f23240827e0","ios":"levelo://app?vid=18b216de-cb1d-4ed9-aa23-7f23240827e0"},"vehicle_type_id":"4","last_reported":1718043043,"current_range_meters":0,"station_id":"ce4bhap2rcd13ifvqek0","pricing_plan_id":"cebpf4jnsgd1na2vs0mg"},{"bike_id":"2cbd7c86-1bed-4e5a-be08-04740d9669d4","system_id":"levelo_inurba_marseille","lat":43.289184,"lon":5.366408,"is_reserved":false,"is_disabled":false,"rental_uris":{"android":"levelo://app?vid=2cbd7c86-1bed-4e5a-be08-04740d9669d4","ios":"levelo://app?vid=2cbd7c86-1bed-4e5a-be08-04740d9669d4"},"vehicle_type_id":"4","last_reported":1718043043,"current_range_meters":19200,"station_id":"ce4bhap2rcd13ifvqek0","pricing_plan_id":"cebpf4jnsgd1na2vs0mg"},{"bike_id":"dc8ea346-23ea-4d9c-9086-c3a6a908030f","system_id":"levelo_inurba_marseille","lat":43.289184,"lon":5.366408,"is_reserved":false,"is_disabled":false,"rental_uris":{"android":"levelo://app?vid=dc8ea346-23ea-4d9c-9086-c3a6a908030f","ios":"levelo://app?vid=dc8ea346-23ea-4d9c-9086-c3a6a908030f"},"vehicle_type_id":"4","last_reported":1718043043,"current_range_meters":19200,"station_id":"ce4bhap2rcd13ifvqek0","pricing_plan_id":"cebpf4jnsgd1na2vs0mg"},{"bike_id":"0b0c0986-ed46-42a9-94f4-d6e6e9be2da5","system_id":"levelo_inurba_marseille","lat":43.289184,"lon":5.366408,"is_reserved":false,"is_disabled":false,"rental_uris":{"android":"levelo://app?vid=0b0c0986-ed46-42a9-94f4-d6e6e9be2da5","ios":"levelo://app?vid=0b0c0986-ed46-42a9-94f4-d6e6e9be2da5"},"vehicle_type_id":"4","last_reported":1718043043,"current_range_meters":14400,"station_id":"ce4bhap2rcd13ifvqek0","pricing_plan_id":"cebpf4jnsgd1na2vs0mg"},{"bike_id":"283fd34d-d2a4-4b1a-8431-38e8b53e7e30","system_id":"levelo_inurba_marseille","lat":43.289184,"lon":5.366408,"is_reserved":false,"is_disabled":false,"rental_uris":{"android":"levelo://app?vid=283fd34d-d2a4-4b1a-8431-38e8b53e7e30","ios":"levelo://app?vid=283fd34d-d2a4-4b1a-8431-38e8b53e7e30"},"vehicle_type_id":"4","last_reported":1718043043,"current_range_meters":22800,"station_id":"ce4bhap2rcd13ifvqek0","pricing_plan_id":"cebpf4jnsgd1na2vs0mg"},{"bike_id":"db624322-01f5-4b73-aca2-2bd7f9b69301","system_id":"levelo_inurba_marseille","lat":43.28938,"lon":5.36397,"is_reserved":false,"is_disabled":false,"rental_uris":{"android":"levelo://app?vid=db624322-01f5-4b73-aca2-2bd7f9b69301","ios":"levelo://app?vid=db624322-01f5-4b73-aca2-2bd7f9b69301"},"vehicle_type_id":"4","last_reported":1718043043,"current_range_meters":1600,"station_id":"ce4bhc92rcd13ifvqetg","pricing_plan_id":"cebpf4jnsgd1na2vs0mg"},{"bike_id":"1480a11b-c629-47d8-ad61-70b303349c45","system_id":"levelo_inurba_marseille","lat":43.290477,"lon":5.377199,"is_reserved":false,"is_disabled":false,"rental_uris":{"android":"levelo://app?vid=1480a11b-c629-47d8-ad61-70b303349c45","ios":"levelo://app?vid=1480a11b-c629-47d8-ad61-70b303349c45"},"vehicle_type_id":"4","last_reported":1718043043,"current_range_meters":19600,"station_id":"","pricing_plan_id":"cebpf4jnsgd1na2vs0mg"},{"bike_id":"0e3f7965-fe2e-4d13-9ccb-244a7ee60e62","system_id":"levelo_inurba_marseille","lat":43.292642,"lon":5.384254,"is_reserved":false,"is_disabled":false,"rental_uris":{"android":"levelo://app?vid=0e3f7965-fe2e-4d13-9ccb-244a7ee60e62","ios":"levelo://app?vid=0e3f7965-fe2e-4d13-9ccb-244a7ee60e62"},"vehicle_type_id":"4","last_reported":1718043043,"current_range_meters":400,"station_id":"ce4bh692rcd13ifvqea0","pricing_plan_id":"cebpf4jnsgd1na2vs0mg"},{"bike_id":"92e49486-5aeb-45bc-a518-04e0d1b40599","system_id":"levelo_inurba_marseille","lat":43.292642,"lon":5.384254,"is_reserved":false,"is_disabled":false,"rental_uris":{"android":"levelo://app?vid=92e49486-5aeb-45bc-a518-04e0d1b40599","ios":"levelo://app?vid=92e49486-5aeb-45bc-a518-04e0d1b40599"},"vehicle_type_id":"4","last_reported":1718043043,"current_range_meters":5200,"station_id":"ce4bh692rcd13ifvqea0","pricing_plan_id":"cebpf4jnsgd1na2vs0mg"},{"bike_id":"c4f824d8-15c9-41c3-b1fc-adc5179ff89f","system_id":"levelo_inurba_marseille","lat":43.29263,"lon":5.38445,"is_reserved":false,"is_disabled":false,"rental_uris":{"android":"levelo://app?vid=c4f824d8-15c9-41c3-b1fc-adc5179ff89f","ios":"levelo://app?vid=c4f824d8-15c9-41c3-b1fc-adc5179ff89f"},"vehicle_type_id":"4","last_reported":1718043043,"current_range_meters":0,"station_id":"ce4bh692rcd13ifvqea0","pricing_plan_id":"cebpf4jnsgd1na2vs0mg"},{"bike_id":"14b3c90e-b7e4-4b7d-8132-52f401c95d5a","system_id":"levelo_inurba_marseille","lat":43.290104,"lon":5.356111,"is_reserved":false,"is_disabled":false,"rental_uris":{"android":"levelo://app?vid=14b3c90e-b7e4-4b7d-8132-52f401c95d5a","ios":"levelo://app?vid=14b3c90e-b7e4-4b7d-8132-52f401c95d5a"},"vehicle_type_id":"4","last_reported":1718043043,"current_range_meters":26800,"station_id":"ce4bhb92rcd13ifvqen0","pricing_plan_id":"cebpf4jnsgd1na2vs0mg"},{"bike_id":"a962aded-c6b3-4807-96ab-f5caf98db1e4","system_id":"levelo_inurba_marseille","lat":43.290104,"lon":5.356111,"is_reserved":false,"is_disabled":false,"rental_uris":{"android":"levelo://app?vid=a962aded-c6b3-4807-96ab-f5caf98db1e4","ios":"levelo://app?vid=a962aded-c6b3-4807-96ab-f5caf98db1e4"},"vehicle_type_id":"4","last_reported":1718043043,"current_range_meters":30400,"station_id":"ce4bhb92rcd13ifvqen0","pricing_plan_id":"cebpf4jnsgd1na2vs0mg"},{"bike_id":"955b034f-91c6-4f12-a631-8b98e548ecbe","system_id":"levelo_inurba_marseille","lat":43.290104,"lon":5.356111,"is_reserved":false,"is_disabled":false,"rental_uris":{"android":"levelo://app?vid=955b034f-91c6-4f12-a631-8b98e548ecbe","ios":"levelo://app?vid=955b034f-91c6-4f12-a631-8b98e548ecbe"},"vehicle_type_id":"4","last_reported":1718043043,"current_range_meters":0,"station_id":"ce4bhb92rcd13ifvqen0","pricing_plan_id":"cebpf4jnsgd1na2vs0mg"},{"bike_id":"b92e8af7-d4a3-411c-aa8f-ed7039aa7fc1","system_id":"levelo_inurba_marseille","lat":43.330442,"lon":5.389148,"is_reserved":false,"is_disabled":false,"rental_uris":{"android":"levelo://app?vid=b92e8af7-d4a3-411c-aa8f-ed7039aa7fc1","ios":"levelo://app?vid=b92e8af7-d4a3-411c-aa8f-ed7039aa7fc1"},"vehicle_type_id":"4","last_reported":1718043043,"current_range_meters":0,"station_id":"ce4bhr92rcd13ifvqhrg","pricing_plan_id":"cebpf4jnsgd1na2vs0mg"},{"bike_id":"35533cab-b653-45bd-a7e7-b77f6fa53850","system_id":"levelo_inurba_marseille","lat":43.330442,"lon":5.389148,"is_reserved":false,"is_disabled":false,"rental_uris":{"android":"levelo://app?vid=35533cab-b653-45bd-a7e7-b77f6fa53850","ios":"levelo://app?vid=35533cab-b653-45bd-a7e7-b77f6fa53850"},"vehicle_type_id":"4","last_reported":1718043043,"current_range_meters":2800,"station_id":"ce4bhr92rcd13ifvqhrg","pricing_plan_id":"cebpf4jnsgd1na2vs0mg"},{"bike_id":"90c8cb18-3af5-456a-a813-e995cd777346","system_id":"levelo_inurba_marseille","lat":43.297815,"lon":5.393548,"is_reserved":false,"is_disabled":false,"rental_uris":{"android":"levelo://app?vid=90c8cb18-3af5-456a-a813-e995cd777346","ios":"levelo://app?vid=90c8cb18-3af5-456a-a813-e995cd777346"},"vehicle_type_id":"4","last_reported":1718043043,"current_range_meters":8000,"station_id":"chh1huq6cuj3fo74tm60","pricing_plan_id":"cebpf4jnsgd1na2vs0mg"},{"bike_id":"6f1cbf0e-c6b7-41a7-8b0f-ed80fb55aa8d","system_id":"levelo_inurba_marseille","lat":43.289743,"lon":5.378304,"is_reserved":false,"is_disabled":false,"rental_uris":{"android":"levelo://app?vid=6f1cbf0e-c6b7-41a7-8b0f-ed80fb55aa8d","ios":"levelo://app?vid=6f1cbf0e-c6b7-41a7-8b0f-ed80fb55aa8d"},"vehicle_type_id":"4","last_reported":1718043043,"current_range_meters":31200,"station_id":"ce4bh9p2rcd13ifvqed0","pricing_plan_id":"cebpf4jnsgd1na2vs0mg"},{"bike_id":"cf06cc80-25c3-4fa5-9d32-12055cee46e0","system_id":"levelo_inurba_marseille","lat":43.275028,"lon":5.424534,"is_reserved":false,"is_disabled":false,"rental_uris":{"android":"levelo://app?vid=cf06cc80-25c3-4fa5-9d32-12055cee46e0","ios":"levelo://app?vid=cf06cc80-25c3-4fa5-9d32-12055cee46e0"},"vehicle_type_id":"4","last_reported":1718043043,"current_range_meters":22000,"station_id":"ce4bhn92rcd13ifvqgrg","pricing_plan_id":"cebpf4jnsgd1na2vs0mg"},{"bike_id":"3765c6a7-5acc-4a00-ad3f-44a8d30b65a0","system_id":"levelo_inurba_marseille","lat":43.295169,"lon":5.390426,"is_reserved":false,"is_disabled":false,"rental_uris":{"android":"levelo://app?vid=3765c6a7-5acc-4a00-ad3f-44a8d30b65a0","ios":"levelo://app?vid=3765c6a7-5acc-4a00-ad3f-44a8d30b65a0"},"vehicle_type_id":"4","last_reported":1718043043,"current_range_meters":0,"station_id":"ce4bh3p2rcd13ifvqdp0","pricing_plan_id":"cebpf4jnsgd1na2vs0mg"},{"bike_id":"0f3c4855-6b9e-469f-8f1f-a3d394258910","system_id":"levelo_inurba_marseille","lat":43.330442,"lon":5.389148,"is_reserved":false,"is_disabled":false,"rental_uris":{"android":"levelo://app?vid=0f3c4855-6b9e-469f-8f1f-a3d394258910","ios":"levelo://app?vid=0f3c4855-6b9e-469f-8f1f-a3d394258910"},"vehicle_type_id":"4","last_reported":1718043043,"current_range_meters":0,"station_id":"ce4bhr92rcd13ifvqhrg","pricing_plan_id":"cebpf4jnsgd1na2vs0mg"},{"bike_id":"a8c3d574-a17b-49ec-8bc9-94e3959f7576","system_id":"levelo_inurba_marseille","lat":43.290336,"lon":5.386425,"is_reserved":false,"is_disabled":false,"rental_uris":{"android":"levelo://app?vid=a8c3d574-a17b-49ec-8bc9-94e3959f7576","ios":"levelo://app?vid=a8c3d574-a17b-49ec-8bc9-94e3959f7576"},"vehicle_type_id":"4","last_reported":1718043043,"current_range_meters":25600,"station_id":"ce4bh4p2rcd13ifvqe0g","pricing_plan_id":"cebpf4jnsgd1na2vs0mg"},{"bike_id":"cd2be4eb-b8f8-432b-9b27-f0560d6f8f55","system_id":"levelo_inurba_marseille","lat":43.289741,"lon":5.378306,"is_reserved":false,"is_disabled":false,"rental_uris":{"android":"levelo://app?vid=cd2be4eb-b8f8-432b-9b27-f0560d6f8f55","ios":"levelo://app?vid=cd2be4eb-b8f8-432b-9b27-f0560d6f8f55"},"vehicle_type_id":"4","last_reported":1718043043,"current_range_meters":23200,"station_id":"ce4bh9p2rcd13ifvqed0","pricing_plan_id":"cebpf4jnsgd1na2vs0mg"},{"bike_id":"29d63a46-5b1f-4d64-8ad9-7d3b62c658d6","system_id":"levelo_inurba_marseille","lat":43.2901,"lon":5.381269,"is_reserved":false,"is_disabled":false,"rental_uris":{"android":"levelo://app?vid=29d63a46-5b1f-4d64-8ad9-7d3b62c658d6","ios":"levelo://app?vid=29d63a46-5b1f-4d64-8ad9-7d3b62c658d6"},"vehicle_type_id":"4","last_reported":1718043043,"current_range_meters":800,"station_id":"ce4bh4p2rcd13ifvqe1g","pricing_plan_id":"cebpf4jnsgd1na2vs0mg"},{"bike_id":"3f46d27a-4b3e-40a1-bbff-026a8e7cac08","system_id":"levelo_inurba_marseille","lat":43.29021,"lon":5.38134,"is_reserved":false,"is_disabled":false,"rental_uris":{"android":"levelo://app?vid=3f46d27a-4b3e-40a1-bbff-026a8e7cac08","ios":"levelo://app?vid=3f46d27a-4b3e-40a1-bbff-026a8e7cac08"},"vehicle_type_id":"4","last_reported":1718043043,"current_range_meters":0,"station_id":"ce4bh4p2rcd13ifvqe1g","pricing_plan_id":"cebpf4jnsgd1na2vs0mg"},{"bike_id":"f264a6f7-f06a-44d4-a006-e55eb98f462b","system_id":"levelo_inurba_marseille","lat":43.290228,"lon":5.381458,"is_reserved":false,"is_disabled":false,"rental_uris":{"android":"levelo://app?vid=f264a6f7-f06a-44d4-a006-e55eb98f462b","ios":"levelo://app?vid=f264a6f7-f06a-44d4-a006-e55eb98f462b"},"vehicle_type_id":"4","last_reported":1718043043,"current_range_meters":15600,"station_id":"ce4bh4p2rcd13ifvqe1g","pricing_plan_id":"cebpf4jnsgd1na2vs0mg"},{"bike_id":"b17e867e-c0f6-49c1-b91a-7b354ca6d67b","system_id":"levelo_inurba_marseille","lat":43.337444,"lon":5.374475,"is_reserved":false,"is_disabled":false,"rental_uris":{"android":"levelo://app?vid=b17e867e-c0f6-49c1-b91a-7b354ca6d67b","ios":"levelo://app?vid=b17e867e-c0f6-49c1-b91a-7b354ca6d67b"},"vehicle_type_id":"4","last_reported":1718043043,"current_range_meters":30800,"station_id":"","pricing_plan_id":"cebpf4jnsgd1na2vs0mg"},{"bike_id":"e0a98a5e-e268-4ebc-92fa-4697cb57d726","system_id":"levelo_inurba_marseille","lat":43.30642,"lon":5.401031,"is_reserved":false,"is_disabled":false,"rental_uris":{"android":"levelo://app?vid=e0a98a5e-e268-4ebc-92fa-4697cb57d726","ios":"levelo://app?vid=e0a98a5e-e268-4ebc-92fa-4697cb57d726"},"vehicle_type_id":"4","last_reported":1718043043,"current_range_meters":0,"station_id":"ce4bh112rcd13ifvqda0","pricing_plan_id":"cebpf4jnsgd1na2vs0mg"},{"bike_id":"bbe016a4-fa21-468a-b39a-032a173376cb","system_id":"levelo_inurba_marseille","lat":43.309371,"lon":5.401449,"is_reserved":false,"is_disabled":false,"rental_uris":{"android":"levelo://app?vid=bbe016a4-fa21-468a-b39a-032a173376cb","ios":"levelo://app?vid=bbe016a4-fa21-468a-b39a-032a173376cb"},"vehicle_type_id":"4","last_reported":1718043043,"current_range_meters":12000,"station_id":"ce4bgvp2rcd13ifvqct0","pricing_plan_id":"cebpf4jnsgd1na2vs0mg"},{"bike_id":"58e8b916-c44f-4c8a-9407-698e8f6d9d5c","system_id":"levelo_inurba_marseille","lat":43.337567,"lon":5.374543,"is_reserved":false,"is_disabled":false,"rental_uris":{"android":"levelo://app?vid=58e8b916-c44f-4c8a-9407-698e8f6d9d5c","ios":"levelo://app?vid=58e8b916-c44f-4c8a-9407-698e8f6d9d5c"},"vehicle_type_id":"4","last_reported":1718043043,"current_range_meters":8400,"station_id":"","pricing_plan_id":"cebpf4jnsgd1na2vs0mg"},{"bike_id":"64016271-136f-4e22-93e3-3c8b2ac2fbed","system_id":"levelo_inurba_marseille","lat":43.306412,"lon":5.401035,"is_reserved":false,"is_disabled":false,"rental_uris":{"android":"levelo://app?vid=64016271-136f-4e22-93e3-3c8b2ac2fbed","ios":"levelo://app?vid=64016271-136f-4e22-93e3-3c8b2ac2fbed"},"vehicle_type_id":"4","last_reported":1718043043,"current_range_meters":8000,"station_id":"ce4bh112rcd13ifvqda0","pricing_plan_id":"cebpf4jnsgd1na2vs0mg"},{"bike_id":"7dc039c6-dfb4-44a0-9416-a9c5eb69c8a4","system_id":"levelo_inurba_marseille","lat":43.301117,"lon":5.398795,"is_reserved":false,"is_disabled":false,"rental_uris":{"android":"levelo://app?vid=7dc039c6-dfb4-44a0-9416-a9c5eb69c8a4","ios":"levelo://app?vid=7dc039c6-dfb4-44a0-9416-a9c5eb69c8a4"},"vehicle_type_id":"4","last_reported":1718043043,"current_range_meters":25600,"station_id":"ce4bh0h2rcd13ifvqd40","pricing_plan_id":"cebpf4jnsgd1na2vs0mg"},{"bike_id":"e45f581f-c822-454b-8d18-de0640f655c3","system_id":"levelo_inurba_marseille","lat":43.29795,"lon":5.404086,"is_reserved":false,"is_disabled":false,"rental_uris":{"android":"levelo://app?vid=e45f581f-c822-454b-8d18-de0640f655c3","ios":"levelo://app?vid=e45f581f-c822-454b-8d18-de0640f655c3"},"vehicle_type_id":"4","last_reported":1718043043,"current_range_meters":6800,"station_id":"ce4bh112rcd13ifvqd90","pricing_plan_id":"cebpf4jnsgd1na2vs0mg"},{"bike_id":"4cc6fc88-3e5a-430f-b472-5e2d9ab4cd74","system_id":"levelo_inurba_marseille","lat":43.301117,"lon":5.398795,"is_reserved":false,"is_disabled":false,"rental_uris":{"android":"levelo://app?vid=4cc6fc88-3e5a-430f-b472-5e2d9ab4cd74","ios":"levelo://app?vid=4cc6fc88-3e5a-430f-b472-5e2d9ab4cd74"},"vehicle_type_id":"4","last_reported":1718043043,"current_range_meters":25200,"station_id":"ce4bh0h2rcd13ifvqd40","pricing_plan_id":"cebpf4jnsgd1na2vs0mg"},{"bike_id":"59c2ca0d-e88d-4d63-95b5-489f7fe20fd1","system_id":"levelo_inurba_marseille","lat":43.301117,"lon":5.398795,"is_reserved":false,"is_disabled":false,"rental_uris":{"android":"levelo://app?vid=59c2ca0d-e88d-4d63-95b5-489f7fe20fd1","ios":"levelo://app?vid=59c2ca0d-e88d-4d63-95b5-489f7fe20fd1"},"vehicle_type_id":"4","last_reported":1718043043,"current_range_meters":19600,"station_id":"ce4bh0h2rcd13ifvqd40","pricing_plan_id":"cebpf4jnsgd1na2vs0mg"},{"bike_id":"9dcb74ff-ceef-46bb-b8f2-cd84ded9b18d","system_id":"levelo_inurba_marseille","lat":43.28727,"lon":5.36078,"is_reserved":false,"is_disabled":false,"rental_uris":{"android":"levelo://app?vid=9dcb74ff-ceef-46bb-b8f2-cd84ded9b18d","ios":"levelo://app?vid=9dcb74ff-ceef-46bb-b8f2-cd84ded9b18d"},"vehicle_type_id":"4","last_reported":1718043043,"current_range_meters":4800,"station_id":"cki0cbj6b192h4jlfktg","pricing_plan_id":"cebpf4jnsgd1na2vs0mg"},{"bike_id":"f3577817-714a-4ad7-8680-598a2896de05","system_id":"levelo_inurba_marseille","lat":43.298681,"lon":5.397225,"is_reserved":false,"is_disabled":false,"rental_uris":{"android":"levelo://app?vid=f3577817-714a-4ad7-8680-598a2896de05","ios":"levelo://app?vid=f3577817-714a-4ad7-8680-598a2896de05"},"vehicle_type_id":"4","last_reported":1718043043,"current_range_meters":25200,"station_id":"ce4bh0h2rcd13ifvqd50","pricing_plan_id":"cebpf4jnsgd1na2vs0mg"},{"bike_id":"b905dd5c-fd42-4274-938f-c91acf1f2d99","system_id":"levelo_inurba_marseille","lat":43.295316,"lon":5.39383,"is_reserved":false,"is_disabled":false,"rental_uris":{"android":"levelo://app?vid=b905dd5c-fd42-4274-938f-c91acf1f2d99","ios":"levelo://app?vid=b905dd5c-fd42-4274-938f-c91acf1f2d99"},"vehicle_type_id":"4","last_reported":1718043043,"current_range_meters":0,"station_id":"ce4bh292rcd13ifvqdf0","pricing_plan_id":"cebpf4jnsgd1na2vs0mg"},{"bike_id":"75edfeba-01e8-4768-bb26-f8bb358e9407","system_id":"levelo_inurba_marseille","lat":43.286593,"lon":5.363346,"is_reserved":false,"is_disabled":false,"rental_uris":{"android":"levelo://app?vid=75edfeba-01e8-4768-bb26-f8bb358e9407","ios":"levelo://app?vid=75edfeba-01e8-4768-bb26-f8bb358e9407"},"vehicle_type_id":"4","last_reported":1718043043,"current_range_meters":800,"station_id":"ce4bhah2rcd13ifvqej0","pricing_plan_id":"cebpf4jnsgd1na2vs0mg"},{"bike_id":"2aa167d3-0b6b-4751-b849-449ecee4bc44","system_id":"levelo_inurba_marseille","lat":43.298681,"lon":5.397225,"is_reserved":false,"is_disabled":false,"rental_uris":{"android":"levelo://app?vid=2aa167d3-0b6b-4751-b849-449ecee4bc44","ios":"levelo://app?vid=2aa167d3-0b6b-4751-b849-449ecee4bc44"},"vehicle_type_id":"4","last_reported":1718043043,"current_range_meters":3200,"station_id":"ce4bh0h2rcd13ifvqd50","pricing_plan_id":"cebpf4jnsgd1na2vs0mg"},{"bike_id":"03fe3b6a-9904-4cbf-bc64-e63998c485b2","system_id":"levelo_inurba_marseille","lat":43.286961,"lon":5.373785,"is_reserved":false,"is_disabled":false,"rental_uris":{"android":"levelo://app?vid=03fe3b6a-9904-4cbf-bc64-e63998c485b2","ios":"levelo://app?vid=03fe3b6a-9904-4cbf-bc64-e63998c485b2"},"vehicle_type_id":"4","last_reported":1718043043,"current_range_meters":14400,"station_id":"ce4bh3p2rcd13ifvqdq0","pricing_plan_id":"cebpf4jnsgd1na2vs0mg"},{"bike_id":"859e291f-631d-48e9-8628-f569013a3fc6","system_id":"levelo_inurba_marseille","lat":43.298681,"lon":5.397225,"is_reserved":false,"is_disabled":false,"rental_uris":{"android":"levelo://app?vid=859e291f-631d-48e9-8628-f569013a3fc6","ios":"levelo://app?vid=859e291f-631d-48e9-8628-f569013a3fc6"},"vehicle_type_id":"4","last_reported":1718043043,"current_range_meters":12800,"station_id":"ce4bh0h2rcd13ifvqd50","pricing_plan_id":"cebpf4jnsgd1na2vs0mg"},{"bike_id":"0e497453-15d9-46dc-9287-42caa1772f3b","system_id":"levelo_inurba_marseille","lat":43.298681,"lon":5.397225,"is_reserved":false,"is_disabled":false,"rental_uris":{"android":"levelo://app?vid=0e497453-15d9-46dc-9287-42caa1772f3b","ios":"levelo://app?vid=0e497453-15d9-46dc-9287-42caa1772f3b"},"vehicle_type_id":"4","last_reported":1718043043,"current_range_meters":21200,"station_id":"ce4bh0h2rcd13ifvqd50","pricing_plan_id":"cebpf4jnsgd1na2vs0mg"},{"bike_id":"c5d15dc8-6844-4814-8e5f-f8e024975eea","system_id":"levelo_inurba_marseille","lat":43.287001,"lon":5.373927,"is_reserved":false,"is_disabled":false,"rental_uris":{"android":"levelo://app?vid=c5d15dc8-6844-4814-8e5f-f8e024975eea","ios":"levelo://app?vid=c5d15dc8-6844-4814-8e5f-f8e024975eea"},"vehicle_type_id":"4","last_reported":1718043043,"current_range_meters":0,"station_id":"ce4bh3p2rcd13ifvqdq0","pricing_plan_id":"cebpf4jnsgd1na2vs0mg"},{"bike_id":"73301bed-0310-49a6-8050-363429102bf8","system_id":"levelo_inurba_marseille","lat":43.286961,"lon":5.373785,"is_reserved":false,"is_disabled":false,"rental_uris":{"android":"levelo://app?vid=73301bed-0310-49a6-8050-363429102bf8","ios":"levelo://app?vid=73301bed-0310-49a6-8050-363429102bf8"},"vehicle_type_id":"4","last_reported":1718043043,"current_range_meters":10400,"station_id":"ce4bh3p2rcd13ifvqdq0","pricing_plan_id":"cebpf4jnsgd1na2vs0mg"},{"bike_id":"8bf5b2a7-e557-4dcc-b630-dbc4d633239f","system_id":"levelo_inurba_marseille","lat":43.286961,"lon":5.373785,"is_reserved":false,"is_disabled":false,"rental_uris":{"android":"levelo://app?vid=8bf5b2a7-e557-4dcc-b630-dbc4d633239f","ios":"levelo://app?vid=8bf5b2a7-e557-4dcc-b630-dbc4d633239f"},"vehicle_type_id":"4","last_reported":1718043043,"current_range_meters":3600,"station_id":"ce4bh3p2rcd13ifvqdq0","pricing_plan_id":"cebpf4jnsgd1na2vs0mg"},{"bike_id":"6c4494da-0ed9-4524-8e63-f836859018e0","system_id":"levelo_inurba_marseille","lat":43.286961,"lon":5.373785,"is_reserved":false,"is_disabled":false,"rental_uris":{"android":"levelo://app?vid=6c4494da-0ed9-4524-8e63-f836859018e0","ios":"levelo://app?vid=6c4494da-0ed9-4524-8e63-f836859018e0"},"vehicle_type_id":"4","last_reported":1718043043,"current_range_meters":19600,"station_id":"ce4bh3p2rcd13ifvqdq0","pricing_plan_id":"cebpf4jnsgd1na2vs0mg"},{"bike_id":"731f1dd2-6ce8-4d08-a483-92dface27b6b","system_id":"levelo_inurba_marseille","lat":43.290336,"lon":5.386425,"is_reserved":false,"is_disabled":false,"rental_uris":{"android":"levelo://app?vid=731f1dd2-6ce8-4d08-a483-92dface27b6b","ios":"levelo://app?vid=731f1dd2-6ce8-4d08-a483-92dface27b6b"},"vehicle_type_id":"4","last_reported":1718043043,"current_range_meters":0,"station_id":"ce4bh4p2rcd13ifvqe0g","pricing_plan_id":"cebpf4jnsgd1na2vs0mg"},{"bike_id":"ad26d8ea-38e8-4995-ba49-c5554e98e429","system_id":"levelo_inurba_marseille","lat":43.30424,"lon":5.40133,"is_reserved":false,"is_disabled":false,"rental_uris":{"android":"levelo://app?vid=ad26d8ea-38e8-4995-ba49-c5554e98e429","ios":"levelo://app?vid=ad26d8ea-38e8-4995-ba49-c5554e98e429"},"vehicle_type_id":"4","last_reported":1718043043,"current_range_meters":25200,"station_id":"","pricing_plan_id":"cebpf4jnsgd1na2vs0mg"},{"bike_id":"f00444ff-d606-4903-ba0c-16a37dc8b2bc","system_id":"levelo_inurba_marseille","lat":43.289307,"lon":5.38406,"is_reserved":false,"is_disabled":false,"rental_uris":{"android":"levelo://app?vid=f00444ff-d606-4903-ba0c-16a37dc8b2bc","ios":"levelo://app?vid=f00444ff-d606-4903-ba0c-16a37dc8b2bc"},"vehicle_type_id":"4","last_reported":1718043043,"current_range_meters":0,"station_id":"ce4bh612rcd13ifvqe6g","pricing_plan_id":"cebpf4jnsgd1na2vs0mg"},{"bike_id":"45644731-ca02-40ae-b6f3-2c2efe19604f","system_id":"levelo_inurba_marseille","lat":43.290295,"lon":5.386286,"is_reserved":false,"is_disabled":false,"rental_uris":{"android":"levelo://app?vid=45644731-ca02-40ae-b6f3-2c2efe19604f","ios":"levelo://app?vid=45644731-ca02-40ae-b6f3-2c2efe19604f"},"vehicle_type_id":"4","last_reported":1718043043,"current_range_meters":0,"station_id":"ce4bh4p2rcd13ifvqe0g","pricing_plan_id":"cebpf4jnsgd1na2vs0mg"},{"bike_id":"51954a1d-db1b-4f36-abd0-2c9e0dbf8a75","system_id":"levelo_inurba_marseille","lat":43.290345,"lon":5.38646,"is_reserved":false,"is_disabled":false,"rental_uris":{"android":"levelo://app?vid=51954a1d-db1b-4f36-abd0-2c9e0dbf8a75","ios":"levelo://app?vid=51954a1d-db1b-4f36-abd0-2c9e0dbf8a75"},"vehicle_type_id":"4","last_reported":1718043043,"current_range_meters":0,"station_id":"ce4bh4p2rcd13ifvqe0g","pricing_plan_id":"cebpf4jnsgd1na2vs0mg"},{"bike_id":"0801ac0b-6cc2-4f7b-985e-bd30275eaf5b","system_id":"levelo_inurba_marseille","lat":43.302759,"lon":5.400793,"is_reserved":false,"is_disabled":false,"rental_uris":{"android":"levelo://app?vid=0801ac0b-6cc2-4f7b-985e-bd30275eaf5b","ios":"levelo://app?vid=0801ac0b-6cc2-4f7b-985e-bd30275eaf5b"},"vehicle_type_id":"4","last_reported":1718043043,"current_range_meters":8800,"station_id":"ce4bgvh2rcd13ifvqcs0","pricing_plan_id":"cebpf4jnsgd1na2vs0mg"},{"bike_id":"a2d40737-486f-482f-8194-c03b7800c038","system_id":"levelo_inurba_marseille","lat":43.290336,"lon":5.386425,"is_reserved":false,"is_disabled":false,"rental_uris":{"android":"levelo://app?vid=a2d40737-486f-482f-8194-c03b7800c038","ios":"levelo://app?vid=a2d40737-486f-482f-8194-c03b7800c038"},"vehicle_type_id":"4","last_reported":1718043043,"current_range_meters":7600,"station_id":"ce4bh4p2rcd13ifvqe0g","pricing_plan_id":"cebpf4jnsgd1na2vs0mg"},{"bike_id":"b6c0655b-e4fc-4fda-8d8f-63ee46f08a45","system_id":"levelo_inurba_marseille","lat":43.290336,"lon":5.386425,"is_reserved":false,"is_disabled":false,"rental_uris":{"android":"levelo://app?vid=b6c0655b-e4fc-4fda-8d8f-63ee46f08a45","ios":"levelo://app?vid=b6c0655b-e4fc-4fda-8d8f-63ee46f08a45"},"vehicle_type_id":"4","last_reported":1718043043,"current_range_meters":6800,"station_id":"ce4bh4p2rcd13ifvqe0g","pricing_plan_id":"cebpf4jnsgd1na2vs0mg"},{"bike_id":"4ccf3020-ee88-4f61-b2e7-6cde3dd5a4b4","system_id":"levelo_inurba_marseille","lat":43.28923,"lon":5.38393,"is_reserved":false,"is_disabled":false,"rental_uris":{"android":"levelo://app?vid=4ccf3020-ee88-4f61-b2e7-6cde3dd5a4b4","ios":"levelo://app?vid=4ccf3020-ee88-4f61-b2e7-6cde3dd5a4b4"},"vehicle_type_id":"4","last_reported":1718043043,"current_range_meters":0,"station_id":"ce4bh612rcd13ifvqe6g","pricing_plan_id":"cebpf4jnsgd1na2vs0mg"},{"bike_id":"ce2c880d-fa54-47fb-b33c-ffdcdfb438eb","system_id":"levelo_inurba_marseille","lat":43.290345,"lon":5.38646,"is_reserved":false,"is_disabled":false,"rental_uris":{"android":"levelo://app?vid=ce2c880d-fa54-47fb-b33c-ffdcdfb438eb","ios":"levelo://app?vid=ce2c880d-fa54-47fb-b33c-ffdcdfb438eb"},"vehicle_type_id":"4","last_reported":1718043043,"current_range_meters":0,"station_id":"ce4bh4p2rcd13ifvqe0g","pricing_plan_id":"cebpf4jnsgd1na2vs0mg"},{"bike_id":"0e3c0462-71ea-4888-b004-8b84ddf52f2a","system_id":"levelo_inurba_marseille","lat":43.290345,"lon":5.38646,"is_reserved":false,"is_disabled":false,"rental_uris":{"android":"levelo://app?vid=0e3c0462-71ea-4888-b004-8b84ddf52f2a","ios":"levelo://app?vid=0e3c0462-71ea-4888-b004-8b84ddf52f2a"},"vehicle_type_id":"4","last_reported":1718043043,"current_range_meters":0,"station_id":"ce4bh4p2rcd13ifvqe0g","pricing_plan_id":"cebpf4jnsgd1na2vs0mg"},{"bike_id":"d7bdcbf9-73d3-42d7-967a-7c998339e430","system_id":"levelo_inurba_marseille","lat":43.302759,"lon":5.400793,"is_reserved":false,"is_disabled":false,"rental_uris":{"android":"levelo://app?vid=d7bdcbf9-73d3-42d7-967a-7c998339e430","ios":"levelo://app?vid=d7bdcbf9-73d3-42d7-967a-7c998339e430"},"vehicle_type_id":"4","last_reported":1718043043,"current_range_meters":400,"station_id":"ce4bgvh2rcd13ifvqcs0","pricing_plan_id":"cebpf4jnsgd1na2vs0mg"},{"bike_id":"4ae966bb-43f5-44c0-9ae9-5bc2a480204d","system_id":"levelo_inurba_marseille","lat":43.290336,"lon":5.386425,"is_reserved":false,"is_disabled":false,"rental_uris":{"android":"levelo://app?vid=4ae966bb-43f5-44c0-9ae9-5bc2a480204d","ios":"levelo://app?vid=4ae966bb-43f5-44c0-9ae9-5bc2a480204d"},"vehicle_type_id":"4","last_reported":1718043043,"current_range_meters":1200,"station_id":"ce4bh4p2rcd13ifvqe0g","pricing_plan_id":"cebpf4jnsgd1na2vs0mg"},{"bike_id":"cc631f6b-3397-477c-9c96-251a4dd6e7ce","system_id":"levelo_inurba_marseille","lat":43.290336,"lon":5.386425,"is_reserved":false,"is_disabled":false,"rental_uris":{"android":"levelo://app?vid=cc631f6b-3397-477c-9c96-251a4dd6e7ce","ios":"levelo://app?vid=cc631f6b-3397-477c-9c96-251a4dd6e7ce"},"vehicle_type_id":"4","last_reported":1718043043,"current_range_meters":9200,"station_id":"ce4bh4p2rcd13ifvqe0g","pricing_plan_id":"cebpf4jnsgd1na2vs0mg"},{"bike_id":"fe35fcab-a4c3-4345-bcfd-88405863bdd0","system_id":"levelo_inurba_marseille","lat":43.302759,"lon":5.400793,"is_reserved":false,"is_disabled":false,"rental_uris":{"android":"levelo://app?vid=fe35fcab-a4c3-4345-bcfd-88405863bdd0","ios":"levelo://app?vid=fe35fcab-a4c3-4345-bcfd-88405863bdd0"},"vehicle_type_id":"4","last_reported":1718043043,"current_range_meters":400,"station_id":"ce4bgvh2rcd13ifvqcs0","pricing_plan_id":"cebpf4jnsgd1na2vs0mg"},{"bike_id":"53263573-6b5b-4271-ab74-06abc5a77f08","system_id":"levelo_inurba_marseille","lat":43.286961,"lon":5.373785,"is_reserved":false,"is_disabled":false,"rental_uris":{"android":"levelo://app?vid=53263573-6b5b-4271-ab74-06abc5a77f08","ios":"levelo://app?vid=53263573-6b5b-4271-ab74-06abc5a77f08"},"vehicle_type_id":"4","last_reported":1718043043,"current_range_meters":7200,"station_id":"ce4bh3p2rcd13ifvqdq0","pricing_plan_id":"cebpf4jnsgd1na2vs0mg"},{"bike_id":"9ed37421-3307-4921-a9eb-9f2a85f84e2f","system_id":"levelo_inurba_marseille","lat":43.28921,"lon":5.38415,"is_reserved":false,"is_disabled":false,"rental_uris":{"android":"levelo://app?vid=9ed37421-3307-4921-a9eb-9f2a85f84e2f","ios":"levelo://app?vid=9ed37421-3307-4921-a9eb-9f2a85f84e2f"},"vehicle_type_id":"4","last_reported":1718043043,"current_range_meters":0,"station_id":"ce4bh612rcd13ifvqe6g","pricing_plan_id":"cebpf4jnsgd1na2vs0mg"},{"bike_id":"cb39c621-f83e-4407-9659-67c1ccb95b7c","system_id":"levelo_inurba_marseille","lat":43.29362,"lon":5.39255,"is_reserved":false,"is_disabled":false,"rental_uris":{"android":"levelo://app?vid=cb39c621-f83e-4407-9659-67c1ccb95b7c","ios":"levelo://app?vid=cb39c621-f83e-4407-9659-67c1ccb95b7c"},"vehicle_type_id":"4","last_reported":1718043043,"current_range_meters":15600,"station_id":"","pricing_plan_id":"cebpf4jnsgd1na2vs0mg"},{"bike_id":"ce48cd26-9469-484e-a673-be61288f799a","system_id":"levelo_inurba_marseille","lat":43.286093,"lon":5.370652,"is_reserved":false,"is_disabled":false,"rental_uris":{"android":"levelo://app?vid=ce48cd26-9469-484e-a673-be61288f799a","ios":"levelo://app?vid=ce48cd26-9469-484e-a673-be61288f799a"},"vehicle_type_id":"4","last_reported":1718043043,"current_range_meters":0,"station_id":"","pricing_plan_id":"cebpf4jnsgd1na2vs0mg"},{"bike_id":"1b0fec60-95dc-436f-adba-8d82b0845561","system_id":"levelo_inurba_marseille","lat":43.286039,"lon":5.370681,"is_reserved":false,"is_disabled":false,"rental_uris":{"android":"levelo://app?vid=1b0fec60-95dc-436f-adba-8d82b0845561","ios":"levelo://app?vid=1b0fec60-95dc-436f-adba-8d82b0845561"},"vehicle_type_id":"4","last_reported":1718043043,"current_range_meters":14800,"station_id":"ce4bht12rcd13ifvqi60","pricing_plan_id":"cebpf4jnsgd1na2vs0mg"},{"bike_id":"3fea167a-47bf-4c49-bb81-0acc87f0460c","system_id":"levelo_inurba_marseille","lat":43.315218,"lon":5.403737,"is_reserved":false,"is_disabled":false,"rental_uris":{"android":"levelo://app?vid=3fea167a-47bf-4c49-bb81-0acc87f0460c","ios":"levelo://app?vid=3fea167a-47bf-4c49-bb81-0acc87f0460c"},"vehicle_type_id":"4","last_reported":1718043043,"current_range_meters":21200,"station_id":"ce4bh092rcd13ifvqd20","pricing_plan_id":"cebpf4jnsgd1na2vs0mg"},{"bike_id":"7f77cecf-1c0e-4a3b-94e1-1e595da3991c","system_id":"levelo_inurba_marseille","lat":43.31686,"lon":5.40474,"is_reserved":false,"is_disabled":false,"rental_uris":{"android":"levelo://app?vid=7f77cecf-1c0e-4a3b-94e1-1e595da3991c","ios":"levelo://app?vid=7f77cecf-1c0e-4a3b-94e1-1e595da3991c"},"vehicle_type_id":"4","last_reported":1718043043,"current_range_meters":0,"station_id":"ce4bh012rcd13ifvqd00","pricing_plan_id":"cebpf4jnsgd1na2vs0mg"},{"bike_id":"7d58ad95-a85f-4f25-8ecc-fa8e1f2b376c","system_id":"levelo_inurba_marseille","lat":43.316821,"lon":5.404737,"is_reserved":false,"is_disabled":false,"rental_uris":{"android":"levelo://app?vid=7d58ad95-a85f-4f25-8ecc-fa8e1f2b376c","ios":"levelo://app?vid=7d58ad95-a85f-4f25-8ecc-fa8e1f2b376c"},"vehicle_type_id":"4","last_reported":1718043043,"current_range_meters":11200,"station_id":"ce4bh012rcd13ifvqd00","pricing_plan_id":"cebpf4jnsgd1na2vs0mg"},{"bike_id":"dd68c840-fb08-499b-9846-a99ed89fe836","system_id":"levelo_inurba_marseille","lat":43.291994,"lon":5.392907,"is_reserved":false,"is_disabled":false,"rental_uris":{"android":"levelo://app?vid=dd68c840-fb08-499b-9846-a99ed89fe836","ios":"levelo://app?vid=dd68c840-fb08-499b-9846-a99ed89fe836"},"vehicle_type_id":"4","last_reported":1718043043,"current_range_meters":0,"station_id":"ce4bh192rcd13ifvqdd0","pricing_plan_id":"cebpf4jnsgd1na2vs0mg"},{"bike_id":"89e11b95-cb1a-4491-8215-5575afa4106a","system_id":"levelo_inurba_marseille","lat":43.291994,"lon":5.392907,"is_reserved":false,"is_disabled":false,"rental_uris":{"android":"levelo://app?vid=89e11b95-cb1a-4491-8215-5575afa4106a","ios":"levelo://app?vid=89e11b95-cb1a-4491-8215-5575afa4106a"},"vehicle_type_id":"4","last_reported":1718043043,"current_range_meters":5600,"station_id":"ce4bh192rcd13ifvqdd0","pricing_plan_id":"cebpf4jnsgd1na2vs0mg"},{"bike_id":"8de6a3c3-5802-4c21-9d54-7f51f663e749","system_id":"levelo_inurba_marseille","lat":43.28464,"lon":5.358967,"is_reserved":false,"is_disabled":false,"rental_uris":{"android":"levelo://app?vid=8de6a3c3-5802-4c21-9d54-7f51f663e749","ios":"levelo://app?vid=8de6a3c3-5802-4c21-9d54-7f51f663e749"},"vehicle_type_id":"4","last_reported":1718043043,"current_range_meters":28000,"station_id":"ce4bhah2rcd13ifvqei0","pricing_plan_id":"cebpf4jnsgd1na2vs0mg"},{"bike_id":"42bef1b8-ca5b-472b-9388-c0069d581b36","system_id":"levelo_inurba_marseille","lat":43.284538,"lon":5.358657,"is_reserved":false,"is_disabled":false,"rental_uris":{"android":"levelo://app?vid=42bef1b8-ca5b-472b-9388-c0069d581b36","ios":"levelo://app?vid=42bef1b8-ca5b-472b-9388-c0069d581b36"},"vehicle_type_id":"4","last_reported":1718043043,"current_range_meters":2000,"station_id":"ce4bhah2rcd13ifvqei0","pricing_plan_id":"cebpf4jnsgd1na2vs0mg"},{"bike_id":"20a73f26-a39a-4a3b-aab6-f00f431cf66d","system_id":"levelo_inurba_marseille","lat":43.284538,"lon":5.358657,"is_reserved":false,"is_disabled":false,"rental_uris":{"android":"levelo://app?vid=20a73f26-a39a-4a3b-aab6-f00f431cf66d","ios":"levelo://app?vid=20a73f26-a39a-4a3b-aab6-f00f431cf66d"},"vehicle_type_id":"4","last_reported":1718043043,"current_range_meters":5600,"station_id":"ce4bhah2rcd13ifvqei0","pricing_plan_id":"cebpf4jnsgd1na2vs0mg"},{"bike_id":"4d7cfe8b-7074-4279-8d23-4c3e6408017f","system_id":"levelo_inurba_marseille","lat":43.284572,"lon":5.35886,"is_reserved":false,"is_disabled":false,"rental_uris":{"android":"levelo://app?vid=4d7cfe8b-7074-4279-8d23-4c3e6408017f","ios":"levelo://app?vid=4d7cfe8b-7074-4279-8d23-4c3e6408017f"},"vehicle_type_id":"4","last_reported":1718043043,"current_range_meters":0,"station_id":"ce4bhah2rcd13ifvqei0","pricing_plan_id":"cebpf4jnsgd1na2vs0mg"},{"bike_id":"7ddbb001-0dc7-4f8e-a082-968ee5221997","system_id":"levelo_inurba_marseille","lat":43.284534,"lon":5.358662,"is_reserved":false,"is_disabled":false,"rental_uris":{"android":"levelo://app?vid=7ddbb001-0dc7-4f8e-a082-968ee5221997","ios":"levelo://app?vid=7ddbb001-0dc7-4f8e-a082-968ee5221997"},"vehicle_type_id":"4","last_reported":1718043043,"current_range_meters":11600,"station_id":"ce4bhah2rcd13ifvqei0","pricing_plan_id":"cebpf4jnsgd1na2vs0mg"},{"bike_id":"df4be99b-960b-4f14-a5a9-6a09b59c7073","system_id":"levelo_inurba_marseille","lat":43.284534,"lon":5.358662,"is_reserved":false,"is_disabled":false,"rental_uris":{"android":"levelo://app?vid=df4be99b-960b-4f14-a5a9-6a09b59c7073","ios":"levelo://app?vid=df4be99b-960b-4f14-a5a9-6a09b59c7073"},"vehicle_type_id":"4","last_reported":1718043043,"current_range_meters":2000,"station_id":"ce4bhah2rcd13ifvqei0","pricing_plan_id":"cebpf4jnsgd1na2vs0mg"},{"bike_id":"2cd8404f-c5e1-4c13-8287-61df949e7e30","system_id":"levelo_inurba_marseille","lat":43.294314,"lon":5.397498,"is_reserved":false,"is_disabled":false,"rental_uris":{"android":"levelo://app?vid=2cd8404f-c5e1-4c13-8287-61df949e7e30","ios":"levelo://app?vid=2cd8404f-c5e1-4c13-8287-61df949e7e30"},"vehicle_type_id":"4","last_reported":1718043043,"current_range_meters":30000,"station_id":"ce4bh3h2rcd13ifvqdo0","pricing_plan_id":"cebpf4jnsgd1na2vs0mg"},{"bike_id":"68dcc064-34a5-4648-bddc-105c6ab0c069","system_id":"levelo_inurba_marseille","lat":43.284534,"lon":5.358662,"is_reserved":false,"is_disabled":false,"rental_uris":{"android":"levelo://app?vid=68dcc064-34a5-4648-bddc-105c6ab0c069","ios":"levelo://app?vid=68dcc064-34a5-4648-bddc-105c6ab0c069"},"vehicle_type_id":"4","last_reported":1718043043,"current_range_meters":4800,"station_id":"ce4bhah2rcd13ifvqei0","pricing_plan_id":"cebpf4jnsgd1na2vs0mg"},{"bike_id":"8b0f97cf-8f0e-4f9c-a075-121c393a364c","system_id":"levelo_inurba_marseille","lat":43.283998,"lon":5.375062,"is_reserved":false,"is_disabled":false,"rental_uris":{"android":"levelo://app?vid=8b0f97cf-8f0e-4f9c-a075-121c393a364c","ios":"levelo://app?vid=8b0f97cf-8f0e-4f9c-a075-121c393a364c"},"vehicle_type_id":"4","last_reported":1718043043,"current_range_meters":0,"station_id":"ce4bh412rcd13ifvqds0","pricing_plan_id":"cebpf4jnsgd1na2vs0mg"},{"bike_id":"3d6eca59-2b3f-4310-bcb8-63ee4df8df91","system_id":"levelo_inurba_marseille","lat":43.294314,"lon":5.397498,"is_reserved":false,"is_disabled":false,"rental_uris":{"android":"levelo://app?vid=3d6eca59-2b3f-4310-bcb8-63ee4df8df91","ios":"levelo://app?vid=3d6eca59-2b3f-4310-bcb8-63ee4df8df91"},"vehicle_type_id":"4","last_reported":1718043043,"current_range_meters":7600,"station_id":"ce4bh3h2rcd13ifvqdo0","pricing_plan_id":"cebpf4jnsgd1na2vs0mg"},{"bike_id":"1911bc51-8f88-480f-99e1-426b5bba3dd4","system_id":"levelo_inurba_marseille","lat":43.294314,"lon":5.397498,"is_reserved":false,"is_disabled":false,"rental_uris":{"android":"levelo://app?vid=1911bc51-8f88-480f-99e1-426b5bba3dd4","ios":"levelo://app?vid=1911bc51-8f88-480f-99e1-426b5bba3dd4"},"vehicle_type_id":"4","last_reported":1718043043,"current_range_meters":14800,"station_id":"ce4bh3h2rcd13ifvqdo0","pricing_plan_id":"cebpf4jnsgd1na2vs0mg"},{"bike_id":"ed8dfde5-d9ea-4827-b4dd-24cbae5c449d","system_id":"levelo_inurba_marseille","lat":43.285856,"lon":5.350771,"is_reserved":false,"is_disabled":false,"rental_uris":{"android":"levelo://app?vid=ed8dfde5-d9ea-4827-b4dd-24cbae5c449d","ios":"levelo://app?vid=ed8dfde5-d9ea-4827-b4dd-24cbae5c449d"},"vehicle_type_id":"4","last_reported":1718043043,"current_range_meters":2400,"station_id":"ce4bhch2rcd13ifvqeug","pricing_plan_id":"cebpf4jnsgd1na2vs0mg"},{"bike_id":"41d0615f-6bd9-4b1f-adf7-489f58cde952","system_id":"levelo_inurba_marseille","lat":43.285856,"lon":5.350771,"is_reserved":false,"is_disabled":false,"rental_uris":{"android":"levelo://app?vid=41d0615f-6bd9-4b1f-adf7-489f58cde952","ios":"levelo://app?vid=41d0615f-6bd9-4b1f-adf7-489f58cde952"},"vehicle_type_id":"4","last_reported":1718043043,"current_range_meters":18400,"station_id":"ce4bhch2rcd13ifvqeug","pricing_plan_id":"cebpf4jnsgd1na2vs0mg"},{"bike_id":"a98950f9-60d1-4026-88e9-4cb7195a60fe","system_id":"levelo_inurba_marseille","lat":43.285856,"lon":5.350771,"is_reserved":false,"is_disabled":false,"rental_uris":{"android":"levelo://app?vid=a98950f9-60d1-4026-88e9-4cb7195a60fe","ios":"levelo://app?vid=a98950f9-60d1-4026-88e9-4cb7195a60fe"},"vehicle_type_id":"4","last_reported":1718043043,"current_range_meters":0,"station_id":"ce4bhch2rcd13ifvqeug","pricing_plan_id":"cebpf4jnsgd1na2vs0mg"},{"bike_id":"46f3a6a4-3ad9-4989-a826-1ecf0e1c5060","system_id":"levelo_inurba_marseille","lat":43.285856,"lon":5.350771,"is_reserved":false,"is_disabled":false,"rental_uris":{"android":"levelo://app?vid=46f3a6a4-3ad9-4989-a826-1ecf0e1c5060","ios":"levelo://app?vid=46f3a6a4-3ad9-4989-a826-1ecf0e1c5060"},"vehicle_type_id":"4","last_reported":1718043043,"current_range_meters":11200,"station_id":"ce4bhch2rcd13ifvqeug","pricing_plan_id":"cebpf4jnsgd1na2vs0mg"},{"bike_id":"272e9e65-6f0f-4a41-98f8-c42a13e496e4","system_id":"levelo_inurba_marseille","lat":43.285856,"lon":5.350771,"is_reserved":false,"is_disabled":false,"rental_uris":{"android":"levelo://app?vid=272e9e65-6f0f-4a41-98f8-c42a13e496e4","ios":"levelo://app?vid=272e9e65-6f0f-4a41-98f8-c42a13e496e4"},"vehicle_type_id":"4","last_reported":1718043043,"current_range_meters":11200,"station_id":"ce4bhch2rcd13ifvqeug","pricing_plan_id":"cebpf4jnsgd1na2vs0mg"},{"bike_id":"3110a212-f8fb-4712-8744-e9367e056095","system_id":"levelo_inurba_marseille","lat":43.319179,"lon":5.407725,"is_reserved":false,"is_disabled":false,"rental_uris":{"android":"levelo://app?vid=3110a212-f8fb-4712-8744-e9367e056095","ios":"levelo://app?vid=3110a212-f8fb-4712-8744-e9367e056095"},"vehicle_type_id":"4","last_reported":1718043043,"current_range_meters":0,"station_id":"ce4bhq12rcd13ifvqhig","pricing_plan_id":"cebpf4jnsgd1na2vs0mg"},{"bike_id":"1cb7ffaa-50aa-4458-a51f-d3007e6fcfca","system_id":"levelo_inurba_marseille","lat":43.3124,"lon":5.40709,"is_reserved":false,"is_disabled":false,"rental_uris":{"android":"levelo://app?vid=1cb7ffaa-50aa-4458-a51f-d3007e6fcfca","ios":"levelo://app?vid=1cb7ffaa-50aa-4458-a51f-d3007e6fcfca"},"vehicle_type_id":"4","last_reported":1718043043,"current_range_meters":23600,"station_id":"","pricing_plan_id":"cebpf4jnsgd1na2vs0mg"},{"bike_id":"c2bbfad9-5830-4008-af21-22211ee9e95a","system_id":"levelo_inurba_marseille","lat":43.295713,"lon":5.399639,"is_reserved":false,"is_disabled":false,"rental_uris":{"android":"levelo://app?vid=c2bbfad9-5830-4008-af21-22211ee9e95a","ios":"levelo://app?vid=c2bbfad9-5830-4008-af21-22211ee9e95a"},"vehicle_type_id":"4","last_reported":1718043043,"current_range_meters":1200,"station_id":"ce4bh312rcd13ifvqdj0","pricing_plan_id":"cebpf4jnsgd1na2vs0mg"},{"bike_id":"292ca142-fb61-4dbf-992a-e5af0ff8b4b1","system_id":"levelo_inurba_marseille","lat":43.283998,"lon":5.375062,"is_reserved":false,"is_disabled":false,"rental_uris":{"android":"levelo://app?vid=292ca142-fb61-4dbf-992a-e5af0ff8b4b1","ios":"levelo://app?vid=292ca142-fb61-4dbf-992a-e5af0ff8b4b1"},"vehicle_type_id":"4","last_reported":1718043043,"current_range_meters":0,"station_id":"ce4bh412rcd13ifvqds0","pricing_plan_id":"cebpf4jnsgd1na2vs0mg"},{"bike_id":"c9ba3162-db69-4052-a66a-b38399d8eff0","system_id":"levelo_inurba_marseille","lat":43.283998,"lon":5.375062,"is_reserved":false,"is_disabled":false,"rental_uris":{"android":"levelo://app?vid=c9ba3162-db69-4052-a66a-b38399d8eff0","ios":"levelo://app?vid=c9ba3162-db69-4052-a66a-b38399d8eff0"},"vehicle_type_id":"4","last_reported":1718043043,"current_range_meters":0,"station_id":"ce4bh412rcd13ifvqds0","pricing_plan_id":"cebpf4jnsgd1na2vs0mg"},