{"last_updated":1711562975,"ttl":30,"version":"2.2","data":{"bikes":[{"bike_id":"df2e276f-8ec1-4ca0-abe9-e8c6a3ab1c58","system_id":"levelo_inurba_marseille","lat":43.312239,"lon":5.368562,"is_reserved":false,"is_disabled":false,"rental_uris":{"android":"levelo://app?vid=df2e276f-8ec1-4ca0-abe9-e8c6a3ab1c58","ios":"levelo://app?vid=df2e276f-8ec1-4ca0-abe9-e8c6a3ab1c58"},"vehicle_type_id":"4","last_reported":1711562975,"current_range_meters":5200,"station_id":"ce4bgl92rcd13ifvqbq0","pricing_plan_id":"cebpf4jnsgd1na2vs0mg"},{"bike_id":"74b683ee-210b-4cfc-a652-616bf7a941e7","system_id":"levelo_inurba_marseille","lat":43.312239,"lon":5.368562,"is_reserved":false,"is_disabled":false,"rental_uris":{"android":"levelo://app?vid=74b683ee-210b-4cfc-a652-616bf7a941e7","ios":"levelo://app?vid=74b683ee-210b-4cfc-a652-616bf7a941e7"},"vehicle_type_id":"4","last_reported":1711562975,"current_range_meters":5600,"station_id":"ce4bgl92rcd13ifvqbq0","pricing_plan_id":"cebpf4jnsgd1na2vs0mg"},{"bike_id":"765a65d7-1f5a-4f7a-984f-7f7b23b30a02","system_id":"levelo_inurba_marseille","lat":43.309076,"lon":5.368465,"is_reserved":false,"is_disabled":false,"rental_uris":{"android":"levelo://app?vid=765a65d7-1f5a-4f7a-984f-7f7b23b30a02","ios":"levelo://app?vid=765a65d7-1f5a-4f7a-984f-7f7b23b30a02"},"vehicle_type_id":"4","last_reported":1711562975,"current_range_meters":18400,"station_id":"ce4bgn92rcd13ifvqbvg","pricing_plan_id":"cebpf4jnsgd1na2vs0mg"},{"bike_id":"6ae753f2-fc0c-44ed-9238-84f3353997ed","system_id":"levelo_inurba_marseille","lat":43.309039,"lon":5.371797,"is_reserved":false,"is_disabled":false,"rental_uris":{"android":"levelo://app?vid=6ae753f2-fc0c-44ed-9238-84f3353997ed","ios":"levelo://app?vid=6ae753f2-fc0c-44ed-9238-84f3353997ed"},"vehicle_type_id":"4","last_reported":1711562975,"current_range_meters":27600,"station_id":"ce4bguh2rcd13ifvqckg","pricing_plan_id":"cebpf4jnsgd1na2vs0mg"},{"bike_id":"b9e33a0e-4859-4dd6-b67a-88a506da2dc9","system_id":"levelo_inurba_marseille","lat":43.314811,"lon":5.373104,"is_reserved":false,"is_disabled":false,"rental_uris":{"android":"levelo://app?vid=b9e33a0e-4859-4dd6-b67a-88a506da2dc9","ios":"levelo://app?vid=b9e33a0e-4859-4dd6-b67a-88a506da2dc9"},"vehicle_type_id":"4","last_reported":1711562975,"current_range_meters":0,"station_id":"ce4bgt12rcd13ifvqcd0","pricing_plan_id":"cebpf4jnsgd1na2vs0mg"},{"bike_id":"f5f1edcf-2c31-43b0-a1ab-f8ba6266a5de","system_id":"levelo_inurba_marseille","lat":43.319935,"lon":5.381699,"is_reserved":false,"is_disabled":false,"rental_uris":{"android":"levelo://app?vid=f5f1edcf-2c31-43b0-a1ab-f8ba6266a5de","ios":"levelo://app?vid=f5f1edcf-2c31-43b0-a1ab-f8ba6266a5de"},"vehicle_type_id":"4","last_reported":1711562975,"current_range_meters":31200,"station_id":"ce4bhr12rcd13ifvqhpg","pricing_plan_id":"cebpf4jnsgd1na2vs0mg"},{"bike_id":"0f28aefc-5ed6-427c-a66b-ed4536ea9b29","system_id":"levelo_inurba_marseille","lat":43.314811,"lon":5.373104,"is_reserved":false,"is_disabled":false,"rental_uris":{"android":"levelo://app?vid=0f28aefc-5ed6-427c-a66b-ed4536ea9b29","ios":"levelo://app?vid=0f28aefc-5ed6-427c-a66b-ed4536ea9b29"},"vehicle_type_id":"4","last_reported":1711562975,"current_range_meters":6800,"station_id":"ce4bgt12rcd13ifvqcd0","pricing_plan_id":"cebpf4jnsgd1na2vs0mg"},{"bike_id":"db04e088-257b-44f0-8cf1-658aa7a05ea6","system_id":"levelo_inurba_marseille","lat":43.31492,"lon":5.37312,"is_reserved":false,"is_disabled":false,"rental_uris":{"android":"levelo://app?vid=db04e088-257b-44f0-8cf1-658aa7a05ea6","ios":"levelo://app?vid=db04e088-257b-44f0-8cf1-658aa7a05ea6"},"vehicle_type_id":"4","last_reported":1711562975,"current_range_meters":9200,"station_id":"ce4bgt12rcd13ifvqcd0","pricing_plan_id":"cebpf4jnsgd1na2vs0mg"},{"bike_id":"9d699464-3b16-4177-bd7a-9f3568d3c511","system_id":"levelo_inurba_marseille","lat":43.309034,"lon":5.371783,"is_reserved":false,"is_disabled":false,"rental_uris":{"android":"levelo://app?vid=9d699464-3b16-4177-bd7a-9f3568d3c511","ios":"levelo://app?vid=9d699464-3b16-4177-bd7a-9f3568d3c511"},"vehicle_type_id":"4","last_reported":1711562975,"current_range_meters":3200,"station_id":"ce4bguh2rcd13ifvqckg","pricing_plan_id":"cebpf4jnsgd1na2vs0mg"},{"bike_id":"1e3e63a2-b386-4205-83c8-89a1978b0eeb","system_id":"levelo_inurba_marseille","lat":43.309034,"lon":5.371783,"is_reserved":false,"is_disabled":false,"rental_uris":{"android":"levelo://app?vid=1e3e63a2-b386-4205-83c8-89a1978b0eeb","ios":"levelo://app?vid=1e3e63a2-b386-4205-83c8-89a1978b0eeb"},"vehicle_type_id":"4","last_reported":1711562975,"current_range_meters":9200,"station_id":"ce4bguh2rcd13ifvqckg","pricing_plan_id":"cebpf4jnsgd1na2vs0mg"},{"bike_id":"4cad55b6-ef03-4c3c-bbf6-75d8edabd678","system_id":"levelo_inurba_marseille","lat":43.30547,"lon":5.36528,"is_reserved":false,"is_disabled":false,"rental_uris":{"android":"levelo://app?vid=4cad55b6-ef03-4c3c-bbf6-75d8edabd678","ios":"levelo://app?vid=4cad55b6-ef03-4c3c-bbf6-75d8edabd678"},"vehicle_type_id":"4","last_reported":1711562975,"current_range_meters":0,"station_id":"ce4bgs12rcd13ifvqcag","pricing_plan_id":"cebpf4jnsgd1na2vs0mg"},{"bike_id":"99e9593e-ed3a-48c4-9459-f9c5c7bce0ac","system_id":"levelo_inurba_marseille","lat":43.30545,"lon":5.36535,"is_reserved":false,"is_disabled":false,"rental_uris":{"android":"levelo://app?vid=99e9593e-ed3a-48c4-9459-f9c5c7bce0ac","ios":"levelo://app?vid=99e9593e-ed3a-48c4-9459-f9c5c7bce0ac"},"vehicle_type_id":"4","last_reported":1711562975,"current_range_meters":0,"station_id":"ce4bgs12rcd13ifvqcag","pricing_plan_id":"cebpf4jnsgd1na2vs0mg"},{"bike_id":"5d619b0f-6d65-4f1a-8fb4-e654d371e10d","system_id":"levelo_inurba_marseille","lat":43.30545,"lon":5.36532,"is_reserved":false,"is_disabled":false,"rental_uris":{"android":"levelo://app?vid=5d619b0f-6d65-4f1a-8fb4-e654d371e10d","ios":"levelo://app?vid=5d619b0f-6d65-4f1a-8fb4-e654d371e10d"},"vehicle_type_id":"4","last_reported":1711562975,"current_range_meters":0,"station_id":"ce4bgs12rcd13ifvqcag","pricing_plan_id":"cebpf4jnsgd1na2vs0mg"},{"bike_id":"7c2cae36-46e2-4a88-8f79-e866aa091967","system_id":"levelo_inurba_marseille","lat":43.298037,"lon":5.381066,"is_reserved":false,"is_disabled":false,"rental_uris":{"android":"levelo://app?vid=7c2cae36-46e2-4a88-8f79-e866aa091967","ios":"levelo://app?vid=7c2cae36-46e2-4a88-8f79-e866aa091967"},"vehicle_type_id":"4","last_reported":1711562975,"current_range_meters":13200,"station_id":"ce4bgip2rcd13ifvqbb0","pricing_plan_id":"cebpf4jnsgd1na2vs0mg"},{"bike_id":"6b405426-bbef-4c37-9982-237d1252ab72","system_id":"levelo_inurba_marseille","lat":43.305714,"lon":5.365633,"is_reserved":false,"is_disabled":false,"rental_uris":{"android":"levelo://app?vid=6b405426-bbef-4c37-9982-237d1252ab72","ios":"levelo://app?vid=6b405426-bbef-4c37-9982-237d1252ab72"},"vehicle_type_id":"4","last_reported":1711562975,"current_range_meters":16000,"station_id":"ce4bgs12rcd13ifvqcag","pricing_plan_id":"cebpf4jnsgd1na2vs0mg"},{"bike_id":"472b0dc2-380a-42d8-8c5c-4072cfa473b8","system_id":"levelo_inurba_marseille","lat":43.30536,"lon":5.36546,"is_reserved":false,"is_disabled":false,"rental_uris":{"android":"levelo://app?vid=472b0dc2-380a-42d8-8c5c-4072cfa473b8","ios":"levelo://app?vid=472b0dc2-380a-42d8-8c5c-4072cfa473b8"},"vehicle_type_id":"4","last_reported":1711562975,"current_range_meters":6800,"station_id":"ce4bgs12rcd13ifvqcag","pricing_plan_id":"cebpf4jnsgd1na2vs0mg"},{"bike_id":"8ee76383-1670-4ca1-b74e-e4efe2e3fa13","system_id":"levelo_inurba_marseille","lat":43.305706,"lon":5.365654,"is_reserved":false,"is_disabled":false,"rental_uris":{"android":"levelo://app?vid=8ee76383-1670-4ca1-b74e-e4efe2e3fa13","ios":"levelo://app?vid=8ee76383-1670-4ca1-b74e-e4efe2e3fa13"},"vehicle_type_id":"4","last_reported":1711562975,"current_range_meters":0,"station_id":"ce4bgs12rcd13ifvqcag","pricing_plan_id":"cebpf4jnsgd1na2vs0mg"},{"bike_id":"c2d03297-591d-495c-868f-b77afda039b1","system_id":"levelo_inurba_marseille","lat":43.305368,"lon":5.367343,"is_reserved":false,"is_disabled":false,"rental_uris":{"android":"levelo://app?vid=c2d03297-591d-495c-868f-b77afda039b1","ios":"levelo://app?vid=c2d03297-591d-495c-868f-b77afda039b1"},"vehicle_type_id":"4","last_reported":1711562975,"current_range_meters":0,"station_id":"ce4bgrp2rcd13ifvqc9g","pricing_plan_id":"cebpf4jnsgd1na2vs0mg"},{"bike_id":"5d8d4948-d0b5-43b9-bf80-cc900e30223f","system_id":"levelo_inurba_marseille","lat":43.305989,"lon":5.37225,"is_reserved":false,"is_disabled":false,"rental_uris":{"android":"levelo://app?vid=5d8d4948-d0b5-43b9-bf80-cc900e30223f","ios":"levelo://app?vid=5d8d4948-d0b5-43b9-bf80-cc900e30223f"},"vehicle_type_id":"4","last_reported":1711562975,"current_range_meters":10800,"station_id":"ce4bgqh2rcd13ifvqc4g","pricing_plan_id":"cebpf4jnsgd1na2vs0mg"},{"bike_id":"3bd2771a-98ce-44b1-938a-d5a0c485038a","system_id":"levelo_inurba_marseille","lat":43.305989,"lon":5.37225,"is_reserved":false,"is_disabled":false,"rental_uris":{"android":"levelo://app?vid=3bd2771a-98ce-44b1-938a-d5a0c485038a","ios":"levelo://app?vid=3bd2771a-98ce-44b1-938a-d5a0c485038a"},"vehicle_type_id":"4","last_reported":1711562975,"current_range_meters":4400,"station_id":"ce4bgqh2rcd13ifvqc4g","pricing_plan_id":"cebpf4jnsgd1na2vs0mg"},{"bike_id":"829f5726-b44f-4a6a-a695-f6a056c776cd","system_id":"levelo_inurba_marseille","lat":43.305989,"lon":5.37225,"is_reserved":false,"is_disabled":false,"rental_uris":{"android":"levelo://app?vid=829f5726-b44f-4a6a-a695-f6a056c776cd","ios":"levelo://app?vid=829f5726-b44f-4a6a-a695-f6a056c776cd"},"vehicle_type_id":"4","last_reported":1711562975,"current_range_meters":21200,"station_id":"ce4bgqh2rcd13ifvqc4g","pricing_plan_id":"cebpf4jnsgd1na2vs0mg"},{"bike_id":"02d8e546-2a9a-4d93-bc8a-04dd0c003552","system_id":"levelo_inurba_marseille","lat":43.305989,"lon":5.37225,"is_reserved":false,"is_disabled":false,"rental_uris":{"android":"levelo://app?vid=02d8e546-2a9a-4d93-bc8a-04dd0c003552","ios":"levelo://app?vid=02d8e546-2a9a-4d93-bc8a-04dd0c003552"},"vehicle_type_id":"4","last_reported":1711562975,"current_range_meters":12800,"station_id":"ce4bgqh2rcd13ifvqc4g","pricing_plan_id":"cebpf4jnsgd1na2vs0mg"},{"bike_id":"9a1dd122-1c19-48f2-8925-9e0438e6af6f","system_id":"levelo_inurba_marseille","lat":43.305989,"lon":5.37225,"is_reserved":false,"is_disabled":false,"rental_uris":{"android":"levelo://app?vid=9a1dd122-1c19-48f2-8925-9e0438e6af6f","ios":"levelo://app?vid=9a1dd122-1c19-48f2-8925-9e0438e6af6f"},"vehicle_type_id":"4","last_reported":1711562975,"current_range_meters":22400,"station_id":"ce4bgqh2rcd13ifvqc4g","pricing_plan_id":"cebpf4jnsgd1na2vs0mg"},{"bike_id":"b2ef3ce3-a7d6-448f-898d-a54adc6d88e1","system_id":"levelo_inurba_marseille","lat":43.305989,"lon":5.37225,"is_reserved":false,"is_disabled":false,"rental_uris":{"android":"levelo://app?vid=b2ef3ce3-a7d6-448f-898d-a54adc6d88e1","ios":"levelo://app?vid=b2ef3ce3-a7d6-448f-898d-a54adc6d88e1"},"vehicle_type_id":"4","last_reported":1711562975,"current_range_meters":4000,"station_id":"ce4bgqh2rcd13ifvqc4g","pricing_plan_id":"cebpf4jnsgd1na2vs0mg"},{"bike_id":"ff95de9a-5090-4dfb-a3fb-209db544d805","system_id":"levelo_inurba_marseille","lat":43.305989,"lon":5.37225,"is_reserved":false,"is_disabled":false,"rental_uris":{"android":"levelo://app?vid=ff95de9a-5090-4dfb-a3fb-209db544d805","ios":"levelo://app?vid=ff95de9a-5090-4dfb-a3fb-209db544d805"},"vehicle_type_id":"4","last_reported":1711562975,"current_range_meters":8800,"station_id":"ce4bgqh2rcd13ifvqc4g","pricing_plan_id":"cebpf4jnsgd1na2vs0mg"},{"bike_id":"26e4ab4f-51d9-4ea1-a563-12ed97246eba","system_id":"levelo_inurba_marseille","lat":43.30606,"lon":5.37221,"is_reserved":false,"is_disabled":false,"rental_uris":{"android":"levelo://app?vid=26e4ab4f-51d9-4ea1-a563-12ed97246eba","ios":"levelo://app?vid=26e4ab4f-51d9-4ea1-a563-12ed97246eba"},"vehicle_type_id":"4","last_reported":1711562975,"current_range_meters":7200,"station_id":"ce4bgqh2rcd13ifvqc4g","pricing_plan_id":"cebpf4jnsgd1na2vs0mg"},{"bike_id":"7cc2b65e-6639-4f43-93f8-0a2c3994dfaf","system_id":"levelo_inurba_marseille","lat":43.299243,"lon":5.374807,"is_reserved":false,"is_disabled":false,"rental_uris":{"android":"levelo://app?vid=7cc2b65e-6639-4f43-93f8-0a2c3994dfaf","ios":"levelo://app?vid=7cc2b65e-6639-4f43-93f8-0a2c3994dfaf"},"vehicle_type_id":"4","last_reported":1711562975,"current_range_meters":16800,"station_id":"ce4bgjh2rcd13ifvqbg0","pricing_plan_id":"cebpf4jnsgd1na2vs0mg"},{"bike_id":"971cf871-20ea-447d-bfda-bb0ed653cb8d","system_id":"levelo_inurba_marseille","lat":43.305989,"lon":5.37225,"is_reserved":false,"is_disabled":false,"rental_uris":{"android":"levelo://app?vid=971cf871-20ea-447d-bfda-bb0ed653cb8d","ios":"levelo://app?vid=971cf871-20ea-447d-bfda-bb0ed653cb8d"},"vehicle_type_id":"4","last_reported":1711562975,"current_range_meters":2400,"station_id":"ce4bgqh2rcd13ifvqc4g","pricing_plan_id":"cebpf4jnsgd1na2vs0mg"},{"bike_id":"e05034df-34b9-4362-ba75-37ef0d7c31a4","system_id":"levelo_inurba_marseille","lat":43.311131,"lon":5.377651,"is_reserved":false,"is_disabled":false,"rental_uris":{"android":"levelo://app?vid=e05034df-34b9-4362-ba75-37ef0d7c31a4","ios":"levelo://app?vid=e05034df-34b9-4362-ba75-37ef0d7c31a4"},"vehicle_type_id":"4","last_reported":1711562975,"current_range_meters":5200,"station_id":"ce4bgt92rcd13ifvqcg0","pricing_plan_id":"cebpf4jnsgd1na2vs0mg"},{"bike_id":"03270139-68a0-4ac6-aa7f-3f9a392f30c0","system_id":"levelo_inurba_marseille","lat":43.311131,"lon":5.377651,"is_reserved":false,"is_disabled":false,"rental_uris":{"android":"levelo://app?vid=03270139-68a0-4ac6-aa7f-3f9a392f30c0","ios":"levelo://app?vid=03270139-68a0-4ac6-aa7f-3f9a392f30c0"},"vehicle_type_id":"4","last_reported":1711562975,"current_range_meters":24400,"station_id":"ce4bgt92rcd13ifvqcg0","pricing_plan_id":"cebpf4jnsgd1na2vs0mg"},{"bike_id":"89cef6e1-ce8f-4f0d-aff6-f11c57188faf","system_id":"levelo_inurba_marseille","lat":43.311125,"lon":5.377624,"is_reserved":false,"is_disabled":false,"rental_uris":{"android":"levelo://app?vid=89cef6e1-ce8f-4f0d-aff6-f11c57188faf","ios":"levelo://app?vid=89cef6e1-ce8f-4f0d-aff6-f11c57188faf"},"vehicle_type_id":"4","last_reported":1711562975,"current_range_meters":7600,"station_id":"ce4bgt92rcd13ifvqcg0","pricing_plan_id":"cebpf4jnsgd1na2vs0mg"},{"bike_id":"a312d3fa-9db2-499a-ab45-9f1e5485d44a","system_id":"levelo_inurba_marseille","lat":43.311125,"lon":5.377624,"is_reserved":false,"is_disabled":false,"rental_uris":{"android":"levelo://app?vid=a312d3fa-9db2-499a-ab45-9f1e5485d44a","ios":"levelo://app?vid=a312d3fa-9db2-499a-ab45-9f1e5485d44a"},"vehicle_type_id":"4","last_reported":1711562975,"current_range_meters":0,"station_id":"ce4bgt92rcd13ifvqcg0","pricing_plan_id":"cebpf4jnsgd1na2vs0mg"},{"bike_id":"5d681ba1-760a-4800-9010-6cc00d53fb71","system_id":"levelo_inurba_marseille","lat":43.311131,"lon":5.377651,"is_reserved":false,"is_disabled":false,"rental_uris":{"android":"levelo://app?vid=5d681ba1-760a-4800-9010-6cc00d53fb71","ios":"levelo://app?vid=5d681ba1-760a-4800-9010-6cc00d53fb71"},"vehicle_type_id":"4","last_reported":1711562975,"current_range_meters":11200,"station_id":"ce4bgt92rcd13ifvqcg0","pricing_plan_id":"cebpf4jnsgd1na2vs0mg"},{"bike_id":"544cba81-bc4f-45d3-bb63-6583ff37bd73","system_id":"levelo_inurba_marseille","lat":43.311125,"lon":5.377624,"is_reserved":false,"is_disabled":false,"rental_uris":{"android":"levelo://app?vid=544cba81-bc4f-45d3-bb63-6583ff37bd73","ios":"levelo://app?vid=544cba81-bc4f-45d3-bb63-6583ff37bd73"},"vehicle_type_id":"4","last_reported":1711562975,"current_range_meters":23600,"station_id":"ce4bgt92rcd13ifvqcg0","pricing_plan_id":"cebpf4jnsgd1na2vs0mg"},{"bike_id":"ce3df699-5cbc-4807-b5bb-11b964065f82","system_id":"levelo_inurba_marseille","lat":43.311125,"lon":5.377624,"is_reserved":false,"is_disabled":false,"rental_uris":{"android":"levelo://app?vid=ce3df699-5cbc-4807-b5bb-11b964065f82","ios":"levelo://app?vid=ce3df699-5cbc-4807-b5bb-11b964065f82"},"vehicle_type_id":"4","last_reported":1711562975,"current_range_meters":9600,"station_id":"ce4bgt92rcd13ifvqcg0","pricing_plan_id":"cebpf4jnsgd1na2vs0mg"},{"bike_id":"f6aee687-b81c-46bb-95e6-ce7e62cba879","system_id":"levelo_inurba_marseille","lat":43.311125,"lon":5.377624,"is_reserved":false,"is_disabled":false,"rental_uris":{"android":"levelo://app?vid=f6aee687-b81c-46bb-95e6-ce7e62cba879","ios":"levelo://app?vid=f6aee687-b81c-46bb-95e6-ce7e62cba879"},"vehicle_type_id":"4","last_reported":1711562975,"current_range_meters":17600,"station_id":"ce4bgt92rcd13ifvqcg0","pricing_plan_id":"cebpf4jnsgd1na2vs0mg"},{"bike_id":"154abff7-04cf-43f8-84a3-35f746348efe","system_id":"levelo_inurba_marseille","lat":43.307945,"lon":5.376487,"is_reserved":false,"is_disabled":false,"rental_uris":{"android":"levelo://app?vid=154abff7-04cf-43f8-84a3-35f746348efe","ios":"levelo://app?vid=154abff7-04cf-43f8-84a3-35f746348efe"},"vehicle_type_id":"4","last_reported":1711562975,"current_range_meters":26800,"station_id":"ce4bgv92rcd13ifvqcq0","pricing_plan_id":"cebpf4jnsgd1na2vs0mg"},{"bike_id":"6f2260f7-ea82-4048-9a92-60791050a995","system_id":"levelo_inurba_marseille","lat":43.30786,"lon":5.37639,"is_reserved":false,"is_disabled":false,"rental_uris":{"android":"levelo://app?vid=6f2260f7-ea82-4048-9a92-60791050a995","ios":"levelo://app?vid=6f2260f7-ea82-4048-9a92-60791050a995"},"vehicle_type_id":"4","last_reported":1711562975,"current_range_meters":0,"station_id":"ce4bgv92rcd13ifvqcq0","pricing_plan_id":"cebpf4jnsgd1na2vs0mg"},{"bike_id":"2c633eff-ff97-40f3-95d2-acd78d7e3202","system_id":"levelo_inurba_marseille","lat":43.307945,"lon":5.376487,"is_reserved":false,"is_disabled":false,"rental_uris":{"android":"levelo://app?vid=2c633eff-ff97-40f3-95d2-acd78d7e3202","ios":"levelo://app?vid=2c633eff-ff97-40f3-95d2-acd78d7e3202"},"vehicle_type_id":"4","last_reported":1711562975,"current_range_meters":6800,"station_id":"ce4bgv92rcd13ifvqcq0","pricing_plan_id":"cebpf4jnsgd1na2vs0mg"},{"bike_id":"af26da93-0872-4c6b-8324-a959a057bc0e","system_id":"levelo_inurba_marseille","lat":43.30786,"lon":5.37642,"is_reserved":false,"is_disabled":false,"rental_uris":{"android":"levelo://app?vid=af26da93-0872-4c6b-8324-a959a057bc0e","ios":"levelo://app?vid=af26da93-0872-4c6b-8324-a959a057bc0e"},"vehicle_type_id":"4","last_reported":1711562975,"current_range_meters":16400,"station_id":"ce4bgv92rcd13ifvqcq0","pricing_plan_id":"cebpf4jnsgd1na2vs0mg"},{"bike_id":"22ec3924-f8dc-4f7d-ab98-69a1d623e4b4","system_id":"levelo_inurba_marseille","lat":43.307945,"lon":5.376487,"is_reserved":false,"is_disabled":false,"rental_uris":{"android":"levelo://app?vid=22ec3924-f8dc-4f7d-ab98-69a1d623e4b4","ios":"levelo://app?vid=22ec3924-f8dc-4f7d-ab98-69a1d623e4b4"},"vehicle_type_id":"4","last_reported":1711562975,"current_range_meters":9600,"station_id":"ce4bgv92rcd13ifvqcq0","pricing_plan_id":"cebpf4jnsgd1na2vs0mg"},{"bike_id":"76d7541a-2bb7-42c7-a74d-af64065308df","system_id":"levelo_inurba_marseille","lat":43.307945,"lon":5.376487,"is_reserved":false,"is_disabled":false,"rental_uris":{"android":"levelo://app?vid=76d7541a-2bb7-42c7-a74d-af64065308df","ios":"levelo://app?vid=76d7541a-2bb7-42c7-a74d-af64065308df"},"vehicle_type_id":"4","last_reported":1711562975,"current_range_meters":14000,"station_id":"ce4bgv92rcd13ifvqcq0","pricing_plan_id":"cebpf4jnsgd1na2vs0mg"},{"bike_id":"d60e9162-f56b-4b9e-9d2e-2c36f7429337","system_id":"levelo_inurba_marseille","lat":43.307945,"lon":5.376487,"is_reserved":false,"is_disabled":false,"rental_uris":{"android":"levelo://app?vid=d60e9162-f56b-4b9e-9d2e-2c36f7429337","ios":"levelo://app?vid=d60e9162-f56b-4b9e-9d2e-2c36f7429337"},"vehicle_type_id":"4","last_reported":1711562975,"current_range_meters":20400,"station_id":"ce4bgv92rcd13ifvqcq0","pricing_plan_id":"cebpf4jnsgd1na2vs0mg"},{"bike_id":"b06667cd-ce52-434b-a3ff-20b09fdeca23","system_id":"levelo_inurba_marseille","lat":43.317075,"lon":5.377367,"is_reserved":false,"is_disabled":false,"rental_uris":{"android":"levelo://app?vid=b06667cd-ce52-434b-a3ff-20b09fdeca23","ios":"levelo://app?vid=b06667cd-ce52-434b-a3ff-20b09fdeca23"},"vehicle_type_id":"4","last_reported":1711562975,"current_range_meters":3200,"station_id":"ce4bgth2rcd13ifvqch0","pricing_plan_id":"cebpf4jnsgd1na2vs0mg"},{"bike_id":"6903f910-de58-4b5c-88ac-01356d69cc14","system_id":"levelo_inurba_marseille","lat":43.317075,"lon":5.377367,"is_reserved":false,"is_disabled":false,"rental_uris":{"android":"levelo://app?vid=6903f910-de58-4b5c-88ac-01356d69cc14","ios":"levelo://app?vid=6903f910-de58-4b5c-88ac-01356d69cc14"},"vehicle_type_id":"4","last_reported":1711562975,"current_range_meters":27200,"station_id":"ce4bgth2rcd13ifvqch0","pricing_plan_id":"cebpf4jnsgd1na2vs0mg"},{"bike_id":"29cda53b-6ec1-4a83-b2c6-7081c9ce636a","system_id":"levelo_inurba_marseille","lat":43.317075,"lon":5.377367,"is_reserved":false,"is_disabled":false,"rental_uris":{"android":"levelo://app?vid=29cda53b-6ec1-4a83-b2c6-7081c9ce636a","ios":"levelo://app?vid=29cda53b-6ec1-4a83-b2c6-7081c9ce636a"},"vehicle_type_id":"4","last_reported":1711562975,"current_range_meters":14800,"station_id":"ce4bgth2rcd13ifvqch0","pricing_plan_id":"cebpf4jnsgd1na2vs0mg"},{"bike_id":"bbfed310-f5ca-41c8-bf3a-f83cd6959697","system_id":"levelo_inurba_marseille","lat":43.313324,"lon":5.378891,"is_reserved":false,"is_disabled":false,"rental_uris":{"android":"levelo://app?vid=bbfed310-f5ca-41c8-bf3a-f83cd6959697","ios":"levelo://app?vid=bbfed310-f5ca-41c8-bf3a-f83cd6959697"},"vehicle_type_id":"4","last_reported":1711562975,"current_range_meters":29200,"station_id":"","pricing_plan_id":"cebpf4jnsgd1na2vs0mg"},{"bike_id":"874ed888-8ff9-4ac0-b33d-717390c5b412","system_id":"levelo_inurba_marseille","lat":43.317075,"lon":5.377367,"is_reserved":false,"is_disabled":false,"rental_uris":{"android":"levelo://app?vid=874ed888-8ff9-4ac0-b33d-717390c5b412","ios":"levelo://app?vid=874ed888-8ff9-4ac0-b33d-717390c5b412"},"vehicle_type_id":"4","last_reported":1711562975,"current_range_meters":8800,"station_id":"ce4bgth2rcd13ifvqch0","pricing_plan_id":"cebpf4jnsgd1na2vs0mg"},{"bike_id":"12fd110e-46cd-458b-b106-dc9969c862d8","system_id":"levelo_inurba_marseille","lat":43.317075,"lon":5.377367,"is_reserved":false,"is_disabled":false,"rental_uris":{"android":"levelo://app?vid=12fd110e-46cd-458b-b106-dc9969c862d8","ios":"levelo://app?vid=12fd110e-46cd-458b-b106-dc9969c862d8"},"vehicle_type_id":"4","last_reported":1711562975,"current_range_meters":11200,"station_id":"ce4bgth2rcd13ifvqch0","pricing_plan_id":"cebpf4jnsgd1na2vs0mg"},{"bike_id":"252da316-82ce-4946-baa5-67c2b15f1a85","system_id":"levelo_inurba_marseille","lat":43.311125,"lon":5.377624,"is_reserved":false,"is_disabled":false,"rental_uris":{"android":"levelo://app?vid=252da316-82ce-4946-baa5-67c2b15f1a85","ios":"levelo://app?vid=252da316-82ce-4946-baa5-67c2b15f1a85"},"vehicle_type_id":"4","last_reported":1711562975,"current_range_meters":0,"station_id":"ce4bgt92rcd13ifvqcg0","pricing_plan_id":"cebpf4jnsgd1na2vs0mg"},{"bike_id":"0331c554-8575-4b3d-a7b9-567b4d5c12e8","system_id":"levelo_inurba_marseille","lat":43.305989,"lon":5.37225,"is_reserved":false,"is_disabled":false,"rental_uris":{"android":"levelo://app?vid=0331c554-8575-4b3d-a7b9-567b4d5c12e8","ios":"levelo://app?vid=0331c554-8575-4b3d-a7b9-567b4d5c12e8"},"vehicle_type_id":"4","last_reported":1711562975,"current_range_meters":14800,"station_id":"ce4bgqh2rcd13ifvqc4g","pricing_plan_id":"cebpf4jnsgd1na2vs0mg"},{"bike_id":"959ce717-a4fe-4739-b482-00f35ff1c12f","system_id":"levelo_inurba_marseille","lat":43.315289,"lon":5.380349,"is_reserved":false,"is_disabled":false,"rental_uris":{"android":"levelo://app?vid=959ce717-a4fe-4739-b482-00f35ff1c12f","ios":"levelo://app?vid=959ce717-a4fe-4739-b482-00f35ff1c12f"},"vehicle_type_id":"4","last_reported":1711562975,"current_range_meters":9600,"station_id":"ce4bhsp2rcd13ifvqi50","pricing_plan_id":"cebpf4jnsgd1na2vs0mg"},{"bike_id":"9ba10b64-0acd-481d-ad0f-61fd42526fe1","system_id":"levelo_inurba_marseille","lat":43.315293,"lon":5.380349,"is_reserved":false,"is_disabled":false,"rental_uris":{"android":"levelo://app?vid=9ba10b64-0acd-481d-ad0f-61fd42526fe1","ios":"levelo://app?vid=9ba10b64-0acd-481d-ad0f-61fd42526fe1"},"vehicle_type_id":"4","last_reported":1711562975,"current_range_meters":27600,"station_id":"ce4bhsp2rcd13ifvqi50","pricing_plan_id":"cebpf4jnsgd1na2vs0mg"},{"bike_id":"0a5e655d-eb8b-4df3-87ef-3212dff9055b","system_id":"levelo_inurba_marseille","lat":43.315293,"lon":5.380349,"is_reserved":false,"is_disabled":false,"rental_uris":{"android":"levelo://app?vid=0a5e655d-eb8b-4df3-87ef-3212dff9055b","ios":"levelo://app?vid=0a5e655d-eb8b-4df3-87ef-3212dff9055b"},"vehicle_type_id":"4","last_reported":1711562975,"current_range_meters":12800,"station_id":"ce4bhsp2rcd13ifvqi50","pricing_plan_id":"cebpf4jnsgd1na2vs0mg"},{"bike_id":"b4b04a01-bec0-44c2-8a14-3b1fa3f62cd0","system_id":"levelo_inurba_marseille","lat":43.301939,"lon":5.366286,"is_reserved":false,"is_disabled":false,"rental_uris":{"android":"levelo://app?vid=b4b04a01-bec0-44c2-8a14-3b1fa3f62cd0","ios":"levelo://app?vid=b4b04a01-bec0-44c2-8a14-3b1fa3f62cd0"},"vehicle_type_id":"4","last_reported":1711562975,"current_range_meters":9600,"station_id":"ce4bgrh2rcd13ifvqc8g","pricing_plan_id":"cebpf4jnsgd1na2vs0mg"},{"bike_id":"8d203f78-f5bc-420a-ad40-71ea52861b05","system_id":"levelo_inurba_marseille","lat":43.301939,"lon":5.366286,"is_reserved":false,"is_disabled":false,"rental_uris":{"android":"levelo://app?vid=8d203f78-f5bc-420a-ad40-71ea52861b05","ios":"levelo://app?vid=8d203f78-f5bc-420a-ad40-71ea52861b05"},"vehicle_type_id":"4","last_reported":1711562975,"current_range_meters":0,"station_id":"ce4bgrh2rcd13ifvqc8g","pricing_plan_id":"cebpf4jnsgd1na2vs0mg"},{"bike_id":"a5260d03-e77e-4d24-a6a1-8831f9e7a9b2","system_id":"levelo_inurba_marseille","lat":43.301939,"lon":5.366286,"is_reserved":false,"is_disabled":false,"rental_uris":{"android":"levelo://app?vid=a5260d03-e77e-4d24-a6a1-8831f9e7a9b2","ios":"levelo://app?vid=a5260d03-e77e-4d24-a6a1-8831f9e7a9b2"},"vehicle_type_id":"4","last_reported":1711562975,"current_range_meters":16000,"station_id":"ce4bgrh2rcd13ifvqc8g","pricing_plan_id":"cebpf4jnsgd1na2vs0mg"},{"bike_id":"656b523c-5948-4dd9-8900-2115f6dab7d8","system_id":"levelo_inurba_marseille","lat":43.301939,"lon":5.366286,"is_reserved":false,"is_disabled":false,"rental_uris":{"android":"levelo://app?vid=656b523c-5948-4dd9-8900-2115f6dab7d8","ios":"levelo://app?vid=656b523c-5948-4dd9-8900-2115f6dab7d8"},"vehicle_type_id":"4","last_reported":1711562975,"current_range_meters":28800,"station_id":"ce4bgrh2rcd13ifvqc8g","pricing_plan_id":"cebpf4jnsgd1na2vs0mg"},{"bike_id":"6d015f64-fe7e-4ac3-bb36-76060964ea62","system_id":"levelo_inurba_marseille","lat":43.310804,"lon":5.38359,"is_reserved":false,"is_disabled":false,"rental_uris":{"android":"levelo://app?vid=6d015f64-fe7e-4ac3-bb36-76060964ea62","ios":"levelo://app?vid=6d015f64-fe7e-4ac3-bb36-76060964ea62"},"vehicle_type_id":"4","last_reported":1711562975,"current_range_meters":7600,"station_id":"ce4bgv92rcd13ifvqcr0","pricing_plan_id":"cebpf4jnsgd1na2vs0mg"},{"bike_id":"3109d634-0362-4e4e-b6bc-773521cd7da1","system_id":"levelo_inurba_marseille","lat":43.308012,"lon":5.381511,"is_reserved":false,"is_disabled":false,"rental_uris":{"android":"levelo://app?vid=3109d634-0362-4e4e-b6bc-773521cd7da1","ios":"levelo://app?vid=3109d634-0362-4e4e-b6bc-773521cd7da1"},"vehicle_type_id":"4","last_reported":1711562975,"current_range_meters":7200,"station_id":"ce4bgt12rcd13ifvqce0","pricing_plan_id":"cebpf4jnsgd1na2vs0mg"},{"bike_id":"c0550b49-47fb-4b6f-85a0-ad996797aebd","system_id":"levelo_inurba_marseille","lat":43.308012,"lon":5.381511,"is_reserved":false,"is_disabled":false,"rental_uris":{"android":"levelo://app?vid=c0550b49-47fb-4b6f-85a0-ad996797aebd","ios":"levelo://app?vid=c0550b49-47fb-4b6f-85a0-ad996797aebd"},"vehicle_type_id":"4","last_reported":1711562975,"current_range_meters":0,"station_id":"ce4bgt12rcd13ifvqce0","pricing_plan_id":"cebpf4jnsgd1na2vs0mg"},{"bike_id":"3a8e333e-a2a3-46cc-aa8c-3bf086918633","system_id":"levelo_inurba_marseille","lat":43.308012,"lon":5.381511,"is_reserved":false,"is_disabled":false,"rental_uris":{"android":"levelo://app?vid=3a8e333e-a2a3-46cc-aa8c-3bf086918633","ios":"levelo://app?vid=3a8e333e-a2a3-46cc-aa8c-3bf086918633"},"vehicle_type_id":"4","last_reported":1711562975,"current_range_meters":8000,"station_id":"ce4bgt12rcd13ifvqce0","pricing_plan_id":"cebpf4jnsgd1na2vs0mg"},{"bike_id":"094ac676-92d8-4d02-939f-c44561f5d481","system_id":"levelo_inurba_marseille","lat":43.308012,"lon":5.381511,"is_reserved":false,"is_disabled":false,"rental_uris":{"android":"levelo://app?vid=094ac676-92d8-4d02-939f-c44561f5d481","ios":"levelo://app?vid=094ac676-92d8-4d02-939f-c44561f5d481"},"vehicle_type_id":"4","last_reported":1711562975,"current_range_meters":0,"station_id":"ce4bgt12rcd13ifvqce0","pricing_plan_id":"cebpf4jnsgd1na2vs0mg"},{"bike_id":"598ec407-11d5-4b0c-8b81-7c6bc8566049","system_id":"levelo_inurba_marseille","lat":43.240623,"lon":5.377642,"is_reserved":false,"is_disabled":false,"rental_uris":{"android":"levelo://app?vid=598ec407-11d5-4b0c-8b81-7c6bc8566049","ios":"levelo://app?vid=598ec407-11d5-4b0c-8b81-7c6bc8566049"},"vehicle_type_id":"4","last_reported":1711562975,"current_range_meters":400,"station_id":"ce4bhnp2rcd13ifvqgvg","pricing_plan_id":"cebpf4jnsgd1na2vs0mg"},{"bike_id":"05b3efda-ab6d-40af-a03c-9e2faaece752","system_id":"levelo_inurba_marseille","lat":43.324771,"lon":5.36557,"is_reserved":false,"is_disabled":false,"rental_uris":{"android":"levelo://app?vid=05b3efda-ab6d-40af-a03c-9e2faaece752","ios":"levelo://app?vid=05b3efda-ab6d-40af-a03c-9e2faaece752"},"vehicle_type_id":"4","last_reported":1711562975,"current_range_meters":8400,"station_id":"ce4bhs12rcd13ifvqhvg","pricing_plan_id":"cebpf4jnsgd1na2vs0mg"},{"bike_id":"d7e593ae-0e04-4801-88d6-585d610f28a0","system_id":"levelo_inurba_marseille","lat":43.324771,"lon":5.36557,"is_reserved":false,"is_disabled":false,"rental_uris":{"android":"levelo://app?vid=d7e593ae-0e04-4801-88d6-585d610f28a0","ios":"levelo://app?vid=d7e593ae-0e04-4801-88d6-585d610f28a0"},"vehicle_type_id":"4","last_reported":1711562975,"current_range_meters":14400,"station_id":"ce4bhs12rcd13ifvqhvg","pricing_plan_id":"cebpf4jnsgd1na2vs0mg"},{"bike_id":"43b4b1de-e643-4315-b184-0fee78a69416","system_id":"levelo_inurba_marseille","lat":43.324771,"lon":5.36557,"is_reserved":false,"is_disabled":false,"rental_uris":{"android":"levelo://app?vid=43b4b1de-e643-4315-b184-0fee78a69416","ios":"levelo://app?vid=43b4b1de-e643-4315-b184-0fee78a69416"},"vehicle_type_id":"4","last_reported":1711562975,"current_range_meters":24400,"station_id":"ce4bhs12rcd13ifvqhvg","pricing_plan_id":"cebpf4jnsgd1na2vs0mg"},{"bike_id":"fbe69af4-7209-4087-ba80-65c206e63bf9","system_id":"levelo_inurba_marseille","lat":43.324771,"lon":5.36557,"is_reserved":false,"is_disabled":false,"rental_uris":{"android":"levelo://app?vid=fbe69af4-7209-4087-ba80-65c206e63bf9","ios":"levelo://app?vid=fbe69af4-7209-4087-ba80-65c206e63bf9"},"vehicle_type_id":"4","last_reported":1711562975,"current_range_meters":14000,"station_id":"ce4bhs12rcd13ifvqhvg","pricing_plan_id":"cebpf4jnsgd1na2vs0mg"},{"bike_id":"bccbaded-54c1-4f70-a194-8a427ac690dc","system_id":"levelo_inurba_marseille","lat":43.324771,"lon":5.36557,"is_reserved":false,"is_disabled":false,"rental_uris":{"android":"levelo://app?vid=bccbaded-54c1-4f70-a194-8a427ac690dc","ios":"levelo://app?vid=bccbaded-54c1-4f70-a194-8a427ac690dc"},"vehicle_type_id":"4","last_reported":1711562975,"current_range_meters":16800,"station_id":"ce4bhs12rcd13ifvqhvg","pricing_plan_id":"cebpf4jnsgd1na2vs0mg"},{"bike_id":"9afccbb4-05a5-4ea7-af33-8ecf42e8eb65","system_id":"levelo_inurba_marseille","lat":43.310804,"lon":5.38359,"is_reserved":false,"is_disabled":false,"rental_uris":{"android":"levelo://app?vid=9afccbb4-05a5-4ea7-af33-8ecf42e8eb65","ios":"levelo://app?vid=9afccbb4-05a5-4ea7-af33-8ecf42e8eb65"},"vehicle_type_id":"4","last_reported":1711562975,"current_range_meters":13200,"station_id":"ce4bgv92rcd13ifvqcr0","pricing_plan_id":"cebpf4jnsgd1na2vs0mg"},{"bike_id":"cdefcfbf-b46d-4e75-be02-386b414737ca","system_id":"levelo_inurba_marseille","lat":43.310804,"lon":5.38359,"is_reserved":false,"is_disabled":false,"rental_uris":{"android":"levelo://app?vid=cdefcfbf-b46d-4e75-be02-386b414737ca","ios":"levelo://app?vid=cdefcfbf-b46d-4e75-be02-386b414737ca"},"vehicle_type_id":"4","last_reported":1711562975,"current_range_meters":24000,"station_id":"ce4bgv92rcd13ifvqcr0","pricing_plan_id":"cebpf4jnsgd1na2vs0mg"},{"bike_id":"dec24262-38b9-45a5-a074-2f239f5ac7cf","system_id":"levelo_inurba_marseille","lat":43.319935,"lon":5.381699,"is_reserved":false,"is_disabled":false,"rental_uris":{"android":"levelo://app?vid=dec24262-38b9-45a5-a074-2f239f5ac7cf","ios":"levelo://app?vid=dec24262-38b9-45a5-a074-2f239f5ac7cf"},"vehicle_type_id":"4","last_reported":1711562975,"current_range_meters":20000,"station_id":"ce4bhr12rcd13ifvqhpg","pricing_plan_id":"cebpf4jnsgd1na2vs0mg"},{"bike_id":"a06ef315-4357-46ed-94cc-fc48d049720b","system_id":"levelo_inurba_marseille","lat":43.310804,"lon":5.38359,"is_reserved":false,"is_disabled":false,"rental_uris":{"android":"levelo://app?vid=a06ef315-4357-46ed-94cc-fc48d049720b","ios":"levelo://app?vid=a06ef315-4357-46ed-94cc-fc48d049720b"},"vehicle_type_id":"4","last_reported":1711562975,"current_range_meters":27600,"station_id":"ce4bgv92rcd13ifvqcr0","pricing_plan_id":"cebpf4jnsgd1na2vs0mg"},{"bike_id":"9ed7a015-da8b-4e07-80b7-9d3dc8b05186","system_id":"levelo_inurba_marseille","lat":43.310804,"lon":5.38359,"is_reserved":false,"is_disabled":false,"rental_uris":{"android":"levelo://app?vid=9ed7a015-da8b-4e07-80b7-9d3dc8b05186","ios":"levelo://app?vid=9ed7a015-da8b-4e07-80b7-9d3dc8b05186"},"vehicle_type_id":"4","last_reported":1711562975,"current_range_meters":27600,"station_id":"ce4bgv92rcd13ifvqcr0","pricing_plan_id":"cebpf4jnsgd1na2vs0mg"},{"bike_id":"c09ef43a-d443-4b38-8943-80ff46c555d6","system_id":"levelo_inurba_marseille","lat":43.310804,"lon":5.38359,"is_reserved":false,"is_disabled":false,"rental_uris":{"android":"levelo://app?vid=c09ef43a-d443-4b38-8943-80ff46c555d6","ios":"levelo://app?vid=c09ef43a-d443-4b38-8943-80ff46c555d6"},"vehicle_type_id":"4","last_reported":1711562975,"current_range_meters":9600,"station_id":"ce4bgv92rcd13ifvqcr0","pricing_plan_id":"cebpf4jnsgd1na2vs0mg"},{"bike_id":"da8b1cab-5677-4e76-aef1-5dc4e7cc7ef7","system_id":"levelo_inurba_marseille","lat":43.302784,"lon":5.377158,"is_reserved":false,"is_disabled":false,"rental_uris":{"android":"levelo://app?vid=da8b1cab-5677-4e76-aef1-5dc4e7cc7ef7","ios":"levelo://app?vid=da8b1cab-5677-4e76-aef1-5dc4e7cc7ef7"},"vehicle_type_id":"4","last_reported":1711562975,"current_range_meters":5200,"station_id":"ce4bguh2rcd13ifvqcj0","pricing_plan_id":"cebpf4jnsgd1na2vs0mg"},{"bike_id":"1f8c09bd-5e45-4f4c-bb1e-7d4b2ad5ffc7","system_id":"levelo_inurba_marseille","lat":43.319935,"lon":5.381699,"is_reserved":false,"is_disabled":false,"rental_uris":{"android":"levelo://app?vid=1f8c09bd-5e45-4f4c-bb1e-7d4b2ad5ffc7","ios":"levelo://app?vid=1f8c09bd-5e45-4f4c-bb1e-7d4b2ad5ffc7"},"vehicle_type_id":"4","last_reported":1711562975,"current_range_meters":5600,"station_id":"ce4bhr12rcd13ifvqhpg","pricing_plan_id":"cebpf4jnsgd1na2vs0mg"},{"bike_id":"651479e1-9654-47a3-91ae-829318402b96","system_id":"levelo_inurba_marseille","lat":43.313571,"lon":5.384829,"is_reserved":false,"is_disabled":false,"rental_uris":{"android":"levelo://app?vid=651479e1-9654-47a3-91ae-829318402b96","ios":"levelo://app?vid=651479e1-9654-47a3-91ae-829318402b96"},"vehicle_type_id":"4","last_reported":1711562975,"current_range_meters":9600,"station_id":"ce4bgt92rcd13ifvqcf0","pricing_plan_id":"cebpf4jnsgd1na2vs0mg"},{"bike_id":"0bbe86d2-e783-4683-a2ec-da4581c74752","system_id":"levelo_inurba_marseille","lat":43.313571,"lon":5.384829,"is_reserved":false,"is_disabled":false,"rental_uris":{"android":"levelo://app?vid=0bbe86d2-e783-4683-a2ec-da4581c74752","ios":"levelo://app?vid=0bbe86d2-e783-4683-a2ec-da4581c74752"},"vehicle_type_id":"4","last_reported":1711562975,"current_range_meters":17200,"station_id":"ce4bgt92rcd13ifvqcf0","pricing_plan_id":"cebpf4jnsgd1na2vs0mg"},{"bike_id":"710f5b42-14f5-4022-974a-96ac75904c2a","system_id":"levelo_inurba_marseille","lat":43.301117,"lon":5.398795,"is_reserved":false,"is_disabled":false,"rental_uris":{"android":"levelo://app?vid=710f5b42-14f5-4022-974a-96ac75904c2a","ios":"levelo://app?vid=710f5b42-14f5-4022-974a-96ac75904c2a"},"vehicle_type_id":"4","last_reported":1711562975,"current_range_meters":22400,"station_id":"ce4bh0h2rcd13ifvqd40","pricing_plan_id":"cebpf4jnsgd1na2vs0mg"},{"bike_id":"d2473d72-3b32-461a-8541-dd11edf92399","system_id":"levelo_inurba_marseille","lat":43.313571,"lon":5.384829,"is_reserved":false,"is_disabled":false,"rental_uris":{"android":"levelo://app?vid=d2473d72-3b32-461a-8541-dd11edf92399","ios":"levelo://app?vid=d2473d72-3b32-461a-8541-dd11edf92399"},"vehicle_type_id":"4","last_reported":1711562975,"current_range_meters":6800,"station_id":"ce4bgt92rcd13ifvqcf0","pricing_plan_id":"cebpf4jnsgd1na2vs0mg"},{"bike_id":"4be05ce4-cca6-4505-9802-d8d5a61b6655","system_id":"levelo_inurba_marseille","lat":43.313571,"lon":5.384829,"is_reserved":false,"is_disabled":false,"rental_uris":{"android":"levelo://app?vid=4be05ce4-cca6-4505-9802-d8d5a61b6655","ios":"levelo://app?vid=4be05ce4-cca6-4505-9802-d8d5a61b6655"},"vehicle_type_id":"4","last_reported":1711562975,"current_range_meters":5200,"station_id":"ce4bgt92rcd13ifvqcf0","pricing_plan_id":"cebpf4jnsgd1na2vs0mg"},{"bike_id":"20871a98-109e-4750-9ac8-a3cf48160991","system_id":"levelo_inurba_marseille","lat":43.313571,"lon":5.384829,"is_reserved":false,"is_disabled":false,"rental_uris":{"android":"levelo://app?vid=20871a98-109e-4750-9ac8-a3cf48160991","ios":"levelo://app?vid=20871a98-109e-4750-9ac8-a3cf48160991"},"vehicle_type_id":"4","last_reported":1711562975,"current_range_meters":4800,"station_id":"ce4bgt92rcd13ifvqcf0","pricing_plan_id":"cebpf4jnsgd1na2vs0mg"},{"bike_id":"f46cfbec-832a-4b89-ab8b-aac89e2c2c01","system_id":"levelo_inurba_marseille","lat":43.313571,"lon":5.384829,"is_reserved":false,"is_disabled":false,"rental_uris":{"android":"levelo://app?vid=f46cfbec-832a-4b89-ab8b-aac89e2c2c01","ios":"levelo://app?vid=f46cfbec-832a-4b89-ab8b-aac89e2c2c01"},"vehicle_type_id":"4","last_reported":1711562975,"current_range_meters":29600,"station_id":"ce4bgt92rcd13ifvqcf0","pricing_plan_id":"cebpf4jnsgd1na2vs0mg"},{"bike_id":"72c9de81-079c-40fd-b38c-3382a98f0e01","system_id":"levelo_inurba_marseille","lat":43.299222,"lon":5.365554,"is_reserved":false,"is_disabled":false,"rental_uris":{"android":"levelo://app?vid=72c9de81-079c-40fd-b38c-3382a98f0e01","ios":"levelo://app?vid=72c9de81-079c-40fd-b38c-3382a98f0e01"},"vehicle_type_id":"4","last_reported":1711562975,"current_range_meters":7600,"station_id":"ce4bgm92rcd13ifvqbr0","pricing_plan_id":"cebpf4jnsgd1na2vs0mg"},{"bike_id":"0f447817-216a-42c8-b0b4-36afb09e5563","system_id":"levelo_inurba_marseille","lat":43.299222,"lon":5.365554,"is_reserved":false,"is_disabled":false,"rental_uris":{"android":"levelo://app?vid=0f447817-216a-42c8-b0b4-36afb09e5563","ios":"levelo://app?vid=0f447817-216a-42c8-b0b4-36afb09e5563"},"vehicle_type_id":"4","last_reported":1711562975,"current_range_meters":0,"station_id":"ce4bgm92rcd13ifvqbr0","pricing_plan_id":"cebpf4jnsgd1na2vs0mg"},{"bike_id":"e9e2f62f-9943-4675-a814-74576e00999a","system_id":"levelo_inurba_marseille","lat":43.299724,"lon":5.371829,"is_reserved":false,"is_disabled":false,"rental_uris":{"android":"levelo://app?vid=e9e2f62f-9943-4675-a814-74576e00999a","ios":"levelo://app?vid=e9e2f62f-9943-4675-a814-74576e00999a"},"vehicle_type_id":"4","last_reported":1711562975,"current_range_meters":14000,"station_id":"ce4bgr92rcd13ifvqc7g","pricing_plan_id":"cebpf4jnsgd1na2vs0mg"},{"bike_id":"59997d1b-1a4a-44da-899e-4221cc5bf617","system_id":"levelo_inurba_marseille","lat":43.299724,"lon":5.371829,"is_reserved":false,"is_disabled":false,"rental_uris":{"android":"levelo://app?vid=59997d1b-1a4a-44da-899e-4221cc5bf617","ios":"levelo://app?vid=59997d1b-1a4a-44da-899e-4221cc5bf617"},"vehicle_type_id":"4","last_reported":1711562975,"current_range_meters":10000,"station_id":"ce4bgr92rcd13ifvqc7g","pricing_plan_id":"cebpf4jnsgd1na2vs0mg"},{"bike_id":"3f4f8bb9-716b-44b6-ace3-3691b2c50484","system_id":"levelo_inurba_marseille","lat":43.299724,"lon":5.371829,"is_reserved":false,"is_disabled":false,"rental_uris":{"android":"levelo://app?vid=3f4f8bb9-716b-44b6-ace3-3691b2c50484","ios":"levelo://app?vid=3f4f8bb9-716b-44b6-ace3-3691b2c50484"},"vehicle_type_id":"4","last_reported":1711562975,"current_range_meters":10400,"station_id":"ce4bgr92rcd13ifvqc7g","pricing_plan_id":"cebpf4jnsgd1na2vs0mg"},{"bike_id":"14f34b4c-aea1-4294-80eb-802b453e58d5","system_id":"levelo_inurba_marseille","lat":43.299222,"lon":5.365554,"is_reserved":false,"is_disabled":false,"rental_uris":{"android":"levelo://app?vid=14f34b4c-aea1-4294-80eb-802b453e58d5","ios":"levelo://app?vid=14f34b4c-aea1-4294-80eb-802b453e58d5"},"vehicle_type_id":"4","last_reported":1711562975,"current_range_meters":24400,"station_id":"ce4bgm92rcd13ifvqbr0","pricing_plan_id":"cebpf4jnsgd1na2vs0mg"},{"bike_id":"fdc6d5ac-b809-4d31-8e8d-a74df9aad2f2","system_id":"levelo_inurba_marseille","lat":43.299724,"lon":5.371829,"is_reserved":false,"is_disabled":false,"rental_uris":{"android":"levelo://app?vid=fdc6d5ac-b809-4d31-8e8d-a74df9aad2f2","ios":"levelo://app?vid=fdc6d5ac-b809-4d31-8e8d-a74df9aad2f2"},"vehicle_type_id":"4","last_reported":1711562975,"current_range_meters":400,"station_id":"ce4bgr92rcd13ifvqc7g","pricing_plan_id":"cebpf4jnsgd1na2vs0mg"},{"bike_id":"b752fd9b-4ca5-4d49-886d-ee5755ab9241","system_id":"levelo_inurba_marseille","lat":43.299724,"lon":5.371829,"is_reserved":false,"is_disabled":false,"rental_uris":{"android":"levelo://app?vid=b752fd9b-4ca5-4d49-886d-ee5755ab9241","ios":"levelo://app?vid=b752fd9b-4ca5-4d49-886d-ee5755ab9241"},"vehicle_type_id":"4","last_reported":1711562975,"current_range_meters":4000,"station_id":"ce4bgr92rcd13ifvqc7g","pricing_plan_id":"cebpf4jnsgd1na2vs0mg"},{"bike_id":"2f09f4e7-6d41-4287-833e-1b5681beacf1","system_id":"levelo_inurba_marseille","lat":43.299724,"lon":5.371829,"is_reserved":false,"is_disabled":false,"rental_uris":{"android":"levelo://app?vid=2f09f4e7-6d41-4287-833e-1b5681beacf1","ios":"levelo://app?vid=2f09f4e7-6d41-4287-833e-1b5681beacf1"},"vehicle_type_id":"4","last_reported":1711562975,"current_range_meters":1200,"station_id":"ce4bgr92rcd13ifvqc7g","pricing_plan_id":"cebpf4jnsgd1na2vs0mg"},{"bike_id":"a25972e1-576e-4005-ace9-4a2f039dbbbe","system_id":"levelo_inurba_marseille","lat":43.299724,"lon":5.371829,"is_reserved":false,"is_disabled":false,"rental_uris":{"android":"levelo://app?vid=a25972e1-576e-4005-ace9-4a2f039dbbbe","ios":"levelo://app?vid=a25972e1-576e-4005-ace9-4a2f039dbbbe"},"vehicle_type_id":"4","last_reported":1711562975,"current_range_meters":16400,"station_id":"ce4bgr92rcd13ifvqc7g","pricing_plan_id":"cebpf4jnsgd1na2vs0mg"},{"bike_id":"9274068e-244b-4b35-835c-ba96af31ac9d","system_id":"levelo_inurba_marseille","lat":43.299724,"lon":5.371829,"is_reserved":false,"is_disabled":false,"rental_uris":{"android":"levelo://app?vid=9274068e-244b-4b35-835c-ba96af31ac9d","ios":"levelo://app?vid=9274068e-244b-4b35-835c-ba96af31ac9d"},"vehicle_type_id":"4","last_reported":1711562975,"current_range_meters":0,"station_id":"ce4bgr92rcd13ifvqc7g","pricing_plan_id":"cebpf4jnsgd1na2vs0mg"},{"bike_id":"9c5fbf89-b8b8-4470-87d2-76a58cd88fbe","system_id":"levelo_inurba_marseille","lat":43.305498,"lon":5.384213,"is_reserved":false,"is_disabled":false,"rental_uris":{"android":"levelo://app?vid=9c5fbf89-b8b8-4470-87d2-76a58cd88fbe","ios":"levelo://app?vid=9c5fbf89-b8b8-4470-87d2-76a58cd88fbe"},"vehicle_type_id":"4","last_reported":1711562975,"current_range_meters":3200,"station_id":"ce4bgg92rcd13ifvqb30","pricing_plan_id":"cebpf4jnsgd1na2vs0mg"},{"bike_id":"6f1cb5b4-0ce7-4076-ab3b-d7575205062e","system_id":"levelo_inurba_marseille","lat":43.298433,"lon":5.362774,"is_reserved":false,"is_disabled":false,"rental_uris":{"android":"levelo://app?vid=6f1cb5b4-0ce7-4076-ab3b-d7575205062e","ios":"levelo://app?vid=6f1cb5b4-0ce7-4076-ab3b-d7575205062e"},"vehicle_type_id":"4","last_reported":1711562975,"current_range_meters":31200,"station_id":"ce4bgpp2rcd13ifvqc3g","pricing_plan_id":"cebpf4jnsgd1na2vs0mg"},{"bike_id":"47445e9f-596c-4d98-9bdd-01d9b2275168","system_id":"levelo_inurba_marseille","lat":43.305364,"lon":5.384119,"is_reserved":false,"is_disabled":false,"rental_uris":{"android":"levelo://app?vid=47445e9f-596c-4d98-9bdd-01d9b2275168","ios":"levelo://app?vid=47445e9f-596c-4d98-9bdd-01d9b2275168"},"vehicle_type_id":"4","last_reported":1711562975,"current_range_meters":0,"station_id":"ce4bgg92rcd13ifvqb30","pricing_plan_id":"cebpf4jnsgd1na2vs0mg"},{"bike_id":"0ffcc32d-f699-48ce-bc3b-e3fe75a7b044","system_id":"levelo_inurba_marseille","lat":43.305364,"lon":5.384119,"is_reserved":false,"is_disabled":false,"rental_uris":{"android":"levelo://app?vid=0ffcc32d-f699-48ce-bc3b-e3fe75a7b044","ios":"levelo://app?vid=0ffcc32d-f699-48ce-bc3b-e3fe75a7b044"},"vehicle_type_id":"4","last_reported":1711562975,"current_range_meters":0,"station_id":"ce4bgg92rcd13ifvqb30","pricing_plan_id":"cebpf4jnsgd1na2vs0mg"},{"bike_id":"82133987-748b-436a-b337-9ee4fd74e910","system_id":"levelo_inurba_marseille","lat":43.311722,"lon":5.387247,"is_reserved":false,"is_disabled":false,"rental_uris":{"android":"levelo://app?vid=82133987-748b-436a-b337-9ee4fd74e910","ios":"levelo://app?vid=82133987-748b-436a-b337-9ee4fd74e910"},"vehicle_type_id":"4","last_reported":1711562975,"current_range_meters":31200,"station_id":"ce4bgv12rcd13ifvqcp0","pricing_plan_id":"cebpf4jnsgd1na2vs0mg"},{"bike_id":"a127671e-1d79-435f-ba9b-b9bb8a8de35c","system_id":"levelo_inurba_marseille","lat":43.311722,"lon":5.387247,"is_reserved":false,"is_disabled":false,"rental_uris":{"android":"levelo://app?vid=a127671e-1d79-435f-ba9b-b9bb8a8de35c","ios":"levelo://app?vid=a127671e-1d79-435f-ba9b-b9bb8a8de35c"},"vehicle_type_id":"4","last_reported":1711562975,"current_range_meters":9600,"station_id":"ce4bgv12rcd13ifvqcp0","pricing_plan_id":"cebpf4jnsgd1na2vs0mg"},{"bike_id":"e2f5442b-0698-4b70-9ec9-aa31ebc9f78e","system_id":"levelo_inurba_marseille","lat":43.311722,"lon":5.387247,"is_reserved":false,"is_disabled":false,"rental_uris":{"android":"levelo://app?vid=e2f5442b-0698-4b70-9ec9-aa31ebc9f78e","ios":"levelo://app?vid=e2f5442b-0698-4b70-9ec9-aa31ebc9f78e"},"vehicle_type_id":"4","last_reported":1711562975,"current_range_meters":4800,"station_id":"ce4bgv12rcd13ifvqcp0","pricing_plan_id":"cebpf4jnsgd1na2vs0mg"},{"bike_id":"b118ec7b-23f9-4be8-b893-59dd1c32cfe8","system_id":"levelo_inurba_marseille","lat":43.311722,"lon":5.387247,"is_reserved":false,"is_disabled":false,"rental_uris":{"android":"levelo://app?vid=b118ec7b-23f9-4be8-b893-59dd1c32cfe8","ios":"levelo://app?vid=b118ec7b-23f9-4be8-b893-59dd1c32cfe8"},"vehicle_type_id":"4","last_reported":1711562975,"current_range_meters":24400,"station_id":"ce4bgv12rcd13ifvqcp0","pricing_plan_id":"cebpf4jnsgd1na2vs0mg"},{"bike_id":"5806e12b-0bfa-46c7-b4f3-aabdd26c9a40","system_id":"levelo_inurba_marseille","lat":43.311722,"lon":5.387247,"is_reserved":false,"is_disabled":false,"rental_uris":{"android":"levelo://app?vid=5806e12b-0bfa-46c7-b4f3-aabdd26c9a40","ios":"levelo://app?vid=5806e12b-0bfa-46c7-b4f3-aabdd26c9a40"},"vehicle_type_id":"4","last_reported":1711562975,"current_range_meters":14800,"station_id":"ce4bgv12rcd13ifvqcp0","pricing_plan_id":"cebpf4jnsgd1na2vs0mg"},{"bike_id":"c8d87266-3d93-4ab9-bba4-52ce4934dbee","system_id":"levelo_inurba_marseille","lat":43.311722,"lon":5.387247,"is_reserved":false,"is_disabled":false,"rental_uris":{"android":"levelo://app?vid=c8d87266-3d93-4ab9-bba4-52ce4934dbee","ios":"levelo://app?vid=c8d87266-3d93-4ab9-bba4-52ce4934dbee"},"vehicle_type_id":"4","last_reported":1711562975,"current_range_meters":7200,"station_id":"ce4bgv12rcd13ifvqcp0","pricing_plan_id":"cebpf4jnsgd1na2vs0mg"},{"bike_id":"876dcdd1-675b-493a-83ef-0fb95ecd5f77","system_id":"levelo_inurba_marseille","lat":43.322872,"lon":5.382756,"is_reserved":false,"is_disabled":false,"rental_uris":{"android":"levelo://app?vid=876dcdd1-675b-493a-83ef-0fb95ecd5f77","ios":"levelo://app?vid=876dcdd1-675b-493a-83ef-0fb95ecd5f77"},"vehicle_type_id":"4","last_reported":1711562975,"current_range_meters":27600,"station_id":"ce4bhr12rcd13ifvqhqg","pricing_plan_id":"cebpf4jnsgd1na2vs0mg"},{"bike_id":"b6c42cd8-1860-4743-a6ce-587fe5097cbf","system_id":"levelo_inurba_marseille","lat":43.322872,"lon":5.382756,"is_reserved":false,"is_disabled":false,"rental_uris":{"android":"levelo://app?vid=b6c42cd8-1860-4743-a6ce-587fe5097cbf","ios":"levelo://app?vid=b6c42cd8-1860-4743-a6ce-587fe5097cbf"},"vehicle_type_id":"4","last_reported":1711562975,"current_range_meters":400,"station_id":"ce4bhr12rcd13ifvqhqg","pricing_plan_id":"cebpf4jnsgd1na2vs0mg"},{"bike_id":"efcb0ad2-c2ff-46cb-a68d-95d9782c437a","system_id":"levelo_inurba_marseille","lat":43.322872,"lon":5.382756,"is_reserved":false,"is_disabled":false,"rental_uris":{"android":"levelo://app?vid=efcb0ad2-c2ff-46cb-a68d-95d9782c437a","ios":"levelo://app?vid=efcb0ad2-c2ff-46cb-a68d-95d9782c437a"},"vehicle_type_id":"4","last_reported":1711562975,"current_range_meters":7200,"station_id":"ce4bhr12rcd13ifvqhqg","pricing_plan_id":"cebpf4jnsgd1na2vs0mg"},{"bike_id":"b95f843e-f3af-46f4-8650-a67a8e9d1fdc","system_id":"levelo_inurba_marseille","lat":43.311722,"lon":5.387247,"is_reserved":false,"is_disabled":false,"rental_uris":{"android":"levelo://app?vid=b95f843e-f3af-46f4-8650-a67a8e9d1fdc","ios":"levelo://app?vid=b95f843e-f3af-46f4-8650-a67a8e9d1fdc"},"vehicle_type_id":"4","last_reported":1711562975,"current_range_meters":15600,"station_id":"ce4bgv12rcd13ifvqcp0","pricing_plan_id":"cebpf4jnsgd1na2vs0mg"},{"bike_id":"cb1e0982-0714-4566-ac11-03cefc0705b9","system_id":"levelo_inurba_marseille","lat":43.29719,"lon":5.36615,"is_reserved":false,"is_disabled":false,"rental_uris":{"android":"levelo://app?vid=cb1e0982-0714-4566-ac11-03cefc0705b9","ios":"levelo://app?vid=cb1e0982-0714-4566-ac11-03cefc0705b9"},"vehicle_type_id":"4","last_reported":1711562975,"current_range_meters":4800,"station_id":"","pricing_plan_id":"cebpf4jnsgd1na2vs0mg"},{"bike_id":"d538891f-d147-4402-b13d-f371bc7353f3","system_id":"levelo_inurba_marseille","lat":43.297163,"lon":5.365866,"is_reserved":false,"is_disabled":false,"rental_uris":{"android":"levelo://app?vid=d538891f-d147-4402-b13d-f371bc7353f3","ios":"levelo://app?vid=d538891f-d147-4402-b13d-f371bc7353f3"},"vehicle_type_id":"4","last_reported":1711562975,"current_range_meters":2000,"station_id":"ce4bgn12rcd13ifvqbt0","pricing_plan_id":"cebpf4jnsgd1na2vs0mg"},{"bike_id":"df1e6ea2-2d2a-4468-bf41-ca2da1e31172","system_id":"levelo_inurba_marseille","lat":43.31556,"lon":5.38842,"is_reserved":false,"is_disabled":false,"rental_uris":{"android":"levelo://app?vid=df1e6ea2-2d2a-4468-bf41-ca2da1e31172","ios":"levelo://app?vid=df1e6ea2-2d2a-4468-bf41-ca2da1e31172"},"vehicle_type_id":"4","last_reported":1711562975,"current_range_meters":2800,"station_id":"","pricing_plan_id":"cebpf4jnsgd1na2vs0mg"},{"bike_id":"dabe3db4-2799-4509-8127-743c9266ea50","system_id":"levelo_inurba_marseille","lat":43.297156,"lon":5.362509,"is_reserved":false,"is_disabled":false,"rental_uris":{"android":"levelo://app?vid=dabe3db4-2799-4509-8127-743c9266ea50","ios":"levelo://app?vid=dabe3db4-2799-4509-8127-743c9266ea50"},"vehicle_type_id":"4","last_reported":1711562975,"current_range_meters":8400,"station_id":"","pricing_plan_id":"cebpf4jnsgd1na2vs0mg"},{"bike_id":"67a43113-5280-47d4-9b93-35b4f48c94bf","system_id":"levelo_inurba_marseille","lat":43.32152,"lon":5.38547,"is_reserved":false,"is_disabled":false,"rental_uris":{"android":"levelo://app?vid=67a43113-5280-47d4-9b93-35b4f48c94bf","ios":"levelo://app?vid=67a43113-5280-47d4-9b93-35b4f48c94bf"},"vehicle_type_id":"4","last_reported":1711562975,"current_range_meters":0,"station_id":"","pricing_plan_id":"cebpf4jnsgd1na2vs0mg"},{"bike_id":"72508760-1e51-4f45-a00b-2075d12ef347","system_id":"levelo_inurba_marseille","lat":43.3026,"lon":5.38463,"is_reserved":false,"is_disabled":false,"rental_uris":{"android":"levelo://app?vid=72508760-1e51-4f45-a00b-2075d12ef347","ios":"levelo://app?vid=72508760-1e51-4f45-a00b-2075d12ef347"},"vehicle_type_id":"4","last_reported":1711562975,"current_range_meters":30400,"station_id":"","pricing_plan_id":"cebpf4jnsgd1na2vs0mg"},{"bike_id":"872353d1-d9ed-4235-a176-4e55770587e2","system_id":"levelo_inurba_marseille","lat":43.3281,"lon":5.37489,"is_reserved":false,"is_disabled":false,"rental_uris":{"android":"levelo://app?vid=872353d1-d9ed-4235-a176-4e55770587e2","ios":"levelo://app?vid=872353d1-d9ed-4235-a176-4e55770587e2"},"vehicle_type_id":"4","last_reported":1711562975,"current_range_meters":21600,"station_id":"","pricing_plan_id":"cebpf4jnsgd1na2vs0mg"},{"bike_id":"65224bac-80b1-4f3f-be32-cdba2349c45e","system_id":"levelo_inurba_marseille","lat":43.291671,"lon":5.371575,"is_reserved":false,"is_disabled":false,"rental_uris":{"android":"levelo://app?vid=65224bac-80b1-4f3f-be32-cdba2349c45e","ios":"levelo://app?vid=65224bac-80b1-4f3f-be32-cdba2349c45e"},"vehicle_type_id":"4","last_reported":1711562975,"current_range_meters":25600,"station_id":"ce4bha92rcd13ifvqeh0","pricing_plan_id":"cebpf4jnsgd1na2vs0mg"},{"bike_id":"489ddf8f-42f8-4988-83a1-22ef2fd1ce59","system_id":"levelo_inurba_marseille","lat":43.296129,"lon":5.370777,"is_reserved":false,"is_disabled":false,"rental_uris":{"android":"levelo://app?vid=489ddf8f-42f8-4988-83a1-22ef2fd1ce59","ios":"levelo://app?vid=489ddf8f-42f8-4988-83a1-22ef2fd1ce59"},"vehicle_type_id":"4","last_reported":1711562975,"current_range_meters":15200,"station_id":"ce4bgnh2rcd13ifvqc0g","pricing_plan_id":"cebpf4jnsgd1na2vs0mg"},{"bike_id":"90541ab7-b8f9-42ef-98c4-0a1edf8f3c8b","system_id":"levelo_inurba_marseille","lat":43.296935,"lon":5.376544,"is_reserved":false,"is_disabled":false,"rental_uris":{"android":"levelo://app?vid=90541ab7-b8f9-42ef-98c4-0a1edf8f3c8b","ios":"levelo://app?vid=90541ab7-b8f9-42ef-98c4-0a1edf8f3c8b"},"vehicle_type_id":"4","last_reported":1711562975,"current_range_meters":10000,"station_id":"ce4bgkh2rcd13ifvqbl0","pricing_plan_id":"cebpf4jnsgd1na2vs0mg"},{"bike_id":"ac4648b2-8402-46b1-b352-d38bae0c54c5","system_id":"levelo_inurba_marseille","lat":43.296921,"lon":5.376579,"is_reserved":false,"is_disabled":false,"rental_uris":{"android":"levelo://app?vid=ac4648b2-8402-46b1-b352-d38bae0c54c5","ios":"levelo://app?vid=ac4648b2-8402-46b1-b352-d38bae0c54c5"},"vehicle_type_id":"4","last_reported":1711562975,"current_range_meters":27200,"station_id":"ce4bgkh2rcd13ifvqbl0","pricing_plan_id":"cebpf4jnsgd1na2vs0mg"},{"bike_id":"8824d6d8-4b40-44c8-b5f0-a51da52ffa08","system_id":"levelo_inurba_marseille","lat":43.309589,"lon":5.390258,"is_reserved":false,"is_disabled":false,"rental_uris":{"android":"levelo://app?vid=8824d6d8-4b40-44c8-b5f0-a51da52ffa08","ios":"levelo://app?vid=8824d6d8-4b40-44c8-b5f0-a51da52ffa08"},"vehicle_type_id":"4","last_reported":1711562975,"current_range_meters":1600,"station_id":"ce4bgup2rcd13ifvqco0","pricing_plan_id":"cebpf4jnsgd1na2vs0mg"},{"bike_id":"9a6254c1-0539-4bfd-b329-8ed38ed7f6aa","system_id":"levelo_inurba_marseille","lat":43.30955,"lon":5.39033,"is_reserved":false,"is_disabled":false,"rental_uris":{"android":"levelo://app?vid=9a6254c1-0539-4bfd-b329-8ed38ed7f6aa","ios":"levelo://app?vid=9a6254c1-0539-4bfd-b329-8ed38ed7f6aa"},"vehicle_type_id":"4","last_reported":1711562975,"current_range_meters":24800,"station_id":"ce4bgup2rcd13ifvqco0","pricing_plan_id":"cebpf4jnsgd1na2vs0mg"},{"bike_id":"fb0ccf83-7c90-4dc6-8e22-f8c4c6f1edb4","system_id":"levelo_inurba_marseille","lat":43.317601,"lon":5.390067,"is_reserved":false,"is_disabled":false,"rental_uris":{"android":"levelo://app?vid=fb0ccf83-7c90-4dc6-8e22-f8c4c6f1edb4","ios":"levelo://app?vid=fb0ccf83-7c90-4dc6-8e22-f8c4c6f1edb4"},"vehicle_type_id":"4","last_reported":1711562975,"current_range_meters":12400,"station_id":"ce4bhqp2rcd13ifvqhng","pricing_plan_id":"cebpf4jnsgd1na2vs0mg"},{"bike_id":"a268b69d-7432-426e-8b66-1b0383022a05","system_id":"levelo_inurba_marseille","lat":43.317557,"lon":5.390173,"is_reserved":false,"is_disabled":false,"rental_uris":{"android":"levelo://app?vid=a268b69d-7432-426e-8b66-1b0383022a05","ios":"levelo://app?vid=a268b69d-7432-426e-8b66-1b0383022a05"},"vehicle_type_id":"4","last_reported":1711562975,"current_range_meters":21200,"station_id":"ce4bhqp2rcd13ifvqhng","pricing_plan_id":"cebpf4jnsgd1na2vs0mg"},{"bike_id":"a0020bd9-5181-42d5-b2eb-3bc1dcb53bd7","system_id":"levelo_inurba_marseille","lat":43.317557,"lon":5.390173,"is_reserved":false,"is_disabled":false,"rental_uris":{"android":"levelo://app?vid=a0020bd9-5181-42d5-b2eb-3bc1dcb53bd7","ios":"levelo://app?vid=a0020bd9-5181-42d5-b2eb-3bc1dcb53bd7"},"vehicle_type_id":"4","last_reported":1711562975,"current_range_meters":800,"station_id":"ce4bhqp2rcd13ifvqhng","pricing_plan_id":"cebpf4jnsgd1na2vs0mg"},{"bike_id":"b500c668-8c5d-452e-827e-7440f7931eae","system_id":"levelo_inurba_marseille","lat":43.317557,"lon":5.390173,"is_reserved":false,"is_disabled":false,"rental_uris":{"android":"levelo://app?vid=b500c668-8c5d-452e-827e-7440f7931eae","ios":"levelo://app?vid=b500c668-8c5d-452e-827e-7440f7931eae"},"vehicle_type_id":"4","last_reported":1711562975,"current_range_meters":7600,"station_id":"ce4bhqp2rcd13ifvqhng","pricing_plan_id":"cebpf4jnsgd1na2vs0mg"},{"bike_id":"90ffb546-cd77-45e9-a39e-9239657d0dd3","system_id":"levelo_inurba_marseille","lat":43.31755,"lon":5.39014,"is_reserved":false,"is_disabled":false,"rental_uris":{"android":"levelo://app?vid=90ffb546-cd77-45e9-a39e-9239657d0dd3","ios":"levelo://app?vid=90ffb546-cd77-45e9-a39e-9239657d0dd3"},"vehicle_type_id":"4","last_reported":1711562975,"current_range_meters":13600,"station_id":"ce4bhqp2rcd13ifvqhng","pricing_plan_id":"cebpf4jnsgd1na2vs0mg"},{"bike_id":"8dc10017-74e6-47e7-a7fa-0cf05d29e6ba","system_id":"levelo_inurba_marseille","lat":43.31754,"lon":5.39016,"is_reserved":false,"is_disabled":false,"rental_uris":{"android":"levelo://app?vid=8dc10017-74e6-47e7-a7fa-0cf05d29e6ba","ios":"levelo://app?vid=8dc10017-74e6-47e7-a7fa-0cf05d29e6ba"},"vehicle_type_id":"4","last_reported":1711562975,"current_range_meters":3200,"station_id":"ce4bhqp2rcd13ifvqhng","pricing_plan_id":"cebpf4jnsgd1na2vs0mg"},{"bike_id":"77022948-689f-4855-a1f4-6aee6b072702","system_id":"levelo_inurba_marseille","lat":43.31754,"lon":5.39016,"is_reserved":false,"is_disabled":false,"rental_uris":{"android":"levelo://app?vid=77022948-689f-4855-a1f4-6aee6b072702","ios":"levelo://app?vid=77022948-689f-4855-a1f4-6aee6b072702"},"vehicle_type_id":"4","last_reported":1711562975,"current_range_meters":2000,"station_id":"ce4bhqp2rcd13ifvqhng","pricing_plan_id":"cebpf4jnsgd1na2vs0mg"},{"bike_id":"a5b3fcbf-da88-4697-89d2-87e6ec805704","system_id":"levelo_inurba_marseille","lat":43.317557,"lon":5.390173,"is_reserved":false,"is_disabled":false,"rental_uris":{"android":"levelo://app?vid=a5b3fcbf-da88-4697-89d2-87e6ec805704","ios":"levelo://app?vid=a5b3fcbf-da88-4697-89d2-87e6ec805704"},"vehicle_type_id":"4","last_reported":1711562975,"current_range_meters":24000,"station_id":"ce4bhqp2rcd13ifvqhng","pricing_plan_id":"cebpf4jnsgd1na2vs0mg"},{"bike_id":"cba36c81-2b7b-4926-80d5-93bcfeaf0f84","system_id":"levelo_inurba_marseille","lat":43.317557,"lon":5.390173,"is_reserved":false,"is_disabled":false,"rental_uris":{"android":"levelo://app?vid=cba36c81-2b7b-4926-80d5-93bcfeaf0f84","ios":"levelo://app?vid=cba36c81-2b7b-4926-80d5-93bcfeaf0f84"},"vehicle_type_id":"4","last_reported":1711562975,"current_range_meters":21600,"station_id":"ce4bhqp2rcd13ifvqhng","pricing_plan_id":"cebpf4jnsgd1na2vs0mg"},{"bike_id":"f05cd000-f530-4933-b585-d3d2f814caab","system_id":"levelo_inurba_marseille","lat":43.317557,"lon":5.390173,"is_reserved":false,"is_disabled":false,"rental_uris":{"android":"levelo://app?vid=f05cd000-f530-4933-b585-d3d2f814caab","ios":"levelo://app?vid=f05cd000-f530-4933-b585-d3d2f814caab"},"vehicle_type_id":"4","last_reported":1711562975,"current_range_meters":14000,"station_id":"ce4bhqp2rcd13ifvqhng","pricing_plan_id":"cebpf4jnsgd1na2vs0mg"},{"bike_id":"5476f617-6acd-4623-a373-b5da9e3b2d22","system_id":"levelo_inurba_marseille","lat":43.31758,"lon":5.39017,"is_reserved":false,"is_disabled":false,"rental_uris":{"android":"levelo://app?vid=5476f617-6acd-4623-a373-b5da9e3b2d22","ios":"levelo://app?vid=5476f617-6acd-4623-a373-b5da9e3b2d22"},"vehicle_type_id":"4","last_reported":1711562975,"current_range_meters":3200,"station_id":"ce4bhqp2rcd13ifvqhng","pricing_plan_id":"cebpf4jnsgd1na2vs0mg"},{"bike_id":"f5b79fae-5fce-4bcf-8da1-2fba5e49b71a","system_id":"levelo_inurba_marseille","lat":43.31758,"lon":5.39017,"is_reserved":false,"is_disabled":false,"rental_uris":{"android":"levelo://app?vid=f5b79fae-5fce-4bcf-8da1-2fba5e49b71a","ios":"levelo://app?vid=f5b79fae-5fce-4bcf-8da1-2fba5e49b71a"},"vehicle_type_id":"4","last_reported":1711562975,"current_range_meters":22400,"station_id":"ce4bhqp2rcd13ifvqhng","pricing_plan_id":"cebpf4jnsgd1na2vs0mg"},{"bike_id":"e2f2fcee-c753-4810-933a-616b77d0cd80","system_id":"levelo_inurba_marseille","lat":43.317557,"lon":5.390173,"is_reserved":false,"is_disabled":false,"rental_uris":{"android":"levelo://app?vid=e2f2fcee-c753-4810-933a-616b77d0cd80","ios":"levelo://app?vid=e2f2fcee-c753-4810-933a-616b77d0cd80"},"vehicle_type_id":"4","last_reported":1711562975,"current_range_meters":10400,"station_id":"ce4bhqp2rcd13ifvqhng","pricing_plan_id":"cebpf4jnsgd1na2vs0mg"},{"bike_id":"b2bc132d-80f6-42b1-8bd7-bc67f76456a6","system_id":"levelo_inurba_marseille","lat":43.31758,"lon":5.39018,"is_reserved":false,"is_disabled":false,"rental_uris":{"android":"levelo://app?vid=b2bc132d-80f6-42b1-8bd7-bc67f76456a6","ios":"levelo://app?vid=b2bc132d-80f6-42b1-8bd7-bc67f76456a6"},"vehicle_type_id":"4","last_reported":1711562975,"current_range_meters":28000,"station_id":"ce4bhqp2rcd13ifvqhng","pricing_plan_id":"cebpf4jnsgd1na2vs0mg"},{"bike_id":"63d7e23f-6216-414f-8d05-021df6249fa9","system_id":"levelo_inurba_marseille","lat":43.31759,"lon":5.39019,"is_reserved":false,"is_disabled":false,"rental_uris":{"android":"levelo://app?vid=63d7e23f-6216-414f-8d05-021df6249fa9","ios":"levelo://app?vid=63d7e23f-6216-414f-8d05-021df6249fa9"},"vehicle_type_id":"4","last_reported":1711562975,"current_range_meters":22800,"station_id":"ce4bhqp2rcd13ifvqhng","pricing_plan_id":"cebpf4jnsgd1na2vs0mg"},{"bike_id":"2649b519-c4a7-4f60-88e0-7c9bb6e1b9a6","system_id":"levelo_inurba_marseille","lat":43.31762,"lon":5.39018,"is_reserved":false,"is_disabled":false,"rental_uris":{"android":"levelo://app?vid=2649b519-c4a7-4f60-88e0-7c9bb6e1b9a6","ios":"levelo://app?vid=2649b519-c4a7-4f60-88e0-7c9bb6e1b9a6"},"vehicle_type_id":"4","last_reported":1711562975,"current_range_meters":6800,"station_id":"ce4bhqp2rcd13ifvqhng","pricing_plan_id":"cebpf4jnsgd1na2vs0mg"},{"bike_id":"dd81e8f2-2d64-4caa-bc14-6a2a199dfaea","system_id":"levelo_inurba_marseille","lat":43.317557,"lon":5.390173,"is_reserved":false,"is_disabled":false,"rental_uris":{"android":"levelo://app?vid=dd81e8f2-2d64-4caa-bc14-6a2a199dfaea","ios":"levelo://app?vid=dd81e8f2-2d64-4caa-bc14-6a2a199dfaea"},"vehicle_type_id":"4","last_reported":1711562975,"current_range_meters":25600,"station_id":"ce4bhqp2rcd13ifvqhng","pricing_plan_id":"cebpf4jnsgd1na2vs0mg"},{"bike_id":"df190a58-b37d-4505-a3e5-807e14aa2431","system_id":"levelo_inurba_marseille","lat":43.31751,"lon":5.39023,"is_reserved":false,"is_disabled":false,"rental_uris":{"android":"levelo://app?vid=df190a58-b37d-4505-a3e5-807e14aa2431","ios":"levelo://app?vid=df190a58-b37d-4505-a3e5-807e14aa2431"},"vehicle_type_id":"4","last_reported":1711562975,"current_range_meters":8800,"station_id":"ce4bhqp2rcd13ifvqhng","pricing_plan_id":"cebpf4jnsgd1na2vs0mg"},{"bike_id":"26ff9772-7999-47f8-b30d-e8a6c19e273d","system_id":"levelo_inurba_marseille","lat":43.31759,"lon":5.3902,"is_reserved":false,"is_disabled":false,"rental_uris":{"android":"levelo://app?vid=26ff9772-7999-47f8-b30d-e8a6c19e273d","ios":"levelo://app?vid=26ff9772-7999-47f8-b30d-e8a6c19e273d"},"vehicle_type_id":"4","last_reported":1711562975,"current_range_meters":23200,"station_id":"ce4bhqp2rcd13ifvqhng","pricing_plan_id":"cebpf4jnsgd1na2vs0mg"},{"bike_id":"b03f474a-0967-4ce4-850e-58aca02a5427","system_id":"levelo_inurba_marseille","lat":43.298037,"lon":5.381066,"is_reserved":false,"is_disabled":false,"rental_uris":{"android":"levelo://app?vid=b03f474a-0967-4ce4-850e-58aca02a5427","ios":"levelo://app?vid=b03f474a-0967-4ce4-850e-58aca02a5427"},"vehicle_type_id":"4","last_reported":1711562975,"current_range_meters":400,"station_id":"ce4bgip2rcd13ifvqbb0","pricing_plan_id":"cebpf4jnsgd1na2vs0mg"},{"bike_id":"a8fa9a61-79df-4976-a15c-e139c23f60cd","system_id":"levelo_inurba_marseille","lat":43.295748,"lon":5.37522,"is_reserved":false,"is_disabled":false,"rental_uris":{"android":"levelo://app?vid=a8fa9a61-79df-4976-a15c-e139c23f60cd","ios":"levelo://app?vid=a8fa9a61-79df-4976-a15c-e139c23f60cd"},"vehicle_type_id":"4","last_reported":1711562975,"current_range_meters":26400,"station_id":"ce4bgh92rcd13ifvqb50","pricing_plan_id":"cebpf4jnsgd1na2vs0mg"},{"bike_id":"7adbce56-03aa-4ca0-a96c-d711178d8955","system_id":"levelo_inurba_marseille","lat":43.30436,"lon":5.38884,"is_reserved":false,"is_disabled":false,"rental_uris":{"android":"levelo://app?vid=7adbce56-03aa-4ca0-a96c-d711178d8955","ios":"levelo://app?vid=7adbce56-03aa-4ca0-a96c-d711178d8955"},"vehicle_type_id":"4","last_reported":1711562975,"current_range_meters":0,"station_id":"ce4bgk12rcd13ifvqbi0","pricing_plan_id":"cebpf4jnsgd1na2vs0mg"},{"bike_id":"cab64ebd-4c96-4fcb-ab0f-0b73fec44f47","system_id":"levelo_inurba_marseille","lat":43.304278,"lon":5.388868,"is_reserved":false,"is_disabled":false,"rental_uris":{"android":"levelo://app?vid=cab64ebd-4c96-4fcb-ab0f-0b73fec44f47","ios":"levelo://app?vid=cab64ebd-4c96-4fcb-ab0f-0b73fec44f47"},"vehicle_type_id":"4","last_reported":1711562975,"current_range_meters":0,"station_id":"ce4bgk12rcd13ifvqbi0","pricing_plan_id":"cebpf4jnsgd1na2vs0mg"},{"bike_id":"5049e4e1-9cb7-4608-abd0-f04df9d23057","system_id":"levelo_inurba_marseille","lat":43.29574,"lon":5.37512,"is_reserved":false,"is_disabled":false,"rental_uris":{"android":"levelo://app?vid=5049e4e1-9cb7-4608-abd0-f04df9d23057","ios":"levelo://app?vid=5049e4e1-9cb7-4608-abd0-f04df9d23057"},"vehicle_type_id":"4","last_reported":1711562975,"current_range_meters":0,"station_id":"ce4bgh92rcd13ifvqb50","pricing_plan_id":"cebpf4jnsgd1na2vs0mg"},{"bike_id":"e300d075-7198-4007-aac7-2988b683f649","system_id":"levelo_inurba_marseille","lat":43.304278,"lon":5.388868,"is_reserved":false,"is_disabled":false,"rental_uris":{"android":"levelo://app?vid=e300d075-7198-4007-aac7-2988b683f649","ios":"levelo://app?vid=e300d075-7198-4007-aac7-2988b683f649"},"vehicle_type_id":"4","last_reported":1711562975,"current_range_meters":2000,"station_id":"ce4bgk12rcd13ifvqbi0","pricing_plan_id":"cebpf4jnsgd1na2vs0mg"},{"bike_id":"cb0706bb-3377-47d2-99c5-d2a51fffbecc","system_id":"levelo_inurba_marseille","lat":43.304274,"lon":5.388873,"is_reserved":false,"is_disabled":false,"rental_uris":{"android":"levelo://app?vid=cb0706bb-3377-47d2-99c5-d2a51fffbecc","ios":"levelo://app?vid=cb0706bb-3377-47d2-99c5-d2a51fffbecc"},"vehicle_type_id":"4","last_reported":1711562975,"current_range_meters":24800,"station_id":"ce4bgk12rcd13ifvqbi0","pricing_plan_id":"cebpf4jnsgd1na2vs0mg"},{"bike_id":"9449ec6b-11f2-4a74-afed-29544b686ed6","system_id":"levelo_inurba_marseille","lat":43.284793,"lon":5.384119,"is_reserved":false,"is_disabled":false,"rental_uris":{"android":"levelo://app?vid=9449ec6b-11f2-4a74-afed-29544b686ed6","ios":"levelo://app?vid=9449ec6b-11f2-4a74-afed-29544b686ed6"},"vehicle_type_id":"4","last_reported":1711562975,"current_range_meters":3600,"station_id":"ce4bh512rcd13ifvqe3g","pricing_plan_id":"cebpf4jnsgd1na2vs0mg"},{"bike_id":"1064dc95-a0b9-4b4e-bbbf-40cb16520d19","system_id":"levelo_inurba_marseille","lat":43.295748,"lon":5.37522,"is_reserved":false,"is_disabled":false,"rental_uris":{"android":"levelo://app?vid=1064dc95-a0b9-4b4e-bbbf-40cb16520d19","ios":"levelo://app?vid=1064dc95-a0b9-4b4e-bbbf-40cb16520d19"},"vehicle_type_id":"4","last_reported":1711562975,"current_range_meters":0,"station_id":"ce4bgh92rcd13ifvqb50","pricing_plan_id":"cebpf4jnsgd1na2vs0mg"},{"bike_id":"b8529621-43df-44cc-b96d-caf783b4b818","system_id":"levelo_inurba_marseille","lat":43.298037,"lon":5.381066,"is_reserved":false,"is_disabled":false,"rental_uris":{"android":"levelo://app?vid=b8529621-43df-44cc-b96d-caf783b4b818","ios":"levelo://app?vid=b8529621-43df-44cc-b96d-caf783b4b818"},"vehicle_type_id":"4","last_reported":1711562975,"current_range_meters":2800,"station_id":"ce4bgip2rcd13ifvqbb0","pricing_plan_id":"cebpf4jnsgd1na2vs0mg"},{"bike_id":"1baac570-ad74-4f38-89a5-edc16e486537","system_id":"levelo_inurba_marseille","lat":43.298037,"lon":5.381066,"is_reserved":false,"is_disabled":false,"rental_uris":{"android":"levelo://app?vid=1baac570-ad74-4f38-89a5-edc16e486537","ios":"levelo://app?vid=1baac570-ad74-4f38-89a5-edc16e486537"},"vehicle_type_id":"4","last_reported":1711562975,"current_range_meters":22400,"station_id":"ce4bgip2rcd13ifvqbb0","pricing_plan_id":"cebpf4jnsgd1na2vs0mg"},{"bike_id":"0f0d45cf-6186-474d-a23e-37382b2af0f7","system_id":"levelo_inurba_marseille","lat":43.29788,"lon":5.38109,"is_reserved":false,"is_disabled":false,"rental_uris":{"android":"levelo://app?vid=0f0d45cf-6186-474d-a23e-37382b2af0f7","ios":"levelo://app?vid=0f0d45cf-6186-474d-a23e-37382b2af0f7"},"vehicle_type_id":"4","last_reported":1711562975,"current_range_meters":0,"station_id":"ce4bgip2rcd13ifvqbb0","pricing_plan_id":"cebpf4jnsgd1na2vs0mg"},{"bike_id":"e351b1a4-066c-45d3-abf5-fad9790e0c05","system_id":"levelo_inurba_marseille","lat":43.296277,"lon":5.377108,"is_reserved":false,"is_disabled":false,"rental_uris":{"android":"levelo://app?vid=e351b1a4-066c-45d3-abf5-fad9790e0c05","ios":"levelo://app?vid=e351b1a4-066c-45d3-abf5-fad9790e0c05"},"vehicle_type_id":"4","last_reported":1711562975,"current_range_meters":1200,"station_id":"ce4bgi92rcd13ifvqb90","pricing_plan_id":"cebpf4jnsgd1na2vs0mg"},{"bike_id":"6d381f0b-d272-42b3-b51a-54a8e7d19269","system_id":"levelo_inurba_marseille","lat":43.298037,"lon":5.381066,"is_reserved":false,"is_disabled":false,"rental_uris":{"android":"levelo://app?vid=6d381f0b-d272-42b3-b51a-54a8e7d19269","ios":"levelo://app?vid=6d381f0b-d272-42b3-b51a-54a8e7d19269"},"vehicle_type_id":"4","last_reported":1711562975,"current_range_meters":2400,"station_id":"ce4bgip2rcd13ifvqbb0","pricing_plan_id":"cebpf4jnsgd1na2vs0mg"},{"bike_id":"acd2a721-96cf-43d9-9e56-6c5228cd67da","system_id":"levelo_inurba_marseille","lat":43.298037,"lon":5.381066,"is_reserved":false,"is_disabled":false,"rental_uris":{"android":"levelo://app?vid=acd2a721-96cf-43d9-9e56-6c5228cd67da","ios":"levelo://app?vid=acd2a721-96cf-43d9-9e56-6c5228cd67da"},"vehicle_type_id":"4","last_reported":1711562975,"current_range_meters":18000,"station_id":"ce4bgip2rcd13ifvqbb0","pricing_plan_id":"cebpf4jnsgd1na2vs0mg"},{"bike_id":"711e7b22-cf24-43d5-abcd-880587c15216","system_id":"levelo_inurba_marseille","lat":43.304274,"lon":5.388873,"is_reserved":false,"is_disabled":false,"rental_uris":{"android":"levelo://app?vid=711e7b22-cf24-43d5-abcd-880587c15216","ios":"levelo://app?vid=711e7b22-cf24-43d5-abcd-880587c15216"},"vehicle_type_id":"4","last_reported":1711562975,"current_range_meters":0,"station_id":"ce4bgk12rcd13ifvqbi0","pricing_plan_id":"cebpf4jnsgd1na2vs0mg"},{"bike_id":"b9cfcb0b-62d7-4726-bf2e-140232451659","system_id":"levelo_inurba_marseille","lat":43.2954,"lon":5.37499,"is_reserved":false,"is_disabled":false,"rental_uris":{"android":"levelo://app?vid=b9cfcb0b-62d7-4726-bf2e-140232451659","ios":"levelo://app?vid=b9cfcb0b-62d7-4726-bf2e-140232451659"},"vehicle_type_id":"4","last_reported":1711562975,"current_range_meters":0,"station_id":"ce4bgkp2rcd13ifvqbmg","pricing_plan_id":"cebpf4jnsgd1na2vs0mg"},{"bike_id":"29417a5f-1fe4-4d2c-bd84-f22ffa2f0957","system_id":"levelo_inurba_marseille","lat":43.2954,"lon":5.37499,"is_reserved":false,"is_disabled":false,"rental_uris":{"android":"levelo://app?vid=29417a5f-1fe4-4d2c-bd84-f22ffa2f0957","ios":"levelo://app?vid=29417a5f-1fe4-4d2c-bd84-f22ffa2f0957"},"vehicle_type_id":"4","last_reported":1711562975,"current_range_meters":0,"station_id":"ce4bgkp2rcd13ifvqbmg","pricing_plan_id":"cebpf4jnsgd1na2vs0mg"},{"bike_id":"bba94b6b-2313-4082-92c1-3a7b938c7524","system_id":"levelo_inurba_marseille","lat":43.304278,"lon":5.388868,"is_reserved":false,"is_disabled":false,"rental_uris":{"android":"levelo://app?vid=bba94b6b-2313-4082-92c1-3a7b938c7524","ios":"levelo://app?vid=bba94b6b-2313-4082-92c1-3a7b938c7524"},"vehicle_type_id":"4","last_reported":1711562975,"current_range_meters":21600,"station_id":"ce4bgk12rcd13ifvqbi0","pricing_plan_id":"cebpf4jnsgd1na2vs0mg"},{"bike_id":"2993edff-aff3-41e3-a40e-2340e92126fb","system_id":"levelo_inurba_marseille","lat":43.305364,"lon":5.384119,"is_reserved":false,"is_disabled":false,"rental_uris":{"android":"levelo://app?vid=2993edff-aff3-41e3-a40e-2340e92126fb","ios":"levelo://app?vid=2993edff-aff3-41e3-a40e-2340e92126fb"},"vehicle_type_id":"4","last_reported":1711562975,"current_range_meters":10000,"station_id":"ce4bgg92rcd13ifvqb30","pricing_plan_id":"cebpf4jnsgd1na2vs0mg"},{"bike_id":"c03a35f3-2fac-413e-a3da-8907a0d8f950","system_id":"levelo_inurba_marseille","lat":43.29537,"lon":5.37497,"is_reserved":false,"is_disabled":false,"rental_uris":{"android":"levelo://app?vid=c03a35f3-2fac-413e-a3da-8907a0d8f950","ios":"levelo://app?vid=c03a35f3-2fac-413e-a3da-8907a0d8f950"},"vehicle_type_id":"4","last_reported":1711562975,"current_range_meters":9200,"station_id":"ce4bgkp2rcd13ifvqbmg","pricing_plan_id":"cebpf4jnsgd1na2vs0mg"},{"bike_id":"d8f146ba-d29b-4d1d-bcf9-983234eeee3b","system_id":"levelo_inurba_marseille","lat":43.2998,"lon":5.38484,"is_reserved":false,"is_disabled":false,"rental_uris":{"android":"levelo://app?vid=d8f146ba-d29b-4d1d-bcf9-983234eeee3b","ios":"levelo://app?vid=d8f146ba-d29b-4d1d-bcf9-983234eeee3b"},"vehicle_type_id":"4","last_reported":1711562975,"current_range_meters":15600,"station_id":"ce4bgj92rcd13ifvqbd0","pricing_plan_id":"cebpf4jnsgd1na2vs0mg"},{"bike_id":"11fcd7f9-b008-4b7a-8a4c-057a7897ca76","system_id":"levelo_inurba_marseille","lat":43.29979,"lon":5.3849,"is_reserved":false,"is_disabled":false,"rental_uris":{"android":"levelo://app?vid=11fcd7f9-b008-4b7a-8a4c-057a7897ca76","ios":"levelo://app?vid=11fcd7f9-b008-4b7a-8a4c-057a7897ca76"},"vehicle_type_id":"4","last_reported":1711562975,"current_range_meters":16000,"station_id":"ce4bgj92rcd13ifvqbd0","pricing_plan_id":"cebpf4jnsgd1na2vs0mg"},{"bike_id":"103e2f41-0dac-4e73-ba1c-6d264cd7680a","system_id":"levelo_inurba_marseille","lat":43.299783,"lon":5.38491,"is_reserved":false,"is_disabled":false,"rental_uris":{"android":"levelo://app?vid=103e2f41-0dac-4e73-ba1c-6d264cd7680a","ios":"levelo://app?vid=103e2f41-0dac-4e73-ba1c-6d264cd7680a"},"vehicle_type_id":"4","last_reported":1711562975,"current_range_meters":25600,"station_id":"ce4bgj92rcd13ifvqbd0","pricing_plan_id":"cebpf4jnsgd1na2vs0mg"},{"bike_id":"ada55324-550e-44be-9959-49ac39b3e38f","system_id":"levelo_inurba_marseille","lat":43.299717,"lon":5.384845,"is_reserved":false,"is_disabled":false,"rental_uris":{"android":"levelo://app?vid=ada55324-550e-44be-9959-49ac39b3e38f","ios":"levelo://app?vid=ada55324-550e-44be-9959-49ac39b3e38f"},"vehicle_type_id":"4","last_reported":1711562975,"current_range_meters":5200,"station_id":"ce4bgj92rcd13ifvqbd0","pricing_plan_id":"cebpf4jnsgd1na2vs0mg"},{"bike_id":"ef05868a-999e-4783-8fe7-04bfde2801cf","system_id":"levelo_inurba_marseille","lat":43.299724,"lon":5.384848,"is_reserved":false,"is_disabled":false,"rental_uris":{"android":"levelo://app?vid=ef05868a-999e-4783-8fe7-04bfde2801cf","ios":"levelo://app?vid=ef05868a-999e-4783-8fe7-04bfde2801cf"},"vehicle_type_id":"4","last_reported":1711562975,"current_range_meters":2400,"station_id":"ce4bgj92rcd13ifvqbd0","pricing_plan_id":"cebpf4jnsgd1na2vs0mg"},{"bike_id":"85f5419f-40f0-4674-8cf5-420b89660793","system_id":"levelo_inurba_marseille","lat":43.303046,"lon":5.368981,"is_reserved":false,"is_disabled":false,"rental_uris":{"android":"levelo://app?vid=85f5419f-40f0-4674-8cf5-420b89660793","ios":"levelo://app?vid=85f5419f-40f0-4674-8cf5-420b89660793"},"vehicle_type_id":"4","last_reported":1711562975,"current_range_meters":17600,"station_id":"ce4bgqh2rcd13ifvqc5g","pricing_plan_id":"cebpf4jnsgd1na2vs0mg"},{"bike_id":"d6d585c3-efb4-45b8-9e37-cb235529419e","system_id":"levelo_inurba_marseille","lat":43.299717,"lon":5.384845,"is_reserved":false,"is_disabled":false,"rental_uris":{"android":"levelo://app?vid=d6d585c3-efb4-45b8-9e37-cb235529419e","ios":"levelo://app?vid=d6d585c3-efb4-45b8-9e37-cb235529419e"},"vehicle_type_id":"4","last_reported":1711562975,"current_range_meters":2400,"station_id":"ce4bgj92rcd13ifvqbd0","pricing_plan_id":"cebpf4jnsgd1na2vs0mg"},{"bike_id":"bdec62c7-911a-4581-baa0-bb51142a2792","system_id":"levelo_inurba_marseille","lat":43.299717,"lon":5.384845,"is_reserved":false,"is_disabled":false,"rental_uris":{"android":"levelo://app?vid=bdec62c7-911a-4581-baa0-bb51142a2792","ios":"levelo://app?vid=bdec62c7-911a-4581-baa0-bb51142a2792"},"vehicle_type_id":"4","last_reported":1711562975,"current_range_meters":16800,"station_id":"ce4bgj92rcd13ifvqbd0","pricing_plan_id":"cebpf4jnsgd1na2vs0mg"},{"bike_id":"c7f13557-ae30-47c5-a4ae-cb04e96d37c9","system_id":"levelo_inurba_marseille","lat":43.299717,"lon":5.384845,"is_reserved":false,"is_disabled":false,"rental_uris":{"android":"levelo://app?vid=c7f13557-ae30-47c5-a4ae-cb04e96d37c9","ios":"levelo://app?vid=c7f13557-ae30-47c5-a4ae-cb04e96d37c9"},"vehicle_type_id":"4","last_reported":1711562975,"current_range_meters":27200,"station_id":"ce4bgj92rcd13ifvqbd0","pricing_plan_id":"cebpf4jnsgd1na2vs0mg"},{"bike_id":"1353ad9c-bfca-438c-9a69-bae33d6abdc9","system_id":"levelo_inurba_marseille","lat":43.29961,"lon":5.38493,"is_reserved":false,"is_disabled":false,"rental_uris":{"android":"levelo://app?vid=1353ad9c-bfca-438c-9a69-bae33d6abdc9","ios":"levelo://app?vid=1353ad9c-bfca-438c-9a69-bae33d6abdc9"},"vehicle_type_id":"4","last_reported":1711562975,"current_range_meters":24400,"station_id":"ce4bgj92rcd13ifvqbd0","pricing_plan_id":"cebpf4jnsgd1na2vs0mg"},{"bike_id":"8640e7be-b715-4cb0-bf90-588fd44cc59d","system_id":"levelo_inurba_marseille","lat":43.309039,"lon":5.371797,"is_reserved":false,"is_disabled":false,"rental_uris":{"android":"levelo://app?vid=8640e7be-b715-4cb0-bf90-588fd44cc59d","ios":"levelo://app?vid=8640e7be-b715-4cb0-bf90-588fd44cc59d"},"vehicle_type_id":"4","last_reported":1711562975,"current_range_meters":11200,"station_id":"ce4bguh2rcd13ifvqckg","pricing_plan_id":"cebpf4jnsgd1na2vs0mg"},{"bike_id":"89c80da6-66b2-4d19-97ad-75506f212858","system_id":"levelo_inurba_marseille","lat":43.299724,"lon":5.384848,"is_reserved":false,"is_disabled":false,"rental_uris":{"android":"levelo://app?vid=89c80da6-66b2-4d19-97ad-75506f212858","ios":"levelo://app?vid=89c80da6-66b2-4d19-97ad-75506f212858"},"vehicle_type_id":"4","last_reported":1711562975,"current_range_meters":5200,"station_id":"ce4bgj92rcd13ifvqbd0","pricing_plan_id":"cebpf4jnsgd1na2vs0mg"},{"bike_id":"71bcdfdd-4738-42d0-91a4-39375bab9c82","system_id":"levelo_inurba_marseille","lat":43.299724,"lon":5.384848,"is_reserved":false,"is_disabled":false,"rental_uris":{"android":"levelo://app?vid=71bcdfdd-4738-42d0-91a4-39375bab9c82","ios":"levelo://app?vid=71bcdfdd-4738-42d0-91a4-39375bab9c82"},"vehicle_type_id":"4","last_reported":1711562975,"current_range_meters":27600,"station_id":"ce4bgj92rcd13ifvqbd0","pricing_plan_id":"cebpf4jnsgd1na2vs0mg"},{"bike_id":"3ef6fbdf-cbb0-483e-a3f1-e67b6e853636","system_id":"levelo_inurba_marseille","lat":43.29504,"lon":5.37566,"is_reserved":false,"is_disabled":false,"rental_uris":{"android":"levelo://app?vid=3ef6fbdf-cbb0-483e-a3f1-e67b6e853636","ios":"levelo://app?vid=3ef6fbdf-cbb0-483e-a3f1-e67b6e853636"},"vehicle_type_id":"4","last_reported":1711562975,"current_range_meters":0,"station_id":"","pricing_plan_id":"cebpf4jnsgd1na2vs0mg"},{"bike_id":"738bb12e-a71e-4124-8b8a-91c7e38b4945","system_id":"levelo_inurba_marseille","lat":43.301425,"lon":5.38784,"is_reserved":false,"is_disabled":false,"rental_uris":{"android":"levelo://app?vid=738bb12e-a71e-4124-8b8a-91c7e38b4945","ios":"levelo://app?vid=738bb12e-a71e-4124-8b8a-91c7e38b4945"},"vehicle_type_id":"4","last_reported":1711562975,"current_range_meters":0,"station_id":"","pricing_plan_id":"cebpf4jnsgd1na2vs0mg"},{"bike_id":"d72164f0-3393-4e35-b26b-766e3fbce57a","system_id":"levelo_inurba_marseille","lat":43.32368,"lon":5.38882,"is_reserved":false,"is_disabled":false,"rental_uris":{"android":"levelo://app?vid=d72164f0-3393-4e35-b26b-766e3fbce57a","ios":"levelo://app?vid=d72164f0-3393-4e35-b26b-766e3fbce57a"},"vehicle_type_id":"4","last_reported":1711562975,"current_range_meters":6000,"station_id":"ce4bhqp2rcd13ifvqhog","pricing_plan_id":"cebpf4jnsgd1na2vs0mg"},{"bike_id":"91c79cda-73b3-4546-8fae-e3173849159a","system_id":"levelo_inurba_marseille","lat":43.29602,"lon":5.381084,"is_reserved":false,"is_disabled":false,"rental_uris":{"android":"levelo://app?vid=91c79cda-73b3-4546-8fae-e3173849159a","ios":"levelo://app?vid=91c79cda-73b3-4546-8fae-e3173849159a"},"vehicle_type_id":"4","last_reported":1711562975,"current_range_meters":8000,"station_id":"ce4bgl12rcd13ifvqbo0","pricing_plan_id":"cebpf4jnsgd1na2vs0mg"},{"bike_id":"cc953a76-6ceb-440a-b9e5-d12d9151cde7","system_id":"levelo_inurba_marseille","lat":43.29602,"lon":5.381084,"is_reserved":false,"is_disabled":false,"rental_uris":{"android":"levelo://app?vid=cc953a76-6ceb-440a-b9e5-d12d9151cde7","ios":"levelo://app?vid=cc953a76-6ceb-440a-b9e5-d12d9151cde7"},"vehicle_type_id":"4","last_reported":1711562975,"current_range_meters":18400,"station_id":"ce4bgl12rcd13ifvqbo0","pricing_plan_id":"cebpf4jnsgd1na2vs0mg"},{"bike_id":"3ed2df49-b2a5-4776-92e1-a1aa558dfb80","system_id":"levelo_inurba_marseille","lat":43.32374,"lon":5.3892,"is_reserved":false,"is_disabled":false,"rental_uris":{"android":"levelo://app?vid=3ed2df49-b2a5-4776-92e1-a1aa558dfb80","ios":"levelo://app?vid=3ed2df49-b2a5-4776-92e1-a1aa558dfb80"},"vehicle_type_id":"4","last_reported":1711562975,"current_range_meters":4400,"station_id":"ce4bhqp2rcd13ifvqhog","pricing_plan_id":"cebpf4jnsgd1na2vs0mg"},{"bike_id":"febdb279-e786-4ee6-8c13-ec1a3d7d0915","system_id":"levelo_inurba_marseille","lat":43.32371,"lon":5.38928,"is_reserved":false,"is_disabled":false,"rental_uris":{"android":"levelo://app?vid=febdb279-e786-4ee6-8c13-ec1a3d7d0915","ios":"levelo://app?vid=febdb279-e786-4ee6-8c13-ec1a3d7d0915"},"vehicle_type_id":"4","last_reported":1711562975,"current_range_meters":14800,"station_id":"ce4bhqp2rcd13ifvqhog","pricing_plan_id":"cebpf4jnsgd1na2vs0mg"},{"bike_id":"f9e08f95-14a5-4cde-bc74-ad2d3259832d","system_id":"levelo_inurba_marseille","lat":43.29601,"lon":5.381084,"is_reserved":false,"is_disabled":false,"rental_uris":{"android":"levelo://app?vid=f9e08f95-14a5-4cde-bc74-ad2d3259832d","ios":"levelo://app?vid=f9e08f95-14a5-4cde-bc74-ad2d3259832d"},"vehicle_type_id":"4","last_reported":1711562975,"current_range_meters":1600,"station_id":"ce4bgl12rcd13ifvqbo0","pricing_plan_id":"cebpf4jnsgd1na2vs0mg"},{"bike_id":"b9429339-7baf-4e24-8cfa-582da0de98de","system_id":"levelo_inurba_marseille","lat":43.32376,"lon":5.38928,"is_reserved":false,"is_disabled":false,"rental_uris":{"android":"levelo://app?vid=b9429339-7baf-4e24-8cfa-582da0de98de","ios":"levelo://app?vid=b9429339-7baf-4e24-8cfa-582da0de98de"},"vehicle_type_id":"4","last_reported":1711562975,"current_range_meters":20400,"station_id":"ce4bhqp2rcd13ifvqhog","pricing_plan_id":"cebpf4jnsgd1na2vs0mg"},{"bike_id":"e6cbbc79-dd51-48ee-89ef-047a006a1be2","system_id":"levelo_inurba_marseille","lat":43.292749,"lon":5.368402,"is_reserved":false,"is_disabled":false,"rental_uris":{"android":"levelo://app?vid=e6cbbc79-dd51-48ee-89ef-047a006a1be2","ios":"levelo://app?vid=e6cbbc79-dd51-48ee-89ef-047a006a1be2"},"vehicle_type_id":"4","last_reported":1711562975,"current_range_meters":4800,"station_id":"ce4bhbp2rcd13ifvqesg","pricing_plan_id":"cebpf4jnsgd1na2vs0mg"},{"bike_id":"68b3615d-870f-4317-ba08-6a2cffd4473a","system_id":"levelo_inurba_marseille","lat":43.293249,"lon":5.371578,"is_reserved":false,"is_disabled":false,"rental_uris":{"android":"levelo://app?vid=68b3615d-870f-4317-ba08-6a2cffd4473a","ios":"levelo://app?vid=68b3615d-870f-4317-ba08-6a2cffd4473a"},"vehicle_type_id":"4","last_reported":1711562975,"current_range_meters":1600,"station_id":"ce4bgh92rcd13ifvqb40","pricing_plan_id":"cebpf4jnsgd1na2vs0mg"},{"bike_id":"c578b163-5b01-4b2e-aad5-1a6e6d61fcb8","system_id":"levelo_inurba_marseille","lat":43.293259,"lon":5.371586,"is_reserved":false,"is_disabled":false,"rental_uris":{"android":"levelo://app?vid=c578b163-5b01-4b2e-aad5-1a6e6d61fcb8","ios":"levelo://app?vid=c578b163-5b01-4b2e-aad5-1a6e6d61fcb8"},"vehicle_type_id":"4","last_reported":1711562975,"current_range_meters":2400,"station_id":"ce4bgh92rcd13ifvqb40","pricing_plan_id":"cebpf4jnsgd1na2vs0mg"},{"bike_id":"f9822241-cb82-4a45-8ed3-a418c279a171","system_id":"levelo_inurba_marseille","lat":43.292749,"lon":5.368402,"is_reserved":false,"is_disabled":false,"rental_uris":{"android":"levelo://app?vid=f9822241-cb82-4a45-8ed3-a418c279a171","ios":"levelo://app?vid=f9822241-cb82-4a45-8ed3-a418c279a171"},"vehicle_type_id":"4","last_reported":1711562975,"current_range_meters":21200,"station_id":"ce4bhbp2rcd13ifvqesg","pricing_plan_id":"cebpf4jnsgd1na2vs0mg"},{"bike_id":"f072d73b-de81-4980-90a4-f5da74349278","system_id":"levelo_inurba_marseille","lat":43.293259,"lon":5.371586,"is_reserved":false,"is_disabled":false,"rental_uris":{"android":"levelo://app?vid=f072d73b-de81-4980-90a4-f5da74349278","ios":"levelo://app?vid=f072d73b-de81-4980-90a4-f5da74349278"},"vehicle_type_id":"4","last_reported":1711562975,"current_range_meters":12000,"station_id":"ce4bgh92rcd13ifvqb40","pricing_plan_id":"cebpf4jnsgd1na2vs0mg"},{"bike_id":"e31c48b1-44ca-45c9-a6c3-96773349f8f6","system_id":"levelo_inurba_marseille","lat":43.292749,"lon":5.368402,"is_reserved":false,"is_disabled":false,"rental_uris":{"android":"levelo://app?vid=e31c48b1-44ca-45c9-a6c3-96773349f8f6","ios":"levelo://app?vid=e31c48b1-44ca-45c9-a6c3-96773349f8f6"},"vehicle_type_id":"4","last_reported":1711562975,"current_range_meters":15600,"station_id":"ce4bhbp2rcd13ifvqesg","pricing_plan_id":"cebpf4jnsgd1na2vs0mg"},{"bike_id":"ec41b50d-6ab3-42b6-a3b4-fdc53002ba7f","system_id":"levelo_inurba_marseille","lat":43.292749,"lon":5.368402,"is_reserved":false,"is_disabled":false,"rental_uris":{"android":"levelo://app?vid=ec41b50d-6ab3-42b6-a3b4-fdc53002ba7f","ios":"levelo://app?vid=ec41b50d-6ab3-42b6-a3b4-fdc53002ba7f"},"vehicle_type_id":"4","last_reported":1711562975,"current_range_meters":800,"station_id":"ce4bhbp2rcd13ifvqesg","pricing_plan_id":"cebpf4jnsgd1na2vs0mg"},{"bike_id":"430d02ae-4283-4a85-b604-e3b11013ac01","system_id":"levelo_inurba_marseille","lat":43.292749,"lon":5.368402,"is_reserved":false,"is_disabled":false,"rental_uris":{"android":"levelo://app?vid=430d02ae-4283-4a85-b604-e3b11013ac01","ios":"levelo://app?vid=430d02ae-4283-4a85-b604-e3b11013ac01"},"vehicle_type_id":"4","last_reported":1711562975,"current_range_meters":12800,"station_id":"ce4bhbp2rcd13ifvqesg","pricing_plan_id":"cebpf4jnsgd1na2vs0mg"},{"bike_id":"95192970-0c8f-4209-8780-bf5c44e8321d","system_id":"levelo_inurba_marseille","lat":43.292749,"lon":5.368402,"is_reserved":false,"is_disabled":false,"rental_uris":{"android":"levelo://app?vid=95192970-0c8f-4209-8780-bf5c44e8321d","ios":"levelo://app?vid=95192970-0c8f-4209-8780-bf5c44e8321d"},"vehicle_type_id":"4","last_reported":1711562975,"current_range_meters":16400,"station_id":"ce4bhbp2rcd13ifvqesg","pricing_plan_id":"cebpf4jnsgd1na2vs0mg"},{"bike_id":"04442354-bd4f-4ff9-88e8-36b6db105afc","system_id":"levelo_inurba_marseille","lat":43.2936,"lon":5.37835,"is_reserved":false,"is_disabled":false,"rental_uris":{"android":"levelo://app?vid=04442354-bd4f-4ff9-88e8-36b6db105afc","ios":"levelo://app?vid=04442354-bd4f-4ff9-88e8-36b6db105afc"},"vehicle_type_id":"4","last_reported":1711562975,"current_range_meters":18800,"station_id":"ce4bgjh2rcd13ifvqbf0","pricing_plan_id":"cebpf4jnsgd1na2vs0mg"},{"bike_id":"42785aa0-e5df-4007-9e69-c941c1a4034a","system_id":"levelo_inurba_marseille","lat":43.292749,"lon":5.368402,"is_reserved":false,"is_disabled":false,"rental_uris":{"android":"levelo://app?vid=42785aa0-e5df-4007-9e69-c941c1a4034a","ios":"levelo://app?vid=42785aa0-e5df-4007-9e69-c941c1a4034a"},"vehicle_type_id":"4","last_reported":1711562975,"current_range_meters":23200,"station_id":"ce4bhbp2rcd13ifvqesg","pricing_plan_id":"cebpf4jnsgd1na2vs0mg"},{"bike_id":"4324cc2b-71cd-4128-886d-4c48995ba3b1","system_id":"levelo_inurba_marseille","lat":43.292749,"lon":5.368402,"is_reserved":false,"is_disabled":false,"rental_uris":{"android":"levelo://app?vid=4324cc2b-71cd-4128-886d-4c48995ba3b1","ios":"levelo://app?vid=4324cc2b-71cd-4128-886d-4c48995ba3b1"},"vehicle_type_id":"4","last_reported":1711562975,"current_range_meters":2000,"station_id":"ce4bhbp2rcd13ifvqesg","pricing_plan_id":"cebpf4jnsgd1na2vs0mg"},{"bike_id":"473b49aa-c607-476a-b102-cc5de6702521","system_id":"levelo_inurba_marseille","lat":43.29275,"lon":5.36837,"is_reserved":false,"is_disabled":false,"rental_uris":{"android":"levelo://app?vid=473b49aa-c607-476a-b102-cc5de6702521","ios":"levelo://app?vid=473b49aa-c607-476a-b102-cc5de6702521"},"vehicle_type_id":"4","last_reported":1711562975,"current_range_meters":9600,"station_id":"ce4bhbp2rcd13ifvqesg","pricing_plan_id":"cebpf4jnsgd1na2vs0mg"},{"bike_id":"9f2b7915-fdd0-4804-90a0-b6fc2cbf9f3d","system_id":"levelo_inurba_marseille","lat":43.29274,"lon":5.36841,"is_reserved":false,"is_disabled":false,"rental_uris":{"android":"levelo://app?vid=9f2b7915-fdd0-4804-90a0-b6fc2cbf9f3d","ios":"levelo://app?vid=9f2b7915-fdd0-4804-90a0-b6fc2cbf9f3d"},"vehicle_type_id":"4","last_reported":1711562975,"current_range_meters":0,"station_id":"ce4bhbp2rcd13ifvqesg","pricing_plan_id":"cebpf4jnsgd1na2vs0mg"},{"bike_id":"17b74c2b-2fc1-443e-b5c0-7831b64701f7","system_id":"levelo_inurba_marseille","lat":43.29274,"lon":5.36851,"is_reserved":false,"is_disabled":false,"rental_uris":{"android":"levelo://app?vid=17b74c2b-2fc1-443e-b5c0-7831b64701f7","ios":"levelo://app?vid=17b74c2b-2fc1-443e-b5c0-7831b64701f7"},"vehicle_type_id":"4","last_reported":1711562975,"current_range_meters":0,"station_id":"ce4bhbp2rcd13ifvqesg","pricing_plan_id":"cebpf4jnsgd1na2vs0mg"},{"bike_id":"96991af4-1042-4f22-b8e3-da46754ef1de","system_id":"levelo_inurba_marseille","lat":43.298037,"lon":5.381066,"is_reserved":false,"is_disabled":false,"rental_uris":{"android":"levelo://app?vid=96991af4-1042-4f22-b8e3-da46754ef1de","ios":"levelo://app?vid=96991af4-1042-4f22-b8e3-da46754ef1de"},"vehicle_type_id":"4","last_reported":1711562975,"current_range_meters":10400,"station_id":"ce4bgip2rcd13ifvqbb0","pricing_plan_id":"cebpf4jnsgd1na2vs0mg"},{"bike_id":"d00460e5-3ff2-413d-b53c-ec63d57b549b","system_id":"levelo_inurba_marseille","lat":43.29268,"lon":5.36853,"is_reserved":false,"is_disabled":false,"rental_uris":{"android":"levelo://app?vid=d00460e5-3ff2-413d-b53c-ec63d57b549b","ios":"levelo://app?vid=d00460e5-3ff2-413d-b53c-ec63d57b549b"},"vehicle_type_id":"4","last_reported":1711562975,"current_range_meters":6800,"station_id":"ce4bhbp2rcd13ifvqesg","pricing_plan_id":"cebpf4jnsgd1na2vs0mg"},{"bike_id":"15f933f1-f946-47d9-bdbd-51c605f1a3ed","system_id":"levelo_inurba_marseille","lat":43.257079,"lon":5.411051,"is_reserved":false,"is_disabled":false,"rental_uris":{"android":"levelo://app?vid=15f933f1-f946-47d9-bdbd-51c605f1a3ed","ios":"levelo://app?vid=15f933f1-f946-47d9-bdbd-51c605f1a3ed"},"vehicle_type_id":"4","last_reported":1711562975,"current_range_meters":12400,"station_id":"ce4bhkp2rcd13ifvqgd0","pricing_plan_id":"cebpf4jnsgd1na2vs0mg"},{"bike_id":"f2cbf143-20cd-4a44-8177-537a5312c230","system_id":"levelo_inurba_marseille","lat":43.305994,"lon":5.393687,"is_reserved":false,"is_disabled":false,"rental_uris":{"android":"levelo://app?vid=f2cbf143-20cd-4a44-8177-537a5312c230","ios":"levelo://app?vid=f2cbf143-20cd-4a44-8177-537a5312c230"},"vehicle_type_id":"4","last_reported":1711562975,"current_range_meters":0,"station_id":"ce4bh0p2rcd13ifvqd80","pricing_plan_id":"cebpf4jnsgd1na2vs0mg"},{"bike_id":"4b9bdccc-74ee-4d63-8ed6-8e2aa9679a0f","system_id":"levelo_inurba_marseille","lat":43.305994,"lon":5.393687,"is_reserved":false,"is_disabled":false,"rental_uris":{"android":"levelo://app?vid=4b9bdccc-74ee-4d63-8ed6-8e2aa9679a0f","ios":"levelo://app?vid=4b9bdccc-74ee-4d63-8ed6-8e2aa9679a0f"},"vehicle_type_id":"4","last_reported":1711562975,"current_range_meters":4400,"station_id":"ce4bh0p2rcd13ifvqd80","pricing_plan_id":"cebpf4jnsgd1na2vs0mg"},{"bike_id":"a1c810a5-ec95-4c57-b352-1bdd32e97d83","system_id":"levelo_inurba_marseille","lat":43.305994,"lon":5.393687,"is_reserved":false,"is_disabled":false,"rental_uris":{"android":"levelo://app?vid=a1c810a5-ec95-4c57-b352-1bdd32e97d83","ios":"levelo://app?vid=a1c810a5-ec95-4c57-b352-1bdd32e97d83"},"vehicle_type_id":"4","last_reported":1711562975,"current_range_meters":4400,"station_id":"ce4bh0p2rcd13ifvqd80","pricing_plan_id":"cebpf4jnsgd1na2vs0mg"},{"bike_id":"4e2581ed-439d-4835-b38c-a39fad0741c6","system_id":"levelo_inurba_marseille","lat":43.293009,"lon":5.374584,"is_reserved":false,"is_disabled":false,"rental_uris":{"android":"levelo://app?vid=4e2581ed-439d-4835-b38c-a39fad0741c6","ios":"levelo://app?vid=4e2581ed-439d-4835-b38c-a39fad0741c6"},"vehicle_type_id":"4","last_reported":1711562975,"current_range_meters":21200,"station_id":"ce4bgi12rcd13ifvqb70","pricing_plan_id":"cebpf4jnsgd1na2vs0mg"},{"bike_id":"9230cccc-6116-4941-8a5d-b9da6c3ad5bd","system_id":"levelo_inurba_marseille","lat":43.305994,"lon":5.393687,"is_reserved":false,"is_disabled":false,"rental_uris":{"android":"levelo://app?vid=9230cccc-6116-4941-8a5d-b9da6c3ad5bd","ios":"levelo://app?vid=9230cccc-6116-4941-8a5d-b9da6c3ad5bd"},"vehicle_type_id":"4","last_reported":1711562975,"current_range_meters":800,"station_id":"ce4bh0p2rcd13ifvqd80","pricing_plan_id":"cebpf4jnsgd1na2vs0mg"},{"bike_id":"1964e06e-1b4d-4bb0-9a6b-c7d8f985716b","system_id":"levelo_inurba_marseille","lat":43.302992,"lon":5.392136,"is_reserved":false,"is_disabled":false,"rental_uris":{"android":"levelo://app?vid=1964e06e-1b4d-4bb0-9a6b-c7d8f985716b","ios":"levelo://app?vid=1964e06e-1b4d-4bb0-9a6b-c7d8f985716b"},"vehicle_type_id":"4","last_reported":1711562975,"current_range_meters":22800,"station_id":"ce4bgkh2rcd13ifvqbk0","pricing_plan_id":"cebpf4jnsgd1na2vs0mg"},{"bike_id":"00499f17-0989-4dcf-95ab-b4f472ed1756","system_id":"levelo_inurba_marseille","lat":43.303002,"lon":5.392142,"is_reserved":false,"is_disabled":false,"rental_uris":{"android":"levelo://app?vid=00499f17-0989-4dcf-95ab-b4f472ed1756","ios":"levelo://app?vid=00499f17-0989-4dcf-95ab-b4f472ed1756"},"vehicle_type_id":"4","last_reported":1711562975,"current_range_meters":0,"station_id":"ce4bgkh2rcd13ifvqbk0","pricing_plan_id":"cebpf4jnsgd1na2vs0mg"},{"bike_id":"0b08bef9-9b90-4a8a-854d-cb7573fe0512","system_id":"levelo_inurba_marseille","lat":43.29371,"lon":5.37842,"is_reserved":false,"is_disabled":false,"rental_uris":{"android":"levelo://app?vid=0b08bef9-9b90-4a8a-854d-cb7573fe0512","ios":"levelo://app?vid=0b08bef9-9b90-4a8a-854d-cb7573fe0512"},"vehicle_type_id":"4","last_reported":1711562975,"current_range_meters":0,"station_id":"ce4bgjh2rcd13ifvqbf0","pricing_plan_id":"cebpf4jnsgd1na2vs0mg"},{"bike_id":"b36f9d11-e29f-493c-bacc-b4fa1f5baeb4","system_id":"levelo_inurba_marseille","lat":43.300852,"lon":5.390859,"is_reserved":false,"is_disabled":false,"rental_uris":{"android":"levelo://app?vid=b36f9d11-e29f-493c-bacc-b4fa1f5baeb4","ios":"levelo://app?vid=b36f9d11-e29f-493c-bacc-b4fa1f5baeb4"},"vehicle_type_id":"4","last_reported":1711562975,"current_range_meters":11200,"station_id":"ce4bh192rcd13ifvqdb0","pricing_plan_id":"cebpf4jnsgd1na2vs0mg"},{"bike_id":"b1109b44-13c9-4faa-8ac7-6c54d9d83612","system_id":"levelo_inurba_marseille","lat":43.29234,"lon":5.36074,"is_reserved":false,"is_disabled":false,"rental_uris":{"android":"levelo://app?vid=b1109b44-13c9-4faa-8ac7-6c54d9d83612","ios":"levelo://app?vid=b1109b44-13c9-4faa-8ac7-6c54d9d83612"},"vehicle_type_id":"4","last_reported":1711562975,"current_range_meters":5600,"station_id":"ce4bhbh2rcd13ifvqeqg","pricing_plan_id":"cebpf4jnsgd1na2vs0mg"},{"bike_id":"0ef0794d-dada-4229-862e-972f8e68cf30","system_id":"levelo_inurba_marseille","lat":43.30104,"lon":5.39079,"is_reserved":false,"is_disabled":false,"rental_uris":{"android":"levelo://app?vid=0ef0794d-dada-4229-862e-972f8e68cf30","ios":"levelo://app?vid=0ef0794d-dada-4229-862e-972f8e68cf30"},"vehicle_type_id":"4","last_reported":1711562975,"current_range_meters":0,"station_id":"ce4bh192rcd13ifvqdb0","pricing_plan_id":"cebpf4jnsgd1na2vs0mg"},{"bike_id":"594333b5-a29b-4df5-8723-a3f14c5d10e3","system_id":"levelo_inurba_marseille","lat":43.2923,"lon":5.36066,"is_reserved":false,"is_disabled":false,"rental_uris":{"android":"levelo://app?vid=594333b5-a29b-4df5-8723-a3f14c5d10e3","ios":"levelo://app?vid=594333b5-a29b-4df5-8723-a3f14c5d10e3"},"vehicle_type_id":"4","last_reported":1711562975,"current_range_meters":0,"station_id":"ce4bhbh2rcd13ifvqeqg","pricing_plan_id":"cebpf4jnsgd1na2vs0mg"},{"bike_id":"c9a384fb-4d1c-464b-875d-3484895c3e82","system_id":"levelo_inurba_marseille","lat":43.292282,"lon":5.360714,"is_reserved":false,"is_disabled":false,"rental_uris":{"android":"levelo://app?vid=c9a384fb-4d1c-464b-875d-3484895c3e82","ios":"levelo://app?vid=c9a384fb-4d1c-464b-875d-3484895c3e82"},"vehicle_type_id":"4","last_reported":1711562975,"current_range_meters":27200,"station_id":"ce4bhbh2rcd13ifvqeqg","pricing_plan_id":"cebpf4jnsgd1na2vs0mg"},{"bike_id":"44a8838e-7286-4c96-b182-a9d1e86e968a","system_id":"levelo_inurba_marseille","lat":43.292311,"lon":5.360731,"is_reserved":false,"is_disabled":false,"rental_uris":{"android":"levelo://app?vid=44a8838e-7286-4c96-b182-a9d1e86e968a","ios":"levelo://app?vid=44a8838e-7286-4c96-b182-a9d1e86e968a"},"vehicle_type_id":"4","last_reported":1711562975,"current_range_meters":11600,"station_id":"ce4bhbh2rcd13ifvqeqg","pricing_plan_id":"cebpf4jnsgd1na2vs0mg"},{"bike_id":"02d172af-0b9f-425b-b293-5df825794052","system_id":"levelo_inurba_marseille","lat":43.292264,"lon":5.360708,"is_reserved":false,"is_disabled":false,"rental_uris":{"android":"levelo://app?vid=02d172af-0b9f-425b-b293-5df825794052","ios":"levelo://app?vid=02d172af-0b9f-425b-b293-5df825794052"},"vehicle_type_id":"4","last_reported":1711562975,"current_range_meters":30800,"station_id":"ce4bhbh2rcd13ifvqeqg","pricing_plan_id":"cebpf4jnsgd1na2vs0mg"},{"bike_id":"3b97f73e-2c18-4302-badf-96df5cec7561","system_id":"levelo_inurba_marseille","lat":43.29227,"lon":5.36062,"is_reserved":false,"is_disabled":false,"rental_uris":{"android":"levelo://app?vid=3b97f73e-2c18-4302-badf-96df5cec7561","ios":"levelo://app?vid=3b97f73e-2c18-4302-badf-96df5cec7561"},"vehicle_type_id":"4","last_reported":1711562975,"current_range_meters":24000,"station_id":"ce4bhbh2rcd13ifvqeqg","pricing_plan_id":"cebpf4jnsgd1na2vs0mg"},{"bike_id":"6fff559e-7bbc-4d4c-a88c-3d4acec6e280","system_id":"levelo_inurba_marseille","lat":43.300852,"lon":5.390859,"is_reserved":false,"is_disabled":false,"rental_uris":{"android":"levelo://app?vid=6fff559e-7bbc-4d4c-a88c-3d4acec6e280","ios":"levelo://app?vid=6fff559e-7bbc-4d4c-a88c-3d4acec6e280"},