{"last_updated":1762362622,"ttl":60,"version":"2.2","data":{"bikes":[{"bike_id":"b7c5e96f-2666-418c-b8cc-36dfc613348c","system_id":"levelo_inurba_marseille","lat":43.337444,"lon":5.374475,"is_reserved":false,"is_disabled":false,"rental_uris":{"android":"levelo://app?vid=b7c5e96f-2666-418c-b8cc-36dfc613348c","ios":"levelo://app?vid=b7c5e96f-2666-418c-b8cc-36dfc613348c"},"vehicle_type_id":"4","last_reported":1762362623,"current_range_meters":0,"station_id":"","pricing_plan_id":"cebpf4jnsgd1na2vs0mg"},{"bike_id":"9c46a9f5-39cb-461a-ac28-286dc216524b","system_id":"levelo_inurba_marseille","lat":43.337444,"lon":5.374475,"is_reserved":false,"is_disabled":false,"rental_uris":{"android":"levelo://app?vid=9c46a9f5-39cb-461a-ac28-286dc216524b","ios":"levelo://app?vid=9c46a9f5-39cb-461a-ac28-286dc216524b"},"vehicle_type_id":"4","last_reported":1762362623,"current_range_meters":0,"station_id":"","pricing_plan_id":"cebpf4jnsgd1na2vs0mg"},{"bike_id":"2aa95e42-5a8c-4825-81d0-40d356e0168e","system_id":"levelo_inurba_marseille","lat":43.337444,"lon":5.374475,"is_reserved":false,"is_disabled":false,"rental_uris":{"android":"levelo://app?vid=2aa95e42-5a8c-4825-81d0-40d356e0168e","ios":"levelo://app?vid=2aa95e42-5a8c-4825-81d0-40d356e0168e"},"vehicle_type_id":"4","last_reported":1762362623,"current_range_meters":0,"station_id":"","pricing_plan_id":"cebpf4jnsgd1na2vs0mg"},{"bike_id":"23f7c00c-abd3-4b9e-b454-b625ef68ddce","system_id":"levelo_inurba_marseille","lat":43.337444,"lon":5.374475,"is_reserved":false,"is_disabled":false,"rental_uris":{"android":"levelo://app?vid=23f7c00c-abd3-4b9e-b454-b625ef68ddce","ios":"levelo://app?vid=23f7c00c-abd3-4b9e-b454-b625ef68ddce"},"vehicle_type_id":"4","last_reported":1762362623,"current_range_meters":0,"station_id":"","pricing_plan_id":"cebpf4jnsgd1na2vs0mg"},{"bike_id":"a3451d83-9c80-4ffa-96f9-a14c25634465","system_id":"levelo_inurba_marseille","lat":43.337444,"lon":5.374475,"is_reserved":false,"is_disabled":false,"rental_uris":{"android":"levelo://app?vid=a3451d83-9c80-4ffa-96f9-a14c25634465","ios":"levelo://app?vid=a3451d83-9c80-4ffa-96f9-a14c25634465"},"vehicle_type_id":"4","last_reported":1762362623,"current_range_meters":0,"station_id":"","pricing_plan_id":"cebpf4jnsgd1na2vs0mg"},{"bike_id":"19649598-fd0f-4237-a302-8b748132eb30","system_id":"levelo_inurba_marseille","lat":43.337444,"lon":5.374475,"is_reserved":false,"is_disabled":false,"rental_uris":{"android":"levelo://app?vid=19649598-fd0f-4237-a302-8b748132eb30","ios":"levelo://app?vid=19649598-fd0f-4237-a302-8b748132eb30"},"vehicle_type_id":"4","last_reported":1762362623,"current_range_meters":0,"station_id":"","pricing_plan_id":"cebpf4jnsgd1na2vs0mg"},{"bike_id":"79f0199f-1fbb-40b2-9337-191d82b520a7","system_id":"levelo_inurba_marseille","lat":43.337444,"lon":5.374475,"is_reserved":false,"is_disabled":false,"rental_uris":{"android":"levelo://app?vid=79f0199f-1fbb-40b2-9337-191d82b520a7","ios":"levelo://app?vid=79f0199f-1fbb-40b2-9337-191d82b520a7"},"vehicle_type_id":"4","last_reported":1762362623,"current_range_meters":0,"station_id":"","pricing_plan_id":"cebpf4jnsgd1na2vs0mg"},{"bike_id":"34a0d96e-bbf5-4ab6-8de8-a56cc767fd57","system_id":"levelo_inurba_marseille","lat":43.337444,"lon":5.374475,"is_reserved":false,"is_disabled":false,"rental_uris":{"android":"levelo://app?vid=34a0d96e-bbf5-4ab6-8de8-a56cc767fd57","ios":"levelo://app?vid=34a0d96e-bbf5-4ab6-8de8-a56cc767fd57"},"vehicle_type_id":"4","last_reported":1762362623,"current_range_meters":0,"station_id":"","pricing_plan_id":"cebpf4jnsgd1na2vs0mg"},{"bike_id":"30c4756b-2e3a-4ac9-b1fb-aa08283eecaa","system_id":"levelo_inurba_marseille","lat":43.337444,"lon":5.374475,"is_reserved":false,"is_disabled":false,"rental_uris":{"android":"levelo://app?vid=30c4756b-2e3a-4ac9-b1fb-aa08283eecaa","ios":"levelo://app?vid=30c4756b-2e3a-4ac9-b1fb-aa08283eecaa"},"vehicle_type_id":"4","last_reported":1762362623,"current_range_meters":0,"station_id":"","pricing_plan_id":"cebpf4jnsgd1na2vs0mg"},{"bike_id":"cb5b6ee7-3ef8-4299-a38d-cc32f035098b","system_id":"levelo_inurba_marseille","lat":43.337444,"lon":5.374475,"is_reserved":false,"is_disabled":false,"rental_uris":{"android":"levelo://app?vid=cb5b6ee7-3ef8-4299-a38d-cc32f035098b","ios":"levelo://app?vid=cb5b6ee7-3ef8-4299-a38d-cc32f035098b"},"vehicle_type_id":"4","last_reported":1762362623,"current_range_meters":0,"station_id":"","pricing_plan_id":"cebpf4jnsgd1na2vs0mg"},{"bike_id":"0dbf8834-1963-4427-879a-60d5139a1252","system_id":"levelo_inurba_marseille","lat":43.337444,"lon":5.374475,"is_reserved":false,"is_disabled":false,"rental_uris":{"android":"levelo://app?vid=0dbf8834-1963-4427-879a-60d5139a1252","ios":"levelo://app?vid=0dbf8834-1963-4427-879a-60d5139a1252"},"vehicle_type_id":"4","last_reported":1762362623,"current_range_meters":0,"station_id":"","pricing_plan_id":"cebpf4jnsgd1na2vs0mg"},{"bike_id":"c3d3ce5c-8075-4b42-9455-beadd1468f17","system_id":"levelo_inurba_marseille","lat":43.337444,"lon":5.374475,"is_reserved":false,"is_disabled":false,"rental_uris":{"android":"levelo://app?vid=c3d3ce5c-8075-4b42-9455-beadd1468f17","ios":"levelo://app?vid=c3d3ce5c-8075-4b42-9455-beadd1468f17"},"vehicle_type_id":"4","last_reported":1762362623,"current_range_meters":0,"station_id":"","pricing_plan_id":"cebpf4jnsgd1na2vs0mg"},{"bike_id":"2177a091-7ad7-4fcd-ad08-e78406d1a8ef","system_id":"levelo_inurba_marseille","lat":43.337444,"lon":5.374475,"is_reserved":false,"is_disabled":false,"rental_uris":{"android":"levelo://app?vid=2177a091-7ad7-4fcd-ad08-e78406d1a8ef","ios":"levelo://app?vid=2177a091-7ad7-4fcd-ad08-e78406d1a8ef"},"vehicle_type_id":"4","last_reported":1762362623,"current_range_meters":0,"station_id":"","pricing_plan_id":"cebpf4jnsgd1na2vs0mg"},{"bike_id":"ed2dc6ad-7a96-47d2-b4d0-3deee38fd62c","system_id":"levelo_inurba_marseille","lat":43.337444,"lon":5.374475,"is_reserved":false,"is_disabled":false,"rental_uris":{"android":"levelo://app?vid=ed2dc6ad-7a96-47d2-b4d0-3deee38fd62c","ios":"levelo://app?vid=ed2dc6ad-7a96-47d2-b4d0-3deee38fd62c"},"vehicle_type_id":"4","last_reported":1762362623,"current_range_meters":0,"station_id":"","pricing_plan_id":"cebpf4jnsgd1na2vs0mg"},{"bike_id":"42735ee1-244b-4d96-8480-f9806199924f","system_id":"levelo_inurba_marseille","lat":43.337444,"lon":5.374475,"is_reserved":false,"is_disabled":false,"rental_uris":{"android":"levelo://app?vid=42735ee1-244b-4d96-8480-f9806199924f","ios":"levelo://app?vid=42735ee1-244b-4d96-8480-f9806199924f"},"vehicle_type_id":"4","last_reported":1762362623,"current_range_meters":0,"station_id":"","pricing_plan_id":"cebpf4jnsgd1na2vs0mg"},{"bike_id":"0d7ab61a-02ec-456f-ab23-ba92f34594d5","system_id":"levelo_inurba_marseille","lat":43.337444,"lon":5.374475,"is_reserved":false,"is_disabled":false,"rental_uris":{"android":"levelo://app?vid=0d7ab61a-02ec-456f-ab23-ba92f34594d5","ios":"levelo://app?vid=0d7ab61a-02ec-456f-ab23-ba92f34594d5"},"vehicle_type_id":"4","last_reported":1762362623,"current_range_meters":0,"station_id":"","pricing_plan_id":"cebpf4jnsgd1na2vs0mg"},{"bike_id":"f68022fa-eb0a-4aac-8aea-6f2e14d0afb9","system_id":"levelo_inurba_marseille","lat":43.337444,"lon":5.374475,"is_reserved":false,"is_disabled":false,"rental_uris":{"android":"levelo://app?vid=f68022fa-eb0a-4aac-8aea-6f2e14d0afb9","ios":"levelo://app?vid=f68022fa-eb0a-4aac-8aea-6f2e14d0afb9"},"vehicle_type_id":"4","last_reported":1762362623,"current_range_meters":0,"station_id":"","pricing_plan_id":"cebpf4jnsgd1na2vs0mg"},{"bike_id":"386a9781-f1f4-4d33-8679-4d1163c3b9de","system_id":"levelo_inurba_marseille","lat":43.337444,"lon":5.374475,"is_reserved":false,"is_disabled":false,"rental_uris":{"android":"levelo://app?vid=386a9781-f1f4-4d33-8679-4d1163c3b9de","ios":"levelo://app?vid=386a9781-f1f4-4d33-8679-4d1163c3b9de"},"vehicle_type_id":"4","last_reported":1762362623,"current_range_meters":0,"station_id":"","pricing_plan_id":"cebpf4jnsgd1na2vs0mg"},{"bike_id":"4692d694-8a80-47c7-a7c6-1264ca94c6df","system_id":"levelo_inurba_marseille","lat":43.337444,"lon":5.374475,"is_reserved":false,"is_disabled":false,"rental_uris":{"android":"levelo://app?vid=4692d694-8a80-47c7-a7c6-1264ca94c6df","ios":"levelo://app?vid=4692d694-8a80-47c7-a7c6-1264ca94c6df"},"vehicle_type_id":"4","last_reported":1762362623,"current_range_meters":0,"station_id":"","pricing_plan_id":"cebpf4jnsgd1na2vs0mg"},{"bike_id":"4706d18d-408c-4dc1-a44f-b0f99f27bdf0","system_id":"levelo_inurba_marseille","lat":43.337444,"lon":5.374475,"is_reserved":false,"is_disabled":false,"rental_uris":{"android":"levelo://app?vid=4706d18d-408c-4dc1-a44f-b0f99f27bdf0","ios":"levelo://app?vid=4706d18d-408c-4dc1-a44f-b0f99f27bdf0"},"vehicle_type_id":"4","last_reported":1762362623,"current_range_meters":0,"station_id":"","pricing_plan_id":"cebpf4jnsgd1na2vs0mg"},{"bike_id":"abb77335-fe7b-4b75-9b2f-be4bb45cbb0d","system_id":"levelo_inurba_marseille","lat":43.337444,"lon":5.374475,"is_reserved":false,"is_disabled":false,"rental_uris":{"android":"levelo://app?vid=abb77335-fe7b-4b75-9b2f-be4bb45cbb0d","ios":"levelo://app?vid=abb77335-fe7b-4b75-9b2f-be4bb45cbb0d"},"vehicle_type_id":"4","last_reported":1762362623,"current_range_meters":0,"station_id":"","pricing_plan_id":"cebpf4jnsgd1na2vs0mg"},{"bike_id":"4bde9393-6919-41f3-8fef-f4b40f375cc0","system_id":"levelo_inurba_marseille","lat":43.337444,"lon":5.374475,"is_reserved":false,"is_disabled":false,"rental_uris":{"android":"levelo://app?vid=4bde9393-6919-41f3-8fef-f4b40f375cc0","ios":"levelo://app?vid=4bde9393-6919-41f3-8fef-f4b40f375cc0"},"vehicle_type_id":"4","last_reported":1762362623,"current_range_meters":0,"station_id":"","pricing_plan_id":"cebpf4jnsgd1na2vs0mg"},{"bike_id":"51f4e824-5009-4c5b-9283-cfda2d34404c","system_id":"levelo_inurba_marseille","lat":43.337444,"lon":5.374475,"is_reserved":false,"is_disabled":false,"rental_uris":{"android":"levelo://app?vid=51f4e824-5009-4c5b-9283-cfda2d34404c","ios":"levelo://app?vid=51f4e824-5009-4c5b-9283-cfda2d34404c"},"vehicle_type_id":"4","last_reported":1762362623,"current_range_meters":0,"station_id":"","pricing_plan_id":"cebpf4jnsgd1na2vs0mg"},{"bike_id":"d155d58c-f50a-4469-b126-b5af1b8d3f8a","system_id":"levelo_inurba_marseille","lat":43.337444,"lon":5.374475,"is_reserved":false,"is_disabled":false,"rental_uris":{"android":"levelo://app?vid=d155d58c-f50a-4469-b126-b5af1b8d3f8a","ios":"levelo://app?vid=d155d58c-f50a-4469-b126-b5af1b8d3f8a"},"vehicle_type_id":"4","last_reported":1762362623,"current_range_meters":0,"station_id":"","pricing_plan_id":"cebpf4jnsgd1na2vs0mg"},{"bike_id":"16f471c2-a8ed-4e61-ba2a-d83085a9c284","system_id":"levelo_inurba_marseille","lat":43.337444,"lon":5.374475,"is_reserved":false,"is_disabled":false,"rental_uris":{"android":"levelo://app?vid=16f471c2-a8ed-4e61-ba2a-d83085a9c284","ios":"levelo://app?vid=16f471c2-a8ed-4e61-ba2a-d83085a9c284"},"vehicle_type_id":"4","last_reported":1762362623,"current_range_meters":0,"station_id":"","pricing_plan_id":"cebpf4jnsgd1na2vs0mg"},{"bike_id":"b8bd4cc4-f519-43de-b194-2cc2cf75483c","system_id":"levelo_inurba_marseille","lat":43.337444,"lon":5.374475,"is_reserved":false,"is_disabled":false,"rental_uris":{"android":"levelo://app?vid=b8bd4cc4-f519-43de-b194-2cc2cf75483c","ios":"levelo://app?vid=b8bd4cc4-f519-43de-b194-2cc2cf75483c"},"vehicle_type_id":"4","last_reported":1762362623,"current_range_meters":0,"station_id":"","pricing_plan_id":"cebpf4jnsgd1na2vs0mg"},{"bike_id":"591b062c-0423-40a0-9120-f7c30f97e98f","system_id":"levelo_inurba_marseille","lat":43.337444,"lon":5.374475,"is_reserved":false,"is_disabled":false,"rental_uris":{"android":"levelo://app?vid=591b062c-0423-40a0-9120-f7c30f97e98f","ios":"levelo://app?vid=591b062c-0423-40a0-9120-f7c30f97e98f"},"vehicle_type_id":"4","last_reported":1762362623,"current_range_meters":0,"station_id":"","pricing_plan_id":"cebpf4jnsgd1na2vs0mg"},{"bike_id":"8fbb8d57-565e-4232-a867-846a316b3375","system_id":"levelo_inurba_marseille","lat":43.337444,"lon":5.374475,"is_reserved":false,"is_disabled":false,"rental_uris":{"android":"levelo://app?vid=8fbb8d57-565e-4232-a867-846a316b3375","ios":"levelo://app?vid=8fbb8d57-565e-4232-a867-846a316b3375"},"vehicle_type_id":"4","last_reported":1762362623,"current_range_meters":0,"station_id":"","pricing_plan_id":"cebpf4jnsgd1na2vs0mg"},{"bike_id":"e6134458-396f-46c5-87ab-a79cf2b6424c","system_id":"levelo_inurba_marseille","lat":43.337444,"lon":5.374475,"is_reserved":false,"is_disabled":false,"rental_uris":{"android":"levelo://app?vid=e6134458-396f-46c5-87ab-a79cf2b6424c","ios":"levelo://app?vid=e6134458-396f-46c5-87ab-a79cf2b6424c"},"vehicle_type_id":"4","last_reported":1762362623,"current_range_meters":0,"station_id":"","pricing_plan_id":"cebpf4jnsgd1na2vs0mg"},{"bike_id":"0a0d4295-fe5b-4614-b2ca-f5579d5190b0","system_id":"levelo_inurba_marseille","lat":43.337444,"lon":5.374475,"is_reserved":false,"is_disabled":false,"rental_uris":{"android":"levelo://app?vid=0a0d4295-fe5b-4614-b2ca-f5579d5190b0","ios":"levelo://app?vid=0a0d4295-fe5b-4614-b2ca-f5579d5190b0"},"vehicle_type_id":"4","last_reported":1762362623,"current_range_meters":0,"station_id":"","pricing_plan_id":"cebpf4jnsgd1na2vs0mg"},{"bike_id":"de7ae178-daee-4867-92b2-551152aee604","system_id":"levelo_inurba_marseille","lat":43.279999,"lon":5.400125,"is_reserved":false,"is_disabled":false,"rental_uris":{"android":"levelo://app?vid=de7ae178-daee-4867-92b2-551152aee604","ios":"levelo://app?vid=de7ae178-daee-4867-92b2-551152aee604"},"vehicle_type_id":"4","last_reported":1762362623,"current_range_meters":2800,"station_id":"ce4bho92rcd13ifvqh4g","pricing_plan_id":"cebpf4jnsgd1na2vs0mg"},{"bike_id":"9b2a2007-fc16-4673-95fb-862d9c26748a","system_id":"levelo_inurba_marseille","lat":43.29192,"lon":5.39308,"is_reserved":false,"is_disabled":false,"rental_uris":{"android":"levelo://app?vid=9b2a2007-fc16-4673-95fb-862d9c26748a","ios":"levelo://app?vid=9b2a2007-fc16-4673-95fb-862d9c26748a"},"vehicle_type_id":"4","last_reported":1762362623,"current_range_meters":2800,"station_id":"ce4bh192rcd13ifvqdd0","pricing_plan_id":"cebpf4jnsgd1na2vs0mg"},{"bike_id":"b7274164-d104-4569-8e8d-d56b2a397565","system_id":"levelo_inurba_marseille","lat":43.28456,"lon":5.484,"is_reserved":false,"is_disabled":false,"rental_uris":{"android":"levelo://app?vid=b7274164-d104-4569-8e8d-d56b2a397565","ios":"levelo://app?vid=b7274164-d104-4569-8e8d-d56b2a397565"},"vehicle_type_id":"4","last_reported":1762362623,"current_range_meters":2800,"station_id":"st_d3svhcjqgbts73a3dn0g","pricing_plan_id":"cebpf4jnsgd1na2vs0mg"},{"bike_id":"c35d6e70-6ab8-4a7b-96a6-7364ec85bd55","system_id":"levelo_inurba_marseille","lat":43.33601,"lon":5.41028,"is_reserved":false,"is_disabled":false,"rental_uris":{"android":"levelo://app?vid=c35d6e70-6ab8-4a7b-96a6-7364ec85bd55","ios":"levelo://app?vid=c35d6e70-6ab8-4a7b-96a6-7364ec85bd55"},"vehicle_type_id":"4","last_reported":1762362623,"current_range_meters":2800,"station_id":"ce4bhqh2rcd13ifvqhmg","pricing_plan_id":"cebpf4jnsgd1na2vs0mg"},{"bike_id":"df901744-052b-4596-be21-45d27cbc1916","system_id":"levelo_inurba_marseille","lat":43.285106,"lon":5.440351,"is_reserved":false,"is_disabled":false,"rental_uris":{"android":"levelo://app?vid=df901744-052b-4596-be21-45d27cbc1916","ios":"levelo://app?vid=df901744-052b-4596-be21-45d27cbc1916"},"vehicle_type_id":"4","last_reported":1762362623,"current_range_meters":3200,"station_id":"ce4bgkh2rcd13ifvqbk0","pricing_plan_id":"cebpf4jnsgd1na2vs0mg"},{"bike_id":"6b7227d9-546c-46d3-bac4-ddad98263634","system_id":"levelo_inurba_marseille","lat":43.27937,"lon":5.41054,"is_reserved":false,"is_disabled":true,"rental_uris":{"android":"levelo://app?vid=6b7227d9-546c-46d3-bac4-ddad98263634","ios":"levelo://app?vid=6b7227d9-546c-46d3-bac4-ddad98263634"},"vehicle_type_id":"4","last_reported":1762362623,"current_range_meters":3200,"station_id":"ce4bhnp2rcd13ifvqh0g","pricing_plan_id":"cebpf4jnsgd1na2vs0mg"},{"bike_id":"4206fd1c-fca5-4468-81b6-1c50d2a4a589","system_id":"levelo_inurba_marseille","lat":43.29783,"lon":5.43811,"is_reserved":false,"is_disabled":false,"rental_uris":{"android":"levelo://app?vid=4206fd1c-fca5-4468-81b6-1c50d2a4a589","ios":"levelo://app?vid=4206fd1c-fca5-4468-81b6-1c50d2a4a589"},"vehicle_type_id":"4","last_reported":1762362623,"current_range_meters":3200,"station_id":"","pricing_plan_id":"cebpf4jnsgd1na2vs0mg"},{"bike_id":"edb41361-0da9-4566-b0f9-00fa5017fc7b","system_id":"levelo_inurba_marseille","lat":43.27057,"lon":5.40264,"is_reserved":false,"is_disabled":false,"rental_uris":{"android":"levelo://app?vid=edb41361-0da9-4566-b0f9-00fa5017fc7b","ios":"levelo://app?vid=edb41361-0da9-4566-b0f9-00fa5017fc7b"},"vehicle_type_id":"4","last_reported":1762362623,"current_range_meters":3200,"station_id":"ce4bhk92rcd13ifvqgc0","pricing_plan_id":"cebpf4jnsgd1na2vs0mg"},{"bike_id":"1e80035b-444d-4584-ad32-2c05751c3235","system_id":"levelo_inurba_marseille","lat":43.279022,"lon":5.38015,"is_reserved":false,"is_disabled":false,"rental_uris":{"android":"levelo://app?vid=1e80035b-444d-4584-ad32-2c05751c3235","ios":"levelo://app?vid=1e80035b-444d-4584-ad32-2c05751c3235"},"vehicle_type_id":"4","last_reported":1762362623,"current_range_meters":3200,"station_id":"ce4bhf92rcd13ifvqf50","pricing_plan_id":"cebpf4jnsgd1na2vs0mg"},{"bike_id":"433f8178-4e9f-4062-a1ea-1c1e10575e14","system_id":"levelo_inurba_marseille","lat":43.28864,"lon":5.35849,"is_reserved":false,"is_disabled":false,"rental_uris":{"android":"levelo://app?vid=433f8178-4e9f-4062-a1ea-1c1e10575e14","ios":"levelo://app?vid=433f8178-4e9f-4062-a1ea-1c1e10575e14"},"vehicle_type_id":"4","last_reported":1762362623,"current_range_meters":3200,"station_id":"ce4bhb12rcd13ifvqem0","pricing_plan_id":"cebpf4jnsgd1na2vs0mg"},{"bike_id":"f29731ed-c181-4443-890c-e234c66d84d3","system_id":"levelo_inurba_marseille","lat":43.29049,"lon":5.3996,"is_reserved":false,"is_disabled":false,"rental_uris":{"android":"levelo://app?vid=f29731ed-c181-4443-890c-e234c66d84d3","ios":"levelo://app?vid=f29731ed-c181-4443-890c-e234c66d84d3"},"vehicle_type_id":"4","last_reported":1762362623,"current_range_meters":3200,"station_id":"ce4bh392rcd13ifvqdm0","pricing_plan_id":"cebpf4jnsgd1na2vs0mg"},{"bike_id":"560fd41e-acba-4992-bfd5-3db2cd3e2b82","system_id":"levelo_inurba_marseille","lat":43.30137,"lon":5.38784,"is_reserved":false,"is_disabled":false,"rental_uris":{"android":"levelo://app?vid=560fd41e-acba-4992-bfd5-3db2cd3e2b82","ios":"levelo://app?vid=560fd41e-acba-4992-bfd5-3db2cd3e2b82"},"vehicle_type_id":"4","last_reported":1762362623,"current_range_meters":3600,"station_id":"ce4bghh2rcd13ifvqb60","pricing_plan_id":"cebpf4jnsgd1na2vs0mg"},{"bike_id":"ac595395-da02-47c3-b488-fdb7d1892911","system_id":"levelo_inurba_marseille","lat":43.28941,"lon":5.3664,"is_reserved":false,"is_disabled":false,"rental_uris":{"android":"levelo://app?vid=ac595395-da02-47c3-b488-fdb7d1892911","ios":"levelo://app?vid=ac595395-da02-47c3-b488-fdb7d1892911"},"vehicle_type_id":"4","last_reported":1762362623,"current_range_meters":4000,"station_id":"ce4bhap2rcd13ifvqek0","pricing_plan_id":"cebpf4jnsgd1na2vs0mg"},{"bike_id":"60fd2392-832d-4279-bd39-5c03dbe5fbe8","system_id":"levelo_inurba_marseille","lat":43.286107,"lon":5.370654,"is_reserved":false,"is_disabled":false,"rental_uris":{"android":"levelo://app?vid=60fd2392-832d-4279-bd39-5c03dbe5fbe8","ios":"levelo://app?vid=60fd2392-832d-4279-bd39-5c03dbe5fbe8"},"vehicle_type_id":"4","last_reported":1762362623,"current_range_meters":4000,"station_id":"ce4bht12rcd13ifvqi60","pricing_plan_id":"cebpf4jnsgd1na2vs0mg"},{"bike_id":"e9e607eb-9504-42fe-b8f1-9aefbfab0a79","system_id":"levelo_inurba_marseille","lat":43.32055,"lon":5.41536,"is_reserved":false,"is_disabled":false,"rental_uris":{"android":"levelo://app?vid=e9e607eb-9504-42fe-b8f1-9aefbfab0a79","ios":"levelo://app?vid=e9e607eb-9504-42fe-b8f1-9aefbfab0a79"},"vehicle_type_id":"4","last_reported":1762362623,"current_range_meters":4000,"station_id":"ce4bhq92rcd13ifvqhkg","pricing_plan_id":"cebpf4jnsgd1na2vs0mg"},{"bike_id":"663c1282-fbf9-4303-b9aa-00529c606e1f","system_id":"levelo_inurba_marseille","lat":43.30688,"lon":5.37366,"is_reserved":false,"is_disabled":false,"rental_uris":{"android":"levelo://app?vid=663c1282-fbf9-4303-b9aa-00529c606e1f","ios":"levelo://app?vid=663c1282-fbf9-4303-b9aa-00529c606e1f"},"vehicle_type_id":"4","last_reported":1762362623,"current_range_meters":4000,"station_id":"","pricing_plan_id":"cebpf4jnsgd1na2vs0mg"},{"bike_id":"28b85111-1e3c-4e94-9d4a-5a837507bfee","system_id":"levelo_inurba_marseille","lat":43.29718,"lon":5.42642,"is_reserved":false,"is_disabled":false,"rental_uris":{"android":"levelo://app?vid=28b85111-1e3c-4e94-9d4a-5a837507bfee","ios":"levelo://app?vid=28b85111-1e3c-4e94-9d4a-5a837507bfee"},"vehicle_type_id":"4","last_reported":1762362623,"current_range_meters":4400,"station_id":"","pricing_plan_id":"cebpf4jnsgd1na2vs0mg"},{"bike_id":"ec654542-4401-4a32-9275-6babb31e0855","system_id":"levelo_inurba_marseille","lat":43.279942,"lon":5.416709,"is_reserved":false,"is_disabled":true,"rental_uris":{"android":"levelo://app?vid=ec654542-4401-4a32-9275-6babb31e0855","ios":"levelo://app?vid=ec654542-4401-4a32-9275-6babb31e0855"},"vehicle_type_id":"4","last_reported":1762362623,"current_range_meters":4400,"station_id":"ce4bho12rcd13ifvqh1g","pricing_plan_id":"cebpf4jnsgd1na2vs0mg"},{"bike_id":"239d5fca-7e99-485a-b8a1-94c3de557303","system_id":"levelo_inurba_marseille","lat":43.261926,"lon":5.374503,"is_reserved":false,"is_disabled":false,"rental_uris":{"android":"levelo://app?vid=239d5fca-7e99-485a-b8a1-94c3de557303","ios":"levelo://app?vid=239d5fca-7e99-485a-b8a1-94c3de557303"},"vehicle_type_id":"4","last_reported":1762362623,"current_range_meters":4400,"station_id":"ce4bhgp2rcd13ifvqfc0","pricing_plan_id":"cebpf4jnsgd1na2vs0mg"},{"bike_id":"f11146f2-798a-488c-a087-1b206cc73616","system_id":"levelo_inurba_marseille","lat":43.26959,"lon":5.38628,"is_reserved":false,"is_disabled":false,"rental_uris":{"android":"levelo://app?vid=f11146f2-798a-488c-a087-1b206cc73616","ios":"levelo://app?vid=f11146f2-798a-488c-a087-1b206cc73616"},"vehicle_type_id":"4","last_reported":1762362623,"current_range_meters":4400,"station_id":"ce4bhh92rcd13ifvqfh0","pricing_plan_id":"cebpf4jnsgd1na2vs0mg"},{"bike_id":"88699f8f-41f1-42e4-94e0-0832ece13748","system_id":"levelo_inurba_marseille","lat":43.290437,"lon":5.359304,"is_reserved":false,"is_disabled":false,"rental_uris":{"android":"levelo://app?vid=88699f8f-41f1-42e4-94e0-0832ece13748","ios":"levelo://app?vid=88699f8f-41f1-42e4-94e0-0832ece13748"},"vehicle_type_id":"4","last_reported":1762362623,"current_range_meters":4400,"station_id":"ce4bgnh2rcd13ifvqc0g","pricing_plan_id":"cebpf4jnsgd1na2vs0mg"},{"bike_id":"c76b2c5b-16e9-4c55-870e-400171fa768d","system_id":"levelo_inurba_marseille","lat":43.29551,"lon":5.42287,"is_reserved":false,"is_disabled":false,"rental_uris":{"android":"levelo://app?vid=c76b2c5b-16e9-4c55-870e-400171fa768d","ios":"levelo://app?vid=c76b2c5b-16e9-4c55-870e-400171fa768d"},"vehicle_type_id":"4","last_reported":1762362623,"current_range_meters":4800,"station_id":"ce4bhph2rcd13ifvqhdg","pricing_plan_id":"cebpf4jnsgd1na2vs0mg"},{"bike_id":"e9856231-4e72-4013-8cb8-847322beb61e","system_id":"levelo_inurba_marseille","lat":43.31547,"lon":5.37252,"is_reserved":false,"is_disabled":false,"rental_uris":{"android":"levelo://app?vid=e9856231-4e72-4013-8cb8-847322beb61e","ios":"levelo://app?vid=e9856231-4e72-4013-8cb8-847322beb61e"},"vehicle_type_id":"4","last_reported":1762362623,"current_range_meters":4800,"station_id":"","pricing_plan_id":"cebpf4jnsgd1na2vs0mg"},{"bike_id":"2ab8534a-d820-4ee9-93a6-e1c660cbc431","system_id":"levelo_inurba_marseille","lat":43.28935,"lon":5.36647,"is_reserved":false,"is_disabled":false,"rental_uris":{"android":"levelo://app?vid=2ab8534a-d820-4ee9-93a6-e1c660cbc431","ios":"levelo://app?vid=2ab8534a-d820-4ee9-93a6-e1c660cbc431"},"vehicle_type_id":"4","last_reported":1762362623,"current_range_meters":4800,"station_id":"ce4bhap2rcd13ifvqek0","pricing_plan_id":"cebpf4jnsgd1na2vs0mg"},{"bike_id":"23d4a02f-74aa-460c-a0b6-9a68adb029a8","system_id":"levelo_inurba_marseille","lat":43.29704,"lon":5.37692,"is_reserved":false,"is_disabled":false,"rental_uris":{"android":"levelo://app?vid=23d4a02f-74aa-460c-a0b6-9a68adb029a8","ios":"levelo://app?vid=23d4a02f-74aa-460c-a0b6-9a68adb029a8"},"vehicle_type_id":"4","last_reported":1762362623,"current_range_meters":5600,"station_id":"ce4bgkh2rcd13ifvqbl0","pricing_plan_id":"cebpf4jnsgd1na2vs0mg"},{"bike_id":"be203ccc-131f-4f56-b2b2-328d03769f88","system_id":"levelo_inurba_marseille","lat":43.299652,"lon":5.38488,"is_reserved":false,"is_disabled":false,"rental_uris":{"android":"levelo://app?vid=be203ccc-131f-4f56-b2b2-328d03769f88","ios":"levelo://app?vid=be203ccc-131f-4f56-b2b2-328d03769f88"},"vehicle_type_id":"4","last_reported":1762362623,"current_range_meters":5600,"station_id":"ce4bgj92rcd13ifvqbd0","pricing_plan_id":"cebpf4jnsgd1na2vs0mg"},{"bike_id":"aae69769-0d96-4ec0-a552-a916ee2fd560","system_id":"levelo_inurba_marseille","lat":43.22932,"lon":5.35367,"is_reserved":false,"is_disabled":false,"rental_uris":{"android":"levelo://app?vid=aae69769-0d96-4ec0-a552-a916ee2fd560","ios":"levelo://app?vid=aae69769-0d96-4ec0-a552-a916ee2fd560"},"vehicle_type_id":"4","last_reported":1762362623,"current_range_meters":5600,"station_id":"cpo3532slgdg3j2ikp40","pricing_plan_id":"cebpf4jnsgd1na2vs0mg"},{"bike_id":"f85aa77d-68cf-4fee-8989-a2a23f2a8e1e","system_id":"levelo_inurba_marseille","lat":43.293,"lon":5.37452,"is_reserved":false,"is_disabled":false,"rental_uris":{"android":"levelo://app?vid=f85aa77d-68cf-4fee-8989-a2a23f2a8e1e","ios":"levelo://app?vid=f85aa77d-68cf-4fee-8989-a2a23f2a8e1e"},"vehicle_type_id":"4","last_reported":1762362623,"current_range_meters":5600,"station_id":"ce4bgi12rcd13ifvqb70","pricing_plan_id":"cebpf4jnsgd1na2vs0mg"},{"bike_id":"bc4f9985-bebd-4973-a62d-c42586e3b4c1","system_id":"levelo_inurba_marseille","lat":43.30431,"lon":5.38894,"is_reserved":false,"is_disabled":false,"rental_uris":{"android":"levelo://app?vid=bc4f9985-bebd-4973-a62d-c42586e3b4c1","ios":"levelo://app?vid=bc4f9985-bebd-4973-a62d-c42586e3b4c1"},"vehicle_type_id":"4","last_reported":1762362623,"current_range_meters":5600,"station_id":"ce4bgk12rcd13ifvqbi0","pricing_plan_id":"cebpf4jnsgd1na2vs0mg"},{"bike_id":"b879c9a4-c86f-4e90-b0da-c2166abc4d4f","system_id":"levelo_inurba_marseille","lat":43.24647,"lon":5.38892,"is_reserved":false,"is_disabled":false,"rental_uris":{"android":"levelo://app?vid=b879c9a4-c86f-4e90-b0da-c2166abc4d4f","ios":"levelo://app?vid=b879c9a4-c86f-4e90-b0da-c2166abc4d4f"},"vehicle_type_id":"4","last_reported":1762362623,"current_range_meters":5600,"station_id":"ce4bhg12rcd13ifvqf60","pricing_plan_id":"cebpf4jnsgd1na2vs0mg"},{"bike_id":"0af3ced1-1811-4182-9310-079acd3cefdc","system_id":"levelo_inurba_marseille","lat":43.30934,"lon":5.40148,"is_reserved":false,"is_disabled":false,"rental_uris":{"android":"levelo://app?vid=0af3ced1-1811-4182-9310-079acd3cefdc","ios":"levelo://app?vid=0af3ced1-1811-4182-9310-079acd3cefdc"},"vehicle_type_id":"4","last_reported":1762362623,"current_range_meters":6000,"station_id":"ce4bgvp2rcd13ifvqct0","pricing_plan_id":"cebpf4jnsgd1na2vs0mg"},{"bike_id":"e2e68829-6c96-41d4-8608-bf36d3a81738","system_id":"levelo_inurba_marseille","lat":43.29557,"lon":5.42292,"is_reserved":false,"is_disabled":false,"rental_uris":{"android":"levelo://app?vid=e2e68829-6c96-41d4-8608-bf36d3a81738","ios":"levelo://app?vid=e2e68829-6c96-41d4-8608-bf36d3a81738"},"vehicle_type_id":"4","last_reported":1762362623,"current_range_meters":6000,"station_id":"ce4bhph2rcd13ifvqhdg","pricing_plan_id":"cebpf4jnsgd1na2vs0mg"},{"bike_id":"83de4c72-2933-47e8-8a8b-9d0639b42a9b","system_id":"levelo_inurba_marseille","lat":43.27063,"lon":5.40254,"is_reserved":false,"is_disabled":false,"rental_uris":{"android":"levelo://app?vid=83de4c72-2933-47e8-8a8b-9d0639b42a9b","ios":"levelo://app?vid=83de4c72-2933-47e8-8a8b-9d0639b42a9b"},"vehicle_type_id":"4","last_reported":1762362623,"current_range_meters":6000,"station_id":"ce4bhk92rcd13ifvqgc0","pricing_plan_id":"cebpf4jnsgd1na2vs0mg"},{"bike_id":"1fc367ae-92f3-4303-b710-b02b9a16da60","system_id":"levelo_inurba_marseille","lat":43.28154,"lon":5.42646,"is_reserved":false,"is_disabled":false,"rental_uris":{"android":"levelo://app?vid=1fc367ae-92f3-4303-b710-b02b9a16da60","ios":"levelo://app?vid=1fc367ae-92f3-4303-b710-b02b9a16da60"},"vehicle_type_id":"4","last_reported":1762362623,"current_range_meters":6000,"station_id":"ce4bhnh2rcd13ifvqgug","pricing_plan_id":"cebpf4jnsgd1na2vs0mg"},{"bike_id":"c3674b25-351f-4d52-ab6d-ec37e5660cfd","system_id":"levelo_inurba_marseille","lat":43.2803,"lon":5.36924,"is_reserved":false,"is_disabled":false,"rental_uris":{"android":"levelo://app?vid=c3674b25-351f-4d52-ab6d-ec37e5660cfd","ios":"levelo://app?vid=c3674b25-351f-4d52-ab6d-ec37e5660cfd"},"vehicle_type_id":"4","last_reported":1762362623,"current_range_meters":6400,"station_id":"ce4bha12rcd13ifvqef0","pricing_plan_id":"cebpf4jnsgd1na2vs0mg"},{"bike_id":"4a3d514f-5a05-4990-9993-e47b50f09618","system_id":"levelo_inurba_marseille","lat":43.23145,"lon":5.43719,"is_reserved":false,"is_disabled":false,"rental_uris":{"android":"levelo://app?vid=4a3d514f-5a05-4990-9993-e47b50f09618","ios":"levelo://app?vid=4a3d514f-5a05-4990-9993-e47b50f09618"},"vehicle_type_id":"4","last_reported":1762362623,"current_range_meters":6400,"station_id":"ce4bhmp2rcd13ifvqgog","pricing_plan_id":"cebpf4jnsgd1na2vs0mg"},{"bike_id":"3800314d-6410-4feb-bd76-28cb0729c673","system_id":"levelo_inurba_marseille","lat":43.30336,"lon":5.4007,"is_reserved":false,"is_disabled":false,"rental_uris":{"android":"levelo://app?vid=3800314d-6410-4feb-bd76-28cb0729c673","ios":"levelo://app?vid=3800314d-6410-4feb-bd76-28cb0729c673"},"vehicle_type_id":"4","last_reported":1762362623,"current_range_meters":6400,"station_id":"","pricing_plan_id":"cebpf4jnsgd1na2vs0mg"},{"bike_id":"21e31500-cef8-4940-b864-b7c3ab553ad0","system_id":"levelo_inurba_marseille","lat":43.30645,"lon":5.40074,"is_reserved":false,"is_disabled":false,"rental_uris":{"android":"levelo://app?vid=21e31500-cef8-4940-b864-b7c3ab553ad0","ios":"levelo://app?vid=21e31500-cef8-4940-b864-b7c3ab553ad0"},"vehicle_type_id":"4","last_reported":1762362623,"current_range_meters":6400,"station_id":"ce4bh112rcd13ifvqda0","pricing_plan_id":"cebpf4jnsgd1na2vs0mg"},{"bike_id":"b587dd80-81ba-4a69-a033-75898a80f7eb","system_id":"levelo_inurba_marseille","lat":43.307213,"lon":5.424424,"is_reserved":false,"is_disabled":false,"rental_uris":{"android":"levelo://app?vid=b587dd80-81ba-4a69-a033-75898a80f7eb","ios":"levelo://app?vid=b587dd80-81ba-4a69-a033-75898a80f7eb"},"vehicle_type_id":"4","last_reported":1762362623,"current_range_meters":6400,"station_id":"st_cvj6ca6bvosntc0bfgr0","pricing_plan_id":"cebpf4jnsgd1na2vs0mg"},{"bike_id":"5cb03ba3-4e76-4da6-a687-4d70c703b781","system_id":"levelo_inurba_marseille","lat":43.28935,"lon":5.36637,"is_reserved":false,"is_disabled":false,"rental_uris":{"android":"levelo://app?vid=5cb03ba3-4e76-4da6-a687-4d70c703b781","ios":"levelo://app?vid=5cb03ba3-4e76-4da6-a687-4d70c703b781"},"vehicle_type_id":"4","last_reported":1762362623,"current_range_meters":6400,"station_id":"ce4bhap2rcd13ifvqek0","pricing_plan_id":"cebpf4jnsgd1na2vs0mg"},{"bike_id":"ef22b4bc-865a-4b43-87fa-b43aa844e66a","system_id":"levelo_inurba_marseille","lat":43.260304,"lon":5.375809,"is_reserved":false,"is_disabled":false,"rental_uris":{"android":"levelo://app?vid=ef22b4bc-865a-4b43-87fa-b43aa844e66a","ios":"levelo://app?vid=ef22b4bc-865a-4b43-87fa-b43aa844e66a"},"vehicle_type_id":"4","last_reported":1762362623,"current_range_meters":6400,"station_id":"ce4bhgh2rcd13ifvqfa0","pricing_plan_id":"cebpf4jnsgd1na2vs0mg"},{"bike_id":"654dc482-8458-4686-a09b-a5e21a822232","system_id":"levelo_inurba_marseille","lat":43.23176,"lon":5.35572,"is_reserved":false,"is_disabled":true,"rental_uris":{"android":"levelo://app?vid=654dc482-8458-4686-a09b-a5e21a822232","ios":"levelo://app?vid=654dc482-8458-4686-a09b-a5e21a822232"},"vehicle_type_id":"4","last_reported":1762362623,"current_range_meters":6800,"station_id":"ce4bhu92rcd13ifvqi70","pricing_plan_id":"cebpf4jnsgd1na2vs0mg"},{"bike_id":"ca027186-72c6-4358-8d7a-70b219e6273a","system_id":"levelo_inurba_marseille","lat":43.35098,"lon":5.38099,"is_reserved":false,"is_disabled":false,"rental_uris":{"android":"levelo://app?vid=ca027186-72c6-4358-8d7a-70b219e6273a","ios":"levelo://app?vid=ca027186-72c6-4358-8d7a-70b219e6273a"},"vehicle_type_id":"4","last_reported":1762362623,"current_range_meters":7200,"station_id":"","pricing_plan_id":"cebpf4jnsgd1na2vs0mg"},{"bike_id":"33331b4d-79e0-4edc-b954-504cb208df48","system_id":"levelo_inurba_marseille","lat":43.29262,"lon":5.38442,"is_reserved":false,"is_disabled":false,"rental_uris":{"android":"levelo://app?vid=33331b4d-79e0-4edc-b954-504cb208df48","ios":"levelo://app?vid=33331b4d-79e0-4edc-b954-504cb208df48"},"vehicle_type_id":"4","last_reported":1762362623,"current_range_meters":7200,"station_id":"ce4bh692rcd13ifvqea0","pricing_plan_id":"cebpf4jnsgd1na2vs0mg"},{"bike_id":"7c572724-d246-444c-a818-2550f93cae1a","system_id":"levelo_inurba_marseille","lat":43.28823,"lon":5.38619,"is_reserved":false,"is_disabled":false,"rental_uris":{"android":"levelo://app?vid=7c572724-d246-444c-a818-2550f93cae1a","ios":"levelo://app?vid=7c572724-d246-444c-a818-2550f93cae1a"},"vehicle_type_id":"4","last_reported":1762362623,"current_range_meters":7200,"station_id":"","pricing_plan_id":"cebpf4jnsgd1na2vs0mg"},{"bike_id":"8625fd71-52f7-4d25-987b-6e76164035a5","system_id":"levelo_inurba_marseille","lat":43.30785,"lon":5.4055,"is_reserved":false,"is_disabled":false,"rental_uris":{"android":"levelo://app?vid=8625fd71-52f7-4d25-987b-6e76164035a5","ios":"levelo://app?vid=8625fd71-52f7-4d25-987b-6e76164035a5"},"vehicle_type_id":"4","last_reported":1762362623,"current_range_meters":7200,"station_id":"","pricing_plan_id":"cebpf4jnsgd1na2vs0mg"},{"bike_id":"c970610f-0355-40cc-b305-8055dd19dcac","system_id":"levelo_inurba_marseille","lat":43.27942,"lon":5.41042,"is_reserved":false,"is_disabled":false,"rental_uris":{"android":"levelo://app?vid=c970610f-0355-40cc-b305-8055dd19dcac","ios":"levelo://app?vid=c970610f-0355-40cc-b305-8055dd19dcac"},"vehicle_type_id":"4","last_reported":1762362623,"current_range_meters":7200,"station_id":"ce4bhnp2rcd13ifvqh0g","pricing_plan_id":"cebpf4jnsgd1na2vs0mg"},{"bike_id":"4135612f-83b8-4be1-95c1-f68edaafa8fd","system_id":"levelo_inurba_marseille","lat":43.28379,"lon":5.37544,"is_reserved":false,"is_disabled":false,"rental_uris":{"android":"levelo://app?vid=4135612f-83b8-4be1-95c1-f68edaafa8fd","ios":"levelo://app?vid=4135612f-83b8-4be1-95c1-f68edaafa8fd"},"vehicle_type_id":"4","last_reported":1762362623,"current_range_meters":7200,"station_id":"ce4bh412rcd13ifvqds0","pricing_plan_id":"cebpf4jnsgd1na2vs0mg"},{"bike_id":"43241b2a-4cb5-4e4c-8865-8a8693625499","system_id":"levelo_inurba_marseille","lat":43.3126,"lon":5.37838,"is_reserved":false,"is_disabled":false,"rental_uris":{"android":"levelo://app?vid=43241b2a-4cb5-4e4c-8865-8a8693625499","ios":"levelo://app?vid=43241b2a-4cb5-4e4c-8865-8a8693625499"},"vehicle_type_id":"4","last_reported":1762362623,"current_range_meters":7200,"station_id":"","pricing_plan_id":"cebpf4jnsgd1na2vs0mg"},{"bike_id":"a0009e93-050e-4547-9633-fb32e8287101","system_id":"levelo_inurba_marseille","lat":43.2706,"lon":5.42269,"is_reserved":false,"is_disabled":false,"rental_uris":{"android":"levelo://app?vid=a0009e93-050e-4547-9633-fb32e8287101","ios":"levelo://app?vid=a0009e93-050e-4547-9633-fb32e8287101"},"vehicle_type_id":"4","last_reported":1762362623,"current_range_meters":7200,"station_id":"ce4bhk92rcd13ifvqgb0","pricing_plan_id":"cebpf4jnsgd1na2vs0mg"},{"bike_id":"b490fb3d-66f2-4a37-a83b-48bee37514a0","system_id":"levelo_inurba_marseille","lat":43.25816,"lon":5.39443,"is_reserved":false,"is_disabled":false,"rental_uris":{"android":"levelo://app?vid=b490fb3d-66f2-4a37-a83b-48bee37514a0","ios":"levelo://app?vid=b490fb3d-66f2-4a37-a83b-48bee37514a0"},"vehicle_type_id":"4","last_reported":1762362623,"current_range_meters":8000,"station_id":"ce4bhip2rcd13ifvqft0","pricing_plan_id":"cebpf4jnsgd1na2vs0mg"},{"bike_id":"5e6b5e6b-9f8a-43ab-9eb8-b69e41a6c1e6","system_id":"levelo_inurba_marseille","lat":43.225298,"lon":5.348365,"is_reserved":false,"is_disabled":false,"rental_uris":{"android":"levelo://app?vid=5e6b5e6b-9f8a-43ab-9eb8-b69e41a6c1e6","ios":"levelo://app?vid=5e6b5e6b-9f8a-43ab-9eb8-b69e41a6c1e6"},"vehicle_type_id":"4","last_reported":1762362623,"current_range_meters":8000,"station_id":"","pricing_plan_id":"cebpf4jnsgd1na2vs0mg"},{"bike_id":"f7a192fe-ecfa-451f-8d3a-3c4f39209fc4","system_id":"levelo_inurba_marseille","lat":43.32368,"lon":5.38886,"is_reserved":false,"is_disabled":false,"rental_uris":{"android":"levelo://app?vid=f7a192fe-ecfa-451f-8d3a-3c4f39209fc4","ios":"levelo://app?vid=f7a192fe-ecfa-451f-8d3a-3c4f39209fc4"},"vehicle_type_id":"4","last_reported":1762362623,"current_range_meters":8400,"station_id":"ce4bhqp2rcd13ifvqhog","pricing_plan_id":"cebpf4jnsgd1na2vs0mg"},{"bike_id":"2d0fd1d6-084d-495b-a808-b742cafb9c32","system_id":"levelo_inurba_marseille","lat":43.30799,"lon":5.38152,"is_reserved":false,"is_disabled":false,"rental_uris":{"android":"levelo://app?vid=2d0fd1d6-084d-495b-a808-b742cafb9c32","ios":"levelo://app?vid=2d0fd1d6-084d-495b-a808-b742cafb9c32"},"vehicle_type_id":"4","last_reported":1762362623,"current_range_meters":8400,"station_id":"ce4bgt12rcd13ifvqce0","pricing_plan_id":"cebpf4jnsgd1na2vs0mg"},{"bike_id":"0f4cc4f6-a5bd-4735-a08d-30142ac7835e","system_id":"levelo_inurba_marseille","lat":43.31885,"lon":5.40741,"is_reserved":false,"is_disabled":false,"rental_uris":{"android":"levelo://app?vid=0f4cc4f6-a5bd-4735-a08d-30142ac7835e","ios":"levelo://app?vid=0f4cc4f6-a5bd-4735-a08d-30142ac7835e"},"vehicle_type_id":"4","last_reported":1762362623,"current_range_meters":8400,"station_id":"ce4bhq12rcd13ifvqhig","pricing_plan_id":"cebpf4jnsgd1na2vs0mg"},{"bike_id":"47de9693-398c-4078-bb2e-bf0d38c76c57","system_id":"levelo_inurba_marseille","lat":43.28997,"lon":5.39038,"is_reserved":false,"is_disabled":false,"rental_uris":{"android":"levelo://app?vid=47de9693-398c-4078-bb2e-bf0d38c76c57","ios":"levelo://app?vid=47de9693-398c-4078-bb2e-bf0d38c76c57"},"vehicle_type_id":"4","last_reported":1762362623,"current_range_meters":8400,"station_id":"","pricing_plan_id":"cebpf4jnsgd1na2vs0mg"},{"bike_id":"c7173e1f-51a6-40ff-979f-aca44a8cad2b","system_id":"levelo_inurba_marseille","lat":43.266815,"lon":5.38284,"is_reserved":false,"is_disabled":false,"rental_uris":{"android":"levelo://app?vid=c7173e1f-51a6-40ff-979f-aca44a8cad2b","ios":"levelo://app?vid=c7173e1f-51a6-40ff-979f-aca44a8cad2b"},"vehicle_type_id":"4","last_reported":1762362623,"current_range_meters":8400,"station_id":"ce4bhbh2rcd13ifvqeqg","pricing_plan_id":"cebpf4jnsgd1na2vs0mg"},{"bike_id":"eed78698-4705-4f36-b1cc-c3cc31682f5d","system_id":"levelo_inurba_marseille","lat":43.3341,"lon":5.41952,"is_reserved":false,"is_disabled":false,"rental_uris":{"android":"levelo://app?vid=eed78698-4705-4f36-b1cc-c3cc31682f5d","ios":"levelo://app?vid=eed78698-4705-4f36-b1cc-c3cc31682f5d"},"vehicle_type_id":"4","last_reported":1762362623,"current_range_meters":8400,"station_id":"","pricing_plan_id":"cebpf4jnsgd1na2vs0mg"},{"bike_id":"57a51f2b-830e-4cb8-bfb7-7080bcea0f3a","system_id":"levelo_inurba_marseille","lat":43.2808,"lon":5.39664,"is_reserved":false,"is_disabled":false,"rental_uris":{"android":"levelo://app?vid=57a51f2b-830e-4cb8-bfb7-7080bcea0f3a","ios":"levelo://app?vid=57a51f2b-830e-4cb8-bfb7-7080bcea0f3a"},"vehicle_type_id":"4","last_reported":1762362623,"current_range_meters":8400,"station_id":"ce4bho12rcd13ifvqh2g","pricing_plan_id":"cebpf4jnsgd1na2vs0mg"},{"bike_id":"ad483091-7411-4e16-8cc4-09042e8161f5","system_id":"levelo_inurba_marseille","lat":43.273468,"lon":5.385179,"is_reserved":false,"is_disabled":true,"rental_uris":{"android":"levelo://app?vid=ad483091-7411-4e16-8cc4-09042e8161f5","ios":"levelo://app?vid=ad483091-7411-4e16-8cc4-09042e8161f5"},"vehicle_type_id":"4","last_reported":1762362623,"current_range_meters":8400,"station_id":"","pricing_plan_id":"cebpf4jnsgd1na2vs0mg"},{"bike_id":"8eff9bd3-b319-4195-9e42-3cac41501023","system_id":"levelo_inurba_marseille","lat":43.27818,"lon":5.40716,"is_reserved":false,"is_disabled":false,"rental_uris":{"android":"levelo://app?vid=8eff9bd3-b319-4195-9e42-3cac41501023","ios":"levelo://app?vid=8eff9bd3-b319-4195-9e42-3cac41501023"},"vehicle_type_id":"4","last_reported":1762362623,"current_range_meters":8400,"station_id":"ce4bhnh2rcd13ifvqgtg","pricing_plan_id":"cebpf4jnsgd1na2vs0mg"},{"bike_id":"d3f65d51-37bb-44fa-aaaf-c267842a2765","system_id":"levelo_inurba_marseille","lat":43.229354,"lon":5.353717,"is_reserved":false,"is_disabled":false,"rental_uris":{"android":"levelo://app?vid=d3f65d51-37bb-44fa-aaaf-c267842a2765","ios":"levelo://app?vid=d3f65d51-37bb-44fa-aaaf-c267842a2765"},"vehicle_type_id":"4","last_reported":1762362623,"current_range_meters":8400,"station_id":"cpo3532slgdg3j2ikp40","pricing_plan_id":"cebpf4jnsgd1na2vs0mg"},{"bike_id":"cd9c6c8f-813a-4b2c-b0c7-7a3265cb2fa0","system_id":"levelo_inurba_marseille","lat":43.24237,"lon":5.3932,"is_reserved":false,"is_disabled":false,"rental_uris":{"android":"levelo://app?vid=cd9c6c8f-813a-4b2c-b0c7-7a3265cb2fa0","ios":"levelo://app?vid=cd9c6c8f-813a-4b2c-b0c7-7a3265cb2fa0"},"vehicle_type_id":"4","last_reported":1762362623,"current_range_meters":8800,"station_id":"","pricing_plan_id":"cebpf4jnsgd1na2vs0mg"},{"bike_id":"8238b597-6943-47b1-846e-b6ceb3bf4468","system_id":"levelo_inurba_marseille","lat":43.28448,"lon":5.37623,"is_reserved":false,"is_disabled":false,"rental_uris":{"android":"levelo://app?vid=8238b597-6943-47b1-846e-b6ceb3bf4468","ios":"levelo://app?vid=8238b597-6943-47b1-846e-b6ceb3bf4468"},"vehicle_type_id":"4","last_reported":1762362623,"current_range_meters":8800,"station_id":"","pricing_plan_id":"cebpf4jnsgd1na2vs0mg"},{"bike_id":"0b965332-9b2a-4f07-9161-11fd1601d1bd","system_id":"levelo_inurba_marseille","lat":43.247963,"lon":5.37459,"is_reserved":false,"is_disabled":false,"rental_uris":{"android":"levelo://app?vid=0b965332-9b2a-4f07-9161-11fd1601d1bd","ios":"levelo://app?vid=0b965332-9b2a-4f07-9161-11fd1601d1bd"},"vehicle_type_id":"4","last_reported":1762362623,"current_range_meters":9200,"station_id":"ce4bhgh2rcd13ifvqfb0","pricing_plan_id":"cebpf4jnsgd1na2vs0mg"},{"bike_id":"b7921d58-3618-4c30-811d-741c467e30da","system_id":"levelo_inurba_marseille","lat":43.24806,"lon":5.37455,"is_reserved":false,"is_disabled":false,"rental_uris":{"android":"levelo://app?vid=b7921d58-3618-4c30-811d-741c467e30da","ios":"levelo://app?vid=b7921d58-3618-4c30-811d-741c467e30da"},"vehicle_type_id":"4","last_reported":1762362623,"current_range_meters":9200,"station_id":"ce4bhgh2rcd13ifvqfb0","pricing_plan_id":"cebpf4jnsgd1na2vs0mg"},{"bike_id":"e205eb48-1335-484a-ade8-98b27ed9e795","system_id":"levelo_inurba_marseille","lat":43.30922,"lon":5.40145,"is_reserved":false,"is_disabled":false,"rental_uris":{"android":"levelo://app?vid=e205eb48-1335-484a-ade8-98b27ed9e795","ios":"levelo://app?vid=e205eb48-1335-484a-ade8-98b27ed9e795"},"vehicle_type_id":"4","last_reported":1762362623,"current_range_meters":9600,"station_id":"ce4bgvp2rcd13ifvqct0","pricing_plan_id":"cebpf4jnsgd1na2vs0mg"},{"bike_id":"36dadbf7-a228-4f6f-8b08-391008b68693","system_id":"levelo_inurba_marseille","lat":43.3455,"lon":5.36863,"is_reserved":false,"is_disabled":false,"rental_uris":{"android":"levelo://app?vid=36dadbf7-a228-4f6f-8b08-391008b68693","ios":"levelo://app?vid=36dadbf7-a228-4f6f-8b08-391008b68693"},"vehicle_type_id":"4","last_reported":1762362623,"current_range_meters":9600,"station_id":"","pricing_plan_id":"cebpf4jnsgd1na2vs0mg"},{"bike_id":"e3281919-a1ab-4469-8bce-1dd8db3ef7a7","system_id":"levelo_inurba_marseille","lat":43.28038,"lon":5.36949,"is_reserved":false,"is_disabled":false,"rental_uris":{"android":"levelo://app?vid=e3281919-a1ab-4469-8bce-1dd8db3ef7a7","ios":"levelo://app?vid=e3281919-a1ab-4469-8bce-1dd8db3ef7a7"},"vehicle_type_id":"4","last_reported":1762362623,"current_range_meters":9600,"station_id":"ce4bha12rcd13ifvqef0","pricing_plan_id":"cebpf4jnsgd1na2vs0mg"},{"bike_id":"ea4f4b84-78b0-4180-a7f8-ecb8c6182713","system_id":"levelo_inurba_marseille","lat":43.2953,"lon":5.36104,"is_reserved":false,"is_disabled":true,"rental_uris":{"android":"levelo://app?vid=ea4f4b84-78b0-4180-a7f8-ecb8c6182713","ios":"levelo://app?vid=ea4f4b84-78b0-4180-a7f8-ecb8c6182713"},"vehicle_type_id":"4","last_reported":1762362623,"current_range_meters":9600,"station_id":"","pricing_plan_id":"cebpf4jnsgd1na2vs0mg"},{"bike_id":"75565237-77e9-42d0-880f-71f26074e32e","system_id":"levelo_inurba_marseille","lat":43.283277,"lon":5.386432,"is_reserved":false,"is_disabled":false,"rental_uris":{"android":"levelo://app?vid=75565237-77e9-42d0-880f-71f26074e32e","ios":"levelo://app?vid=75565237-77e9-42d0-880f-71f26074e32e"},"vehicle_type_id":"4","last_reported":1762362623,"current_range_meters":10000,"station_id":"ce4bh492rcd13ifvqdvg","pricing_plan_id":"cebpf4jnsgd1na2vs0mg"},{"bike_id":"1374a27a-0c24-44de-be65-f93b6bf70daf","system_id":"levelo_inurba_marseille","lat":43.28417,"lon":5.37509,"is_reserved":false,"is_disabled":false,"rental_uris":{"android":"levelo://app?vid=1374a27a-0c24-44de-be65-f93b6bf70daf","ios":"levelo://app?vid=1374a27a-0c24-44de-be65-f93b6bf70daf"},"vehicle_type_id":"4","last_reported":1762362623,"current_range_meters":10000,"station_id":"ce4bh412rcd13ifvqds0","pricing_plan_id":"cebpf4jnsgd1na2vs0mg"},{"bike_id":"7cbb650a-2cb6-4136-b918-e2b1bc717877","system_id":"levelo_inurba_marseille","lat":43.3094,"lon":5.40146,"is_reserved":false,"is_disabled":false,"rental_uris":{"android":"levelo://app?vid=7cbb650a-2cb6-4136-b918-e2b1bc717877","ios":"levelo://app?vid=7cbb650a-2cb6-4136-b918-e2b1bc717877"},"vehicle_type_id":"4","last_reported":1762362623,"current_range_meters":10000,"station_id":"ce4bgvp2rcd13ifvqct0","pricing_plan_id":"cebpf4jnsgd1na2vs0mg"},{"bike_id":"b1393d54-d42e-4ed1-a672-cbb503620a84","system_id":"levelo_inurba_marseille","lat":43.29026,"lon":5.38661,"is_reserved":false,"is_disabled":false,"rental_uris":{"android":"levelo://app?vid=b1393d54-d42e-4ed1-a672-cbb503620a84","ios":"levelo://app?vid=b1393d54-d42e-4ed1-a672-cbb503620a84"},"vehicle_type_id":"4","last_reported":1762362623,"current_range_meters":10000,"station_id":"ce4bh4p2rcd13ifvqe0g","pricing_plan_id":"cebpf4jnsgd1na2vs0mg"},{"bike_id":"1c93721d-091d-460f-9fd7-13245ff1c80e","system_id":"levelo_inurba_marseille","lat":43.30943,"lon":5.40144,"is_reserved":false,"is_disabled":false,"rental_uris":{"android":"levelo://app?vid=1c93721d-091d-460f-9fd7-13245ff1c80e","ios":"levelo://app?vid=1c93721d-091d-460f-9fd7-13245ff1c80e"},"vehicle_type_id":"4","last_reported":1762362623,"current_range_meters":10000,"station_id":"ce4bgvp2rcd13ifvqct0","pricing_plan_id":"cebpf4jnsgd1na2vs0mg"},{"bike_id":"1fd34141-96d3-4ce3-92af-6e4274df797c","system_id":"levelo_inurba_marseille","lat":43.245077,"lon":5.395727,"is_reserved":false,"is_disabled":false,"rental_uris":{"android":"levelo://app?vid=1fd34141-96d3-4ce3-92af-6e4274df797c","ios":"levelo://app?vid=1fd34141-96d3-4ce3-92af-6e4274df797c"},"vehicle_type_id":"4","last_reported":1762362623,"current_range_meters":10000,"station_id":"ce4bhlp2rcd13ifvqgjg","pricing_plan_id":"cebpf4jnsgd1na2vs0mg"},{"bike_id":"02c565c9-e1be-4475-b1a9-b37751cdb830","system_id":"levelo_inurba_marseille","lat":43.34361,"lon":5.34893,"is_reserved":false,"is_disabled":false,"rental_uris":{"android":"levelo://app?vid=02c565c9-e1be-4475-b1a9-b37751cdb830","ios":"levelo://app?vid=02c565c9-e1be-4475-b1a9-b37751cdb830"},"vehicle_type_id":"4","last_reported":1762362623,"current_range_meters":10800,"station_id":"","pricing_plan_id":"cebpf4jnsgd1na2vs0mg"},{"bike_id":"dceb4beb-6bb5-4225-ae7e-d3c4b9815bbe","system_id":"levelo_inurba_marseille","lat":43.28469,"lon":5.48395,"is_reserved":false,"is_disabled":false,"rental_uris":{"android":"levelo://app?vid=dceb4beb-6bb5-4225-ae7e-d3c4b9815bbe","ios":"levelo://app?vid=dceb4beb-6bb5-4225-ae7e-d3c4b9815bbe"},"vehicle_type_id":"4","last_reported":1762362623,"current_range_meters":10800,"station_id":"st_d3svhcjqgbts73a3dn0g","pricing_plan_id":"cebpf4jnsgd1na2vs0mg"},{"bike_id":"7479cfee-6f68-4a59-afc8-ceca6b83dba4","system_id":"levelo_inurba_marseille","lat":43.255787,"lon":5.382288,"is_reserved":false,"is_disabled":false,"rental_uris":{"android":"levelo://app?vid=7479cfee-6f68-4a59-afc8-ceca6b83dba4","ios":"levelo://app?vid=7479cfee-6f68-4a59-afc8-ceca6b83dba4"},"vehicle_type_id":"4","last_reported":1762362623,"current_range_meters":10800,"station_id":"ce4bhih2rcd13ifvqfs0","pricing_plan_id":"cebpf4jnsgd1na2vs0mg"},{"bike_id":"7c8c77e6-611f-4f5e-8374-da326e1729a3","system_id":"levelo_inurba_marseille","lat":43.29807,"lon":5.4406,"is_reserved":false,"is_disabled":false,"rental_uris":{"android":"levelo://app?vid=7c8c77e6-611f-4f5e-8374-da326e1729a3","ios":"levelo://app?vid=7c8c77e6-611f-4f5e-8374-da326e1729a3"},"vehicle_type_id":"4","last_reported":1762362623,"current_range_meters":10800,"station_id":"st_d3jp68qikq2c7381ktn0","pricing_plan_id":"cebpf4jnsgd1na2vs0mg"},{"bike_id":"6a609769-652a-4e5a-a746-14398f7cdd87","system_id":"levelo_inurba_marseille","lat":43.28157,"lon":5.42641,"is_reserved":false,"is_disabled":false,"rental_uris":{"android":"levelo://app?vid=6a609769-652a-4e5a-a746-14398f7cdd87","ios":"levelo://app?vid=6a609769-652a-4e5a-a746-14398f7cdd87"},"vehicle_type_id":"4","last_reported":1762362623,"current_range_meters":10800,"station_id":"ce4bhnh2rcd13ifvqgug","pricing_plan_id":"cebpf4jnsgd1na2vs0mg"},{"bike_id":"e7002296-a724-4792-9c77-9aa7da662e7d","system_id":"levelo_inurba_marseille","lat":43.29752,"lon":5.36248,"is_reserved":false,"is_disabled":false,"rental_uris":{"android":"levelo://app?vid=e7002296-a724-4792-9c77-9aa7da662e7d","ios":"levelo://app?vid=e7002296-a724-4792-9c77-9aa7da662e7d"},"vehicle_type_id":"4","last_reported":1762362623,"current_range_meters":10800,"station_id":"","pricing_plan_id":"cebpf4jnsgd1na2vs0mg"},{"bike_id":"18464361-b107-4675-a5e1-336fd8d315cb","system_id":"levelo_inurba_marseille","lat":43.256853,"lon":5.410682,"is_reserved":false,"is_disabled":false,"rental_uris":{"android":"levelo://app?vid=18464361-b107-4675-a5e1-336fd8d315cb","ios":"levelo://app?vid=18464361-b107-4675-a5e1-336fd8d315cb"},"vehicle_type_id":"4","last_reported":1762362623,"current_range_meters":10800,"station_id":"ce4bhkp2rcd13ifvqgd0","pricing_plan_id":"cebpf4jnsgd1na2vs0mg"},{"bike_id":"95cb7fab-0b14-4c41-83fa-e62a264f16c8","system_id":"levelo_inurba_marseille","lat":43.284783,"lon":5.35905,"is_reserved":false,"is_disabled":false,"rental_uris":{"android":"levelo://app?vid=95cb7fab-0b14-4c41-83fa-e62a264f16c8","ios":"levelo://app?vid=95cb7fab-0b14-4c41-83fa-e62a264f16c8"},"vehicle_type_id":"4","last_reported":1762362623,"current_range_meters":10800,"station_id":"ce4bhah2rcd13ifvqei0","pricing_plan_id":"cebpf4jnsgd1na2vs0mg"},{"bike_id":"4b24dbba-41a5-4ecf-ade9-ac15d69f3a39","system_id":"levelo_inurba_marseille","lat":43.30277,"lon":5.37689,"is_reserved":false,"is_disabled":false,"rental_uris":{"android":"levelo://app?vid=4b24dbba-41a5-4ecf-ade9-ac15d69f3a39","ios":"levelo://app?vid=4b24dbba-41a5-4ecf-ade9-ac15d69f3a39"},"vehicle_type_id":"4","last_reported":1762362623,"current_range_meters":11200,"station_id":"ce4bguh2rcd13ifvqcj0","pricing_plan_id":"cebpf4jnsgd1na2vs0mg"},{"bike_id":"75a0e7d0-a4d6-4f7c-adce-b5f633c7cb4f","system_id":"levelo_inurba_marseille","lat":43.306,"lon":5.3722,"is_reserved":false,"is_disabled":true,"rental_uris":{"android":"levelo://app?vid=75a0e7d0-a4d6-4f7c-adce-b5f633c7cb4f","ios":"levelo://app?vid=75a0e7d0-a4d6-4f7c-adce-b5f633c7cb4f"},"vehicle_type_id":"4","last_reported":1762362623,"current_range_meters":11200,"station_id":"ce4bgqh2rcd13ifvqc4g","pricing_plan_id":"cebpf4jnsgd1na2vs0mg"},{"bike_id":"765b9661-2b24-4c0f-a9fb-732d7409b10c","system_id":"levelo_inurba_marseille","lat":43.21615,"lon":5.34427,"is_reserved":false,"is_disabled":false,"rental_uris":{"android":"levelo://app?vid=765b9661-2b24-4c0f-a9fb-732d7409b10c","ios":"levelo://app?vid=765b9661-2b24-4c0f-a9fb-732d7409b10c"},"vehicle_type_id":"4","last_reported":1762362623,"current_range_meters":11200,"station_id":"","pricing_plan_id":"cebpf4jnsgd1na2vs0mg"},{"bike_id":"d4dd6511-4dd4-439e-b285-f9df54431fe8","system_id":"levelo_inurba_marseille","lat":43.28537,"lon":5.44096,"is_reserved":false,"is_disabled":false,"rental_uris":{"android":"levelo://app?vid=d4dd6511-4dd4-439e-b285-f9df54431fe8","ios":"levelo://app?vid=d4dd6511-4dd4-439e-b285-f9df54431fe8"},"vehicle_type_id":"4","last_reported":1762362623,"current_range_meters":11200,"station_id":"st_d3j3df2ikq2c7380ej80","pricing_plan_id":"cebpf4jnsgd1na2vs0mg"},{"bike_id":"8cb7ebfb-7d1b-45ef-a899-1b07622a438a","system_id":"levelo_inurba_marseille","lat":43.29627,"lon":5.406,"is_reserved":false,"is_disabled":false,"rental_uris":{"android":"levelo://app?vid=8cb7ebfb-7d1b-45ef-a899-1b07622a438a","ios":"levelo://app?vid=8cb7ebfb-7d1b-45ef-a899-1b07622a438a"},"vehicle_type_id":"4","last_reported":1762362623,"current_range_meters":11600,"station_id":"ce4bh0h2rcd13ifvqd60","pricing_plan_id":"cebpf4jnsgd1na2vs0mg"},{"bike_id":"a7af7e56-94c0-4f1f-a5c7-3224459f635b","system_id":"levelo_inurba_marseille","lat":43.291994,"lon":5.393232,"is_reserved":false,"is_disabled":false,"rental_uris":{"android":"levelo://app?vid=a7af7e56-94c0-4f1f-a5c7-3224459f635b","ios":"levelo://app?vid=a7af7e56-94c0-4f1f-a5c7-3224459f635b"},"vehicle_type_id":"4","last_reported":1762362623,"current_range_meters":11600,"station_id":"ce4bh192rcd13ifvqdd0","pricing_plan_id":"cebpf4jnsgd1na2vs0mg"},{"bike_id":"13c3ccaa-99d2-4685-a1fa-a15f41ed3f72","system_id":"levelo_inurba_marseille","lat":43.305554,"lon":5.365407,"is_reserved":false,"is_disabled":false,"rental_uris":{"android":"levelo://app?vid=13c3ccaa-99d2-4685-a1fa-a15f41ed3f72","ios":"levelo://app?vid=13c3ccaa-99d2-4685-a1fa-a15f41ed3f72"},"vehicle_type_id":"4","last_reported":1762362623,"current_range_meters":11600,"station_id":"ce4bgs12rcd13ifvqcag","pricing_plan_id":"cebpf4jnsgd1na2vs0mg"},{"bike_id":"e2104b6a-7e12-4a20-ae1b-cf4b446d5e26","system_id":"levelo_inurba_marseille","lat":43.28473,"lon":5.48399,"is_reserved":false,"is_disabled":false,"rental_uris":{"android":"levelo://app?vid=e2104b6a-7e12-4a20-ae1b-cf4b446d5e26","ios":"levelo://app?vid=e2104b6a-7e12-4a20-ae1b-cf4b446d5e26"},"vehicle_type_id":"4","last_reported":1762362623,"current_range_meters":11600,"station_id":"st_d3svhcjqgbts73a3dn0g","pricing_plan_id":"cebpf4jnsgd1na2vs0mg"},{"bike_id":"f6ab03d9-5473-45de-b358-4505cb653a53","system_id":"levelo_inurba_marseille","lat":43.30785,"lon":5.37635,"is_reserved":false,"is_disabled":false,"rental_uris":{"android":"levelo://app?vid=f6ab03d9-5473-45de-b358-4505cb653a53","ios":"levelo://app?vid=f6ab03d9-5473-45de-b358-4505cb653a53"},"vehicle_type_id":"4","last_reported":1762362623,"current_range_meters":11600,"station_id":"ce4bgv92rcd13ifvqcq0","pricing_plan_id":"cebpf4jnsgd1na2vs0mg"},{"bike_id":"34a2db30-dc67-44ab-9774-476421f72969","system_id":"levelo_inurba_marseille","lat":43.29438,"lon":5.39753,"is_reserved":false,"is_disabled":false,"rental_uris":{"android":"levelo://app?vid=34a2db30-dc67-44ab-9774-476421f72969","ios":"levelo://app?vid=34a2db30-dc67-44ab-9774-476421f72969"},"vehicle_type_id":"4","last_reported":1762362623,"current_range_meters":11600,"station_id":"ce4bh3h2rcd13ifvqdo0","pricing_plan_id":"cebpf4jnsgd1na2vs0mg"},{"bike_id":"6cc6a38b-f0c2-43ca-89d8-7a55662c0ef7","system_id":"levelo_inurba_marseille","lat":43.2949,"lon":5.43303,"is_reserved":false,"is_disabled":false,"rental_uris":{"android":"levelo://app?vid=6cc6a38b-f0c2-43ca-89d8-7a55662c0ef7","ios":"levelo://app?vid=6cc6a38b-f0c2-43ca-89d8-7a55662c0ef7"},"vehicle_type_id":"4","last_reported":1762362623,"current_range_meters":11600,"station_id":"st_d3j5ugp08ojc73fj9d10","pricing_plan_id":"cebpf4jnsgd1na2vs0mg"},{"bike_id":"ac3661dd-248f-4b92-ad04-1fbf8e5c6660","system_id":"levelo_inurba_marseille","lat":43.28037,"lon":5.36939,"is_reserved":false,"is_disabled":true,"rental_uris":{"android":"levelo://app?vid=ac3661dd-248f-4b92-ad04-1fbf8e5c6660","ios":"levelo://app?vid=ac3661dd-248f-4b92-ad04-1fbf8e5c6660"},"vehicle_type_id":"4","last_reported":1762362623,"current_range_meters":11600,"station_id":"ce4bha12rcd13ifvqef0","pricing_plan_id":"cebpf4jnsgd1na2vs0mg"},{"bike_id":"29c71e4d-83c6-4cac-8b5b-00ee25c905e1","system_id":"levelo_inurba_marseille","lat":43.26931,"lon":5.40257,"is_reserved":false,"is_disabled":false,"rental_uris":{"android":"levelo://app?vid=29c71e4d-83c6-4cac-8b5b-00ee25c905e1","ios":"levelo://app?vid=29c71e4d-83c6-4cac-8b5b-00ee25c905e1"},"vehicle_type_id":"4","last_reported":1762362623,"current_range_meters":12000,"station_id":"cjm6bp8fraef2m0cb0m0","pricing_plan_id":"cebpf4jnsgd1na2vs0mg"},{"bike_id":"e458a04e-8648-405c-ad83-b53d61f3e64a","system_id":"levelo_inurba_marseille","lat":43.22935,"lon":5.35377,"is_reserved":false,"is_disabled":false,"rental_uris":{"android":"levelo://app?vid=e458a04e-8648-405c-ad83-b53d61f3e64a","ios":"levelo://app?vid=e458a04e-8648-405c-ad83-b53d61f3e64a"},"vehicle_type_id":"4","last_reported":1762362623,"current_range_meters":12000,"station_id":"cpo3532slgdg3j2ikp40","pricing_plan_id":"cebpf4jnsgd1na2vs0mg"},{"bike_id":"8f5c5e28-dca5-4cf0-8947-a5cfbda88464","system_id":"levelo_inurba_marseille","lat":43.23187,"lon":5.39983,"is_reserved":false,"is_disabled":false,"rental_uris":{"android":"levelo://app?vid=8f5c5e28-dca5-4cf0-8947-a5cfbda88464","ios":"levelo://app?vid=8f5c5e28-dca5-4cf0-8947-a5cfbda88464"},"vehicle_type_id":"4","last_reported":1762362623,"current_range_meters":12000,"station_id":"ce4bhn12rcd13ifvqgqg","pricing_plan_id":"cebpf4jnsgd1na2vs0mg"},{"bike_id":"359c0f3a-4e42-42b5-8ca9-4a59256db590","system_id":"levelo_inurba_marseille","lat":43.29263,"lon":5.38447,"is_reserved":false,"is_disabled":false,"rental_uris":{"android":"levelo://app?vid=359c0f3a-4e42-42b5-8ca9-4a59256db590","ios":"levelo://app?vid=359c0f3a-4e42-42b5-8ca9-4a59256db590"},"vehicle_type_id":"4","last_reported":1762362623,"current_range_meters":12400,"station_id":"ce4bh692rcd13ifvqea0","pricing_plan_id":"cebpf4jnsgd1na2vs0mg"},{"bike_id":"dae30738-204c-4787-a9b5-e056fa94e0c9","system_id":"levelo_inurba_marseille","lat":43.22558,"lon":5.41634,"is_reserved":false,"is_disabled":false,"rental_uris":{"android":"levelo://app?vid=dae30738-204c-4787-a9b5-e056fa94e0c9","ios":"levelo://app?vid=dae30738-204c-4787-a9b5-e056fa94e0c9"},"vehicle_type_id":"4","last_reported":1762362623,"current_range_meters":12400,"station_id":"st_d2o4gvlbi1j2169b742g","pricing_plan_id":"cebpf4jnsgd1na2vs0mg"},{"bike_id":"ab9b2bcc-ea75-449d-adbb-4add292d38c4","system_id":"levelo_inurba_marseille","lat":43.34072,"lon":5.38132,"is_reserved":false,"is_disabled":false,"rental_uris":{"android":"levelo://app?vid=ab9b2bcc-ea75-449d-adbb-4add292d38c4","ios":"levelo://app?vid=ab9b2bcc-ea75-449d-adbb-4add292d38c4"},"vehicle_type_id":"4","last_reported":1762362623,"current_range_meters":12400,"station_id":"","pricing_plan_id":"cebpf4jnsgd1na2vs0mg"},{"bike_id":"8e5169b2-733c-4c1b-8f69-510edca39687","system_id":"levelo_inurba_marseille","lat":43.23179,"lon":5.39986,"is_reserved":false,"is_disabled":false,"rental_uris":{"android":"levelo://app?vid=8e5169b2-733c-4c1b-8f69-510edca39687","ios":"levelo://app?vid=8e5169b2-733c-4c1b-8f69-510edca39687"},"vehicle_type_id":"4","last_reported":1762362623,"current_range_meters":12800,"station_id":"ce4bhn12rcd13ifvqgqg","pricing_plan_id":"cebpf4jnsgd1na2vs0mg"},{"bike_id":"cdbcb067-9e2d-4658-b4a0-239fbba75370","system_id":"levelo_inurba_marseille","lat":43.28441,"lon":5.39186,"is_reserved":false,"is_disabled":false,"rental_uris":{"android":"levelo://app?vid=cdbcb067-9e2d-4658-b4a0-239fbba75370","ios":"levelo://app?vid=cdbcb067-9e2d-4658-b4a0-239fbba75370"},"vehicle_type_id":"4","last_reported":1762362623,"current_range_meters":12800,"station_id":"ce4bhoh2rcd13ifvqh5g","pricing_plan_id":"cebpf4jnsgd1na2vs0mg"},{"bike_id":"571bd3a6-912b-44a3-9841-50c558a61481","system_id":"levelo_inurba_marseille","lat":43.281202,"lon":5.40562,"is_reserved":false,"is_disabled":false,"rental_uris":{"android":"levelo://app?vid=571bd3a6-912b-44a3-9841-50c558a61481","ios":"levelo://app?vid=571bd3a6-912b-44a3-9841-50c558a61481"},"vehicle_type_id":"4","last_reported":1762362623,"current_range_meters":12800,"station_id":"","pricing_plan_id":"cebpf4jnsgd1na2vs0mg"},{"bike_id":"8390cc25-302e-4848-9eeb-54ee31dd6fc5","system_id":"levelo_inurba_marseille","lat":43.28417,"lon":5.37503,"is_reserved":false,"is_disabled":false,"rental_uris":{"android":"levelo://app?vid=8390cc25-302e-4848-9eeb-54ee31dd6fc5","ios":"levelo://app?vid=8390cc25-302e-4848-9eeb-54ee31dd6fc5"},"vehicle_type_id":"4","last_reported":1762362623,"current_range_meters":13600,"station_id":"ce4bh412rcd13ifvqds0","pricing_plan_id":"cebpf4jnsgd1na2vs0mg"},{"bike_id":"a2a116fc-7b5e-4e53-86ec-7d8ff2d9e6fb","system_id":"levelo_inurba_marseille","lat":43.31323,"lon":5.3972,"is_reserved":false,"is_disabled":false,"rental_uris":{"android":"levelo://app?vid=a2a116fc-7b5e-4e53-86ec-7d8ff2d9e6fb","ios":"levelo://app?vid=a2a116fc-7b5e-4e53-86ec-7d8ff2d9e6fb"},"vehicle_type_id":"4","last_reported":1762362623,"current_range_meters":14000,"station_id":"ce4bgvp2rcd13ifvqcu0","pricing_plan_id":"cebpf4jnsgd1na2vs0mg"},{"bike_id":"bcb3c39b-ec48-48ef-9eac-eb8b71840959","system_id":"levelo_inurba_marseille","lat":43.33757,"lon":5.37464,"is_reserved":false,"is_disabled":false,"rental_uris":{"android":"levelo://app?vid=bcb3c39b-ec48-48ef-9eac-eb8b71840959","ios":"levelo://app?vid=bcb3c39b-ec48-48ef-9eac-eb8b71840959"},"vehicle_type_id":"4","last_reported":1762362623,"current_range_meters":14000,"station_id":"","pricing_plan_id":"cebpf4jnsgd1na2vs0mg"},{"bike_id":"be2308f8-1912-4465-9779-c4a85b4bc89a","system_id":"levelo_inurba_marseille","lat":43.27673,"lon":5.38878,"is_reserved":false,"is_disabled":false,"rental_uris":{"android":"levelo://app?vid=be2308f8-1912-4465-9779-c4a85b4bc89a","ios":"levelo://app?vid=be2308f8-1912-4465-9779-c4a85b4bc89a"},"vehicle_type_id":"4","last_reported":1762362623,"current_range_meters":14000,"station_id":"ce4bhi12rcd13ifvqfo0","pricing_plan_id":"cebpf4jnsgd1na2vs0mg"},{"bike_id":"761b4093-e9a9-4035-8bc4-55a8ef848908","system_id":"levelo_inurba_marseille","lat":43.27622,"lon":5.36097,"is_reserved":false,"is_disabled":false,"rental_uris":{"android":"levelo://app?vid=761b4093-e9a9-4035-8bc4-55a8ef848908","ios":"levelo://app?vid=761b4093-e9a9-4035-8bc4-55a8ef848908"},"vehicle_type_id":"4","last_reported":1762362623,"current_range_meters":14000,"station_id":"ce4bgj92rcd13ifvqbe0","pricing_plan_id":"cebpf4jnsgd1na2vs0mg"},{"bike_id":"c14b70b2-98d4-4848-a2d9-32722b8d1daf","system_id":"levelo_inurba_marseille","lat":43.32126,"lon":5.36767,"is_reserved":false,"is_disabled":false,"rental_uris":{"android":"levelo://app?vid=c14b70b2-98d4-4848-a2d9-32722b8d1daf","ios":"levelo://app?vid=c14b70b2-98d4-4848-a2d9-32722b8d1daf"},"vehicle_type_id":"4","last_reported":1762362623,"current_range_meters":14000,"station_id":"ce4bhrh2rcd13ifvqhug","pricing_plan_id":"cebpf4jnsgd1na2vs0mg"},{"bike_id":"b800240f-fc03-44e9-8367-c1b056d2a678","system_id":"levelo_inurba_marseille","lat":43.26938,"lon":5.40253,"is_reserved":false,"is_disabled":false,"rental_uris":{"android":"levelo://app?vid=b800240f-fc03-44e9-8367-c1b056d2a678","ios":"levelo://app?vid=b800240f-fc03-44e9-8367-c1b056d2a678"},"vehicle_type_id":"4","last_reported":1762362623,"current_range_meters":14000,"station_id":"cjm6bp8fraef2m0cb0m0","pricing_plan_id":"cebpf4jnsgd1na2vs0mg"},{"bike_id":"08e13897-e10e-4f6a-b644-e9c40321afc4","system_id":"levelo_inurba_marseille","lat":43.289477,"lon":5.364045,"is_reserved":false,"is_disabled":false,"rental_uris":{"android":"levelo://app?vid=08e13897-e10e-4f6a-b644-e9c40321afc4","ios":"levelo://app?vid=08e13897-e10e-4f6a-b644-e9c40321afc4"},"vehicle_type_id":"4","last_reported":1762362623,"current_range_meters":14400,"station_id":"ce4bhc92rcd13ifvqetg","pricing_plan_id":"cebpf4jnsgd1na2vs0mg"},{"bike_id":"94b06f3e-9c43-404e-899a-d1e48d6d7a76","system_id":"levelo_inurba_marseille","lat":43.287102,"lon":5.399967,"is_reserved":false,"is_disabled":false,"rental_uris":{"android":"levelo://app?vid=94b06f3e-9c43-404e-899a-d1e48d6d7a76","ios":"levelo://app?vid=94b06f3e-9c43-404e-899a-d1e48d6d7a76"},"vehicle_type_id":"4","last_reported":1762362623,"current_range_meters":14400,"station_id":"ce4bho92rcd13ifvqh3g","pricing_plan_id":"cebpf4jnsgd1na2vs0mg"},{"bike_id":"e00bf410-f027-4981-9248-14acb21e3841","system_id":"levelo_inurba_marseille","lat":43.31719,"lon":5.42394,"is_reserved":false,"is_disabled":false,"rental_uris":{"android":"levelo://app?vid=e00bf410-f027-4981-9248-14acb21e3841","ios":"levelo://app?vid=e00bf410-f027-4981-9248-14acb21e3841"},"vehicle_type_id":"4","last_reported":1762362623,"current_range_meters":14400,"station_id":"ce4bhp92rcd13ifvqhbg","pricing_plan_id":"cebpf4jnsgd1na2vs0mg"},{"bike_id":"813d84df-d28e-442a-86a4-2693a3f1117d","system_id":"levelo_inurba_marseille","lat":43.23055,"lon":5.3548,"is_reserved":false,"is_disabled":false,"rental_uris":{"android":"levelo://app?vid=813d84df-d28e-442a-86a4-2693a3f1117d","ios":"levelo://app?vid=813d84df-d28e-442a-86a4-2693a3f1117d"},"vehicle_type_id":"4","last_reported":1762362623,"current_range_meters":14400,"station_id":"cpo3342slgdg3j2ifvpg","pricing_plan_id":"cebpf4jnsgd1na2vs0mg"},{"bike_id":"cff64f4e-5f37-43ea-ae7e-1ca574864a38","system_id":"levelo_inurba_marseille","lat":43.32445,"lon":5.42784,"is_reserved":false,"is_disabled":false,"rental_uris":{"android":"levelo://app?vid=cff64f4e-5f37-43ea-ae7e-1ca574864a38","ios":"levelo://app?vid=cff64f4e-5f37-43ea-ae7e-1ca574864a38"},"vehicle_type_id":"4","last_reported":1762362623,"current_range_meters":14400,"station_id":"","pricing_plan_id":"cebpf4jnsgd1na2vs0mg"},{"bike_id":"8db420a7-407a-4cd3-9095-5a8e96625979","system_id":"levelo_inurba_marseille","lat":43.22933,"lon":5.35374,"is_reserved":false,"is_disabled":false,"rental_uris":{"android":"levelo://app?vid=8db420a7-407a-4cd3-9095-5a8e96625979","ios":"levelo://app?vid=8db420a7-407a-4cd3-9095-5a8e96625979"},"vehicle_type_id":"4","last_reported":1762362623,"current_range_meters":14400,"station_id":"cpo3532slgdg3j2ikp40","pricing_plan_id":"cebpf4jnsgd1na2vs0mg"},{"bike_id":"42d2792a-88bd-48e5-afe0-4b6400cd337a","system_id":"levelo_inurba_marseille","lat":43.3166,"lon":5.3821,"is_reserved":false,"is_disabled":false,"rental_uris":{"android":"levelo://app?vid=42d2792a-88bd-48e5-afe0-4b6400cd337a","ios":"levelo://app?vid=42d2792a-88bd-48e5-afe0-4b6400cd337a"},"vehicle_type_id":"4","last_reported":1762362623,"current_range_meters":14400,"station_id":"","pricing_plan_id":"cebpf4jnsgd1na2vs0mg"},{"bike_id":"81cd848c-c62e-41f7-aec1-f21e2fe598b4","system_id":"levelo_inurba_marseille","lat":43.285703,"lon":5.394958,"is_reserved":false,"is_disabled":false,"rental_uris":{"android":"levelo://app?vid=81cd848c-c62e-41f7-aec1-f21e2fe598b4","ios":"levelo://app?vid=81cd848c-c62e-41f7-aec1-f21e2fe598b4"},"vehicle_type_id":"4","last_reported":1762362623,"current_range_meters":14400,"station_id":"ce4bh292rcd13ifvqdg0","pricing_plan_id":"cebpf4jnsgd1na2vs0mg"},{"bike_id":"d583208a-154a-485a-9cd1-42d2b9013eed","system_id":"levelo_inurba_marseille","lat":43.28694,"lon":5.39979,"is_reserved":false,"is_disabled":false,"rental_uris":{"android":"levelo://app?vid=d583208a-154a-485a-9cd1-42d2b9013eed","ios":"levelo://app?vid=d583208a-154a-485a-9cd1-42d2b9013eed"},"vehicle_type_id":"4","last_reported":1762362623,"current_range_meters":14400,"station_id":"ce4bho92rcd13ifvqh3g","pricing_plan_id":"cebpf4jnsgd1na2vs0mg"},{"bike_id":"27aefe03-bbd2-43d3-8d72-3a7105da9194","system_id":"levelo_inurba_marseille","lat":43.31356,"lon":5.37911,"is_reserved":false,"is_disabled":false,"rental_uris":{"android":"levelo://app?vid=27aefe03-bbd2-43d3-8d72-3a7105da9194","ios":"levelo://app?vid=27aefe03-bbd2-43d3-8d72-3a7105da9194"},"vehicle_type_id":"4","last_reported":1762362623,"current_range_meters":14400,"station_id":"","pricing_plan_id":"cebpf4jnsgd1na2vs0mg"},{"bike_id":"81dcc136-dea2-46c0-98af-42dbdee92b54","system_id":"levelo_inurba_marseille","lat":43.28485,"lon":5.48426,"is_reserved":false,"is_disabled":false,"rental_uris":{"android":"levelo://app?vid=81dcc136-dea2-46c0-98af-42dbdee92b54","ios":"levelo://app?vid=81dcc136-dea2-46c0-98af-42dbdee92b54"},"vehicle_type_id":"4","last_reported":1762362623,"current_range_meters":14400,"station_id":"","pricing_plan_id":"cebpf4jnsgd1na2vs0mg"},{"bike_id":"b0b33cd0-01e9-48a4-b07f-45d02ca30ce0","system_id":"levelo_inurba_marseille","lat":43.30957,"lon":5.3904,"is_reserved":false,"is_disabled":false,"rental_uris":{"android":"levelo://app?vid=b0b33cd0-01e9-48a4-b07f-45d02ca30ce0","ios":"levelo://app?vid=b0b33cd0-01e9-48a4-b07f-45d02ca30ce0"},"vehicle_type_id":"4","last_reported":1762362623,"current_range_meters":14400,"station_id":"ce4bgup2rcd13ifvqco0","pricing_plan_id":"cebpf4jnsgd1na2vs0mg"},{"bike_id":"492b8164-baca-4ea3-9b24-2d7b2f4600b6","system_id":"levelo_inurba_marseille","lat":43.30334,"lon":5.40437,"is_reserved":false,"is_disabled":false,"rental_uris":{"android":"levelo://app?vid=492b8164-baca-4ea3-9b24-2d7b2f4600b6","ios":"levelo://app?vid=492b8164-baca-4ea3-9b24-2d7b2f4600b6"},"vehicle_type_id":"4","last_reported":1762362623,"current_range_meters":14800,"station_id":"ce4bh012rcd13ifvqd10","pricing_plan_id":"cebpf4jnsgd1na2vs0mg"},{"bike_id":"ca46fdbd-ac89-432a-9c58-507605a7d54c","system_id":"levelo_inurba_marseille","lat":43.29269,"lon":5.37629,"is_reserved":false,"is_disabled":false,"rental_uris":{"android":"levelo://app?vid=ca46fdbd-ac89-432a-9c58-507605a7d54c","ios":"levelo://app?vid=ca46fdbd-ac89-432a-9c58-507605a7d54c"},"vehicle_type_id":"4","last_reported":1762362623,"current_range_meters":14800,"station_id":"ce4bgi12rcd13ifvqb80","pricing_plan_id":"cebpf4jnsgd1na2vs0mg"},{"bike_id":"89668189-b95b-43c4-a0b4-cad5f1f90638","system_id":"levelo_inurba_marseille","lat":43.30161,"lon":5.38114,"is_reserved":false,"is_disabled":true,"rental_uris":{"android":"levelo://app?vid=89668189-b95b-43c4-a0b4-cad5f1f90638","ios":"levelo://app?vid=89668189-b95b-43c4-a0b4-cad5f1f90638"},"vehicle_type_id":"4","last_reported":1762362623,"current_range_meters":14800,"station_id":"ce4bgjp2rcd13ifvqbh0","pricing_plan_id":"cebpf4jnsgd1na2vs0mg"},{"bike_id":"05494d81-4a86-4ffa-98b4-159d396ed055","system_id":"levelo_inurba_marseille","lat":43.31326,"lon":5.39681,"is_reserved":false,"is_disabled":false,"rental_uris":{"android":"levelo://app?vid=05494d81-4a86-4ffa-98b4-159d396ed055","ios":"levelo://app?vid=05494d81-4a86-4ffa-98b4-159d396ed055"},"vehicle_type_id":"4","last_reported":1762362623,"current_range_meters":14800,"station_id":"ce4bgvp2rcd13ifvqcu0","pricing_plan_id":"cebpf4jnsgd1na2vs0mg"},{"bike_id":"e80aa6fd-7609-4410-9f9f-110052ce017b","system_id":"levelo_inurba_marseille","lat":43.30099,"lon":5.39611,"is_reserved":false,"is_disabled":false,"rental_uris":{"android":"levelo://app?vid=e80aa6fd-7609-4410-9f9f-110052ce017b","ios":"levelo://app?vid=e80aa6fd-7609-4410-9f9f-110052ce017b"},"vehicle_type_id":"4","last_reported":1762362623,"current_range_meters":14800,"station_id":"","pricing_plan_id":"cebpf4jnsgd1na2vs0mg"},{"bike_id":"8cf54d33-efb5-4166-8509-df2cb57488b1","system_id":"levelo_inurba_marseille","lat":43.33424,"lon":5.40034,"is_reserved":false,"is_disabled":false,"rental_uris":{"android":"levelo://app?vid=8cf54d33-efb5-4166-8509-df2cb57488b1","ios":"levelo://app?vid=8cf54d33-efb5-4166-8509-df2cb57488b1"},"vehicle_type_id":"4","last_reported":1762362623,"current_range_meters":14800,"station_id":"","pricing_plan_id":"cebpf4jnsgd1na2vs0mg"},{"bike_id":"e822dff4-91a6-4398-9d3d-380f5f603fcc","system_id":"levelo_inurba_marseille","lat":43.27999,"lon":5.40014,"is_reserved":false,"is_disabled":false,"rental_uris":{"android":"levelo://app?vid=e822dff4-91a6-4398-9d3d-380f5f603fcc","ios":"levelo://app?vid=e822dff4-91a6-4398-9d3d-380f5f603fcc"},"vehicle_type_id":"4","last_reported":1762362623,"current_range_meters":15200,"station_id":"ce4bho92rcd13ifvqh4g","pricing_plan_id":"cebpf4jnsgd1na2vs0mg"},{"bike_id":"5af1a322-68ac-4ccc-b129-c3bbed219b25","system_id":"levelo_inurba_marseille","lat":43.31489,"lon":5.37293,"is_reserved":false,"is_disabled":false,"rental_uris":{"android":"levelo://app?vid=5af1a322-68ac-4ccc-b129-c3bbed219b25","ios":"levelo://app?vid=5af1a322-68ac-4ccc-b129-c3bbed219b25"},"vehicle_type_id":"4","last_reported":1762362623,"current_range_meters":15200,"station_id":"ce4bgt12rcd13ifvqcd0","pricing_plan_id":"cebpf4jnsgd1na2vs0mg"},{"bike_id":"289699c5-2413-49a3-8f55-31e19fd0741f","system_id":"levelo_inurba_marseille","lat":43.308061,"lon":5.381509,"is_reserved":false,"is_disabled":false,"rental_uris":{"android":"levelo://app?vid=289699c5-2413-49a3-8f55-31e19fd0741f","ios":"levelo://app?vid=289699c5-2413-49a3-8f55-31e19fd0741f"},"vehicle_type_id":"4","last_reported":1762362623,"current_range_meters":15200,"station_id":"ce4bgt12rcd13ifvqce0","pricing_plan_id":"cebpf4jnsgd1na2vs0mg"},{"bike_id":"e0ee5d57-04cd-4308-8117-cf46da8f2a99","system_id":"levelo_inurba_marseille","lat":43.26577,"lon":5.39022,"is_reserved":false,"is_disabled":false,"rental_uris":{"android":"levelo://app?vid=e0ee5d57-04cd-4308-8117-cf46da8f2a99","ios":"levelo://app?vid=e0ee5d57-04cd-4308-8117-cf46da8f2a99"},"vehicle_type_id":"4","last_reported":1762362623,"current_range_meters":15200,"station_id":"ce4bhe12rcd13ifvqf30","pricing_plan_id":"cebpf4jnsgd1na2vs0mg"},{"bike_id":"3cf19423-4f24-4709-adcb-e1ca70cf4cef","system_id":"levelo_inurba_marseille","lat":43.31701,"lon":5.40473,"is_reserved":false,"is_disabled":true,"rental_uris":{"android":"levelo://app?vid=3cf19423-4f24-4709-adcb-e1ca70cf4cef","ios":"levelo://app?vid=3cf19423-4f24-4709-adcb-e1ca70cf4cef"},"vehicle_type_id":"4","last_reported":1762362623,"current_range_meters":16000,"station_id":"ce4bh012rcd13ifvqd00","pricing_plan_id":"cebpf4jnsgd1na2vs0mg"},{"bike_id":"a6010974-670e-49c0-b408-8e5fee4c2775","system_id":"levelo_inurba_marseille","lat":43.24166,"lon":5.36397,"is_reserved":false,"is_disabled":false,"rental_uris":{"android":"levelo://app?vid=a6010974-670e-49c0-b408-8e5fee4c2775","ios":"levelo://app?vid=a6010974-670e-49c0-b408-8e5fee4c2775"},"vehicle_type_id":"4","last_reported":1762362623,"current_range_meters":16000,"station_id":"cpo36qri1sfpv3e86is0","pricing_plan_id":"cebpf4jnsgd1na2vs0mg"},{"bike_id":"c4cef7b9-9da2-4079-8212-89dd4a570d80","system_id":"levelo_inurba_marseille","lat":43.28703,"lon":5.39983,"is_reserved":false,"is_disabled":false,"rental_uris":{"android":"levelo://app?vid=c4cef7b9-9da2-4079-8212-89dd4a570d80","ios":"levelo://app?vid=c4cef7b9-9da2-4079-8212-89dd4a570d80"},"vehicle_type_id":"4","last_reported":1762362623,"current_range_meters":16000,"station_id":"ce4bho92rcd13ifvqh3g","pricing_plan_id":"cebpf4jnsgd1na2vs0mg"},{"bike_id":"c0462bdf-2858-4914-a377-421987398d1e","system_id":"levelo_inurba_marseille","lat":43.30116,"lon":5.43117,"is_reserved":false,"is_disabled":false,"rental_uris":{"android":"levelo://app?vid=c0462bdf-2858-4914-a377-421987398d1e","ios":"levelo://app?vid=c0462bdf-2858-4914-a377-421987398d1e"},"vehicle_type_id":"4","last_reported":1762362623,"current_range_meters":16000,"station_id":"st_d3js3co5814s73ftftug","pricing_plan_id":"cebpf4jnsgd1na2vs0mg"},{"bike_id":"745aa73f-45e4-4e90-b1cb-c229e5261f38","system_id":"levelo_inurba_marseille","lat":43.28264,"lon":5.35059,"is_reserved":false,"is_disabled":false,"rental_uris":{"android":"levelo://app?vid=745aa73f-45e4-4e90-b1cb-c229e5261f38","ios":"levelo://app?vid=745aa73f-45e4-4e90-b1cb-c229e5261f38"},"vehicle_type_id":"4","last_reported":1762362623,"current_range_meters":16000,"station_id":"ce4bhbp2rcd13ifvqerg","pricing_plan_id":"cebpf4jnsgd1na2vs0mg"},{"bike_id":"8cbfebfc-6d68-4b68-8270-d866ef29a005","system_id":"levelo_inurba_marseille","lat":43.295288,"lon":5.385316,"is_reserved":false,"is_disabled":false,"rental_uris":{"android":"levelo://app?vid=8cbfebfc-6d68-4b68-8270-d866ef29a005","ios":"levelo://app?vid=8cbfebfc-6d68-4b68-8270-d866ef29a005"},"vehicle_type_id":"4","last_reported":1762362623,"current_range_meters":16000,"station_id":"ce4bgih2rcd13ifvqba0","pricing_plan_id":"cebpf4jnsgd1na2vs0mg"},{"bike_id":"aee05e44-58d8-4251-b642-bba3a7afe48a","system_id":"levelo_inurba_marseille","lat":43.21193,"lon":5.35082,"is_reserved":false,"is_disabled":false,"rental_uris":{"android":"levelo://app?vid=aee05e44-58d8-4251-b642-bba3a7afe48a","ios":"levelo://app?vid=aee05e44-58d8-4251-b642-bba3a7afe48a"},"vehicle_type_id":"4","last_reported":1762362623,"current_range_meters":16000,"station_id":"st_cvj6sg6p6f1abm77japg","pricing_plan_id":"cebpf4jnsgd1na2vs0mg"},{"bike_id":"376ad2ae-9bc1-4eed-a144-21d6e0bd824a","system_id":"levelo_inurba_marseille","lat":43.28486,"lon":5.38556,"is_reserved":false,"is_disabled":false,"rental_uris":{"android":"levelo://app?vid=376ad2ae-9bc1-4eed-a144-21d6e0bd824a","ios":"levelo://app?vid=376ad2ae-9bc1-4eed-a144-21d6e0bd824a"},"vehicle_type_id":"4","last_reported":1762362623,"current_range_meters":16000,"station_id":"ce4bh8p2rcd13ifvqeb0","pricing_plan_id":"cebpf4jnsgd1na2vs0mg"},{"bike_id":"1104549a-f32d-466d-b034-be3e73cd8b4c","system_id":"levelo_inurba_marseille","lat":43.29197,"lon":5.39312,"is_reserved":false,"is_disabled":false,"rental_uris":{"android":"levelo://app?vid=1104549a-f32d-466d-b034-be3e73cd8b4c","ios":"levelo://app?vid=1104549a-f32d-466d-b034-be3e73cd8b4c"},"vehicle_type_id":"4","last_reported":1762362623,"current_range_meters":16400,"station_id":"ce4bh192rcd13ifvqdd0","pricing_plan_id":"cebpf4jnsgd1na2vs0mg"},{"bike_id":"0f1a33ab-ff7f-48ca-ae50-ac9ed0779684","system_id":"levelo_inurba_marseille","lat":43.2892,"lon":5.38396,"is_reserved":false,"is_disabled":false,"rental_uris":{"android":"levelo://app?vid=0f1a33ab-ff7f-48ca-ae50-ac9ed0779684","ios":"levelo://app?vid=0f1a33ab-ff7f-48ca-ae50-ac9ed0779684"},"vehicle_type_id":"4","last_reported":1762362623,"current_range_meters":16400,"station_id":"ce4bh612rcd13ifvqe6g","pricing_plan_id":"cebpf4jnsgd1na2vs0mg"},{"bike_id":"c6d2dafc-fb2c-4b82-8b78-f3d7d347211b","system_id":"levelo_inurba_marseille","lat":43.32351,"lon":5.36742,"is_reserved":false,"is_disabled":false,"rental_uris":{"android":"levelo://app?vid=c6d2dafc-fb2c-4b82-8b78-f3d7d347211b","ios":"levelo://app?vid=c6d2dafc-fb2c-4b82-8b78-f3d7d347211b"},"vehicle_type_id":"4","last_reported":1762362623,"current_range_meters":16400,"station_id":"ce4bhsh2rcd13ifvqi2g","pricing_plan_id":"cebpf4jnsgd1na2vs0mg"},{"bike_id":"d77a88e5-20b9-4fe1-89df-69baec122738","system_id":"levelo_inurba_marseille","lat":43.29748,"lon":5.38075,"is_reserved":false,"is_disabled":false,"rental_uris":{"android":"levelo://app?vid=d77a88e5-20b9-4fe1-89df-69baec122738","ios":"levelo://app?vid=d77a88e5-20b9-4fe1-89df-69baec122738"},"vehicle_type_id":"4","last_reported":1762362623,"current_range_meters":16400,"station_id":"","pricing_plan_id":"cebpf4jnsgd1na2vs0mg"},{"bike_id":"456325d2-f213-43d0-b8bb-83874dc983a6","system_id":"levelo_inurba_marseille","lat":43.25594,"lon":5.38266,"is_reserved":false,"is_disabled":false,"rental_uris":{"android":"levelo://app?vid=456325d2-f213-43d0-b8bb-83874dc983a6","ios":"levelo://app?vid=456325d2-f213-43d0-b8bb-83874dc983a6"},"vehicle_type_id":"4","last_reported":1762362623,"current_range_meters":16400,"station_id":"ce4bhih2rcd13ifvqfs0","pricing_plan_id":"cebpf4jnsgd1na2vs0mg"},{"bike_id":"ecb46758-6057-4135-bd9d-3c28667711cf","system_id":"levelo_inurba_marseille","lat":43.29489,"lon":5.43303,"is_reserved":false,"is_disabled":false,"rental_uris":{"android":"levelo://app?vid=ecb46758-6057-4135-bd9d-3c28667711cf","ios":"levelo://app?vid=ecb46758-6057-4135-bd9d-3c28667711cf"},"vehicle_type_id":"4","last_reported":1762362623,"current_range_meters":16400,"station_id":"st_d3j5ugp08ojc73fj9d10","pricing_plan_id":"cebpf4jnsgd1na2vs0mg"},{"bike_id":"1eb962fe-4dd0-4bd9-8d9c-c7220f2ec2a2","system_id":"levelo_inurba_marseille","lat":43.29563,"lon":5.39986,"is_reserved":false,"is_disabled":false,"rental_uris":{"android":"levelo://app?vid=1eb962fe-4dd0-4bd9-8d9c-c7220f2ec2a2","ios":"levelo://app?vid=1eb962fe-4dd0-4bd9-8d9c-c7220f2ec2a2"},"vehicle_type_id":"4","last_reported":1762362623,"current_range_meters":16400,"station_id":"ce4bh312rcd13ifvqdj0","pricing_plan_id":"cebpf4jnsgd1na2vs0mg"},{"bike_id":"82f26bb4-9f87-4fd3-a38d-3ef714eada97","system_id":"levelo_inurba_marseille","lat":43.28393,"lon":5.37517,"is_reserved":false,"is_disabled":false,"rental_uris":{"android":"levelo://app?vid=82f26bb4-9f87-4fd3-a38d-3ef714eada97","ios":"levelo://app?vid=82f26bb4-9f87-4fd3-a38d-3ef714eada97"},"vehicle_type_id":"4","last_reported":1762362623,"current_range_meters":16400,"station_id":"ce4bh412rcd13ifvqds0","pricing_plan_id":"cebpf4jnsgd1na2vs0mg"},{"bike_id":"38560890-7eda-4e15-bc31-e3e93ec64bb0","system_id":"levelo_inurba_marseille","lat":43.29782,"lon":5.39346,"is_reserved":false,"is_disabled":false,"rental_uris":{"android":"levelo://app?vid=38560890-7eda-4e15-bc31-e3e93ec64bb0","ios":"levelo://app?vid=38560890-7eda-4e15-bc31-e3e93ec64bb0"},"vehicle_type_id":"4","last_reported":1762362623,"current_range_meters":16800,"station_id":"chh1huq6cuj3fo74tm60","pricing_plan_id":"cebpf4jnsgd1na2vs0mg"},{"bike_id":"40f5976f-c878-42d3-9960-e1343fe3aac7","system_id":"levelo_inurba_marseille","lat":43.26548,"lon":5.37294,"is_reserved":false,"is_disabled":false,"rental_uris":{"android":"levelo://app?vid=40f5976f-c878-42d3-9960-e1343fe3aac7","ios":"levelo://app?vid=40f5976f-c878-42d3-9960-e1343fe3aac7"},"vehicle_type_id":"4","last_reported":1762362623,"current_range_meters":16800,"station_id":"ce4bhg12rcd13ifvqf70","pricing_plan_id":"cebpf4jnsgd1na2vs0mg"},{"bike_id":"668b8660-c085-4672-b927-dacc0444d700","system_id":"levelo_inurba_marseille","lat":43.27556,"lon":5.38429,"is_reserved":false,"is_disabled":false,"rental_uris":{"android":"levelo://app?vid=668b8660-c085-4672-b927-dacc0444d700","ios":"levelo://app?vid=668b8660-c085-4672-b927-dacc0444d700"},"vehicle_type_id":"4","last_reported":1762362623,"current_range_meters":16800,"station_id":"ce4bhh92rcd13ifvqfi0","pricing_plan_id":"cebpf4jnsgd1na2vs0mg"},{"bike_id":"2b7f6bff-d423-4098-bdba-aaf1e7c00e23","system_id":"levelo_inurba_marseille","lat":43.255803,"lon":5.382295,"is_reserved":false,"is_disabled":false,"rental_uris":{"android":"levelo://app?vid=2b7f6bff-d423-4098-bdba-aaf1e7c00e23","ios":"levelo://app?vid=2b7f6bff-d423-4098-bdba-aaf1e7c00e23"},"vehicle_type_id":"4","last_reported":1762362623,"current_range_meters":16800,"station_id":"ce4bhih2rcd13ifvqfs0","pricing_plan_id":"cebpf4jnsgd1na2vs0mg"},{"bike_id":"70db016c-7405-4607-b473-337415d46cfa","system_id":"levelo_inurba_marseille","lat":43.30936,"lon":5.4014,"is_reserved":false,"is_disabled":false,"rental_uris":{"android":"levelo://app?vid=70db016c-7405-4607-b473-337415d46cfa","ios":"levelo://app?vid=70db016c-7405-4607-b473-337415d46cfa"},"vehicle_type_id":"4","last_reported":1762362623,"current_range_meters":16800,"station_id":"ce4bgvp2rcd13ifvqct0","pricing_plan_id":"cebpf4jnsgd1na2vs0mg"},{"bike_id":"a764bd8f-3e99-4076-9f6c-b09af6936eea","system_id":"levelo_inurba_marseille","lat":43.30795,"lon":5.38168,"is_reserved":false,"is_disabled":false,"rental_uris":{"android":"levelo://app?vid=a764bd8f-3e99-4076-9f6c-b09af6936eea","ios":"levelo://app?vid=a764bd8f-3e99-4076-9f6c-b09af6936eea"},"vehicle_type_id":"4","last_reported":1762362623,"current_range_meters":16800,"station_id":"ce4bgt12rcd13ifvqce0","pricing_plan_id":"cebpf4jnsgd1na2vs0mg"},{"bike_id":"1e4f7da9-6142-498c-9cfb-6b554a3fcbbb","system_id":"levelo_inurba_marseille","lat":43.24679,"lon":5.41295,"is_reserved":false,"is_disabled":false,"rental_uris":{"android":"levelo://app?vid=1e4f7da9-6142-498c-9cfb-6b554a3fcbbb","ios":"levelo://app?vid=1e4f7da9-6142-498c-9cfb-6b554a3fcbbb"},"vehicle_type_id":"4","last_reported":1762362623,"current_range_meters":16800,"station_id":"","pricing_plan_id":"cebpf4jnsgd1na2vs0mg"},{"bike_id":"4409e8e6-e2b1-45fd-ac80-4ccdb4f82c11","system_id":"levelo_inurba_marseille","lat":43.31077,"lon":5.42429,"is_reserved":false,"is_disabled":false,"rental_uris":{"android":"levelo://app?vid=4409e8e6-e2b1-45fd-ac80-4ccdb4f82c11","ios":"levelo://app?vid=4409e8e6-e2b1-45fd-ac80-4ccdb4f82c11"},"vehicle_type_id":"4","last_reported":1762362623,"current_range_meters":17200,"station_id":"ce4bhp92rcd13ifvqhag","pricing_plan_id":"cebpf4jnsgd1na2vs0mg"},{"bike_id":"c9a7f3ee-dc37-4966-a4c7-35eeef4feb96","system_id":"levelo_inurba_marseille","lat":43.29736,"lon":5.42803,"is_reserved":false,"is_disabled":false,"rental_uris":{"android":"levelo://app?vid=c9a7f3ee-dc37-4966-a4c7-35eeef4feb96","ios":"levelo://app?vid=c9a7f3ee-dc37-4966-a4c7-35eeef4feb96"},"vehicle_type_id":"4","last_reported":1762362623,"current_range_meters":17200,"station_id":"st_d3md5207bmas73dh9klg","pricing_plan_id":"cebpf4jnsgd1na2vs0mg"},{"bike_id":"a715c0ef-3857-414c-967a-b5d1a542eb13","system_id":"levelo_inurba_marseille","lat":43.224571,"lon":5.347186,"is_reserved":false,"is_disabled":false,"rental_uris":{"android":"levelo://app?vid=a715c0ef-3857-414c-967a-b5d1a542eb13","ios":"levelo://app?vid=a715c0ef-3857-414c-967a-b5d1a542eb13"},"vehicle_type_id":"4","last_reported":1762362623,"current_range_meters":17200,"station_id":"","pricing_plan_id":"cebpf4jnsgd1na2vs0mg"},{"bike_id":"c6a1219c-868f-4689-b810-c16fb82ff4f7","system_id":"levelo_inurba_marseille","lat":43.29972,"lon":5.37176,"is_reserved":false,"is_disabled":false,"rental_uris":{"android":"levelo://app?vid=c6a1219c-868f-4689-b810-c16fb82ff4f7","ios":"levelo://app?vid=c6a1219c-868f-4689-b810-c16fb82ff4f7"},"vehicle_type_id":"4","last_reported":1762362623,"current_range_meters":17200,"station_id":"ce4bgr92rcd13ifvqc7g","pricing_plan_id":"cebpf4jnsgd1na2vs0mg"},{"bike_id":"bdff282f-eef1-4050-8d99-3f5dcc84791f","system_id":"levelo_inurba_marseille","lat":43.30132,"lon":5.38793,"is_reserved":false,"is_disabled":false,"rental_uris":{"android":"levelo://app?vid=bdff282f-eef1-4050-8d99-3f5dcc84791f","ios":"levelo://app?vid=bdff282f-eef1-4050-8d99-3f5dcc84791f"},"vehicle_type_id":"4","last_reported":1762362623,"current_range_meters":17200,"station_id":"ce4bghh2rcd13ifvqb60","pricing_plan_id":"cebpf4jnsgd1na2vs0mg"},{"bike_id":"d84b9ac8-fea8-42ef-91e6-1c0a85f50cff","system_id":"levelo_inurba_marseille","lat":43.284423,"lon":5.392121,"is_reserved":false,"is_disabled":false,"rental_uris":{"android":"levelo://app?vid=d84b9ac8-fea8-42ef-91e6-1c0a85f50cff","ios":"levelo://app?vid=d84b9ac8-fea8-42ef-91e6-1c0a85f50cff"},"vehicle_type_id":"4","last_reported":1762362623,"current_range_meters":17200,"station_id":"ce4bhoh2rcd13ifvqh5g","pricing_plan_id":"cebpf4jnsgd1na2vs0mg"},{"bike_id":"d2a3d120-f595-49b6-a6bd-4e3d416bde4e","system_id":"levelo_inurba_marseille","lat":43.27613,"lon":5.36107,"is_reserved":false,"is_disabled":false,"rental_uris":{"android":"levelo://app?vid=d2a3d120-f595-49b6-a6bd-4e3d416bde4e","ios":"levelo://app?vid=d2a3d120-f595-49b6-a6bd-4e3d416bde4e"},"vehicle_type_id":"4","last_reported":1762362623,"current_range_meters":17200,"station_id":"","pricing_plan_id":"cebpf4jnsgd1na2vs0mg"},{"bike_id":"b311b2f6-735e-444b-9f9c-f00dfe7c9f6f","system_id":"levelo_inurba_marseille","lat":43.229366,"lon":5.353882,"is_reserved":false,"is_disabled":false,"rental_uris":{"android":"levelo://app?vid=b311b2f6-735e-444b-9f9c-f00dfe7c9f6f","ios":"levelo://app?vid=b311b2f6-735e-444b-9f9c-f00dfe7c9f6f"},"vehicle_type_id":"4","last_reported":1762362623,"current_range_meters":17600,"station_id":"cpo3532slgdg3j2ikp40","pricing_plan_id":"cebpf4jnsgd1na2vs0mg"},{"bike_id":"fa3dcd92-c337-45f6-b7fd-21b7c087e8bd","system_id":"levelo_inurba_marseille","lat":43.30479,"lon":5.39776,"is_reserved":false,"is_disabled":false,"rental_uris":{"android":"levelo://app?vid=fa3dcd92-c337-45f6-b7fd-21b7c087e8bd","ios":"levelo://app?vid=fa3dcd92-c337-45f6-b7fd-21b7c087e8bd"},"vehicle_type_id":"4","last_reported":1762362623,"current_range_meters":17600,"station_id":"ce4bh092rcd13ifvqd20","pricing_plan_id":"cebpf4jnsgd1na2vs0mg"},{"bike_id":"bbfda6f5-1b83-4571-b6e5-79f3d4fef9d0","system_id":"levelo_inurba_marseille","lat":43.253318,"lon":5.421858,"is_reserved":false,"is_disabled":false,"rental_uris":{"android":"levelo://app?vid=bbfda6f5-1b83-4571-b6e5-79f3d4fef9d0","ios":"levelo://app?vid=bbfda6f5-1b83-4571-b6e5-79f3d4fef9d0"},"vehicle_type_id":"4","last_reported":1762362623,"current_range_meters":17600,"station_id":"st_d2m65c5bi1j21697t3ng","pricing_plan_id":"cebpf4jnsgd1na2vs0mg"},{"bike_id":"04128b05-9964-4a92-9aca-1ccd1d965e35","system_id":"levelo_inurba_marseille","lat":43.31725,"lon":5.42397,"is_reserved":false,"is_disabled":false,"rental_uris":{"android":"levelo://app?vid=04128b05-9964-4a92-9aca-1ccd1d965e35","ios":"levelo://app?vid=04128b05-9964-4a92-9aca-1ccd1d965e35"},"vehicle_type_id":"4","last_reported":1762362623,"current_range_meters":17600,"station_id":"ce4bhp92rcd13ifvqhbg","pricing_plan_id":"cebpf4jnsgd1na2vs0mg"},{"bike_id":"e36a6a12-a7fe-4355-9231-257e2061d1bd","system_id":"levelo_inurba_marseille","lat":43.28473,"lon":5.4839,"is_reserved":false,"is_disabled":false,"rental_uris":{"android":"levelo://app?vid=e36a6a12-a7fe-4355-9231-257e2061d1bd","ios":"levelo://app?vid=e36a6a12-a7fe-4355-9231-257e2061d1bd"},"vehicle_type_id":"4","last_reported":1762362623,"current_range_meters":17600,"station_id":"st_d3svhcjqgbts73a3dn0g","pricing_plan_id":"cebpf4jnsgd1na2vs0mg"},{"bike_id":"aaf38824-7ac2-4c2c-922d-61bff3d8a6b0","system_id":"levelo_inurba_marseille","lat":43.33729,"lon":5.3919,"is_reserved":false,"is_disabled":false,"rental_uris":{"android":"levelo://app?vid=aaf38824-7ac2-4c2c-922d-61bff3d8a6b0","ios":"levelo://app?vid=aaf38824-7ac2-4c2c-922d-61bff3d8a6b0"},"vehicle_type_id":"4","last_reported":1762362623,"current_range_meters":17600,"station_id":"ce4bhr92rcd13ifvqhsg","pricing_plan_id":"cebpf4jnsgd1na2vs0mg"},{"bike_id":"16ef74b7-1203-4a9a-8afd-2d12a6594735","system_id":"levelo_inurba_marseille","lat":43.25825,"lon":5.39441,"is_reserved":false,"is_disabled":false,"rental_uris":{"android":"levelo://app?vid=16ef74b7-1203-4a9a-8afd-2d12a6594735","ios":"levelo://app?vid=16ef74b7-1203-4a9a-8afd-2d12a6594735"},"vehicle_type_id":"4","last_reported":1762362623,"current_range_meters":18000,"station_id":"ce4bhip2rcd13ifvqft0","pricing_plan_id":"cebpf4jnsgd1na2vs0mg"},{"bike_id":"65d83eaf-428a-43cd-a356-ecaed95948ff","system_id":"levelo_inurba_marseille","lat":43.24838,"lon":5.39783,"is_reserved":false,"is_disabled":false,"rental_uris":{"android":"levelo://app?vid=65d83eaf-428a-43cd-a356-ecaed95948ff","ios":"levelo://app?vid=65d83eaf-428a-43cd-a356-ecaed95948ff"},"vehicle_type_id":"4","last_reported":1762362623,"current_range_meters":18000,"station_id":"","pricing_plan_id":"cebpf4jnsgd1na2vs0mg"},{"bike_id":"1f3f981d-d3be-423a-a711-121546d96d4b","system_id":"levelo_inurba_marseille","lat":43.25513,"lon":5.37665,"is_reserved":false,"is_disabled":false,"rental_uris":{"android":"levelo://app?vid=1f3f981d-d3be-423a-a711-121546d96d4b","ios":"levelo://app?vid=1f3f981d-d3be-423a-a711-121546d96d4b"},"vehicle_type_id":"4","last_reported":1762362623,"current_range_meters":18000,"station_id":"ce4bhh12rcd13ifvqff0","pricing_plan_id":"cebpf4jnsgd1na2vs0mg"},{"bike_id":"3ba95d41-8a5b-4190-ad92-f74089337624","system_id":"levelo_inurba_marseille","lat":43.29479,"lon":5.43315,"is_reserved":false,"is_disabled":false,"rental_uris":{"android":"levelo://app?vid=3ba95d41-8a5b-4190-ad92-f74089337624","ios":"levelo://app?vid=3ba95d41-8a5b-4190-ad92-f74089337624"},"vehicle_type_id":"4","last_reported":1762362623,"current_range_meters":18000,"station_id":"st_d3j5ugp08ojc73fj9d10","pricing_plan_id":"cebpf4jnsgd1na2vs0mg"},{"bike_id":"6f6b9808-0449-4a5b-88df-74de3e815a30","system_id":"levelo_inurba_marseille","lat":43.25721,"lon":5.41114,"is_reserved":false,"is_disabled":false,"rental_uris":{"android":"levelo://app?vid=6f6b9808-0449-4a5b-88df-74de3e815a30","ios":"levelo://app?vid=6f6b9808-0449-4a5b-88df-74de3e815a30"},"vehicle_type_id":"4","last_reported":1762362623,"current_range_meters":18000,"station_id":"ce4bhkp2rcd13ifvqgd0","pricing_plan_id":"cebpf4jnsgd1na2vs0mg"},{"bike_id":"71967476-752a-4f5e-b222-99c0eea95f39","system_id":"levelo_inurba_marseille","lat":43.32317,"lon":5.38405,"is_reserved":false,"is_disabled":false,"rental_uris":{"android":"levelo://app?vid=71967476-752a-4f5e-b222-99c0eea95f39","ios":"levelo://app?vid=71967476-752a-4f5e-b222-99c0eea95f39"},"vehicle_type_id":"4","last_reported":1762362623,"current_range_meters":18000,"station_id":"","pricing_plan_id":"cebpf4jnsgd1na2vs0mg"},{"bike_id":"08a9cfcf-8e2e-4f9a-b43a-d48f54480e10","system_id":"levelo_inurba_marseille","lat":43.26499,"lon":5.39547,"is_reserved":false,"is_disabled":true,"rental_uris":{"android":"levelo://app?vid=08a9cfcf-8e2e-4f9a-b43a-d48f54480e10","ios":"levelo://app?vid=08a9cfcf-8e2e-4f9a-b43a-d48f54480e10"},"vehicle_type_id":"4","last_reported":1762362623,"current_range_meters":18000,"station_id":"ce4bhi12rcd13ifvqfq0","pricing_plan_id":"cebpf4jnsgd1na2vs0mg"},{"bike_id":"8a0d29de-7a39-43d7-8cb7-9e0173a4d5c6","system_id":"levelo_inurba_marseille","lat":43.30204,"lon":5.366245,"is_reserved":false,"is_disabled":false,"rental_uris":{"android":"levelo://app?vid=8a0d29de-7a39-43d7-8cb7-9e0173a4d5c6","ios":"levelo://app?vid=8a0d29de-7a39-43d7-8cb7-9e0173a4d5c6"},"vehicle_type_id":"4","last_reported":1762362623,"current_range_meters":18000,"station_id":"ce4bgrh2rcd13ifvqc8g","pricing_plan_id":"cebpf4jnsgd1na2vs0mg"},{"bike_id":"cf0511ee-6a3c-48ea-a4d9-a863723ee080","system_id":"levelo_inurba_marseille","lat":43.27376,"lon":5.36257,"is_reserved":false,"is_disabled":false,"rental_uris":{"android":"levelo://app?vid=cf0511ee-6a3c-48ea-a4d9-a863723ee080","ios":"levelo://app?vid=cf0511ee-6a3c-48ea-a4d9-a863723ee080"},"vehicle_type_id":"4","last_reported":1762362623,"current_range_meters":18000,"station_id":"ce4bhbh2rcd13ifvqeo0","pricing_plan_id":"cebpf4jnsgd1na2vs0mg"},{"bike_id":"97efc913-cf9a-4af2-a510-9165b95e1281","system_id":"levelo_inurba_marseille","lat":43.30952,"lon":5.39035,"is_reserved":false,"is_disabled":false,"rental_uris":{"android":"levelo://app?vid=97efc913-cf9a-4af2-a510-9165b95e1281","ios":"levelo://app?vid=97efc913-cf9a-4af2-a510-9165b95e1281"},"vehicle_type_id":"4","last_reported":1762362623,"current_range_meters":18000,"station_id":"ce4bgup2rcd13ifvqco0","pricing_plan_id":"cebpf4jnsgd1na2vs0mg"},{"bike_id":"5c1fa41e-1120-4114-b38e-e1bf5e88626b","system_id":"levelo_inurba_marseille","lat":43.30676,"lon":5.39325,"is_reserved":false,"is_disabled":false,"rental_uris":{"android":"levelo://app?vid=5c1fa41e-1120-4114-b38e-e1bf5e88626b","ios":"levelo://app?vid=5c1fa41e-1120-4114-b38e-e1bf5e88626b"},"vehicle_type_id":"4","last_reported":1762362623,"current_range_meters":18800,"station_id":"ce4bh092rcd13ifvqd20","pricing_plan_id":"cebpf4jnsgd1na2vs0mg"},{"bike_id":"8574468f-faf7-4a61-977f-90a5896c01c9","system_id":"levelo_inurba_marseille","lat":43.26553,"lon":5.4134,"is_reserved":false,"is_disabled":false,"rental_uris":{"android":"levelo://app?vid=8574468f-faf7-4a61-977f-90a5896c01c9","ios":"levelo://app?vid=8574468f-faf7-4a61-977f-90a5896c01c9"},"vehicle_type_id":"4","last_reported":1762362623,"current_range_meters":18800,"station_id":"","pricing_plan_id":"cebpf4jnsgd1na2vs0mg"},{"bike_id":"b3b3fcde-ef29-4ae9-9661-53fb5ec40466","system_id":"levelo_inurba_marseille","lat":43.31327,"lon":5.39701,"is_reserved":false,"is_disabled":false,"rental_uris":{"android":"levelo://app?vid=b3b3fcde-ef29-4ae9-9661-53fb5ec40466","ios":"levelo://app?vid=b3b3fcde-ef29-4ae9-9661-53fb5ec40466"},"vehicle_type_id":"4","last_reported":1762362623,"current_range_meters":18800,"station_id":"","pricing_plan_id":"cebpf4jnsgd1na2vs0mg"},{"bike_id":"02931a4f-41ca-4d63-991e-b78142ffd2df","system_id":"levelo_inurba_marseille","lat":43.32481,"lon":5.36576,"is_reserved":false,"is_disabled":true,"rental_uris":{"android":"levelo://app?vid=02931a4f-41ca-4d63-991e-b78142ffd2df","ios":"levelo://app?vid=02931a4f-41ca-4d63-991e-b78142ffd2df"},"vehicle_type_id":"4","last_reported":1762362623,"current_range_meters":18800,"station_id":"ce4bhs12rcd13ifvqhvg","pricing_plan_id":"cebpf4jnsgd1na2vs0mg"},{"bike_id":"d1eaacff-9ae1-47c2-a281-3529e6459552","system_id":"levelo_inurba_marseille","lat":43.25578,"lon":5.38232,"is_reserved":false,"is_disabled":false,"rental_uris":{"android":"levelo://app?vid=d1eaacff-9ae1-47c2-a281-3529e6459552","ios":"levelo://app?vid=d1eaacff-9ae1-47c2-a281-3529e6459552"},"vehicle_type_id":"4","last_reported":1762362623,"current_range_meters":18800,"station_id":"ce4bhih2rcd13ifvqfs0","pricing_plan_id":"cebpf4jnsgd1na2vs0mg"},{"bike_id":"221ecbda-10ac-474b-9196-3a4918ada12c","system_id":"levelo_inurba_marseille","lat":43.301276,"lon":5.398662,"is_reserved":false,"is_disabled":false,"rental_uris":{"android":"levelo://app?vid=221ecbda-10ac-474b-9196-3a4918ada12c","ios":"levelo://app?vid=221ecbda-10ac-474b-9196-3a4918ada12c"},"vehicle_type_id":"4","last_reported":1762362623,"current_range_meters":18800,"station_id":"ce4bh0h2rcd13ifvqd40","pricing_plan_id":"cebpf4jnsgd1na2vs0mg"},{"bike_id":"d60d6d39-a056-403c-9f1e-da500d75fdb4","system_id":"levelo_inurba_marseille","lat":43.314928,"lon":5.372746,"is_reserved":false,"is_disabled":false,"rental_uris":{"android":"levelo://app?vid=d60d6d39-a056-403c-9f1e-da500d75fdb4","ios":"levelo://app?vid=d60d6d39-a056-403c-9f1e-da500d75fdb4"},"vehicle_type_id":"4","last_reported":1762362623,"current_range_meters":18800,"station_id":"ce4bgt12rcd13ifvqcd0","pricing_plan_id":"cebpf4jnsgd1na2vs0mg"},{"bike_id":"7f3a2091-4cab-44e9-b551-38da1a1f62f3","system_id":"levelo_inurba_marseille","lat":43.311165,"lon":5.37765,"is_reserved":false,"is_disabled":false,"rental_uris":{"android":"levelo://app?vid=7f3a2091-4cab-44e9-b551-38da1a1f62f3","ios":"levelo://app?vid=7f3a2091-4cab-44e9-b551-38da1a1f62f3"},"vehicle_type_id":"4","last_reported":1762362623,"current_range_meters":18800,"station_id":"ce4bgt92rcd13ifvqcg0","pricing_plan_id":"cebpf4jnsgd1na2vs0mg"},{"bike_id":"e5679309-3bc5-4480-a613-b890bd971885","system_id":"levelo_inurba_marseille","lat":43.30411,"lon":5.41271,"is_reserved":false,"is_disabled":false,"rental_uris":{"android":"levelo://app?vid=e5679309-3bc5-4480-a613-b890bd971885","ios":"levelo://app?vid=e5679309-3bc5-4480-a613-b890bd971885"},"vehicle_type_id":"4","last_reported":1762362623,"current_range_meters":18800,"station_id":"ce4bhop2rcd13ifvqh8g","pricing_plan_id":"cebpf4jnsgd1na2vs0mg"},{"bike_id":"9f2da96b-e073-41e9-9cb6-b8c289d4a763","system_id":"levelo_inurba_marseille","lat":43.23188,"lon":5.39975,"is_reserved":false,"is_disabled":false,"rental_uris":{"android":"levelo://app?vid=9f2da96b-e073-41e9-9cb6-b8c289d4a763","ios":"levelo://app?vid=9f2da96b-e073-41e9-9cb6-b8c289d4a763"},"vehicle_type_id":"4","last_reported":1762362623,"current_range_meters":18800,"station_id":"ce4bhn12rcd13ifvqgqg","pricing_plan_id":"cebpf4jnsgd1na2vs0mg"},{"bike_id":"117d189d-a469-415a-a8f7-4c33f4871365","system_id":"levelo_inurba_marseille","lat":43.31321,"lon":5.39694,"is_reserved":false,"is_disabled":false,"rental_uris":{"android":"levelo://app?vid=117d189d-a469-415a-a8f7-4c33f4871365","ios":"levelo://app?vid=117d189d-a469-415a-a8f7-4c33f4871365"},"vehicle_type_id":"4","last_reported":1762362623,"current_range_meters":18800,"station_id":"ce4bgvp2rcd13ifvqcu0","pricing_plan_id":"cebpf4jnsgd1na2vs0mg"},{"bike_id":"fc16820a-8182-4f34-88ba-56aff6a98f83","system_id":"levelo_inurba_marseille","lat":43.25087,"lon":5.39524,"is_reserved":false,"is_disabled":false,"rental_uris":{"android":"levelo://app?vid=fc16820a-8182-4f34-88ba-56aff6a98f83","ios":"levelo://app?vid=fc16820a-8182-4f34-88ba-56aff6a98f83"},