{"last_updated":1768987350,"ttl":60,"version":"2.2","data":{"bikes":[{"bike_id":"09862818-671a-4376-a7a2-2bb4e426d3ba","system_id":"levelo_inurba_marseille","lat":43.30413,"lon":5.41313,"is_reserved":false,"is_disabled":false,"rental_uris":{"android":"levelo://app?vid=09862818-671a-4376-a7a2-2bb4e426d3ba","ios":"levelo://app?vid=09862818-671a-4376-a7a2-2bb4e426d3ba"},"vehicle_type_id":"4","last_reported":1768987351,"current_range_meters":2800,"station_id":"ce4bhop2rcd13ifvqh8g","pricing_plan_id":"cebpf4jnsgd1na2vs0mg"},{"bike_id":"f77322d8-6406-4dce-9762-2db983fcf32d","system_id":"levelo_inurba_marseille","lat":43.30948,"lon":5.36823,"is_reserved":false,"is_disabled":false,"rental_uris":{"android":"levelo://app?vid=f77322d8-6406-4dce-9762-2db983fcf32d","ios":"levelo://app?vid=f77322d8-6406-4dce-9762-2db983fcf32d"},"vehicle_type_id":"4","last_reported":1768987351,"current_range_meters":2800,"station_id":"ce4bgn92rcd13ifvqbvg","pricing_plan_id":"cebpf4jnsgd1na2vs0mg"},{"bike_id":"67ca2c04-5eac-492c-bdd6-69ab912a7b94","system_id":"levelo_inurba_marseille","lat":43.30955,"lon":5.39034,"is_reserved":false,"is_disabled":false,"rental_uris":{"android":"levelo://app?vid=67ca2c04-5eac-492c-bdd6-69ab912a7b94","ios":"levelo://app?vid=67ca2c04-5eac-492c-bdd6-69ab912a7b94"},"vehicle_type_id":"4","last_reported":1768987351,"current_range_meters":2800,"station_id":"ce4bgup2rcd13ifvqco0","pricing_plan_id":"cebpf4jnsgd1na2vs0mg"},{"bike_id":"581a987f-3eac-414b-952f-48991506a140","system_id":"levelo_inurba_marseille","lat":43.2953,"lon":5.38545,"is_reserved":false,"is_disabled":false,"rental_uris":{"android":"levelo://app?vid=581a987f-3eac-414b-952f-48991506a140","ios":"levelo://app?vid=581a987f-3eac-414b-952f-48991506a140"},"vehicle_type_id":"4","last_reported":1768987351,"current_range_meters":2800,"station_id":"ce4bgih2rcd13ifvqba0","pricing_plan_id":"cebpf4jnsgd1na2vs0mg"},{"bike_id":"8182caca-b56d-4e87-bc73-40b9e52e713b","system_id":"levelo_inurba_marseille","lat":43.28723,"lon":5.37905,"is_reserved":false,"is_disabled":false,"rental_uris":{"android":"levelo://app?vid=8182caca-b56d-4e87-bc73-40b9e52e713b","ios":"levelo://app?vid=8182caca-b56d-4e87-bc73-40b9e52e713b"},"vehicle_type_id":"4","last_reported":1768987351,"current_range_meters":2800,"station_id":"ce4bh9p2rcd13ifvqec0","pricing_plan_id":"cebpf4jnsgd1na2vs0mg"},{"bike_id":"40e2667e-f23a-4ded-8ddb-fef4d5eb0dfe","system_id":"levelo_inurba_marseille","lat":43.25522,"lon":5.37634,"is_reserved":false,"is_disabled":false,"rental_uris":{"android":"levelo://app?vid=40e2667e-f23a-4ded-8ddb-fef4d5eb0dfe","ios":"levelo://app?vid=40e2667e-f23a-4ded-8ddb-fef4d5eb0dfe"},"vehicle_type_id":"4","last_reported":1768987351,"current_range_meters":2800,"station_id":"ce4bhh12rcd13ifvqff0","pricing_plan_id":"cebpf4jnsgd1na2vs0mg"},{"bike_id":"6c3a5c15-7423-4a25-87ba-05f3c8d2d87e","system_id":"levelo_inurba_marseille","lat":43.323444,"lon":5.367281,"is_reserved":false,"is_disabled":false,"rental_uris":{"android":"levelo://app?vid=6c3a5c15-7423-4a25-87ba-05f3c8d2d87e","ios":"levelo://app?vid=6c3a5c15-7423-4a25-87ba-05f3c8d2d87e"},"vehicle_type_id":"4","last_reported":1768987351,"current_range_meters":2800,"station_id":"ce4bhsh2rcd13ifvqi2g","pricing_plan_id":"cebpf4jnsgd1na2vs0mg"},{"bike_id":"973e99b1-9171-4dd5-938f-63ff9526bd18","system_id":"levelo_inurba_marseille","lat":43.28477,"lon":5.38445,"is_reserved":false,"is_disabled":false,"rental_uris":{"android":"levelo://app?vid=973e99b1-9171-4dd5-938f-63ff9526bd18","ios":"levelo://app?vid=973e99b1-9171-4dd5-938f-63ff9526bd18"},"vehicle_type_id":"4","last_reported":1768987351,"current_range_meters":2800,"station_id":"ce4bh512rcd13ifvqe3g","pricing_plan_id":"cebpf4jnsgd1na2vs0mg"},{"bike_id":"7ced09e8-33c0-4866-ae30-e107ea424cac","system_id":"levelo_inurba_marseille","lat":43.28482,"lon":5.38518,"is_reserved":false,"is_disabled":false,"rental_uris":{"android":"levelo://app?vid=7ced09e8-33c0-4866-ae30-e107ea424cac","ios":"levelo://app?vid=7ced09e8-33c0-4866-ae30-e107ea424cac"},"vehicle_type_id":"4","last_reported":1768987351,"current_range_meters":2800,"station_id":"ce4bh8p2rcd13ifvqeb0","pricing_plan_id":"cebpf4jnsgd1na2vs0mg"},{"bike_id":"3f19db83-e6c2-450e-973c-f194a67cd9a7","system_id":"levelo_inurba_marseille","lat":43.30425,"lon":5.39741,"is_reserved":false,"is_disabled":false,"rental_uris":{"android":"levelo://app?vid=3f19db83-e6c2-450e-973c-f194a67cd9a7","ios":"levelo://app?vid=3f19db83-e6c2-450e-973c-f194a67cd9a7"},"vehicle_type_id":"4","last_reported":1768987351,"current_range_meters":3200,"station_id":"ce4bh092rcd13ifvqd20","pricing_plan_id":"cebpf4jnsgd1na2vs0mg"},{"bike_id":"a89da980-36be-4958-9aa0-4e1f42aab655","system_id":"levelo_inurba_marseille","lat":43.25022,"lon":5.38887,"is_reserved":false,"is_disabled":false,"rental_uris":{"android":"levelo://app?vid=a89da980-36be-4958-9aa0-4e1f42aab655","ios":"levelo://app?vid=a89da980-36be-4958-9aa0-4e1f42aab655"},"vehicle_type_id":"4","last_reported":1768987351,"current_range_meters":3200,"station_id":"ce4bhgp2rcd13ifvqfd0","pricing_plan_id":"cebpf4jnsgd1na2vs0mg"},{"bike_id":"7df2b99f-216f-4141-b547-b94b92249ca4","system_id":"levelo_inurba_marseille","lat":43.26966,"lon":5.38658,"is_reserved":false,"is_disabled":false,"rental_uris":{"android":"levelo://app?vid=7df2b99f-216f-4141-b547-b94b92249ca4","ios":"levelo://app?vid=7df2b99f-216f-4141-b547-b94b92249ca4"},"vehicle_type_id":"4","last_reported":1768987351,"current_range_meters":3200,"station_id":"ce4bhh92rcd13ifvqfh0","pricing_plan_id":"cebpf4jnsgd1na2vs0mg"},{"bike_id":"c766203c-fe51-459b-bf74-dd6b3df74629","system_id":"levelo_inurba_marseille","lat":43.23186,"lon":5.39997,"is_reserved":false,"is_disabled":false,"rental_uris":{"android":"levelo://app?vid=c766203c-fe51-459b-bf74-dd6b3df74629","ios":"levelo://app?vid=c766203c-fe51-459b-bf74-dd6b3df74629"},"vehicle_type_id":"4","last_reported":1768987351,"current_range_meters":3200,"station_id":"ce4bhn12rcd13ifvqgqg","pricing_plan_id":"cebpf4jnsgd1na2vs0mg"},{"bike_id":"8144ec99-45d7-491d-bfad-8c03b93f6878","system_id":"levelo_inurba_marseille","lat":43.28344,"lon":5.38104,"is_reserved":false,"is_disabled":false,"rental_uris":{"android":"levelo://app?vid=8144ec99-45d7-491d-bfad-8c03b93f6878","ios":"levelo://app?vid=8144ec99-45d7-491d-bfad-8c03b93f6878"},"vehicle_type_id":"4","last_reported":1768987351,"current_range_meters":3200,"station_id":"ce4bh412rcd13ifvqdr0","pricing_plan_id":"cebpf4jnsgd1na2vs0mg"},{"bike_id":"c4efe5f6-44aa-4551-97a6-ee814fce9926","system_id":"levelo_inurba_marseille","lat":43.23193,"lon":5.35549,"is_reserved":false,"is_disabled":false,"rental_uris":{"android":"levelo://app?vid=c4efe5f6-44aa-4551-97a6-ee814fce9926","ios":"levelo://app?vid=c4efe5f6-44aa-4551-97a6-ee814fce9926"},"vehicle_type_id":"4","last_reported":1768987351,"current_range_meters":3200,"station_id":"ce4bhu92rcd13ifvqi70","pricing_plan_id":"cebpf4jnsgd1na2vs0mg"},{"bike_id":"77c5b01e-246f-4ecd-8487-233ea9e71a7f","system_id":"levelo_inurba_marseille","lat":43.28946,"lon":5.39628,"is_reserved":false,"is_disabled":false,"rental_uris":{"android":"levelo://app?vid=77c5b01e-246f-4ecd-8487-233ea9e71a7f","ios":"levelo://app?vid=77c5b01e-246f-4ecd-8487-233ea9e71a7f"},"vehicle_type_id":"4","last_reported":1768987351,"current_range_meters":3200,"station_id":"ce4bh3h2rcd13ifvqdn0","pricing_plan_id":"cebpf4jnsgd1na2vs0mg"},{"bike_id":"7a1d48bc-1268-4219-9549-020bc90423b7","system_id":"levelo_inurba_marseille","lat":43.2751,"lon":5.42449,"is_reserved":false,"is_disabled":false,"rental_uris":{"android":"levelo://app?vid=7a1d48bc-1268-4219-9549-020bc90423b7","ios":"levelo://app?vid=7a1d48bc-1268-4219-9549-020bc90423b7"},"vehicle_type_id":"4","last_reported":1768987351,"current_range_meters":3200,"station_id":"ce4bhn92rcd13ifvqgrg","pricing_plan_id":"cebpf4jnsgd1na2vs0mg"},{"bike_id":"c90f8d49-c464-4abb-b50f-a6f2833250ba","system_id":"levelo_inurba_marseille","lat":43.26072,"lon":5.39371,"is_reserved":false,"is_disabled":false,"rental_uris":{"android":"levelo://app?vid=c90f8d49-c464-4abb-b50f-a6f2833250ba","ios":"levelo://app?vid=c90f8d49-c464-4abb-b50f-a6f2833250ba"},"vehicle_type_id":"4","last_reported":1768987351,"current_range_meters":3600,"station_id":"ce4bhh92rcd13ifvqfj0","pricing_plan_id":"cebpf4jnsgd1na2vs0mg"},{"bike_id":"169f2b14-56ab-4c9b-918e-816ba1cc12a9","system_id":"levelo_inurba_marseille","lat":43.30331,"lon":5.40427,"is_reserved":false,"is_disabled":false,"rental_uris":{"android":"levelo://app?vid=169f2b14-56ab-4c9b-918e-816ba1cc12a9","ios":"levelo://app?vid=169f2b14-56ab-4c9b-918e-816ba1cc12a9"},"vehicle_type_id":"4","last_reported":1768987351,"current_range_meters":3600,"station_id":"ce4bh012rcd13ifvqd10","pricing_plan_id":"cebpf4jnsgd1na2vs0mg"},{"bike_id":"3e57c784-076f-487c-b622-a075cc851190","system_id":"levelo_inurba_marseille","lat":43.2466,"lon":5.3816,"is_reserved":false,"is_disabled":false,"rental_uris":{"android":"levelo://app?vid=3e57c784-076f-487c-b622-a075cc851190","ios":"levelo://app?vid=3e57c784-076f-487c-b622-a075cc851190"},"vehicle_type_id":"4","last_reported":1768987351,"current_range_meters":3600,"station_id":"ce4bhih2rcd13ifvqfr0","pricing_plan_id":"cebpf4jnsgd1na2vs0mg"},{"bike_id":"ab8f0e9e-82c0-4cd4-ae4a-73fe86db6b63","system_id":"levelo_inurba_marseille","lat":43.30159,"lon":5.38084,"is_reserved":false,"is_disabled":false,"rental_uris":{"android":"levelo://app?vid=ab8f0e9e-82c0-4cd4-ae4a-73fe86db6b63","ios":"levelo://app?vid=ab8f0e9e-82c0-4cd4-ae4a-73fe86db6b63"},"vehicle_type_id":"4","last_reported":1768987351,"current_range_meters":3600,"station_id":"ce4bgjp2rcd13ifvqbh0","pricing_plan_id":"cebpf4jnsgd1na2vs0mg"},{"bike_id":"b39775bf-d6cd-479c-8b05-a9c4f279d06b","system_id":"levelo_inurba_marseille","lat":43.28951,"lon":5.363877,"is_reserved":false,"is_disabled":false,"rental_uris":{"android":"levelo://app?vid=b39775bf-d6cd-479c-8b05-a9c4f279d06b","ios":"levelo://app?vid=b39775bf-d6cd-479c-8b05-a9c4f279d06b"},"vehicle_type_id":"4","last_reported":1768987351,"current_range_meters":3600,"station_id":"ce4bhc92rcd13ifvqetg","pricing_plan_id":"cebpf4jnsgd1na2vs0mg"},{"bike_id":"31096d93-1491-4886-84da-d02432ca2a62","system_id":"levelo_inurba_marseille","lat":43.24192,"lon":5.36353,"is_reserved":false,"is_disabled":false,"rental_uris":{"android":"levelo://app?vid=31096d93-1491-4886-84da-d02432ca2a62","ios":"levelo://app?vid=31096d93-1491-4886-84da-d02432ca2a62"},"vehicle_type_id":"4","last_reported":1768987351,"current_range_meters":3600,"station_id":"cpo36qri1sfpv3e86is0","pricing_plan_id":"cebpf4jnsgd1na2vs0mg"},{"bike_id":"c01a2081-77b9-4bca-a28c-0a50c35491c9","system_id":"levelo_inurba_marseille","lat":43.29759,"lon":5.42785,"is_reserved":false,"is_disabled":false,"rental_uris":{"android":"levelo://app?vid=c01a2081-77b9-4bca-a28c-0a50c35491c9","ios":"levelo://app?vid=c01a2081-77b9-4bca-a28c-0a50c35491c9"},"vehicle_type_id":"4","last_reported":1768987351,"current_range_meters":4000,"station_id":"st_d3md5207bmas73dh9klg","pricing_plan_id":"cebpf4jnsgd1na2vs0mg"},{"bike_id":"e1fdb4dc-cda2-4f76-a0c6-e93263e22e80","system_id":"levelo_inurba_marseille","lat":43.29727,"lon":5.38095,"is_reserved":false,"is_disabled":false,"rental_uris":{"android":"levelo://app?vid=e1fdb4dc-cda2-4f76-a0c6-e93263e22e80","ios":"levelo://app?vid=e1fdb4dc-cda2-4f76-a0c6-e93263e22e80"},"vehicle_type_id":"4","last_reported":1768987351,"current_range_meters":4000,"station_id":"","pricing_plan_id":"cebpf4jnsgd1na2vs0mg"},{"bike_id":"d8f9365f-f2b0-46ec-af15-7e5fe3c447d1","system_id":"levelo_inurba_marseille","lat":43.30941,"lon":5.39033,"is_reserved":false,"is_disabled":false,"rental_uris":{"android":"levelo://app?vid=d8f9365f-f2b0-46ec-af15-7e5fe3c447d1","ios":"levelo://app?vid=d8f9365f-f2b0-46ec-af15-7e5fe3c447d1"},"vehicle_type_id":"4","last_reported":1768987351,"current_range_meters":4000,"station_id":"ce4bgup2rcd13ifvqco0","pricing_plan_id":"cebpf4jnsgd1na2vs0mg"},{"bike_id":"faaacbc1-5a19-4efa-9ae2-5a94ffe333dc","system_id":"levelo_inurba_marseille","lat":43.29048,"lon":5.39941,"is_reserved":false,"is_disabled":false,"rental_uris":{"android":"levelo://app?vid=faaacbc1-5a19-4efa-9ae2-5a94ffe333dc","ios":"levelo://app?vid=faaacbc1-5a19-4efa-9ae2-5a94ffe333dc"},"vehicle_type_id":"4","last_reported":1768987351,"current_range_meters":4000,"station_id":"ce4bh392rcd13ifvqdm0","pricing_plan_id":"cebpf4jnsgd1na2vs0mg"},{"bike_id":"ccaef91d-4df9-4bcb-875d-e470e77ac854","system_id":"levelo_inurba_marseille","lat":43.25723,"lon":5.41112,"is_reserved":false,"is_disabled":true,"rental_uris":{"android":"levelo://app?vid=ccaef91d-4df9-4bcb-875d-e470e77ac854","ios":"levelo://app?vid=ccaef91d-4df9-4bcb-875d-e470e77ac854"},"vehicle_type_id":"4","last_reported":1768987351,"current_range_meters":4000,"station_id":"ce4bhkp2rcd13ifvqgd0","pricing_plan_id":"cebpf4jnsgd1na2vs0mg"},{"bike_id":"fbbedfeb-5767-4a40-9eeb-fb558ba05242","system_id":"levelo_inurba_marseille","lat":43.25002,"lon":5.38915,"is_reserved":false,"is_disabled":false,"rental_uris":{"android":"levelo://app?vid=fbbedfeb-5767-4a40-9eeb-fb558ba05242","ios":"levelo://app?vid=fbbedfeb-5767-4a40-9eeb-fb558ba05242"},"vehicle_type_id":"4","last_reported":1768987351,"current_range_meters":4000,"station_id":"ce4bhgp2rcd13ifvqfd0","pricing_plan_id":"cebpf4jnsgd1na2vs0mg"},{"bike_id":"4d9fb050-4361-4bab-ba3c-960b4264587c","system_id":"levelo_inurba_marseille","lat":43.33066,"lon":5.39052,"is_reserved":false,"is_disabled":false,"rental_uris":{"android":"levelo://app?vid=4d9fb050-4361-4bab-ba3c-960b4264587c","ios":"levelo://app?vid=4d9fb050-4361-4bab-ba3c-960b4264587c"},"vehicle_type_id":"4","last_reported":1768987351,"current_range_meters":4000,"station_id":"","pricing_plan_id":"cebpf4jnsgd1na2vs0mg"},{"bike_id":"2df2b395-8651-45e0-b24b-6ceb74dd000d","system_id":"levelo_inurba_marseille","lat":43.30964,"lon":5.39042,"is_reserved":false,"is_disabled":false,"rental_uris":{"android":"levelo://app?vid=2df2b395-8651-45e0-b24b-6ceb74dd000d","ios":"levelo://app?vid=2df2b395-8651-45e0-b24b-6ceb74dd000d"},"vehicle_type_id":"4","last_reported":1768987351,"current_range_meters":4000,"station_id":"ce4bgup2rcd13ifvqco0","pricing_plan_id":"cebpf4jnsgd1na2vs0mg"},{"bike_id":"52a8e2dc-a331-438b-8cd8-653c6d5644ae","system_id":"levelo_inurba_marseille","lat":43.275405,"lon":5.384531,"is_reserved":false,"is_disabled":false,"rental_uris":{"android":"levelo://app?vid=52a8e2dc-a331-438b-8cd8-653c6d5644ae","ios":"levelo://app?vid=52a8e2dc-a331-438b-8cd8-653c6d5644ae"},"vehicle_type_id":"4","last_reported":1768987351,"current_range_meters":4000,"station_id":"","pricing_plan_id":"cebpf4jnsgd1na2vs0mg"},{"bike_id":"5b9eb033-b02c-4503-b213-6457e2457b37","system_id":"levelo_inurba_marseille","lat":43.30116,"lon":5.38777,"is_reserved":false,"is_disabled":true,"rental_uris":{"android":"levelo://app?vid=5b9eb033-b02c-4503-b213-6457e2457b37","ios":"levelo://app?vid=5b9eb033-b02c-4503-b213-6457e2457b37"},"vehicle_type_id":"4","last_reported":1768987351,"current_range_meters":4000,"station_id":"ce4bghh2rcd13ifvqb60","pricing_plan_id":"cebpf4jnsgd1na2vs0mg"},{"bike_id":"d21d2665-7535-4f09-8212-7d04d7b29927","system_id":"levelo_inurba_marseille","lat":43.32493,"lon":5.38297,"is_reserved":false,"is_disabled":false,"rental_uris":{"android":"levelo://app?vid=d21d2665-7535-4f09-8212-7d04d7b29927","ios":"levelo://app?vid=d21d2665-7535-4f09-8212-7d04d7b29927"},"vehicle_type_id":"4","last_reported":1768987351,"current_range_meters":4000,"station_id":"st_d4asgbiv49dc73anf9m0","pricing_plan_id":"cebpf4jnsgd1na2vs0mg"},{"bike_id":"1714e9ac-fe45-44b7-b95b-ee43c0a44989","system_id":"levelo_inurba_marseille","lat":43.32548,"lon":5.41438,"is_reserved":false,"is_disabled":false,"rental_uris":{"android":"levelo://app?vid=1714e9ac-fe45-44b7-b95b-ee43c0a44989","ios":"levelo://app?vid=1714e9ac-fe45-44b7-b95b-ee43c0a44989"},"vehicle_type_id":"4","last_reported":1768987351,"current_range_meters":4000,"station_id":"ce4bhq12rcd13ifvqhhg","pricing_plan_id":"cebpf4jnsgd1na2vs0mg"},{"bike_id":"ce65da15-5103-4c08-86e5-b4783ea2b238","system_id":"levelo_inurba_marseille","lat":43.29313,"lon":5.37181,"is_reserved":false,"is_disabled":false,"rental_uris":{"android":"levelo://app?vid=ce65da15-5103-4c08-86e5-b4783ea2b238","ios":"levelo://app?vid=ce65da15-5103-4c08-86e5-b4783ea2b238"},"vehicle_type_id":"4","last_reported":1768987351,"current_range_meters":4000,"station_id":"ce4bgh92rcd13ifvqb40","pricing_plan_id":"cebpf4jnsgd1na2vs0mg"},{"bike_id":"4b68c0f2-a098-4371-9aa9-73b5399ef6fa","system_id":"levelo_inurba_marseille","lat":43.25579,"lon":5.38235,"is_reserved":false,"is_disabled":false,"rental_uris":{"android":"levelo://app?vid=4b68c0f2-a098-4371-9aa9-73b5399ef6fa","ios":"levelo://app?vid=4b68c0f2-a098-4371-9aa9-73b5399ef6fa"},"vehicle_type_id":"4","last_reported":1768987351,"current_range_meters":4000,"station_id":"ce4bhih2rcd13ifvqfs0","pricing_plan_id":"cebpf4jnsgd1na2vs0mg"},{"bike_id":"5d6ec190-4e3f-4728-8145-239caf53150f","system_id":"levelo_inurba_marseille","lat":43.3068,"lon":5.40301,"is_reserved":false,"is_disabled":false,"rental_uris":{"android":"levelo://app?vid=5d6ec190-4e3f-4728-8145-239caf53150f","ios":"levelo://app?vid=5d6ec190-4e3f-4728-8145-239caf53150f"},"vehicle_type_id":"4","last_reported":1768987351,"current_range_meters":4000,"station_id":"","pricing_plan_id":"cebpf4jnsgd1na2vs0mg"},{"bike_id":"73ae4884-9252-4ee5-8e21-86034c5de9a8","system_id":"levelo_inurba_marseille","lat":43.29188,"lon":5.37113,"is_reserved":false,"is_disabled":false,"rental_uris":{"android":"levelo://app?vid=73ae4884-9252-4ee5-8e21-86034c5de9a8","ios":"levelo://app?vid=73ae4884-9252-4ee5-8e21-86034c5de9a8"},"vehicle_type_id":"4","last_reported":1768987351,"current_range_meters":4400,"station_id":"ce4bha92rcd13ifvqeh0","pricing_plan_id":"cebpf4jnsgd1na2vs0mg"},{"bike_id":"d2cb0070-0422-466b-b462-1892f78475a2","system_id":"levelo_inurba_marseille","lat":43.22944,"lon":5.35393,"is_reserved":false,"is_disabled":true,"rental_uris":{"android":"levelo://app?vid=d2cb0070-0422-466b-b462-1892f78475a2","ios":"levelo://app?vid=d2cb0070-0422-466b-b462-1892f78475a2"},"vehicle_type_id":"4","last_reported":1768987351,"current_range_meters":4400,"station_id":"cpo3532slgdg3j2ikp40","pricing_plan_id":"cebpf4jnsgd1na2vs0mg"},{"bike_id":"8794cdb3-b07a-4a6a-b8a7-d49e68bcc2e0","system_id":"levelo_inurba_marseille","lat":43.278109,"lon":5.407113,"is_reserved":false,"is_disabled":false,"rental_uris":{"android":"levelo://app?vid=8794cdb3-b07a-4a6a-b8a7-d49e68bcc2e0","ios":"levelo://app?vid=8794cdb3-b07a-4a6a-b8a7-d49e68bcc2e0"},"vehicle_type_id":"4","last_reported":1768987351,"current_range_meters":4400,"station_id":"ce4bhnh2rcd13ifvqgtg","pricing_plan_id":"cebpf4jnsgd1na2vs0mg"},{"bike_id":"52c85b02-607c-4226-bd7b-fd246dd2dae8","system_id":"levelo_inurba_marseille","lat":43.2257,"lon":5.41619,"is_reserved":false,"is_disabled":false,"rental_uris":{"android":"levelo://app?vid=52c85b02-607c-4226-bd7b-fd246dd2dae8","ios":"levelo://app?vid=52c85b02-607c-4226-bd7b-fd246dd2dae8"},"vehicle_type_id":"4","last_reported":1768987351,"current_range_meters":4400,"station_id":"st_d2o4gvlbi1j2169b742g","pricing_plan_id":"cebpf4jnsgd1na2vs0mg"},{"bike_id":"10483c0a-1726-407f-8492-2530493c0d67","system_id":"levelo_inurba_marseille","lat":43.25001,"lon":5.38927,"is_reserved":false,"is_disabled":false,"rental_uris":{"android":"levelo://app?vid=10483c0a-1726-407f-8492-2530493c0d67","ios":"levelo://app?vid=10483c0a-1726-407f-8492-2530493c0d67"},"vehicle_type_id":"4","last_reported":1768987351,"current_range_meters":4400,"station_id":"ce4bhgp2rcd13ifvqfd0","pricing_plan_id":"cebpf4jnsgd1na2vs0mg"},{"bike_id":"ddfe9451-ee7a-4f61-bd9c-d247b1f0416a","system_id":"levelo_inurba_marseille","lat":43.26238,"lon":5.40445,"is_reserved":false,"is_disabled":false,"rental_uris":{"android":"levelo://app?vid=ddfe9451-ee7a-4f61-bd9c-d247b1f0416a","ios":"levelo://app?vid=ddfe9451-ee7a-4f61-bd9c-d247b1f0416a"},"vehicle_type_id":"4","last_reported":1768987351,"current_range_meters":4400,"station_id":"ce4bhmh2rcd13ifvqgmg","pricing_plan_id":"cebpf4jnsgd1na2vs0mg"},{"bike_id":"5c5d8eba-7ee4-4e8f-8c15-5f2384fc7801","system_id":"levelo_inurba_marseille","lat":43.29938,"lon":5.36524,"is_reserved":false,"is_disabled":false,"rental_uris":{"android":"levelo://app?vid=5c5d8eba-7ee4-4e8f-8c15-5f2384fc7801","ios":"levelo://app?vid=5c5d8eba-7ee4-4e8f-8c15-5f2384fc7801"},"vehicle_type_id":"4","last_reported":1768987351,"current_range_meters":4400,"station_id":"ce4bgm92rcd13ifvqbr0","pricing_plan_id":"cebpf4jnsgd1na2vs0mg"},{"bike_id":"9dff9bae-d519-49ab-850f-a6b93762d1fc","system_id":"levelo_inurba_marseille","lat":43.25347,"lon":5.42183,"is_reserved":false,"is_disabled":false,"rental_uris":{"android":"levelo://app?vid=9dff9bae-d519-49ab-850f-a6b93762d1fc","ios":"levelo://app?vid=9dff9bae-d519-49ab-850f-a6b93762d1fc"},"vehicle_type_id":"4","last_reported":1768987351,"current_range_meters":4400,"station_id":"st_d2m65c5bi1j21697t3ng","pricing_plan_id":"cebpf4jnsgd1na2vs0mg"},{"bike_id":"9212e46b-13fd-4057-8d99-2da36d0d74d0","system_id":"levelo_inurba_marseille","lat":43.2696,"lon":5.3863,"is_reserved":false,"is_disabled":false,"rental_uris":{"android":"levelo://app?vid=9212e46b-13fd-4057-8d99-2da36d0d74d0","ios":"levelo://app?vid=9212e46b-13fd-4057-8d99-2da36d0d74d0"},"vehicle_type_id":"4","last_reported":1768987351,"current_range_meters":4400,"station_id":"ce4bhh92rcd13ifvqfh0","pricing_plan_id":"cebpf4jnsgd1na2vs0mg"},{"bike_id":"f9c756b7-6ab4-4842-b242-46f06e32e85d","system_id":"levelo_inurba_marseille","lat":43.279978,"lon":5.400126,"is_reserved":false,"is_disabled":false,"rental_uris":{"android":"levelo://app?vid=f9c756b7-6ab4-4842-b242-46f06e32e85d","ios":"levelo://app?vid=f9c756b7-6ab4-4842-b242-46f06e32e85d"},"vehicle_type_id":"4","last_reported":1768987351,"current_range_meters":4800,"station_id":"ce4bho92rcd13ifvqh4g","pricing_plan_id":"cebpf4jnsgd1na2vs0mg"},{"bike_id":"3c5b1e7e-87c7-4a96-bd4f-174256b4cc8c","system_id":"levelo_inurba_marseille","lat":43.29923,"lon":5.381033,"is_reserved":false,"is_disabled":false,"rental_uris":{"android":"levelo://app?vid=3c5b1e7e-87c7-4a96-bd4f-174256b4cc8c","ios":"levelo://app?vid=3c5b1e7e-87c7-4a96-bd4f-174256b4cc8c"},"vehicle_type_id":"4","last_reported":1768987351,"current_range_meters":4800,"station_id":"ce4bgj12rcd13ifvqbc0","pricing_plan_id":"cebpf4jnsgd1na2vs0mg"},{"bike_id":"f58dc067-4dd9-4635-8ae5-365aced9c977","system_id":"levelo_inurba_marseille","lat":43.26217,"lon":5.40462,"is_reserved":false,"is_disabled":false,"rental_uris":{"android":"levelo://app?vid=f58dc067-4dd9-4635-8ae5-365aced9c977","ios":"levelo://app?vid=f58dc067-4dd9-4635-8ae5-365aced9c977"},"vehicle_type_id":"4","last_reported":1768987351,"current_range_meters":4800,"station_id":"ce4bhmh2rcd13ifvqgmg","pricing_plan_id":"cebpf4jnsgd1na2vs0mg"},{"bike_id":"099d4d88-1489-4ec3-8c4c-e82eb82618bf","system_id":"levelo_inurba_marseille","lat":43.296335,"lon":5.377075,"is_reserved":false,"is_disabled":false,"rental_uris":{"android":"levelo://app?vid=099d4d88-1489-4ec3-8c4c-e82eb82618bf","ios":"levelo://app?vid=099d4d88-1489-4ec3-8c4c-e82eb82618bf"},"vehicle_type_id":"4","last_reported":1768987351,"current_range_meters":4800,"station_id":"ce4bgi92rcd13ifvqb90","pricing_plan_id":"cebpf4jnsgd1na2vs0mg"},{"bike_id":"35eb0f0f-42a8-4fd5-956e-bec6aa3f7ee3","system_id":"levelo_inurba_marseille","lat":43.231788,"lon":5.399988,"is_reserved":false,"is_disabled":false,"rental_uris":{"android":"levelo://app?vid=35eb0f0f-42a8-4fd5-956e-bec6aa3f7ee3","ios":"levelo://app?vid=35eb0f0f-42a8-4fd5-956e-bec6aa3f7ee3"},"vehicle_type_id":"4","last_reported":1768987351,"current_range_meters":4800,"station_id":"ce4bhn12rcd13ifvqgqg","pricing_plan_id":"cebpf4jnsgd1na2vs0mg"},{"bike_id":"e775e37a-88b9-408c-8364-888bc63e91d3","system_id":"levelo_inurba_marseille","lat":43.24389,"lon":5.37079,"is_reserved":false,"is_disabled":false,"rental_uris":{"android":"levelo://app?vid=e775e37a-88b9-408c-8364-888bc63e91d3","ios":"levelo://app?vid=e775e37a-88b9-408c-8364-888bc63e91d3"},"vehicle_type_id":"4","last_reported":1768987351,"current_range_meters":4800,"station_id":"ce4bhhh2rcd13ifvqfk0","pricing_plan_id":"cebpf4jnsgd1na2vs0mg"},{"bike_id":"05445378-8a5d-473e-a02e-3796d63a29c8","system_id":"levelo_inurba_marseille","lat":43.26362,"lon":5.41075,"is_reserved":false,"is_disabled":false,"rental_uris":{"android":"levelo://app?vid=05445378-8a5d-473e-a02e-3796d63a29c8","ios":"levelo://app?vid=05445378-8a5d-473e-a02e-3796d63a29c8"},"vehicle_type_id":"4","last_reported":1768987351,"current_range_meters":4800,"station_id":"st_d4e5ca6na9uc73bfl5fg","pricing_plan_id":"cebpf4jnsgd1na2vs0mg"},{"bike_id":"053bfcff-e6f6-44b6-9d91-650c48e762bf","system_id":"levelo_inurba_marseille","lat":43.26813,"lon":5.39416,"is_reserved":false,"is_disabled":false,"rental_uris":{"android":"levelo://app?vid=053bfcff-e6f6-44b6-9d91-650c48e762bf","ios":"levelo://app?vid=053bfcff-e6f6-44b6-9d91-650c48e762bf"},"vehicle_type_id":"4","last_reported":1768987351,"current_range_meters":5600,"station_id":"ce4bhh12rcd13ifvqfg0","pricing_plan_id":"cebpf4jnsgd1na2vs0mg"},{"bike_id":"00926366-40d2-4692-a7fe-1fb3b69e53b6","system_id":"levelo_inurba_marseille","lat":43.32484,"lon":5.36551,"is_reserved":false,"is_disabled":false,"rental_uris":{"android":"levelo://app?vid=00926366-40d2-4692-a7fe-1fb3b69e53b6","ios":"levelo://app?vid=00926366-40d2-4692-a7fe-1fb3b69e53b6"},"vehicle_type_id":"4","last_reported":1768987351,"current_range_meters":5600,"station_id":"ce4bhs12rcd13ifvqhvg","pricing_plan_id":"cebpf4jnsgd1na2vs0mg"},{"bike_id":"04d1fa74-7078-4e54-86c0-c9d3f7b08c45","system_id":"levelo_inurba_marseille","lat":43.25558,"lon":5.3827,"is_reserved":false,"is_disabled":false,"rental_uris":{"android":"levelo://app?vid=04d1fa74-7078-4e54-86c0-c9d3f7b08c45","ios":"levelo://app?vid=04d1fa74-7078-4e54-86c0-c9d3f7b08c45"},"vehicle_type_id":"4","last_reported":1768987351,"current_range_meters":5600,"station_id":"ce4bhih2rcd13ifvqfs0","pricing_plan_id":"cebpf4jnsgd1na2vs0mg"},{"bike_id":"ff420292-33a4-47f1-b129-ae45e1e7b7ea","system_id":"levelo_inurba_marseille","lat":43.29181,"lon":5.36034,"is_reserved":false,"is_disabled":false,"rental_uris":{"android":"levelo://app?vid=ff420292-33a4-47f1-b129-ae45e1e7b7ea","ios":"levelo://app?vid=ff420292-33a4-47f1-b129-ae45e1e7b7ea"},"vehicle_type_id":"4","last_reported":1768987351,"current_range_meters":5600,"station_id":"ce4bhbh2rcd13ifvqeqg","pricing_plan_id":"cebpf4jnsgd1na2vs0mg"},{"bike_id":"f5fab0e4-c6bd-455b-baa2-b66533c19e20","system_id":"levelo_inurba_marseille","lat":43.31366,"lon":5.38488,"is_reserved":false,"is_disabled":false,"rental_uris":{"android":"levelo://app?vid=f5fab0e4-c6bd-455b-baa2-b66533c19e20","ios":"levelo://app?vid=f5fab0e4-c6bd-455b-baa2-b66533c19e20"},"vehicle_type_id":"4","last_reported":1768987351,"current_range_meters":5600,"station_id":"ce4bgt92rcd13ifvqcf0","pricing_plan_id":"cebpf4jnsgd1na2vs0mg"},{"bike_id":"19ca583d-7faf-46a9-bc17-9888cafe49df","system_id":"levelo_inurba_marseille","lat":43.28337,"lon":5.38115,"is_reserved":false,"is_disabled":false,"rental_uris":{"android":"levelo://app?vid=19ca583d-7faf-46a9-bc17-9888cafe49df","ios":"levelo://app?vid=19ca583d-7faf-46a9-bc17-9888cafe49df"},"vehicle_type_id":"4","last_reported":1768987351,"current_range_meters":5600,"station_id":"ce4bh412rcd13ifvqdr0","pricing_plan_id":"cebpf4jnsgd1na2vs0mg"},{"bike_id":"87a84f1a-44a6-4bd8-83cc-698fe41789c4","system_id":"levelo_inurba_marseille","lat":43.290714,"lon":5.371711,"is_reserved":false,"is_disabled":false,"rental_uris":{"android":"levelo://app?vid=87a84f1a-44a6-4bd8-83cc-698fe41789c4","ios":"levelo://app?vid=87a84f1a-44a6-4bd8-83cc-698fe41789c4"},"vehicle_type_id":"4","last_reported":1768987351,"current_range_meters":5600,"station_id":"ce4bh5p2rcd13ifvqe4g","pricing_plan_id":"cebpf4jnsgd1na2vs0mg"},{"bike_id":"5dbfcf3f-7cec-4c29-8168-14f9c37f7762","system_id":"levelo_inurba_marseille","lat":43.22555,"lon":5.41637,"is_reserved":false,"is_disabled":false,"rental_uris":{"android":"levelo://app?vid=5dbfcf3f-7cec-4c29-8168-14f9c37f7762","ios":"levelo://app?vid=5dbfcf3f-7cec-4c29-8168-14f9c37f7762"},"vehicle_type_id":"4","last_reported":1768987351,"current_range_meters":5600,"station_id":"st_d2o4gvlbi1j2169b742g","pricing_plan_id":"cebpf4jnsgd1na2vs0mg"},{"bike_id":"66160d64-23f9-4d70-b989-daa254cf260e","system_id":"levelo_inurba_marseille","lat":43.28154,"lon":5.42657,"is_reserved":false,"is_disabled":true,"rental_uris":{"android":"levelo://app?vid=66160d64-23f9-4d70-b989-daa254cf260e","ios":"levelo://app?vid=66160d64-23f9-4d70-b989-daa254cf260e"},"vehicle_type_id":"4","last_reported":1768987351,"current_range_meters":5600,"station_id":"ce4bhnh2rcd13ifvqgug","pricing_plan_id":"cebpf4jnsgd1na2vs0mg"},{"bike_id":"7667f2bf-976d-4261-8a3e-92df91d2fdcb","system_id":"levelo_inurba_marseille","lat":43.2681,"lon":5.39402,"is_reserved":false,"is_disabled":false,"rental_uris":{"android":"levelo://app?vid=7667f2bf-976d-4261-8a3e-92df91d2fdcb","ios":"levelo://app?vid=7667f2bf-976d-4261-8a3e-92df91d2fdcb"},"vehicle_type_id":"4","last_reported":1768987351,"current_range_meters":5600,"station_id":"ce4bhh12rcd13ifvqfg0","pricing_plan_id":"cebpf4jnsgd1na2vs0mg"},{"bike_id":"f28dab8c-22b5-43d8-96b4-ff15ffb80192","system_id":"levelo_inurba_marseille","lat":43.29797,"lon":5.42809,"is_reserved":false,"is_disabled":false,"rental_uris":{"android":"levelo://app?vid=f28dab8c-22b5-43d8-96b4-ff15ffb80192","ios":"levelo://app?vid=f28dab8c-22b5-43d8-96b4-ff15ffb80192"},"vehicle_type_id":"4","last_reported":1768987351,"current_range_meters":5600,"station_id":"st_d3md5207bmas73dh9klg","pricing_plan_id":"cebpf4jnsgd1na2vs0mg"},{"bike_id":"7c700a8b-d982-4803-90c3-d9ad5d47fcf3","system_id":"levelo_inurba_marseille","lat":43.283486,"lon":5.381013,"is_reserved":false,"is_disabled":false,"rental_uris":{"android":"levelo://app?vid=7c700a8b-d982-4803-90c3-d9ad5d47fcf3","ios":"levelo://app?vid=7c700a8b-d982-4803-90c3-d9ad5d47fcf3"},"vehicle_type_id":"4","last_reported":1768987351,"current_range_meters":5600,"station_id":"ce4bh412rcd13ifvqdr0","pricing_plan_id":"cebpf4jnsgd1na2vs0mg"},{"bike_id":"ae82840e-6713-4278-be7e-382935799675","system_id":"levelo_inurba_marseille","lat":43.323493,"lon":5.385083,"is_reserved":false,"is_disabled":false,"rental_uris":{"android":"levelo://app?vid=ae82840e-6713-4278-be7e-382935799675","ios":"levelo://app?vid=ae82840e-6713-4278-be7e-382935799675"},"vehicle_type_id":"4","last_reported":1768987351,"current_range_meters":5600,"station_id":"st_d45171o9ee8s73djdqug","pricing_plan_id":"cebpf4jnsgd1na2vs0mg"},{"bike_id":"c9632c24-d4ba-453f-a643-952c5a012a8a","system_id":"levelo_inurba_marseille","lat":43.2258,"lon":5.41622,"is_reserved":false,"is_disabled":false,"rental_uris":{"android":"levelo://app?vid=c9632c24-d4ba-453f-a643-952c5a012a8a","ios":"levelo://app?vid=c9632c24-d4ba-453f-a643-952c5a012a8a"},"vehicle_type_id":"4","last_reported":1768987351,"current_range_meters":6000,"station_id":"st_d2o4gvlbi1j2169b742g","pricing_plan_id":"cebpf4jnsgd1na2vs0mg"},{"bike_id":"a53ce889-7f48-423c-a39a-8f7e906a512a","system_id":"levelo_inurba_marseille","lat":43.26684,"lon":5.38277,"is_reserved":false,"is_disabled":false,"rental_uris":{"android":"levelo://app?vid=a53ce889-7f48-423c-a39a-8f7e906a512a","ios":"levelo://app?vid=a53ce889-7f48-423c-a39a-8f7e906a512a"},"vehicle_type_id":"4","last_reported":1768987351,"current_range_meters":6000,"station_id":"ce4bhg92rcd13ifvqf90","pricing_plan_id":"cebpf4jnsgd1na2vs0mg"},{"bike_id":"c8b36723-7039-4b4e-b709-3c4707457d93","system_id":"levelo_inurba_marseille","lat":43.23963,"lon":5.36649,"is_reserved":false,"is_disabled":false,"rental_uris":{"android":"levelo://app?vid=c8b36723-7039-4b4e-b709-3c4707457d93","ios":"levelo://app?vid=c8b36723-7039-4b4e-b709-3c4707457d93"},"vehicle_type_id":"4","last_reported":1768987351,"current_range_meters":6000,"station_id":"ce4bhi12rcd13ifvqfp0","pricing_plan_id":"cebpf4jnsgd1na2vs0mg"},{"bike_id":"7c860edb-32a4-4e9c-bf66-fe03b3b3e5ba","system_id":"levelo_inurba_marseille","lat":43.31701,"lon":5.3782,"is_reserved":false,"is_disabled":false,"rental_uris":{"android":"levelo://app?vid=7c860edb-32a4-4e9c-bf66-fe03b3b3e5ba","ios":"levelo://app?vid=7c860edb-32a4-4e9c-bf66-fe03b3b3e5ba"},"vehicle_type_id":"4","last_reported":1768987351,"current_range_meters":6000,"station_id":"ce4bgth2rcd13ifvqch0","pricing_plan_id":"cebpf4jnsgd1na2vs0mg"},{"bike_id":"02b19501-ae2b-4d21-ae93-ce26586838ae","system_id":"levelo_inurba_marseille","lat":43.29556,"lon":5.42301,"is_reserved":false,"is_disabled":false,"rental_uris":{"android":"levelo://app?vid=02b19501-ae2b-4d21-ae93-ce26586838ae","ios":"levelo://app?vid=02b19501-ae2b-4d21-ae93-ce26586838ae"},"vehicle_type_id":"4","last_reported":1768987351,"current_range_meters":6000,"station_id":"ce4bhph2rcd13ifvqhdg","pricing_plan_id":"cebpf4jnsgd1na2vs0mg"},{"bike_id":"7d2f250a-191b-441d-876b-7325dd6245a6","system_id":"levelo_inurba_marseille","lat":43.24991,"lon":5.38942,"is_reserved":false,"is_disabled":false,"rental_uris":{"android":"levelo://app?vid=7d2f250a-191b-441d-876b-7325dd6245a6","ios":"levelo://app?vid=7d2f250a-191b-441d-876b-7325dd6245a6"},"vehicle_type_id":"4","last_reported":1768987351,"current_range_meters":6000,"station_id":"ce4bhgp2rcd13ifvqfd0","pricing_plan_id":"cebpf4jnsgd1na2vs0mg"},{"bike_id":"c103ce9c-0aaa-4a53-b373-a704be8ed706","system_id":"levelo_inurba_marseille","lat":43.25326,"lon":5.42178,"is_reserved":false,"is_disabled":false,"rental_uris":{"android":"levelo://app?vid=c103ce9c-0aaa-4a53-b373-a704be8ed706","ios":"levelo://app?vid=c103ce9c-0aaa-4a53-b373-a704be8ed706"},"vehicle_type_id":"4","last_reported":1768987351,"current_range_meters":6000,"station_id":"st_d2m65c5bi1j21697t3ng","pricing_plan_id":"cebpf4jnsgd1na2vs0mg"},{"bike_id":"b121601a-6e7a-428f-a3ab-7a3f4a6e400e","system_id":"levelo_inurba_marseille","lat":43.274969,"lon":5.424491,"is_reserved":false,"is_disabled":false,"rental_uris":{"android":"levelo://app?vid=b121601a-6e7a-428f-a3ab-7a3f4a6e400e","ios":"levelo://app?vid=b121601a-6e7a-428f-a3ab-7a3f4a6e400e"},"vehicle_type_id":"4","last_reported":1768987351,"current_range_meters":6000,"station_id":"ce4bhn92rcd13ifvqgrg","pricing_plan_id":"cebpf4jnsgd1na2vs0mg"},{"bike_id":"2cf1ea64-26bb-4964-939a-03465aee6659","system_id":"levelo_inurba_marseille","lat":43.22571,"lon":5.41593,"is_reserved":false,"is_disabled":false,"rental_uris":{"android":"levelo://app?vid=2cf1ea64-26bb-4964-939a-03465aee6659","ios":"levelo://app?vid=2cf1ea64-26bb-4964-939a-03465aee6659"},"vehicle_type_id":"4","last_reported":1768987351,"current_range_meters":6000,"station_id":"st_d2o4gvlbi1j2169b742g","pricing_plan_id":"cebpf4jnsgd1na2vs0mg"},{"bike_id":"8155f86b-6d64-4287-9ed7-7fbe9d103dde","system_id":"levelo_inurba_marseille","lat":43.22563,"lon":5.41626,"is_reserved":false,"is_disabled":false,"rental_uris":{"android":"levelo://app?vid=8155f86b-6d64-4287-9ed7-7fbe9d103dde","ios":"levelo://app?vid=8155f86b-6d64-4287-9ed7-7fbe9d103dde"},"vehicle_type_id":"4","last_reported":1768987351,"current_range_meters":6000,"station_id":"st_d2o4gvlbi1j2169b742g","pricing_plan_id":"cebpf4jnsgd1na2vs0mg"},{"bike_id":"ac0840ef-d679-4a48-ba3d-ba1d3f1538b5","system_id":"levelo_inurba_marseille","lat":43.26212,"lon":5.37436,"is_reserved":false,"is_disabled":false,"rental_uris":{"android":"levelo://app?vid=ac0840ef-d679-4a48-ba3d-ba1d3f1538b5","ios":"levelo://app?vid=ac0840ef-d679-4a48-ba3d-ba1d3f1538b5"},"vehicle_type_id":"4","last_reported":1768987351,"current_range_meters":6000,"station_id":"ce4bhgp2rcd13ifvqfc0","pricing_plan_id":"cebpf4jnsgd1na2vs0mg"},{"bike_id":"6ab75a67-36a5-4a00-a07b-b61a6fb6908d","system_id":"levelo_inurba_marseille","lat":43.31173,"lon":5.38704,"is_reserved":false,"is_disabled":false,"rental_uris":{"android":"levelo://app?vid=6ab75a67-36a5-4a00-a07b-b61a6fb6908d","ios":"levelo://app?vid=6ab75a67-36a5-4a00-a07b-b61a6fb6908d"},"vehicle_type_id":"4","last_reported":1768987351,"current_range_meters":6400,"station_id":"ce4bgv12rcd13ifvqcp0","pricing_plan_id":"cebpf4jnsgd1na2vs0mg"},{"bike_id":"7f57e4b7-adcc-40f6-a2f9-1294ef7abba0","system_id":"levelo_inurba_marseille","lat":43.3092,"lon":5.3685,"is_reserved":false,"is_disabled":false,"rental_uris":{"android":"levelo://app?vid=7f57e4b7-adcc-40f6-a2f9-1294ef7abba0","ios":"levelo://app?vid=7f57e4b7-adcc-40f6-a2f9-1294ef7abba0"},"vehicle_type_id":"4","last_reported":1768987351,"current_range_meters":6400,"station_id":"ce4bgn92rcd13ifvqbvg","pricing_plan_id":"cebpf4jnsgd1na2vs0mg"},{"bike_id":"6e50e476-9f25-4995-9509-c2441134ff96","system_id":"levelo_inurba_marseille","lat":43.2998,"lon":5.38488,"is_reserved":false,"is_disabled":false,"rental_uris":{"android":"levelo://app?vid=6e50e476-9f25-4995-9509-c2441134ff96","ios":"levelo://app?vid=6e50e476-9f25-4995-9509-c2441134ff96"},"vehicle_type_id":"4","last_reported":1768987351,"current_range_meters":6400,"station_id":"ce4bgj92rcd13ifvqbd0","pricing_plan_id":"cebpf4jnsgd1na2vs0mg"},{"bike_id":"f45dde0d-32e4-4c00-9cdd-225858c7657c","system_id":"levelo_inurba_marseille","lat":43.25007,"lon":5.38916,"is_reserved":false,"is_disabled":false,"rental_uris":{"android":"levelo://app?vid=f45dde0d-32e4-4c00-9cdd-225858c7657c","ios":"levelo://app?vid=f45dde0d-32e4-4c00-9cdd-225858c7657c"},"vehicle_type_id":"4","last_reported":1768987351,"current_range_meters":6400,"station_id":"ce4bhgp2rcd13ifvqfd0","pricing_plan_id":"cebpf4jnsgd1na2vs0mg"},{"bike_id":"6ed8c7ae-caef-4abd-a9d4-aaf7d0882a8a","system_id":"levelo_inurba_marseille","lat":43.29545,"lon":5.37732,"is_reserved":false,"is_disabled":false,"rental_uris":{"android":"levelo://app?vid=6ed8c7ae-caef-4abd-a9d4-aaf7d0882a8a","ios":"levelo://app?vid=6ed8c7ae-caef-4abd-a9d4-aaf7d0882a8a"},"vehicle_type_id":"4","last_reported":1768987351,"current_range_meters":6400,"station_id":"","pricing_plan_id":"cebpf4jnsgd1na2vs0mg"},{"bike_id":"02bb5eed-6d46-4907-942b-2953f5d09c0c","system_id":"levelo_inurba_marseille","lat":43.30926,"lon":5.36833,"is_reserved":false,"is_disabled":false,"rental_uris":{"android":"levelo://app?vid=02bb5eed-6d46-4907-942b-2953f5d09c0c","ios":"levelo://app?vid=02bb5eed-6d46-4907-942b-2953f5d09c0c"},"vehicle_type_id":"4","last_reported":1768987351,"current_range_meters":6400,"station_id":"ce4bgn92rcd13ifvqbvg","pricing_plan_id":"cebpf4jnsgd1na2vs0mg"},{"bike_id":"f1d4233d-2911-4edf-a268-ad1589486129","system_id":"levelo_inurba_marseille","lat":43.24175,"lon":5.3973,"is_reserved":false,"is_disabled":false,"rental_uris":{"android":"levelo://app?vid=f1d4233d-2911-4edf-a268-ad1589486129","ios":"levelo://app?vid=f1d4233d-2911-4edf-a268-ad1589486129"},"vehicle_type_id":"4","last_reported":1768987351,"current_range_meters":6400,"station_id":"ce4bhn12rcd13ifvqgpg","pricing_plan_id":"cebpf4jnsgd1na2vs0mg"},{"bike_id":"9b700aaa-f410-47e9-94c3-22935fd2c1b6","system_id":"levelo_inurba_marseille","lat":43.28255,"lon":5.35064,"is_reserved":false,"is_disabled":false,"rental_uris":{"android":"levelo://app?vid=9b700aaa-f410-47e9-94c3-22935fd2c1b6","ios":"levelo://app?vid=9b700aaa-f410-47e9-94c3-22935fd2c1b6"},"vehicle_type_id":"4","last_reported":1768987351,"current_range_meters":6400,"station_id":"ce4bhbp2rcd13ifvqerg","pricing_plan_id":"cebpf4jnsgd1na2vs0mg"},{"bike_id":"ae14426c-d055-48d5-a4ff-6e0b03ad465f","system_id":"levelo_inurba_marseille","lat":43.258208,"lon":5.39439,"is_reserved":false,"is_disabled":false,"rental_uris":{"android":"levelo://app?vid=ae14426c-d055-48d5-a4ff-6e0b03ad465f","ios":"levelo://app?vid=ae14426c-d055-48d5-a4ff-6e0b03ad465f"},"vehicle_type_id":"4","last_reported":1768987351,"current_range_meters":6400,"station_id":"ce4bhip2rcd13ifvqft0","pricing_plan_id":"cebpf4jnsgd1na2vs0mg"},{"bike_id":"9c35b422-d216-44eb-8867-88db04bcc71b","system_id":"levelo_inurba_marseille","lat":43.24048,"lon":5.3775,"is_reserved":false,"is_disabled":false,"rental_uris":{"android":"levelo://app?vid=9c35b422-d216-44eb-8867-88db04bcc71b","ios":"levelo://app?vid=9c35b422-d216-44eb-8867-88db04bcc71b"},"vehicle_type_id":"4","last_reported":1768987351,"current_range_meters":6400,"station_id":"ce4bhnp2rcd13ifvqgvg","pricing_plan_id":"cebpf4jnsgd1na2vs0mg"},{"bike_id":"3d18778b-f5ba-4b18-b583-29c167fe5bef","system_id":"levelo_inurba_marseille","lat":43.28467,"lon":5.3588,"is_reserved":false,"is_disabled":false,"rental_uris":{"android":"levelo://app?vid=3d18778b-f5ba-4b18-b583-29c167fe5bef","ios":"levelo://app?vid=3d18778b-f5ba-4b18-b583-29c167fe5bef"},"vehicle_type_id":"4","last_reported":1768987351,"current_range_meters":6400,"station_id":"ce4bhah2rcd13ifvqei0","pricing_plan_id":"cebpf4jnsgd1na2vs0mg"},{"bike_id":"771a7117-ea11-4280-b227-e2538ba6ae1d","system_id":"levelo_inurba_marseille","lat":43.30302,"lon":5.39201,"is_reserved":false,"is_disabled":false,"rental_uris":{"android":"levelo://app?vid=771a7117-ea11-4280-b227-e2538ba6ae1d","ios":"levelo://app?vid=771a7117-ea11-4280-b227-e2538ba6ae1d"},"vehicle_type_id":"4","last_reported":1768987351,"current_range_meters":6400,"station_id":"ce4bgkh2rcd13ifvqbk0","pricing_plan_id":"cebpf4jnsgd1na2vs0mg"},{"bike_id":"5b4297a0-0ac4-4bd0-9a55-c6c4e22e8f86","system_id":"levelo_inurba_marseille","lat":43.29044,"lon":5.39934,"is_reserved":false,"is_disabled":false,"rental_uris":{"android":"levelo://app?vid=5b4297a0-0ac4-4bd0-9a55-c6c4e22e8f86","ios":"levelo://app?vid=5b4297a0-0ac4-4bd0-9a55-c6c4e22e8f86"},"vehicle_type_id":"4","last_reported":1768987351,"current_range_meters":6400,"station_id":"ce4bh392rcd13ifvqdm0","pricing_plan_id":"cebpf4jnsgd1na2vs0mg"},{"bike_id":"24efff43-3e2c-4c39-956d-a24897b2024e","system_id":"levelo_inurba_marseille","lat":43.265709,"lon":5.390182,"is_reserved":false,"is_disabled":false,"rental_uris":{"android":"levelo://app?vid=24efff43-3e2c-4c39-956d-a24897b2024e","ios":"levelo://app?vid=24efff43-3e2c-4c39-956d-a24897b2024e"},"vehicle_type_id":"4","last_reported":1768987351,"current_range_meters":6400,"station_id":"ce4bhe12rcd13ifvqf30","pricing_plan_id":"cebpf4jnsgd1na2vs0mg"},{"bike_id":"b5c2bc57-f6ff-41e2-9304-949bbac9473e","system_id":"levelo_inurba_marseille","lat":43.25589,"lon":5.38239,"is_reserved":false,"is_disabled":false,"rental_uris":{"android":"levelo://app?vid=b5c2bc57-f6ff-41e2-9304-949bbac9473e","ios":"levelo://app?vid=b5c2bc57-f6ff-41e2-9304-949bbac9473e"},"vehicle_type_id":"4","last_reported":1768987351,"current_range_meters":6400,"station_id":"ce4bhih2rcd13ifvqfs0","pricing_plan_id":"cebpf4jnsgd1na2vs0mg"},{"bike_id":"ddaad9d0-c8d8-4752-93a3-e2819409347b","system_id":"levelo_inurba_marseille","lat":43.24079,"lon":5.37741,"is_reserved":false,"is_disabled":false,"rental_uris":{"android":"levelo://app?vid=ddaad9d0-c8d8-4752-93a3-e2819409347b","ios":"levelo://app?vid=ddaad9d0-c8d8-4752-93a3-e2819409347b"},"vehicle_type_id":"4","last_reported":1768987351,"current_range_meters":6400,"station_id":"ce4bhnp2rcd13ifvqgvg","pricing_plan_id":"cebpf4jnsgd1na2vs0mg"},{"bike_id":"a1bd2c02-f564-4521-8b18-c32914bc01b2","system_id":"levelo_inurba_marseille","lat":43.25907,"lon":5.40893,"is_reserved":false,"is_disabled":false,"rental_uris":{"android":"levelo://app?vid=a1bd2c02-f564-4521-8b18-c32914bc01b2","ios":"levelo://app?vid=a1bd2c02-f564-4521-8b18-c32914bc01b2"},"vehicle_type_id":"4","last_reported":1768987351,"current_range_meters":6400,"station_id":"ce4bhm92rcd13ifvqglg","pricing_plan_id":"cebpf4jnsgd1na2vs0mg"},{"bike_id":"d7d52f92-7006-46dd-b160-0df500573e2a","system_id":"levelo_inurba_marseille","lat":43.29071,"lon":5.37158,"is_reserved":false,"is_disabled":false,"rental_uris":{"android":"levelo://app?vid=d7d52f92-7006-46dd-b160-0df500573e2a","ios":"levelo://app?vid=d7d52f92-7006-46dd-b160-0df500573e2a"},"vehicle_type_id":"4","last_reported":1768987351,"current_range_meters":6400,"station_id":"ce4bh5p2rcd13ifvqe4g","pricing_plan_id":"cebpf4jnsgd1na2vs0mg"},{"bike_id":"9ec896db-d5c4-401b-a5fd-5d23df637b3c","system_id":"levelo_inurba_marseille","lat":43.28154,"lon":5.42648,"is_reserved":false,"is_disabled":false,"rental_uris":{"android":"levelo://app?vid=9ec896db-d5c4-401b-a5fd-5d23df637b3c","ios":"levelo://app?vid=9ec896db-d5c4-401b-a5fd-5d23df637b3c"},"vehicle_type_id":"4","last_reported":1768987351,"current_range_meters":6800,"station_id":"ce4bhnh2rcd13ifvqgug","pricing_plan_id":"cebpf4jnsgd1na2vs0mg"},{"bike_id":"e9cf4d98-a47d-4cc7-82f6-b2e075f45c6a","system_id":"levelo_inurba_marseille","lat":43.22553,"lon":5.41651,"is_reserved":false,"is_disabled":false,"rental_uris":{"android":"levelo://app?vid=e9cf4d98-a47d-4cc7-82f6-b2e075f45c6a","ios":"levelo://app?vid=e9cf4d98-a47d-4cc7-82f6-b2e075f45c6a"},"vehicle_type_id":"4","last_reported":1768987351,"current_range_meters":6800,"station_id":"st_d2o4gvlbi1j2169b742g","pricing_plan_id":"cebpf4jnsgd1na2vs0mg"},{"bike_id":"993f1288-6929-4206-b35f-06e772769526","system_id":"levelo_inurba_marseille","lat":43.30734,"lon":5.4243,"is_reserved":false,"is_disabled":false,"rental_uris":{"android":"levelo://app?vid=993f1288-6929-4206-b35f-06e772769526","ios":"levelo://app?vid=993f1288-6929-4206-b35f-06e772769526"},"vehicle_type_id":"4","last_reported":1768987351,"current_range_meters":6800,"station_id":"st_cvj6ca6bvosntc0bfgr0","pricing_plan_id":"cebpf4jnsgd1na2vs0mg"},{"bike_id":"67ff9a75-4fe8-45e7-914d-fc416a457597","system_id":"levelo_inurba_marseille","lat":43.32099,"lon":5.36739,"is_reserved":false,"is_disabled":false,"rental_uris":{"android":"levelo://app?vid=67ff9a75-4fe8-45e7-914d-fc416a457597","ios":"levelo://app?vid=67ff9a75-4fe8-45e7-914d-fc416a457597"},"vehicle_type_id":"4","last_reported":1768987351,"current_range_meters":6800,"station_id":"ce4bhrh2rcd13ifvqhug","pricing_plan_id":"cebpf4jnsgd1na2vs0mg"},{"bike_id":"619e29a9-4be3-462f-83e3-b5cb89740787","system_id":"levelo_inurba_marseille","lat":43.24075,"lon":5.37768,"is_reserved":false,"is_disabled":false,"rental_uris":{"android":"levelo://app?vid=619e29a9-4be3-462f-83e3-b5cb89740787","ios":"levelo://app?vid=619e29a9-4be3-462f-83e3-b5cb89740787"},"vehicle_type_id":"4","last_reported":1768987351,"current_range_meters":6800,"station_id":"ce4bhnp2rcd13ifvqgvg","pricing_plan_id":"cebpf4jnsgd1na2vs0mg"},{"bike_id":"dc82bfc6-2b44-4bff-8892-9b8eb7e91578","system_id":"levelo_inurba_marseille","lat":43.23965,"lon":5.36631,"is_reserved":false,"is_disabled":false,"rental_uris":{"android":"levelo://app?vid=dc82bfc6-2b44-4bff-8892-9b8eb7e91578","ios":"levelo://app?vid=dc82bfc6-2b44-4bff-8892-9b8eb7e91578"},"vehicle_type_id":"4","last_reported":1768987351,"current_range_meters":6800,"station_id":"ce4bhi12rcd13ifvqfp0","pricing_plan_id":"cebpf4jnsgd1na2vs0mg"},{"bike_id":"511fc97e-4342-48bd-969a-a85990179b2c","system_id":"levelo_inurba_marseille","lat":43.30093,"lon":5.38111,"is_reserved":false,"is_disabled":false,"rental_uris":{"android":"levelo://app?vid=511fc97e-4342-48bd-969a-a85990179b2c","ios":"levelo://app?vid=511fc97e-4342-48bd-969a-a85990179b2c"},"vehicle_type_id":"4","last_reported":1768987351,"current_range_meters":6800,"station_id":"","pricing_plan_id":"cebpf4jnsgd1na2vs0mg"},{"bike_id":"56496f15-285b-4dff-92b3-54ffdff3e399","system_id":"levelo_inurba_marseille","lat":43.2684,"lon":5.39632,"is_reserved":false,"is_disabled":false,"rental_uris":{"android":"levelo://app?vid=56496f15-285b-4dff-92b3-54ffdff3e399","ios":"levelo://app?vid=56496f15-285b-4dff-92b3-54ffdff3e399"},"vehicle_type_id":"4","last_reported":1768987351,"current_range_meters":6800,"station_id":"","pricing_plan_id":"cebpf4jnsgd1na2vs0mg"},{"bike_id":"dadde713-07e8-4354-a92d-6299a510144e","system_id":"levelo_inurba_marseille","lat":43.28473,"lon":5.38426,"is_reserved":false,"is_disabled":false,"rental_uris":{"android":"levelo://app?vid=dadde713-07e8-4354-a92d-6299a510144e","ios":"levelo://app?vid=dadde713-07e8-4354-a92d-6299a510144e"},"vehicle_type_id":"4","last_reported":1768987351,"current_range_meters":6800,"station_id":"ce4bh512rcd13ifvqe3g","pricing_plan_id":"cebpf4jnsgd1na2vs0mg"},{"bike_id":"4eba8ab0-a760-4c8f-be2e-adcd88a4d0b1","system_id":"levelo_inurba_marseille","lat":43.2649,"lon":5.39583,"is_reserved":false,"is_disabled":false,"rental_uris":{"android":"levelo://app?vid=4eba8ab0-a760-4c8f-be2e-adcd88a4d0b1","ios":"levelo://app?vid=4eba8ab0-a760-4c8f-be2e-adcd88a4d0b1"},"vehicle_type_id":"4","last_reported":1768987351,"current_range_meters":6800,"station_id":"ce4bhi12rcd13ifvqfq0","pricing_plan_id":"cebpf4jnsgd1na2vs0mg"},{"bike_id":"6b0a7910-4f3c-47d6-b165-5319282e4ed9","system_id":"levelo_inurba_marseille","lat":43.33526,"lon":5.37449,"is_reserved":false,"is_disabled":false,"rental_uris":{"android":"levelo://app?vid=6b0a7910-4f3c-47d6-b165-5319282e4ed9","ios":"levelo://app?vid=6b0a7910-4f3c-47d6-b165-5319282e4ed9"},"vehicle_type_id":"4","last_reported":1768987351,"current_range_meters":6800,"station_id":"","pricing_plan_id":"cebpf4jnsgd1na2vs0mg"},{"bike_id":"0c39f0d8-be10-4e6d-9b77-03ab45f27e26","system_id":"levelo_inurba_marseille","lat":43.278065,"lon":5.407164,"is_reserved":false,"is_disabled":false,"rental_uris":{"android":"levelo://app?vid=0c39f0d8-be10-4e6d-9b77-03ab45f27e26","ios":"levelo://app?vid=0c39f0d8-be10-4e6d-9b77-03ab45f27e26"},"vehicle_type_id":"4","last_reported":1768987351,"current_range_meters":6800,"station_id":"ce4bhr12rcd13ifvqhpg","pricing_plan_id":"cebpf4jnsgd1na2vs0mg"},{"bike_id":"5b1bd5c9-d178-476d-b09d-36e29337329a","system_id":"levelo_inurba_marseille","lat":43.295763,"lon":5.37518,"is_reserved":false,"is_disabled":false,"rental_uris":{"android":"levelo://app?vid=5b1bd5c9-d178-476d-b09d-36e29337329a","ios":"levelo://app?vid=5b1bd5c9-d178-476d-b09d-36e29337329a"},"vehicle_type_id":"4","last_reported":1768987351,"current_range_meters":6800,"station_id":"ce4bgh92rcd13ifvqb50","pricing_plan_id":"cebpf4jnsgd1na2vs0mg"},{"bike_id":"8f6720ee-6d73-4b90-9795-6388a8527dfc","system_id":"levelo_inurba_marseille","lat":43.240742,"lon":5.377607,"is_reserved":false,"is_disabled":false,"rental_uris":{"android":"levelo://app?vid=8f6720ee-6d73-4b90-9795-6388a8527dfc","ios":"levelo://app?vid=8f6720ee-6d73-4b90-9795-6388a8527dfc"},"vehicle_type_id":"4","last_reported":1768987351,"current_range_meters":6800,"station_id":"ce4bhc92rcd13ifvqetg","pricing_plan_id":"cebpf4jnsgd1na2vs0mg"},{"bike_id":"bc53fded-5652-4ab5-920f-ec142a69c388","system_id":"levelo_inurba_marseille","lat":43.29797,"lon":5.39371,"is_reserved":false,"is_disabled":false,"rental_uris":{"android":"levelo://app?vid=bc53fded-5652-4ab5-920f-ec142a69c388","ios":"levelo://app?vid=bc53fded-5652-4ab5-920f-ec142a69c388"},"vehicle_type_id":"4","last_reported":1768987351,"current_range_meters":6800,"station_id":"chh1huq6cuj3fo74tm60","pricing_plan_id":"cebpf4jnsgd1na2vs0mg"},{"bike_id":"37bf797b-18ef-4836-9cb3-d3ead8cb520d","system_id":"levelo_inurba_marseille","lat":43.29977,"lon":5.38487,"is_reserved":false,"is_disabled":true,"rental_uris":{"android":"levelo://app?vid=37bf797b-18ef-4836-9cb3-d3ead8cb520d","ios":"levelo://app?vid=37bf797b-18ef-4836-9cb3-d3ead8cb520d"},"vehicle_type_id":"4","last_reported":1768987351,"current_range_meters":6800,"station_id":"ce4bgj92rcd13ifvqbd0","pricing_plan_id":"cebpf4jnsgd1na2vs0mg"},{"bike_id":"1e9683fd-3419-4707-ab97-e3b80d5f4bea","system_id":"levelo_inurba_marseille","lat":43.27158,"lon":5.40458,"is_reserved":false,"is_disabled":false,"rental_uris":{"android":"levelo://app?vid=1e9683fd-3419-4707-ab97-e3b80d5f4bea","ios":"levelo://app?vid=1e9683fd-3419-4707-ab97-e3b80d5f4bea"},"vehicle_type_id":"4","last_reported":1768987351,"current_range_meters":6800,"station_id":"","pricing_plan_id":"cebpf4jnsgd1na2vs0mg"},{"bike_id":"b99aaddc-1726-460c-84a6-0a94e13d2bd1","system_id":"levelo_inurba_marseille","lat":43.30462,"lon":5.37914,"is_reserved":false,"is_disabled":false,"rental_uris":{"android":"levelo://app?vid=b99aaddc-1726-460c-84a6-0a94e13d2bd1","ios":"levelo://app?vid=b99aaddc-1726-460c-84a6-0a94e13d2bd1"},"vehicle_type_id":"4","last_reported":1768987351,"current_range_meters":6800,"station_id":"ce4bgup2rcd13ifvqcn0","pricing_plan_id":"cebpf4jnsgd1na2vs0mg"},{"bike_id":"5751443d-1e68-4681-971c-4c283c875c94","system_id":"levelo_inurba_marseille","lat":43.24388,"lon":5.37068,"is_reserved":false,"is_disabled":false,"rental_uris":{"android":"levelo://app?vid=5751443d-1e68-4681-971c-4c283c875c94","ios":"levelo://app?vid=5751443d-1e68-4681-971c-4c283c875c94"},"vehicle_type_id":"4","last_reported":1768987351,"current_range_meters":6800,"station_id":"ce4bhhh2rcd13ifvqfk0","pricing_plan_id":"cebpf4jnsgd1na2vs0mg"},{"bike_id":"e6df6fb7-994b-4037-99d6-76175fe9a7d0","system_id":"levelo_inurba_marseille","lat":43.23194,"lon":5.39976,"is_reserved":false,"is_disabled":false,"rental_uris":{"android":"levelo://app?vid=e6df6fb7-994b-4037-99d6-76175fe9a7d0","ios":"levelo://app?vid=e6df6fb7-994b-4037-99d6-76175fe9a7d0"},"vehicle_type_id":"4","last_reported":1768987351,"current_range_meters":6800,"station_id":"ce4bhn12rcd13ifvqgqg","pricing_plan_id":"cebpf4jnsgd1na2vs0mg"},{"bike_id":"e7f76cdd-69c1-4b4a-aab9-81b38847c33b","system_id":"levelo_inurba_marseille","lat":43.24387,"lon":5.37033,"is_reserved":false,"is_disabled":false,"rental_uris":{"android":"levelo://app?vid=e7f76cdd-69c1-4b4a-aab9-81b38847c33b","ios":"levelo://app?vid=e7f76cdd-69c1-4b4a-aab9-81b38847c33b"},"vehicle_type_id":"4","last_reported":1768987351,"current_range_meters":6800,"station_id":"ce4bhhh2rcd13ifvqfk0","pricing_plan_id":"cebpf4jnsgd1na2vs0mg"},{"bike_id":"29bfec45-ad76-429c-882a-34b6f5ca4191","system_id":"levelo_inurba_marseille","lat":43.3209,"lon":5.36801,"is_reserved":false,"is_disabled":false,"rental_uris":{"android":"levelo://app?vid=29bfec45-ad76-429c-882a-34b6f5ca4191","ios":"levelo://app?vid=29bfec45-ad76-429c-882a-34b6f5ca4191"},"vehicle_type_id":"4","last_reported":1768987351,"current_range_meters":6800,"station_id":"ce4bhrh2rcd13ifvqhug","pricing_plan_id":"cebpf4jnsgd1na2vs0mg"},{"bike_id":"279ecc0c-732d-4b1d-b5af-667c2f79f52d","system_id":"levelo_inurba_marseille","lat":43.2319,"lon":5.43666,"is_reserved":false,"is_disabled":false,"rental_uris":{"android":"levelo://app?vid=279ecc0c-732d-4b1d-b5af-667c2f79f52d","ios":"levelo://app?vid=279ecc0c-732d-4b1d-b5af-667c2f79f52d"},"vehicle_type_id":"4","last_reported":1768987351,"current_range_meters":7200,"station_id":"ce4bhmp2rcd13ifvqgog","pricing_plan_id":"cebpf4jnsgd1na2vs0mg"},{"bike_id":"fc4e3a66-55ac-450e-a159-861862597655","system_id":"levelo_inurba_marseille","lat":43.27296,"lon":5.39136,"is_reserved":false,"is_disabled":false,"rental_uris":{"android":"levelo://app?vid=fc4e3a66-55ac-450e-a159-861862597655","ios":"levelo://app?vid=fc4e3a66-55ac-450e-a159-861862597655"},"vehicle_type_id":"4","last_reported":1768987351,"current_range_meters":7200,"station_id":"","pricing_plan_id":"cebpf4jnsgd1na2vs0mg"},{"bike_id":"99d65f09-c0e6-4f0f-b72f-6e110c0f1bd4","system_id":"levelo_inurba_marseille","lat":43.28978,"lon":5.37628,"is_reserved":false,"is_disabled":false,"rental_uris":{"android":"levelo://app?vid=99d65f09-c0e6-4f0f-b72f-6e110c0f1bd4","ios":"levelo://app?vid=99d65f09-c0e6-4f0f-b72f-6e110c0f1bd4"},"vehicle_type_id":"4","last_reported":1768987351,"current_range_meters":7200,"station_id":"","pricing_plan_id":"cebpf4jnsgd1na2vs0mg"},{"bike_id":"9fe9b7fa-bf5e-456b-b148-d56a572e2392","system_id":"levelo_inurba_marseille","lat":43.22565,"lon":5.41636,"is_reserved":false,"is_disabled":false,"rental_uris":{"android":"levelo://app?vid=9fe9b7fa-bf5e-456b-b148-d56a572e2392","ios":"levelo://app?vid=9fe9b7fa-bf5e-456b-b148-d56a572e2392"},"vehicle_type_id":"4","last_reported":1768987351,"current_range_meters":7200,"station_id":"st_d2o4gvlbi1j2169b742g","pricing_plan_id":"cebpf4jnsgd1na2vs0mg"},{"bike_id":"a3e2caaf-f379-45ac-a2b8-d61c1da080dd","system_id":"levelo_inurba_marseille","lat":43.32489,"lon":5.38266,"is_reserved":false,"is_disabled":true,"rental_uris":{"android":"levelo://app?vid=a3e2caaf-f379-45ac-a2b8-d61c1da080dd","ios":"levelo://app?vid=a3e2caaf-f379-45ac-a2b8-d61c1da080dd"},"vehicle_type_id":"4","last_reported":1768987351,"current_range_meters":7200,"station_id":"st_d4asgbiv49dc73anf9m0","pricing_plan_id":"cebpf4jnsgd1na2vs0mg"},{"bike_id":"2351e1c9-97c0-42ed-8ba7-93d168c64106","system_id":"levelo_inurba_marseille","lat":43.29769,"lon":5.42775,"is_reserved":false,"is_disabled":false,"rental_uris":{"android":"levelo://app?vid=2351e1c9-97c0-42ed-8ba7-93d168c64106","ios":"levelo://app?vid=2351e1c9-97c0-42ed-8ba7-93d168c64106"},"vehicle_type_id":"4","last_reported":1768987351,"current_range_meters":7200,"station_id":"st_d3md5207bmas73dh9klg","pricing_plan_id":"cebpf4jnsgd1na2vs0mg"},{"bike_id":"00729f81-defe-4949-ab38-da427b717ebf","system_id":"levelo_inurba_marseille","lat":43.262229,"lon":5.404466,"is_reserved":false,"is_disabled":false,"rental_uris":{"android":"levelo://app?vid=00729f81-defe-4949-ab38-da427b717ebf","ios":"levelo://app?vid=00729f81-defe-4949-ab38-da427b717ebf"},"vehicle_type_id":"4","last_reported":1768987351,"current_range_meters":7200,"station_id":"ce4bhmh2rcd13ifvqgmg","pricing_plan_id":"cebpf4jnsgd1na2vs0mg"},{"bike_id":"8069f374-6bb2-4df8-950d-be2e50fcd180","system_id":"levelo_inurba_marseille","lat":43.31118,"lon":5.37769,"is_reserved":false,"is_disabled":true,"rental_uris":{"android":"levelo://app?vid=8069f374-6bb2-4df8-950d-be2e50fcd180","ios":"levelo://app?vid=8069f374-6bb2-4df8-950d-be2e50fcd180"},"vehicle_type_id":"4","last_reported":1768987351,"current_range_meters":7200,"station_id":"ce4bgt92rcd13ifvqcg0","pricing_plan_id":"cebpf4jnsgd1na2vs0mg"},{"bike_id":"5bdad711-817a-42cc-84b1-10d4beae812a","system_id":"levelo_inurba_marseille","lat":43.22548,"lon":5.41645,"is_reserved":false,"is_disabled":false,"rental_uris":{"android":"levelo://app?vid=5bdad711-817a-42cc-84b1-10d4beae812a","ios":"levelo://app?vid=5bdad711-817a-42cc-84b1-10d4beae812a"},"vehicle_type_id":"4","last_reported":1768987351,"current_range_meters":7200,"station_id":"st_d2o4gvlbi1j2169b742g","pricing_plan_id":"cebpf4jnsgd1na2vs0mg"},{"bike_id":"4f518510-2233-4dca-ade8-5d7dcbc437ed","system_id":"levelo_inurba_marseille","lat":43.3048,"lon":5.37912,"is_reserved":false,"is_disabled":false,"rental_uris":{"android":"levelo://app?vid=4f518510-2233-4dca-ade8-5d7dcbc437ed","ios":"levelo://app?vid=4f518510-2233-4dca-ade8-5d7dcbc437ed"},"vehicle_type_id":"4","last_reported":1768987351,"current_range_meters":7200,"station_id":"ce4bgup2rcd13ifvqcn0","pricing_plan_id":"cebpf4jnsgd1na2vs0mg"},{"bike_id":"8c9d9dd5-6ae3-4a8b-ab79-ea51ac5d3931","system_id":"levelo_inurba_marseille","lat":43.27988,"lon":5.41666,"is_reserved":false,"is_disabled":true,"rental_uris":{"android":"levelo://app?vid=8c9d9dd5-6ae3-4a8b-ab79-ea51ac5d3931","ios":"levelo://app?vid=8c9d9dd5-6ae3-4a8b-ab79-ea51ac5d3931"},"vehicle_type_id":"4","last_reported":1768987351,"current_range_meters":7200,"station_id":"ce4bho12rcd13ifvqh1g","pricing_plan_id":"cebpf4jnsgd1na2vs0mg"},{"bike_id":"2e67810b-4f4a-431b-b148-ec05c2d01539","system_id":"levelo_inurba_marseille","lat":43.28156,"lon":5.4264,"is_reserved":false,"is_disabled":false,"rental_uris":{"android":"levelo://app?vid=2e67810b-4f4a-431b-b148-ec05c2d01539","ios":"levelo://app?vid=2e67810b-4f4a-431b-b148-ec05c2d01539"},"vehicle_type_id":"4","last_reported":1768987351,"current_range_meters":7200,"station_id":"ce4bhnh2rcd13ifvqgug","pricing_plan_id":"cebpf4jnsgd1na2vs0mg"},{"bike_id":"99930023-4f93-4749-9faf-99c0761e2fac","system_id":"levelo_inurba_marseille","lat":43.278131,"lon":5.407104,"is_reserved":false,"is_disabled":false,"rental_uris":{"android":"levelo://app?vid=99930023-4f93-4749-9faf-99c0761e2fac","ios":"levelo://app?vid=99930023-4f93-4749-9faf-99c0761e2fac"},"vehicle_type_id":"4","last_reported":1768987351,"current_range_meters":7200,"station_id":"ce4bhnh2rcd13ifvqgtg","pricing_plan_id":"cebpf4jnsgd1na2vs0mg"},{"bike_id":"31c21be6-18ca-494d-8d01-2f205767068d","system_id":"levelo_inurba_marseille","lat":43.318521,"lon":5.374644,"is_reserved":false,"is_disabled":false,"rental_uris":{"android":"levelo://app?vid=31c21be6-18ca-494d-8d01-2f205767068d","ios":"levelo://app?vid=31c21be6-18ca-494d-8d01-2f205767068d"},"vehicle_type_id":"4","last_reported":1768987351,"current_range_meters":7200,"station_id":"","pricing_plan_id":"cebpf4jnsgd1na2vs0mg"},{"bike_id":"f95122a3-6668-4583-b826-9418658a5a04","system_id":"levelo_inurba_marseille","lat":43.291841,"lon":5.372421,"is_reserved":false,"is_disabled":false,"rental_uris":{"android":"levelo://app?vid=f95122a3-6668-4583-b826-9418658a5a04","ios":"levelo://app?vid=f95122a3-6668-4583-b826-9418658a5a04"},"vehicle_type_id":"4","last_reported":1768987351,"current_range_meters":7200,"station_id":"ce4bha92rcd13ifvqeh0","pricing_plan_id":"cebpf4jnsgd1na2vs0mg"},{"bike_id":"7cbd4bcf-3403-4096-851e-2e1a3e1d7748","system_id":"levelo_inurba_marseille","lat":43.29054,"lon":5.39932,"is_reserved":false,"is_disabled":false,"rental_uris":{"android":"levelo://app?vid=7cbd4bcf-3403-4096-851e-2e1a3e1d7748","ios":"levelo://app?vid=7cbd4bcf-3403-4096-851e-2e1a3e1d7748"},"vehicle_type_id":"4","last_reported":1768987351,"current_range_meters":7200,"station_id":"ce4bh392rcd13ifvqdm0","pricing_plan_id":"cebpf4jnsgd1na2vs0mg"},{"bike_id":"60148071-7ffe-4c05-9362-c2fce58ba206","system_id":"levelo_inurba_marseille","lat":43.27991,"lon":5.41663,"is_reserved":false,"is_disabled":false,"rental_uris":{"android":"levelo://app?vid=60148071-7ffe-4c05-9362-c2fce58ba206","ios":"levelo://app?vid=60148071-7ffe-4c05-9362-c2fce58ba206"},"vehicle_type_id":"4","last_reported":1768987351,"current_range_meters":7200,"station_id":"ce4bho12rcd13ifvqh1g","pricing_plan_id":"cebpf4jnsgd1na2vs0mg"},{"bike_id":"2c0995a4-2dde-4941-9bf7-449a4c636ac0","system_id":"levelo_inurba_marseille","lat":43.24389,"lon":5.37076,"is_reserved":false,"is_disabled":false,"rental_uris":{"android":"levelo://app?vid=2c0995a4-2dde-4941-9bf7-449a4c636ac0","ios":"levelo://app?vid=2c0995a4-2dde-4941-9bf7-449a4c636ac0"},"vehicle_type_id":"4","last_reported":1768987351,"current_range_meters":7200,"station_id":"ce4bhhh2rcd13ifvqfk0","pricing_plan_id":"cebpf4jnsgd1na2vs0mg"},{"bike_id":"e2c28729-8d62-45b4-8926-9ab1e71d898f","system_id":"levelo_inurba_marseille","lat":43.29821,"lon":5.36563,"is_reserved":false,"is_disabled":false,"rental_uris":{"android":"levelo://app?vid=e2c28729-8d62-45b4-8926-9ab1e71d898f","ios":"levelo://app?vid=e2c28729-8d62-45b4-8926-9ab1e71d898f"},"vehicle_type_id":"4","last_reported":1768987351,"current_range_meters":7200,"station_id":"","pricing_plan_id":"cebpf4jnsgd1na2vs0mg"},{"bike_id":"f5b57ae7-55a9-47fd-82cc-067ffe79b625","system_id":"levelo_inurba_marseille","lat":43.26684,"lon":5.38272,"is_reserved":false,"is_disabled":false,"rental_uris":{"android":"levelo://app?vid=f5b57ae7-55a9-47fd-82cc-067ffe79b625","ios":"levelo://app?vid=f5b57ae7-55a9-47fd-82cc-067ffe79b625"},"vehicle_type_id":"4","last_reported":1768987351,"current_range_meters":7200,"station_id":"ce4bhg92rcd13ifvqf90","pricing_plan_id":"cebpf4jnsgd1na2vs0mg"},{"bike_id":"6da61cd4-1cf4-43fa-922d-ca1b6d722142","system_id":"levelo_inurba_marseille","lat":43.30939,"lon":5.39047,"is_reserved":false,"is_disabled":false,"rental_uris":{"android":"levelo://app?vid=6da61cd4-1cf4-43fa-922d-ca1b6d722142","ios":"levelo://app?vid=6da61cd4-1cf4-43fa-922d-ca1b6d722142"},"vehicle_type_id":"4","last_reported":1768987351,"current_range_meters":7200,"station_id":"ce4bgup2rcd13ifvqco0","pricing_plan_id":"cebpf4jnsgd1na2vs0mg"},{"bike_id":"b4526a2e-d580-4caf-ad8e-58c1f922778d","system_id":"levelo_inurba_marseille","lat":43.311655,"lon":5.387242,"is_reserved":false,"is_disabled":false,"rental_uris":{"android":"levelo://app?vid=b4526a2e-d580-4caf-ad8e-58c1f922778d","ios":"levelo://app?vid=b4526a2e-d580-4caf-ad8e-58c1f922778d"},"vehicle_type_id":"4","last_reported":1768987351,"current_range_meters":7200,"station_id":"ce4bgup2rcd13ifvqco0","pricing_plan_id":"cebpf4jnsgd1na2vs0mg"},{"bike_id":"e47dfb0a-fd42-4915-8bd4-c942b77cb4c9","system_id":"levelo_inurba_marseille","lat":43.25563,"lon":5.3824,"is_reserved":false,"is_disabled":false,"rental_uris":{"android":"levelo://app?vid=e47dfb0a-fd42-4915-8bd4-c942b77cb4c9","ios":"levelo://app?vid=e47dfb0a-fd42-4915-8bd4-c942b77cb4c9"},"vehicle_type_id":"4","last_reported":1768987351,"current_range_meters":7200,"station_id":"ce4bhih2rcd13ifvqfs0","pricing_plan_id":"cebpf4jnsgd1na2vs0mg"},{"bike_id":"416786c9-5441-4ae2-97be-8dd18ff4a833","system_id":"levelo_inurba_marseille","lat":43.26567,"lon":5.40323,"is_reserved":false,"is_disabled":false,"rental_uris":{"android":"levelo://app?vid=416786c9-5441-4ae2-97be-8dd18ff4a833","ios":"levelo://app?vid=416786c9-5441-4ae2-97be-8dd18ff4a833"},"vehicle_type_id":"4","last_reported":1768987351,"current_range_meters":7200,"station_id":"ce4bhmp2rcd13ifvqgng","pricing_plan_id":"cebpf4jnsgd1na2vs0mg"},{"bike_id":"f09c06aa-a05d-4b00-b228-d8bee2b62b4f","system_id":"levelo_inurba_marseille","lat":43.32363,"lon":5.36752,"is_reserved":false,"is_disabled":false,"rental_uris":{"android":"levelo://app?vid=f09c06aa-a05d-4b00-b228-d8bee2b62b4f","ios":"levelo://app?vid=f09c06aa-a05d-4b00-b228-d8bee2b62b4f"},"vehicle_type_id":"4","last_reported":1768987351,"current_range_meters":8000,"station_id":"ce4bhsh2rcd13ifvqi2g","pricing_plan_id":"cebpf4jnsgd1na2vs0mg"},{"bike_id":"9e20e9aa-065b-496c-abe5-3590a969b99e","system_id":"levelo_inurba_marseille","lat":43.26498,"lon":5.39545,"is_reserved":false,"is_disabled":false,"rental_uris":{"android":"levelo://app?vid=9e20e9aa-065b-496c-abe5-3590a969b99e","ios":"levelo://app?vid=9e20e9aa-065b-496c-abe5-3590a969b99e"},"vehicle_type_id":"4","last_reported":1768987351,"current_range_meters":8000,"station_id":"ce4bhi12rcd13ifvqfq0","pricing_plan_id":"cebpf4jnsgd1na2vs0mg"},{"bike_id":"f73788f7-dec5-4308-a431-6e346b811946","system_id":"levelo_inurba_marseille","lat":43.301801,"lon":5.380645,"is_reserved":false,"is_disabled":false,"rental_uris":{"android":"levelo://app?vid=f73788f7-dec5-4308-a431-6e346b811946","ios":"levelo://app?vid=f73788f7-dec5-4308-a431-6e346b811946"},"vehicle_type_id":"4","last_reported":1768987351,"current_range_meters":8000,"station_id":"ce4bgjp2rcd13ifvqbh0","pricing_plan_id":"cebpf4jnsgd1na2vs0mg"},{"bike_id":"faffa59f-dc3b-4aa4-bbe3-1720e44336e8","system_id":"levelo_inurba_marseille","lat":43.3135,"lon":5.38515,"is_reserved":false,"is_disabled":true,"rental_uris":{"android":"levelo://app?vid=faffa59f-dc3b-4aa4-bbe3-1720e44336e8","ios":"levelo://app?vid=faffa59f-dc3b-4aa4-bbe3-1720e44336e8"},"vehicle_type_id":"4","last_reported":1768987351,"current_range_meters":8000,"station_id":"ce4bgt92rcd13ifvqcf0","pricing_plan_id":"cebpf4jnsgd1na2vs0mg"},{"bike_id":"5f477738-733e-4c98-961a-33429c5938fd","system_id":"levelo_inurba_marseille","lat":43.260586,"lon":5.393984,"is_reserved":false,"is_disabled":false,"rental_uris":{"android":"levelo://app?vid=5f477738-733e-4c98-961a-33429c5938fd","ios":"levelo://app?vid=5f477738-733e-4c98-961a-33429c5938fd"},"vehicle_type_id":"4","last_reported":1768987351,"current_range_meters":8000,"station_id":"ce4bhh92rcd13ifvqfj0","pricing_plan_id":"cebpf4jnsgd1na2vs0mg"},{"bike_id":"66954d8d-ab08-46d5-92b9-0a3a4c77b375","system_id":"levelo_inurba_marseille","lat":43.28724,"lon":5.3609,"is_reserved":false,"is_disabled":false,"rental_uris":{"android":"levelo://app?vid=66954d8d-ab08-46d5-92b9-0a3a4c77b375","ios":"levelo://app?vid=66954d8d-ab08-46d5-92b9-0a3a4c77b375"},"vehicle_type_id":"4","last_reported":1768987351,"current_range_meters":8000,"station_id":"cki0cbj6b192h4jlfktg","pricing_plan_id":"cebpf4jnsgd1na2vs0mg"},{"bike_id":"054e163b-1e47-4a0a-a038-a7939885860e","system_id":"levelo_inurba_marseille","lat":43.323533,"lon":5.367429,"is_reserved":false,"is_disabled":false,"rental_uris":{"android":"levelo://app?vid=054e163b-1e47-4a0a-a038-a7939885860e","ios":"levelo://app?vid=054e163b-1e47-4a0a-a038-a7939885860e"},"vehicle_type_id":"4","last_reported":1768987351,"current_range_meters":8000,"station_id":"ce4bhsh2rcd13ifvqi2g","pricing_plan_id":"cebpf4jnsgd1na2vs0mg"},{"bike_id":"8f183662-dea5-4080-88fc-e9e009eed202","system_id":"levelo_inurba_marseille","lat":43.24209,"lon":5.39709,"is_reserved":false,"is_disabled":false,"rental_uris":{"android":"levelo://app?vid=8f183662-dea5-4080-88fc-e9e009eed202","ios":"levelo://app?vid=8f183662-dea5-4080-88fc-e9e009eed202"},"vehicle_type_id":"4","last_reported":1768987351,"current_range_meters":8000,"station_id":"ce4bhn12rcd13ifvqgpg","pricing_plan_id":"cebpf4jnsgd1na2vs0mg"},{"bike_id":"d98520b4-91a8-4177-8c18-76a9f2e51189","system_id":"levelo_inurba_marseille","lat":43.301588,"lon":5.380762,"is_reserved":false,"is_disabled":false,"rental_uris":{"android":"levelo://app?vid=d98520b4-91a8-4177-8c18-76a9f2e51189","ios":"levelo://app?vid=d98520b4-91a8-4177-8c18-76a9f2e51189"},"vehicle_type_id":"4","last_reported":1768987351,"current_range_meters":8000,"station_id":"ce4bgjp2rcd13ifvqbh0","pricing_plan_id":"cebpf4jnsgd1na2vs0mg"},{"bike_id":"24d344be-443b-4bdf-9018-fc73ec7439eb","system_id":"levelo_inurba_marseille","lat":43.30298,"lon":5.39225,"is_reserved":false,"is_disabled":false,"rental_uris":{"android":"levelo://app?vid=24d344be-443b-4bdf-9018-fc73ec7439eb","ios":"levelo://app?vid=24d344be-443b-4bdf-9018-fc73ec7439eb"},"vehicle_type_id":"4","last_reported":1768987351,"current_range_meters":8000,"station_id":"ce4bgkh2rcd13ifvqbk0","pricing_plan_id":"cebpf4jnsgd1na2vs0mg"},{"bike_id":"e16a1716-709d-4830-b4cc-3f4c9537f310","system_id":"levelo_inurba_marseille","lat":43.30478,"lon":5.37918,"is_reserved":false,"is_disabled":false,"rental_uris":{"android":"levelo://app?vid=e16a1716-709d-4830-b4cc-3f4c9537f310","ios":"levelo://app?vid=e16a1716-709d-4830-b4cc-3f4c9537f310"},"vehicle_type_id":"4","last_reported":1768987351,"current_range_meters":8000,"station_id":"ce4bgup2rcd13ifvqcn0","pricing_plan_id":"cebpf4jnsgd1na2vs0mg"},{"bike_id":"b2b1dff7-f6c8-4dbd-b544-d71f01a6a04b","system_id":"levelo_inurba_marseille","lat":43.27986,"lon":5.40042,"is_reserved":false,"is_disabled":false,"rental_uris":{"android":"levelo://app?vid=b2b1dff7-f6c8-4dbd-b544-d71f01a6a04b","ios":"levelo://app?vid=b2b1dff7-f6c8-4dbd-b544-d71f01a6a04b"},"vehicle_type_id":"4","last_reported":1768987351,"current_range_meters":8000,"station_id":"ce4bho92rcd13ifvqh4g","pricing_plan_id":"cebpf4jnsgd1na2vs0mg"},{"bike_id":"f24c27d5-82a4-418f-8937-4521e4ce4f83","system_id":"levelo_inurba_marseille","lat":43.27323,"lon":5.3911,"is_reserved":false,"is_disabled":true,"rental_uris":{"android":"levelo://app?vid=f24c27d5-82a4-418f-8937-4521e4ce4f83","ios":"levelo://app?vid=f24c27d5-82a4-418f-8937-4521e4ce4f83"},"vehicle_type_id":"4","last_reported":1768987351,"current_range_meters":8000,"station_id":"ce4bhgp2rcd13ifvqfe0","pricing_plan_id":"cebpf4jnsgd1na2vs0mg"},{"bike_id":"9e9dec34-5646-455f-b697-c348ae1c7075","system_id":"levelo_inurba_marseille","lat":43.29017,"lon":5.38648,"is_reserved":false,"is_disabled":false,"rental_uris":{"android":"levelo://app?vid=9e9dec34-5646-455f-b697-c348ae1c7075","ios":"levelo://app?vid=9e9dec34-5646-455f-b697-c348ae1c7075"},"vehicle_type_id":"4","last_reported":1768987351,"current_range_meters":8000,"station_id":"ce4bh4p2rcd13ifvqe0g","pricing_plan_id":"cebpf4jnsgd1na2vs0mg"},{"bike_id":"0cfa1baa-8fb0-425c-b47d-a093d70c654e","system_id":"levelo_inurba_marseille","lat":43.272,"lon":5.39198,"is_reserved":false,"is_disabled":false,"rental_uris":{"android":"levelo://app?vid=0cfa1baa-8fb0-425c-b47d-a093d70c654e","ios":"levelo://app?vid=0cfa1baa-8fb0-425c-b47d-a093d70c654e"},"vehicle_type_id":"4","last_reported":1768987351,"current_range_meters":8000,"station_id":"ce4bhhp2rcd13ifvqfm0","pricing_plan_id":"cebpf4jnsgd1na2vs0mg"},{"bike_id":"67ee24bc-76b2-4aeb-9e34-516f561b3506","system_id":"levelo_inurba_marseille","lat":43.25924,"lon":5.40904,"is_reserved":false,"is_disabled":false,"rental_uris":{"android":"levelo://app?vid=67ee24bc-76b2-4aeb-9e34-516f561b3506","ios":"levelo://app?vid=67ee24bc-76b2-4aeb-9e34-516f561b3506"},"vehicle_type_id":"4","last_reported":1768987351,"current_range_meters":8000,"station_id":"ce4bhm92rcd13ifvqglg","pricing_plan_id":"cebpf4jnsgd1na2vs0mg"},{"bike_id":"5e4f73e3-15b5-4161-b411-195292d3e766","system_id":"levelo_inurba_marseille","lat":43.24441,"lon":5.42537,"is_reserved":false,"is_disabled":false,"rental_uris":{"android":"levelo://app?vid=5e4f73e3-15b5-4161-b411-195292d3e766","ios":"levelo://app?vid=5e4f73e3-15b5-4161-b411-195292d3e766"},"vehicle_type_id":"4","last_reported":1768987351,"current_range_meters":8000,"station_id":"st_d4a3vfp97mjs738cd8kg","pricing_plan_id":"cebpf4jnsgd1na2vs0mg"},{"bike_id":"4f4ed773-2cf0-4a1e-88c1-db1d7cfd52cc","system_id":"levelo_inurba_marseille","lat":43.28946,"lon":5.3664,"is_reserved":false,"is_disabled":true,"rental_uris":{"android":"levelo://app?vid=4f4ed773-2cf0-4a1e-88c1-db1d7cfd52cc","ios":"levelo://app?vid=4f4ed773-2cf0-4a1e-88c1-db1d7cfd52cc"},"vehicle_type_id":"4","last_reported":1768987351,"current_range_meters":8000,"station_id":"ce4bhap2rcd13ifvqek0","pricing_plan_id":"cebpf4jnsgd1na2vs0mg"},{"bike_id":"d7c35bcd-a9e3-418d-8e63-68d0dd1ec3a9","system_id":"levelo_inurba_marseille","lat":43.25584,"lon":5.38233,"is_reserved":false,"is_disabled":false,"rental_uris":{"android":"levelo://app?vid=d7c35bcd-a9e3-418d-8e63-68d0dd1ec3a9","ios":"levelo://app?vid=d7c35bcd-a9e3-418d-8e63-68d0dd1ec3a9"},"vehicle_type_id":"4","last_reported":1768987351,"current_range_meters":8000,"station_id":"ce4bhih2rcd13ifvqfs0","pricing_plan_id":"cebpf4jnsgd1na2vs0mg"},{"bike_id":"03ce0b7c-9543-4497-b202-ed769e3c0842","system_id":"levelo_inurba_marseille","lat":43.26802,"lon":5.39416,"is_reserved":false,"is_disabled":false,"rental_uris":{"android":"levelo://app?vid=03ce0b7c-9543-4497-b202-ed769e3c0842","ios":"levelo://app?vid=03ce0b7c-9543-4497-b202-ed769e3c0842"},"vehicle_type_id":"4","last_reported":1768987351,"current_range_meters":8000,"station_id":"ce4bhh12rcd13ifvqfg0","pricing_plan_id":"cebpf4jnsgd1na2vs0mg"},{"bike_id":"0765e2ef-f3ae-42c4-afc5-bfd5dc135d08","system_id":"levelo_inurba_marseille","lat":43.32758,"lon":5.43639,"is_reserved":false,"is_disabled":false,"rental_uris":{"android":"levelo://app?vid=0765e2ef-f3ae-42c4-afc5-bfd5dc135d08","ios":"levelo://app?vid=0765e2ef-f3ae-42c4-afc5-bfd5dc135d08"},"vehicle_type_id":"4","last_reported":1768987351,"current_range_meters":8000,"station_id":"","pricing_plan_id":"cebpf4jnsgd1na2vs0mg"},{"bike_id":"c055199c-bd62-490e-8577-d64c0f179897","system_id":"levelo_inurba_marseille","lat":43.28522,"lon":5.44118,"is_reserved":false,"is_disabled":false,"rental_uris":{"android":"levelo://app?vid=c055199c-bd62-490e-8577-d64c0f179897","ios":"levelo://app?vid=c055199c-bd62-490e-8577-d64c0f179897"},"vehicle_type_id":"4","last_reported":1768987351,"current_range_meters":8000,"station_id":"st_d3j3df2ikq2c7380ej80","pricing_plan_id":"cebpf4jnsgd1na2vs0mg"},{"bike_id":"a57784bc-f5d9-4a04-91a0-a0ce88abf185","system_id":"levelo_inurba_marseille","lat":43.24376,"lon":5.37061,"is_reserved":false,"is_disabled":false,"rental_uris":{"android":"levelo://app?vid=a57784bc-f5d9-4a04-91a0-a0ce88abf185","ios":"levelo://app?vid=a57784bc-f5d9-4a04-91a0-a0ce88abf185"},"vehicle_type_id":"4","last_reported":1768987351,"current_range_meters":8400,"station_id":"ce4bhhh2rcd13ifvqfk0","pricing_plan_id":"cebpf4jnsgd1na2vs0mg"},{"bike_id":"d9fff92a-3943-4a01-98e1-7c430b29f114","system_id":"levelo_inurba_marseille","lat":43.27992,"lon":5.41659,"is_reserved":false,"is_disabled":false,"rental_uris":{"android":"levelo://app?vid=d9fff92a-3943-4a01-98e1-7c430b29f114","ios":"levelo://app?vid=d9fff92a-3943-4a01-98e1-7c430b29f114"},"vehicle_type_id":"4","last_reported":1768987351,"current_range_meters":8400,"station_id":"ce4bho12rcd13ifvqh1g","pricing_plan_id":"cebpf4jnsgd1na2vs0mg"},{"bike_id":"f3a01c85-86e9-4a7c-837b-602faf4bbfde","system_id":"levelo_inurba_marseille","lat":43.27992,"lon":5.38672,"is_reserved":false,"is_disabled":false,"rental_uris":{"android":"levelo://app?vid=f3a01c85-86e9-4a7c-837b-602faf4bbfde","ios":"levelo://app?vid=f3a01c85-86e9-4a7c-837b-602faf4bbfde"},"vehicle_type_id":"4","last_reported":1768987351,"current_range_meters":8400,"station_id":"","pricing_plan_id":"cebpf4jnsgd1na2vs0mg"},{"bike_id":"afd8fd13-cc34-473a-ab6a-36eb79f6c2a7","system_id":"levelo_inurba_marseille","lat":43.30295,"lon":5.36913,"is_reserved":false,"is_disabled":false,"rental_uris":{"android":"levelo://app?vid=afd8fd13-cc34-473a-ab6a-36eb79f6c2a7","ios":"levelo://app?vid=afd8fd13-cc34-473a-ab6a-36eb79f6c2a7"},"vehicle_type_id":"4","last_reported":1768987351,"current_range_meters":8400,"station_id":"ce4bgqh2rcd13ifvqc5g","pricing_plan_id":"cebpf4jnsgd1na2vs0mg"},{"bike_id":"3c087dff-0dfb-46c5-8cb7-525bb0a6edcb","system_id":"levelo_inurba_marseille","lat":43.27495,"lon":5.42479,"is_reserved":false,"is_disabled":false,"rental_uris":{"android":"levelo://app?vid=3c087dff-0dfb-46c5-8cb7-525bb0a6edcb","ios":"levelo://app?vid=3c087dff-0dfb-46c5-8cb7-525bb0a6edcb"},"vehicle_type_id":"4","last_reported":1768987351,"current_range_meters":8400,"station_id":"ce4bhn92rcd13ifvqgrg","pricing_plan_id":"cebpf4jnsgd1na2vs0mg"},{"bike_id":"ad7057ca-7153-468f-b5e1-35b723535224","system_id":"levelo_inurba_marseille","lat":43.27968,"lon":5.38721,"is_reserved":false,"is_disabled":false,"rental_uris":{"android":"levelo://app?vid=ad7057ca-7153-468f-b5e1-35b723535224","ios":"levelo://app?vid=ad7057ca-7153-468f-b5e1-35b723535224"},"vehicle_type_id":"4","last_reported":1768987351,"current_range_meters":8400,"station_id":"ce4bhg12rcd13ifvqf80","pricing_plan_id":"cebpf4jnsgd1na2vs0mg"},{"bike_id":"df4049dc-9a8b-4faa-aedc-bb3153116fad","system_id":"levelo_inurba_marseille","lat":43.3046,"lon":5.37921,"is_reserved":false,"is_disabled":false,"rental_uris":{"android":"levelo://app?vid=df4049dc-9a8b-4faa-aedc-bb3153116fad","ios":"levelo://app?vid=df4049dc-9a8b-4faa-aedc-bb3153116fad"},"vehicle_type_id":"4","last_reported":1768987351,"current_range_meters":8400,"station_id":"ce4bgup2rcd13ifvqcn0","pricing_plan_id":"cebpf4jnsgd1na2vs0mg"},{"bike_id":"83a27adc-f08b-4f3c-9386-51ca11678b54","system_id":"levelo_inurba_marseille","lat":43.33608,"lon":5.41039,"is_reserved":false,"is_disabled":false,"rental_uris":{"android":"levelo://app?vid=83a27adc-f08b-4f3c-9386-51ca11678b54","ios":"levelo://app?vid=83a27adc-f08b-4f3c-9386-51ca11678b54"},"vehicle_type_id":"4","last_reported":1768987351,"current_range_meters":8400,"station_id":"ce4bhqh2rcd13ifvqhmg","pricing_plan_id":"cebpf4jnsgd1na2vs0mg"},{"bike_id":"87376c51-7b52-4611-acd2-49441baafe3f","system_id":"levelo_inurba_marseille","lat":43.24616,"lon":5.40208,"is_reserved":false,"is_disabled":false,"rental_uris":{"android":"levelo://app?vid=87376c51-7b52-4611-acd2-49441baafe3f","ios":"levelo://app?vid=87376c51-7b52-4611-acd2-49441baafe3f"},"vehicle_type_id":"4","last_reported":1768987351,"current_range_meters":8400,"station_id":"","pricing_plan_id":"cebpf4jnsgd1na2vs0mg"},{"bike_id":"89c47dd6-b48b-456f-9606-c6f1e386ec61","system_id":"levelo_inurba_marseille","lat":43.30497,"lon":5.37894,"is_reserved":false,"is_disabled":false,"rental_uris":{"android":"levelo://app?vid=89c47dd6-b48b-456f-9606-c6f1e386ec61","ios":"levelo://app?vid=89c47dd6-b48b-456f-9606-c6f1e386ec61"},"vehicle_type_id":"4","last_reported":1768987351,"current_range_meters":8400,"station_id":"ce4bgup2rcd13ifvqcn0","pricing_plan_id":"cebpf4jnsgd1na2vs0mg"},{"bike_id":"e60b80c1-e035-4d06-8dfd-6a5996278e1f","system_id":"levelo_inurba_marseille","lat":43.244705,"lon":5.425347,"is_reserved":false,"is_disabled":false,"rental_uris":{"android":"levelo://app?vid=e60b80c1-e035-4d06-8dfd-6a5996278e1f","ios":"levelo://app?vid=e60b80c1-e035-4d06-8dfd-6a5996278e1f"},"vehicle_type_id":"4","last_reported":1768987351,"current_range_meters":8400,"station_id":"st_d4a3vfp97mjs738cd8kg","pricing_plan_id":"cebpf4jnsgd1na2vs0mg"},{"bike_id":"131d083d-d299-49de-ae79-91ebeb210640","system_id":"levelo_inurba_marseille","lat":43.25717,"lon":5.41781,"is_reserved":false,"is_disabled":false,"rental_uris":{"android":"levelo://app?vid=131d083d-d299-49de-ae79-91ebeb210640","ios":"levelo://app?vid=131d083d-d299-49de-ae79-91ebeb210640"},"vehicle_type_id":"4","last_reported":1768987351,"current_range_meters":8400,"station_id":"","pricing_plan_id":"cebpf4jnsgd1na2vs0mg"},{"bike_id":"e3539b72-d102-4271-b9f2-85f96b36fcb8","system_id":"levelo_inurba_marseille","lat":43.27674,"lon":5.38872,"is_reserved":false,"is_disabled":false,"rental_uris":{"android":"levelo://app?vid=e3539b72-d102-4271-b9f2-85f96b36fcb8","ios":"levelo://app?vid=e3539b72-d102-4271-b9f2-85f96b36fcb8"},"vehicle_type_id":"4","last_reported":1768987351,"current_range_meters":8400,"station_id":"ce4bhi12rcd13ifvqfo0","pricing_plan_id":"cebpf4jnsgd1na2vs0mg"},{"bike_id":"6fb19c91-7ffd-4222-b20e-e8f53699bc07","system_id":"levelo_inurba_marseille","lat":43.31893,"lon":5.40733,"is_reserved":false,"is_disabled":false,"rental_uris":{"android":"levelo://app?vid=6fb19c91-7ffd-4222-b20e-e8f53699bc07","ios":"levelo://app?vid=6fb19c91-7ffd-4222-b20e-e8f53699bc07"},"vehicle_type_id":"4","last_reported":1768987351,"current_range_meters":8800,"station_id":"ce4bhq12rcd13ifvqhig","pricing_plan_id":"cebpf4jnsgd1na2vs0mg"},{"bike_id":"408e8636-0be7-4b88-bee2-39675973c9f7","system_id":"levelo_inurba_marseille","lat":43.29043,"lon":5.39948,"is_reserved":false,"is_disabled":false,"rental_uris":{"android":"levelo://app?vid=408e8636-0be7-4b88-bee2-39675973c9f7","ios":"levelo://app?vid=408e8636-0be7-4b88-bee2-39675973c9f7"},"vehicle_type_id":"4","last_reported":1768987351,"current_range_meters":8800,"station_id":"ce4bh392rcd13ifvqdm0","pricing_plan_id":"cebpf4jnsgd1na2vs0mg"},{"bike_id":"b91f503c-8605-4d6a-a4e9-dcdc7e1616c6","system_id":"levelo_inurba_marseille","lat":43.30783,"lon":5.37664,"is_reserved":false,"is_disabled":false,"rental_uris":{"android":"levelo://app?vid=b91f503c-8605-4d6a-a4e9-dcdc7e1616c6","ios":"levelo://app?vid=b91f503c-8605-4d6a-a4e9-dcdc7e1616c6"},"vehicle_type_id":"4","last_reported":1768987351,"current_range_meters":8800,"station_id":"ce4bgv92rcd13ifvqcq0","pricing_plan_id":"cebpf4jnsgd1na2vs0mg"},{"bike_id":"19c9b524-76f1-4e5d-8be9-000b11a19079","system_id":"levelo_inurba_marseille","lat":43.25002,"lon":5.389174,"is_reserved":false,"is_disabled":false,"rental_uris":{"android":"levelo://app?vid=19c9b524-76f1-4e5d-8be9-000b11a19079","ios":"levelo://app?vid=19c9b524-76f1-4e5d-8be9-000b11a19079"},"vehicle_type_id":"4","last_reported":1768987351,"current_range_meters":8800,"station_id":"ce4bhgp2rcd13ifvqfd0","pricing_plan_id":"cebpf4jnsgd1na2vs0mg"},{"bike_id":"ebc59118-e1a4-482d-84d0-eafb34b0b9ea","system_id":"levelo_inurba_marseille","lat":43.237817,"lon":5.366292,"is_reserved":false,"is_disabled":false,"rental_uris":{"android":"levelo://app?vid=ebc59118-e1a4-482d-84d0-eafb34b0b9ea","ios":"levelo://app?vid=ebc59118-e1a4-482d-84d0-eafb34b0b9ea"},"vehicle_type_id":"4","last_reported":1768987351,"current_range_meters":8800,"station_id":"st_d3nk18o9ro0c73en2l3g","pricing_plan_id":"cebpf4jnsgd1na2vs0mg"},{"bike_id":"bbdf18db-231e-4ed5-8700-c5b9cb7287e0","system_id":"levelo_inurba_marseille","lat":43.24811,"lon":5.37453,"is_reserved":false,"is_disabled":false,"rental_uris":{"android":"levelo://app?vid=bbdf18db-231e-4ed5-8700-c5b9cb7287e0","ios":"levelo://app?vid=bbdf18db-231e-4ed5-8700-c5b9cb7287e0"},"vehicle_type_id":"4","last_reported":1768987351,"current_range_meters":8800,"station_id":"ce4bhgh2rcd13ifvqfb0","pricing_plan_id":"cebpf4jnsgd1na2vs0mg"},{"bike_id":"afcede41-e8c8-492e-a6e3-4b5afc8eead9","system_id":"levelo_inurba_marseille","lat":43.278107,"lon":5.407074,"is_reserved":false,"is_disabled":false,"rental_uris":{"android":"levelo://app?vid=afcede41-e8c8-492e-a6e3-4b5afc8eead9","ios":"levelo://app?vid=afcede41-e8c8-492e-a6e3-4b5afc8eead9"},"vehicle_type_id":"4","last_reported":1768987351,"current_range_meters":8800,"station_id":"ce4bhnh2rcd13ifvqgtg","pricing_plan_id":"cebpf4jnsgd1na2vs0mg"},{"bike_id":"fe2a828f-710f-491e-b529-f22ca09a8365","system_id":"levelo_inurba_marseille","lat":43.307259,"lon":5.409607,"is_reserved":false,"is_disabled":false,"rental_uris":{"android":"levelo://app?vid=fe2a828f-710f-491e-b529-f22ca09a8365","ios":"levelo://app?vid=fe2a828f-710f-491e-b529-f22ca09a8365"},"vehicle_type_id":"4","last_reported":1768987351,"current_range_meters":8800,"station_id":"","pricing_plan_id":"cebpf4jnsgd1na2vs0mg"},{"bike_id":"f245b279-0874-4580-99fa-dc4431352954","system_id":"levelo_inurba_marseille","lat":43.28708,"lon":5.37951,"is_reserved":false,"is_disabled":false,"rental_uris":{"android":"levelo://app?vid=f245b279-0874-4580-99fa-dc4431352954","ios":"levelo://app?vid=f245b279-0874-4580-99fa-dc4431352954"},"vehicle_type_id":"4","last_reported":1768987351,"current_range_meters":8800,"station_id":"ce4bh9p2rcd13ifvqec0","pricing_plan_id":"cebpf4jnsgd1na2vs0mg"},{"bike_id":"90fd9743-abf7-4844-951b-b0c621e30ae6","system_id":"levelo_inurba_marseille","lat":43.30959,"lon":5.36831,"is_reserved":false,"is_disabled":false,"rental_uris":{"android":"levelo://app?vid=90fd9743-abf7-4844-951b-b0c621e30ae6","ios":"levelo://app?vid=90fd9743-abf7-4844-951b-b0c621e30ae6"},"vehicle_type_id":"4","last_reported":1768987351,"current_range_meters":8800,"station_id":"","pricing_plan_id":"cebpf4jnsgd1na2vs0mg"},{"bike_id":"ca1f68a2-e356-46d7-8d5f-503710c9279d","system_id":"levelo_inurba_marseille","lat":43.2558,"lon":5.38249,"is_reserved":false,"is_disabled":false,"rental_uris":{"android":"levelo://app?vid=ca1f68a2-e356-46d7-8d5f-503710c9279d","ios":"levelo://app?vid=ca1f68a2-e356-46d7-8d5f-503710c9279d"},"vehicle_type_id":"4","last_reported":1768987351,"current_range_meters":8800,"station_id":"ce4bhih2rcd13ifvqfs0","pricing_plan_id":"cebpf4jnsgd1na2vs0mg"},{"bike_id":"23108308-7cb6-4a6a-a88c-b5f7bb971ba2","system_id":"levelo_inurba_marseille","lat":43.29034,"lon":5.39973,"is_reserved":false,"is_disabled":false,"rental_uris":{"android":"levelo://app?vid=23108308-7cb6-4a6a-a88c-b5f7bb971ba2","ios":"levelo://app?vid=23108308-7cb6-4a6a-a88c-b5f7bb971ba2"},"vehicle_type_id":"4","last_reported":1768987351,"current_range_meters":8800,"station_id":"ce4bh392rcd13ifvqdm0","pricing_plan_id":"cebpf4jnsgd1na2vs0mg"},{"bike_id":"6ce190b6-c466-4ac6-bb9d-9cc75b2398c8","system_id":"levelo_inurba_marseille","lat":43.30944,"lon":5.39037,"is_reserved":false,"is_disabled":false,"rental_uris":{"android":"levelo://app?vid=6ce190b6-c466-4ac6-bb9d-9cc75b2398c8","ios":"levelo://app?vid=6ce190b6-c466-4ac6-bb9d-9cc75b2398c8"},"vehicle_type_id":"4","last_reported":1768987351,"current_range_meters":8800,"station_id":"ce4bgup2rcd13ifvqco0","pricing_plan_id":"cebpf4jnsgd1na2vs0mg"},{"bike_id":"d3a42661-d9b0-4432-8a27-a3866875170d","system_id":"levelo_inurba_marseille","lat":43.27837,"lon":5.40663,"is_reserved":false,"is_disabled":false,"rental_uris":{"android":"levelo://app?vid=d3a42661-d9b0-4432-8a27-a3866875170d","ios":"levelo://app?vid=d3a42661-d9b0-4432-8a27-a3866875170d"},"vehicle_type_id":"4","last_reported":1768987351,"current_range_meters":8800,"station_id":"","pricing_plan_id":"cebpf4jnsgd1na2vs0mg"},{"bike_id":"af810d0b-f695-4286-a0d5-3e1ff6f3f852","system_id":"levelo_inurba_marseille","lat":43.23192,"lon":5.3998,"is_reserved":false,"is_disabled":false,"rental_uris":{"android":"levelo://app?vid=af810d0b-f695-4286-a0d5-3e1ff6f3f852","ios":"levelo://app?vid=af810d0b-f695-4286-a0d5-3e1ff6f3f852"},"vehicle_type_id":"4","last_reported":1768987351,"current_range_meters":8800,"station_id":"ce4bhn12rcd13ifvqgqg","pricing_plan_id":"cebpf4jnsgd1na2vs0mg"},{"bike_id":"aec5c08c-9f05-47e9-bb02-2d63b83fc483","system_id":"levelo_inurba_marseille","lat":43.26742,"lon":5.39243,"is_reserved":false,"is_disabled":false,"rental_uris":{"android":"levelo://app?vid=aec5c08c-9f05-47e9-bb02-2d63b83fc483","ios":"levelo://app?vid=aec5c08c-9f05-47e9-bb02-2d63b83fc483"},"vehicle_type_id":"4","last_reported":1768987351,"current_range_meters":8800,"station_id":"","pricing_plan_id":"cebpf4jnsgd1na2vs0mg"},{"bike_id":"dd72fdba-bff0-468c-841b-91cb39930c02","system_id":"levelo_inurba_marseille","lat":43.32489,"lon":5.36561,"is_reserved":false,"is_disabled":false,"rental_uris":{"android":"levelo://app?vid=dd72fdba-bff0-468c-841b-91cb39930c02","ios":"levelo://app?vid=dd72fdba-bff0-468c-841b-91cb39930c02"},"vehicle_type_id":"4","last_reported":1768987351,"current_range_meters":8800,"station_id":"ce4bhs12rcd13ifvqhvg","pricing_plan_id":"cebpf4jnsgd1na2vs0mg"},{"bike_id":"ebf3a951-6feb-4a52-b19b-c1128277b0f9","system_id":"levelo_inurba_marseille","lat":43.240853,"lon":5.377513,"is_reserved":false,"is_disabled":false,"rental_uris":{"android":"levelo://app?vid=ebf3a951-6feb-4a52-b19b-c1128277b0f9","ios":"levelo://app?vid=ebf3a951-6feb-4a52-b19b-c1128277b0f9"},"vehicle_type_id":"4","last_reported":1768987351,"current_range_meters":8800,"station_id":"","pricing_plan_id":"cebpf4jnsgd1na2vs0mg"},{"bike_id":"9eb838f2-7d77-4f99-980e-746abce00d4e","system_id":"levelo_inurba_marseille","lat":43.248,"lon":5.37461,"is_reserved":false,"is_disabled":false,"rental_uris":{"android":"levelo://app?vid=9eb838f2-7d77-4f99-980e-746abce00d4e","ios":"levelo://app?vid=9eb838f2-7d77-4f99-980e-746abce00d4e"},"vehicle_type_id":"4","last_reported":1768987351,"current_range_meters":8800,"station_id":"ce4bhgh2rcd13ifvqfb0","pricing_plan_id":"cebpf4jnsgd1na2vs0mg"},{"bike_id":"83461687-2d6f-44e3-8195-fb721f9fb181","system_id":"levelo_inurba_marseille","lat":43.28478,"lon":5.48399,"is_reserved":false,"is_disabled":false,"rental_uris":{"android":"levelo://app?vid=83461687-2d6f-44e3-8195-fb721f9fb181","ios":"levelo://app?vid=83461687-2d6f-44e3-8195-fb721f9fb181"},"vehicle_type_id":"4","last_reported":1768987351,"current_range_meters":8800,"station_id":"","pricing_plan_id":"cebpf4jnsgd1na2vs0mg"},{"bike_id":"b451a4e3-2bf4-4d2b-8c22-e5d25007c832","system_id":"levelo_inurba_marseille","lat":43.29757,"lon":5.42776,"is_reserved":false,"is_disabled":false,"rental_uris":{"android":"levelo://app?vid=b451a4e3-2bf4-4d2b-8c22-e5d25007c832","ios":"levelo://app?vid=b451a4e3-2bf4-4d2b-8c22-e5d25007c832"},"vehicle_type_id":"4","last_reported":1768987351,"current_range_meters":8800,"station_id":"st_d3md5207bmas73dh9klg","pricing_plan_id":"cebpf4jnsgd1na2vs0mg"},{"bike_id":"cc08d2b6-69fb-4c32-9f0f-91f88c556b74","system_id":"levelo_inurba_marseille","lat":43.22938,"lon":5.35371,"is_reserved":false,"is_disabled":false,"rental_uris":{"android":"levelo://app?vid=cc08d2b6-69fb-4c32-9f0f-91f88c556b74","ios":"levelo://app?vid=cc08d2b6-69fb-4c32-9f0f-91f88c556b74"},"vehicle_type_id":"4","last_reported":1768987351,"current_range_meters":8800,"station_id":"cpo3532slgdg3j2ikp40","pricing_plan_id":"cebpf4jnsgd1na2vs0mg"},{"bike_id":"66588bd4-ede7-4f16-9000-80e9462d12b2","system_id":"levelo_inurba_marseille","lat":43.30953,"lon":5.39044,"is_reserved":false,"is_disabled":false,"rental_uris":{"android":"levelo://app?vid=66588bd4-ede7-4f16-9000-80e9462d12b2","ios":"levelo://app?vid=66588bd4-ede7-4f16-9000-80e9462d12b2"},"vehicle_type_id":"4","last_reported":1768987351,"current_range_meters":8800,"station_id":"ce4bgup2rcd13ifvqco0","pricing_plan_id":"cebpf4jnsgd1na2vs0mg"},{"bike_id":"5b67957c-7472-478e-87c5-40953e39b0db","system_id":"levelo_inurba_marseille","lat":43.29926,"lon":5.37456,"is_reserved":false,"is_disabled":false,"rental_uris":{"android":"levelo://app?vid=5b67957c-7472-478e-87c5-40953e39b0db","ios":"levelo://app?vid=5b67957c-7472-478e-87c5-40953e39b0db"},"vehicle_type_id":"4","last_reported":1768987351,"current_range_meters":8800,"station_id":"ce4bgjh2rcd13ifvqbg0","pricing_plan_id":"cebpf4jnsgd1na2vs0mg"},{"bike_id":"e18e15b1-254c-4764-89f5-4ecaf6dde180","system_id":"levelo_inurba_marseille","lat":43.31336,"lon":5.36705,"is_reserved":false,"is_disabled":false,"rental_uris":{"android":"levelo://app?vid=e18e15b1-254c-4764-89f5-4ecaf6dde180","ios":"levelo://app?vid=e18e15b1-254c-4764-89f5-4ecaf6dde180"},"vehicle_type_id":"4","last_reported":1768987351,"current_range_meters":9200,"station_id":"ce4bgr92rcd13ifvqc6g","pricing_plan_id":"cebpf4jnsgd1na2vs0mg"},{"bike_id":"e07cc4c7-f8da-43b9-86b7-9b5a29a91e8f","system_id":"levelo_inurba_marseille","lat":43.278916,"lon":5.380328,"is_reserved":false,"is_disabled":false,"rental_uris":{"android":"levelo://app?vid=e07cc4c7-f8da-43b9-86b7-9b5a29a91e8f","ios":"levelo://app?vid=e07cc4c7-f8da-43b9-86b7-9b5a29a91e8f"},"vehicle_type_id":"4","last_reported":1768987351,"current_range_meters":9200,"station_id":"ce4bhf92rcd13ifvqf50","pricing_plan_id":"cebpf4jnsgd1na2vs0mg"},{"bike_id":"ae082b45-528d-4d2d-a946-c7dc2ab87b58","system_id":"levelo_inurba_marseille","lat":43.27404,"lon":5.36255,"is_reserved":false,"is_disabled":false,"rental_uris":{"android":"levelo://app?vid=ae082b45-528d-4d2d-a946-c7dc2ab87b58","ios":"levelo://app?vid=ae082b45-528d-4d2d-a946-c7dc2ab87b58"},"vehicle_type_id":"4","last_reported":1768987351,"current_range_meters":9200,"station_id":"ce4bhbh2rcd13ifvqeo0","pricing_plan_id":"cebpf4jnsgd1na2vs0mg"},{"bike_id":"28f55ca8-d2ea-41c1-902d-e5277b239569","system_id":"levelo_inurba_marseille","lat":43.26383,"lon":5.41048,"is_reserved":false,"is_disabled":false,"rental_uris":{"android":"levelo://app?vid=28f55ca8-d2ea-41c1-902d-e5277b239569","ios":"levelo://app?vid=28f55ca8-d2ea-41c1-902d-e5277b239569"},"vehicle_type_id":"4","last_reported":1768987351,"current_range_meters":9200,"station_id":"st_d4e5ca6na9uc73bfl5fg","pricing_plan_id":"cebpf4jnsgd1na2vs0mg"},{"bike_id":"86fab962-3ac3-4bbf-b258-0c4cf3a7dea9","system_id":"levelo_inurba_marseille","lat":43.28607,"lon":5.37065,"is_reserved":false,"is_disabled":false,"rental_uris":{"android":"levelo://app?vid=86fab962-3ac3-4bbf-b258-0c4cf3a7dea9","ios":"levelo://app?vid=86fab962-3ac3-4bbf-b258-0c4cf3a7dea9"},"vehicle_type_id":"4","last_reported":1768987351,"current_range_meters":9200,"station_id":"ce4bht12rcd13ifvqi60","pricing_plan_id":"cebpf4jnsgd1na2vs0mg"},{"bike_id":"7324fb5c-239f-44d5-b872-0cc0e1e655ec","system_id":"levelo_inurba_marseille","lat":43.30596,"lon":5.37233,"is_reserved":false,"is_disabled":false,"rental_uris":{"android":"levelo://app?vid=7324fb5c-239f-44d5-b872-0cc0e1e655ec","ios":"levelo://app?vid=7324fb5c-239f-44d5-b872-0cc0e1e655ec"},"vehicle_type_id":"4","last_reported":1768987351,"current_range_meters":9200,"station_id":"ce4bgqh2rcd13ifvqc4g","pricing_plan_id":"cebpf4jnsgd1na2vs0mg"},{"bike_id":"6f792e2d-ddd7-454b-9d4b-1594239891ad","system_id":"levelo_inurba_marseille","lat":43.23155,"lon":5.43705,"is_reserved":false,"is_disabled":false,"rental_uris":{"android":"levelo://app?vid=6f792e2d-ddd7-454b-9d4b-1594239891ad","ios":"levelo://app?vid=6f792e2d-ddd7-454b-9d4b-1594239891ad"},"vehicle_type_id":"4","last_reported":1768987351,"current_range_meters":9200,"station_id":"ce4bhmp2rcd13ifvqgog","pricing_plan_id":"cebpf4jnsgd1na2vs0mg"},{"bike_id":"0c854f8e-3157-43a2-a218-3c98ead34c78","system_id":"levelo_inurba_marseille","lat":43.337444,"lon":5.374475,"is_reserved":false,"is_disabled":false,"rental_uris":{"android":"levelo://app?vid=0c854f8e-3157-43a2-a218-3c98ead34c78","ios":"levelo://app?vid=0c854f8e-3157-43a2-a218-3c98ead34c78"},"vehicle_type_id":"4","last_reported":1768987351,"current_range_meters":9200,"station_id":"","pricing_plan_id":"cebpf4jnsgd1na2vs0mg"},{"bike_id":"fddbb7cb-a21d-46ff-8d07-df9eecd44019","system_id":"levelo_inurba_marseille","lat":43.32106,"lon":5.36809,"is_reserved":false,"is_disabled":false,"rental_uris":{"android":"levelo://app?vid=fddbb7cb-a21d-46ff-8d07-df9eecd44019","ios":"levelo://app?vid=fddbb7cb-a21d-46ff-8d07-df9eecd44019"},"vehicle_type_id":"4","last_reported":1768987351,"current_range_meters":9200,"station_id":"ce4bhrh2rcd13ifvqhug","pricing_plan_id":"cebpf4jnsgd1na2vs0mg"},{"bike_id":"bf9df301-dc0d-41cc-96a1-27301e9f819b","system_id":"levelo_inurba_marseille","lat":43.284745,"lon":5.483902,"is_reserved":false,"is_disabled":false,"rental_uris":{"android":"levelo://app?vid=bf9df301-dc0d-41cc-96a1-27301e9f819b","ios":"levelo://app?vid=bf9df301-dc0d-41cc-96a1-27301e9f819b"},"vehicle_type_id":"4","last_reported":1768987351,"current_range_meters":9200,"station_id":"","pricing_plan_id":"cebpf4jnsgd1na2vs0mg"},{"bike_id":"fc6aca5a-496d-4530-9df8-fe55c496f863","system_id":"levelo_inurba_marseille","lat":43.29847,"lon":5.36271,"is_reserved":false,"is_disabled":false,"rental_uris":{"android":"levelo://app?vid=fc6aca5a-496d-4530-9df8-fe55c496f863","ios":"levelo://app?vid=fc6aca5a-496d-4530-9df8-fe55c496f863"},"vehicle_type_id":"4","last_reported":1768987351,"current_range_meters":9200,"station_id":"ce4bgpp2rcd13ifvqc3g","pricing_plan_id":"cebpf4jnsgd1na2vs0mg"},{"bike_id":"488d3d36-c3f0-4390-80be-f0194a76248a","system_id":"levelo_inurba_marseille","lat":43.25584,"lon":5.40426,"is_reserved":false,"is_disabled":false,"rental_uris":{"android":"levelo://app?vid=488d3d36-c3f0-4390-80be-f0194a76248a","ios":"levelo://app?vid=488d3d36-c3f0-4390-80be-f0194a76248a"},"vehicle_type_id":"4","last_reported":1768987351,"current_range_meters":9200,"station_id":"","pricing_plan_id":"cebpf4jnsgd1na2vs0mg"},{"bike_id":"681c3f9d-33c8-44c5-9341-de33657d6f2c","system_id":"levelo_inurba_marseille","lat":43.26374,"lon":5.41075,"is_reserved":false,"is_disabled":false,"rental_uris":{"android":"levelo://app?vid=681c3f9d-33c8-44c5-9341-de33657d6f2c","ios":"levelo://app?vid=681c3f9d-33c8-44c5-9341-de33657d6f2c"},"vehicle_type_id":"4","last_reported":1768987351,"current_range_meters":9200,"station_id":"st_d4e5ca6na9uc73bfl5fg","pricing_plan_id":"cebpf4jnsgd1na2vs0mg"},{"bike_id":"5e95f3a5-60d6-42c1-a352-b82dbff05170","system_id":"levelo_inurba_marseille","lat":43.27212,"lon":5.39187,"is_reserved":false,"is_disabled":false,"rental_uris":{"android":"levelo://app?vid=5e95f3a5-60d6-42c1-a352-b82dbff05170","ios":"levelo://app?vid=5e95f3a5-60d6-42c1-a352-b82dbff05170"},"vehicle_type_id":"4","last_reported":1768987351,"current_range_meters":9200,"station_id":"ce4bhhp2rcd13ifvqfm0","pricing_plan_id":"cebpf4jnsgd1na2vs0mg"},{"bike_id":"babbe422-28f9-4e25-b94d-b05370be84e3","system_id":"levelo_inurba_marseille","lat":43.25134,"lon":5.40315,"is_reserved":false,"is_disabled":true,"rental_uris":{"android":"levelo://app?vid=babbe422-28f9-4e25-b94d-b05370be84e3","ios":"levelo://app?vid=babbe422-28f9-4e25-b94d-b05370be84e3"},"vehicle_type_id":"4","last_reported":1768987351,"current_range_meters":9200,"station_id":"ce4bhlh2rcd13ifvqgig","pricing_plan_id":"cebpf4jnsgd1na2vs0mg"},{"bike_id":"92fae753-14ea-45c8-9fbe-b2f17fe3a0df","system_id":"levelo_inurba_marseille","lat":43.321077,"lon":5.367824,"is_reserved":false,"is_disabled":false,"rental_uris":{"android":"levelo://app?vid=92fae753-14ea-45c8-9fbe-b2f17fe3a0df","ios":"levelo://app?vid=92fae753-14ea-45c8-9fbe-b2f17fe3a0df"},"vehicle_type_id":"4","last_reported":1768987351,"current_range_meters":9200,"station_id":"ce4bhrh2rcd13ifvqhug","pricing_plan_id":"cebpf4jnsgd1na2vs0mg"},{"bike_id":"8d79b599-322a-4b8d-bfb0-fd0690ea34d0","system_id":"levelo_inurba_marseille","lat":43.288046,"lon":5.380384,"is_reserved":false,"is_disabled":false,"rental_uris":{"android":"levelo://app?vid=8d79b599-322a-4b8d-bfb0-fd0690ea34d0","ios":"levelo://app?vid=8d79b599-322a-4b8d-bfb0-fd0690ea34d0"},"vehicle_type_id":"4","last_reported":1768987351,"current_range_meters":9200,"station_id":"","pricing_plan_id":"cebpf4jnsgd1na2vs0mg"},{"bike_id":"79ac280f-8d0f-4c78-92f9-69fedf2b6a2a","system_id":"levelo_inurba_marseille","lat":43.23971,"lon":5.3663,"is_reserved":false,"is_disabled":false,"rental_uris":{"android":"levelo://app?vid=79ac280f-8d0f-4c78-92f9-69fedf2b6a2a","ios":"levelo://app?vid=79ac280f-8d0f-4c78-92f9-69fedf2b6a2a"},"vehicle_type_id":"4","last_reported":1768987351,"current_range_meters":9200,"station_id":"ce4bhi12rcd13ifvqfp0","pricing_plan_id":"cebpf4jnsgd1na2vs0mg"},{"bike_id":"b26b1a89-bfd7-4ae9-8891-f8a5f84b50c4","system_id":"levelo_inurba_marseille","lat":43.2927,"lon":5.36832,"is_reserved":false,"is_disabled":false,"rental_uris":{"android":"levelo://app?vid=b26b1a89-bfd7-4ae9-8891-f8a5f84b50c4","ios":"levelo://app?vid=b26b1a89-bfd7-4ae9-8891-f8a5f84b50c4"},"vehicle_type_id":"4","last_reported":1768987351,"current_range_meters":9600,"station_id":"ce4bhbp2rcd13ifvqesg","pricing_plan_id":"cebpf4jnsgd1na2vs0mg"},