{"last_updated":1737223830,"ttl":60,"version":"2.2","data":{"bikes":[{"bike_id":"d567f523-1a03-4caa-a7a6-4511ff27a603","system_id":"levelo_inurba_marseille","lat":43.29308,"lon":5.37183,"is_reserved":false,"is_disabled":false,"rental_uris":{"android":"levelo://app?vid=d567f523-1a03-4caa-a7a6-4511ff27a603","ios":"levelo://app?vid=d567f523-1a03-4caa-a7a6-4511ff27a603"},"vehicle_type_id":"4","last_reported":1737223830,"current_range_meters":28800,"station_id":"ce4bgh92rcd13ifvqb40","pricing_plan_id":"cebpf4jnsgd1na2vs0mg"},{"bike_id":"cc42bc2f-b7e2-4c62-8b97-9a7c30295eef","system_id":"levelo_inurba_marseille","lat":43.29553,"lon":5.4229,"is_reserved":false,"is_disabled":false,"rental_uris":{"android":"levelo://app?vid=cc42bc2f-b7e2-4c62-8b97-9a7c30295eef","ios":"levelo://app?vid=cc42bc2f-b7e2-4c62-8b97-9a7c30295eef"},"vehicle_type_id":"4","last_reported":1737223830,"current_range_meters":23200,"station_id":"ce4bhph2rcd13ifvqhdg","pricing_plan_id":"cebpf4jnsgd1na2vs0mg"},{"bike_id":"a2acfcf5-a2f4-4227-800b-90a2385f3572","system_id":"levelo_inurba_marseille","lat":43.29078,"lon":5.37175,"is_reserved":false,"is_disabled":true,"rental_uris":{"android":"levelo://app?vid=a2acfcf5-a2f4-4227-800b-90a2385f3572","ios":"levelo://app?vid=a2acfcf5-a2f4-4227-800b-90a2385f3572"},"vehicle_type_id":"4","last_reported":1737223830,"current_range_meters":0,"station_id":"ce4bh5p2rcd13ifvqe4g","pricing_plan_id":"cebpf4jnsgd1na2vs0mg"},{"bike_id":"6546dee9-d38f-4171-a07d-c255cc5fb27e","system_id":"levelo_inurba_marseille","lat":43.25109,"lon":5.40315,"is_reserved":false,"is_disabled":false,"rental_uris":{"android":"levelo://app?vid=6546dee9-d38f-4171-a07d-c255cc5fb27e","ios":"levelo://app?vid=6546dee9-d38f-4171-a07d-c255cc5fb27e"},"vehicle_type_id":"4","last_reported":1737223830,"current_range_meters":28400,"station_id":"ce4bhlh2rcd13ifvqgig","pricing_plan_id":"cebpf4jnsgd1na2vs0mg"},{"bike_id":"afbd402b-f228-467c-9014-d1c220bfa174","system_id":"levelo_inurba_marseille","lat":43.29207,"lon":5.36038,"is_reserved":false,"is_disabled":false,"rental_uris":{"android":"levelo://app?vid=afbd402b-f228-467c-9014-d1c220bfa174","ios":"levelo://app?vid=afbd402b-f228-467c-9014-d1c220bfa174"},"vehicle_type_id":"4","last_reported":1737223830,"current_range_meters":37600,"station_id":"ce4bhbh2rcd13ifvqeqg","pricing_plan_id":"cebpf4jnsgd1na2vs0mg"},{"bike_id":"48dc0dc0-0476-4a51-ab5e-63119005b192","system_id":"levelo_inurba_marseille","lat":43.29528,"lon":5.390445,"is_reserved":false,"is_disabled":false,"rental_uris":{"android":"levelo://app?vid=48dc0dc0-0476-4a51-ab5e-63119005b192","ios":"levelo://app?vid=48dc0dc0-0476-4a51-ab5e-63119005b192"},"vehicle_type_id":"4","last_reported":1737223830,"current_range_meters":25600,"station_id":"ce4bh3p2rcd13ifvqdp0","pricing_plan_id":"cebpf4jnsgd1na2vs0mg"},{"bike_id":"a5cfd84d-4cae-4412-b199-dcb982d64799","system_id":"levelo_inurba_marseille","lat":43.28442,"lon":5.39186,"is_reserved":false,"is_disabled":true,"rental_uris":{"android":"levelo://app?vid=a5cfd84d-4cae-4412-b199-dcb982d64799","ios":"levelo://app?vid=a5cfd84d-4cae-4412-b199-dcb982d64799"},"vehicle_type_id":"4","last_reported":1737223830,"current_range_meters":1600,"station_id":"ce4bhoh2rcd13ifvqh5g","pricing_plan_id":"cebpf4jnsgd1na2vs0mg"},{"bike_id":"88230d83-ff24-471a-8198-a8b486f2e32f","system_id":"levelo_inurba_marseille","lat":43.26558,"lon":5.37285,"is_reserved":false,"is_disabled":false,"rental_uris":{"android":"levelo://app?vid=88230d83-ff24-471a-8198-a8b486f2e32f","ios":"levelo://app?vid=88230d83-ff24-471a-8198-a8b486f2e32f"},"vehicle_type_id":"4","last_reported":1737223830,"current_range_meters":25600,"station_id":"ce4bhg12rcd13ifvqf70","pricing_plan_id":"cebpf4jnsgd1na2vs0mg"},{"bike_id":"02ce3e8e-6ef8-48e8-8e39-50ed964e3fb8","system_id":"levelo_inurba_marseille","lat":43.29413,"lon":5.3942,"is_reserved":false,"is_disabled":true,"rental_uris":{"android":"levelo://app?vid=02ce3e8e-6ef8-48e8-8e39-50ed964e3fb8","ios":"levelo://app?vid=02ce3e8e-6ef8-48e8-8e39-50ed964e3fb8"},"vehicle_type_id":"4","last_reported":1737223830,"current_range_meters":0,"station_id":"","pricing_plan_id":"cebpf4jnsgd1na2vs0mg"},{"bike_id":"12c9b135-5b10-4666-b14c-9b21c31e1a34","system_id":"levelo_inurba_marseille","lat":43.26031,"lon":5.37552,"is_reserved":false,"is_disabled":false,"rental_uris":{"android":"levelo://app?vid=12c9b135-5b10-4666-b14c-9b21c31e1a34","ios":"levelo://app?vid=12c9b135-5b10-4666-b14c-9b21c31e1a34"},"vehicle_type_id":"4","last_reported":1737223830,"current_range_meters":5600,"station_id":"ce4bhgh2rcd13ifvqfa0","pricing_plan_id":"cebpf4jnsgd1na2vs0mg"},{"bike_id":"4fb6a51d-9d4a-4bf2-b0b9-93d4d4401950","system_id":"levelo_inurba_marseille","lat":43.3248,"lon":5.36569,"is_reserved":false,"is_disabled":false,"rental_uris":{"android":"levelo://app?vid=4fb6a51d-9d4a-4bf2-b0b9-93d4d4401950","ios":"levelo://app?vid=4fb6a51d-9d4a-4bf2-b0b9-93d4d4401950"},"vehicle_type_id":"4","last_reported":1737223830,"current_range_meters":27600,"station_id":"ce4bhs12rcd13ifvqhvg","pricing_plan_id":"cebpf4jnsgd1na2vs0mg"},{"bike_id":"5bb25b66-dfde-421f-899c-965f8fcad2fc","system_id":"levelo_inurba_marseille","lat":43.28458,"lon":5.38408,"is_reserved":false,"is_disabled":false,"rental_uris":{"android":"levelo://app?vid=5bb25b66-dfde-421f-899c-965f8fcad2fc","ios":"levelo://app?vid=5bb25b66-dfde-421f-899c-965f8fcad2fc"},"vehicle_type_id":"4","last_reported":1737223830,"current_range_meters":31200,"station_id":"ce4bh512rcd13ifvqe3g","pricing_plan_id":"cebpf4jnsgd1na2vs0mg"},{"bike_id":"3efa2910-52ad-4849-996d-c060c5f744f4","system_id":"levelo_inurba_marseille","lat":43.27963,"lon":5.38749,"is_reserved":false,"is_disabled":false,"rental_uris":{"android":"levelo://app?vid=3efa2910-52ad-4849-996d-c060c5f744f4","ios":"levelo://app?vid=3efa2910-52ad-4849-996d-c060c5f744f4"},"vehicle_type_id":"4","last_reported":1737223830,"current_range_meters":36000,"station_id":"ce4bhg12rcd13ifvqf80","pricing_plan_id":"cebpf4jnsgd1na2vs0mg"},{"bike_id":"c78b29a5-fe82-42e3-9415-90bdf37a4b98","system_id":"levelo_inurba_marseille","lat":43.26552,"lon":5.37284,"is_reserved":false,"is_disabled":false,"rental_uris":{"android":"levelo://app?vid=c78b29a5-fe82-42e3-9415-90bdf37a4b98","ios":"levelo://app?vid=c78b29a5-fe82-42e3-9415-90bdf37a4b98"},"vehicle_type_id":"4","last_reported":1737223830,"current_range_meters":23200,"station_id":"ce4bhg12rcd13ifvqf70","pricing_plan_id":"cebpf4jnsgd1na2vs0mg"},{"bike_id":"763ed4fc-16fd-47a0-aedf-62c028daa66f","system_id":"levelo_inurba_marseille","lat":43.36396,"lon":5.35576,"is_reserved":false,"is_disabled":false,"rental_uris":{"android":"levelo://app?vid=763ed4fc-16fd-47a0-aedf-62c028daa66f","ios":"levelo://app?vid=763ed4fc-16fd-47a0-aedf-62c028daa66f"},"vehicle_type_id":"4","last_reported":1737223830,"current_range_meters":17600,"station_id":"","pricing_plan_id":"cebpf4jnsgd1na2vs0mg"},{"bike_id":"23af0b39-e151-454d-95df-fe8caca6e2f7","system_id":"levelo_inurba_marseille","lat":43.30913,"lon":5.36859,"is_reserved":false,"is_disabled":false,"rental_uris":{"android":"levelo://app?vid=23af0b39-e151-454d-95df-fe8caca6e2f7","ios":"levelo://app?vid=23af0b39-e151-454d-95df-fe8caca6e2f7"},"vehicle_type_id":"4","last_reported":1737223830,"current_range_meters":38800,"station_id":"ce4bgn92rcd13ifvqbvg","pricing_plan_id":"cebpf4jnsgd1na2vs0mg"},{"bike_id":"b42d349b-8767-4500-922c-77c53d2c4648","system_id":"levelo_inurba_marseille","lat":43.26058,"lon":5.39387,"is_reserved":false,"is_disabled":false,"rental_uris":{"android":"levelo://app?vid=b42d349b-8767-4500-922c-77c53d2c4648","ios":"levelo://app?vid=b42d349b-8767-4500-922c-77c53d2c4648"},"vehicle_type_id":"4","last_reported":1737223830,"current_range_meters":21600,"station_id":"ce4bhh92rcd13ifvqfj0","pricing_plan_id":"cebpf4jnsgd1na2vs0mg"},{"bike_id":"fc697a46-0d19-4146-ae76-c84bf483ae89","system_id":"levelo_inurba_marseille","lat":43.26028,"lon":5.39367,"is_reserved":false,"is_disabled":false,"rental_uris":{"android":"levelo://app?vid=fc697a46-0d19-4146-ae76-c84bf483ae89","ios":"levelo://app?vid=fc697a46-0d19-4146-ae76-c84bf483ae89"},"vehicle_type_id":"4","last_reported":1737223830,"current_range_meters":38000,"station_id":"ce4bhh92rcd13ifvqfj0","pricing_plan_id":"cebpf4jnsgd1na2vs0mg"},{"bike_id":"415d90fa-e6d8-4b54-8c36-5e9472ab1fc5","system_id":"levelo_inurba_marseille","lat":43.29266,"lon":5.38439,"is_reserved":false,"is_disabled":false,"rental_uris":{"android":"levelo://app?vid=415d90fa-e6d8-4b54-8c36-5e9472ab1fc5","ios":"levelo://app?vid=415d90fa-e6d8-4b54-8c36-5e9472ab1fc5"},"vehicle_type_id":"4","last_reported":1737223830,"current_range_meters":7200,"station_id":"ce4bh692rcd13ifvqea0","pricing_plan_id":"cebpf4jnsgd1na2vs0mg"},{"bike_id":"1839ab79-8d1b-4d0e-861a-85d4f32184dc","system_id":"levelo_inurba_marseille","lat":43.27375,"lon":5.36249,"is_reserved":false,"is_disabled":false,"rental_uris":{"android":"levelo://app?vid=1839ab79-8d1b-4d0e-861a-85d4f32184dc","ios":"levelo://app?vid=1839ab79-8d1b-4d0e-861a-85d4f32184dc"},"vehicle_type_id":"4","last_reported":1737223830,"current_range_meters":25600,"station_id":"ce4bhbh2rcd13ifvqeo0","pricing_plan_id":"cebpf4jnsgd1na2vs0mg"},{"bike_id":"f3c94274-f861-4c89-8bb1-1ebe1a531935","system_id":"levelo_inurba_marseille","lat":43.2502,"lon":5.38925,"is_reserved":false,"is_disabled":false,"rental_uris":{"android":"levelo://app?vid=f3c94274-f861-4c89-8bb1-1ebe1a531935","ios":"levelo://app?vid=f3c94274-f861-4c89-8bb1-1ebe1a531935"},"vehicle_type_id":"4","last_reported":1737223830,"current_range_meters":38800,"station_id":"ce4bhgp2rcd13ifvqfd0","pricing_plan_id":"cebpf4jnsgd1na2vs0mg"},{"bike_id":"64645455-9429-4271-9a94-95bd6b63443f","system_id":"levelo_inurba_marseille","lat":43.28723,"lon":5.37942,"is_reserved":false,"is_disabled":false,"rental_uris":{"android":"levelo://app?vid=64645455-9429-4271-9a94-95bd6b63443f","ios":"levelo://app?vid=64645455-9429-4271-9a94-95bd6b63443f"},"vehicle_type_id":"4","last_reported":1737223830,"current_range_meters":22800,"station_id":"ce4bh9p2rcd13ifvqec0","pricing_plan_id":"cebpf4jnsgd1na2vs0mg"},{"bike_id":"ea820ade-d81d-428e-82b9-7f165f7e8e75","system_id":"levelo_inurba_marseille","lat":43.32367,"lon":5.3677,"is_reserved":false,"is_disabled":false,"rental_uris":{"android":"levelo://app?vid=ea820ade-d81d-428e-82b9-7f165f7e8e75","ios":"levelo://app?vid=ea820ade-d81d-428e-82b9-7f165f7e8e75"},"vehicle_type_id":"4","last_reported":1737223830,"current_range_meters":21600,"station_id":"ce4bhsh2rcd13ifvqi2g","pricing_plan_id":"cebpf4jnsgd1na2vs0mg"},{"bike_id":"c29020e0-83ef-4b06-ac4f-c4422257f84a","system_id":"levelo_inurba_marseille","lat":43.36384,"lon":5.3564,"is_reserved":false,"is_disabled":false,"rental_uris":{"android":"levelo://app?vid=c29020e0-83ef-4b06-ac4f-c4422257f84a","ios":"levelo://app?vid=c29020e0-83ef-4b06-ac4f-c4422257f84a"},"vehicle_type_id":"4","last_reported":1737223830,"current_range_meters":23200,"station_id":"","pricing_plan_id":"cebpf4jnsgd1na2vs0mg"},{"bike_id":"1d49e4d4-f280-4961-a3ca-bdec854bbd9e","system_id":"levelo_inurba_marseille","lat":43.2668,"lon":5.38272,"is_reserved":false,"is_disabled":false,"rental_uris":{"android":"levelo://app?vid=1d49e4d4-f280-4961-a3ca-bdec854bbd9e","ios":"levelo://app?vid=1d49e4d4-f280-4961-a3ca-bdec854bbd9e"},"vehicle_type_id":"4","last_reported":1737223830,"current_range_meters":30000,"station_id":"ce4bhg92rcd13ifvqf90","pricing_plan_id":"cebpf4jnsgd1na2vs0mg"},{"bike_id":"90beb746-c1b9-4cad-9c94-0ebd7288b88a","system_id":"levelo_inurba_marseille","lat":43.29533,"lon":5.38537,"is_reserved":false,"is_disabled":false,"rental_uris":{"android":"levelo://app?vid=90beb746-c1b9-4cad-9c94-0ebd7288b88a","ios":"levelo://app?vid=90beb746-c1b9-4cad-9c94-0ebd7288b88a"},"vehicle_type_id":"4","last_reported":1737223830,"current_range_meters":32000,"station_id":"ce4bgih2rcd13ifvqba0","pricing_plan_id":"cebpf4jnsgd1na2vs0mg"},{"bike_id":"23467ecc-03da-4936-961f-351fae98da1e","system_id":"levelo_inurba_marseille","lat":43.30438,"lon":5.38903,"is_reserved":false,"is_disabled":false,"rental_uris":{"android":"levelo://app?vid=23467ecc-03da-4936-961f-351fae98da1e","ios":"levelo://app?vid=23467ecc-03da-4936-961f-351fae98da1e"},"vehicle_type_id":"4","last_reported":1737223830,"current_range_meters":16800,"station_id":"ce4bgk12rcd13ifvqbi0","pricing_plan_id":"cebpf4jnsgd1na2vs0mg"},{"bike_id":"4d4ec566-516b-4793-a5be-68a8e0188dc4","system_id":"levelo_inurba_marseille","lat":43.33031,"lon":5.39034,"is_reserved":false,"is_disabled":false,"rental_uris":{"android":"levelo://app?vid=4d4ec566-516b-4793-a5be-68a8e0188dc4","ios":"levelo://app?vid=4d4ec566-516b-4793-a5be-68a8e0188dc4"},"vehicle_type_id":"4","last_reported":1737223830,"current_range_meters":38800,"station_id":"ce4bhr92rcd13ifvqhrg","pricing_plan_id":"cebpf4jnsgd1na2vs0mg"},{"bike_id":"b672b566-ae6e-4181-a2cb-0155be334a04","system_id":"levelo_inurba_marseille","lat":43.289447,"lon":5.36638,"is_reserved":false,"is_disabled":true,"rental_uris":{"android":"levelo://app?vid=b672b566-ae6e-4181-a2cb-0155be334a04","ios":"levelo://app?vid=b672b566-ae6e-4181-a2cb-0155be334a04"},"vehicle_type_id":"4","last_reported":1737223830,"current_range_meters":36800,"station_id":"ce4bhap2rcd13ifvqek0","pricing_plan_id":"cebpf4jnsgd1na2vs0mg"},{"bike_id":"36a6ab60-3631-46d2-b602-e36f7128e263","system_id":"levelo_inurba_marseille","lat":43.28605,"lon":5.37072,"is_reserved":false,"is_disabled":false,"rental_uris":{"android":"levelo://app?vid=36a6ab60-3631-46d2-b602-e36f7128e263","ios":"levelo://app?vid=36a6ab60-3631-46d2-b602-e36f7128e263"},"vehicle_type_id":"4","last_reported":1737223830,"current_range_meters":20000,"station_id":"ce4bht12rcd13ifvqi60","pricing_plan_id":"cebpf4jnsgd1na2vs0mg"},{"bike_id":"231f841f-a1ec-4be6-b98d-50e1fa0785de","system_id":"levelo_inurba_marseille","lat":43.2927,"lon":5.38447,"is_reserved":false,"is_disabled":false,"rental_uris":{"android":"levelo://app?vid=231f841f-a1ec-4be6-b98d-50e1fa0785de","ios":"levelo://app?vid=231f841f-a1ec-4be6-b98d-50e1fa0785de"},"vehicle_type_id":"4","last_reported":1737223830,"current_range_meters":3600,"station_id":"ce4bh692rcd13ifvqea0","pricing_plan_id":"cebpf4jnsgd1na2vs0mg"},{"bike_id":"2292204d-d0da-4c8a-bb7b-c1e5362762af","system_id":"levelo_inurba_marseille","lat":43.26575,"lon":5.39015,"is_reserved":false,"is_disabled":false,"rental_uris":{"android":"levelo://app?vid=2292204d-d0da-4c8a-bb7b-c1e5362762af","ios":"levelo://app?vid=2292204d-d0da-4c8a-bb7b-c1e5362762af"},"vehicle_type_id":"4","last_reported":1737223830,"current_range_meters":29600,"station_id":"ce4bhe12rcd13ifvqf30","pricing_plan_id":"cebpf4jnsgd1na2vs0mg"},{"bike_id":"1690ba2f-a90c-4ed8-b53c-f59932b9daca","system_id":"levelo_inurba_marseille","lat":43.27628,"lon":5.36112,"is_reserved":false,"is_disabled":true,"rental_uris":{"android":"levelo://app?vid=1690ba2f-a90c-4ed8-b53c-f59932b9daca","ios":"levelo://app?vid=1690ba2f-a90c-4ed8-b53c-f59932b9daca"},"vehicle_type_id":"4","last_reported":1737223830,"current_range_meters":0,"station_id":"ce4bgj92rcd13ifvqbe0","pricing_plan_id":"cebpf4jnsgd1na2vs0mg"},{"bike_id":"47dc6241-97ca-44ce-8005-814afb27159e","system_id":"levelo_inurba_marseille","lat":43.29072,"lon":5.37168,"is_reserved":false,"is_disabled":false,"rental_uris":{"android":"levelo://app?vid=47dc6241-97ca-44ce-8005-814afb27159e","ios":"levelo://app?vid=47dc6241-97ca-44ce-8005-814afb27159e"},"vehicle_type_id":"4","last_reported":1737223830,"current_range_meters":18800,"station_id":"ce4bh5p2rcd13ifvqe4g","pricing_plan_id":"cebpf4jnsgd1na2vs0mg"},{"bike_id":"46d36905-8f98-46be-97a9-0a05d62ee1eb","system_id":"levelo_inurba_marseille","lat":43.27376,"lon":5.36254,"is_reserved":false,"is_disabled":false,"rental_uris":{"android":"levelo://app?vid=46d36905-8f98-46be-97a9-0a05d62ee1eb","ios":"levelo://app?vid=46d36905-8f98-46be-97a9-0a05d62ee1eb"},"vehicle_type_id":"4","last_reported":1737223830,"current_range_meters":38800,"station_id":"ce4bhbh2rcd13ifvqeo0","pricing_plan_id":"cebpf4jnsgd1na2vs0mg"},{"bike_id":"438e0458-2838-43d1-8ad6-7b85da43231c","system_id":"levelo_inurba_marseille","lat":43.26809,"lon":5.40263,"is_reserved":false,"is_disabled":false,"rental_uris":{"android":"levelo://app?vid=438e0458-2838-43d1-8ad6-7b85da43231c","ios":"levelo://app?vid=438e0458-2838-43d1-8ad6-7b85da43231c"},"vehicle_type_id":"4","last_reported":1737223830,"current_range_meters":37600,"station_id":"ce501612rcd8frsf0b60","pricing_plan_id":"cebpf4jnsgd1na2vs0mg"},{"bike_id":"6767abdc-3c6a-42d0-9e7b-2128533c47af","system_id":"levelo_inurba_marseille","lat":43.29032,"lon":5.38153,"is_reserved":false,"is_disabled":false,"rental_uris":{"android":"levelo://app?vid=6767abdc-3c6a-42d0-9e7b-2128533c47af","ios":"levelo://app?vid=6767abdc-3c6a-42d0-9e7b-2128533c47af"},"vehicle_type_id":"4","last_reported":1737223830,"current_range_meters":38800,"station_id":"ce4bh4p2rcd13ifvqe1g","pricing_plan_id":"cebpf4jnsgd1na2vs0mg"},{"bike_id":"e278c6f8-dda6-47fd-b240-5f45ee563423","system_id":"levelo_inurba_marseille","lat":43.30598,"lon":5.37238,"is_reserved":false,"is_disabled":false,"rental_uris":{"android":"levelo://app?vid=e278c6f8-dda6-47fd-b240-5f45ee563423","ios":"levelo://app?vid=e278c6f8-dda6-47fd-b240-5f45ee563423"},"vehicle_type_id":"4","last_reported":1737223830,"current_range_meters":38800,"station_id":"ce4bgqh2rcd13ifvqc4g","pricing_plan_id":"cebpf4jnsgd1na2vs0mg"},{"bike_id":"8795b2fb-b57a-4c93-8d20-4bb60fc8884b","system_id":"levelo_inurba_marseille","lat":43.29521,"lon":5.39014,"is_reserved":false,"is_disabled":false,"rental_uris":{"android":"levelo://app?vid=8795b2fb-b57a-4c93-8d20-4bb60fc8884b","ios":"levelo://app?vid=8795b2fb-b57a-4c93-8d20-4bb60fc8884b"},"vehicle_type_id":"4","last_reported":1737223830,"current_range_meters":11200,"station_id":"ce4bh3p2rcd13ifvqdp0","pricing_plan_id":"cebpf4jnsgd1na2vs0mg"},{"bike_id":"10ef1f93-4edf-4d19-a9b7-397dcefdfe96","system_id":"levelo_inurba_marseille","lat":43.27718,"lon":5.38924,"is_reserved":false,"is_disabled":false,"rental_uris":{"android":"levelo://app?vid=10ef1f93-4edf-4d19-a9b7-397dcefdfe96","ios":"levelo://app?vid=10ef1f93-4edf-4d19-a9b7-397dcefdfe96"},"vehicle_type_id":"4","last_reported":1737223830,"current_range_meters":11200,"station_id":"ce4bhi12rcd13ifvqfo0","pricing_plan_id":"cebpf4jnsgd1na2vs0mg"},{"bike_id":"1477df1e-7f90-456f-83d3-515b3688ceeb","system_id":"levelo_inurba_marseille","lat":43.25945,"lon":5.40907,"is_reserved":false,"is_disabled":false,"rental_uris":{"android":"levelo://app?vid=1477df1e-7f90-456f-83d3-515b3688ceeb","ios":"levelo://app?vid=1477df1e-7f90-456f-83d3-515b3688ceeb"},"vehicle_type_id":"4","last_reported":1737223830,"current_range_meters":7200,"station_id":"ce4bhm92rcd13ifvqglg","pricing_plan_id":"cebpf4jnsgd1na2vs0mg"},{"bike_id":"3d464d4e-4018-4385-8481-0870ba3d6cee","system_id":"levelo_inurba_marseille","lat":43.25931,"lon":5.40897,"is_reserved":false,"is_disabled":false,"rental_uris":{"android":"levelo://app?vid=3d464d4e-4018-4385-8481-0870ba3d6cee","ios":"levelo://app?vid=3d464d4e-4018-4385-8481-0870ba3d6cee"},"vehicle_type_id":"4","last_reported":1737223830,"current_range_meters":14800,"station_id":"ce4bhm92rcd13ifvqglg","pricing_plan_id":"cebpf4jnsgd1na2vs0mg"},{"bike_id":"d21c0583-b1fc-45aa-84b5-71ae1aa8ef52","system_id":"levelo_inurba_marseille","lat":43.30422,"lon":5.39738,"is_reserved":false,"is_disabled":false,"rental_uris":{"android":"levelo://app?vid=d21c0583-b1fc-45aa-84b5-71ae1aa8ef52","ios":"levelo://app?vid=d21c0583-b1fc-45aa-84b5-71ae1aa8ef52"},"vehicle_type_id":"4","last_reported":1737223830,"current_range_meters":16400,"station_id":"ce4bh092rcd13ifvqd20","pricing_plan_id":"cebpf4jnsgd1na2vs0mg"},{"bike_id":"5f9d9100-8b0e-427a-8c00-12513f713e44","system_id":"levelo_inurba_marseille","lat":43.3361,"lon":5.41038,"is_reserved":false,"is_disabled":false,"rental_uris":{"android":"levelo://app?vid=5f9d9100-8b0e-427a-8c00-12513f713e44","ios":"levelo://app?vid=5f9d9100-8b0e-427a-8c00-12513f713e44"},"vehicle_type_id":"4","last_reported":1737223830,"current_range_meters":28400,"station_id":"ce4bhqh2rcd13ifvqhmg","pricing_plan_id":"cebpf4jnsgd1na2vs0mg"},{"bike_id":"78f58074-f0d7-4587-92d0-570a52e56cc4","system_id":"levelo_inurba_marseille","lat":43.28455,"lon":5.35883,"is_reserved":false,"is_disabled":false,"rental_uris":{"android":"levelo://app?vid=78f58074-f0d7-4587-92d0-570a52e56cc4","ios":"levelo://app?vid=78f58074-f0d7-4587-92d0-570a52e56cc4"},"vehicle_type_id":"4","last_reported":1737223830,"current_range_meters":30000,"station_id":"ce4bhah2rcd13ifvqei0","pricing_plan_id":"cebpf4jnsgd1na2vs0mg"},{"bike_id":"06e0ceb1-9315-4f04-bab2-3144835ffdae","system_id":"levelo_inurba_marseille","lat":43.29538,"lon":5.385458,"is_reserved":false,"is_disabled":false,"rental_uris":{"android":"levelo://app?vid=06e0ceb1-9315-4f04-bab2-3144835ffdae","ios":"levelo://app?vid=06e0ceb1-9315-4f04-bab2-3144835ffdae"},"vehicle_type_id":"4","last_reported":1737223830,"current_range_meters":38800,"station_id":"ce4bgih2rcd13ifvqba0","pricing_plan_id":"cebpf4jnsgd1na2vs0mg"},{"bike_id":"bbc82255-a3dc-4c37-8ac1-2d1e2f269a59","system_id":"levelo_inurba_marseille","lat":43.28974,"lon":5.37834,"is_reserved":false,"is_disabled":false,"rental_uris":{"android":"levelo://app?vid=bbc82255-a3dc-4c37-8ac1-2d1e2f269a59","ios":"levelo://app?vid=bbc82255-a3dc-4c37-8ac1-2d1e2f269a59"},"vehicle_type_id":"4","last_reported":1737223830,"current_range_meters":30400,"station_id":"ce4bh9p2rcd13ifvqed0","pricing_plan_id":"cebpf4jnsgd1na2vs0mg"},{"bike_id":"8a608384-ab5c-4a21-8dfe-369c1a566b2b","system_id":"levelo_inurba_marseille","lat":43.28467,"lon":5.35893,"is_reserved":false,"is_disabled":false,"rental_uris":{"android":"levelo://app?vid=8a608384-ab5c-4a21-8dfe-369c1a566b2b","ios":"levelo://app?vid=8a608384-ab5c-4a21-8dfe-369c1a566b2b"},"vehicle_type_id":"4","last_reported":1737223830,"current_range_meters":39200,"station_id":"ce4bhah2rcd13ifvqei0","pricing_plan_id":"cebpf4jnsgd1na2vs0mg"},{"bike_id":"5228f23d-a3eb-4553-947e-5d4262a082b9","system_id":"levelo_inurba_marseille","lat":43.2928,"lon":5.36838,"is_reserved":false,"is_disabled":false,"rental_uris":{"android":"levelo://app?vid=5228f23d-a3eb-4553-947e-5d4262a082b9","ios":"levelo://app?vid=5228f23d-a3eb-4553-947e-5d4262a082b9"},"vehicle_type_id":"4","last_reported":1737223830,"current_range_meters":37600,"station_id":"ce4bhbp2rcd13ifvqesg","pricing_plan_id":"cebpf4jnsgd1na2vs0mg"},{"bike_id":"ca8aa51d-4833-4c77-8009-59b7c07323a3","system_id":"levelo_inurba_marseille","lat":43.3234,"lon":5.36751,"is_reserved":false,"is_disabled":false,"rental_uris":{"android":"levelo://app?vid=ca8aa51d-4833-4c77-8009-59b7c07323a3","ios":"levelo://app?vid=ca8aa51d-4833-4c77-8009-59b7c07323a3"},"vehicle_type_id":"4","last_reported":1737223830,"current_range_meters":9200,"station_id":"ce4bhsh2rcd13ifvqi2g","pricing_plan_id":"cebpf4jnsgd1na2vs0mg"},{"bike_id":"831a965d-7c8c-4252-8bd2-577b336f8919","system_id":"levelo_inurba_marseille","lat":43.28162,"lon":5.42667,"is_reserved":false,"is_disabled":false,"rental_uris":{"android":"levelo://app?vid=831a965d-7c8c-4252-8bd2-577b336f8919","ios":"levelo://app?vid=831a965d-7c8c-4252-8bd2-577b336f8919"},"vehicle_type_id":"4","last_reported":1737223830,"current_range_meters":21600,"station_id":"ce4bhnh2rcd13ifvqgug","pricing_plan_id":"cebpf4jnsgd1na2vs0mg"},{"bike_id":"2d7fb15f-2dc4-467d-ac87-2260de417e4b","system_id":"levelo_inurba_marseille","lat":43.29904,"lon":5.38168,"is_reserved":false,"is_disabled":false,"rental_uris":{"android":"levelo://app?vid=2d7fb15f-2dc4-467d-ac87-2260de417e4b","ios":"levelo://app?vid=2d7fb15f-2dc4-467d-ac87-2260de417e4b"},"vehicle_type_id":"4","last_reported":1737223830,"current_range_meters":8400,"station_id":"ce4bgj12rcd13ifvqbc0","pricing_plan_id":"cebpf4jnsgd1na2vs0mg"},{"bike_id":"83b66815-9e69-4f46-bab2-4a39d74af732","system_id":"levelo_inurba_marseille","lat":43.31207,"lon":5.36865,"is_reserved":false,"is_disabled":false,"rental_uris":{"android":"levelo://app?vid=83b66815-9e69-4f46-bab2-4a39d74af732","ios":"levelo://app?vid=83b66815-9e69-4f46-bab2-4a39d74af732"},"vehicle_type_id":"4","last_reported":1737223830,"current_range_meters":13600,"station_id":"ce4bgl92rcd13ifvqbq0","pricing_plan_id":"cebpf4jnsgd1na2vs0mg"},{"bike_id":"3cc7080e-8b51-440b-8c7f-83ba52ce86f0","system_id":"levelo_inurba_marseille","lat":43.29909,"lon":5.38139,"is_reserved":false,"is_disabled":false,"rental_uris":{"android":"levelo://app?vid=3cc7080e-8b51-440b-8c7f-83ba52ce86f0","ios":"levelo://app?vid=3cc7080e-8b51-440b-8c7f-83ba52ce86f0"},"vehicle_type_id":"4","last_reported":1737223830,"current_range_meters":5600,"station_id":"ce4bgj12rcd13ifvqbc0","pricing_plan_id":"cebpf4jnsgd1na2vs0mg"},{"bike_id":"8ebc87c8-12a3-4e6f-8d1d-f35bdea720c9","system_id":"levelo_inurba_marseille","lat":43.27988,"lon":5.38762,"is_reserved":false,"is_disabled":false,"rental_uris":{"android":"levelo://app?vid=8ebc87c8-12a3-4e6f-8d1d-f35bdea720c9","ios":"levelo://app?vid=8ebc87c8-12a3-4e6f-8d1d-f35bdea720c9"},"vehicle_type_id":"4","last_reported":1737223830,"current_range_meters":15200,"station_id":"ce4bhg12rcd13ifvqf80","pricing_plan_id":"cebpf4jnsgd1na2vs0mg"},{"bike_id":"57d9fa47-e597-4ea4-913f-9b45079bd718","system_id":"levelo_inurba_marseille","lat":43.33037,"lon":5.39037,"is_reserved":false,"is_disabled":false,"rental_uris":{"android":"levelo://app?vid=57d9fa47-e597-4ea4-913f-9b45079bd718","ios":"levelo://app?vid=57d9fa47-e597-4ea4-913f-9b45079bd718"},"vehicle_type_id":"4","last_reported":1737223830,"current_range_meters":10800,"station_id":"ce4bhr92rcd13ifvqhrg","pricing_plan_id":"cebpf4jnsgd1na2vs0mg"},{"bike_id":"50c70262-dbb4-4b61-88f4-99876f32b530","system_id":"levelo_inurba_marseille","lat":43.29427,"lon":5.38625,"is_reserved":false,"is_disabled":false,"rental_uris":{"android":"levelo://app?vid=50c70262-dbb4-4b61-88f4-99876f32b530","ios":"levelo://app?vid=50c70262-dbb4-4b61-88f4-99876f32b530"},"vehicle_type_id":"4","last_reported":1737223830,"current_range_meters":32800,"station_id":"ce4bh2h2rcd13ifvqdh0","pricing_plan_id":"cebpf4jnsgd1na2vs0mg"},{"bike_id":"21e1be4e-87c8-48f1-b93e-49c75bd3081e","system_id":"levelo_inurba_marseille","lat":43.2998,"lon":5.38487,"is_reserved":false,"is_disabled":false,"rental_uris":{"android":"levelo://app?vid=21e1be4e-87c8-48f1-b93e-49c75bd3081e","ios":"levelo://app?vid=21e1be4e-87c8-48f1-b93e-49c75bd3081e"},"vehicle_type_id":"4","last_reported":1737223830,"current_range_meters":39200,"station_id":"ce4bgj92rcd13ifvqbd0","pricing_plan_id":"cebpf4jnsgd1na2vs0mg"},{"bike_id":"220390ed-c10a-4d93-90e7-5563169ac42a","system_id":"levelo_inurba_marseille","lat":43.24171,"lon":5.39745,"is_reserved":false,"is_disabled":false,"rental_uris":{"android":"levelo://app?vid=220390ed-c10a-4d93-90e7-5563169ac42a","ios":"levelo://app?vid=220390ed-c10a-4d93-90e7-5563169ac42a"},"vehicle_type_id":"4","last_reported":1737223830,"current_range_meters":38800,"station_id":"ce4bhn12rcd13ifvqgpg","pricing_plan_id":"cebpf4jnsgd1na2vs0mg"},{"bike_id":"c14ba9d5-f391-490d-adcb-e50e8990c97c","system_id":"levelo_inurba_marseille","lat":43.29612,"lon":5.38108,"is_reserved":false,"is_disabled":false,"rental_uris":{"android":"levelo://app?vid=c14ba9d5-f391-490d-adcb-e50e8990c97c","ios":"levelo://app?vid=c14ba9d5-f391-490d-adcb-e50e8990c97c"},"vehicle_type_id":"4","last_reported":1737223830,"current_range_meters":18800,"station_id":"ce4bgl12rcd13ifvqbo0","pricing_plan_id":"cebpf4jnsgd1na2vs0mg"},{"bike_id":"9e515546-a20a-41af-a455-44307a595228","system_id":"levelo_inurba_marseille","lat":43.28435,"lon":5.38934,"is_reserved":false,"is_disabled":true,"rental_uris":{"android":"levelo://app?vid=9e515546-a20a-41af-a455-44307a595228","ios":"levelo://app?vid=9e515546-a20a-41af-a455-44307a595228"},"vehicle_type_id":"4","last_reported":1737223830,"current_range_meters":1200,"station_id":"","pricing_plan_id":"cebpf4jnsgd1na2vs0mg"},{"bike_id":"4104cbba-088f-4383-b2a0-261d17699731","system_id":"levelo_inurba_marseille","lat":43.23968,"lon":5.36634,"is_reserved":false,"is_disabled":false,"rental_uris":{"android":"levelo://app?vid=4104cbba-088f-4383-b2a0-261d17699731","ios":"levelo://app?vid=4104cbba-088f-4383-b2a0-261d17699731"},"vehicle_type_id":"4","last_reported":1737223830,"current_range_meters":38800,"station_id":"ce4bhi12rcd13ifvqfp0","pricing_plan_id":"cebpf4jnsgd1na2vs0mg"},{"bike_id":"616f06f9-7be6-4b8d-9f4b-237d76b666fd","system_id":"levelo_inurba_marseille","lat":43.23208,"lon":5.3558,"is_reserved":false,"is_disabled":false,"rental_uris":{"android":"levelo://app?vid=616f06f9-7be6-4b8d-9f4b-237d76b666fd","ios":"levelo://app?vid=616f06f9-7be6-4b8d-9f4b-237d76b666fd"},"vehicle_type_id":"4","last_reported":1737223830,"current_range_meters":9200,"station_id":"ce4bhu92rcd13ifvqi70","pricing_plan_id":"cebpf4jnsgd1na2vs0mg"},{"bike_id":"19825a97-3dc4-4e9e-b786-651d5f769bb3","system_id":"levelo_inurba_marseille","lat":43.26782,"lon":5.39416,"is_reserved":false,"is_disabled":false,"rental_uris":{"android":"levelo://app?vid=19825a97-3dc4-4e9e-b786-651d5f769bb3","ios":"levelo://app?vid=19825a97-3dc4-4e9e-b786-651d5f769bb3"},"vehicle_type_id":"4","last_reported":1737223830,"current_range_meters":38800,"station_id":"ce4bhh12rcd13ifvqfg0","pricing_plan_id":"cebpf4jnsgd1na2vs0mg"},{"bike_id":"881f5a56-0072-422c-a05d-eee833d8c733","system_id":"levelo_inurba_marseille","lat":43.33127,"lon":5.37937,"is_reserved":false,"is_disabled":false,"rental_uris":{"android":"levelo://app?vid=881f5a56-0072-422c-a05d-eee833d8c733","ios":"levelo://app?vid=881f5a56-0072-422c-a05d-eee833d8c733"},"vehicle_type_id":"4","last_reported":1737223830,"current_range_meters":38800,"station_id":"","pricing_plan_id":"cebpf4jnsgd1na2vs0mg"},{"bike_id":"28ef1c1e-dd89-43e8-817b-9b489831397b","system_id":"levelo_inurba_marseille","lat":43.27117,"lon":5.39617,"is_reserved":false,"is_disabled":true,"rental_uris":{"android":"levelo://app?vid=28ef1c1e-dd89-43e8-817b-9b489831397b","ios":"levelo://app?vid=28ef1c1e-dd89-43e8-817b-9b489831397b"},"vehicle_type_id":"4","last_reported":1737223830,"current_range_meters":0,"station_id":"","pricing_plan_id":"cebpf4jnsgd1na2vs0mg"},{"bike_id":"a9d9ec1b-178a-494a-a891-d10e5fd899ec","system_id":"levelo_inurba_marseille","lat":43.23193,"lon":5.39994,"is_reserved":false,"is_disabled":false,"rental_uris":{"android":"levelo://app?vid=a9d9ec1b-178a-494a-a891-d10e5fd899ec","ios":"levelo://app?vid=a9d9ec1b-178a-494a-a891-d10e5fd899ec"},"vehicle_type_id":"4","last_reported":1737223830,"current_range_meters":36800,"station_id":"ce4bhn12rcd13ifvqgqg","pricing_plan_id":"cebpf4jnsgd1na2vs0mg"},{"bike_id":"2ad52ef0-8080-4104-a5d3-4ad6b83e9c6d","system_id":"levelo_inurba_marseille","lat":43.29577,"lon":5.39079,"is_reserved":false,"is_disabled":true,"rental_uris":{"android":"levelo://app?vid=2ad52ef0-8080-4104-a5d3-4ad6b83e9c6d","ios":"levelo://app?vid=2ad52ef0-8080-4104-a5d3-4ad6b83e9c6d"},"vehicle_type_id":"4","last_reported":1737223830,"current_range_meters":3600,"station_id":"","pricing_plan_id":"cebpf4jnsgd1na2vs0mg"},{"bike_id":"c77de84a-305d-47e5-b81a-44313d3b8aa9","system_id":"levelo_inurba_marseille","lat":43.25869,"lon":5.39894,"is_reserved":false,"is_disabled":false,"rental_uris":{"android":"levelo://app?vid=c77de84a-305d-47e5-b81a-44313d3b8aa9","ios":"levelo://app?vid=c77de84a-305d-47e5-b81a-44313d3b8aa9"},"vehicle_type_id":"4","last_reported":1737223830,"current_range_meters":30800,"station_id":"ce4bhl92rcd13ifvqghg","pricing_plan_id":"cebpf4jnsgd1na2vs0mg"},{"bike_id":"357eaeda-fef2-41f2-9ad0-621ae2cc5c09","system_id":"levelo_inurba_marseille","lat":43.33753,"lon":5.37518,"is_reserved":false,"is_disabled":false,"rental_uris":{"android":"levelo://app?vid=357eaeda-fef2-41f2-9ad0-621ae2cc5c09","ios":"levelo://app?vid=357eaeda-fef2-41f2-9ad0-621ae2cc5c09"},"vehicle_type_id":"4","last_reported":1737223830,"current_range_meters":36000,"station_id":"","pricing_plan_id":"cebpf4jnsgd1na2vs0mg"},{"bike_id":"24747ef3-c3b1-4bc4-b21e-7db78697d06a","system_id":"levelo_inurba_marseille","lat":43.30103,"lon":5.39068,"is_reserved":false,"is_disabled":false,"rental_uris":{"android":"levelo://app?vid=24747ef3-c3b1-4bc4-b21e-7db78697d06a","ios":"levelo://app?vid=24747ef3-c3b1-4bc4-b21e-7db78697d06a"},"vehicle_type_id":"4","last_reported":1737223830,"current_range_meters":33600,"station_id":"ce4bh192rcd13ifvqdb0","pricing_plan_id":"cebpf4jnsgd1na2vs0mg"},{"bike_id":"b00b3d2e-5cc8-4ed1-b5c4-c098324e15ea","system_id":"levelo_inurba_marseille","lat":43.24084,"lon":5.37755,"is_reserved":false,"is_disabled":false,"rental_uris":{"android":"levelo://app?vid=b00b3d2e-5cc8-4ed1-b5c4-c098324e15ea","ios":"levelo://app?vid=b00b3d2e-5cc8-4ed1-b5c4-c098324e15ea"},"vehicle_type_id":"4","last_reported":1737223830,"current_range_meters":24000,"station_id":"ce4bhnp2rcd13ifvqgvg","pricing_plan_id":"cebpf4jnsgd1na2vs0mg"},{"bike_id":"1c792089-ee30-4f3b-b849-bbc8356461ce","system_id":"levelo_inurba_marseille","lat":43.27824,"lon":5.40746,"is_reserved":false,"is_disabled":false,"rental_uris":{"android":"levelo://app?vid=1c792089-ee30-4f3b-b849-bbc8356461ce","ios":"levelo://app?vid=1c792089-ee30-4f3b-b849-bbc8356461ce"},"vehicle_type_id":"4","last_reported":1737223830,"current_range_meters":16000,"station_id":"ce4bhnh2rcd13ifvqgtg","pricing_plan_id":"cebpf4jnsgd1na2vs0mg"},{"bike_id":"9102c6db-2248-434f-b489-b6c5ed9b767d","system_id":"levelo_inurba_marseille","lat":43.27053,"lon":5.40255,"is_reserved":false,"is_disabled":false,"rental_uris":{"android":"levelo://app?vid=9102c6db-2248-434f-b489-b6c5ed9b767d","ios":"levelo://app?vid=9102c6db-2248-434f-b489-b6c5ed9b767d"},"vehicle_type_id":"4","last_reported":1737223830,"current_range_meters":29600,"station_id":"ce4bhk92rcd13ifvqgc0","pricing_plan_id":"cebpf4jnsgd1na2vs0mg"},{"bike_id":"2f2a6f92-6f9c-4bc4-b3dd-873c28c4c448","system_id":"levelo_inurba_marseille","lat":43.30785,"lon":5.3764,"is_reserved":false,"is_disabled":true,"rental_uris":{"android":"levelo://app?vid=2f2a6f92-6f9c-4bc4-b3dd-873c28c4c448","ios":"levelo://app?vid=2f2a6f92-6f9c-4bc4-b3dd-873c28c4c448"},"vehicle_type_id":"4","last_reported":1737223830,"current_range_meters":400,"station_id":"ce4bgv92rcd13ifvqcq0","pricing_plan_id":"cebpf4jnsgd1na2vs0mg"},{"bike_id":"01a07bd9-36a1-4c19-a88b-7c9e3a6ee490","system_id":"levelo_inurba_marseille","lat":43.25086,"lon":5.39524,"is_reserved":false,"is_disabled":false,"rental_uris":{"android":"levelo://app?vid=01a07bd9-36a1-4c19-a88b-7c9e3a6ee490","ios":"levelo://app?vid=01a07bd9-36a1-4c19-a88b-7c9e3a6ee490"},"vehicle_type_id":"4","last_reported":1737223830,"current_range_meters":36400,"station_id":"ce4bhm12rcd13ifvqgkg","pricing_plan_id":"cebpf4jnsgd1na2vs0mg"},{"bike_id":"b0b5b450-5055-4cf9-9abc-490d41233b4e","system_id":"levelo_inurba_marseille","lat":43.28715,"lon":5.37916,"is_reserved":false,"is_disabled":false,"rental_uris":{"android":"levelo://app?vid=b0b5b450-5055-4cf9-9abc-490d41233b4e","ios":"levelo://app?vid=b0b5b450-5055-4cf9-9abc-490d41233b4e"},"vehicle_type_id":"4","last_reported":1737223830,"current_range_meters":22800,"station_id":"ce4bh9p2rcd13ifvqec0","pricing_plan_id":"cebpf4jnsgd1na2vs0mg"},{"bike_id":"1370ed85-4a06-4f0a-827f-27caf2ef05a2","system_id":"levelo_inurba_marseille","lat":43.30531,"lon":5.38427,"is_reserved":false,"is_disabled":false,"rental_uris":{"android":"levelo://app?vid=1370ed85-4a06-4f0a-827f-27caf2ef05a2","ios":"levelo://app?vid=1370ed85-4a06-4f0a-827f-27caf2ef05a2"},"vehicle_type_id":"4","last_reported":1737223830,"current_range_meters":38800,"station_id":"ce4bgg92rcd13ifvqb30","pricing_plan_id":"cebpf4jnsgd1na2vs0mg"},{"bike_id":"24d3b331-52fa-4564-a98e-732c1dea4a32","system_id":"levelo_inurba_marseille","lat":43.27495,"lon":5.42455,"is_reserved":false,"is_disabled":true,"rental_uris":{"android":"levelo://app?vid=24d3b331-52fa-4564-a98e-732c1dea4a32","ios":"levelo://app?vid=24d3b331-52fa-4564-a98e-732c1dea4a32"},"vehicle_type_id":"4","last_reported":1737223830,"current_range_meters":0,"station_id":"ce4bhn92rcd13ifvqgrg","pricing_plan_id":"cebpf4jnsgd1na2vs0mg"},{"bike_id":"9be957d2-26d1-49a4-9f85-b06ee3432064","system_id":"levelo_inurba_marseille","lat":43.33738,"lon":5.3919,"is_reserved":false,"is_disabled":false,"rental_uris":{"android":"levelo://app?vid=9be957d2-26d1-49a4-9f85-b06ee3432064","ios":"levelo://app?vid=9be957d2-26d1-49a4-9f85-b06ee3432064"},"vehicle_type_id":"4","last_reported":1737223830,"current_range_meters":26000,"station_id":"ce4bhr92rcd13ifvqhsg","pricing_plan_id":"cebpf4jnsgd1na2vs0mg"},{"bike_id":"d1b144ba-68c4-4b75-bec6-dd18ebaa22c1","system_id":"levelo_inurba_marseille","lat":43.30327,"lon":5.40437,"is_reserved":false,"is_disabled":false,"rental_uris":{"android":"levelo://app?vid=d1b144ba-68c4-4b75-bec6-dd18ebaa22c1","ios":"levelo://app?vid=d1b144ba-68c4-4b75-bec6-dd18ebaa22c1"},"vehicle_type_id":"4","last_reported":1737223830,"current_range_meters":29600,"station_id":"ce4bh012rcd13ifvqd10","pricing_plan_id":"cebpf4jnsgd1na2vs0mg"},{"bike_id":"bf9e5c57-b8c4-4db5-9575-52e5d03566ff","system_id":"levelo_inurba_marseille","lat":43.25084,"lon":5.39513,"is_reserved":false,"is_disabled":false,"rental_uris":{"android":"levelo://app?vid=bf9e5c57-b8c4-4db5-9575-52e5d03566ff","ios":"levelo://app?vid=bf9e5c57-b8c4-4db5-9575-52e5d03566ff"},"vehicle_type_id":"4","last_reported":1737223830,"current_range_meters":35200,"station_id":"ce4bhm12rcd13ifvqgkg","pricing_plan_id":"cebpf4jnsgd1na2vs0mg"},{"bike_id":"c82084a9-11ec-406b-a53a-7e844ce9a671","system_id":"levelo_inurba_marseille","lat":43.28351,"lon":5.38091,"is_reserved":false,"is_disabled":false,"rental_uris":{"android":"levelo://app?vid=c82084a9-11ec-406b-a53a-7e844ce9a671","ios":"levelo://app?vid=c82084a9-11ec-406b-a53a-7e844ce9a671"},"vehicle_type_id":"4","last_reported":1737223830,"current_range_meters":32000,"station_id":"ce4bh412rcd13ifvqdr0","pricing_plan_id":"cebpf4jnsgd1na2vs0mg"},{"bike_id":"7f3f63e1-7efe-484c-ad38-36c3e7bc9474","system_id":"levelo_inurba_marseille","lat":43.29376,"lon":5.37843,"is_reserved":false,"is_disabled":false,"rental_uris":{"android":"levelo://app?vid=7f3f63e1-7efe-484c-ad38-36c3e7bc9474","ios":"levelo://app?vid=7f3f63e1-7efe-484c-ad38-36c3e7bc9474"},"vehicle_type_id":"4","last_reported":1737223830,"current_range_meters":36400,"station_id":"ce4bgjh2rcd13ifvqbf0","pricing_plan_id":"cebpf4jnsgd1na2vs0mg"},{"bike_id":"59829282-52a1-4f2c-9ab6-c535355001fb","system_id":"levelo_inurba_marseille","lat":43.30453,"lon":5.389,"is_reserved":false,"is_disabled":false,"rental_uris":{"android":"levelo://app?vid=59829282-52a1-4f2c-9ab6-c535355001fb","ios":"levelo://app?vid=59829282-52a1-4f2c-9ab6-c535355001fb"},"vehicle_type_id":"4","last_reported":1737223830,"current_range_meters":6800,"station_id":"ce4bgk12rcd13ifvqbi0","pricing_plan_id":"cebpf4jnsgd1na2vs0mg"},{"bike_id":"9c41bd3d-55df-4ba6-aaa5-f915b1794e94","system_id":"levelo_inurba_marseille","lat":43.308,"lon":5.43527,"is_reserved":false,"is_disabled":false,"rental_uris":{"android":"levelo://app?vid=9c41bd3d-55df-4ba6-aaa5-f915b1794e94","ios":"levelo://app?vid=9c41bd3d-55df-4ba6-aaa5-f915b1794e94"},"vehicle_type_id":"4","last_reported":1737223830,"current_range_meters":31200,"station_id":"ce4bhph2rcd13ifvqheg","pricing_plan_id":"cebpf4jnsgd1na2vs0mg"},{"bike_id":"a6b63e6f-4a60-439e-ba64-5d892f1cbe6d","system_id":"levelo_inurba_marseille","lat":43.30302,"lon":5.39207,"is_reserved":false,"is_disabled":false,"rental_uris":{"android":"levelo://app?vid=a6b63e6f-4a60-439e-ba64-5d892f1cbe6d","ios":"levelo://app?vid=a6b63e6f-4a60-439e-ba64-5d892f1cbe6d"},"vehicle_type_id":"4","last_reported":1737223830,"current_range_meters":38800,"station_id":"ce4bgkh2rcd13ifvqbk0","pricing_plan_id":"cebpf4jnsgd1na2vs0mg"},{"bike_id":"4291632b-b89c-4c47-8e03-1ac2c74e4815","system_id":"levelo_inurba_marseille","lat":43.2418,"lon":5.39735,"is_reserved":false,"is_disabled":false,"rental_uris":{"android":"levelo://app?vid=4291632b-b89c-4c47-8e03-1ac2c74e4815","ios":"levelo://app?vid=4291632b-b89c-4c47-8e03-1ac2c74e4815"},"vehicle_type_id":"4","last_reported":1737223830,"current_range_meters":12400,"station_id":"ce4bhn12rcd13ifvqgpg","pricing_plan_id":"cebpf4jnsgd1na2vs0mg"},{"bike_id":"41e66b43-81c2-4cc4-b4fc-989eb06aea62","system_id":"levelo_inurba_marseille","lat":43.251241,"lon":5.403158,"is_reserved":false,"is_disabled":false,"rental_uris":{"android":"levelo://app?vid=41e66b43-81c2-4cc4-b4fc-989eb06aea62","ios":"levelo://app?vid=41e66b43-81c2-4cc4-b4fc-989eb06aea62"},"vehicle_type_id":"4","last_reported":1737223830,"current_range_meters":17200,"station_id":"ce4bhlh2rcd13ifvqgig","pricing_plan_id":"cebpf4jnsgd1na2vs0mg"},{"bike_id":"92cd7924-a95c-4980-9f5f-d2fc36ee9bb8","system_id":"levelo_inurba_marseille","lat":43.30913,"lon":5.3687,"is_reserved":false,"is_disabled":false,"rental_uris":{"android":"levelo://app?vid=92cd7924-a95c-4980-9f5f-d2fc36ee9bb8","ios":"levelo://app?vid=92cd7924-a95c-4980-9f5f-d2fc36ee9bb8"},"vehicle_type_id":"4","last_reported":1737223830,"current_range_meters":38800,"station_id":"ce4bgn92rcd13ifvqbvg","pricing_plan_id":"cebpf4jnsgd1na2vs0mg"},{"bike_id":"aaf9b19d-0d21-4f60-bd85-a79491ea0c6f","system_id":"levelo_inurba_marseille","lat":43.26217,"lon":5.37465,"is_reserved":false,"is_disabled":false,"rental_uris":{"android":"levelo://app?vid=aaf9b19d-0d21-4f60-bd85-a79491ea0c6f","ios":"levelo://app?vid=aaf9b19d-0d21-4f60-bd85-a79491ea0c6f"},"vehicle_type_id":"4","last_reported":1737223830,"current_range_meters":35600,"station_id":"ce4bhgp2rcd13ifvqfc0","pricing_plan_id":"cebpf4jnsgd1na2vs0mg"},{"bike_id":"dfd96ebd-2cae-4ab5-8d13-f6e62258957e","system_id":"levelo_inurba_marseille","lat":43.31725,"lon":5.42395,"is_reserved":false,"is_disabled":false,"rental_uris":{"android":"levelo://app?vid=dfd96ebd-2cae-4ab5-8d13-f6e62258957e","ios":"levelo://app?vid=dfd96ebd-2cae-4ab5-8d13-f6e62258957e"},"vehicle_type_id":"4","last_reported":1737223830,"current_range_meters":24000,"station_id":"ce4bhp92rcd13ifvqhbg","pricing_plan_id":"cebpf4jnsgd1na2vs0mg"},{"bike_id":"3efd3a1a-6073-45f6-ac66-5966ef6e86dc","system_id":"levelo_inurba_marseille","lat":43.29205,"lon":5.39334,"is_reserved":false,"is_disabled":false,"rental_uris":{"android":"levelo://app?vid=3efd3a1a-6073-45f6-ac66-5966ef6e86dc","ios":"levelo://app?vid=3efd3a1a-6073-45f6-ac66-5966ef6e86dc"},"vehicle_type_id":"4","last_reported":1737223830,"current_range_meters":13600,"station_id":"ce4bh192rcd13ifvqdd0","pricing_plan_id":"cebpf4jnsgd1na2vs0mg"},{"bike_id":"13d3fd97-e21c-4164-8b58-6e6c0cfe1ec1","system_id":"levelo_inurba_marseille","lat":43.280337,"lon":5.369531,"is_reserved":false,"is_disabled":false,"rental_uris":{"android":"levelo://app?vid=13d3fd97-e21c-4164-8b58-6e6c0cfe1ec1","ios":"levelo://app?vid=13d3fd97-e21c-4164-8b58-6e6c0cfe1ec1"},"vehicle_type_id":"4","last_reported":1737223830,"current_range_meters":39200,"station_id":"ce4bha12rcd13ifvqef0","pricing_plan_id":"cebpf4jnsgd1na2vs0mg"},{"bike_id":"fae143cc-e0b7-42e0-ac41-6327643321d0","system_id":"levelo_inurba_marseille","lat":43.25812,"lon":5.39416,"is_reserved":false,"is_disabled":false,"rental_uris":{"android":"levelo://app?vid=fae143cc-e0b7-42e0-ac41-6327643321d0","ios":"levelo://app?vid=fae143cc-e0b7-42e0-ac41-6327643321d0"},"vehicle_type_id":"4","last_reported":1737223830,"current_range_meters":31200,"station_id":"ce4bhip2rcd13ifvqft0","pricing_plan_id":"cebpf4jnsgd1na2vs0mg"},{"bike_id":"635b1cf3-c820-4a23-a168-fd8e953f9a50","system_id":"levelo_inurba_marseille","lat":43.29534,"lon":5.3854,"is_reserved":false,"is_disabled":true,"rental_uris":{"android":"levelo://app?vid=635b1cf3-c820-4a23-a168-fd8e953f9a50","ios":"levelo://app?vid=635b1cf3-c820-4a23-a168-fd8e953f9a50"},"vehicle_type_id":"4","last_reported":1737223830,"current_range_meters":0,"station_id":"ce4bgih2rcd13ifvqba0","pricing_plan_id":"cebpf4jnsgd1na2vs0mg"},{"bike_id":"5f907820-4ae3-4dc0-b2ac-a900323f94b5","system_id":"levelo_inurba_marseille","lat":43.28944,"lon":5.36637,"is_reserved":false,"is_disabled":false,"rental_uris":{"android":"levelo://app?vid=5f907820-4ae3-4dc0-b2ac-a900323f94b5","ios":"levelo://app?vid=5f907820-4ae3-4dc0-b2ac-a900323f94b5"},"vehicle_type_id":"4","last_reported":1737223830,"current_range_meters":34800,"station_id":"ce4bhap2rcd13ifvqek0","pricing_plan_id":"cebpf4jnsgd1na2vs0mg"},{"bike_id":"1e439018-c0d6-4a96-9cf0-6ec46d1fa22b","system_id":"levelo_inurba_marseille","lat":43.33027,"lon":5.39041,"is_reserved":false,"is_disabled":false,"rental_uris":{"android":"levelo://app?vid=1e439018-c0d6-4a96-9cf0-6ec46d1fa22b","ios":"levelo://app?vid=1e439018-c0d6-4a96-9cf0-6ec46d1fa22b"},"vehicle_type_id":"4","last_reported":1737223830,"current_range_meters":31200,"station_id":"ce4bhr92rcd13ifvqhrg","pricing_plan_id":"cebpf4jnsgd1na2vs0mg"},{"bike_id":"f4a4a406-b0a5-42fc-9236-32e93ac6f6b2","system_id":"levelo_inurba_marseille","lat":43.23158,"lon":5.43698,"is_reserved":false,"is_disabled":true,"rental_uris":{"android":"levelo://app?vid=f4a4a406-b0a5-42fc-9236-32e93ac6f6b2","ios":"levelo://app?vid=f4a4a406-b0a5-42fc-9236-32e93ac6f6b2"},"vehicle_type_id":"4","last_reported":1737223830,"current_range_meters":28400,"station_id":"ce4bhmp2rcd13ifvqgog","pricing_plan_id":"cebpf4jnsgd1na2vs0mg"},{"bike_id":"52172622-ae91-4ae5-a179-6e6ac25fee68","system_id":"levelo_inurba_marseille","lat":43.28939,"lon":5.36644,"is_reserved":false,"is_disabled":false,"rental_uris":{"android":"levelo://app?vid=52172622-ae91-4ae5-a179-6e6ac25fee68","ios":"levelo://app?vid=52172622-ae91-4ae5-a179-6e6ac25fee68"},"vehicle_type_id":"4","last_reported":1737223830,"current_range_meters":30000,"station_id":"ce4bhap2rcd13ifvqek0","pricing_plan_id":"cebpf4jnsgd1na2vs0mg"},{"bike_id":"d315f57c-2343-49ae-90f6-8fb4957bc107","system_id":"levelo_inurba_marseille","lat":43.28293,"lon":5.35059,"is_reserved":false,"is_disabled":false,"rental_uris":{"android":"levelo://app?vid=d315f57c-2343-49ae-90f6-8fb4957bc107","ios":"levelo://app?vid=d315f57c-2343-49ae-90f6-8fb4957bc107"},"vehicle_type_id":"4","last_reported":1737223830,"current_range_meters":38800,"station_id":"ce4bhbp2rcd13ifvqerg","pricing_plan_id":"cebpf4jnsgd1na2vs0mg"},{"bike_id":"e2fa7215-9de8-4617-903e-7b9780dd55ac","system_id":"levelo_inurba_marseille","lat":43.30908,"lon":5.36864,"is_reserved":false,"is_disabled":false,"rental_uris":{"android":"levelo://app?vid=e2fa7215-9de8-4617-903e-7b9780dd55ac","ios":"levelo://app?vid=e2fa7215-9de8-4617-903e-7b9780dd55ac"},"vehicle_type_id":"4","last_reported":1737223830,"current_range_meters":38800,"station_id":"ce4bgn92rcd13ifvqbvg","pricing_plan_id":"cebpf4jnsgd1na2vs0mg"},{"bike_id":"3e8b9eba-7da0-42f7-96d4-26bec7ea8b0a","system_id":"levelo_inurba_marseille","lat":43.30266,"lon":5.40077,"is_reserved":false,"is_disabled":false,"rental_uris":{"android":"levelo://app?vid=3e8b9eba-7da0-42f7-96d4-26bec7ea8b0a","ios":"levelo://app?vid=3e8b9eba-7da0-42f7-96d4-26bec7ea8b0a"},"vehicle_type_id":"4","last_reported":1737223830,"current_range_meters":20800,"station_id":"ce4bgvh2rcd13ifvqcs0","pricing_plan_id":"cebpf4jnsgd1na2vs0mg"},{"bike_id":"b58dcef5-cab9-4732-933d-c18fb8a74b04","system_id":"levelo_inurba_marseille","lat":43.231438,"lon":5.437189,"is_reserved":false,"is_disabled":true,"rental_uris":{"android":"levelo://app?vid=b58dcef5-cab9-4732-933d-c18fb8a74b04","ios":"levelo://app?vid=b58dcef5-cab9-4732-933d-c18fb8a74b04"},"vehicle_type_id":"4","last_reported":1737223830,"current_range_meters":0,"station_id":"ce4bhmp2rcd13ifvqgog","pricing_plan_id":"cebpf4jnsgd1na2vs0mg"},{"bike_id":"74a68bf0-f2f0-48e4-bf8e-cb92cded0484","system_id":"levelo_inurba_marseille","lat":43.26033,"lon":5.37548,"is_reserved":false,"is_disabled":false,"rental_uris":{"android":"levelo://app?vid=74a68bf0-f2f0-48e4-bf8e-cb92cded0484","ios":"levelo://app?vid=74a68bf0-f2f0-48e4-bf8e-cb92cded0484"},"vehicle_type_id":"4","last_reported":1737223830,"current_range_meters":12800,"station_id":"ce4bhgh2rcd13ifvqfa0","pricing_plan_id":"cebpf4jnsgd1na2vs0mg"},{"bike_id":"285d87c5-42c1-4af2-93f4-eb791c359330","system_id":"levelo_inurba_marseille","lat":43.27908,"lon":5.38013,"is_reserved":false,"is_disabled":false,"rental_uris":{"android":"levelo://app?vid=285d87c5-42c1-4af2-93f4-eb791c359330","ios":"levelo://app?vid=285d87c5-42c1-4af2-93f4-eb791c359330"},"vehicle_type_id":"4","last_reported":1737223830,"current_range_meters":37600,"station_id":"ce4bhf92rcd13ifvqf50","pricing_plan_id":"cebpf4jnsgd1na2vs0mg"},{"bike_id":"234d1550-b7dd-465b-9578-32049a642f2b","system_id":"levelo_inurba_marseille","lat":43.29958,"lon":5.4134,"is_reserved":false,"is_disabled":false,"rental_uris":{"android":"levelo://app?vid=234d1550-b7dd-465b-9578-32049a642f2b","ios":"levelo://app?vid=234d1550-b7dd-465b-9578-32049a642f2b"},"vehicle_type_id":"4","last_reported":1737223830,"current_range_meters":38000,"station_id":"ce4bhp12rcd13ifvqh9g","pricing_plan_id":"cebpf4jnsgd1na2vs0mg"},{"bike_id":"cb4077b2-e6eb-43a3-ae59-f1661534be31","system_id":"levelo_inurba_marseille","lat":43.31169,"lon":5.38713,"is_reserved":false,"is_disabled":false,"rental_uris":{"android":"levelo://app?vid=cb4077b2-e6eb-43a3-ae59-f1661534be31","ios":"levelo://app?vid=cb4077b2-e6eb-43a3-ae59-f1661534be31"},"vehicle_type_id":"4","last_reported":1737223830,"current_range_meters":39200,"station_id":"ce4bgv12rcd13ifvqcp0","pricing_plan_id":"cebpf4jnsgd1na2vs0mg"},{"bike_id":"1e1a00cf-37bc-4acb-bfdd-f544474a6031","system_id":"levelo_inurba_marseille","lat":43.29174,"lon":5.37155,"is_reserved":false,"is_disabled":false,"rental_uris":{"android":"levelo://app?vid=1e1a00cf-37bc-4acb-bfdd-f544474a6031","ios":"levelo://app?vid=1e1a00cf-37bc-4acb-bfdd-f544474a6031"},"vehicle_type_id":"4","last_reported":1737223830,"current_range_meters":18800,"station_id":"ce4bha92rcd13ifvqeh0","pricing_plan_id":"cebpf4jnsgd1na2vs0mg"},{"bike_id":"3cc068a4-632c-4cdc-a8e3-9fbbb1c24022","system_id":"levelo_inurba_marseille","lat":43.306,"lon":5.37229,"is_reserved":false,"is_disabled":false,"rental_uris":{"android":"levelo://app?vid=3cc068a4-632c-4cdc-a8e3-9fbbb1c24022","ios":"levelo://app?vid=3cc068a4-632c-4cdc-a8e3-9fbbb1c24022"},"vehicle_type_id":"4","last_reported":1737223830,"current_range_meters":32000,"station_id":"ce4bgqh2rcd13ifvqc4g","pricing_plan_id":"cebpf4jnsgd1na2vs0mg"},{"bike_id":"96960263-8122-4b3a-9f60-4d15c809c06f","system_id":"levelo_inurba_marseille","lat":43.26056,"lon":5.39375,"is_reserved":false,"is_disabled":false,"rental_uris":{"android":"levelo://app?vid=96960263-8122-4b3a-9f60-4d15c809c06f","ios":"levelo://app?vid=96960263-8122-4b3a-9f60-4d15c809c06f"},"vehicle_type_id":"4","last_reported":1737223830,"current_range_meters":9600,"station_id":"ce4bhh92rcd13ifvqfj0","pricing_plan_id":"cebpf4jnsgd1na2vs0mg"},{"bike_id":"017dda8b-04cf-4732-977c-fe5d131be489","system_id":"levelo_inurba_marseille","lat":43.30307,"lon":5.39218,"is_reserved":false,"is_disabled":false,"rental_uris":{"android":"levelo://app?vid=017dda8b-04cf-4732-977c-fe5d131be489","ios":"levelo://app?vid=017dda8b-04cf-4732-977c-fe5d131be489"},"vehicle_type_id":"4","last_reported":1737223830,"current_range_meters":25200,"station_id":"ce4bgkh2rcd13ifvqbk0","pricing_plan_id":"cebpf4jnsgd1na2vs0mg"},{"bike_id":"28ffb8aa-aac5-4403-8015-c8585f5498c1","system_id":"levelo_inurba_marseille","lat":43.25003,"lon":5.38922,"is_reserved":false,"is_disabled":false,"rental_uris":{"android":"levelo://app?vid=28ffb8aa-aac5-4403-8015-c8585f5498c1","ios":"levelo://app?vid=28ffb8aa-aac5-4403-8015-c8585f5498c1"},"vehicle_type_id":"4","last_reported":1737223830,"current_range_meters":22000,"station_id":"ce4bhgp2rcd13ifvqfd0","pricing_plan_id":"cebpf4jnsgd1na2vs0mg"},{"bike_id":"2e47faa9-c3e6-47b8-9f27-e212ce241e07","system_id":"levelo_inurba_marseille","lat":43.30097,"lon":5.39094,"is_reserved":false,"is_disabled":false,"rental_uris":{"android":"levelo://app?vid=2e47faa9-c3e6-47b8-9f27-e212ce241e07","ios":"levelo://app?vid=2e47faa9-c3e6-47b8-9f27-e212ce241e07"},"vehicle_type_id":"4","last_reported":1737223830,"current_range_meters":20400,"station_id":"ce4bh192rcd13ifvqdb0","pricing_plan_id":"cebpf4jnsgd1na2vs0mg"},{"bike_id":"56b8e9bc-f750-4815-bc98-9098414d16db","system_id":"levelo_inurba_marseille","lat":43.23199,"lon":5.35546,"is_reserved":false,"is_disabled":true,"rental_uris":{"android":"levelo://app?vid=56b8e9bc-f750-4815-bc98-9098414d16db","ios":"levelo://app?vid=56b8e9bc-f750-4815-bc98-9098414d16db"},"vehicle_type_id":"4","last_reported":1737223830,"current_range_meters":0,"station_id":"ce4bhu92rcd13ifvqi70","pricing_plan_id":"cebpf4jnsgd1na2vs0mg"},{"bike_id":"0e91b70c-1e42-4d65-a90a-72cbd40954b0","system_id":"levelo_inurba_marseille","lat":43.32365,"lon":5.36758,"is_reserved":false,"is_disabled":false,"rental_uris":{"android":"levelo://app?vid=0e91b70c-1e42-4d65-a90a-72cbd40954b0","ios":"levelo://app?vid=0e91b70c-1e42-4d65-a90a-72cbd40954b0"},"vehicle_type_id":"4","last_reported":1737223830,"current_range_meters":10000,"station_id":"ce4bhsh2rcd13ifvqi2g","pricing_plan_id":"cebpf4jnsgd1na2vs0mg"},{"bike_id":"30b051a6-63a6-4bea-bba2-29f5136c60a4","system_id":"levelo_inurba_marseille","lat":43.30466,"lon":5.3791,"is_reserved":false,"is_disabled":false,"rental_uris":{"android":"levelo://app?vid=30b051a6-63a6-4bea-bba2-29f5136c60a4","ios":"levelo://app?vid=30b051a6-63a6-4bea-bba2-29f5136c60a4"},"vehicle_type_id":"4","last_reported":1737223830,"current_range_meters":13600,"station_id":"ce4bgup2rcd13ifvqcn0","pricing_plan_id":"cebpf4jnsgd1na2vs0mg"},{"bike_id":"f82a92f3-88f0-4adc-92de-4c6bd3425679","system_id":"levelo_inurba_marseille","lat":43.29419,"lon":5.38616,"is_reserved":false,"is_disabled":false,"rental_uris":{"android":"levelo://app?vid=f82a92f3-88f0-4adc-92de-4c6bd3425679","ios":"levelo://app?vid=f82a92f3-88f0-4adc-92de-4c6bd3425679"},"vehicle_type_id":"4","last_reported":1737223830,"current_range_meters":15200,"station_id":"ce4bh2h2rcd13ifvqdh0","pricing_plan_id":"cebpf4jnsgd1na2vs0mg"},{"bike_id":"a7584588-485e-4489-aa81-ed5d3d2f4789","system_id":"levelo_inurba_marseille","lat":43.31124,"lon":5.37784,"is_reserved":false,"is_disabled":false,"rental_uris":{"android":"levelo://app?vid=a7584588-485e-4489-aa81-ed5d3d2f4789","ios":"levelo://app?vid=a7584588-485e-4489-aa81-ed5d3d2f4789"},"vehicle_type_id":"4","last_reported":1737223830,"current_range_meters":38800,"station_id":"ce4bgt92rcd13ifvqcg0","pricing_plan_id":"cebpf4jnsgd1na2vs0mg"},{"bike_id":"a1c4bb5a-f15f-4953-bb7b-eb8ff1c6ec21","system_id":"levelo_inurba_marseille","lat":43.2857,"lon":5.39488,"is_reserved":false,"is_disabled":false,"rental_uris":{"android":"levelo://app?vid=a1c4bb5a-f15f-4953-bb7b-eb8ff1c6ec21","ios":"levelo://app?vid=a1c4bb5a-f15f-4953-bb7b-eb8ff1c6ec21"},"vehicle_type_id":"4","last_reported":1737223830,"current_range_meters":8400,"station_id":"ce4bh292rcd13ifvqdg0","pricing_plan_id":"cebpf4jnsgd1na2vs0mg"},{"bike_id":"a06cdddf-55cb-4a63-88ab-603c20ac278f","system_id":"levelo_inurba_marseille","lat":43.26956,"lon":5.38635,"is_reserved":false,"is_disabled":false,"rental_uris":{"android":"levelo://app?vid=a06cdddf-55cb-4a63-88ab-603c20ac278f","ios":"levelo://app?vid=a06cdddf-55cb-4a63-88ab-603c20ac278f"},"vehicle_type_id":"4","last_reported":1737223830,"current_range_meters":2000,"station_id":"ce4bhh92rcd13ifvqfh0","pricing_plan_id":"cebpf4jnsgd1na2vs0mg"},{"bike_id":"de173c8c-0966-4b90-ac81-49cc1637daac","system_id":"levelo_inurba_marseille","lat":43.29746,"lon":5.37719,"is_reserved":false,"is_disabled":false,"rental_uris":{"android":"levelo://app?vid=de173c8c-0966-4b90-ac81-49cc1637daac","ios":"levelo://app?vid=de173c8c-0966-4b90-ac81-49cc1637daac"},"vehicle_type_id":"4","last_reported":1737223830,"current_range_meters":38800,"station_id":"","pricing_plan_id":"cebpf4jnsgd1na2vs0mg"},{"bike_id":"22465212-93af-4e0b-b803-6ee82bba56d5","system_id":"levelo_inurba_marseille","lat":43.33759,"lon":5.3748,"is_reserved":false,"is_disabled":false,"rental_uris":{"android":"levelo://app?vid=22465212-93af-4e0b-b803-6ee82bba56d5","ios":"levelo://app?vid=22465212-93af-4e0b-b803-6ee82bba56d5"},"vehicle_type_id":"4","last_reported":1737223830,"current_range_meters":32000,"station_id":"","pricing_plan_id":"cebpf4jnsgd1na2vs0mg"},{"bike_id":"2acc906a-c27a-49da-90e2-256aae51eb57","system_id":"levelo_inurba_marseille","lat":43.30799,"lon":5.43518,"is_reserved":false,"is_disabled":false,"rental_uris":{"android":"levelo://app?vid=2acc906a-c27a-49da-90e2-256aae51eb57","ios":"levelo://app?vid=2acc906a-c27a-49da-90e2-256aae51eb57"},"vehicle_type_id":"4","last_reported":1737223830,"current_range_meters":38400,"station_id":"ce4bhph2rcd13ifvqheg","pricing_plan_id":"cebpf4jnsgd1na2vs0mg"},{"bike_id":"012b4a84-5105-4638-acc4-50dc2009f1f0","system_id":"levelo_inurba_marseille","lat":43.27208,"lon":5.39178,"is_reserved":false,"is_disabled":false,"rental_uris":{"android":"levelo://app?vid=012b4a84-5105-4638-acc4-50dc2009f1f0","ios":"levelo://app?vid=012b4a84-5105-4638-acc4-50dc2009f1f0"},"vehicle_type_id":"4","last_reported":1737223830,"current_range_meters":36800,"station_id":"ce4bhhp2rcd13ifvqfm0","pricing_plan_id":"cebpf4jnsgd1na2vs0mg"},{"bike_id":"2669dc48-d52c-4df4-a185-3258641e3a0a","system_id":"levelo_inurba_marseille","lat":43.279665,"lon":5.387093,"is_reserved":false,"is_disabled":true,"rental_uris":{"android":"levelo://app?vid=2669dc48-d52c-4df4-a185-3258641e3a0a","ios":"levelo://app?vid=2669dc48-d52c-4df4-a185-3258641e3a0a"},"vehicle_type_id":"4","last_reported":1737223830,"current_range_meters":0,"station_id":"ce4bhg12rcd13ifvqf80","pricing_plan_id":"cebpf4jnsgd1na2vs0mg"},{"bike_id":"19fb1931-f075-402c-a076-088e72accb76","system_id":"levelo_inurba_marseille","lat":43.24822,"lon":5.37454,"is_reserved":false,"is_disabled":false,"rental_uris":{"android":"levelo://app?vid=19fb1931-f075-402c-a076-088e72accb76","ios":"levelo://app?vid=19fb1931-f075-402c-a076-088e72accb76"},"vehicle_type_id":"4","last_reported":1737223830,"current_range_meters":14800,"station_id":"ce4bhgh2rcd13ifvqfb0","pricing_plan_id":"cebpf4jnsgd1na2vs0mg"},{"bike_id":"74c60602-d890-40fc-9ec9-85e4c1077ff7","system_id":"levelo_inurba_marseille","lat":43.31764,"lon":5.39011,"is_reserved":false,"is_disabled":false,"rental_uris":{"android":"levelo://app?vid=74c60602-d890-40fc-9ec9-85e4c1077ff7","ios":"levelo://app?vid=74c60602-d890-40fc-9ec9-85e4c1077ff7"},"vehicle_type_id":"4","last_reported":1737223830,"current_range_meters":38800,"station_id":"ce4bhqp2rcd13ifvqhng","pricing_plan_id":"cebpf4jnsgd1na2vs0mg"},{"bike_id":"86b1129b-34c7-4cb1-acb7-46aa8942c62c","system_id":"levelo_inurba_marseille","lat":43.23149,"lon":5.43713,"is_reserved":false,"is_disabled":true,"rental_uris":{"android":"levelo://app?vid=86b1129b-34c7-4cb1-acb7-46aa8942c62c","ios":"levelo://app?vid=86b1129b-34c7-4cb1-acb7-46aa8942c62c"},"vehicle_type_id":"4","last_reported":1737223830,"current_range_meters":0,"station_id":"ce4bhmp2rcd13ifvqgog","pricing_plan_id":"cebpf4jnsgd1na2vs0mg"},{"bike_id":"590f7295-8479-41c9-a1a1-d371a87a5aab","system_id":"levelo_inurba_marseille","lat":43.26223,"lon":5.37446,"is_reserved":false,"is_disabled":false,"rental_uris":{"android":"levelo://app?vid=590f7295-8479-41c9-a1a1-d371a87a5aab","ios":"levelo://app?vid=590f7295-8479-41c9-a1a1-d371a87a5aab"},"vehicle_type_id":"4","last_reported":1737223830,"current_range_meters":9200,"station_id":"","pricing_plan_id":"cebpf4jnsgd1na2vs0mg"},{"bike_id":"0a3b5238-d1e9-4715-a08c-7107b961f7e7","system_id":"levelo_inurba_marseille","lat":43.29559,"lon":5.42296,"is_reserved":false,"is_disabled":true,"rental_uris":{"android":"levelo://app?vid=0a3b5238-d1e9-4715-a08c-7107b961f7e7","ios":"levelo://app?vid=0a3b5238-d1e9-4715-a08c-7107b961f7e7"},"vehicle_type_id":"4","last_reported":1737223830,"current_range_meters":1200,"station_id":"ce4bhph2rcd13ifvqhdg","pricing_plan_id":"cebpf4jnsgd1na2vs0mg"},{"bike_id":"d9c5424c-2ffb-407d-aa3f-ecdabb59fa0b","system_id":"levelo_inurba_marseille","lat":43.2908,"lon":5.37185,"is_reserved":false,"is_disabled":false,"rental_uris":{"android":"levelo://app?vid=d9c5424c-2ffb-407d-aa3f-ecdabb59fa0b","ios":"levelo://app?vid=d9c5424c-2ffb-407d-aa3f-ecdabb59fa0b"},"vehicle_type_id":"4","last_reported":1737223830,"current_range_meters":12400,"station_id":"ce4bh5p2rcd13ifvqe4g","pricing_plan_id":"cebpf4jnsgd1na2vs0mg"},{"bike_id":"c6f874ed-7baa-4ffa-b8dc-93b47368c64c","system_id":"levelo_inurba_marseille","lat":43.27377,"lon":5.36248,"is_reserved":false,"is_disabled":false,"rental_uris":{"android":"levelo://app?vid=c6f874ed-7baa-4ffa-b8dc-93b47368c64c","ios":"levelo://app?vid=c6f874ed-7baa-4ffa-b8dc-93b47368c64c"},"vehicle_type_id":"4","last_reported":1737223830,"current_range_meters":36400,"station_id":"ce4bhbh2rcd13ifvqeo0","pricing_plan_id":"cebpf4jnsgd1na2vs0mg"},{"bike_id":"82eafdac-bd81-479d-a7b0-05db8ca76c26","system_id":"levelo_inurba_marseille","lat":43.258251,"lon":5.394332,"is_reserved":false,"is_disabled":true,"rental_uris":{"android":"levelo://app?vid=82eafdac-bd81-479d-a7b0-05db8ca76c26","ios":"levelo://app?vid=82eafdac-bd81-479d-a7b0-05db8ca76c26"},"vehicle_type_id":"4","last_reported":1737223830,"current_range_meters":0,"station_id":"ce4bhip2rcd13ifvqft0","pricing_plan_id":"cebpf4jnsgd1na2vs0mg"},{"bike_id":"8ab04f53-4c7f-4dca-80e7-3b6de708dbb0","system_id":"levelo_inurba_marseille","lat":43.3032,"lon":5.40428,"is_reserved":false,"is_disabled":false,"rental_uris":{"android":"levelo://app?vid=8ab04f53-4c7f-4dca-80e7-3b6de708dbb0","ios":"levelo://app?vid=8ab04f53-4c7f-4dca-80e7-3b6de708dbb0"},"vehicle_type_id":"4","last_reported":1737223830,"current_range_meters":20400,"station_id":"ce4bh012rcd13ifvqd10","pricing_plan_id":"cebpf4jnsgd1na2vs0mg"},{"bike_id":"0d51cdbb-323f-4a82-9d51-32fc344d7fab","system_id":"levelo_inurba_marseille","lat":43.29272,"lon":5.36845,"is_reserved":false,"is_disabled":false,"rental_uris":{"android":"levelo://app?vid=0d51cdbb-323f-4a82-9d51-32fc344d7fab","ios":"levelo://app?vid=0d51cdbb-323f-4a82-9d51-32fc344d7fab"},"vehicle_type_id":"4","last_reported":1737223830,"current_range_meters":6400,"station_id":"ce4bhbp2rcd13ifvqesg","pricing_plan_id":"cebpf4jnsgd1na2vs0mg"},{"bike_id":"f0af00e6-e353-43c0-a029-850cea077ff9","system_id":"levelo_inurba_marseille","lat":43.27045,"lon":5.40258,"is_reserved":false,"is_disabled":true,"rental_uris":{"android":"levelo://app?vid=f0af00e6-e353-43c0-a029-850cea077ff9","ios":"levelo://app?vid=f0af00e6-e353-43c0-a029-850cea077ff9"},"vehicle_type_id":"4","last_reported":1737223830,"current_range_meters":1200,"station_id":"ce4bhk92rcd13ifvqgc0","pricing_plan_id":"cebpf4jnsgd1na2vs0mg"},{"bike_id":"8104036c-18b2-44c0-8ca3-6ac3d4afb370","system_id":"levelo_inurba_marseille","lat":43.27207,"lon":5.39179,"is_reserved":false,"is_disabled":false,"rental_uris":{"android":"levelo://app?vid=8104036c-18b2-44c0-8ca3-6ac3d4afb370","ios":"levelo://app?vid=8104036c-18b2-44c0-8ca3-6ac3d4afb370"},"vehicle_type_id":"4","last_reported":1737223830,"current_range_meters":8800,"station_id":"ce4bhhp2rcd13ifvqfm0","pricing_plan_id":"cebpf4jnsgd1na2vs0mg"},{"bike_id":"35deb437-7ef2-4ee7-9ea5-27ce0001ca7b","system_id":"levelo_inurba_marseille","lat":43.26059,"lon":5.39393,"is_reserved":false,"is_disabled":false,"rental_uris":{"android":"levelo://app?vid=35deb437-7ef2-4ee7-9ea5-27ce0001ca7b","ios":"levelo://app?vid=35deb437-7ef2-4ee7-9ea5-27ce0001ca7b"},"vehicle_type_id":"4","last_reported":1737223830,"current_range_meters":37600,"station_id":"ce4bhh92rcd13ifvqfj0","pricing_plan_id":"cebpf4jnsgd1na2vs0mg"},{"bike_id":"e8e3cba2-afda-4525-81f7-3b942447b387","system_id":"levelo_inurba_marseille","lat":43.25874,"lon":5.39893,"is_reserved":false,"is_disabled":false,"rental_uris":{"android":"levelo://app?vid=e8e3cba2-afda-4525-81f7-3b942447b387","ios":"levelo://app?vid=e8e3cba2-afda-4525-81f7-3b942447b387"},"vehicle_type_id":"4","last_reported":1737223830,"current_range_meters":24800,"station_id":"ce4bhl92rcd13ifvqghg","pricing_plan_id":"cebpf4jnsgd1na2vs0mg"},{"bike_id":"704e12c2-77f3-4825-bb7c-897ccef1084a","system_id":"levelo_inurba_marseille","lat":43.26551,"lon":5.37289,"is_reserved":false,"is_disabled":false,"rental_uris":{"android":"levelo://app?vid=704e12c2-77f3-4825-bb7c-897ccef1084a","ios":"levelo://app?vid=704e12c2-77f3-4825-bb7c-897ccef1084a"},"vehicle_type_id":"4","last_reported":1737223830,"current_range_meters":28000,"station_id":"ce4bhg12rcd13ifvqf70","pricing_plan_id":"cebpf4jnsgd1na2vs0mg"},{"bike_id":"f2390374-e060-4fe1-bcfa-cb2711193e58","system_id":"levelo_inurba_marseille","lat":43.25095,"lon":5.39524,"is_reserved":false,"is_disabled":false,"rental_uris":{"android":"levelo://app?vid=f2390374-e060-4fe1-bcfa-cb2711193e58","ios":"levelo://app?vid=f2390374-e060-4fe1-bcfa-cb2711193e58"},"vehicle_type_id":"4","last_reported":1737223830,"current_range_meters":9600,"station_id":"ce4bhm12rcd13ifvqgkg","pricing_plan_id":"cebpf4jnsgd1na2vs0mg"},{"bike_id":"3839dff0-5b89-4cd7-9bfc-f81bf27e098e","system_id":"levelo_inurba_marseille","lat":43.29037,"lon":5.38656,"is_reserved":false,"is_disabled":false,"rental_uris":{"android":"levelo://app?vid=3839dff0-5b89-4cd7-9bfc-f81bf27e098e","ios":"levelo://app?vid=3839dff0-5b89-4cd7-9bfc-f81bf27e098e"},"vehicle_type_id":"4","last_reported":1737223830,"current_range_meters":6400,"station_id":"ce4bh4p2rcd13ifvqe0g","pricing_plan_id":"cebpf4jnsgd1na2vs0mg"},{"bike_id":"1f18feac-c494-4ebc-998b-761eca666c58","system_id":"levelo_inurba_marseille","lat":43.28725,"lon":5.37947,"is_reserved":false,"is_disabled":false,"rental_uris":{"android":"levelo://app?vid=1f18feac-c494-4ebc-998b-761eca666c58","ios":"levelo://app?vid=1f18feac-c494-4ebc-998b-761eca666c58"},"vehicle_type_id":"4","last_reported":1737223830,"current_range_meters":8000,"station_id":"ce4bh9p2rcd13ifvqec0","pricing_plan_id":"cebpf4jnsgd1na2vs0mg"},{"bike_id":"d6161db6-0288-4eaf-b39b-605e25ca46ff","system_id":"levelo_inurba_marseille","lat":43.27428,"lon":5.39404,"is_reserved":false,"is_disabled":true,"rental_uris":{"android":"levelo://app?vid=d6161db6-0288-4eaf-b39b-605e25ca46ff","ios":"levelo://app?vid=d6161db6-0288-4eaf-b39b-605e25ca46ff"},"vehicle_type_id":"4","last_reported":1737223830,"current_range_meters":0,"station_id":"ce4bhdp2rcd13ifvqf20","pricing_plan_id":"cebpf4jnsgd1na2vs0mg"},{"bike_id":"c87bd272-e537-4ca8-8621-88fd6bdfad6e","system_id":"levelo_inurba_marseille","lat":43.29021,"lon":5.38133,"is_reserved":false,"is_disabled":false,"rental_uris":{"android":"levelo://app?vid=c87bd272-e537-4ca8-8621-88fd6bdfad6e","ios":"levelo://app?vid=c87bd272-e537-4ca8-8621-88fd6bdfad6e"},"vehicle_type_id":"4","last_reported":1737223830,"current_range_meters":27600,"station_id":"ce4bh4p2rcd13ifvqe1g","pricing_plan_id":"cebpf4jnsgd1na2vs0mg"},{"bike_id":"c49bda8b-a9ea-406f-807c-96e70f81157d","system_id":"levelo_inurba_marseille","lat":43.29528,"lon":5.39043,"is_reserved":false,"is_disabled":false,"rental_uris":{"android":"levelo://app?vid=c49bda8b-a9ea-406f-807c-96e70f81157d","ios":"levelo://app?vid=c49bda8b-a9ea-406f-807c-96e70f81157d"},"vehicle_type_id":"4","last_reported":1737223830,"current_range_meters":33600,"station_id":"ce4bh3p2rcd13ifvqdp0","pricing_plan_id":"cebpf4jnsgd1na2vs0mg"},{"bike_id":"2a6c8aef-7633-4410-aa65-ead7161fa29b","system_id":"levelo_inurba_marseille","lat":43.31213,"lon":5.36839,"is_reserved":false,"is_disabled":false,"rental_uris":{"android":"levelo://app?vid=2a6c8aef-7633-4410-aa65-ead7161fa29b","ios":"levelo://app?vid=2a6c8aef-7633-4410-aa65-ead7161fa29b"},"vehicle_type_id":"4","last_reported":1737223830,"current_range_meters":37600,"station_id":"ce4bgl92rcd13ifvqbq0","pricing_plan_id":"cebpf4jnsgd1na2vs0mg"},{"bike_id":"1e43f0f8-4119-4f43-9f7c-8fe98515c149","system_id":"levelo_inurba_marseille","lat":43.30888,"lon":5.37192,"is_reserved":false,"is_disabled":false,"rental_uris":{"android":"levelo://app?vid=1e43f0f8-4119-4f43-9f7c-8fe98515c149","ios":"levelo://app?vid=1e43f0f8-4119-4f43-9f7c-8fe98515c149"},"vehicle_type_id":"4","last_reported":1737223830,"current_range_meters":38400,"station_id":"ce4bguh2rcd13ifvqckg","pricing_plan_id":"cebpf4jnsgd1na2vs0mg"},{"bike_id":"c5c5b2fa-0947-4c86-89b8-4f15ae810d69","system_id":"levelo_inurba_marseille","lat":43.30521,"lon":5.36513,"is_reserved":false,"is_disabled":false,"rental_uris":{"android":"levelo://app?vid=c5c5b2fa-0947-4c86-89b8-4f15ae810d69","ios":"levelo://app?vid=c5c5b2fa-0947-4c86-89b8-4f15ae810d69"},"vehicle_type_id":"4","last_reported":1737223830,"current_range_meters":36800,"station_id":"","pricing_plan_id":"cebpf4jnsgd1na2vs0mg"},{"bike_id":"a95248e8-7ba2-479e-9b5c-9fb4d8e98c2b","system_id":"levelo_inurba_marseille","lat":43.28099,"lon":5.42199,"is_reserved":false,"is_disabled":true,"rental_uris":{"android":"levelo://app?vid=a95248e8-7ba2-479e-9b5c-9fb4d8e98c2b","ios":"levelo://app?vid=a95248e8-7ba2-479e-9b5c-9fb4d8e98c2b"},"vehicle_type_id":"4","last_reported":1737223830,"current_range_meters":0,"station_id":"","pricing_plan_id":"cebpf4jnsgd1na2vs0mg"},{"bike_id":"246f2aa1-d855-40ee-b8e2-0e541013d632","system_id":"levelo_inurba_marseille","lat":43.27819,"lon":5.40723,"is_reserved":false,"is_disabled":true,"rental_uris":{"android":"levelo://app?vid=246f2aa1-d855-40ee-b8e2-0e541013d632","ios":"levelo://app?vid=246f2aa1-d855-40ee-b8e2-0e541013d632"},"vehicle_type_id":"4","last_reported":1737223830,"current_range_meters":0,"station_id":"ce4bhnh2rcd13ifvqgtg","pricing_plan_id":"cebpf4jnsgd1na2vs0mg"},{"bike_id":"87cefc3a-e36a-4030-9c3f-9fc87455f3e3","system_id":"levelo_inurba_marseille","lat":43.27386,"lon":5.36259,"is_reserved":false,"is_disabled":false,"rental_uris":{"android":"levelo://app?vid=87cefc3a-e36a-4030-9c3f-9fc87455f3e3","ios":"levelo://app?vid=87cefc3a-e36a-4030-9c3f-9fc87455f3e3"},"vehicle_type_id":"4","last_reported":1737223830,"current_range_meters":38800,"station_id":"ce4bhbh2rcd13ifvqeo0","pricing_plan_id":"cebpf4jnsgd1na2vs0mg"},{"bike_id":"d146f30b-7230-4270-b613-c2689a695e15","system_id":"levelo_inurba_marseille","lat":43.2956,"lon":5.42298,"is_reserved":false,"is_disabled":false,"rental_uris":{"android":"levelo://app?vid=d146f30b-7230-4270-b613-c2689a695e15","ios":"levelo://app?vid=d146f30b-7230-4270-b613-c2689a695e15"},"vehicle_type_id":"4","last_reported":1737223830,"current_range_meters":30000,"station_id":"ce4bhph2rcd13ifvqhdg","pricing_plan_id":"cebpf4jnsgd1na2vs0mg"},{"bike_id":"458283ee-1215-4adf-925f-85f17f14cef5","system_id":"levelo_inurba_marseille","lat":43.28475,"lon":5.39077,"is_reserved":false,"is_disabled":false,"rental_uris":{"android":"levelo://app?vid=458283ee-1215-4adf-925f-85f17f14cef5","ios":"levelo://app?vid=458283ee-1215-4adf-925f-85f17f14cef5"},"vehicle_type_id":"4","last_reported":1737223830,"current_range_meters":39200,"station_id":"ce4bhoh2rcd13ifvqh5g","pricing_plan_id":"cebpf4jnsgd1na2vs0mg"},{"bike_id":"4abb63f6-cf8d-4c9e-a79f-9848d6633504","system_id":"levelo_inurba_marseille","lat":43.26555,"lon":5.37285,"is_reserved":false,"is_disabled":false,"rental_uris":{"android":"levelo://app?vid=4abb63f6-cf8d-4c9e-a79f-9848d6633504","ios":"levelo://app?vid=4abb63f6-cf8d-4c9e-a79f-9848d6633504"},"vehicle_type_id":"4","last_reported":1737223830,"current_range_meters":27600,"station_id":"ce4bhg12rcd13ifvqf70","pricing_plan_id":"cebpf4jnsgd1na2vs0mg"},{"bike_id":"e43a57f5-32ca-4eb5-9371-4099701143d6","system_id":"levelo_inurba_marseille","lat":43.29864,"lon":5.39739,"is_reserved":false,"is_disabled":false,"rental_uris":{"android":"levelo://app?vid=e43a57f5-32ca-4eb5-9371-4099701143d6","ios":"levelo://app?vid=e43a57f5-32ca-4eb5-9371-4099701143d6"},"vehicle_type_id":"4","last_reported":1737223830,"current_range_meters":37600,"station_id":"ce4bh0h2rcd13ifvqd50","pricing_plan_id":"cebpf4jnsgd1na2vs0mg"},{"bike_id":"2189f33e-4cfd-4f76-9d91-913095d551c4","system_id":"levelo_inurba_marseille","lat":43.303517,"lon":5.390973,"is_reserved":false,"is_disabled":true,"rental_uris":{"android":"levelo://app?vid=2189f33e-4cfd-4f76-9d91-913095d551c4","ios":"levelo://app?vid=2189f33e-4cfd-4f76-9d91-913095d551c4"},"vehicle_type_id":"4","last_reported":1737223830,"current_range_meters":0,"station_id":"","pricing_plan_id":"cebpf4jnsgd1na2vs0mg"},{"bike_id":"3e682244-e5ee-4cd5-885a-9a1ceb0d20ad","system_id":"levelo_inurba_marseille","lat":43.29283,"lon":5.36849,"is_reserved":false,"is_disabled":false,"rental_uris":{"android":"levelo://app?vid=3e682244-e5ee-4cd5-885a-9a1ceb0d20ad","ios":"levelo://app?vid=3e682244-e5ee-4cd5-885a-9a1ceb0d20ad"},"vehicle_type_id":"4","last_reported":1737223830,"current_range_meters":20000,"station_id":"ce4bhbp2rcd13ifvqesg","pricing_plan_id":"cebpf4jnsgd1na2vs0mg"},{"bike_id":"17c7b9e1-ab22-4527-876f-37ecce330109","system_id":"levelo_inurba_marseille","lat":43.31532,"lon":5.38031,"is_reserved":false,"is_disabled":false,"rental_uris":{"android":"levelo://app?vid=17c7b9e1-ab22-4527-876f-37ecce330109","ios":"levelo://app?vid=17c7b9e1-ab22-4527-876f-37ecce330109"},"vehicle_type_id":"4","last_reported":1737223830,"current_range_meters":31200,"station_id":"ce4bhsp2rcd13ifvqi50","pricing_plan_id":"cebpf4jnsgd1na2vs0mg"},{"bike_id":"70193b52-5568-46cb-a2e6-1d0f01f1b196","system_id":"levelo_inurba_marseille","lat":43.27492,"lon":5.38468,"is_reserved":false,"is_disabled":false,"rental_uris":{"android":"levelo://app?vid=70193b52-5568-46cb-a2e6-1d0f01f1b196","ios":"levelo://app?vid=70193b52-5568-46cb-a2e6-1d0f01f1b196"},"vehicle_type_id":"4","last_reported":1737223830,"current_range_meters":12800,"station_id":"ce4bhn12rcd13ifvqgqg","pricing_plan_id":"cebpf4jnsgd1na2vs0mg"},{"bike_id":"7383474c-b45a-4438-837c-99d7ae866fe7","system_id":"levelo_inurba_marseille","lat":43.26059,"lon":5.39396,"is_reserved":false,"is_disabled":false,"rental_uris":{"android":"levelo://app?vid=7383474c-b45a-4438-837c-99d7ae866fe7","ios":"levelo://app?vid=7383474c-b45a-4438-837c-99d7ae866fe7"},"vehicle_type_id":"4","last_reported":1737223830,"current_range_meters":37600,"station_id":"ce4bhh92rcd13ifvqfj0","pricing_plan_id":"cebpf4jnsgd1na2vs0mg"},{"bike_id":"541b7769-8083-411e-ad4d-d20a4dfa7b91","system_id":"levelo_inurba_marseille","lat":43.31282,"lon":5.4017,"is_reserved":false,"is_disabled":false,"rental_uris":{"android":"levelo://app?vid=541b7769-8083-411e-ad4d-d20a4dfa7b91","ios":"levelo://app?vid=541b7769-8083-411e-ad4d-d20a4dfa7b91"},"vehicle_type_id":"4","last_reported":1737223830,"current_range_meters":25200,"station_id":"ce4bh092rcd13ifvqd30","pricing_plan_id":"cebpf4jnsgd1na2vs0mg"},{"bike_id":"32a12868-659c-441b-be10-19fdd85f8ae5","system_id":"levelo_inurba_marseille","lat":43.31176,"lon":5.38717,"is_reserved":false,"is_disabled":false,"rental_uris":{"android":"levelo://app?vid=32a12868-659c-441b-be10-19fdd85f8ae5","ios":"levelo://app?vid=32a12868-659c-441b-be10-19fdd85f8ae5"},"vehicle_type_id":"4","last_reported":1737223830,"current_range_meters":17200,"station_id":"ce4bgv12rcd13ifvqcp0","pricing_plan_id":"cebpf4jnsgd1na2vs0mg"},{"bike_id":"f1fb2f76-d813-4548-9799-e07624488c49","system_id":"levelo_inurba_marseille","lat":43.267914,"lon":5.394001,"is_reserved":false,"is_disabled":false,"rental_uris":{"android":"levelo://app?vid=f1fb2f76-d813-4548-9799-e07624488c49","ios":"levelo://app?vid=f1fb2f76-d813-4548-9799-e07624488c49"},"vehicle_type_id":"4","last_reported":1737223830,"current_range_meters":18000,"station_id":"ce4bhh12rcd13ifvqfg0","pricing_plan_id":"cebpf4jnsgd1na2vs0mg"},{"bike_id":"30409f0a-3be8-43c1-b37d-d7545c6fcf86","system_id":"levelo_inurba_marseille","lat":43.29871,"lon":5.39737,"is_reserved":false,"is_disabled":false,"rental_uris":{"android":"levelo://app?vid=30409f0a-3be8-43c1-b37d-d7545c6fcf86","ios":"levelo://app?vid=30409f0a-3be8-43c1-b37d-d7545c6fcf86"},"vehicle_type_id":"4","last_reported":1737223830,"current_range_meters":38400,"station_id":"ce4bh0h2rcd13ifvqd50","pricing_plan_id":"cebpf4jnsgd1na2vs0mg"},{"bike_id":"0d5bf58b-8962-4322-87c4-754920ec04ac","system_id":"levelo_inurba_marseille","lat":43.31194,"lon":5.38716,"is_reserved":false,"is_disabled":true,"rental_uris":{"android":"levelo://app?vid=0d5bf58b-8962-4322-87c4-754920ec04ac","ios":"levelo://app?vid=0d5bf58b-8962-4322-87c4-754920ec04ac"},"vehicle_type_id":"4","last_reported":1737223830,"current_range_meters":36000,"station_id":"ce4bgv12rcd13ifvqcp0","pricing_plan_id":"cebpf4jnsgd1na2vs0mg"},{"bike_id":"c92cbb9f-5a8c-4f30-b00a-221ba31b944d","system_id":"levelo_inurba_marseille","lat":43.28428,"lon":5.34983,"is_reserved":false,"is_disabled":true,"rental_uris":{"android":"levelo://app?vid=c92cbb9f-5a8c-4f30-b00a-221ba31b944d","ios":"levelo://app?vid=c92cbb9f-5a8c-4f30-b00a-221ba31b944d"},"vehicle_type_id":"4","last_reported":1737223830,"current_range_meters":35600,"station_id":"ce4bhbh2rcd13ifvqepg","pricing_plan_id":"cebpf4jnsgd1na2vs0mg"},{"bike_id":"2996ec82-85bb-4c49-9ee2-4b5ed699c477","system_id":"levelo_inurba_marseille","lat":43.31172,"lon":5.38717,"is_reserved":false,"is_disabled":false,"rental_uris":{"android":"levelo://app?vid=2996ec82-85bb-4c49-9ee2-4b5ed699c477","ios":"levelo://app?vid=2996ec82-85bb-4c49-9ee2-4b5ed699c477"},"vehicle_type_id":"4","last_reported":1737223830,"current_range_meters":28400,"station_id":"ce4bgv12rcd13ifvqcp0","pricing_plan_id":"cebpf4jnsgd1na2vs0mg"},{"bike_id":"f928f9d6-2083-49a3-af2f-59474c5a2832","system_id":"levelo_inurba_marseille","lat":43.28927,"lon":5.38389,"is_reserved":false,"is_disabled":false,"rental_uris":{"android":"levelo://app?vid=f928f9d6-2083-49a3-af2f-59474c5a2832","ios":"levelo://app?vid=f928f9d6-2083-49a3-af2f-59474c5a2832"},"vehicle_type_id":"4","last_reported":1737223830,"current_range_meters":34800,"station_id":"ce4bh612rcd13ifvqe6g","pricing_plan_id":"cebpf4jnsgd1na2vs0mg"},{"bike_id":"2aa7af5c-8cdd-4fa3-b9ba-896e4268a6da","system_id":"levelo_inurba_marseille","lat":43.29532,"lon":5.38538,"is_reserved":false,"is_disabled":false,"rental_uris":{"android":"levelo://app?vid=2aa7af5c-8cdd-4fa3-b9ba-896e4268a6da","ios":"levelo://app?vid=2aa7af5c-8cdd-4fa3-b9ba-896e4268a6da"},"vehicle_type_id":"4","last_reported":1737223830,"current_range_meters":20400,"station_id":"ce4bgih2rcd13ifvqba0","pricing_plan_id":"cebpf4jnsgd1na2vs0mg"},{"bike_id":"fe90f7a6-3920-456a-9451-50d213b7000f","system_id":"levelo_inurba_marseille","lat":43.28474,"lon":5.38442,"is_reserved":false,"is_disabled":true,"rental_uris":{"android":"levelo://app?vid=fe90f7a6-3920-456a-9451-50d213b7000f","ios":"levelo://app?vid=fe90f7a6-3920-456a-9451-50d213b7000f"},"vehicle_type_id":"4","last_reported":1737223830,"current_range_meters":36400,"station_id":"ce4bh512rcd13ifvqe3g","pricing_plan_id":"cebpf4jnsgd1na2vs0mg"},{"bike_id":"c75a57a1-600f-4935-a0b3-f42bde8268df","system_id":"levelo_inurba_marseille","lat":43.29898,"lon":5.43664,"is_reserved":false,"is_disabled":false,"rental_uris":{"android":"levelo://app?vid=c75a57a1-600f-4935-a0b3-f42bde8268df","ios":"levelo://app?vid=c75a57a1-600f-4935-a0b3-f42bde8268df"},"vehicle_type_id":"4","last_reported":1737223830,"current_range_meters":9200,"station_id":"ce4bhpp2rcd13ifvqhfg","pricing_plan_id":"cebpf4jnsgd1na2vs0mg"},{"bike_id":"aa37e756-00f3-477f-be1a-1269cbbcd9a4","system_id":"levelo_inurba_marseille","lat":43.3066,"lon":5.37367,"is_reserved":false,"is_disabled":false,"rental_uris":{"android":"levelo://app?vid=aa37e756-00f3-477f-be1a-1269cbbcd9a4","ios":"levelo://app?vid=aa37e756-00f3-477f-be1a-1269cbbcd9a4"},"vehicle_type_id":"4","last_reported":1737223830,"current_range_meters":38000,"station_id":"","pricing_plan_id":"cebpf4jnsgd1na2vs0mg"},{"bike_id":"62b8620f-2bad-4b99-86b6-3ecbfb1fb840","system_id":"levelo_inurba_marseille","lat":43.3014,"lon":5.38786,"is_reserved":false,"is_disabled":false,"rental_uris":{"android":"levelo://app?vid=62b8620f-2bad-4b99-86b6-3ecbfb1fb840","ios":"levelo://app?vid=62b8620f-2bad-4b99-86b6-3ecbfb1fb840"},"vehicle_type_id":"4","last_reported":1737223830,"current_range_meters":39200,"station_id":"ce4bhoh2rcd13ifvqh6g","pricing_plan_id":"cebpf4jnsgd1na2vs0mg"},{"bike_id":"b388fec2-328d-4756-b3d3-98a769efbf50","system_id":"levelo_inurba_marseille","lat":43.30076,"lon":5.39293,"is_reserved":false,"is_disabled":false,"rental_uris":{"android":"levelo://app?vid=b388fec2-328d-4756-b3d3-98a769efbf50","ios":"levelo://app?vid=b388fec2-328d-4756-b3d3-98a769efbf50"},"vehicle_type_id":"4","last_reported":1737223830,"current_range_meters":38000,"station_id":"ce4bh0p2rcd13ifvqd70","pricing_plan_id":"cebpf4jnsgd1na2vs0mg"},{"bike_id":"fcaf8c93-ae40-4672-ba1f-a455a006d19e","system_id":"levelo_inurba_marseille","lat":43.292783,"lon":5.368453,"is_reserved":false,"is_disabled":false,"rental_uris":{"android":"levelo://app?vid=fcaf8c93-ae40-4672-ba1f-a455a006d19e","ios":"levelo://app?vid=fcaf8c93-ae40-4672-ba1f-a455a006d19e"},"vehicle_type_id":"4","last_reported":1737223830,"current_range_meters":33600,"station_id":"ce4bhbp2rcd13ifvqesg","pricing_plan_id":"cebpf4jnsgd1na2vs0mg"},{"bike_id":"a9a0e60f-8e94-490a-988c-5a9cfc45d626","system_id":"levelo_inurba_marseille","lat":43.24174,"lon":5.36396,"is_reserved":false,"is_disabled":false,"rental_uris":{"android":"levelo://app?vid=a9a0e60f-8e94-490a-988c-5a9cfc45d626","ios":"levelo://app?vid=a9a0e60f-8e94-490a-988c-5a9cfc45d626"},"vehicle_type_id":"4","last_reported":1737223830,"current_range_meters":10000,"station_id":"cpo36qri1sfpv3e86is0","pricing_plan_id":"cebpf4jnsgd1na2vs0mg"},{"bike_id":"f7a30e40-81cb-4a9a-8556-460dae52238e","system_id":"levelo_inurba_marseille","lat":43.27617,"lon":5.36098,"is_reserved":false,"is_disabled":false,"rental_uris":{"android":"levelo://app?vid=f7a30e40-81cb-4a9a-8556-460dae52238e","ios":"levelo://app?vid=f7a30e40-81cb-4a9a-8556-460dae52238e"},"vehicle_type_id":"4","last_reported":1737223830,"current_range_meters":9600,"station_id":"ce4bgj92rcd13ifvqbe0","pricing_plan_id":"cebpf4jnsgd1na2vs0mg"},{"bike_id":"ce27a234-c1f4-4319-a675-345fc8fc34d2","system_id":"levelo_inurba_marseille","lat":43.29975,"lon":5.3849,"is_reserved":false,"is_disabled":false,"rental_uris":{"android":"levelo://app?vid=ce27a234-c1f4-4319-a675-345fc8fc34d2","ios":"levelo://app?vid=ce27a234-c1f4-4319-a675-345fc8fc34d2"},"vehicle_type_id":"4","last_reported":1737223830,"current_range_meters":38800,"station_id":"ce4bgj92rcd13ifvqbd0","pricing_plan_id":"cebpf4jnsgd1na2vs0mg"},{"bike_id":"5136cca2-dc79-42d5-a096-5120a2626c68","system_id":"levelo_inurba_marseille","lat":43.30927,"lon":5.40144,"is_reserved":false,"is_disabled":false,"rental_uris":{"android":"levelo://app?vid=5136cca2-dc79-42d5-a096-5120a2626c68","ios":"levelo://app?vid=5136cca2-dc79-42d5-a096-5120a2626c68"},"vehicle_type_id":"4","last_reported":1737223830,"current_range_meters":36000,"station_id":"ce4bgvp2rcd13ifvqct0","pricing_plan_id":"cebpf4jnsgd1na2vs0mg"},{"bike_id":"76dbf6ef-b4a8-4cef-8918-462b67116819","system_id":"levelo_inurba_marseille","lat":43.32267,"lon":5.38259,"is_reserved":false,"is_disabled":false,"rental_uris":{"android":"levelo://app?vid=76dbf6ef-b4a8-4cef-8918-462b67116819","ios":"levelo://app?vid=76dbf6ef-b4a8-4cef-8918-462b67116819"},"vehicle_type_id":"4","last_reported":1737223830,"current_range_meters":38800,"station_id":"ce4bhr12rcd13ifvqhqg","pricing_plan_id":"cebpf4jnsgd1na2vs0mg"},{"bike_id":"57198719-926f-40a5-bdfa-a0e2303ea3cd","system_id":"levelo_inurba_marseille","lat":43.25873,"lon":5.39901,"is_reserved":false,"is_disabled":false,"rental_uris":{"android":"levelo://app?vid=57198719-926f-40a5-bdfa-a0e2303ea3cd","ios":"levelo://app?vid=57198719-926f-40a5-bdfa-a0e2303ea3cd"},"vehicle_type_id":"4","last_reported":1737223830,"current_range_meters":25200,"station_id":"ce4bhl92rcd13ifvqghg","pricing_plan_id":"cebpf4jnsgd1na2vs0mg"},{"bike_id":"8937c1c8-562a-495c-8124-976682d2ff2f","system_id":"levelo_inurba_marseille","lat":43.30928,"lon":5.40144,"is_reserved":false,"is_disabled":false,"rental_uris":{"android":"levelo://app?vid=8937c1c8-562a-495c-8124-976682d2ff2f","ios":"levelo://app?vid=8937c1c8-562a-495c-8124-976682d2ff2f"},"vehicle_type_id":"4","last_reported":1737223830,"current_range_meters":8000,"station_id":"ce4bgvp2rcd13ifvqct0","pricing_plan_id":"cebpf4jnsgd1na2vs0mg"},{"bike_id":"91ddd0d0-0047-41f2-9bdc-35627c63848f","system_id":"levelo_inurba_marseille","lat":43.29972,"lon":5.38489,"is_reserved":false,"is_disabled":false,"rental_uris":{"android":"levelo://app?vid=91ddd0d0-0047-41f2-9bdc-35627c63848f","ios":"levelo://app?vid=91ddd0d0-0047-41f2-9bdc-35627c63848f"},"vehicle_type_id":"4","last_reported":1737223830,"current_range_meters":20000,"station_id":"ce4bgj92rcd13ifvqbd0","pricing_plan_id":"cebpf4jnsgd1na2vs0mg"},{"bike_id":"0fcb6675-0185-4a27-9dd5-3e147423cdf6","system_id":"levelo_inurba_marseille","lat":43.30887,"lon":5.37198,"is_reserved":false,"is_disabled":false,"rental_uris":{"android":"levelo://app?vid=0fcb6675-0185-4a27-9dd5-3e147423cdf6","ios":"levelo://app?vid=0fcb6675-0185-4a27-9dd5-3e147423cdf6"},"vehicle_type_id":"4","last_reported":1737223830,"current_range_meters":19600,"station_id":"ce4bguh2rcd13ifvqckg","pricing_plan_id":"cebpf4jnsgd1na2vs0mg"},{"bike_id":"a3598c9e-a1e2-4b20-8070-2f3fa0434fe9","system_id":"levelo_inurba_marseille","lat":43.29803,"lon":5.40409,"is_reserved":false,"is_disabled":false,"rental_uris":{"android":"levelo://app?vid=a3598c9e-a1e2-4b20-8070-2f3fa0434fe9","ios":"levelo://app?vid=a3598c9e-a1e2-4b20-8070-2f3fa0434fe9"},"vehicle_type_id":"4","last_reported":1737223830,"current_range_meters":26000,"station_id":"ce4bh112rcd13ifvqd90","pricing_plan_id":"cebpf4jnsgd1na2vs0mg"},{"bike_id":"f5863b18-13a1-4c6e-92de-5668ea912ad3","system_id":"levelo_inurba_marseille","lat":43.2621,"lon":5.40437,"is_reserved":false,"is_disabled":true,"rental_uris":{"android":"levelo://app?vid=f5863b18-13a1-4c6e-92de-5668ea912ad3","ios":"levelo://app?vid=f5863b18-13a1-4c6e-92de-5668ea912ad3"},"vehicle_type_id":"4","last_reported":1737223830,"current_range_meters":0,"station_id":"","pricing_plan_id":"cebpf4jnsgd1na2vs0mg"},{"bike_id":"3fc937e4-ee55-4421-abe7-e64047ce372f","system_id":"levelo_inurba_marseille","lat":43.29032,"lon":5.37568,"is_reserved":false,"is_disabled":false,"rental_uris":{"android":"levelo://app?vid=3fc937e4-ee55-4421-abe7-e64047ce372f","ios":"levelo://app?vid=3fc937e4-ee55-4421-abe7-e64047ce372f"},"vehicle_type_id":"4","last_reported":1737223830,"current_range_meters":38400,"station_id":"ce4bh692rcd13ifvqe90","pricing_plan_id":"cebpf4jnsgd1na2vs0mg"},{"bike_id":"47b935dd-f1c3-4468-9bb1-4f34f7095ca1","system_id":"levelo_inurba_marseille","lat":43.27381,"lon":5.36258,"is_reserved":false,"is_disabled":true,"rental_uris":{"android":"levelo://app?vid=47b935dd-f1c3-4468-9bb1-4f34f7095ca1","ios":"levelo://app?vid=47b935dd-f1c3-4468-9bb1-4f34f7095ca1"},"vehicle_type_id":"4","last_reported":1737223830,"current_range_meters":1200,"station_id":"ce4bhbh2rcd13ifvqeo0","pricing_plan_id":"cebpf4jnsgd1na2vs0mg"},{"bike_id":"ff799074-43a9-452a-9fe7-07dd0bd1c3b5","system_id":"levelo_inurba_marseille","lat":43.26208,"lon":5.37447,"is_reserved":false,"is_disabled":false,"rental_uris":{"android":"levelo://app?vid=ff799074-43a9-452a-9fe7-07dd0bd1c3b5","ios":"levelo://app?vid=ff799074-43a9-452a-9fe7-07dd0bd1c3b5"},"vehicle_type_id":"4","last_reported":1737223830,"current_range_meters":38800,"station_id":"ce4bhgp2rcd13ifvqfc0","pricing_plan_id":"cebpf4jnsgd1na2vs0mg"},{"bike_id":"46686b70-f375-4947-b209-2f4548c2edcf","system_id":"levelo_inurba_marseille","lat":43.28876,"lon":5.39402,"is_reserved":false,"is_disabled":true,"rental_uris":{"android":"levelo://app?vid=46686b70-f375-4947-b209-2f4548c2edcf","ios":"levelo://app?vid=46686b70-f375-4947-b209-2f4548c2edcf"},"vehicle_type_id":"4","last_reported":1737223830,"current_range_meters":0,"station_id":"","pricing_plan_id":"cebpf4jnsgd1na2vs0mg"},{"bike_id":"3c8f0f7f-7ff6-476d-9718-ba987e9b9572","system_id":"levelo_inurba_marseille","lat":43.29538,"lon":5.38548,"is_reserved":false,"is_disabled":false,"rental_uris":{"android":"levelo://app?vid=3c8f0f7f-7ff6-476d-9718-ba987e9b9572","ios":"levelo://app?vid=3c8f0f7f-7ff6-476d-9718-ba987e9b9572"},"vehicle_type_id":"4","last_reported":1737223830,"current_range_meters":32000,"station_id":"ce4bgih2rcd13ifvqba0","pricing_plan_id":"cebpf4jnsgd1na2vs0mg"},{"bike_id":"883b7c07-8fdd-4195-9f5b-e8165f694368","system_id":"levelo_inurba_marseille","lat":43.25871,"lon":5.39893,"is_reserved":false,"is_disabled":false,"rental_uris":{"android":"levelo://app?vid=883b7c07-8fdd-4195-9f5b-e8165f694368","ios":"levelo://app?vid=883b7c07-8fdd-4195-9f5b-e8165f694368"},"vehicle_type_id":"4","last_reported":1737223830,"current_range_meters":23200,"station_id":"ce4bhl92rcd13ifvqghg","pricing_plan_id":"cebpf4jnsgd1na2vs0mg"},{"bike_id":"4413d2d0-8a44-4c56-903c-7b2ddbfc50bc","system_id":"levelo_inurba_marseille","lat":43.26945,"lon":5.40264,"is_reserved":false,"is_disabled":false,"rental_uris":{"android":"levelo://app?vid=4413d2d0-8a44-4c56-903c-7b2ddbfc50bc","ios":"levelo://app?vid=4413d2d0-8a44-4c56-903c-7b2ddbfc50bc"},"vehicle_type_id":"4","last_reported":1737223830,"current_range_meters":38800,"station_id":"cjm6bp8fraef2m0cb0m0","pricing_plan_id":"cebpf4jnsgd1na2vs0mg"},{"bike_id":"5017336f-0fcc-4983-97cb-9f7de0ce7bf7","system_id":"levelo_inurba_marseille","lat":43.29538,"lon":5.38537,"is_reserved":false,"is_disabled":false,"rental_uris":{"android":"levelo://app?vid=5017336f-0fcc-4983-97cb-9f7de0ce7bf7","ios":"levelo://app?vid=5017336f-0fcc-4983-97cb-9f7de0ce7bf7"},"vehicle_type_id":"4","last_reported":1737223830,"current_range_meters":34000,"station_id":"ce4bgih2rcd13ifvqba0","pricing_plan_id":"cebpf4jnsgd1na2vs0mg"},{"bike_id":"5deef3b2-d489-42e2-b180-fce0dc75d0c7","system_id":"levelo_inurba_marseille","lat":43.29036,"lon":5.37565,"is_reserved":false,"is_disabled":false,"rental_uris":{"android":"levelo://app?vid=5deef3b2-d489-42e2-b180-fce0dc75d0c7","ios":"levelo://app?vid=5deef3b2-d489-42e2-b180-fce0dc75d0c7"},"vehicle_type_id":"4","last_reported":1737223830,"current_range_meters":39200,"station_id":"ce4bh692rcd13ifvqe90","pricing_plan_id":"cebpf4jnsgd1na2vs0mg"},{"bike_id":"6870a9e0-7988-452a-a0a6-84e136278682","system_id":"levelo_inurba_marseille","lat":43.26565,"lon":5.37253,"is_reserved":false,"is_disabled":false,"rental_uris":{"android":"levelo://app?vid=6870a9e0-7988-452a-a0a6-84e136278682","ios":"levelo://app?vid=6870a9e0-7988-452a-a0a6-84e136278682"},"vehicle_type_id":"4","last_reported":1737223830,"current_range_meters":36800,"station_id":"ce4bhg12rcd13ifvqf70","pricing_plan_id":"cebpf4jnsgd1na2vs0mg"},{"bike_id":"03ae46b2-9a3a-42b7-b4fa-c50b53d050cc","system_id":"levelo_inurba_marseille","lat":43.31487,"lon":5.37315,"is_reserved":false,"is_disabled":false,"rental_uris":{"android":"levelo://app?vid=03ae46b2-9a3a-42b7-b4fa-c50b53d050cc","ios":"levelo://app?vid=03ae46b2-9a3a-42b7-b4fa-c50b53d050cc"},"vehicle_type_id":"4","last_reported":1737223830,"current_range_meters":38800,"station_id":"ce4bgt12rcd13ifvqcd0","pricing_plan_id":"cebpf4jnsgd1na2vs0mg"},{"bike_id":"8d6893ce-9784-4f54-b1d2-57d54414c78c","system_id":"levelo_inurba_marseille","lat":43.28035,"lon":5.36941,"is_reserved":false,"is_disabled":false,"rental_uris":{"android":"levelo://app?vid=8d6893ce-9784-4f54-b1d2-57d54414c78c","ios":"levelo://app?vid=8d6893ce-9784-4f54-b1d2-57d54414c78c"},"vehicle_type_id":"4","last_reported":1737223830,"current_range_meters":4800,"station_id":"ce4bha12rcd13ifvqef0","pricing_plan_id":"cebpf4jnsgd1na2vs0mg"},{"bike_id":"ebd2c0c5-f273-45c3-a889-45b27cdd0c34","system_id":"levelo_inurba_marseille","lat":43.29931,"lon":5.36521,"is_reserved":false,"is_disabled":false,"rental_uris":{"android":"levelo://app?vid=ebd2c0c5-f273-45c3-a889-45b27cdd0c34","ios":"levelo://app?vid=ebd2c0c5-f273-45c3-a889-45b27cdd0c34"},"vehicle_type_id":"4","last_reported":1737223830,"current_range_meters":38400,"station_id":"ce4bgm92rcd13ifvqbr0","pricing_plan_id":"cebpf4jnsgd1na2vs0mg"},{"bike_id":"1a575421-0435-462c-b74a-fc12e80a9959","system_id":"levelo_inurba_marseille","lat":43.31176,"lon":5.38719,"is_reserved":false,"is_disabled":false,"rental_uris":{"android":"levelo://app?vid=1a575421-0435-462c-b74a-fc12e80a9959","ios":"levelo://app?vid=1a575421-0435-462c-b74a-fc12e80a9959"},"vehicle_type_id":"4","last_reported":1737223830,"current_range_meters":29600,"station_id":"ce4bgv12rcd13ifvqcp0","pricing_plan_id":"cebpf4jnsgd1na2vs0mg"},{"bike_id":"8fee3cb8-bda6-46e7-8614-4d25d055d6ef","system_id":"levelo_inurba_marseille","lat":43.28153,"lon":5.42634,"is_reserved":false,"is_disabled":false,"rental_uris":{"android":"levelo://app?vid=8fee3cb8-bda6-46e7-8614-4d25d055d6ef","ios":"levelo://app?vid=8fee3cb8-bda6-46e7-8614-4d25d055d6ef"},"vehicle_type_id":"4","last_reported":1737223830,"current_range_meters":20400,"station_id":"ce4bhnh2rcd13ifvqgug","pricing_plan_id":"cebpf4jnsgd1na2vs0mg"},{"bike_id":"cdead6a6-1ce1-42da-850d-2dbf4133c6ff","system_id":"levelo_inurba_marseille","lat":43.3189,"lon":5.40736,"is_reserved":false,"is_disabled":false,"rental_uris":{"android":"levelo://app?vid=cdead6a6-1ce1-42da-850d-2dbf4133c6ff","ios":"levelo://app?vid=cdead6a6-1ce1-42da-850d-2dbf4133c6ff"},"vehicle_type_id":"4","last_reported":1737223830,"current_range_meters":35600,"station_id":"ce4bhq12rcd13ifvqhig","pricing_plan_id":"cebpf4jnsgd1na2vs0mg"},{"bike_id":"ee76e385-dc29-4ac5-8128-a5afbe69cc79","system_id":"levelo_inurba_marseille","lat":43.25082,"lon":5.39528,"is_reserved":false,"is_disabled":false,"rental_uris":{"android":"levelo://app?vid=ee76e385-dc29-4ac5-8128-a5afbe69cc79","ios":"levelo://app?vid=ee76e385-dc29-4ac5-8128-a5afbe69cc79"},"vehicle_type_id":"4","last_reported":1737223830,"current_range_meters":38800,"station_id":"ce4bhm12rcd13ifvqgkg","pricing_plan_id":"cebpf4jnsgd1na2vs0mg"},{"bike_id":"61c21abd-cf57-406d-9ce7-c5b26ffcc51a","system_id":"levelo_inurba_marseille","lat":43.2706,"lon":5.4026,"is_reserved":false,"is_disabled":false,"rental_uris":{"android":"levelo://app?vid=61c21abd-cf57-406d-9ce7-c5b26ffcc51a","ios":"levelo://app?vid=61c21abd-cf57-406d-9ce7-c5b26ffcc51a"},"vehicle_type_id":"4","last_reported":1737223830,"current_range_meters":24000,"station_id":"ce4bhk92rcd13ifvqgc0","pricing_plan_id":"cebpf4jnsgd1na2vs0mg"},{"bike_id":"c73224c5-8662-473f-8844-f010af6d2952","system_id":"levelo_inurba_marseille","lat":43.27189,"lon":5.40996,"is_reserved":false,"is_disabled":true,"rental_uris":{"android":"levelo://app?vid=c73224c5-8662-473f-8844-f010af6d2952","ios":"levelo://app?vid=c73224c5-8662-473f-8844-f010af6d2952"},"vehicle_type_id":"4","last_reported":1737223830,"current_range_meters":22800,"station_id":"ce4bhl12rcd13ifvqgf0","pricing_plan_id":"cebpf4jnsgd1na2vs0mg"},{"bike_id":"95b517d0-9dcf-47f9-8053-773bec6e6a69","system_id":"levelo_inurba_marseille","lat":43.26685,"lon":5.39538,"is_reserved":false,"is_disabled":false,"rental_uris":{"android":"levelo://app?vid=95b517d0-9dcf-47f9-8053-773bec6e6a69","ios":"levelo://app?vid=95b517d0-9dcf-47f9-8053-773bec6e6a69"},"vehicle_type_id":"4","last_reported":1737223830,"current_range_meters":16400,"station_id":"","pricing_plan_id":"cebpf4jnsgd1na2vs0mg"},{"bike_id":"4df1265a-29e0-438e-82d3-9139cadaf360","system_id":"levelo_inurba_marseille","lat":43.30889,"lon":5.37178,"is_reserved":false,"is_disabled":false,"rental_uris":{"android":"levelo://app?vid=4df1265a-29e0-438e-82d3-9139cadaf360","ios":"levelo://app?vid=4df1265a-29e0-438e-82d3-9139cadaf360"},"vehicle_type_id":"4","last_reported":1737223830,"current_range_meters":35200,"station_id":"ce4bguh2rcd13ifvqckg","pricing_plan_id":"cebpf4jnsgd1na2vs0mg"},{"bike_id":"426c6dbb-f325-4738-906d-29242f82afb0","system_id":"levelo_inurba_marseille","lat":43.31336,"lon":5.3666,"is_reserved":false,"is_disabled":false,"rental_uris":{"android":"levelo://app?vid=426c6dbb-f325-4738-906d-29242f82afb0","ios":"levelo://app?vid=426c6dbb-f325-4738-906d-29242f82afb0"},"vehicle_type_id":"4","last_reported":1737223830,"current_range_meters":38800,"station_id":"ce4bgr92rcd13ifvqc6g","pricing_plan_id":"cebpf4jnsgd1na2vs0mg"},{"bike_id":"048204ac-d5f3-412d-84cf-4751201e39e8","system_id":"levelo_inurba_marseille","lat":43.29531,"lon":5.3854,"is_reserved":false,"is_disabled":false,"rental_uris":{"android":"levelo://app?vid=048204ac-d5f3-412d-84cf-4751201e39e8","ios":"levelo://app?vid=048204ac-d5f3-412d-84cf-4751201e39e8"},"vehicle_type_id":"4","last_reported":1737223830,"current_range_meters":36400,"station_id":"ce4bgih2rcd13ifvqba0","pricing_plan_id":"cebpf4jnsgd1na2vs0mg"},{"bike_id":"702d477f-58b0-4e53-9e19-be7bbb68bee3","system_id":"levelo_inurba_marseille","lat":43.30488,"lon":5.37286,"is_reserved":false,"is_disabled":false,"rental_uris":{"android":"levelo://app?vid=702d477f-58b0-4e53-9e19-be7bbb68bee3","ios":"levelo://app?vid=702d477f-58b0-4e53-9e19-be7bbb68bee3"},"vehicle_type_id":"4","last_reported":1737223830,"current_range_meters":26000,"station_id":"","pricing_plan_id":"cebpf4jnsgd1na2vs0mg"},{"bike_id":"f378eb67-2d19-40e4-8405-39c59a4b26ae","system_id":"levelo_inurba_marseille","lat":43.33017,"lon":5.390128,"is_reserved":false,"is_disabled":false,"rental_uris":{"android":"levelo://app?vid=f378eb67-2d19-40e4-8405-39c59a4b26ae","ios":"levelo://app?vid=f378eb67-2d19-40e4-8405-39c59a4b26ae"},"vehicle_type_id":"4","last_reported":1737223830,"current_range_meters":17600,"station_id":"ce4bhr92rcd13ifvqhrg","pricing_plan_id":"cebpf4jnsgd1na2vs0mg"},{"bike_id":"59246836-8e4f-4f74-8671-48d03364e35c","system_id":"levelo_inurba_marseille","lat":43.29946,"lon":5.36508,"is_reserved":false,"is_disabled":false,"rental_uris":{"android":"levelo://app?vid=59246836-8e4f-4f74-8671-48d03364e35c","ios":"levelo://app?vid=59246836-8e4f-4f74-8671-48d03364e35c"},"vehicle_type_id":"4","last_reported":1737223830,"current_range_meters":8000,"station_id":"ce4bgm92rcd13ifvqbr0","pricing_plan_id":"cebpf4jnsgd1na2vs0mg"},{"bike_id":"39c4d978-87c8-4363-8671-59844c5d8b64","system_id":"levelo_inurba_marseille","lat":43.28861,"lon":5.35848,"is_reserved":false,"is_disabled":false,"rental_uris":{"android":"levelo://app?vid=39c4d978-87c8-4363-8671-59844c5d8b64","ios":"levelo://app?vid=39c4d978-87c8-4363-8671-59844c5d8b64"},"vehicle_type_id":"4","last_reported":1737223830,"current_range_meters":37600,"station_id":"ce4bhb12rcd13ifvqem0","pricing_plan_id":"cebpf4jnsgd1na2vs0mg"},{"bike_id":"6d5abdb3-80a9-40bc-8a67-036502aae1a8","system_id":"levelo_inurba_marseille","lat":43.28159,"lon":5.42648,"is_reserved":false,"is_disabled":true,"rental_uris":{"android":"levelo://app?vid=6d5abdb3-80a9-40bc-8a67-036502aae1a8","ios":"levelo://app?vid=6d5abdb3-80a9-40bc-8a67-036502aae1a8"},"vehicle_type_id":"4","last_reported":1737223830,"current_range_meters":0,"station_id":"ce4bhnh2rcd13ifvqgug","pricing_plan_id":"cebpf4jnsgd1na2vs0mg"},{"bike_id":"9a4dbb21-8e6f-4a13-a705-d2aa791bab89","system_id":"levelo_inurba_marseille","lat":43.30799,"lon":5.37643,"is_reserved":false,"is_disabled":false,"rental_uris":{"android":"levelo://app?vid=9a4dbb21-8e6f-4a13-a705-d2aa791bab89","ios":"levelo://app?vid=9a4dbb21-8e6f-4a13-a705-d2aa791bab89"},"vehicle_type_id":"4","last_reported":1737223830,"current_range_meters":26800,"station_id":"ce4bgv92rcd13ifvqcq0","pricing_plan_id":"cebpf4jnsgd1na2vs0mg"},{"bike_id":"f794da46-ed8e-413d-a9ef-597fcaa376b5","system_id":"levelo_inurba_marseille","lat":43.29018,"lon":5.38152,"is_reserved":false,"is_disabled":false,"rental_uris":{"android":"levelo://app?vid=f794da46-ed8e-413d-a9ef-597fcaa376b5","ios":"levelo://app?vid=f794da46-ed8e-413d-a9ef-597fcaa376b5"},"vehicle_type_id":"4","last_reported":1737223830,"current_range_meters":38800,"station_id":"ce4bh4p2rcd13ifvqe1g","pricing_plan_id":"cebpf4jnsgd1na2vs0mg"},{"bike_id":"9e84ef22-b0eb-4ac6-bbfc-5d0a9417acdb","system_id":"levelo_inurba_marseille","lat":43.28398,"lon":5.37522,"is_reserved":false,"is_disabled":false,"rental_uris":{"android":"levelo://app?vid=9e84ef22-b0eb-4ac6-bbfc-5d0a9417acdb","ios":"levelo://app?vid=9e84ef22-b0eb-4ac6-bbfc-5d0a9417acdb"},"vehicle_type_id":"4","last_reported":1737223830,"current_range_meters":25600,"station_id":"ce4bh412rcd13ifvqds0","pricing_plan_id":"cebpf4jnsgd1na2vs0mg"},{"bike_id":"1e2caf14-00dc-4227-975a-446fe88831cb","system_id":"levelo_inurba_marseille","lat":43.23959,"lon":5.36642,"is_reserved":false,"is_disabled":false,"rental_uris":{"android":"levelo://app?vid=1e2caf14-00dc-4227-975a-446fe88831cb","ios":"levelo://app?vid=1e2caf14-00dc-4227-975a-446fe88831cb"},