{"last_updated":1699103172,"ttl":30,"version":"2.2","data":{"bikes":[{"bike_id":"1ce3d91e-1039-47a7-ac41-7b5f7410cfcd","system_id":"levelo_inurba_marseille","lat":43.311895,"lon":5.362825,"is_reserved":false,"is_disabled":false,"rental_uris":{"android":"levelo://app?vid=1ce3d91e-1039-47a7-ac41-7b5f7410cfcd","ios":"levelo://app?vid=1ce3d91e-1039-47a7-ac41-7b5f7410cfcd"},"vehicle_type_id":"4","last_reported":1699103172,"current_range_meters":30400,"station_id":"ce4bhch2rcd13ifvqeug","pricing_plan_id":"free"},{"bike_id":"54d0ba44-07b5-4e39-9f20-1b70902a39b1","system_id":"levelo_inurba_marseille","lat":43.284219,"lon":5.3497,"is_reserved":false,"is_disabled":false,"rental_uris":{"android":"levelo://app?vid=54d0ba44-07b5-4e39-9f20-1b70902a39b1","ios":"levelo://app?vid=54d0ba44-07b5-4e39-9f20-1b70902a39b1"},"vehicle_type_id":"4","last_reported":1699103172,"current_range_meters":30800,"station_id":"ce4bhbh2rcd13ifvqepg","pricing_plan_id":"free"},{"bike_id":"8a19266c-0a4d-4046-8fa8-b225b7a17874","system_id":"levelo_inurba_marseille","lat":43.314811,"lon":5.373103,"is_reserved":false,"is_disabled":false,"rental_uris":{"android":"levelo://app?vid=8a19266c-0a4d-4046-8fa8-b225b7a17874","ios":"levelo://app?vid=8a19266c-0a4d-4046-8fa8-b225b7a17874"},"vehicle_type_id":"4","last_reported":1699103172,"current_range_meters":15600,"station_id":"ce4bgt12rcd13ifvqcd0","pricing_plan_id":"free"},{"bike_id":"29c9a108-b356-4792-9f65-fce7aa648ff1","system_id":"levelo_inurba_marseille","lat":43.314811,"lon":5.373104,"is_reserved":false,"is_disabled":false,"rental_uris":{"android":"levelo://app?vid=29c9a108-b356-4792-9f65-fce7aa648ff1","ios":"levelo://app?vid=29c9a108-b356-4792-9f65-fce7aa648ff1"},"vehicle_type_id":"4","last_reported":1699103172,"current_range_meters":13200,"station_id":"ce4bgt12rcd13ifvqcd0","pricing_plan_id":"free"},{"bike_id":"34760f16-1275-483d-946c-1e1003912e7d","system_id":"levelo_inurba_marseille","lat":43.309039,"lon":5.371797,"is_reserved":false,"is_disabled":false,"rental_uris":{"android":"levelo://app?vid=34760f16-1275-483d-946c-1e1003912e7d","ios":"levelo://app?vid=34760f16-1275-483d-946c-1e1003912e7d"},"vehicle_type_id":"4","last_reported":1699103172,"current_range_meters":15600,"station_id":"ce4bguh2rcd13ifvqckg","pricing_plan_id":"free"},{"bike_id":"2ed919a9-1af3-4359-ba69-872807bf1335","system_id":"levelo_inurba_marseille","lat":43.289741,"lon":5.378306,"is_reserved":false,"is_disabled":false,"rental_uris":{"android":"levelo://app?vid=2ed919a9-1af3-4359-ba69-872807bf1335","ios":"levelo://app?vid=2ed919a9-1af3-4359-ba69-872807bf1335"},"vehicle_type_id":"4","last_reported":1699103172,"current_range_meters":28400,"station_id":"ce4bh9p2rcd13ifvqed0","pricing_plan_id":"free"},{"bike_id":"55cc31a7-2dd3-4742-9251-1e6cf186a5c7","system_id":"levelo_inurba_marseille","lat":43.30881,"lon":5.37191,"is_reserved":false,"is_disabled":false,"rental_uris":{"android":"levelo://app?vid=55cc31a7-2dd3-4742-9251-1e6cf186a5c7","ios":"levelo://app?vid=55cc31a7-2dd3-4742-9251-1e6cf186a5c7"},"vehicle_type_id":"4","last_reported":1699103172,"current_range_meters":15200,"station_id":"ce4bguh2rcd13ifvqckg","pricing_plan_id":"free"},{"bike_id":"9fbf07fa-0ea4-43d6-8ed6-82424e129746","system_id":"levelo_inurba_marseille","lat":43.318298,"lon":5.369335,"is_reserved":false,"is_disabled":false,"rental_uris":{"android":"levelo://app?vid=9fbf07fa-0ea4-43d6-8ed6-82424e129746","ios":"levelo://app?vid=9fbf07fa-0ea4-43d6-8ed6-82424e129746"},"vehicle_type_id":"4","last_reported":1699103172,"current_range_meters":6400,"station_id":"","pricing_plan_id":"free"},{"bike_id":"6a545dbd-8af1-4bd4-bcf8-9cbce39f4d3c","system_id":"levelo_inurba_marseille","lat":43.296129,"lon":5.370777,"is_reserved":false,"is_disabled":false,"rental_uris":{"android":"levelo://app?vid=6a545dbd-8af1-4bd4-bcf8-9cbce39f4d3c","ios":"levelo://app?vid=6a545dbd-8af1-4bd4-bcf8-9cbce39f4d3c"},"vehicle_type_id":"4","last_reported":1699103172,"current_range_meters":30400,"station_id":"ce4bgnh2rcd13ifvqc0g","pricing_plan_id":"free"},{"bike_id":"7f6d1821-d960-4aa5-81c2-8064a10d310c","system_id":"levelo_inurba_marseille","lat":43.31885,"lon":5.370823,"is_reserved":false,"is_disabled":false,"rental_uris":{"android":"levelo://app?vid=7f6d1821-d960-4aa5-81c2-8064a10d310c","ios":"levelo://app?vid=7f6d1821-d960-4aa5-81c2-8064a10d310c"},"vehicle_type_id":"4","last_reported":1699103172,"current_range_meters":9600,"station_id":"","pricing_plan_id":"free"},{"bike_id":"770aa8b0-74e4-477c-8cc4-fd5d552902a6","system_id":"levelo_inurba_marseille","lat":43.316691,"lon":5.375367,"is_reserved":false,"is_disabled":false,"rental_uris":{"android":"levelo://app?vid=770aa8b0-74e4-477c-8cc4-fd5d552902a6","ios":"levelo://app?vid=770aa8b0-74e4-477c-8cc4-fd5d552902a6"},"vehicle_type_id":"4","last_reported":1699103172,"current_range_meters":6800,"station_id":"","pricing_plan_id":"free"},{"bike_id":"f252b071-dddd-4e5f-ad07-506846af6d1a","system_id":"levelo_inurba_marseille","lat":43.305525,"lon":5.365348,"is_reserved":false,"is_disabled":false,"rental_uris":{"android":"levelo://app?vid=f252b071-dddd-4e5f-ad07-506846af6d1a","ios":"levelo://app?vid=f252b071-dddd-4e5f-ad07-506846af6d1a"},"vehicle_type_id":"4","last_reported":1699103172,"current_range_meters":4400,"station_id":"ce4bgs12rcd13ifvqcag","pricing_plan_id":"free"},{"bike_id":"ac3bbfa1-8956-4caa-b384-0ced8db677ae","system_id":"levelo_inurba_marseille","lat":43.30551,"lon":5.36543,"is_reserved":false,"is_disabled":false,"rental_uris":{"android":"levelo://app?vid=ac3bbfa1-8956-4caa-b384-0ced8db677ae","ios":"levelo://app?vid=ac3bbfa1-8956-4caa-b384-0ced8db677ae"},"vehicle_type_id":"4","last_reported":1699103172,"current_range_meters":22000,"station_id":"ce4bgs12rcd13ifvqcag","pricing_plan_id":"free"},{"bike_id":"f3e4c803-b18a-4367-b1c4-6b148eda8b22","system_id":"levelo_inurba_marseille","lat":43.301939,"lon":5.366286,"is_reserved":false,"is_disabled":false,"rental_uris":{"android":"levelo://app?vid=f3e4c803-b18a-4367-b1c4-6b148eda8b22","ios":"levelo://app?vid=f3e4c803-b18a-4367-b1c4-6b148eda8b22"},"vehicle_type_id":"4","last_reported":1699103172,"current_range_meters":29200,"station_id":"ce4bgrh2rcd13ifvqc8g","pricing_plan_id":"free"},{"bike_id":"276e8c4f-0a5b-4cde-bc03-692d3681ea04","system_id":"levelo_inurba_marseille","lat":43.30536,"lon":5.36553,"is_reserved":false,"is_disabled":false,"rental_uris":{"android":"levelo://app?vid=276e8c4f-0a5b-4cde-bc03-692d3681ea04","ios":"levelo://app?vid=276e8c4f-0a5b-4cde-bc03-692d3681ea04"},"vehicle_type_id":"4","last_reported":1699103172,"current_range_meters":22800,"station_id":"ce4bgs12rcd13ifvqcag","pricing_plan_id":"free"},{"bike_id":"a8633a82-a2c8-4670-9909-acdf248990f4","system_id":"levelo_inurba_marseille","lat":43.305714,"lon":5.365633,"is_reserved":false,"is_disabled":false,"rental_uris":{"android":"levelo://app?vid=a8633a82-a2c8-4670-9909-acdf248990f4","ios":"levelo://app?vid=a8633a82-a2c8-4670-9909-acdf248990f4"},"vehicle_type_id":"4","last_reported":1699103172,"current_range_meters":31200,"station_id":"ce4bgs12rcd13ifvqcag","pricing_plan_id":"free"},{"bike_id":"548a2d7b-b0a9-46cf-a7ec-4dc7714fd955","system_id":"levelo_inurba_marseille","lat":43.30532,"lon":5.36558,"is_reserved":false,"is_disabled":false,"rental_uris":{"android":"levelo://app?vid=548a2d7b-b0a9-46cf-a7ec-4dc7714fd955","ios":"levelo://app?vid=548a2d7b-b0a9-46cf-a7ec-4dc7714fd955"},"vehicle_type_id":"4","last_reported":1699103172,"current_range_meters":24400,"station_id":"ce4bgs12rcd13ifvqcag","pricing_plan_id":"free"},{"bike_id":"3c507a76-f3d2-48eb-82f2-b6a5f9fa1901","system_id":"levelo_inurba_marseille","lat":43.305706,"lon":5.365654,"is_reserved":false,"is_disabled":false,"rental_uris":{"android":"levelo://app?vid=3c507a76-f3d2-48eb-82f2-b6a5f9fa1901","ios":"levelo://app?vid=3c507a76-f3d2-48eb-82f2-b6a5f9fa1901"},"vehicle_type_id":"4","last_reported":1699103172,"current_range_meters":11200,"station_id":"ce4bgs12rcd13ifvqcag","pricing_plan_id":"free"},{"bike_id":"9542d355-d80f-4104-b794-f7c31044ef57","system_id":"levelo_inurba_marseille","lat":43.305989,"lon":5.37225,"is_reserved":false,"is_disabled":false,"rental_uris":{"android":"levelo://app?vid=9542d355-d80f-4104-b794-f7c31044ef57","ios":"levelo://app?vid=9542d355-d80f-4104-b794-f7c31044ef57"},"vehicle_type_id":"4","last_reported":1699103172,"current_range_meters":24000,"station_id":"ce4bgqh2rcd13ifvqc4g","pricing_plan_id":"free"},{"bike_id":"52f63877-faa6-4f5d-9f7b-28c987b7b6d7","system_id":"levelo_inurba_marseille","lat":43.29573,"lon":5.367355,"is_reserved":false,"is_disabled":false,"rental_uris":{"android":"levelo://app?vid=52f63877-faa6-4f5d-9f7b-28c987b7b6d7","ios":"levelo://app?vid=52f63877-faa6-4f5d-9f7b-28c987b7b6d7"},"vehicle_type_id":"4","last_reported":1699103172,"current_range_meters":31200,"station_id":"ce4bgph2rcd13ifvqc2g","pricing_plan_id":"free"},{"bike_id":"44c02a63-33c7-4611-b2ab-5d6c091fbb2b","system_id":"levelo_inurba_marseille","lat":43.305989,"lon":5.37225,"is_reserved":false,"is_disabled":false,"rental_uris":{"android":"levelo://app?vid=44c02a63-33c7-4611-b2ab-5d6c091fbb2b","ios":"levelo://app?vid=44c02a63-33c7-4611-b2ab-5d6c091fbb2b"},"vehicle_type_id":"4","last_reported":1699103172,"current_range_meters":22800,"station_id":"ce4bgqh2rcd13ifvqc4g","pricing_plan_id":"free"},{"bike_id":"5eb39e12-5620-45f4-8375-3768454d029b","system_id":"levelo_inurba_marseille","lat":43.305989,"lon":5.37225,"is_reserved":false,"is_disabled":false,"rental_uris":{"android":"levelo://app?vid=5eb39e12-5620-45f4-8375-3768454d029b","ios":"levelo://app?vid=5eb39e12-5620-45f4-8375-3768454d029b"},"vehicle_type_id":"4","last_reported":1699103172,"current_range_meters":31200,"station_id":"ce4bgqh2rcd13ifvqc4g","pricing_plan_id":"free"},{"bike_id":"6ad94e05-81db-409b-a031-0611c4f73cc5","system_id":"levelo_inurba_marseille","lat":43.311131,"lon":5.377651,"is_reserved":false,"is_disabled":false,"rental_uris":{"android":"levelo://app?vid=6ad94e05-81db-409b-a031-0611c4f73cc5","ios":"levelo://app?vid=6ad94e05-81db-409b-a031-0611c4f73cc5"},"vehicle_type_id":"4","last_reported":1699103172,"current_range_meters":31200,"station_id":"ce4bgt92rcd13ifvqcg0","pricing_plan_id":"free"},{"bike_id":"327e7620-1cd8-4692-a5b6-7e9900884734","system_id":"levelo_inurba_marseille","lat":43.311131,"lon":5.377651,"is_reserved":false,"is_disabled":false,"rental_uris":{"android":"levelo://app?vid=327e7620-1cd8-4692-a5b6-7e9900884734","ios":"levelo://app?vid=327e7620-1cd8-4692-a5b6-7e9900884734"},"vehicle_type_id":"4","last_reported":1699103172,"current_range_meters":27600,"station_id":"ce4bgt92rcd13ifvqcg0","pricing_plan_id":"free"},{"bike_id":"d0b6b64c-99b9-4981-b2c4-b64ae2086202","system_id":"levelo_inurba_marseille","lat":43.287154,"lon":5.399979,"is_reserved":false,"is_disabled":false,"rental_uris":{"android":"levelo://app?vid=d0b6b64c-99b9-4981-b2c4-b64ae2086202","ios":"levelo://app?vid=d0b6b64c-99b9-4981-b2c4-b64ae2086202"},"vehicle_type_id":"4","last_reported":1699103172,"current_range_meters":23200,"station_id":"ce4bho92rcd13ifvqh3g","pricing_plan_id":"free"},{"bike_id":"3dc7b6ab-8dc2-4939-9c57-dd5493dc0179","system_id":"levelo_inurba_marseille","lat":43.311125,"lon":5.377624,"is_reserved":false,"is_disabled":false,"rental_uris":{"android":"levelo://app?vid=3dc7b6ab-8dc2-4939-9c57-dd5493dc0179","ios":"levelo://app?vid=3dc7b6ab-8dc2-4939-9c57-dd5493dc0179"},"vehicle_type_id":"4","last_reported":1699103172,"current_range_meters":31200,"station_id":"ce4bgt92rcd13ifvqcg0","pricing_plan_id":"free"},{"bike_id":"e6f3bcc4-4779-4fae-89f9-57c3cc2d2287","system_id":"levelo_inurba_marseille","lat":43.294162,"lon":5.386292,"is_reserved":false,"is_disabled":false,"rental_uris":{"android":"levelo://app?vid=e6f3bcc4-4779-4fae-89f9-57c3cc2d2287","ios":"levelo://app?vid=e6f3bcc4-4779-4fae-89f9-57c3cc2d2287"},"vehicle_type_id":"4","last_reported":1699103172,"current_range_meters":31200,"station_id":"ce4bh2h2rcd13ifvqdh0","pricing_plan_id":"free"},{"bike_id":"eec67e11-3b4d-4925-a23d-58917c92cb90","system_id":"levelo_inurba_marseille","lat":43.265714,"lon":5.372891,"is_reserved":false,"is_disabled":false,"rental_uris":{"android":"levelo://app?vid=eec67e11-3b4d-4925-a23d-58917c92cb90","ios":"levelo://app?vid=eec67e11-3b4d-4925-a23d-58917c92cb90"},"vehicle_type_id":"4","last_reported":1699103172,"current_range_meters":0,"station_id":"ce4bhg12rcd13ifvqf70","pricing_plan_id":"free"},{"bike_id":"c1d68d86-a3a8-45fb-a3d4-8cccf38a71d6","system_id":"levelo_inurba_marseille","lat":43.298433,"lon":5.362774,"is_reserved":false,"is_disabled":false,"rental_uris":{"android":"levelo://app?vid=c1d68d86-a3a8-45fb-a3d4-8cccf38a71d6","ios":"levelo://app?vid=c1d68d86-a3a8-45fb-a3d4-8cccf38a71d6"},"vehicle_type_id":"4","last_reported":1699103172,"current_range_meters":25200,"station_id":"ce4bgpp2rcd13ifvqc3g","pricing_plan_id":"free"},{"bike_id":"0e3f1af6-b748-4eb6-9673-b2f73a826ea1","system_id":"levelo_inurba_marseille","lat":43.298037,"lon":5.381066,"is_reserved":false,"is_disabled":false,"rental_uris":{"android":"levelo://app?vid=0e3f1af6-b748-4eb6-9673-b2f73a826ea1","ios":"levelo://app?vid=0e3f1af6-b748-4eb6-9673-b2f73a826ea1"},"vehicle_type_id":"4","last_reported":1699103172,"current_range_meters":28800,"station_id":"ce4bgip2rcd13ifvqbb0","pricing_plan_id":"free"},{"bike_id":"6095afa1-d41d-413e-944f-72eaf17a280e","system_id":"levelo_inurba_marseille","lat":43.317075,"lon":5.377367,"is_reserved":false,"is_disabled":false,"rental_uris":{"android":"levelo://app?vid=6095afa1-d41d-413e-944f-72eaf17a280e","ios":"levelo://app?vid=6095afa1-d41d-413e-944f-72eaf17a280e"},"vehicle_type_id":"4","last_reported":1699103172,"current_range_meters":27600,"station_id":"ce4bgth2rcd13ifvqch0","pricing_plan_id":"free"},{"bike_id":"3a890222-0c0e-494c-922f-60444b7a7ea5","system_id":"levelo_inurba_marseille","lat":43.305989,"lon":5.37225,"is_reserved":false,"is_disabled":false,"rental_uris":{"android":"levelo://app?vid=3a890222-0c0e-494c-922f-60444b7a7ea5","ios":"levelo://app?vid=3a890222-0c0e-494c-922f-60444b7a7ea5"},"vehicle_type_id":"4","last_reported":1699103172,"current_range_meters":29600,"station_id":"ce4bgqh2rcd13ifvqc4g","pricing_plan_id":"free"},{"bike_id":"e4cf3aca-8214-4bb5-8ce8-e3cf6d003dd6","system_id":"levelo_inurba_marseille","lat":43.31702,"lon":5.37756,"is_reserved":false,"is_disabled":false,"rental_uris":{"android":"levelo://app?vid=e4cf3aca-8214-4bb5-8ce8-e3cf6d003dd6","ios":"levelo://app?vid=e4cf3aca-8214-4bb5-8ce8-e3cf6d003dd6"},"vehicle_type_id":"4","last_reported":1699103172,"current_range_meters":31200,"station_id":"","pricing_plan_id":"free"},{"bike_id":"a33ae42a-82a6-41ba-a5a0-348cbc797cd2","system_id":"levelo_inurba_marseille","lat":43.302784,"lon":5.377158,"is_reserved":false,"is_disabled":false,"rental_uris":{"android":"levelo://app?vid=a33ae42a-82a6-41ba-a5a0-348cbc797cd2","ios":"levelo://app?vid=a33ae42a-82a6-41ba-a5a0-348cbc797cd2"},"vehicle_type_id":"4","last_reported":1699103172,"current_range_meters":5200,"station_id":"ce4bguh2rcd13ifvqcj0","pricing_plan_id":"free"},{"bike_id":"0fb00552-09e0-4d18-8ca0-c572eb163650","system_id":"levelo_inurba_marseille","lat":43.303046,"lon":5.368981,"is_reserved":false,"is_disabled":false,"rental_uris":{"android":"levelo://app?vid=0fb00552-09e0-4d18-8ca0-c572eb163650","ios":"levelo://app?vid=0fb00552-09e0-4d18-8ca0-c572eb163650"},"vehicle_type_id":"4","last_reported":1699103172,"current_range_meters":26000,"station_id":"ce4bgqh2rcd13ifvqc5g","pricing_plan_id":"free"},{"bike_id":"c7a533ae-daca-408f-8c16-3d4fb43dc31b","system_id":"levelo_inurba_marseille","lat":43.30202,"lon":5.3663,"is_reserved":false,"is_disabled":false,"rental_uris":{"android":"levelo://app?vid=c7a533ae-daca-408f-8c16-3d4fb43dc31b","ios":"levelo://app?vid=c7a533ae-daca-408f-8c16-3d4fb43dc31b"},"vehicle_type_id":"4","last_reported":1699103172,"current_range_meters":8400,"station_id":"ce4bgkh2rcd13ifvqbl0","pricing_plan_id":"free"},{"bike_id":"23870d1f-98b0-48f7-803d-6dfe948ec845","system_id":"levelo_inurba_marseille","lat":43.301939,"lon":5.366286,"is_reserved":false,"is_disabled":false,"rental_uris":{"android":"levelo://app?vid=23870d1f-98b0-48f7-803d-6dfe948ec845","ios":"levelo://app?vid=23870d1f-98b0-48f7-803d-6dfe948ec845"},"vehicle_type_id":"4","last_reported":1699103172,"current_range_meters":5600,"station_id":"ce4bgrh2rcd13ifvqc8g","pricing_plan_id":"free"},{"bike_id":"8e4ee2c9-932e-4d6b-83c6-230384e259ba","system_id":"levelo_inurba_marseille","lat":43.303337,"lon":5.358923,"is_reserved":false,"is_disabled":false,"rental_uris":{"android":"levelo://app?vid=8e4ee2c9-932e-4d6b-83c6-230384e259ba","ios":"levelo://app?vid=8e4ee2c9-932e-4d6b-83c6-230384e259ba"},"vehicle_type_id":"4","last_reported":1699103172,"current_range_meters":22400,"station_id":"","pricing_plan_id":"free"},{"bike_id":"1ee88689-716a-4ba5-adff-4c64944e6f5a","system_id":"levelo_inurba_marseille","lat":43.301117,"lon":5.398795,"is_reserved":false,"is_disabled":false,"rental_uris":{"android":"levelo://app?vid=1ee88689-716a-4ba5-adff-4c64944e6f5a","ios":"levelo://app?vid=1ee88689-716a-4ba5-adff-4c64944e6f5a"},"vehicle_type_id":"4","last_reported":1699103172,"current_range_meters":24000,"station_id":"ce4bh0h2rcd13ifvqd40","pricing_plan_id":"free"},{"bike_id":"bb8bacc7-96e2-4222-8bbf-88f35abe576b","system_id":"levelo_inurba_marseille","lat":43.323066,"lon":5.374546,"is_reserved":false,"is_disabled":false,"rental_uris":{"android":"levelo://app?vid=bb8bacc7-96e2-4222-8bbf-88f35abe576b","ios":"levelo://app?vid=bb8bacc7-96e2-4222-8bbf-88f35abe576b"},"vehicle_type_id":"4","last_reported":1699103172,"current_range_meters":2400,"station_id":"","pricing_plan_id":"free"},{"bike_id":"af93a65c-2cfd-47e0-add7-742bd2657142","system_id":"levelo_inurba_marseille","lat":43.295748,"lon":5.37522,"is_reserved":false,"is_disabled":false,"rental_uris":{"android":"levelo://app?vid=af93a65c-2cfd-47e0-add7-742bd2657142","ios":"levelo://app?vid=af93a65c-2cfd-47e0-add7-742bd2657142"},"vehicle_type_id":"4","last_reported":1699103172,"current_range_meters":0,"station_id":"ce4bgh92rcd13ifvqb50","pricing_plan_id":"free"},{"bike_id":"f24cf45c-0f5a-4a98-b0b9-b3518de3bf39","system_id":"levelo_inurba_marseille","lat":43.292644,"lon":5.384257,"is_reserved":false,"is_disabled":false,"rental_uris":{"android":"levelo://app?vid=f24cf45c-0f5a-4a98-b0b9-b3518de3bf39","ios":"levelo://app?vid=f24cf45c-0f5a-4a98-b0b9-b3518de3bf39"},"vehicle_type_id":"4","last_reported":1699103172,"current_range_meters":31200,"station_id":"ce4bh692rcd13ifvqea0","pricing_plan_id":"free"},{"bike_id":"3e57a33e-0819-4bb2-a584-501543b6919b","system_id":"levelo_inurba_marseille","lat":43.273125,"lon":5.390731,"is_reserved":false,"is_disabled":false,"rental_uris":{"android":"levelo://app?vid=3e57a33e-0819-4bb2-a584-501543b6919b","ios":"levelo://app?vid=3e57a33e-0819-4bb2-a584-501543b6919b"},"vehicle_type_id":"4","last_reported":1699103172,"current_range_meters":28400,"station_id":"ce4bhgp2rcd13ifvqfe0","pricing_plan_id":"free"},{"bike_id":"e86545b6-6a61-40ad-8851-3f6de38e4a2e","system_id":"levelo_inurba_marseille","lat":43.304606,"lon":5.379026,"is_reserved":false,"is_disabled":false,"rental_uris":{"android":"levelo://app?vid=e86545b6-6a61-40ad-8851-3f6de38e4a2e","ios":"levelo://app?vid=e86545b6-6a61-40ad-8851-3f6de38e4a2e"},"vehicle_type_id":"4","last_reported":1699103172,"current_range_meters":27600,"station_id":"ce4bgup2rcd13ifvqcn0","pricing_plan_id":"free"},{"bike_id":"9bd24e6b-d050-43f4-9959-beff66b48181","system_id":"levelo_inurba_marseille","lat":43.304606,"lon":5.379026,"is_reserved":false,"is_disabled":false,"rental_uris":{"android":"levelo://app?vid=9bd24e6b-d050-43f4-9959-beff66b48181","ios":"levelo://app?vid=9bd24e6b-d050-43f4-9959-beff66b48181"},"vehicle_type_id":"4","last_reported":1699103172,"current_range_meters":0,"station_id":"ce4bgup2rcd13ifvqcn0","pricing_plan_id":"free"},{"bike_id":"32dad265-f49f-4d45-86bd-02c48228157b","system_id":"levelo_inurba_marseille","lat":43.304606,"lon":5.379026,"is_reserved":false,"is_disabled":false,"rental_uris":{"android":"levelo://app?vid=32dad265-f49f-4d45-86bd-02c48228157b","ios":"levelo://app?vid=32dad265-f49f-4d45-86bd-02c48228157b"},"vehicle_type_id":"4","last_reported":1699103172,"current_range_meters":18000,"station_id":"ce4bgup2rcd13ifvqcn0","pricing_plan_id":"free"},{"bike_id":"4417582d-c2ca-40fe-a249-37e4da6d0b93","system_id":"levelo_inurba_marseille","lat":43.304606,"lon":5.379026,"is_reserved":false,"is_disabled":false,"rental_uris":{"android":"levelo://app?vid=4417582d-c2ca-40fe-a249-37e4da6d0b93","ios":"levelo://app?vid=4417582d-c2ca-40fe-a249-37e4da6d0b93"},"vehicle_type_id":"4","last_reported":1699103172,"current_range_meters":31200,"station_id":"ce4bgup2rcd13ifvqcn0","pricing_plan_id":"free"},{"bike_id":"88ccf27d-ad64-4177-bf45-2dcbf1a93f21","system_id":"levelo_inurba_marseille","lat":43.304606,"lon":5.379026,"is_reserved":false,"is_disabled":false,"rental_uris":{"android":"levelo://app?vid=88ccf27d-ad64-4177-bf45-2dcbf1a93f21","ios":"levelo://app?vid=88ccf27d-ad64-4177-bf45-2dcbf1a93f21"},"vehicle_type_id":"4","last_reported":1699103172,"current_range_meters":19200,"station_id":"ce4bgup2rcd13ifvqcn0","pricing_plan_id":"free"},{"bike_id":"95247232-f17f-4d83-8fb4-d23909f9060f","system_id":"levelo_inurba_marseille","lat":43.324784,"lon":5.365728,"is_reserved":false,"is_disabled":false,"rental_uris":{"android":"levelo://app?vid=95247232-f17f-4d83-8fb4-d23909f9060f","ios":"levelo://app?vid=95247232-f17f-4d83-8fb4-d23909f9060f"},"vehicle_type_id":"4","last_reported":1699103172,"current_range_meters":22400,"station_id":"ce4bhs12rcd13ifvqhvg","pricing_plan_id":"free"},{"bike_id":"e8584f7f-3a22-4191-9ecd-5314ed574e4e","system_id":"levelo_inurba_marseille","lat":43.303586,"lon":5.377754,"is_reserved":false,"is_disabled":false,"rental_uris":{"android":"levelo://app?vid=e8584f7f-3a22-4191-9ecd-5314ed574e4e","ios":"levelo://app?vid=e8584f7f-3a22-4191-9ecd-5314ed574e4e"},"vehicle_type_id":"4","last_reported":1699103172,"current_range_meters":19200,"station_id":"","pricing_plan_id":"free"},{"bike_id":"7d4a1f9c-a11c-482a-98b5-65571076cd7e","system_id":"levelo_inurba_marseille","lat":43.324784,"lon":5.365613,"is_reserved":false,"is_disabled":false,"rental_uris":{"android":"levelo://app?vid=7d4a1f9c-a11c-482a-98b5-65571076cd7e","ios":"levelo://app?vid=7d4a1f9c-a11c-482a-98b5-65571076cd7e"},"vehicle_type_id":"4","last_reported":1699103172,"current_range_meters":6800,"station_id":"ce4bh092rcd13ifvqd30","pricing_plan_id":"free"},{"bike_id":"c37a60ff-8992-4e74-8e8e-b094339c7ef0","system_id":"levelo_inurba_marseille","lat":43.3248,"lon":5.36563,"is_reserved":false,"is_disabled":false,"rental_uris":{"android":"levelo://app?vid=c37a60ff-8992-4e74-8e8e-b094339c7ef0","ios":"levelo://app?vid=c37a60ff-8992-4e74-8e8e-b094339c7ef0"},"vehicle_type_id":"4","last_reported":1699103172,"current_range_meters":18800,"station_id":"ce4bhs12rcd13ifvqhvg","pricing_plan_id":"free"},{"bike_id":"5e94b8f2-d95f-46e0-a11d-e40d5ceb5424","system_id":"levelo_inurba_marseille","lat":43.30145,"lon":5.37421,"is_reserved":false,"is_disabled":false,"rental_uris":{"android":"levelo://app?vid=5e94b8f2-d95f-46e0-a11d-e40d5ceb5424","ios":"levelo://app?vid=5e94b8f2-d95f-46e0-a11d-e40d5ceb5424"},"vehicle_type_id":"4","last_reported":1699103172,"current_range_meters":22400,"station_id":"ce4bgs92rcd13ifvqcc0","pricing_plan_id":"free"},{"bike_id":"7654d496-15f6-460d-8aaa-7eaa097202e7","system_id":"levelo_inurba_marseille","lat":43.30487,"lon":5.38061,"is_reserved":false,"is_disabled":false,"rental_uris":{"android":"levelo://app?vid=7654d496-15f6-460d-8aaa-7eaa097202e7","ios":"levelo://app?vid=7654d496-15f6-460d-8aaa-7eaa097202e7"},"vehicle_type_id":"4","last_reported":1699103172,"current_range_meters":22400,"station_id":"","pricing_plan_id":"free"},{"bike_id":"cde09343-cb34-42b4-bd82-ba3dc99ca7a9","system_id":"levelo_inurba_marseille","lat":43.31541,"lon":5.38404,"is_reserved":false,"is_disabled":false,"rental_uris":{"android":"levelo://app?vid=cde09343-cb34-42b4-bd82-ba3dc99ca7a9","ios":"levelo://app?vid=cde09343-cb34-42b4-bd82-ba3dc99ca7a9"},"vehicle_type_id":"4","last_reported":1699103172,"current_range_meters":12400,"station_id":"ce4bhqp2rcd13ifvqhng","pricing_plan_id":"free"},{"bike_id":"751bc141-37e3-47fd-bdaa-dddc9debb1cc","system_id":"levelo_inurba_marseille","lat":43.319913,"lon":5.381512,"is_reserved":false,"is_disabled":false,"rental_uris":{"android":"levelo://app?vid=751bc141-37e3-47fd-bdaa-dddc9debb1cc","ios":"levelo://app?vid=751bc141-37e3-47fd-bdaa-dddc9debb1cc"},"vehicle_type_id":"4","last_reported":1699103172,"current_range_meters":26800,"station_id":"ce4bh012rcd13ifvqd00","pricing_plan_id":"free"},{"bike_id":"0e58520f-29fe-4427-b52c-4109c8134296","system_id":"levelo_inurba_marseille","lat":43.299724,"lon":5.371829,"is_reserved":false,"is_disabled":false,"rental_uris":{"android":"levelo://app?vid=0e58520f-29fe-4427-b52c-4109c8134296","ios":"levelo://app?vid=0e58520f-29fe-4427-b52c-4109c8134296"},"vehicle_type_id":"4","last_reported":1699103172,"current_range_meters":6400,"station_id":"ce4bgr92rcd13ifvqc7g","pricing_plan_id":"free"},{"bike_id":"ee3f4ad1-33f8-4d95-a8ef-87b446d31a5d","system_id":"levelo_inurba_marseille","lat":43.31997,"lon":5.38151,"is_reserved":false,"is_disabled":false,"rental_uris":{"android":"levelo://app?vid=ee3f4ad1-33f8-4d95-a8ef-87b446d31a5d","ios":"levelo://app?vid=ee3f4ad1-33f8-4d95-a8ef-87b446d31a5d"},"vehicle_type_id":"4","last_reported":1699103172,"current_range_meters":24400,"station_id":"ce4bhr12rcd13ifvqhpg","pricing_plan_id":"free"},{"bike_id":"3f2c2093-4a23-4121-b50d-71f37016ef76","system_id":"levelo_inurba_marseille","lat":43.314811,"lon":5.373103,"is_reserved":false,"is_disabled":false,"rental_uris":{"android":"levelo://app?vid=3f2c2093-4a23-4121-b50d-71f37016ef76","ios":"levelo://app?vid=3f2c2093-4a23-4121-b50d-71f37016ef76"},"vehicle_type_id":"4","last_reported":1699103172,"current_range_meters":22400,"station_id":"ce4bgt12rcd13ifvqcd0","pricing_plan_id":"free"},{"bike_id":"b65b15dc-d196-48b3-a41c-4e3732ef8c9a","system_id":"levelo_inurba_marseille","lat":43.301117,"lon":5.398795,"is_reserved":false,"is_disabled":false,"rental_uris":{"android":"levelo://app?vid=b65b15dc-d196-48b3-a41c-4e3732ef8c9a","ios":"levelo://app?vid=b65b15dc-d196-48b3-a41c-4e3732ef8c9a"},"vehicle_type_id":"4","last_reported":1699103172,"current_range_meters":17600,"station_id":"ce4bh0h2rcd13ifvqd40","pricing_plan_id":"free"},{"bike_id":"e109d5a7-584e-42af-8157-301d8f73e6b3","system_id":"levelo_inurba_marseille","lat":43.296263,"lon":5.40601,"is_reserved":false,"is_disabled":false,"rental_uris":{"android":"levelo://app?vid=e109d5a7-584e-42af-8157-301d8f73e6b3","ios":"levelo://app?vid=e109d5a7-584e-42af-8157-301d8f73e6b3"},"vehicle_type_id":"4","last_reported":1699103172,"current_range_meters":28400,"station_id":"ce4bh0h2rcd13ifvqd60","pricing_plan_id":"free"},{"bike_id":"a61076b8-0706-499e-bcc3-8cba6eb4262a","system_id":"levelo_inurba_marseille","lat":43.299707,"lon":5.384859,"is_reserved":false,"is_disabled":false,"rental_uris":{"android":"levelo://app?vid=a61076b8-0706-499e-bcc3-8cba6eb4262a","ios":"levelo://app?vid=a61076b8-0706-499e-bcc3-8cba6eb4262a"},"vehicle_type_id":"4","last_reported":1699103172,"current_range_meters":31200,"station_id":"ce4bgj92rcd13ifvqbd0","pricing_plan_id":"free"},{"bike_id":"90a64ee3-b977-44b6-8a25-81568639f7f1","system_id":"levelo_inurba_marseille","lat":43.293009,"lon":5.374584,"is_reserved":false,"is_disabled":false,"rental_uris":{"android":"levelo://app?vid=90a64ee3-b977-44b6-8a25-81568639f7f1","ios":"levelo://app?vid=90a64ee3-b977-44b6-8a25-81568639f7f1"},"vehicle_type_id":"4","last_reported":1699103172,"current_range_meters":18400,"station_id":"ce4bgi12rcd13ifvqb70","pricing_plan_id":"free"},{"bike_id":"a229adbb-a3fa-4e90-a57a-b4e289f240d4","system_id":"levelo_inurba_marseille","lat":43.299852,"lon":5.371833,"is_reserved":false,"is_disabled":false,"rental_uris":{"android":"levelo://app?vid=a229adbb-a3fa-4e90-a57a-b4e289f240d4","ios":"levelo://app?vid=a229adbb-a3fa-4e90-a57a-b4e289f240d4"},"vehicle_type_id":"4","last_reported":1699103172,"current_range_meters":16400,"station_id":"ce4bgh92rcd13ifvqb50","pricing_plan_id":"free"},{"bike_id":"82ab9ca6-948a-4876-a9bf-3f54c81a765f","system_id":"levelo_inurba_marseille","lat":43.289741,"lon":5.378306,"is_reserved":false,"is_disabled":false,"rental_uris":{"android":"levelo://app?vid=82ab9ca6-948a-4876-a9bf-3f54c81a765f","ios":"levelo://app?vid=82ab9ca6-948a-4876-a9bf-3f54c81a765f"},"vehicle_type_id":"4","last_reported":1699103172,"current_range_meters":29600,"station_id":"ce4bh9p2rcd13ifvqed0","pricing_plan_id":"free"},{"bike_id":"db7eafb9-a0f1-41aa-948f-3163a1ce36e6","system_id":"levelo_inurba_marseille","lat":43.29978,"lon":5.37176,"is_reserved":false,"is_disabled":false,"rental_uris":{"android":"levelo://app?vid=db7eafb9-a0f1-41aa-948f-3163a1ce36e6","ios":"levelo://app?vid=db7eafb9-a0f1-41aa-948f-3163a1ce36e6"},"vehicle_type_id":"4","last_reported":1699103172,"current_range_meters":14000,"station_id":"ce4bgr92rcd13ifvqc7g","pricing_plan_id":"free"},{"bike_id":"9b7b67de-a46e-4fd0-8d26-898cd32017fc","system_id":"levelo_inurba_marseille","lat":43.29978,"lon":5.37181,"is_reserved":false,"is_disabled":false,"rental_uris":{"android":"levelo://app?vid=9b7b67de-a46e-4fd0-8d26-898cd32017fc","ios":"levelo://app?vid=9b7b67de-a46e-4fd0-8d26-898cd32017fc"},"vehicle_type_id":"4","last_reported":1699103172,"current_range_meters":30400,"station_id":"ce4bha92rcd13ifvqeg0","pricing_plan_id":"free"},{"bike_id":"3fa8d174-7f1c-4c1b-8399-85ab580d72cf","system_id":"levelo_inurba_marseille","lat":43.299724,"lon":5.371829,"is_reserved":false,"is_disabled":false,"rental_uris":{"android":"levelo://app?vid=3fa8d174-7f1c-4c1b-8399-85ab580d72cf","ios":"levelo://app?vid=3fa8d174-7f1c-4c1b-8399-85ab580d72cf"},"vehicle_type_id":"4","last_reported":1699103172,"current_range_meters":24000,"station_id":"ce4bgr92rcd13ifvqc7g","pricing_plan_id":"free"},{"bike_id":"525fcded-eb2e-484a-a202-4bd5e881401d","system_id":"levelo_inurba_marseille","lat":43.293009,"lon":5.374584,"is_reserved":false,"is_disabled":false,"rental_uris":{"android":"levelo://app?vid=525fcded-eb2e-484a-a202-4bd5e881401d","ios":"levelo://app?vid=525fcded-eb2e-484a-a202-4bd5e881401d"},"vehicle_type_id":"4","last_reported":1699103172,"current_range_meters":30400,"station_id":"ce4bgi12rcd13ifvqb70","pricing_plan_id":"free"},{"bike_id":"cffe800b-8e46-4367-92e9-d9a0f2cba0f2","system_id":"levelo_inurba_marseille","lat":43.299626,"lon":5.375372,"is_reserved":false,"is_disabled":false,"rental_uris":{"android":"levelo://app?vid=cffe800b-8e46-4367-92e9-d9a0f2cba0f2","ios":"levelo://app?vid=cffe800b-8e46-4367-92e9-d9a0f2cba0f2"},"vehicle_type_id":"4","last_reported":1699103172,"current_range_meters":26400,"station_id":"ce4bgjh2rcd13ifvqbg0","pricing_plan_id":"free"},{"bike_id":"6b3add00-3499-46ef-a47f-64a4f3f297bc","system_id":"levelo_inurba_marseille","lat":43.272124,"lon":5.391768,"is_reserved":false,"is_disabled":false,"rental_uris":{"android":"levelo://app?vid=6b3add00-3499-46ef-a47f-64a4f3f297bc","ios":"levelo://app?vid=6b3add00-3499-46ef-a47f-64a4f3f297bc"},"vehicle_type_id":"4","last_reported":1699103172,"current_range_meters":20400,"station_id":"ce4bhhp2rcd13ifvqfm0","pricing_plan_id":"free"},{"bike_id":"7e090161-9ee4-4e44-a34b-41603fa0ac25","system_id":"levelo_inurba_marseille","lat":43.305364,"lon":5.384119,"is_reserved":false,"is_disabled":false,"rental_uris":{"android":"levelo://app?vid=7e090161-9ee4-4e44-a34b-41603fa0ac25","ios":"levelo://app?vid=7e090161-9ee4-4e44-a34b-41603fa0ac25"},"vehicle_type_id":"4","last_reported":1699103172,"current_range_meters":27600,"station_id":"ce4bgg92rcd13ifvqb30","pricing_plan_id":"free"},{"bike_id":"1c2c73ff-4601-4f33-b97f-da95bc589609","system_id":"levelo_inurba_marseille","lat":43.321917,"lon":5.382566,"is_reserved":false,"is_disabled":false,"rental_uris":{"android":"levelo://app?vid=1c2c73ff-4601-4f33-b97f-da95bc589609","ios":"levelo://app?vid=1c2c73ff-4601-4f33-b97f-da95bc589609"},"vehicle_type_id":"4","last_reported":1699103172,"current_range_meters":17600,"station_id":"","pricing_plan_id":"free"},{"bike_id":"c6122393-97c1-4d7e-bcd9-71e2875759ce","system_id":"levelo_inurba_marseille","lat":43.298433,"lon":5.362774,"is_reserved":false,"is_disabled":false,"rental_uris":{"android":"levelo://app?vid=c6122393-97c1-4d7e-bcd9-71e2875759ce","ios":"levelo://app?vid=c6122393-97c1-4d7e-bcd9-71e2875759ce"},"vehicle_type_id":"4","last_reported":1699103172,"current_range_meters":21600,"station_id":"ce4bgpp2rcd13ifvqc3g","pricing_plan_id":"free"},{"bike_id":"67fbe5a1-7e6f-48ff-90da-1b397ab5461f","system_id":"levelo_inurba_marseille","lat":43.286039,"lon":5.370679,"is_reserved":false,"is_disabled":false,"rental_uris":{"android":"levelo://app?vid=67fbe5a1-7e6f-48ff-90da-1b397ab5461f","ios":"levelo://app?vid=67fbe5a1-7e6f-48ff-90da-1b397ab5461f"},"vehicle_type_id":"4","last_reported":1699103172,"current_range_meters":28400,"station_id":"ce4bht12rcd13ifvqi60","pricing_plan_id":"free"},{"bike_id":"89f28dd2-bd67-452a-b37a-1e04867e95c6","system_id":"levelo_inurba_marseille","lat":43.290104,"lon":5.356111,"is_reserved":false,"is_disabled":false,"rental_uris":{"android":"levelo://app?vid=89f28dd2-bd67-452a-b37a-1e04867e95c6","ios":"levelo://app?vid=89f28dd2-bd67-452a-b37a-1e04867e95c6"},"vehicle_type_id":"4","last_reported":1699103172,"current_range_meters":31200,"station_id":"ce4bhb92rcd13ifvqen0","pricing_plan_id":"free"},{"bike_id":"b40ab51c-3232-4183-9ac1-c4eccfe5917f","system_id":"levelo_inurba_marseille","lat":43.279087,"lon":5.380114,"is_reserved":false,"is_disabled":false,"rental_uris":{"android":"levelo://app?vid=b40ab51c-3232-4183-9ac1-c4eccfe5917f","ios":"levelo://app?vid=b40ab51c-3232-4183-9ac1-c4eccfe5917f"},"vehicle_type_id":"4","last_reported":1699103172,"current_range_meters":24800,"station_id":"ce4bhf92rcd13ifvqf50","pricing_plan_id":"free"},{"bike_id":"6be87bcf-fe8b-44d0-a3cc-2f215e33a70c","system_id":"levelo_inurba_marseille","lat":43.29602,"lon":5.381084,"is_reserved":false,"is_disabled":false,"rental_uris":{"android":"levelo://app?vid=6be87bcf-fe8b-44d0-a3cc-2f215e33a70c","ios":"levelo://app?vid=6be87bcf-fe8b-44d0-a3cc-2f215e33a70c"},"vehicle_type_id":"4","last_reported":1699103172,"current_range_meters":31200,"station_id":"ce4bgl12rcd13ifvqbo0","pricing_plan_id":"free"},{"bike_id":"8fbe8b75-7779-4c00-bcc1-bebc1098842b","system_id":"levelo_inurba_marseille","lat":43.297794,"lon":5.370888,"is_reserved":false,"is_disabled":false,"rental_uris":{"android":"levelo://app?vid=8fbe8b75-7779-4c00-bcc1-bebc1098842b","ios":"levelo://app?vid=8fbe8b75-7779-4c00-bcc1-bebc1098842b"},"vehicle_type_id":"4","last_reported":1699103172,"current_range_meters":13200,"station_id":"ce4bgop2rcd13ifvqc1g","pricing_plan_id":"free"},{"bike_id":"f0fc3206-c284-4a81-98a9-86fe56f8ca77","system_id":"levelo_inurba_marseille","lat":43.297794,"lon":5.370888,"is_reserved":false,"is_disabled":false,"rental_uris":{"android":"levelo://app?vid=f0fc3206-c284-4a81-98a9-86fe56f8ca77","ios":"levelo://app?vid=f0fc3206-c284-4a81-98a9-86fe56f8ca77"},"vehicle_type_id":"4","last_reported":1699103172,"current_range_meters":29200,"station_id":"ce4bgop2rcd13ifvqc1g","pricing_plan_id":"free"},{"bike_id":"a2be634e-932e-46a7-b884-222f201c6550","system_id":"levelo_inurba_marseille","lat":43.297794,"lon":5.370888,"is_reserved":false,"is_disabled":false,"rental_uris":{"android":"levelo://app?vid=a2be634e-932e-46a7-b884-222f201c6550","ios":"levelo://app?vid=a2be634e-932e-46a7-b884-222f201c6550"},"vehicle_type_id":"4","last_reported":1699103172,"current_range_meters":27600,"station_id":"ce4bgop2rcd13ifvqc1g","pricing_plan_id":"free"},{"bike_id":"ee04e5cc-451d-44b6-bca0-cfc749a45964","system_id":"levelo_inurba_marseille","lat":43.322872,"lon":5.382756,"is_reserved":false,"is_disabled":false,"rental_uris":{"android":"levelo://app?vid=ee04e5cc-451d-44b6-bca0-cfc749a45964","ios":"levelo://app?vid=ee04e5cc-451d-44b6-bca0-cfc749a45964"},"vehicle_type_id":"4","last_reported":1699103172,"current_range_meters":27600,"station_id":"ce4bhr12rcd13ifvqhqg","pricing_plan_id":"free"},{"bike_id":"b697629d-425e-4f98-b283-fdda312f1cec","system_id":"levelo_inurba_marseille","lat":43.322872,"lon":5.382756,"is_reserved":false,"is_disabled":false,"rental_uris":{"android":"levelo://app?vid=b697629d-425e-4f98-b283-fdda312f1cec","ios":"levelo://app?vid=b697629d-425e-4f98-b283-fdda312f1cec"},"vehicle_type_id":"4","last_reported":1699103172,"current_range_meters":28000,"station_id":"ce4bhr12rcd13ifvqhqg","pricing_plan_id":"free"},{"bike_id":"c9428514-9197-4976-812b-d61139ef9187","system_id":"levelo_inurba_marseille","lat":43.318846,"lon":5.386473,"is_reserved":false,"is_disabled":false,"rental_uris":{"android":"levelo://app?vid=c9428514-9197-4976-812b-d61139ef9187","ios":"levelo://app?vid=c9428514-9197-4976-812b-d61139ef9187"},"vehicle_type_id":"4","last_reported":1699103172,"current_range_meters":9200,"station_id":"","pricing_plan_id":"free"},{"bike_id":"d2255325-c858-4507-8c11-bdd56a1224e0","system_id":"levelo_inurba_marseille","lat":43.32826,"lon":5.36692,"is_reserved":false,"is_disabled":false,"rental_uris":{"android":"levelo://app?vid=d2255325-c858-4507-8c11-bdd56a1224e0","ios":"levelo://app?vid=d2255325-c858-4507-8c11-bdd56a1224e0"},"vehicle_type_id":"4","last_reported":1699103172,"current_range_meters":3200,"station_id":"ce4bhs92rcd13ifvqi0g","pricing_plan_id":"free"},{"bike_id":"21426a0d-604c-4933-9dde-aad2feebdc38","system_id":"levelo_inurba_marseille","lat":43.32826,"lon":5.366919,"is_reserved":false,"is_disabled":false,"rental_uris":{"android":"levelo://app?vid=21426a0d-604c-4933-9dde-aad2feebdc38","ios":"levelo://app?vid=21426a0d-604c-4933-9dde-aad2feebdc38"},"vehicle_type_id":"4","last_reported":1699103172,"current_range_meters":400,"station_id":"ce4bhs92rcd13ifvqi0g","pricing_plan_id":"free"},{"bike_id":"5c14b4e6-da06-4ab2-b6ba-b1edddc68652","system_id":"levelo_inurba_marseille","lat":43.328263,"lon":5.366845,"is_reserved":false,"is_disabled":false,"rental_uris":{"android":"levelo://app?vid=5c14b4e6-da06-4ab2-b6ba-b1edddc68652","ios":"levelo://app?vid=5c14b4e6-da06-4ab2-b6ba-b1edddc68652"},"vehicle_type_id":"4","last_reported":1699103172,"current_range_meters":4800,"station_id":"ce4bhs92rcd13ifvqi0g","pricing_plan_id":"free"},{"bike_id":"14c0575c-2dec-4f8d-ae57-4906ebb5fd22","system_id":"levelo_inurba_marseille","lat":43.296263,"lon":5.377094,"is_reserved":false,"is_disabled":false,"rental_uris":{"android":"levelo://app?vid=14c0575c-2dec-4f8d-ae57-4906ebb5fd22","ios":"levelo://app?vid=14c0575c-2dec-4f8d-ae57-4906ebb5fd22"},"vehicle_type_id":"4","last_reported":1699103172,"current_range_meters":3600,"station_id":"ce4bgi92rcd13ifvqb90","pricing_plan_id":"free"},{"bike_id":"21eac2bd-355b-4772-afc9-5625ca25d74b","system_id":"levelo_inurba_marseille","lat":43.328265,"lon":5.366878,"is_reserved":false,"is_disabled":false,"rental_uris":{"android":"levelo://app?vid=21eac2bd-355b-4772-afc9-5625ca25d74b","ios":"levelo://app?vid=21eac2bd-355b-4772-afc9-5625ca25d74b"},"vehicle_type_id":"4","last_reported":1699103172,"current_range_meters":1600,"station_id":"ce4bho12rcd13ifvqh1g","pricing_plan_id":"free"},{"bike_id":"260c645f-b280-4251-8fb9-e89c0f995509","system_id":"levelo_inurba_marseille","lat":43.328268,"lon":5.366911,"is_reserved":false,"is_disabled":false,"rental_uris":{"android":"levelo://app?vid=260c645f-b280-4251-8fb9-e89c0f995509","ios":"levelo://app?vid=260c645f-b280-4251-8fb9-e89c0f995509"},"vehicle_type_id":"4","last_reported":1699103172,"current_range_meters":10800,"station_id":"ce4bhs92rcd13ifvqi0g","pricing_plan_id":"free"},{"bike_id":"95f83d96-02db-4bf9-82f4-05f2a88db597","system_id":"levelo_inurba_marseille","lat":43.301855,"lon":5.382905,"is_reserved":false,"is_disabled":false,"rental_uris":{"android":"levelo://app?vid=95f83d96-02db-4bf9-82f4-05f2a88db597","ios":"levelo://app?vid=95f83d96-02db-4bf9-82f4-05f2a88db597"},"vehicle_type_id":"4","last_reported":1699103172,"current_range_meters":0,"station_id":"ce4bgk12rcd13ifvqbi0","pricing_plan_id":"free"},{"bike_id":"52338be5-afc6-4a0a-bd9c-1093bde5e89c","system_id":"levelo_inurba_marseille","lat":43.302784,"lon":5.377158,"is_reserved":false,"is_disabled":false,"rental_uris":{"android":"levelo://app?vid=52338be5-afc6-4a0a-bd9c-1093bde5e89c","ios":"levelo://app?vid=52338be5-afc6-4a0a-bd9c-1093bde5e89c"},"vehicle_type_id":"4","last_reported":1699103172,"current_range_meters":11200,"station_id":"ce4bguh2rcd13ifvqcj0","pricing_plan_id":"free"},{"bike_id":"67bb7dbe-50ea-4249-bc98-d0ad4814b4a6","system_id":"levelo_inurba_marseille","lat":43.321453,"lon":5.385595,"is_reserved":false,"is_disabled":false,"rental_uris":{"android":"levelo://app?vid=67bb7dbe-50ea-4249-bc98-d0ad4814b4a6","ios":"levelo://app?vid=67bb7dbe-50ea-4249-bc98-d0ad4814b4a6"},"vehicle_type_id":"4","last_reported":1699103172,"current_range_meters":18800,"station_id":"","pricing_plan_id":"free"},{"bike_id":"ac64cfce-5505-455a-9537-62af5dd3a90a","system_id":"levelo_inurba_marseille","lat":43.32355,"lon":5.38416,"is_reserved":false,"is_disabled":false,"rental_uris":{"android":"levelo://app?vid=ac64cfce-5505-455a-9537-62af5dd3a90a","ios":"levelo://app?vid=ac64cfce-5505-455a-9537-62af5dd3a90a"},"vehicle_type_id":"4","last_reported":1699103172,"current_range_meters":20400,"station_id":"","pricing_plan_id":"free"},{"bike_id":"5a3e4389-a6dc-483b-abd6-709292f6e071","system_id":"levelo_inurba_marseille","lat":43.295856,"lon":5.367137,"is_reserved":false,"is_disabled":false,"rental_uris":{"android":"levelo://app?vid=5a3e4389-a6dc-483b-abd6-709292f6e071","ios":"levelo://app?vid=5a3e4389-a6dc-483b-abd6-709292f6e071"},"vehicle_type_id":"4","last_reported":1699103172,"current_range_meters":15200,"station_id":"ce4bgph2rcd13ifvqc2g","pricing_plan_id":"free"},{"bike_id":"b16bbb7c-f86c-4e43-9ab1-8b78a672ba2c","system_id":"levelo_inurba_marseille","lat":43.29585,"lon":5.367528,"is_reserved":false,"is_disabled":false,"rental_uris":{"android":"levelo://app?vid=b16bbb7c-f86c-4e43-9ab1-8b78a672ba2c","ios":"levelo://app?vid=b16bbb7c-f86c-4e43-9ab1-8b78a672ba2c"},"vehicle_type_id":"4","last_reported":1699103172,"current_range_meters":20800,"station_id":"ce4bhah2rcd13ifvqei0","pricing_plan_id":"free"},{"bike_id":"c2237100-21cc-4f0e-ab60-ac4ca6dcb8af","system_id":"levelo_inurba_marseille","lat":43.29573,"lon":5.367355,"is_reserved":false,"is_disabled":false,"rental_uris":{"android":"levelo://app?vid=c2237100-21cc-4f0e-ab60-ac4ca6dcb8af","ios":"levelo://app?vid=c2237100-21cc-4f0e-ab60-ac4ca6dcb8af"},"vehicle_type_id":"4","last_reported":1699103172,"current_range_meters":31200,"station_id":"ce4bgph2rcd13ifvqc2g","pricing_plan_id":"free"},{"bike_id":"29ceb8b9-8bff-43b3-a6a6-be2dfcf5e7ec","system_id":"levelo_inurba_marseille","lat":43.29726,"lon":5.37683,"is_reserved":false,"is_disabled":false,"rental_uris":{"android":"levelo://app?vid=29ceb8b9-8bff-43b3-a6a6-be2dfcf5e7ec","ios":"levelo://app?vid=29ceb8b9-8bff-43b3-a6a6-be2dfcf5e7ec"},"vehicle_type_id":"4","last_reported":1699103172,"current_range_meters":22800,"station_id":"ce4bgkh2rcd13ifvqbl0","pricing_plan_id":"free"},{"bike_id":"ea88e403-cb39-41cf-98ac-5471375497e6","system_id":"levelo_inurba_marseille","lat":43.29727,"lon":5.3769,"is_reserved":false,"is_disabled":false,"rental_uris":{"android":"levelo://app?vid=ea88e403-cb39-41cf-98ac-5471375497e6","ios":"levelo://app?vid=ea88e403-cb39-41cf-98ac-5471375497e6"},"vehicle_type_id":"4","last_reported":1699103172,"current_range_meters":20400,"station_id":"ce4bgrp2rcd13ifvqc9g","pricing_plan_id":"free"},{"bike_id":"5b033c9c-ba11-45d6-bfd1-969f3c8e0660","system_id":"levelo_inurba_marseille","lat":43.29726,"lon":5.3769,"is_reserved":false,"is_disabled":false,"rental_uris":{"android":"levelo://app?vid=5b033c9c-ba11-45d6-bfd1-969f3c8e0660","ios":"levelo://app?vid=5b033c9c-ba11-45d6-bfd1-969f3c8e0660"},"vehicle_type_id":"4","last_reported":1699103172,"current_range_meters":25200,"station_id":"ce4bgkh2rcd13ifvqbl0","pricing_plan_id":"free"},{"bike_id":"6f59b1c1-bab0-4ede-912b-287891f4f742","system_id":"levelo_inurba_marseille","lat":43.299204,"lon":5.38152,"is_reserved":false,"is_disabled":false,"rental_uris":{"android":"levelo://app?vid=6f59b1c1-bab0-4ede-912b-287891f4f742","ios":"levelo://app?vid=6f59b1c1-bab0-4ede-912b-287891f4f742"},"vehicle_type_id":"4","last_reported":1699103172,"current_range_meters":18000,"station_id":"ce4bgj12rcd13ifvqbc0","pricing_plan_id":"free"},{"bike_id":"ecd6e9b1-5932-4996-9c50-427ca9c5d989","system_id":"levelo_inurba_marseille","lat":43.299196,"lon":5.381518,"is_reserved":false,"is_disabled":false,"rental_uris":{"android":"levelo://app?vid=ecd6e9b1-5932-4996-9c50-427ca9c5d989","ios":"levelo://app?vid=ecd6e9b1-5932-4996-9c50-427ca9c5d989"},"vehicle_type_id":"4","last_reported":1699103172,"current_range_meters":23200,"station_id":"ce4bgj12rcd13ifvqbc0","pricing_plan_id":"free"},{"bike_id":"9a725ff6-1098-4eee-a629-2b4848fd665c","system_id":"levelo_inurba_marseille","lat":43.299028,"lon":5.381509,"is_reserved":false,"is_disabled":false,"rental_uris":{"android":"levelo://app?vid=9a725ff6-1098-4eee-a629-2b4848fd665c","ios":"levelo://app?vid=9a725ff6-1098-4eee-a629-2b4848fd665c"},"vehicle_type_id":"4","last_reported":1699103172,"current_range_meters":20400,"station_id":"ce4bgj12rcd13ifvqbc0","pricing_plan_id":"free"},{"bike_id":"dd0d320e-7c8d-4f80-a9c2-76417bae0685","system_id":"levelo_inurba_marseille","lat":43.299028,"lon":5.381509,"is_reserved":false,"is_disabled":false,"rental_uris":{"android":"levelo://app?vid=dd0d320e-7c8d-4f80-a9c2-76417bae0685","ios":"levelo://app?vid=dd0d320e-7c8d-4f80-a9c2-76417bae0685"},"vehicle_type_id":"4","last_reported":1699103172,"current_range_meters":27200,"station_id":"ce4bgj12rcd13ifvqbc0","pricing_plan_id":"free"},{"bike_id":"f1f2f4f2-e9d1-4baa-a7d1-248b044d0ace","system_id":"levelo_inurba_marseille","lat":43.309589,"lon":5.390258,"is_reserved":false,"is_disabled":false,"rental_uris":{"android":"levelo://app?vid=f1f2f4f2-e9d1-4baa-a7d1-248b044d0ace","ios":"levelo://app?vid=f1f2f4f2-e9d1-4baa-a7d1-248b044d0ace"},"vehicle_type_id":"4","last_reported":1699103172,"current_range_meters":11200,"station_id":"ce4bgup2rcd13ifvqco0","pricing_plan_id":"free"},{"bike_id":"b2796d66-c1f4-43ee-a85a-9d6b7a788147","system_id":"levelo_inurba_marseille","lat":43.299028,"lon":5.381509,"is_reserved":false,"is_disabled":false,"rental_uris":{"android":"levelo://app?vid=b2796d66-c1f4-43ee-a85a-9d6b7a788147","ios":"levelo://app?vid=b2796d66-c1f4-43ee-a85a-9d6b7a788147"},"vehicle_type_id":"4","last_reported":1699103172,"current_range_meters":14400,"station_id":"ce4bgj12rcd13ifvqbc0","pricing_plan_id":"free"},{"bike_id":"03cf4344-18ad-4aa3-a2d0-954c9b654fd1","system_id":"levelo_inurba_marseille","lat":43.3095,"lon":5.39031,"is_reserved":false,"is_disabled":false,"rental_uris":{"android":"levelo://app?vid=03cf4344-18ad-4aa3-a2d0-954c9b654fd1","ios":"levelo://app?vid=03cf4344-18ad-4aa3-a2d0-954c9b654fd1"},"vehicle_type_id":"4","last_reported":1699103172,"current_range_meters":26800,"station_id":"ce4bh012rcd13ifvqd00","pricing_plan_id":"free"},{"bike_id":"17887b7a-b794-4957-afed-da016380c80f","system_id":"levelo_inurba_marseille","lat":43.298037,"lon":5.381066,"is_reserved":false,"is_disabled":false,"rental_uris":{"android":"levelo://app?vid=17887b7a-b794-4957-afed-da016380c80f","ios":"levelo://app?vid=17887b7a-b794-4957-afed-da016380c80f"},"vehicle_type_id":"4","last_reported":1699103172,"current_range_meters":28000,"station_id":"ce4bgip2rcd13ifvqbb0","pricing_plan_id":"free"},{"bike_id":"353237da-cf6a-4afc-95c9-c6c30fa630a0","system_id":"levelo_inurba_marseille","lat":43.298037,"lon":5.381066,"is_reserved":false,"is_disabled":false,"rental_uris":{"android":"levelo://app?vid=353237da-cf6a-4afc-95c9-c6c30fa630a0","ios":"levelo://app?vid=353237da-cf6a-4afc-95c9-c6c30fa630a0"},"vehicle_type_id":"4","last_reported":1699103172,"current_range_meters":19600,"station_id":"ce4bgip2rcd13ifvqbb0","pricing_plan_id":"free"},{"bike_id":"270ca624-9a4f-4413-83b4-050b44ba4436","system_id":"levelo_inurba_marseille","lat":43.298037,"lon":5.381066,"is_reserved":false,"is_disabled":false,"rental_uris":{"android":"levelo://app?vid=270ca624-9a4f-4413-83b4-050b44ba4436","ios":"levelo://app?vid=270ca624-9a4f-4413-83b4-050b44ba4436"},"vehicle_type_id":"4","last_reported":1699103172,"current_range_meters":30000,"station_id":"ce4bgip2rcd13ifvqbb0","pricing_plan_id":"free"},{"bike_id":"2b179880-4a13-477d-ae51-df95bcd5c520","system_id":"levelo_inurba_marseille","lat":43.298037,"lon":5.381066,"is_reserved":false,"is_disabled":false,"rental_uris":{"android":"levelo://app?vid=2b179880-4a13-477d-ae51-df95bcd5c520","ios":"levelo://app?vid=2b179880-4a13-477d-ae51-df95bcd5c520"},"vehicle_type_id":"4","last_reported":1699103172,"current_range_meters":2400,"station_id":"ce4bgip2rcd13ifvqbb0","pricing_plan_id":"free"},{"bike_id":"b3b86531-47a7-40e1-a5b2-c3d6184ddb90","system_id":"levelo_inurba_marseille","lat":43.302784,"lon":5.377158,"is_reserved":false,"is_disabled":false,"rental_uris":{"android":"levelo://app?vid=b3b86531-47a7-40e1-a5b2-c3d6184ddb90","ios":"levelo://app?vid=b3b86531-47a7-40e1-a5b2-c3d6184ddb90"},"vehicle_type_id":"4","last_reported":1699103172,"current_range_meters":18800,"station_id":"ce4bguh2rcd13ifvqcj0","pricing_plan_id":"free"},{"bike_id":"9d1603f6-ca7f-46b8-bc8f-41e94d6afa2a","system_id":"levelo_inurba_marseille","lat":43.295748,"lon":5.37522,"is_reserved":false,"is_disabled":false,"rental_uris":{"android":"levelo://app?vid=9d1603f6-ca7f-46b8-bc8f-41e94d6afa2a","ios":"levelo://app?vid=9d1603f6-ca7f-46b8-bc8f-41e94d6afa2a"},"vehicle_type_id":"4","last_reported":1699103172,"current_range_meters":16400,"station_id":"ce4bgh92rcd13ifvqb50","pricing_plan_id":"free"},{"bike_id":"ab6c1870-545a-4ea5-8da6-8e703dca1917","system_id":"levelo_inurba_marseille","lat":43.295748,"lon":5.37522,"is_reserved":false,"is_disabled":false,"rental_uris":{"android":"levelo://app?vid=ab6c1870-545a-4ea5-8da6-8e703dca1917","ios":"levelo://app?vid=ab6c1870-545a-4ea5-8da6-8e703dca1917"},"vehicle_type_id":"4","last_reported":1699103172,"current_range_meters":20800,"station_id":"ce4bgh92rcd13ifvqb50","pricing_plan_id":"free"},{"bike_id":"d237a9d7-1659-48c4-8e9a-d2b3f40b1c9f","system_id":"levelo_inurba_marseille","lat":43.295748,"lon":5.37522,"is_reserved":false,"is_disabled":false,"rental_uris":{"android":"levelo://app?vid=d237a9d7-1659-48c4-8e9a-d2b3f40b1c9f","ios":"levelo://app?vid=d237a9d7-1659-48c4-8e9a-d2b3f40b1c9f"},"vehicle_type_id":"4","last_reported":1699103172,"current_range_meters":4400,"station_id":"ce4bgh92rcd13ifvqb50","pricing_plan_id":"free"},{"bike_id":"8ddce3be-8c56-444b-96e9-566f4ce84b5b","system_id":"levelo_inurba_marseille","lat":43.304233,"lon":5.388864,"is_reserved":false,"is_disabled":false,"rental_uris":{"android":"levelo://app?vid=8ddce3be-8c56-444b-96e9-566f4ce84b5b","ios":"levelo://app?vid=8ddce3be-8c56-444b-96e9-566f4ce84b5b"},"vehicle_type_id":"4","last_reported":1699103172,"current_range_meters":0,"station_id":"ce4bhs92rcd13ifvqi0g","pricing_plan_id":"free"},{"bike_id":"8ac57052-c71d-4509-ae4a-bb792e04cbf8","system_id":"levelo_inurba_marseille","lat":43.2968,"lon":5.37291,"is_reserved":false,"is_disabled":false,"rental_uris":{"android":"levelo://app?vid=8ac57052-c71d-4509-ae4a-bb792e04cbf8","ios":"levelo://app?vid=8ac57052-c71d-4509-ae4a-bb792e04cbf8"},"vehicle_type_id":"4","last_reported":1699103172,"current_range_meters":28800,"station_id":"ce4bgk12rcd13ifvqbj0","pricing_plan_id":"free"},{"bike_id":"740dcfb1-01a9-4b78-a922-49f25f6d0256","system_id":"levelo_inurba_marseille","lat":43.304278,"lon":5.388868,"is_reserved":false,"is_disabled":false,"rental_uris":{"android":"levelo://app?vid=740dcfb1-01a9-4b78-a922-49f25f6d0256","ios":"levelo://app?vid=740dcfb1-01a9-4b78-a922-49f25f6d0256"},"vehicle_type_id":"4","last_reported":1699103172,"current_range_meters":13600,"station_id":"ce4bgk12rcd13ifvqbi0","pricing_plan_id":"free"},{"bike_id":"a78119ae-4245-4779-9ad8-44f87e50a102","system_id":"levelo_inurba_marseille","lat":43.296263,"lon":5.377094,"is_reserved":false,"is_disabled":false,"rental_uris":{"android":"levelo://app?vid=a78119ae-4245-4779-9ad8-44f87e50a102","ios":"levelo://app?vid=a78119ae-4245-4779-9ad8-44f87e50a102"},"vehicle_type_id":"4","last_reported":1699103172,"current_range_meters":24800,"station_id":"ce4bgi92rcd13ifvqb90","pricing_plan_id":"free"},{"bike_id":"5e5ecefb-503a-4161-9f09-e7442338fac9","system_id":"levelo_inurba_marseille","lat":43.29612,"lon":5.3771,"is_reserved":false,"is_disabled":false,"rental_uris":{"android":"levelo://app?vid=5e5ecefb-503a-4161-9f09-e7442338fac9","ios":"levelo://app?vid=5e5ecefb-503a-4161-9f09-e7442338fac9"},"vehicle_type_id":"4","last_reported":1699103172,"current_range_meters":24000,"station_id":"ce4bgi92rcd13ifvqb90","pricing_plan_id":"free"},{"bike_id":"b7e0bc9e-37cf-4b9a-ae73-adf01a95c637","system_id":"levelo_inurba_marseille","lat":43.2961,"lon":5.37709,"is_reserved":false,"is_disabled":false,"rental_uris":{"android":"levelo://app?vid=b7e0bc9e-37cf-4b9a-ae73-adf01a95c637","ios":"levelo://app?vid=b7e0bc9e-37cf-4b9a-ae73-adf01a95c637"},"vehicle_type_id":"4","last_reported":1699103172,"current_range_meters":21600,"station_id":"ce4bgi92rcd13ifvqb90","pricing_plan_id":"free"},{"bike_id":"d238d5fd-dfad-4fe9-b28e-976501a83662","system_id":"levelo_inurba_marseille","lat":43.276179,"lon":5.361009,"is_reserved":false,"is_disabled":false,"rental_uris":{"android":"levelo://app?vid=d238d5fd-dfad-4fe9-b28e-976501a83662","ios":"levelo://app?vid=d238d5fd-dfad-4fe9-b28e-976501a83662"},"vehicle_type_id":"4","last_reported":1699103172,"current_range_meters":12800,"station_id":"ce4bgj92rcd13ifvqbe0","pricing_plan_id":"free"},{"bike_id":"d0a8171c-592b-4991-97ac-ebd65da2549b","system_id":"levelo_inurba_marseille","lat":43.299717,"lon":5.384845,"is_reserved":false,"is_disabled":false,"rental_uris":{"android":"levelo://app?vid=d0a8171c-592b-4991-97ac-ebd65da2549b","ios":"levelo://app?vid=d0a8171c-592b-4991-97ac-ebd65da2549b"},"vehicle_type_id":"4","last_reported":1699103172,"current_range_meters":14800,"station_id":"ce4bgj92rcd13ifvqbd0","pricing_plan_id":"free"},{"bike_id":"e1f7ed43-e13e-48ec-9b20-b936528506a0","system_id":"levelo_inurba_marseille","lat":43.301429,"lon":5.37413,"is_reserved":false,"is_disabled":false,"rental_uris":{"android":"levelo://app?vid=e1f7ed43-e13e-48ec-9b20-b936528506a0","ios":"levelo://app?vid=e1f7ed43-e13e-48ec-9b20-b936528506a0"},"vehicle_type_id":"4","last_reported":1699103172,"current_range_meters":31200,"station_id":"ce4bgs92rcd13ifvqcc0","pricing_plan_id":"free"},{"bike_id":"56ac33b2-170b-4e00-ae23-c47e82d39bc9","system_id":"levelo_inurba_marseille","lat":43.295279,"lon":5.375048,"is_reserved":false,"is_disabled":false,"rental_uris":{"android":"levelo://app?vid=56ac33b2-170b-4e00-ae23-c47e82d39bc9","ios":"levelo://app?vid=56ac33b2-170b-4e00-ae23-c47e82d39bc9"},"vehicle_type_id":"4","last_reported":1699103172,"current_range_meters":25600,"station_id":"ce4bgkp2rcd13ifvqbmg","pricing_plan_id":"free"},{"bike_id":"1f580447-7b2c-4630-9a51-33e28281b372","system_id":"levelo_inurba_marseille","lat":43.329065,"lon":5.379814,"is_reserved":false,"is_disabled":false,"rental_uris":{"android":"levelo://app?vid=1f580447-7b2c-4630-9a51-33e28281b372","ios":"levelo://app?vid=1f580447-7b2c-4630-9a51-33e28281b372"},"vehicle_type_id":"4","last_reported":1699103172,"current_range_meters":16000,"station_id":"","pricing_plan_id":"free"},{"bike_id":"ecf94d7b-2238-4a61-8042-e3febbffae63","system_id":"levelo_inurba_marseille","lat":43.299323,"lon":5.385518,"is_reserved":false,"is_disabled":false,"rental_uris":{"android":"levelo://app?vid=ecf94d7b-2238-4a61-8042-e3febbffae63","ios":"levelo://app?vid=ecf94d7b-2238-4a61-8042-e3febbffae63"},"vehicle_type_id":"4","last_reported":1699103172,"current_range_meters":28000,"station_id":"","pricing_plan_id":"free"},{"bike_id":"eab5d605-eaca-4660-a5fd-3fd2b2fdfd03","system_id":"levelo_inurba_marseille","lat":43.29476,"lon":5.37582,"is_reserved":false,"is_disabled":false,"rental_uris":{"android":"levelo://app?vid=eab5d605-eaca-4660-a5fd-3fd2b2fdfd03","ios":"levelo://app?vid=eab5d605-eaca-4660-a5fd-3fd2b2fdfd03"},"vehicle_type_id":"4","last_reported":1699103172,"current_range_meters":0,"station_id":"","pricing_plan_id":"free"},{"bike_id":"40a1ec77-ae36-4bf2-a77e-781fcd5fa853","system_id":"levelo_inurba_marseille","lat":43.306938,"lon":5.392166,"is_reserved":false,"is_disabled":false,"rental_uris":{"android":"levelo://app?vid=40a1ec77-ae36-4bf2-a77e-781fcd5fa853","ios":"levelo://app?vid=40a1ec77-ae36-4bf2-a77e-781fcd5fa853"},"vehicle_type_id":"4","last_reported":1699103172,"current_range_meters":19200,"station_id":"","pricing_plan_id":"free"},{"bike_id":"2428d57d-ed96-4ff8-a6df-e3403f92abd0","system_id":"levelo_inurba_marseille","lat":43.32364,"lon":5.38883,"is_reserved":false,"is_disabled":false,"rental_uris":{"android":"levelo://app?vid=2428d57d-ed96-4ff8-a6df-e3403f92abd0","ios":"levelo://app?vid=2428d57d-ed96-4ff8-a6df-e3403f92abd0"},"vehicle_type_id":"4","last_reported":1699103172,"current_range_meters":28400,"station_id":"ce4bhb92rcd13ifvqen0","pricing_plan_id":"free"},{"bike_id":"4685e7ed-fbff-445e-86f2-0823f0bdff2e","system_id":"levelo_inurba_marseille","lat":43.299717,"lon":5.384845,"is_reserved":false,"is_disabled":false,"rental_uris":{"android":"levelo://app?vid=4685e7ed-fbff-445e-86f2-0823f0bdff2e","ios":"levelo://app?vid=4685e7ed-fbff-445e-86f2-0823f0bdff2e"},"vehicle_type_id":"4","last_reported":1699103172,"current_range_meters":26400,"station_id":"ce4bgj92rcd13ifvqbd0","pricing_plan_id":"free"},{"bike_id":"69ad3757-46d8-4405-83b3-ca3b80299eb6","system_id":"levelo_inurba_marseille","lat":43.291675,"lon":5.371583,"is_reserved":false,"is_disabled":false,"rental_uris":{"android":"levelo://app?vid=69ad3757-46d8-4405-83b3-ca3b80299eb6","ios":"levelo://app?vid=69ad3757-46d8-4405-83b3-ca3b80299eb6"},"vehicle_type_id":"4","last_reported":1699103172,"current_range_meters":31200,"station_id":"ce4bha92rcd13ifvqeh0","pricing_plan_id":"free"},{"bike_id":"f1263976-4275-44f2-b686-4624f87f4b07","system_id":"levelo_inurba_marseille","lat":43.29602,"lon":5.381084,"is_reserved":false,"is_disabled":false,"rental_uris":{"android":"levelo://app?vid=f1263976-4275-44f2-b686-4624f87f4b07","ios":"levelo://app?vid=f1263976-4275-44f2-b686-4624f87f4b07"},"vehicle_type_id":"4","last_reported":1699103172,"current_range_meters":17600,"station_id":"ce4bgl12rcd13ifvqbo0","pricing_plan_id":"free"},{"bike_id":"5ac9e8d8-f375-407a-9a63-bf55731d517f","system_id":"levelo_inurba_marseille","lat":43.29602,"lon":5.381084,"is_reserved":false,"is_disabled":false,"rental_uris":{"android":"levelo://app?vid=5ac9e8d8-f375-407a-9a63-bf55731d517f","ios":"levelo://app?vid=5ac9e8d8-f375-407a-9a63-bf55731d517f"},"vehicle_type_id":"4","last_reported":1699103172,"current_range_meters":20000,"station_id":"ce4bgl12rcd13ifvqbo0","pricing_plan_id":"free"},{"bike_id":"547a7cfc-5b52-446d-9105-ee3d3597290f","system_id":"levelo_inurba_marseille","lat":43.33055,"lon":5.37881,"is_reserved":false,"is_disabled":false,"rental_uris":{"android":"levelo://app?vid=547a7cfc-5b52-446d-9105-ee3d3597290f","ios":"levelo://app?vid=547a7cfc-5b52-446d-9105-ee3d3597290f"},"vehicle_type_id":"4","last_reported":1699103172,"current_range_meters":24800,"station_id":"","pricing_plan_id":"free"},{"bike_id":"dcfc6b93-51b6-44f4-8484-080213821566","system_id":"levelo_inurba_marseille","lat":43.293259,"lon":5.371586,"is_reserved":false,"is_disabled":false,"rental_uris":{"android":"levelo://app?vid=dcfc6b93-51b6-44f4-8484-080213821566","ios":"levelo://app?vid=dcfc6b93-51b6-44f4-8484-080213821566"},"vehicle_type_id":"4","last_reported":1699103172,"current_range_meters":27600,"station_id":"ce4bgh92rcd13ifvqb40","pricing_plan_id":"free"},{"bike_id":"130a03c6-368f-48d0-8d92-6ce5e365a9e2","system_id":"levelo_inurba_marseille","lat":43.292749,"lon":5.368402,"is_reserved":false,"is_disabled":false,"rental_uris":{"android":"levelo://app?vid=130a03c6-368f-48d0-8d92-6ce5e365a9e2","ios":"levelo://app?vid=130a03c6-368f-48d0-8d92-6ce5e365a9e2"},"vehicle_type_id":"4","last_reported":1699103172,"current_range_meters":26000,"station_id":"ce4bhbp2rcd13ifvqesg","pricing_plan_id":"free"},{"bike_id":"2e892400-0050-4700-96a5-1561bdc69754","system_id":"levelo_inurba_marseille","lat":43.29276,"lon":5.36841,"is_reserved":false,"is_disabled":false,"rental_uris":{"android":"levelo://app?vid=2e892400-0050-4700-96a5-1561bdc69754","ios":"levelo://app?vid=2e892400-0050-4700-96a5-1561bdc69754"},"vehicle_type_id":"4","last_reported":1699103172,"current_range_meters":20800,"station_id":"ce4bhbp2rcd13ifvqesg","pricing_plan_id":"free"},{"bike_id":"df3a23f0-8a77-4984-9e9d-e9acdf88912d","system_id":"levelo_inurba_marseille","lat":43.29271,"lon":5.3687,"is_reserved":false,"is_disabled":false,"rental_uris":{"android":"levelo://app?vid=df3a23f0-8a77-4984-9e9d-e9acdf88912d","ios":"levelo://app?vid=df3a23f0-8a77-4984-9e9d-e9acdf88912d"},"vehicle_type_id":"4","last_reported":1699103172,"current_range_meters":22800,"station_id":"ce4bhbp2rcd13ifvqesg","pricing_plan_id":"free"},{"bike_id":"999f6229-ace1-4e13-a8d0-786808fe5f3a","system_id":"levelo_inurba_marseille","lat":43.293009,"lon":5.374584,"is_reserved":false,"is_disabled":false,"rental_uris":{"android":"levelo://app?vid=999f6229-ace1-4e13-a8d0-786808fe5f3a","ios":"levelo://app?vid=999f6229-ace1-4e13-a8d0-786808fe5f3a"},"vehicle_type_id":"4","last_reported":1699103172,"current_range_meters":25600,"station_id":"ce4bgi12rcd13ifvqb70","pricing_plan_id":"free"},{"bike_id":"be218bc5-d204-4212-a7e1-97ed645ce891","system_id":"levelo_inurba_marseille","lat":43.293009,"lon":5.374584,"is_reserved":false,"is_disabled":false,"rental_uris":{"android":"levelo://app?vid=be218bc5-d204-4212-a7e1-97ed645ce891","ios":"levelo://app?vid=be218bc5-d204-4212-a7e1-97ed645ce891"},"vehicle_type_id":"4","last_reported":1699103172,"current_range_meters":18000,"station_id":"ce4bgi12rcd13ifvqb70","pricing_plan_id":"free"},{"bike_id":"33d819c4-11e1-4a33-b373-dd2fb7aa37b9","system_id":"levelo_inurba_marseille","lat":43.287154,"lon":5.399979,"is_reserved":false,"is_disabled":false,"rental_uris":{"android":"levelo://app?vid=33d819c4-11e1-4a33-b373-dd2fb7aa37b9","ios":"levelo://app?vid=33d819c4-11e1-4a33-b373-dd2fb7aa37b9"},"vehicle_type_id":"4","last_reported":1699103172,"current_range_meters":14400,"station_id":"ce4bho92rcd13ifvqh3g","pricing_plan_id":"free"},{"bike_id":"95b38f76-361d-45af-93a5-4380100f8206","system_id":"levelo_inurba_marseille","lat":43.305994,"lon":5.393687,"is_reserved":false,"is_disabled":false,"rental_uris":{"android":"levelo://app?vid=95b38f76-361d-45af-93a5-4380100f8206","ios":"levelo://app?vid=95b38f76-361d-45af-93a5-4380100f8206"},"vehicle_type_id":"4","last_reported":1699103172,"current_range_meters":30400,"station_id":"ce4bh0p2rcd13ifvqd80","pricing_plan_id":"free"},{"bike_id":"79fb19b2-1dc6-4f3e-9963-8711bc0d7623","system_id":"levelo_inurba_marseille","lat":43.293009,"lon":5.374584,"is_reserved":false,"is_disabled":false,"rental_uris":{"android":"levelo://app?vid=79fb19b2-1dc6-4f3e-9963-8711bc0d7623","ios":"levelo://app?vid=79fb19b2-1dc6-4f3e-9963-8711bc0d7623"},"vehicle_type_id":"4","last_reported":1699103172,"current_range_meters":27600,"station_id":"ce4bgi12rcd13ifvqb70","pricing_plan_id":"free"},{"bike_id":"b541ea19-2c59-4e2f-b020-cfc5a8b19981","system_id":"levelo_inurba_marseille","lat":43.293009,"lon":5.374584,"is_reserved":false,"is_disabled":false,"rental_uris":{"android":"levelo://app?vid=b541ea19-2c59-4e2f-b020-cfc5a8b19981","ios":"levelo://app?vid=b541ea19-2c59-4e2f-b020-cfc5a8b19981"},"vehicle_type_id":"4","last_reported":1699103172,"current_range_meters":22000,"station_id":"ce4bgi12rcd13ifvqb70","pricing_plan_id":"free"},{"bike_id":"4078ced9-94ed-4f93-8eaa-1e7f0f01d731","system_id":"levelo_inurba_marseille","lat":43.305543,"lon":5.393483,"is_reserved":false,"is_disabled":false,"rental_uris":{"android":"levelo://app?vid=4078ced9-94ed-4f93-8eaa-1e7f0f01d731","ios":"levelo://app?vid=4078ced9-94ed-4f93-8eaa-1e7f0f01d731"},"vehicle_type_id":"4","last_reported":1699103172,"current_range_meters":29600,"station_id":"ce4bh4p2rcd13ifvqe0g","pricing_plan_id":"free"},{"bike_id":"8cdac5ec-0de0-4a87-95a0-63f0bde4c41c","system_id":"levelo_inurba_marseille","lat":43.26202,"lon":5.379299,"is_reserved":false,"is_disabled":false,"rental_uris":{"android":"levelo://app?vid=8cdac5ec-0de0-4a87-95a0-63f0bde4c41c","ios":"levelo://app?vid=8cdac5ec-0de0-4a87-95a0-63f0bde4c41c"},"vehicle_type_id":"4","last_reported":1699103172,"current_range_meters":1600,"station_id":"ce4bhjp2rcd13ifvqg90","pricing_plan_id":"free"},{"bike_id":"68444c2e-a755-4158-8742-3c7cde5807df","system_id":"levelo_inurba_marseille","lat":43.30306,"lon":5.39215,"is_reserved":false,"is_disabled":false,"rental_uris":{"android":"levelo://app?vid=68444c2e-a755-4158-8742-3c7cde5807df","ios":"levelo://app?vid=68444c2e-a755-4158-8742-3c7cde5807df"},"vehicle_type_id":"4","last_reported":1699103172,"current_range_meters":20400,"station_id":"ce4bgvp2rcd13ifvqct0","pricing_plan_id":"free"},{"bike_id":"85c9683a-e5e4-4348-b50f-b7e3318c0969","system_id":"levelo_inurba_marseille","lat":43.293706,"lon":5.378729,"is_reserved":false,"is_disabled":false,"rental_uris":{"android":"levelo://app?vid=85c9683a-e5e4-4348-b50f-b7e3318c0969","ios":"levelo://app?vid=85c9683a-e5e4-4348-b50f-b7e3318c0969"},"vehicle_type_id":"4","last_reported":1699103172,"current_range_meters":26000,"station_id":"ce4bgjh2rcd13ifvqbf0","pricing_plan_id":"free"},{"bike_id":"b23ea250-c1ef-4845-a3e2-4a534b09c968","system_id":"levelo_inurba_marseille","lat":43.295279,"lon":5.375048,"is_reserved":false,"is_disabled":false,"rental_uris":{"android":"levelo://app?vid=b23ea250-c1ef-4845-a3e2-4a534b09c968","ios":"levelo://app?vid=b23ea250-c1ef-4845-a3e2-4a534b09c968"},"vehicle_type_id":"4","last_reported":1699103172,"current_range_meters":22800,"station_id":"ce4bgkp2rcd13ifvqbmg","pricing_plan_id":"free"},{"bike_id":"ecd5fcfb-e675-41c4-803e-df009ca85e60","system_id":"levelo_inurba_marseille","lat":43.309798,"lon":5.395462,"is_reserved":false,"is_disabled":false,"rental_uris":{"android":"levelo://app?vid=ecd5fcfb-e675-41c4-803e-df009ca85e60","ios":"levelo://app?vid=ecd5fcfb-e675-41c4-803e-df009ca85e60"},"vehicle_type_id":"4","last_reported":1699103172,"current_range_meters":13600,"station_id":"","pricing_plan_id":"free"},{"bike_id":"9e0c4007-f8fc-420f-ae86-3ec5ba20993e","system_id":"levelo_inurba_marseille","lat":43.292311,"lon":5.360731,"is_reserved":false,"is_disabled":false,"rental_uris":{"android":"levelo://app?vid=9e0c4007-f8fc-420f-ae86-3ec5ba20993e","ios":"levelo://app?vid=9e0c4007-f8fc-420f-ae86-3ec5ba20993e"},"vehicle_type_id":"4","last_reported":1699103172,"current_range_meters":22400,"station_id":"ce4bhbh2rcd13ifvqeqg","pricing_plan_id":"free"},{"bike_id":"b3dbc79f-db20-4e33-920e-920f55d690f0","system_id":"levelo_inurba_marseille","lat":43.313291,"lon":5.396838,"is_reserved":false,"is_disabled":false,"rental_uris":{"android":"levelo://app?vid=b3dbc79f-db20-4e33-920e-920f55d690f0","ios":"levelo://app?vid=b3dbc79f-db20-4e33-920e-920f55d690f0"},"vehicle_type_id":"4","last_reported":1699103172,"current_range_meters":17200,"station_id":"ce4bgvp2rcd13ifvqcu0","pricing_plan_id":"free"},{"bike_id":"1575422b-f99f-4525-ab00-681f712b3765","system_id":"levelo_inurba_marseille","lat":43.3331,"lon":5.35949,"is_reserved":false,"is_disabled":false,"rental_uris":{"android":"levelo://app?vid=1575422b-f99f-4525-ab00-681f712b3765","ios":"levelo://app?vid=1575422b-f99f-4525-ab00-681f712b3765"},"vehicle_type_id":"4","last_reported":1699103172,"current_range_meters":13200,"station_id":"","pricing_plan_id":"free"},{"bike_id":"37868fa8-e13f-4f38-a6a6-cba171922419","system_id":"levelo_inurba_marseille","lat":43.292311,"lon":5.360731,"is_reserved":false,"is_disabled":false,"rental_uris":{"android":"levelo://app?vid=37868fa8-e13f-4f38-a6a6-cba171922419","ios":"levelo://app?vid=37868fa8-e13f-4f38-a6a6-cba171922419"},"vehicle_type_id":"4","last_reported":1699103172,"current_range_meters":21200,"station_id":"ce4bhbh2rcd13ifvqeqg","pricing_plan_id":"free"},{"bike_id":"2b5e5e4a-cce6-483f-b6e7-3ca90937c35f","system_id":"levelo_inurba_marseille","lat":43.296129,"lon":5.370777,"is_reserved":false,"is_disabled":false,"rental_uris":{"android":"levelo://app?vid=2b5e5e4a-cce6-483f-b6e7-3ca90937c35f","ios":"levelo://app?vid=2b5e5e4a-cce6-483f-b6e7-3ca90937c35f"},"vehicle_type_id":"4","last_reported":1699103172,"current_range_meters":31200,"station_id":"ce4bgnh2rcd13ifvqc0g","pricing_plan_id":"free"},{"bike_id":"6608c0f0-53a3-48c1-afb8-707826a873b2","system_id":"levelo_inurba_marseille","lat":43.292663,"lon":5.376389,"is_reserved":false,"is_disabled":false,"rental_uris":{"android":"levelo://app?vid=6608c0f0-53a3-48c1-afb8-707826a873b2","ios":"levelo://app?vid=6608c0f0-53a3-48c1-afb8-707826a873b2"},"vehicle_type_id":"4","last_reported":1699103172,"current_range_meters":13200,"station_id":"ce4bgi12rcd13ifvqb80","pricing_plan_id":"free"},{"bike_id":"531fd229-3651-4759-b2b6-411ec4185e24","system_id":"levelo_inurba_marseille","lat":43.291675,"lon":5.371583,"is_reserved":false,"is_disabled":false,"rental_uris":{"android":"levelo://app?vid=531fd229-3651-4759-b2b6-411ec4185e24","ios":"levelo://app?vid=531fd229-3651-4759-b2b6-411ec4185e24"},"vehicle_type_id":"4","last_reported":1699103172,"current_range_meters":13600,"station_id":"ce4bha92rcd13ifvqeh0","pricing_plan_id":"free"},{"bike_id":"0e8233d2-0d57-470f-8c07-e9f753046a4f","system_id":"levelo_inurba_marseille","lat":43.33217,"lon":5.3788,"is_reserved":false,"is_disabled":false,"rental_uris":{"android":"levelo://app?vid=0e8233d2-0d57-470f-8c07-e9f753046a4f","ios":"levelo://app?vid=0e8233d2-0d57-470f-8c07-e9f753046a4f"},"vehicle_type_id":"4","last_reported":1699103172,"current_range_meters":13200,"station_id":"","pricing_plan_id":"free"},{"bike_id":"5df3dc96-1d69-4b1a-87ef-10c9e57b4841","system_id":"levelo_inurba_marseille","lat":43.298764,"lon":5.388973,"is_reserved":false,"is_disabled":false,"rental_uris":{"android":"levelo://app?vid=5df3dc96-1d69-4b1a-87ef-10c9e57b4841","ios":"levelo://app?vid=5df3dc96-1d69-4b1a-87ef-10c9e57b4841"},"vehicle_type_id":"4","last_reported":1699103172,"current_range_meters":20800,"station_id":"ce4bh392rcd13ifvqdl0","pricing_plan_id":"free"},{"bike_id":"1a29e151-2780-4ebc-990e-4ca87611562d","system_id":"levelo_inurba_marseille","lat":43.274103,"lon":5.394016,"is_reserved":false,"is_disabled":false,"rental_uris":{"android":"levelo://app?vid=1a29e151-2780-4ebc-990e-4ca87611562d","ios":"levelo://app?vid=1a29e151-2780-4ebc-990e-4ca87611562d"},"vehicle_type_id":"4","last_reported":1699103172,"current_range_meters":22800,"station_id":"ce4bhdp2rcd13ifvqf20","pricing_plan_id":"free"},{"bike_id":"d797f1e6-f3ca-4ad7-8b56-5ed6191da53c","system_id":"levelo_inurba_marseille","lat":43.292663,"lon":5.376389,"is_reserved":false,"is_disabled":false,"rental_uris":{"android":"levelo://app?vid=d797f1e6-f3ca-4ad7-8b56-5ed6191da53c","ios":"levelo://app?vid=d797f1e6-f3ca-4ad7-8b56-5ed6191da53c"},"vehicle_type_id":"4","last_reported":1699103172,"current_range_meters":31200,"station_id":"ce4bgi12rcd13ifvqb80","pricing_plan_id":"free"},{"bike_id":"98d30c8f-2a24-40fd-9c44-6042791742d3","system_id":"levelo_inurba_marseille","lat":43.2988,"lon":5.38909,"is_reserved":false,"is_disabled":false,"rental_uris":{"android":"levelo://app?vid=98d30c8f-2a24-40fd-9c44-6042791742d3","ios":"levelo://app?vid=98d30c8f-2a24-40fd-9c44-6042791742d3"},"vehicle_type_id":"4","last_reported":1699103172,"current_range_meters":12000,"station_id":"ce4bhpp2rcd13ifvqhfg","pricing_plan_id":"free"},{"bike_id":"91e3bdfd-117a-4cf2-bbe7-46f5642c2133","system_id":"levelo_inurba_marseille","lat":43.299724,"lon":5.371829,"is_reserved":false,"is_disabled":false,"rental_uris":{"android":"levelo://app?vid=91e3bdfd-117a-4cf2-bbe7-46f5642c2133","ios":"levelo://app?vid=91e3bdfd-117a-4cf2-bbe7-46f5642c2133"},"vehicle_type_id":"4","last_reported":1699103172,"current_range_meters":21600,"station_id":"ce4bgr92rcd13ifvqc7g","pricing_plan_id":"free"},{"bike_id":"1c904902-142c-4393-95cf-49418212070f","system_id":"levelo_inurba_marseille","lat":43.291671,"lon":5.371575,"is_reserved":false,"is_disabled":false,"rental_uris":{"android":"levelo://app?vid=1c904902-142c-4393-95cf-49418212070f","ios":"levelo://app?vid=1c904902-142c-4393-95cf-49418212070f"},"vehicle_type_id":"4","last_reported":1699103172,"current_range_meters":27600,"station_id":"ce4bha92rcd13ifvqeh0","pricing_plan_id":"free"},{"bike_id":"7851af3c-7072-4e38-bd64-283ec50bc99e","system_id":"levelo_inurba_marseille","lat":43.291671,"lon":5.371575,"is_reserved":false,"is_disabled":false,"rental_uris":{"android":"levelo://app?vid=7851af3c-7072-4e38-bd64-283ec50bc99e","ios":"levelo://app?vid=7851af3c-7072-4e38-bd64-283ec50bc99e"},"vehicle_type_id":"4","last_reported":1699103172,"current_range_meters":21200,"station_id":"ce4bha92rcd13ifvqeh0","pricing_plan_id":"free"},{"bike_id":"de74f9ef-7b58-4ec8-8f2f-e614fda22f32","system_id":"levelo_inurba_marseille","lat":43.298731,"lon":5.38918,"is_reserved":false,"is_disabled":false,"rental_uris":{"android":"levelo://app?vid=de74f9ef-7b58-4ec8-8f2f-e614fda22f32","ios":"levelo://app?vid=de74f9ef-7b58-4ec8-8f2f-e614fda22f32"},"vehicle_type_id":"4","last_reported":1699103172,"current_range_meters":24800,"station_id":"ce4bhkp2rcd13ifvqgd0","pricing_plan_id":"free"},{"bike_id":"248a549d-598d-425c-8078-296bb67aafc6","system_id":"levelo_inurba_marseille","lat":43.295355,"lon":5.38478,"is_reserved":false,"is_disabled":false,"rental_uris":{"android":"levelo://app?vid=248a549d-598d-425c-8078-296bb67aafc6","ios":"levelo://app?vid=248a549d-598d-425c-8078-296bb67aafc6"},"vehicle_type_id":"4","last_reported":1699103172,"current_range_meters":29600,"station_id":"ce4bgqh2rcd13ifvqc5g","pricing_plan_id":"free"},{"bike_id":"2cd0bbff-24ff-4b04-9366-9188c7c66908","system_id":"levelo_inurba_marseille","lat":43.313291,"lon":5.396838,"is_reserved":false,"is_disabled":false,"rental_uris":{"android":"levelo://app?vid=2cd0bbff-24ff-4b04-9366-9188c7c66908","ios":"levelo://app?vid=2cd0bbff-24ff-4b04-9366-9188c7c66908"},"vehicle_type_id":"4","last_reported":1699103172,"current_range_meters":26000,"station_id":"ce4bgvp2rcd13ifvqcu0","pricing_plan_id":"free"},{"bike_id":"f0b38b89-45de-4502-8d29-a11f0e8c86d1","system_id":"levelo_inurba_marseille","lat":43.313291,"lon":5.396838,"is_reserved":false,"is_disabled":false,"rental_uris":{"android":"levelo://app?vid=f0b38b89-45de-4502-8d29-a11f0e8c86d1","ios":"levelo://app?vid=f0b38b89-45de-4502-8d29-a11f0e8c86d1"},"vehicle_type_id":"4","last_reported":1699103172,"current_range_meters":12800,"station_id":"ce4bgvp2rcd13ifvqcu0","pricing_plan_id":"free"},{"bike_id":"9912db54-f509-48b7-9311-19b727d98114","system_id":"levelo_inurba_marseille","lat":43.313266,"lon":5.396968,"is_reserved":false,"is_disabled":false,"rental_uris":{"android":"levelo://app?vid=9912db54-f509-48b7-9311-19b727d98114","ios":"levelo://app?vid=9912db54-f509-48b7-9311-19b727d98114"},"vehicle_type_id":"4","last_reported":1699103172,"current_range_meters":22000,"station_id":"","pricing_plan_id":"free"},{"bike_id":"1d4fd3f6-a6af-4822-b3e8-f009679e6aa8","system_id":"levelo_inurba_marseille","lat":43.290995,"lon":5.381361,"is_reserved":false,"is_disabled":false,"rental_uris":{"android":"levelo://app?vid=1d4fd3f6-a6af-4822-b3e8-f009679e6aa8","ios":"levelo://app?vid=1d4fd3f6-a6af-4822-b3e8-f009679e6aa8"},"vehicle_type_id":"4","last_reported":1699103172,"current_range_meters":27200,"station_id":"ce4bh512rcd13ifvqe2g","pricing_plan_id":"free"},{"bike_id":"726d3cb7-f921-4534-8d6d-db2e23309b22","system_id":"levelo_inurba_marseille","lat":43.282754,"lon":5.350519,"is_reserved":false,"is_disabled":false,"rental_uris":{"android":"levelo://app?vid=726d3cb7-f921-4534-8d6d-db2e23309b22","ios":"levelo://app?vid=726d3cb7-f921-4534-8d6d-db2e23309b22"},"vehicle_type_id":"4","last_reported":1699103172,"current_range_meters":20400,"station_id":"ce4bhbp2rcd13ifvqerg","pricing_plan_id":"free"},{"bike_id":"4c9c4085-a76f-418b-9e7b-58e1f5c94f08","system_id":"levelo_inurba_marseille","lat":43.298433,"lon":5.362774,"is_reserved":false,"is_disabled":false,"rental_uris":{"android":"levelo://app?vid=4c9c4085-a76f-418b-9e7b-58e1f5c94f08","ios":"levelo://app?vid=4c9c4085-a76f-418b-9e7b-58e1f5c94f08"},"vehicle_type_id":"4","last_reported":1699103172,"current_range_meters":14000,"station_id":"ce4bgpp2rcd13ifvqc3g","pricing_plan_id":"free"},{"bike_id":"c61e9814-ddeb-4d02-b877-44315dd5fa14","system_id":"levelo_inurba_marseille","lat":43.29532,"lon":5.38544,"is_reserved":false,"is_disabled":false,"rental_uris":{"android":"levelo://app?vid=c61e9814-ddeb-4d02-b877-44315dd5fa14","ios":"levelo://app?vid=c61e9814-ddeb-4d02-b877-44315dd5fa14"},"vehicle_type_id":"4","last_reported":1699103172,"current_range_meters":23200,"station_id":"","pricing_plan_id":"free"},{"bike_id":"fcd72a84-722c-4433-a312-9e315705b19e","system_id":"levelo_inurba_marseille","lat":43.284534,"lon":5.358662,"is_reserved":false,"is_disabled":false,"rental_uris":{"android":"levelo://app?vid=fcd72a84-722c-4433-a312-9e315705b19e","ios":"levelo://app?vid=fcd72a84-722c-4433-a312-9e315705b19e"},"vehicle_type_id":"4","last_reported":1699103172,"current_range_meters":18400,"station_id":"ce4bhah2rcd13ifvqei0","pricing_plan_id":"free"},{"bike_id":"1ad66ffa-91c6-4950-84a5-e3010291212d","system_id":"levelo_inurba_marseille","lat":43.29068,"lon":5.3718,"is_reserved":false,"is_disabled":false,"rental_uris":{"android":"levelo://app?vid=1ad66ffa-91c6-4950-84a5-e3010291212d","ios":"levelo://app?vid=1ad66ffa-91c6-4950-84a5-e3010291212d"},"vehicle_type_id":"4","last_reported":1699103172,"current_range_meters":26400,"station_id":"ce4bgkh2rcd13ifvqbl0","pricing_plan_id":"free"},{"bike_id":"935b40b1-61e3-46a7-b29e-a2f96cd3c383","system_id":"levelo_inurba_marseille","lat":43.290779,"lon":5.371482,"is_reserved":false,"is_disabled":false,"rental_uris":{"android":"levelo://app?vid=935b40b1-61e3-46a7-b29e-a2f96cd3c383","ios":"levelo://app?vid=935b40b1-61e3-46a7-b29e-a2f96cd3c383"},"vehicle_type_id":"4","last_reported":1699103172,"current_range_meters":29600,"station_id":"ce4bh5p2rcd13ifvqe4g","pricing_plan_id":"free"},{"bike_id":"47ec6b47-2084-4744-a036-b4814a31a0dd","system_id":"levelo_inurba_marseille","lat":43.295523,"lon":5.422926,"is_reserved":false,"is_disabled":false,"rental_uris":{"android":"levelo://app?vid=47ec6b47-2084-4744-a036-b4814a31a0dd","ios":"levelo://app?vid=47ec6b47-2084-4744-a036-b4814a31a0dd"},"vehicle_type_id":"4","last_reported":1699103172,"current_range_meters":29600,"station_id":"ce4bhph2rcd13ifvqhdg","pricing_plan_id":"free"},{"bike_id":"f65dd85d-b7f0-4322-b069-06c56bbbc480","system_id":"levelo_inurba_marseille","lat":43.295748,"lon":5.37522,"is_reserved":false,"is_disabled":false,"rental_uris":{"android":"levelo://app?vid=f65dd85d-b7f0-4322-b069-06c56bbbc480","ios":"levelo://app?vid=f65dd85d-b7f0-4322-b069-06c56bbbc480"},"vehicle_type_id":"4","last_reported":1699103172,"current_range_meters":20400,"station_id":"ce4bgh92rcd13ifvqb50","pricing_plan_id":"free"},{"bike_id":"a4911d8d-0c74-4af8-852a-2f4eac372219","system_id":"levelo_inurba_marseille","lat":43.290443,"lon":5.359128,"is_reserved":false,"is_disabled":false,"rental_uris":{"android":"levelo://app?vid=a4911d8d-0c74-4af8-852a-2f4eac372219","ios":"levelo://app?vid=a4911d8d-0c74-4af8-852a-2f4eac372219"},"vehicle_type_id":"4","last_reported":1699103172,"current_range_meters":22400,"station_id":"ce4bha92rcd13ifvqeg0","pricing_plan_id":"free"},{"bike_id":"32a5903f-983f-4439-9002-fa022088fd0d","system_id":"levelo_inurba_marseille","lat":43.290408,"lon":5.359123,"is_reserved":false,"is_disabled":false,"rental_uris":{"android":"levelo://app?vid=32a5903f-983f-4439-9002-fa022088fd0d","ios":"levelo://app?vid=32a5903f-983f-4439-9002-fa022088fd0d"},"vehicle_type_id":"4","last_reported":1699103172,"current_range_meters":31200,"station_id":"ce4bha92rcd13ifvqeg0","pricing_plan_id":"free"},{"bike_id":"988d4820-c5bd-4b14-8333-61b3b7b1d04a","system_id":"levelo_inurba_marseille","lat":43.290389,"lon":5.35913,"is_reserved":false,"is_disabled":false,"rental_uris":{"android":"levelo://app?vid=988d4820-c5bd-4b14-8333-61b3b7b1d04a","ios":"levelo://app?vid=988d4820-c5bd-4b14-8333-61b3b7b1d04a"},"vehicle_type_id":"4","last_reported":1699103172,"current_range_meters":30400,"station_id":"ce4bha92rcd13ifvqeg0","pricing_plan_id":"free"},{"bike_id":"cfc9b2dc-95d2-44fd-bedc-52cec9fb29fa","system_id":"levelo_inurba_marseille","lat":43.294153,"lon":5.386305,"is_reserved":false,"is_disabled":false,"rental_uris":{"android":"levelo://app?vid=cfc9b2dc-95d2-44fd-bedc-52cec9fb29fa","ios":"levelo://app?vid=cfc9b2dc-95d2-44fd-bedc-52cec9fb29fa"},"vehicle_type_id":"4","last_reported":1699103172,"current_range_meters":30000,"station_id":"ce4bh2h2rcd13ifvqdh0","pricing_plan_id":"free"},{"bike_id":"c8446124-fbb8-4b6a-a2df-df9f0c450476","system_id":"levelo_inurba_marseille","lat":43.294153,"lon":5.386305,"is_reserved":false,"is_disabled":false,"rental_uris":{"android":"levelo://app?vid=c8446124-fbb8-4b6a-a2df-df9f0c450476","ios":"levelo://app?vid=c8446124-fbb8-4b6a-a2df-df9f0c450476"},"vehicle_type_id":"4","last_reported":1699103172,"current_range_meters":16800,"station_id":"ce4bh2h2rcd13ifvqdh0","pricing_plan_id":"free"},{"bike_id":"2b1f7a7b-bdae-43b6-9110-03348a922a5b","system_id":"levelo_inurba_marseille","lat":43.295169,"lon":5.390426,"is_reserved":false,"is_disabled":false,"rental_uris":{"android":"levelo://app?vid=2b1f7a7b-bdae-43b6-9110-03348a922a5b","ios":"levelo://app?vid=2b1f7a7b-bdae-43b6-9110-03348a922a5b"},"vehicle_type_id":"4","last_reported":1699103172,"current_range_meters":29200,"station_id":"ce4bh3p2rcd13ifvqdp0","pricing_plan_id":"free"},{"bike_id":"d446bc25-bb62-4df6-9635-9ae0e6a3175a","system_id":"levelo_inurba_marseille","lat":43.29418,"lon":5.38625,"is_reserved":false,"is_disabled":false,"rental_uris":{"android":"levelo://app?vid=d446bc25-bb62-4df6-9635-9ae0e6a3175a","ios":"levelo://app?vid=d446bc25-bb62-4df6-9635-9ae0e6a3175a"},"vehicle_type_id":"4","last_reported":1699103172,"current_range_meters":19200,"station_id":"cjm6bp8fraef2m0cb0m0","pricing_plan_id":"free"},{"bike_id":"c32cb5ba-4b11-4182-9dc3-829b74957098","system_id":"levelo_inurba_marseille","lat":43.272116,"lon":5.391763,"is_reserved":false,"is_disabled":false,"rental_uris":{"android":"levelo://app?vid=c32cb5ba-4b11-4182-9dc3-829b74957098","ios":"levelo://app?vid=c32cb5ba-4b11-4182-9dc3-829b74957098"},"vehicle_type_id":"4","last_reported":1699103172,"current_range_meters":28400,"station_id":"ce4bhhp2rcd13ifvqfm0","pricing_plan_id":"free"},{"bike_id":"0678e112-71c6-4434-8cbe-e61197191c7f","system_id":"levelo_inurba_marseille","lat":43.289415,"lon":5.366437,"is_reserved":false,"is_disabled":false,"rental_uris":{"android":"levelo://app?vid=0678e112-71c6-4434-8cbe-e61197191c7f","ios":"levelo://app?vid=0678e112-71c6-4434-8cbe-e61197191c7f"},"vehicle_type_id":"4","last_reported":1699103172,"current_range_meters":6400,"station_id":"","pricing_plan_id":"free"},{"bike_id":"a2589e3d-99c2-4831-bef3-54c937bb5d22","system_id":"levelo_inurba_marseille","lat":43.254947,"lon":5.376454,"is_reserved":false,"is_disabled":false,"rental_uris":{"android":"levelo://app?vid=a2589e3d-99c2-4831-bef3-54c937bb5d22","ios":"levelo://app?vid=a2589e3d-99c2-4831-bef3-54c937bb5d22"},"vehicle_type_id":"4","last_reported":1699103172,"current_range_meters":22800,"station_id":"ce4bhh12rcd13ifvqff0","pricing_plan_id":"free"},{"bike_id":"121288fb-1d56-4e89-ac5e-521f4034fe8e","system_id":"levelo_inurba_marseille","lat":43.292644,"lon":5.384257,"is_reserved":false,"is_disabled":false,"rental_uris":{"android":"levelo://app?vid=121288fb-1d56-4e89-ac5e-521f4034fe8e","ios":"levelo://app?vid=121288fb-1d56-4e89-ac5e-521f4034fe8e"},"vehicle_type_id":"4","last_reported":1699103172,"current_range_meters":23600,"station_id":"ce4bh692rcd13ifvqea0","pricing_plan_id":"free"},{"bike_id":"a52eaf8e-4d49-4299-8984-132d2a39c521","system_id":"levelo_inurba_marseille","lat":43.295169,"lon":5.390426,"is_reserved":false,"is_disabled":false,"rental_uris":{"android":"levelo://app?vid=a52eaf8e-4d49-4299-8984-132d2a39c521","ios":"levelo://app?vid=a52eaf8e-4d49-4299-8984-132d2a39c521"},"vehicle_type_id":"4","last_reported":1699103172,"current_range_meters":4400,"station_id":"ce4bh3p2rcd13ifvqdp0","pricing_plan_id":"free"},{"bike_id":"182cc6b9-bc90-4a58-8e4a-692d0ba73a25","system_id":"levelo_inurba_marseille","lat":43.285742,"lon":5.395004,"is_reserved":false,"is_disabled":false,"rental_uris":{"android":"levelo://app?vid=182cc6b9-bc90-4a58-8e4a-692d0ba73a25","ios":"levelo://app?vid=182cc6b9-bc90-4a58-8e4a-692d0ba73a25"},"vehicle_type_id":"4","last_reported":1699103172,"current_range_meters":23200,"station_id":"ce4bh292rcd13ifvqdg0","pricing_plan_id":"free"},{"bike_id":"9ca908c3-201f-4c3e-9dcc-e18657ec600a","system_id":"levelo_inurba_marseille","lat":43.290104,"lon":5.356111,"is_reserved":false,"is_disabled":false,"rental_uris":{"android":"levelo://app?vid=9ca908c3-201f-4c3e-9dcc-e18657ec600a","ios":"levelo://app?vid=9ca908c3-201f-4c3e-9dcc-e18657ec600a"},"vehicle_type_id":"4","last_reported":1699103172,"current_range_meters":31200,"station_id":"ce4bhb92rcd13ifvqen0","pricing_plan_id":"free"},{"bike_id":"7545a2f1-559c-40c2-908d-99ad6ef39151","system_id":"levelo_inurba_marseille","lat":43.330442,"lon":5.389148,"is_reserved":false,"is_disabled":false,"rental_uris":{"android":"levelo://app?vid=7545a2f1-559c-40c2-908d-99ad6ef39151","ios":"levelo://app?vid=7545a2f1-559c-40c2-908d-99ad6ef39151"},"vehicle_type_id":"4","last_reported":1699103172,"current_range_meters":15600,"station_id":"ce4bhr92rcd13ifvqhrg","pricing_plan_id":"free"},{"bike_id":"723cf493-34b4-45c1-b28b-573190d6ad9c","system_id":"levelo_inurba_marseille","lat":43.296263,"lon":5.377094,"is_reserved":false,"is_disabled":false,"rental_uris":{"android":"levelo://app?vid=723cf493-34b4-45c1-b28b-573190d6ad9c","ios":"levelo://app?vid=723cf493-34b4-45c1-b28b-573190d6ad9c"},"vehicle_type_id":"4","last_reported":1699103172,"current_range_meters":22800,"station_id":"ce4bgi92rcd13ifvqb90","pricing_plan_id":"free"},{"bike_id":"abd67fb4-bf98-4384-b12b-48e9ead60053","system_id":"levelo_inurba_marseille","lat":43.298433,"lon":5.362774,"is_reserved":false,"is_disabled":false,"rental_uris":{"android":"levelo://app?vid=abd67fb4-bf98-4384-b12b-48e9ead60053","ios":"levelo://app?vid=abd67fb4-bf98-4384-b12b-48e9ead60053"},"vehicle_type_id":"4","last_reported":1699103172,"current_range_meters":23200,"station_id":"ce4bgpp2rcd13ifvqc3g","pricing_plan_id":"free"},{"bike_id":"c04c1eb8-27bb-40c1-bf93-0dee71221582","system_id":"levelo_inurba_marseille","lat":43.293009,"lon":5.374584,"is_reserved":false,"is_disabled":false,"rental_uris":{"android":"levelo://app?vid=c04c1eb8-27bb-40c1-bf93-0dee71221582","ios":"levelo://app?vid=c04c1eb8-27bb-40c1-bf93-0dee71221582"},"vehicle_type_id":"4","last_reported":1699103172,"current_range_meters":26800,"station_id":"ce4bgi12rcd13ifvqb70","pricing_plan_id":"free"},{"bike_id":"907482bd-ff7e-4a3c-85a4-404aa118ab26","system_id":"levelo_inurba_marseille","lat":43.299724,"lon":5.371829,"is_reserved":false,"is_disabled":false,"rental_uris":{"android":"levelo://app?vid=907482bd-ff7e-4a3c-85a4-404aa118ab26","ios":"levelo://app?vid=907482bd-ff7e-4a3c-85a4-404aa118ab26"},"vehicle_type_id":"4","last_reported":1699103172,"current_range_meters":27600,"station_id":"ce4bgr92rcd13ifvqc7g","pricing_plan_id":"free"},{"bike_id":"b6e61716-36a4-4554-a650-5f699d816e27","system_id":"levelo_inurba_marseille","lat":43.290995,"lon":5.381361,"is_reserved":false,"is_disabled":false,"rental_uris":{"android":"levelo://app?vid=b6e61716-36a4-4554-a650-5f699d816e27","ios":"levelo://app?vid=b6e61716-36a4-4554-a650-5f699d816e27"},"vehicle_type_id":"4","last_reported":1699103172,"current_range_meters":18800,"station_id":"ce4bh512rcd13ifvqe2g","pricing_plan_id":"free"},{"bike_id":"4a821666-0ee0-43f4-8663-663f060b0928","system_id":"levelo_inurba_marseille","lat":43.284462,"lon":5.392121,"is_reserved":false,"is_disabled":false,"rental_uris":{"android":"levelo://app?vid=4a821666-0ee0-43f4-8663-663f060b0928","ios":"levelo://app?vid=4a821666-0ee0-43f4-8663-663f060b0928"},"vehicle_type_id":"4","last_reported":1699103172,"current_range_meters":26000,"station_id":"ce4bhoh2rcd13ifvqh5g","pricing_plan_id":"free"},{"bike_id":"e0d713cd-ec81-44ec-8ba4-571dd76a2b05","system_id":"levelo_inurba_marseille","lat":43.295169,"lon":5.390426,"is_reserved":false,"is_disabled":false,"rental_uris":{"android":"levelo://app?vid=e0d713cd-ec81-44ec-8ba4-571dd76a2b05","ios":"levelo://app?vid=e0d713cd-ec81-44ec-8ba4-571dd76a2b05"},"vehicle_type_id":"4","last_reported":1699103172,"current_range_meters":1600,"station_id":"ce4bh3p2rcd13ifvqdp0","pricing_plan_id":"free"},{"bike_id":"cb76f011-c29f-4ff9-a9f7-1ef730f91fce","system_id":"levelo_inurba_marseille","lat":43.245581,"lon":5.395069,"is_reserved":false,"is_disabled":false,"rental_uris":{"android":"levelo://app?vid=cb76f011-c29f-4ff9-a9f7-1ef730f91fce","ios":"levelo://app?vid=cb76f011-c29f-4ff9-a9f7-1ef730f91fce"},"vehicle_type_id":"4","last_reported":1699103172,"current_range_meters":26000,"station_id":"ce4bhlp2rcd13ifvqgjg","pricing_plan_id":"free"},{"bike_id":"21b290e6-877b-4879-87c3-e4020581692d","system_id":"levelo_inurba_marseille","lat":43.295169,"lon":5.390426,"is_reserved":false,"is_disabled":false,"rental_uris":{"android":"levelo://app?vid=21b290e6-877b-4879-87c3-e4020581692d","ios":"levelo://app?vid=21b290e6-877b-4879-87c3-e4020581692d"},"vehicle_type_id":"4","last_reported":1699103172,"current_range_meters":21600,"station_id":"ce4bh3p2rcd13ifvqdp0","pricing_plan_id":"free"},{"bike_id":"440a1964-3a8d-499c-838c-c8c01b0287b0","system_id":"levelo_inurba_marseille","lat":43.289741,"lon":5.378329,"is_reserved":false,"is_disabled":false,"rental_uris":{"android":"levelo://app?vid=440a1964-3a8d-499c-838c-c8c01b0287b0","ios":"levelo://app?vid=440a1964-3a8d-499c-838c-c8c01b0287b0"},"vehicle_type_id":"4","last_reported":1699103172,"current_range_meters":0,"station_id":"ce4bhh92rcd13ifvqfh0","pricing_plan_id":"free"},{"bike_id":"1ad56389-7ff5-4aa3-ac40-1eace7e5b500","system_id":"levelo_inurba_marseille","lat":43.260225,"lon":5.375455,"is_reserved":false,"is_disabled":false,"rental_uris":{"android":"levelo://app?vid=1ad56389-7ff5-4aa3-ac40-1eace7e5b500","ios":"levelo://app?vid=1ad56389-7ff5-4aa3-ac40-1eace7e5b500"},"vehicle_type_id":"4","last_reported":1699103172,"current_range_meters":22000,"station_id":"ce4bhgh2rcd13ifvqfa0","pricing_plan_id":"free"},{"bike_id":"212028a8-cad7-4e65-9114-319ee84dab9e","system_id":"levelo_inurba_marseille","lat":43.296921,"lon":5.376579,"is_reserved":false,"is_disabled":false,"rental_uris":{"android":"levelo://app?vid=212028a8-cad7-4e65-9114-319ee84dab9e","ios":"levelo://app?vid=212028a8-cad7-4e65-9114-319ee84dab9e"},"vehicle_type_id":"4","last_reported":1699103172,"current_range_meters":31200,"station_id":"ce4bgkh2rcd13ifvqbl0","pricing_plan_id":"free"},{"bike_id":"c30a2093-4fb2-433a-a967-83a3891155b8","system_id":"levelo_inurba_marseille","lat":43.295214,"lon":5.390533,"is_reserved":false,"is_disabled":false,"rental_uris":{"android":"levelo://app?vid=c30a2093-4fb2-433a-a967-83a3891155b8","ios":"levelo://app?vid=c30a2093-4fb2-433a-a967-83a3891155b8"},"vehicle_type_id":"4","last_reported":1699103172,"current_range_meters":20800,"station_id":"ce4bhu92rcd13ifvqi70","pricing_plan_id":"free"},{"bike_id":"1b031e90-0fa8-45b0-9773-66f2fd4081e9","system_id":"levelo_inurba_marseille","lat":43.29523,"lon":5.39058,"is_reserved":false,"is_disabled":false,"rental_uris":{"android":"levelo://app?vid=1b031e90-0fa8-45b0-9773-66f2fd4081e9","ios":"levelo://app?vid=1b031e90-0fa8-45b0-9773-66f2fd4081e9"},"vehicle_type_id":"4","last_reported":1699103172,"current_range_meters":26400,"station_id":"ce4bgi12rcd13ifvqb80","pricing_plan_id":"free"},{"bike_id":"de15335e-5705-4ecf-a7f9-862a7955eb7e","system_id":"levelo_inurba_marseille","lat":43.28856,"lon":5.358371,"is_reserved":false,"is_disabled":false,"rental_uris":{"android":"levelo://app?vid=de15335e-5705-4ecf-a7f9-862a7955eb7e","ios":"levelo://app?vid=de15335e-5705-4ecf-a7f9-862a7955eb7e"},"vehicle_type_id":"4","last_reported":1699103172,"current_range_meters":19200,"station_id":"ce4bhb12rcd13ifvqem0","pricing_plan_id":"free"},{"bike_id":"3611b80b-c753-4245-9170-eb97b70faaea","system_id":"levelo_inurba_marseille","lat":43.340804,"lon":5.410219,"is_reserved":false,"is_disabled":false,"rental_uris":{"android":"levelo://app?vid=3611b80b-c753-4245-9170-eb97b70faaea","ios":"levelo://app?vid=3611b80b-c753-4245-9170-eb97b70faaea"},"vehicle_type_id":"4","last_reported":1699103172,"current_range_meters":27200,"station_id":"ce4bhqh2rcd13ifvqhlg","pricing_plan_id":"free"},{"bike_id":"91783ad0-f64f-4f65-aa1b-d6cfc0a69452","system_id":"levelo_inurba_marseille","lat":43.273125,"lon":5.390731,"is_reserved":false,"is_disabled":false,"rental_uris":{"android":"levelo://app?vid=91783ad0-f64f-4f65-aa1b-d6cfc0a69452","ios":"levelo://app?vid=91783ad0-f64f-4f65-aa1b-d6cfc0a69452"},"vehicle_type_id":"4","last_reported":1699103172,"current_range_meters":30400,"station_id":"ce4bhgp2rcd13ifvqfe0","pricing_plan_id":"free"},{"bike_id":"85f3d96e-0a66-4e0a-9b30-ec4d07602839","system_id":"levelo_inurba_marseille","lat":43.288519,"lon":5.35858,"is_reserved":false,"is_disabled":false,"rental_uris":{"android":"levelo://app?vid=85f3d96e-0a66-4e0a-9b30-ec4d07602839","ios":"levelo://app?vid=85f3d96e-0a66-4e0a-9b30-ec4d07602839"},"vehicle_type_id":"4","last_reported":1699103172,"current_range_meters":31200,"station_id":"ce4bhb12rcd13ifvqem0","pricing_plan_id":"free"},{"bike_id":"5e9c401c-72d5-4edd-8055-4dfacd1a9515","system_id":"levelo_inurba_marseille","lat":43.28856,"lon":5.358371,"is_reserved":false,"is_disabled":false,"rental_uris":{"android":"levelo://app?vid=5e9c401c-72d5-4edd-8055-4dfacd1a9515","ios":"levelo://app?vid=5e9c401c-72d5-4edd-8055-4dfacd1a9515"},"vehicle_type_id":"4","last_reported":1699103172,"current_range_meters":31200,"station_id":"ce4bhb12rcd13ifvqem0","pricing_plan_id":"free"},{"bike_id":"021778ef-75a6-429d-82de-369f8368729c","system_id":"levelo_inurba_marseille","lat":43.28848,"lon":5.35863,"is_reserved":false,"is_disabled":false,"rental_uris":{"android":"levelo://app?vid=021778ef-75a6-429d-82de-369f8368729c","ios":"levelo://app?vid=021778ef-75a6-429d-82de-369f8368729c"},"vehicle_type_id":"4","last_reported":1699103172,"current_range_meters":26400,"station_id":"ce4bgi12rcd13ifvqb80","pricing_plan_id":"free"},{"bike_id":"2890ccf2-3841-41f3-9ac6-493ca0d72df1","system_id":"levelo_inurba_marseille","lat":43.297774,"lon":5.370875,"is_reserved":false,"is_disabled":false,"rental_uris":{"android":"levelo://app?vid=2890ccf2-3841-41f3-9ac6-493ca0d72df1","ios":"levelo://app?vid=2890ccf2-3841-41f3-9ac6-493ca0d72df1"},"vehicle_type_id":"4","last_reported":1699103172,"current_range_meters":31200,"station_id":"ce4bgop2rcd13ifvqc1g","pricing_plan_id":"free"},{"bike_id":"d0c34c74-b1c3-49e7-9e0b-3b5d520ee506","system_id":"levelo_inurba_marseille","lat":43.288398,"lon":5.358417,"is_reserved":false,"is_disabled":false,"rental_uris":{"android":"levelo://app?vid=d0c34c74-b1c3-49e7-9e0b-3b5d520ee506","ios":"levelo://app?vid=d0c34c74-b1c3-49e7-9e0b-3b5d520ee506"},"vehicle_type_id":"4","last_reported":1699103172,"current_range_meters":21600,"station_id":"ce4bgkh2rcd13ifvqbl0","pricing_plan_id":"free"},{"bike_id":"9f0f0b2d-855f-48d1-8aed-2fd07751956d","system_id":"levelo_inurba_marseille","lat":43.302784,"lon":5.377158,"is_reserved":false,"is_disabled":false,"rental_uris":{"android":"levelo://app?vid=9f0f0b2d-855f-48d1-8aed-2fd07751956d","ios":"levelo://app?vid=9f0f0b2d-855f-48d1-8aed-2fd07751956d"},"vehicle_type_id":"4","last_reported":1699103172,"current_range_meters":31200,"station_id":"ce4bguh2rcd13ifvqcj0","pricing_plan_id":"free"},{"bike_id":"6bc5110b-db6a-4243-af15-8050e911627a","system_id":"levelo_inurba_marseille","lat":43.30942,"lon":5.40139,"is_reserved":false,"is_disabled":false,"rental_uris":{"android":"levelo://app?vid=6bc5110b-db6a-4243-af15-8050e911627a","ios":"levelo://app?vid=6bc5110b-db6a-4243-af15-8050e911627a"},"vehicle_type_id":"4","last_reported":1699103172,"current_range_meters":10800,"station_id":"ce4bgvp2rcd13ifvqct0","pricing_plan_id":"free"},{"bike_id":"5959050c-a90f-476c-a942-c9d538e75cdf","system_id":"levelo_inurba_marseille","lat":43.309349,"lon":5.401378,"is_reserved":false,"is_disabled":false,"rental_uris":{"android":"levelo://app?vid=5959050c-a90f-476c-a942-c9d538e75cdf","ios":"levelo://app?vid=5959050c-a90f-476c-a942-c9d538e75cdf"},"vehicle_type_id":"4","last_reported":1699103172,"current_range_meters":10400,"station_id":"ce4bh9p2rcd13ifvqec0","pricing_plan_id":"free"},{"bike_id":"42bdc2fb-dca4-4dcf-a3ec-622d844acac7","system_id":"levelo_inurba_marseille","lat":43.309266,"lon":5.401405,"is_reserved":false,"is_disabled":false,"rental_uris":{"android":"levelo://app?vid=42bdc2fb-dca4-4dcf-a3ec-622d844acac7","ios":"levelo://app?vid=42bdc2fb-dca4-4dcf-a3ec-622d844acac7"},"vehicle_type_id":"4","last_reported":1699103172,"current_range_meters":26800,"station_id":"ce4bgvp2rcd13ifvqct0","pricing_plan_id":"free"},{"bike_id":"92660c21-7463-40cd-bacc-435a7770184b","system_id":"levelo_inurba_marseille","lat":43.30931,"lon":5.40143,"is_reserved":false,"is_disabled":false,"rental_uris":{"android":"levelo://app?vid=92660c21-7463-40cd-bacc-435a7770184b","ios":"levelo://app?vid=92660c21-7463-40cd-bacc-435a7770184b"},"vehicle_type_id":"4","last_reported":1699103172,"current_range_meters":26400,"station_id":"ce4bgvp2rcd13ifvqct0","pricing_plan_id":"free"},{"bike_id":"d1c29233-920f-4115-9d90-fd443be41479","system_id":"levelo_inurba_marseille","lat":43.312609,"lon":5.401662,"is_reserved":false,"is_disabled":false,"rental_uris":{"android":"levelo://app?vid=d1c29233-920f-4115-9d90-fd443be41479","ios":"levelo://app?vid=d1c29233-920f-4115-9d90-fd443be41479"},"vehicle_type_id":"4","last_reported":1699103172,"current_range_meters":25600,"station_id":"ce4bh092rcd13ifvqd30","pricing_plan_id":"free"},{"bike_id":"f85a6667-bc26-4a3d-8c2f-6803b87c6f87","system_id":"levelo_inurba_marseille","lat":43.3128,"lon":5.40176,"is_reserved":false,"is_disabled":false,"rental_uris":{"android":"levelo://app?vid=f85a6667-bc26-4a3d-8c2f-6803b87c6f87","ios":"levelo://app?vid=f85a6667-bc26-4a3d-8c2f-6803b87c6f87"},"vehicle_type_id":"4","last_reported":1699103172,"current_range_meters":2000,"station_id":"ce4bgkh2rcd13ifvqbl0","pricing_plan_id":"free"},{"bike_id":"e3824933-03df-4ff6-b427-4827903172e7","system_id":"levelo_inurba_marseille","lat":43.309371,"lon":5.401449,"is_reserved":false,"is_disabled":false,"rental_uris":{"android":"levelo://app?vid=e3824933-03df-4ff6-b427-4827903172e7","ios":"levelo://app?vid=e3824933-03df-4ff6-b427-4827903172e7"},"vehicle_type_id":"4","last_reported":1699103172,"current_range_meters":26800,"station_id":"ce4bgvp2rcd13ifvqct0","pricing_plan_id":"free"},{"bike_id":"11cf951a-aac9-4ec1-a90b-0164a8d41c2f","system_id":"levelo_inurba_marseille","lat":43.305364,"lon":5.384119,"is_reserved":false,"is_disabled":false,"rental_uris":{"android":"levelo://app?vid=11cf951a-aac9-4ec1-a90b-0164a8d41c2f","ios":"levelo://app?vid=11cf951a-aac9-4ec1-a90b-0164a8d41c2f"},"vehicle_type_id":"4","last_reported":1699103172,"current_range_meters":31200,"station_id":"ce4bgg92rcd13ifvqb30","pricing_plan_id":"free"},{"bike_id":"deaeeefa-a88f-4bf1-b022-86892c4e7225","system_id":"levelo_inurba_marseille","lat":43.286591,"lon":5.363346,"is_reserved":false,"is_disabled":false,"rental_uris":{"android":"levelo://app?vid=deaeeefa-a88f-4bf1-b022-86892c4e7225","ios":"levelo://app?vid=deaeeefa-a88f-4bf1-b022-86892c4e7225"},"vehicle_type_id":"4","last_reported":1699103172,"current_range_meters":19600,"station_id":"ce4bhah2rcd13ifvqej0","pricing_plan_id":"free"},