{"last_updated":1701835767,"ttl":30,"version":"2.2","data":{"bikes":[{"bike_id":"3a2dda2e-3aab-4d0e-a954-793f1706ec09","system_id":"levelo_inurba_marseille","lat":43.311859,"lon":5.369008,"is_reserved":false,"is_disabled":false,"rental_uris":{"android":"levelo://app?vid=3a2dda2e-3aab-4d0e-a954-793f1706ec09","ios":"levelo://app?vid=3a2dda2e-3aab-4d0e-a954-793f1706ec09"},"vehicle_type_id":"4","last_reported":1701835767,"current_range_meters":23200,"station_id":"","pricing_plan_id":"free"},{"bike_id":"f6cd5cb1-b1e8-43b8-9737-b49ad230f92c","system_id":"levelo_inurba_marseille","lat":43.314811,"lon":5.373103,"is_reserved":false,"is_disabled":false,"rental_uris":{"android":"levelo://app?vid=f6cd5cb1-b1e8-43b8-9737-b49ad230f92c","ios":"levelo://app?vid=f6cd5cb1-b1e8-43b8-9737-b49ad230f92c"},"vehicle_type_id":"4","last_reported":1701835767,"current_range_meters":28000,"station_id":"ce4bgt12rcd13ifvqcd0","pricing_plan_id":"free"},{"bike_id":"b0d26c03-f339-4028-b66c-5b75bd3720d0","system_id":"levelo_inurba_marseille","lat":43.314811,"lon":5.373104,"is_reserved":false,"is_disabled":false,"rental_uris":{"android":"levelo://app?vid=b0d26c03-f339-4028-b66c-5b75bd3720d0","ios":"levelo://app?vid=b0d26c03-f339-4028-b66c-5b75bd3720d0"},"vehicle_type_id":"4","last_reported":1701835767,"current_range_meters":20000,"station_id":"ce4bgt12rcd13ifvqcd0","pricing_plan_id":"free"},{"bike_id":"0655a6c7-abf4-4324-b4af-2f69d6a46852","system_id":"levelo_inurba_marseille","lat":43.309039,"lon":5.371797,"is_reserved":false,"is_disabled":false,"rental_uris":{"android":"levelo://app?vid=0655a6c7-abf4-4324-b4af-2f69d6a46852","ios":"levelo://app?vid=0655a6c7-abf4-4324-b4af-2f69d6a46852"},"vehicle_type_id":"4","last_reported":1701835767,"current_range_meters":26800,"station_id":"ce4bguh2rcd13ifvqckg","pricing_plan_id":"free"},{"bike_id":"5f27c924-e3b9-4809-82b0-7611a46791ac","system_id":"levelo_inurba_marseille","lat":43.309039,"lon":5.371797,"is_reserved":false,"is_disabled":false,"rental_uris":{"android":"levelo://app?vid=5f27c924-e3b9-4809-82b0-7611a46791ac","ios":"levelo://app?vid=5f27c924-e3b9-4809-82b0-7611a46791ac"},"vehicle_type_id":"4","last_reported":1701835767,"current_range_meters":29200,"station_id":"ce4bguh2rcd13ifvqckg","pricing_plan_id":"free"},{"bike_id":"b065b12a-ef87-47d8-8ac6-a38844050d40","system_id":"levelo_inurba_marseille","lat":43.319237,"lon":5.37299,"is_reserved":false,"is_disabled":false,"rental_uris":{"android":"levelo://app?vid=b065b12a-ef87-47d8-8ac6-a38844050d40","ios":"levelo://app?vid=b065b12a-ef87-47d8-8ac6-a38844050d40"},"vehicle_type_id":"4","last_reported":1701835767,"current_range_meters":0,"station_id":"","pricing_plan_id":"free"},{"bike_id":"dfd0ad29-97a2-485d-ad77-77c32b01b460","system_id":"levelo_inurba_marseille","lat":43.31112,"lon":5.37764,"is_reserved":false,"is_disabled":false,"rental_uris":{"android":"levelo://app?vid=dfd0ad29-97a2-485d-ad77-77c32b01b460","ios":"levelo://app?vid=dfd0ad29-97a2-485d-ad77-77c32b01b460"},"vehicle_type_id":"4","last_reported":1701835767,"current_range_meters":11600,"station_id":"ce4bgt92rcd13ifvqcg0","pricing_plan_id":"free"},{"bike_id":"0998ea92-ad75-45d6-b23c-30711119caeb","system_id":"levelo_inurba_marseille","lat":43.311125,"lon":5.377624,"is_reserved":false,"is_disabled":false,"rental_uris":{"android":"levelo://app?vid=0998ea92-ad75-45d6-b23c-30711119caeb","ios":"levelo://app?vid=0998ea92-ad75-45d6-b23c-30711119caeb"},"vehicle_type_id":"4","last_reported":1701835767,"current_range_meters":23200,"station_id":"ce4bgt92rcd13ifvqcg0","pricing_plan_id":"free"},{"bike_id":"3161e1f1-28a1-4cad-b6dd-f555ab23d4f3","system_id":"levelo_inurba_marseille","lat":43.307945,"lon":5.376487,"is_reserved":false,"is_disabled":false,"rental_uris":{"android":"levelo://app?vid=3161e1f1-28a1-4cad-b6dd-f555ab23d4f3","ios":"levelo://app?vid=3161e1f1-28a1-4cad-b6dd-f555ab23d4f3"},"vehicle_type_id":"4","last_reported":1701835767,"current_range_meters":28800,"station_id":"ce4bgv92rcd13ifvqcq0","pricing_plan_id":"free"},{"bike_id":"62ef9776-d359-478d-b2b0-5317c40b882c","system_id":"levelo_inurba_marseille","lat":43.317075,"lon":5.377367,"is_reserved":false,"is_disabled":false,"rental_uris":{"android":"levelo://app?vid=62ef9776-d359-478d-b2b0-5317c40b882c","ios":"levelo://app?vid=62ef9776-d359-478d-b2b0-5317c40b882c"},"vehicle_type_id":"4","last_reported":1701835767,"current_range_meters":28000,"station_id":"ce4bgth2rcd13ifvqch0","pricing_plan_id":"free"},{"bike_id":"fb6fd937-527b-4585-9058-0dfdc6436ac8","system_id":"levelo_inurba_marseille","lat":43.31351,"lon":5.37909,"is_reserved":false,"is_disabled":false,"rental_uris":{"android":"levelo://app?vid=fb6fd937-527b-4585-9058-0dfdc6436ac8","ios":"levelo://app?vid=fb6fd937-527b-4585-9058-0dfdc6436ac8"},"vehicle_type_id":"4","last_reported":1701835767,"current_range_meters":7600,"station_id":"","pricing_plan_id":"free"},{"bike_id":"380aaba6-3518-4ef8-b7a0-791d836ad1ab","system_id":"levelo_inurba_marseille","lat":43.301939,"lon":5.366286,"is_reserved":false,"is_disabled":false,"rental_uris":{"android":"levelo://app?vid=380aaba6-3518-4ef8-b7a0-791d836ad1ab","ios":"levelo://app?vid=380aaba6-3518-4ef8-b7a0-791d836ad1ab"},"vehicle_type_id":"4","last_reported":1701835767,"current_range_meters":11200,"station_id":"ce4bgrh2rcd13ifvqc8g","pricing_plan_id":"free"},{"bike_id":"a358d0fa-137f-4f7d-aa81-828c9c5f203e","system_id":"levelo_inurba_marseille","lat":43.301939,"lon":5.366286,"is_reserved":false,"is_disabled":false,"rental_uris":{"android":"levelo://app?vid=a358d0fa-137f-4f7d-aa81-828c9c5f203e","ios":"levelo://app?vid=a358d0fa-137f-4f7d-aa81-828c9c5f203e"},"vehicle_type_id":"4","last_reported":1701835767,"current_range_meters":28400,"station_id":"ce4bgrh2rcd13ifvqc8g","pricing_plan_id":"free"},{"bike_id":"71d575e8-eed2-4bcd-bb66-8939863b10da","system_id":"levelo_inurba_marseille","lat":43.302878,"lon":5.373505,"is_reserved":false,"is_disabled":false,"rental_uris":{"android":"levelo://app?vid=71d575e8-eed2-4bcd-bb66-8939863b10da","ios":"levelo://app?vid=71d575e8-eed2-4bcd-bb66-8939863b10da"},"vehicle_type_id":"4","last_reported":1701835767,"current_range_meters":12000,"station_id":"","pricing_plan_id":"free"},{"bike_id":"5b244e44-6e57-4c8d-8fce-9a80fb1c5ff9","system_id":"levelo_inurba_marseille","lat":43.308012,"lon":5.381511,"is_reserved":false,"is_disabled":false,"rental_uris":{"android":"levelo://app?vid=5b244e44-6e57-4c8d-8fce-9a80fb1c5ff9","ios":"levelo://app?vid=5b244e44-6e57-4c8d-8fce-9a80fb1c5ff9"},"vehicle_type_id":"4","last_reported":1701835767,"current_range_meters":26400,"station_id":"ce4bgt12rcd13ifvqce0","pricing_plan_id":"free"},{"bike_id":"ab542b0a-b258-4b62-baed-c4ff4b3a7961","system_id":"levelo_inurba_marseille","lat":43.32481,"lon":5.36568,"is_reserved":false,"is_disabled":false,"rental_uris":{"android":"levelo://app?vid=ab542b0a-b258-4b62-baed-c4ff4b3a7961","ios":"levelo://app?vid=ab542b0a-b258-4b62-baed-c4ff4b3a7961"},"vehicle_type_id":"4","last_reported":1701835767,"current_range_meters":30000,"station_id":"ce4bhs12rcd13ifvqhvg","pricing_plan_id":"free"},{"bike_id":"8b8c898a-a19c-4c82-817c-82b228390361","system_id":"levelo_inurba_marseille","lat":43.302784,"lon":5.377158,"is_reserved":false,"is_disabled":false,"rental_uris":{"android":"levelo://app?vid=8b8c898a-a19c-4c82-817c-82b228390361","ios":"levelo://app?vid=8b8c898a-a19c-4c82-817c-82b228390361"},"vehicle_type_id":"4","last_reported":1701835767,"current_range_meters":15200,"station_id":"ce4bguh2rcd13ifvqcj0","pricing_plan_id":"free"},{"bike_id":"a7503af2-3416-42b0-89b3-360ea5b90ea2","system_id":"levelo_inurba_marseille","lat":43.31994,"lon":5.38141,"is_reserved":false,"is_disabled":false,"rental_uris":{"android":"levelo://app?vid=a7503af2-3416-42b0-89b3-360ea5b90ea2","ios":"levelo://app?vid=a7503af2-3416-42b0-89b3-360ea5b90ea2"},"vehicle_type_id":"4","last_reported":1701835767,"current_range_meters":26000,"station_id":"ce4bhr12rcd13ifvqhpg","pricing_plan_id":"free"},{"bike_id":"1e44eb00-5254-457d-b804-b536ef4db324","system_id":"levelo_inurba_marseille","lat":43.319935,"lon":5.381699,"is_reserved":false,"is_disabled":false,"rental_uris":{"android":"levelo://app?vid=1e44eb00-5254-457d-b804-b536ef4db324","ios":"levelo://app?vid=1e44eb00-5254-457d-b804-b536ef4db324"},"vehicle_type_id":"4","last_reported":1701835767,"current_range_meters":12800,"station_id":"ce4bhr12rcd13ifvqhpg","pricing_plan_id":"free"},{"bike_id":"65f8fa65-6ae7-4e94-86fb-6a8a6a019c04","system_id":"levelo_inurba_marseille","lat":43.319935,"lon":5.381699,"is_reserved":false,"is_disabled":false,"rental_uris":{"android":"levelo://app?vid=65f8fa65-6ae7-4e94-86fb-6a8a6a019c04","ios":"levelo://app?vid=65f8fa65-6ae7-4e94-86fb-6a8a6a019c04"},"vehicle_type_id":"4","last_reported":1701835767,"current_range_meters":11200,"station_id":"ce4bhr12rcd13ifvqhpg","pricing_plan_id":"free"},{"bike_id":"a95596b8-f1aa-4f33-8aeb-7ad5c013d911","system_id":"levelo_inurba_marseille","lat":43.313571,"lon":5.384829,"is_reserved":false,"is_disabled":false,"rental_uris":{"android":"levelo://app?vid=a95596b8-f1aa-4f33-8aeb-7ad5c013d911","ios":"levelo://app?vid=a95596b8-f1aa-4f33-8aeb-7ad5c013d911"},"vehicle_type_id":"4","last_reported":1701835767,"current_range_meters":26000,"station_id":"ce4bgt92rcd13ifvqcf0","pricing_plan_id":"free"},{"bike_id":"bd082ecf-686f-49c5-a30a-7ea43132642a","system_id":"levelo_inurba_marseille","lat":43.313571,"lon":5.384829,"is_reserved":false,"is_disabled":false,"rental_uris":{"android":"levelo://app?vid=bd082ecf-686f-49c5-a30a-7ea43132642a","ios":"levelo://app?vid=bd082ecf-686f-49c5-a30a-7ea43132642a"},"vehicle_type_id":"4","last_reported":1701835767,"current_range_meters":0,"station_id":"ce4bgt92rcd13ifvqcf0","pricing_plan_id":"free"},{"bike_id":"c76d68d9-2c83-49cf-aa18-ff9dce30c25e","system_id":"levelo_inurba_marseille","lat":43.313571,"lon":5.384829,"is_reserved":false,"is_disabled":false,"rental_uris":{"android":"levelo://app?vid=c76d68d9-2c83-49cf-aa18-ff9dce30c25e","ios":"levelo://app?vid=c76d68d9-2c83-49cf-aa18-ff9dce30c25e"},"vehicle_type_id":"4","last_reported":1701835767,"current_range_meters":29200,"station_id":"ce4bgt92rcd13ifvqcf0","pricing_plan_id":"free"},{"bike_id":"96a50488-726c-45cc-b484-a5022842dac2","system_id":"levelo_inurba_marseille","lat":43.313571,"lon":5.384829,"is_reserved":false,"is_disabled":false,"rental_uris":{"android":"levelo://app?vid=96a50488-726c-45cc-b484-a5022842dac2","ios":"levelo://app?vid=96a50488-726c-45cc-b484-a5022842dac2"},"vehicle_type_id":"4","last_reported":1701835767,"current_range_meters":31200,"station_id":"ce4bgt92rcd13ifvqcf0","pricing_plan_id":"free"},{"bike_id":"6e607b17-1217-44c5-8f8a-73f5ac3b1d18","system_id":"levelo_inurba_marseille","lat":43.299222,"lon":5.365554,"is_reserved":false,"is_disabled":false,"rental_uris":{"android":"levelo://app?vid=6e607b17-1217-44c5-8f8a-73f5ac3b1d18","ios":"levelo://app?vid=6e607b17-1217-44c5-8f8a-73f5ac3b1d18"},"vehicle_type_id":"4","last_reported":1701835767,"current_range_meters":3600,"station_id":"ce4bgm92rcd13ifvqbr0","pricing_plan_id":"free"},{"bike_id":"94b23fb3-6741-4fcc-8be8-5559c7ab90df","system_id":"levelo_inurba_marseille","lat":43.305364,"lon":5.384119,"is_reserved":false,"is_disabled":false,"rental_uris":{"android":"levelo://app?vid=94b23fb3-6741-4fcc-8be8-5559c7ab90df","ios":"levelo://app?vid=94b23fb3-6741-4fcc-8be8-5559c7ab90df"},"vehicle_type_id":"4","last_reported":1701835767,"current_range_meters":28000,"station_id":"ce4bgg92rcd13ifvqb30","pricing_plan_id":"free"},{"bike_id":"1b950a42-d251-46e5-bab1-0206f892f762","system_id":"levelo_inurba_marseille","lat":43.305364,"lon":5.384119,"is_reserved":false,"is_disabled":false,"rental_uris":{"android":"levelo://app?vid=1b950a42-d251-46e5-bab1-0206f892f762","ios":"levelo://app?vid=1b950a42-d251-46e5-bab1-0206f892f762"},"vehicle_type_id":"4","last_reported":1701835767,"current_range_meters":26400,"station_id":"ce4bgg92rcd13ifvqb30","pricing_plan_id":"free"},{"bike_id":"869fc477-4ccb-4082-b86d-2a7638b46878","system_id":"levelo_inurba_marseille","lat":43.311722,"lon":5.387247,"is_reserved":false,"is_disabled":false,"rental_uris":{"android":"levelo://app?vid=869fc477-4ccb-4082-b86d-2a7638b46878","ios":"levelo://app?vid=869fc477-4ccb-4082-b86d-2a7638b46878"},"vehicle_type_id":"4","last_reported":1701835767,"current_range_meters":20400,"station_id":"ce4bgv12rcd13ifvqcp0","pricing_plan_id":"free"},{"bike_id":"fd63a46c-d208-4d0a-a7c0-bddb47d8b313","system_id":"levelo_inurba_marseille","lat":43.311722,"lon":5.387247,"is_reserved":false,"is_disabled":false,"rental_uris":{"android":"levelo://app?vid=fd63a46c-d208-4d0a-a7c0-bddb47d8b313","ios":"levelo://app?vid=fd63a46c-d208-4d0a-a7c0-bddb47d8b313"},"vehicle_type_id":"4","last_reported":1701835767,"current_range_meters":20000,"station_id":"ce4bgv12rcd13ifvqcp0","pricing_plan_id":"free"},{"bike_id":"826d4cd9-9206-4dc1-be62-b3f38580d984","system_id":"levelo_inurba_marseille","lat":43.311722,"lon":5.387247,"is_reserved":false,"is_disabled":false,"rental_uris":{"android":"levelo://app?vid=826d4cd9-9206-4dc1-be62-b3f38580d984","ios":"levelo://app?vid=826d4cd9-9206-4dc1-be62-b3f38580d984"},"vehicle_type_id":"4","last_reported":1701835767,"current_range_meters":12400,"station_id":"ce4bgv12rcd13ifvqcp0","pricing_plan_id":"free"},{"bike_id":"2e76f4ec-4c49-4885-84df-273462419ffe","system_id":"levelo_inurba_marseille","lat":43.311722,"lon":5.387247,"is_reserved":false,"is_disabled":false,"rental_uris":{"android":"levelo://app?vid=2e76f4ec-4c49-4885-84df-273462419ffe","ios":"levelo://app?vid=2e76f4ec-4c49-4885-84df-273462419ffe"},"vehicle_type_id":"4","last_reported":1701835767,"current_range_meters":14000,"station_id":"ce4bgv12rcd13ifvqcp0","pricing_plan_id":"free"},{"bike_id":"b07e9eb8-9f3c-4333-9dcc-1fdd05ca7509","system_id":"levelo_inurba_marseille","lat":43.311734,"lon":5.387153,"is_reserved":false,"is_disabled":false,"rental_uris":{"android":"levelo://app?vid=b07e9eb8-9f3c-4333-9dcc-1fdd05ca7509","ios":"levelo://app?vid=b07e9eb8-9f3c-4333-9dcc-1fdd05ca7509"},"vehicle_type_id":"4","last_reported":1701835767,"current_range_meters":14800,"station_id":"ce4bgv12rcd13ifvqcp0","pricing_plan_id":"free"},{"bike_id":"7d8005c6-46e4-426f-b718-71bb16b59421","system_id":"levelo_inurba_marseille","lat":43.311722,"lon":5.387247,"is_reserved":false,"is_disabled":false,"rental_uris":{"android":"levelo://app?vid=7d8005c6-46e4-426f-b718-71bb16b59421","ios":"levelo://app?vid=7d8005c6-46e4-426f-b718-71bb16b59421"},"vehicle_type_id":"4","last_reported":1701835767,"current_range_meters":28800,"station_id":"ce4bgv12rcd13ifvqcp0","pricing_plan_id":"free"},{"bike_id":"c591e47b-b453-49bb-8a54-18d732d15761","system_id":"levelo_inurba_marseille","lat":43.311722,"lon":5.387247,"is_reserved":false,"is_disabled":false,"rental_uris":{"android":"levelo://app?vid=c591e47b-b453-49bb-8a54-18d732d15761","ios":"levelo://app?vid=c591e47b-b453-49bb-8a54-18d732d15761"},"vehicle_type_id":"4","last_reported":1701835767,"current_range_meters":25200,"station_id":"ce4bgv12rcd13ifvqcp0","pricing_plan_id":"free"},{"bike_id":"aad58048-f6a6-4bb8-821b-c8052eedd25e","system_id":"levelo_inurba_marseille","lat":43.297774,"lon":5.370875,"is_reserved":false,"is_disabled":false,"rental_uris":{"android":"levelo://app?vid=aad58048-f6a6-4bb8-821b-c8052eedd25e","ios":"levelo://app?vid=aad58048-f6a6-4bb8-821b-c8052eedd25e"},"vehicle_type_id":"4","last_reported":1701835767,"current_range_meters":24800,"station_id":"ce4bgop2rcd13ifvqc1g","pricing_plan_id":"free"},{"bike_id":"418fa6b8-286b-4406-a3c5-78158423d81c","system_id":"levelo_inurba_marseille","lat":43.322872,"lon":5.382756,"is_reserved":false,"is_disabled":false,"rental_uris":{"android":"levelo://app?vid=418fa6b8-286b-4406-a3c5-78158423d81c","ios":"levelo://app?vid=418fa6b8-286b-4406-a3c5-78158423d81c"},"vehicle_type_id":"4","last_reported":1701835767,"current_range_meters":25200,"station_id":"ce4bhr12rcd13ifvqhqg","pricing_plan_id":"free"},{"bike_id":"3611eab9-ed88-408f-b94d-b09812a4463e","system_id":"levelo_inurba_marseille","lat":43.322872,"lon":5.382756,"is_reserved":false,"is_disabled":false,"rental_uris":{"android":"levelo://app?vid=3611eab9-ed88-408f-b94d-b09812a4463e","ios":"levelo://app?vid=3611eab9-ed88-408f-b94d-b09812a4463e"},"vehicle_type_id":"4","last_reported":1701835767,"current_range_meters":26400,"station_id":"ce4bhr12rcd13ifvqhqg","pricing_plan_id":"free"},{"bike_id":"b4879a0b-f87c-476b-ba9f-57011b8686d8","system_id":"levelo_inurba_marseille","lat":43.298218,"lon":5.374416,"is_reserved":false,"is_disabled":false,"rental_uris":{"android":"levelo://app?vid=b4879a0b-f87c-476b-ba9f-57011b8686d8","ios":"levelo://app?vid=b4879a0b-f87c-476b-ba9f-57011b8686d8"},"vehicle_type_id":"4","last_reported":1701835767,"current_range_meters":15200,"station_id":"","pricing_plan_id":"free"},{"bike_id":"d750d82e-395a-4902-8872-a62e0d37e6ef","system_id":"levelo_inurba_marseille","lat":43.3283,"lon":5.36682,"is_reserved":false,"is_disabled":false,"rental_uris":{"android":"levelo://app?vid=d750d82e-395a-4902-8872-a62e0d37e6ef","ios":"levelo://app?vid=d750d82e-395a-4902-8872-a62e0d37e6ef"},"vehicle_type_id":"4","last_reported":1701835767,"current_range_meters":24400,"station_id":"ce4bhs92rcd13ifvqi0g","pricing_plan_id":"free"},{"bike_id":"73c23a8d-2837-446e-83fd-663e18a9fad1","system_id":"levelo_inurba_marseille","lat":43.328371,"lon":5.366909,"is_reserved":false,"is_disabled":false,"rental_uris":{"android":"levelo://app?vid=73c23a8d-2837-446e-83fd-663e18a9fad1","ios":"levelo://app?vid=73c23a8d-2837-446e-83fd-663e18a9fad1"},"vehicle_type_id":"4","last_reported":1701835767,"current_range_meters":31200,"station_id":"ce4bhs92rcd13ifvqi0g","pricing_plan_id":"free"},{"bike_id":"8146f9b5-b15a-4a68-934b-8d7fdd7ab4e5","system_id":"levelo_inurba_marseille","lat":43.316044,"lon":5.387849,"is_reserved":false,"is_disabled":false,"rental_uris":{"android":"levelo://app?vid=8146f9b5-b15a-4a68-934b-8d7fdd7ab4e5","ios":"levelo://app?vid=8146f9b5-b15a-4a68-934b-8d7fdd7ab4e5"},"vehicle_type_id":"4","last_reported":1701835767,"current_range_meters":19200,"station_id":"","pricing_plan_id":"free"},{"bike_id":"fad051df-9150-4866-a68e-71dc1b88d26f","system_id":"levelo_inurba_marseille","lat":43.316538,"lon":5.38954,"is_reserved":false,"is_disabled":false,"rental_uris":{"android":"levelo://app?vid=fad051df-9150-4866-a68e-71dc1b88d26f","ios":"levelo://app?vid=fad051df-9150-4866-a68e-71dc1b88d26f"},"vehicle_type_id":"4","last_reported":1701835767,"current_range_meters":10800,"station_id":"","pricing_plan_id":"free"},{"bike_id":"6858f45b-9fe2-4619-93f5-3a86f5d457b9","system_id":"levelo_inurba_marseille","lat":43.30976,"lon":5.39025,"is_reserved":false,"is_disabled":false,"rental_uris":{"android":"levelo://app?vid=6858f45b-9fe2-4619-93f5-3a86f5d457b9","ios":"levelo://app?vid=6858f45b-9fe2-4619-93f5-3a86f5d457b9"},"vehicle_type_id":"4","last_reported":1701835767,"current_range_meters":31200,"station_id":"ce4bgup2rcd13ifvqco0","pricing_plan_id":"free"},{"bike_id":"6b06cc57-06d6-4dc8-94d3-2a3dbdb86d2d","system_id":"levelo_inurba_marseille","lat":43.317551,"lon":5.390034,"is_reserved":false,"is_disabled":false,"rental_uris":{"android":"levelo://app?vid=6b06cc57-06d6-4dc8-94d3-2a3dbdb86d2d","ios":"levelo://app?vid=6b06cc57-06d6-4dc8-94d3-2a3dbdb86d2d"},"vehicle_type_id":"4","last_reported":1701835767,"current_range_meters":26000,"station_id":"ce4bhqp2rcd13ifvqhng","pricing_plan_id":"free"},{"bike_id":"5042a46e-8b93-4018-8fdd-4a48bc3c8436","system_id":"levelo_inurba_marseille","lat":43.317557,"lon":5.390173,"is_reserved":false,"is_disabled":false,"rental_uris":{"android":"levelo://app?vid=5042a46e-8b93-4018-8fdd-4a48bc3c8436","ios":"levelo://app?vid=5042a46e-8b93-4018-8fdd-4a48bc3c8436"},"vehicle_type_id":"4","last_reported":1701835767,"current_range_meters":23600,"station_id":"ce4bhqp2rcd13ifvqhng","pricing_plan_id":"free"},{"bike_id":"4a7d648e-4869-45ed-9885-42883cc8e914","system_id":"levelo_inurba_marseille","lat":43.317557,"lon":5.390173,"is_reserved":false,"is_disabled":false,"rental_uris":{"android":"levelo://app?vid=4a7d648e-4869-45ed-9885-42883cc8e914","ios":"levelo://app?vid=4a7d648e-4869-45ed-9885-42883cc8e914"},"vehicle_type_id":"4","last_reported":1701835767,"current_range_meters":30400,"station_id":"ce4bhqp2rcd13ifvqhng","pricing_plan_id":"free"},{"bike_id":"901ad813-d661-4663-aa13-7d18a5f786a4","system_id":"levelo_inurba_marseille","lat":43.304274,"lon":5.388873,"is_reserved":false,"is_disabled":false,"rental_uris":{"android":"levelo://app?vid=901ad813-d661-4663-aa13-7d18a5f786a4","ios":"levelo://app?vid=901ad813-d661-4663-aa13-7d18a5f786a4"},"vehicle_type_id":"4","last_reported":1701835767,"current_range_meters":31600,"station_id":"ce4bgk12rcd13ifvqbi0","pricing_plan_id":"free"},{"bike_id":"4e9bf7c3-34f1-467d-a2b8-bfeadbb8845c","system_id":"levelo_inurba_marseille","lat":43.299717,"lon":5.384845,"is_reserved":false,"is_disabled":false,"rental_uris":{"android":"levelo://app?vid=4e9bf7c3-34f1-467d-a2b8-bfeadbb8845c","ios":"levelo://app?vid=4e9bf7c3-34f1-467d-a2b8-bfeadbb8845c"},"vehicle_type_id":"4","last_reported":1701835767,"current_range_meters":26800,"station_id":"ce4bgj92rcd13ifvqbd0","pricing_plan_id":"free"},{"bike_id":"384c93a9-f8bf-40cb-af12-2ca71f5c33a6","system_id":"levelo_inurba_marseille","lat":43.299707,"lon":5.384859,"is_reserved":false,"is_disabled":false,"rental_uris":{"android":"levelo://app?vid=384c93a9-f8bf-40cb-af12-2ca71f5c33a6","ios":"levelo://app?vid=384c93a9-f8bf-40cb-af12-2ca71f5c33a6"},"vehicle_type_id":"4","last_reported":1701835767,"current_range_meters":30000,"station_id":"ce4bgj92rcd13ifvqbd0","pricing_plan_id":"free"},{"bike_id":"9d5c227b-237c-4d24-b447-b0ae03c9e099","system_id":"levelo_inurba_marseille","lat":43.32363,"lon":5.38876,"is_reserved":false,"is_disabled":false,"rental_uris":{"android":"levelo://app?vid=9d5c227b-237c-4d24-b447-b0ae03c9e099","ios":"levelo://app?vid=9d5c227b-237c-4d24-b447-b0ae03c9e099"},"vehicle_type_id":"4","last_reported":1701835767,"current_range_meters":24800,"station_id":"ce4bhqp2rcd13ifvqhog","pricing_plan_id":"free"},{"bike_id":"abe84497-fb17-455f-b511-71d1ec1fd3ce","system_id":"levelo_inurba_marseille","lat":43.32364,"lon":5.388804,"is_reserved":false,"is_disabled":false,"rental_uris":{"android":"levelo://app?vid=abe84497-fb17-455f-b511-71d1ec1fd3ce","ios":"levelo://app?vid=abe84497-fb17-455f-b511-71d1ec1fd3ce"},"vehicle_type_id":"4","last_reported":1701835767,"current_range_meters":6400,"station_id":"ce4bhqp2rcd13ifvqhog","pricing_plan_id":"free"},{"bike_id":"b8dd85b6-33db-497a-a812-3d411cc80858","system_id":"levelo_inurba_marseille","lat":43.32367,"lon":5.388836,"is_reserved":false,"is_disabled":false,"rental_uris":{"android":"levelo://app?vid=b8dd85b6-33db-497a-a812-3d411cc80858","ios":"levelo://app?vid=b8dd85b6-33db-497a-a812-3d411cc80858"},"vehicle_type_id":"4","last_reported":1701835767,"current_range_meters":15600,"station_id":"ce4bhqp2rcd13ifvqhog","pricing_plan_id":"free"},{"bike_id":"c3643ac2-cdd1-4bd1-99e6-62e33012d634","system_id":"levelo_inurba_marseille","lat":43.323661,"lon":5.388846,"is_reserved":false,"is_disabled":false,"rental_uris":{"android":"levelo://app?vid=c3643ac2-cdd1-4bd1-99e6-62e33012d634","ios":"levelo://app?vid=c3643ac2-cdd1-4bd1-99e6-62e33012d634"},"vehicle_type_id":"4","last_reported":1701835767,"current_range_meters":9200,"station_id":"ce4bhqp2rcd13ifvqhog","pricing_plan_id":"free"},{"bike_id":"07967f1e-00b3-4d63-8ab5-24c06e141a86","system_id":"levelo_inurba_marseille","lat":43.32363,"lon":5.38888,"is_reserved":false,"is_disabled":false,"rental_uris":{"android":"levelo://app?vid=07967f1e-00b3-4d63-8ab5-24c06e141a86","ios":"levelo://app?vid=07967f1e-00b3-4d63-8ab5-24c06e141a86"},"vehicle_type_id":"4","last_reported":1701835767,"current_range_meters":14400,"station_id":"ce4bhqp2rcd13ifvqhog","pricing_plan_id":"free"},{"bike_id":"4be98fa3-91c1-42d7-bd8d-e8b8bdab14e7","system_id":"levelo_inurba_marseille","lat":43.29601,"lon":5.381084,"is_reserved":false,"is_disabled":false,"rental_uris":{"android":"levelo://app?vid=4be98fa3-91c1-42d7-bd8d-e8b8bdab14e7","ios":"levelo://app?vid=4be98fa3-91c1-42d7-bd8d-e8b8bdab14e7"},"vehicle_type_id":"4","last_reported":1701835767,"current_range_meters":29200,"station_id":"ce4bgl12rcd13ifvqbo0","pricing_plan_id":"free"},{"bike_id":"18bd0a26-7f41-437e-a9d9-ab82bda9e277","system_id":"levelo_inurba_marseille","lat":43.292663,"lon":5.376394,"is_reserved":false,"is_disabled":false,"rental_uris":{"android":"levelo://app?vid=18bd0a26-7f41-437e-a9d9-ab82bda9e277","ios":"levelo://app?vid=18bd0a26-7f41-437e-a9d9-ab82bda9e277"},"vehicle_type_id":"4","last_reported":1701835767,"current_range_meters":30000,"station_id":"ce4bgi12rcd13ifvqb80","pricing_plan_id":"free"},{"bike_id":"18971369-6b11-4e82-ae2c-84f6c38e190c","system_id":"levelo_inurba_marseille","lat":43.29869,"lon":5.38904,"is_reserved":false,"is_disabled":false,"rental_uris":{"android":"levelo://app?vid=18971369-6b11-4e82-ae2c-84f6c38e190c","ios":"levelo://app?vid=18971369-6b11-4e82-ae2c-84f6c38e190c"},"vehicle_type_id":"4","last_reported":1701835767,"current_range_meters":19200,"station_id":"ce4bh392rcd13ifvqdl0","pricing_plan_id":"free"},{"bike_id":"fa455836-c2af-4213-90e8-a212bd4b1dc5","system_id":"levelo_inurba_marseille","lat":43.29873,"lon":5.38913,"is_reserved":false,"is_disabled":false,"rental_uris":{"android":"levelo://app?vid=fa455836-c2af-4213-90e8-a212bd4b1dc5","ios":"levelo://app?vid=fa455836-c2af-4213-90e8-a212bd4b1dc5"},"vehicle_type_id":"4","last_reported":1701835767,"current_range_meters":24400,"station_id":"ce4bh392rcd13ifvqdl0","pricing_plan_id":"free"},{"bike_id":"8fc2057a-f690-4630-9c17-98f66c2f4574","system_id":"levelo_inurba_marseille","lat":43.30893,"lon":5.39633,"is_reserved":false,"is_disabled":false,"rental_uris":{"android":"levelo://app?vid=8fc2057a-f690-4630-9c17-98f66c2f4574","ios":"levelo://app?vid=8fc2057a-f690-4630-9c17-98f66c2f4574"},"vehicle_type_id":"4","last_reported":1701835767,"current_range_meters":21600,"station_id":"ce4bh012rcd13ifvqcv0","pricing_plan_id":"free"},{"bike_id":"06b3a140-7ed3-41d7-bcf9-f39bf9ff5db0","system_id":"levelo_inurba_marseille","lat":43.308877,"lon":5.396381,"is_reserved":false,"is_disabled":false,"rental_uris":{"android":"levelo://app?vid=06b3a140-7ed3-41d7-bcf9-f39bf9ff5db0","ios":"levelo://app?vid=06b3a140-7ed3-41d7-bcf9-f39bf9ff5db0"},"vehicle_type_id":"4","last_reported":1701835767,"current_range_meters":29200,"station_id":"ce4bh012rcd13ifvqcv0","pricing_plan_id":"free"},{"bike_id":"98196808-4411-4bf1-9441-0003cee21794","system_id":"levelo_inurba_marseille","lat":43.30888,"lon":5.396387,"is_reserved":false,"is_disabled":false,"rental_uris":{"android":"levelo://app?vid=98196808-4411-4bf1-9441-0003cee21794","ios":"levelo://app?vid=98196808-4411-4bf1-9441-0003cee21794"},"vehicle_type_id":"4","last_reported":1701835767,"current_range_meters":19200,"station_id":"ce4bh012rcd13ifvqcv0","pricing_plan_id":"free"},{"bike_id":"75a44ea1-1ef9-41c7-b3df-689edf25d56f","system_id":"levelo_inurba_marseille","lat":43.308889,"lon":5.396415,"is_reserved":false,"is_disabled":false,"rental_uris":{"android":"levelo://app?vid=75a44ea1-1ef9-41c7-b3df-689edf25d56f","ios":"levelo://app?vid=75a44ea1-1ef9-41c7-b3df-689edf25d56f"},"vehicle_type_id":"4","last_reported":1701835767,"current_range_meters":31200,"station_id":"ce4bh012rcd13ifvqcv0","pricing_plan_id":"free"},{"bike_id":"8ce91b26-a046-42c6-8925-f25f5ce5a055","system_id":"levelo_inurba_marseille","lat":43.31329,"lon":5.3969,"is_reserved":false,"is_disabled":false,"rental_uris":{"android":"levelo://app?vid=8ce91b26-a046-42c6-8925-f25f5ce5a055","ios":"levelo://app?vid=8ce91b26-a046-42c6-8925-f25f5ce5a055"},"vehicle_type_id":"4","last_reported":1701835767,"current_range_meters":30000,"station_id":"ce4bgvp2rcd13ifvqcu0","pricing_plan_id":"free"},{"bike_id":"a2e9d989-58ac-448f-b34c-d1eae8e4d3cc","system_id":"levelo_inurba_marseille","lat":43.313265,"lon":5.396905,"is_reserved":false,"is_disabled":false,"rental_uris":{"android":"levelo://app?vid=a2e9d989-58ac-448f-b34c-d1eae8e4d3cc","ios":"levelo://app?vid=a2e9d989-58ac-448f-b34c-d1eae8e4d3cc"},"vehicle_type_id":"4","last_reported":1701835767,"current_range_meters":29200,"station_id":"ce4bgvp2rcd13ifvqcu0","pricing_plan_id":"free"},{"bike_id":"946b83b1-6594-4ba2-b0ee-6e46c88d93c7","system_id":"levelo_inurba_marseille","lat":43.30887,"lon":5.39647,"is_reserved":false,"is_disabled":false,"rental_uris":{"android":"levelo://app?vid=946b83b1-6594-4ba2-b0ee-6e46c88d93c7","ios":"levelo://app?vid=946b83b1-6594-4ba2-b0ee-6e46c88d93c7"},"vehicle_type_id":"4","last_reported":1701835767,"current_range_meters":30800,"station_id":"ce4bh012rcd13ifvqcv0","pricing_plan_id":"free"},{"bike_id":"a2fa8a4f-a779-4ca5-928d-1b20b88a0dfc","system_id":"levelo_inurba_marseille","lat":43.2919,"lon":5.3579,"is_reserved":false,"is_disabled":false,"rental_uris":{"android":"levelo://app?vid=a2fa8a4f-a779-4ca5-928d-1b20b88a0dfc","ios":"levelo://app?vid=a2fa8a4f-a779-4ca5-928d-1b20b88a0dfc"},"vehicle_type_id":"4","last_reported":1701835767,"current_range_meters":31200,"station_id":"ce4bhb12rcd13ifvqel0","pricing_plan_id":"free"},{"bike_id":"ffb926bb-ab7d-4119-918a-65388cc15d78","system_id":"levelo_inurba_marseille","lat":43.309038,"lon":5.396546,"is_reserved":false,"is_disabled":false,"rental_uris":{"android":"levelo://app?vid=ffb926bb-ab7d-4119-918a-65388cc15d78","ios":"levelo://app?vid=ffb926bb-ab7d-4119-918a-65388cc15d78"},"vehicle_type_id":"4","last_reported":1701835767,"current_range_meters":31600,"station_id":"ce4bh012rcd13ifvqcv0","pricing_plan_id":"free"},{"bike_id":"f287bc70-d05d-423d-9328-888c011300a7","system_id":"levelo_inurba_marseille","lat":43.313264,"lon":5.396995,"is_reserved":false,"is_disabled":false,"rental_uris":{"android":"levelo://app?vid=f287bc70-d05d-423d-9328-888c011300a7","ios":"levelo://app?vid=f287bc70-d05d-423d-9328-888c011300a7"},"vehicle_type_id":"4","last_reported":1701835767,"current_range_meters":28000,"station_id":"ce4bgvp2rcd13ifvqcu0","pricing_plan_id":"free"},{"bike_id":"cabc6523-fa00-4338-bf96-283b6ca588f4","system_id":"levelo_inurba_marseille","lat":43.30884,"lon":5.39653,"is_reserved":false,"is_disabled":false,"rental_uris":{"android":"levelo://app?vid=cabc6523-fa00-4338-bf96-283b6ca588f4","ios":"levelo://app?vid=cabc6523-fa00-4338-bf96-283b6ca588f4"},"vehicle_type_id":"4","last_reported":1701835767,"current_range_meters":17600,"station_id":"ce4bh012rcd13ifvqcv0","pricing_plan_id":"free"},{"bike_id":"5012c91d-c867-4793-8898-a6c41f607bed","system_id":"levelo_inurba_marseille","lat":43.309038,"lon":5.396546,"is_reserved":false,"is_disabled":false,"rental_uris":{"android":"levelo://app?vid=5012c91d-c867-4793-8898-a6c41f607bed","ios":"levelo://app?vid=5012c91d-c867-4793-8898-a6c41f607bed"},"vehicle_type_id":"4","last_reported":1701835767,"current_range_meters":23600,"station_id":"ce4bh012rcd13ifvqcv0","pricing_plan_id":"free"},{"bike_id":"71599a5d-f9b6-420b-b159-f44a613235cc","system_id":"levelo_inurba_marseille","lat":43.29038,"lon":5.37563,"is_reserved":false,"is_disabled":false,"rental_uris":{"android":"levelo://app?vid=71599a5d-f9b6-420b-b159-f44a613235cc","ios":"levelo://app?vid=71599a5d-f9b6-420b-b159-f44a613235cc"},"vehicle_type_id":"4","last_reported":1701835767,"current_range_meters":21600,"station_id":"ce4bh692rcd13ifvqe90","pricing_plan_id":"free"},{"bike_id":"e31b69c5-ee74-4505-81df-c414616afd91","system_id":"levelo_inurba_marseille","lat":43.289184,"lon":5.366408,"is_reserved":false,"is_disabled":false,"rental_uris":{"android":"levelo://app?vid=e31b69c5-ee74-4505-81df-c414616afd91","ios":"levelo://app?vid=e31b69c5-ee74-4505-81df-c414616afd91"},"vehicle_type_id":"4","last_reported":1701835767,"current_range_meters":17600,"station_id":"ce4bhap2rcd13ifvqek0","pricing_plan_id":"free"},{"bike_id":"f68e2c8b-de08-4ad7-b342-74483183b5be","system_id":"levelo_inurba_marseille","lat":43.33042,"lon":5.38932,"is_reserved":false,"is_disabled":false,"rental_uris":{"android":"levelo://app?vid=f68e2c8b-de08-4ad7-b342-74483183b5be","ios":"levelo://app?vid=f68e2c8b-de08-4ad7-b342-74483183b5be"},"vehicle_type_id":"4","last_reported":1701835767,"current_range_meters":29200,"station_id":"ce4bhr92rcd13ifvqhrg","pricing_plan_id":"free"},{"bike_id":"82cdb325-0ef5-4320-b58c-efac8c28cab7","system_id":"levelo_inurba_marseille","lat":43.2885,"lon":5.35869,"is_reserved":false,"is_disabled":false,"rental_uris":{"android":"levelo://app?vid=82cdb325-0ef5-4320-b58c-efac8c28cab7","ios":"levelo://app?vid=82cdb325-0ef5-4320-b58c-efac8c28cab7"},"vehicle_type_id":"4","last_reported":1701835767,"current_range_meters":10000,"station_id":"ce4bhb12rcd13ifvqem0","pricing_plan_id":"free"},{"bike_id":"8302aefd-687a-4f70-8241-409c6c229323","system_id":"levelo_inurba_marseille","lat":43.288491,"lon":5.358342,"is_reserved":false,"is_disabled":false,"rental_uris":{"android":"levelo://app?vid=8302aefd-687a-4f70-8241-409c6c229323","ios":"levelo://app?vid=8302aefd-687a-4f70-8241-409c6c229323"},"vehicle_type_id":"4","last_reported":1701835767,"current_range_meters":23200,"station_id":"ce4bhb12rcd13ifvqem0","pricing_plan_id":"free"},{"bike_id":"f18161a5-56d6-45dc-801e-ead4ab040d6e","system_id":"levelo_inurba_marseille","lat":43.309371,"lon":5.40141,"is_reserved":false,"is_disabled":false,"rental_uris":{"android":"levelo://app?vid=f18161a5-56d6-45dc-801e-ead4ab040d6e","ios":"levelo://app?vid=f18161a5-56d6-45dc-801e-ead4ab040d6e"},"vehicle_type_id":"4","last_reported":1701835767,"current_range_meters":22800,"station_id":"ce4bgvp2rcd13ifvqct0","pricing_plan_id":"free"},{"bike_id":"a01a8d62-3f82-430f-8cbf-bf5e5048b82c","system_id":"levelo_inurba_marseille","lat":43.33747,"lon":5.37448,"is_reserved":false,"is_disabled":false,"rental_uris":{"android":"levelo://app?vid=a01a8d62-3f82-430f-8cbf-bf5e5048b82c","ios":"levelo://app?vid=a01a8d62-3f82-430f-8cbf-bf5e5048b82c"},"vehicle_type_id":"4","last_reported":1701835767,"current_range_meters":24000,"station_id":"","pricing_plan_id":"free"},{"bike_id":"531aa634-f6a7-44f6-a1f0-55fb96a3e4d4","system_id":"levelo_inurba_marseille","lat":43.30939,"lon":5.40145,"is_reserved":false,"is_disabled":false,"rental_uris":{"android":"levelo://app?vid=531aa634-f6a7-44f6-a1f0-55fb96a3e4d4","ios":"levelo://app?vid=531aa634-f6a7-44f6-a1f0-55fb96a3e4d4"},"vehicle_type_id":"4","last_reported":1701835767,"current_range_meters":20000,"station_id":"ce4bgvp2rcd13ifvqct0","pricing_plan_id":"free"},{"bike_id":"1fe99cf3-0500-4767-8fa7-0ca5b9e65ba2","system_id":"levelo_inurba_marseille","lat":43.306412,"lon":5.401035,"is_reserved":false,"is_disabled":false,"rental_uris":{"android":"levelo://app?vid=1fe99cf3-0500-4767-8fa7-0ca5b9e65ba2","ios":"levelo://app?vid=1fe99cf3-0500-4767-8fa7-0ca5b9e65ba2"},"vehicle_type_id":"4","last_reported":1701835767,"current_range_meters":22400,"station_id":"ce4bh112rcd13ifvqda0","pricing_plan_id":"free"},{"bike_id":"dc8a7487-5d8c-4b9a-b199-dd6d36dc7383","system_id":"levelo_inurba_marseille","lat":43.306412,"lon":5.401035,"is_reserved":false,"is_disabled":false,"rental_uris":{"android":"levelo://app?vid=dc8a7487-5d8c-4b9a-b199-dd6d36dc7383","ios":"levelo://app?vid=dc8a7487-5d8c-4b9a-b199-dd6d36dc7383"},"vehicle_type_id":"4","last_reported":1701835767,"current_range_meters":22000,"station_id":"ce4bh112rcd13ifvqda0","pricing_plan_id":"free"},{"bike_id":"b1da507f-59bc-4bfa-9de7-dd18b0d37739","system_id":"levelo_inurba_marseille","lat":43.337515,"lon":5.374499,"is_reserved":false,"is_disabled":false,"rental_uris":{"android":"levelo://app?vid=b1da507f-59bc-4bfa-9de7-dd18b0d37739","ios":"levelo://app?vid=b1da507f-59bc-4bfa-9de7-dd18b0d37739"},"vehicle_type_id":"4","last_reported":1701835767,"current_range_meters":31200,"station_id":"","pricing_plan_id":"free"},{"bike_id":"61e94894-252e-4e6e-9735-b09eceabfad5","system_id":"levelo_inurba_marseille","lat":43.337466,"lon":5.374806,"is_reserved":false,"is_disabled":false,"rental_uris":{"android":"levelo://app?vid=61e94894-252e-4e6e-9735-b09eceabfad5","ios":"levelo://app?vid=61e94894-252e-4e6e-9735-b09eceabfad5"},"vehicle_type_id":"4","last_reported":1701835767,"current_range_meters":31200,"station_id":"","pricing_plan_id":"free"},{"bike_id":"2c27349c-a08e-4864-afc6-9e12897c0efb","system_id":"levelo_inurba_marseille","lat":43.309371,"lon":5.401449,"is_reserved":false,"is_disabled":false,"rental_uris":{"android":"levelo://app?vid=2c27349c-a08e-4864-afc6-9e12897c0efb","ios":"levelo://app?vid=2c27349c-a08e-4864-afc6-9e12897c0efb"},"vehicle_type_id":"4","last_reported":1701835767,"current_range_meters":800,"station_id":"ce4bgvp2rcd13ifvqct0","pricing_plan_id":"free"},{"bike_id":"24191eff-c9ff-4bd4-9603-3311aa7dbd0d","system_id":"levelo_inurba_marseille","lat":43.306412,"lon":5.401035,"is_reserved":false,"is_disabled":false,"rental_uris":{"android":"levelo://app?vid=24191eff-c9ff-4bd4-9603-3311aa7dbd0d","ios":"levelo://app?vid=24191eff-c9ff-4bd4-9603-3311aa7dbd0d"},"vehicle_type_id":"4","last_reported":1701835767,"current_range_meters":23600,"station_id":"ce4bh112rcd13ifvqda0","pricing_plan_id":"free"},{"bike_id":"de139938-7635-4fb2-95a5-c12f2450bafb","system_id":"levelo_inurba_marseille","lat":43.309371,"lon":5.401449,"is_reserved":false,"is_disabled":false,"rental_uris":{"android":"levelo://app?vid=de139938-7635-4fb2-95a5-c12f2450bafb","ios":"levelo://app?vid=de139938-7635-4fb2-95a5-c12f2450bafb"},"vehicle_type_id":"4","last_reported":1701835767,"current_range_meters":8400,"station_id":"ce4bgvp2rcd13ifvqct0","pricing_plan_id":"free"},{"bike_id":"298a6d4b-b828-4564-a38b-d597d0316a14","system_id":"levelo_inurba_marseille","lat":43.30642,"lon":5.401031,"is_reserved":false,"is_disabled":false,"rental_uris":{"android":"levelo://app?vid=298a6d4b-b828-4564-a38b-d597d0316a14","ios":"levelo://app?vid=298a6d4b-b828-4564-a38b-d597d0316a14"},"vehicle_type_id":"4","last_reported":1701835767,"current_range_meters":27200,"station_id":"ce4bh112rcd13ifvqda0","pricing_plan_id":"free"},{"bike_id":"053e96a7-e398-4a99-ae07-b85253a3d4c4","system_id":"levelo_inurba_marseille","lat":43.306412,"lon":5.401035,"is_reserved":false,"is_disabled":false,"rental_uris":{"android":"levelo://app?vid=053e96a7-e398-4a99-ae07-b85253a3d4c4","ios":"levelo://app?vid=053e96a7-e398-4a99-ae07-b85253a3d4c4"},"vehicle_type_id":"4","last_reported":1701835767,"current_range_meters":4400,"station_id":"ce4bh112rcd13ifvqda0","pricing_plan_id":"free"},{"bike_id":"2fbea006-0d22-445c-bfc1-d379dcddc1c1","system_id":"levelo_inurba_marseille","lat":43.33757,"lon":5.37461,"is_reserved":false,"is_disabled":false,"rental_uris":{"android":"levelo://app?vid=2fbea006-0d22-445c-bfc1-d379dcddc1c1","ios":"levelo://app?vid=2fbea006-0d22-445c-bfc1-d379dcddc1c1"},"vehicle_type_id":"4","last_reported":1701835767,"current_range_meters":26000,"station_id":"","pricing_plan_id":"free"},{"bike_id":"f0464f50-e84c-41e8-8839-9b31e220379c","system_id":"levelo_inurba_marseille","lat":43.337638,"lon":5.374853,"is_reserved":false,"is_disabled":false,"rental_uris":{"android":"levelo://app?vid=f0464f50-e84c-41e8-8839-9b31e220379c","ios":"levelo://app?vid=f0464f50-e84c-41e8-8839-9b31e220379c"},"vehicle_type_id":"4","last_reported":1701835767,"current_range_meters":31200,"station_id":"","pricing_plan_id":"free"},{"bike_id":"94559e2c-f22c-4ac5-af24-05076ed30144","system_id":"levelo_inurba_marseille","lat":43.337743,"lon":5.374364,"is_reserved":false,"is_disabled":false,"rental_uris":{"android":"levelo://app?vid=94559e2c-f22c-4ac5-af24-05076ed30144","ios":"levelo://app?vid=94559e2c-f22c-4ac5-af24-05076ed30144"},"vehicle_type_id":"4","last_reported":1701835767,"current_range_meters":28000,"station_id":"","pricing_plan_id":"free"},{"bike_id":"9a1e2a86-2307-443e-8986-35b02223d9a7","system_id":"levelo_inurba_marseille","lat":43.337659,"lon":5.374914,"is_reserved":false,"is_disabled":false,"rental_uris":{"android":"levelo://app?vid=9a1e2a86-2307-443e-8986-35b02223d9a7","ios":"levelo://app?vid=9a1e2a86-2307-443e-8986-35b02223d9a7"},"vehicle_type_id":"4","last_reported":1701835767,"current_range_meters":26400,"station_id":"","pricing_plan_id":"free"},{"bike_id":"7219e02c-5e23-48ee-8dc7-5a2658fa9e15","system_id":"levelo_inurba_marseille","lat":43.337691,"lon":5.374756,"is_reserved":false,"is_disabled":false,"rental_uris":{"android":"levelo://app?vid=7219e02c-5e23-48ee-8dc7-5a2658fa9e15","ios":"levelo://app?vid=7219e02c-5e23-48ee-8dc7-5a2658fa9e15"},"vehicle_type_id":"4","last_reported":1701835767,"current_range_meters":400,"station_id":"","pricing_plan_id":"free"},{"bike_id":"3dac0827-ce72-4b0a-8dc1-8e13ba446dd9","system_id":"levelo_inurba_marseille","lat":43.301117,"lon":5.398795,"is_reserved":false,"is_disabled":false,"rental_uris":{"android":"levelo://app?vid=3dac0827-ce72-4b0a-8dc1-8e13ba446dd9","ios":"levelo://app?vid=3dac0827-ce72-4b0a-8dc1-8e13ba446dd9"},"vehicle_type_id":"4","last_reported":1701835767,"current_range_meters":26800,"station_id":"ce4bh0h2rcd13ifvqd40","pricing_plan_id":"free"},{"bike_id":"b1c44fb3-b780-4346-9631-da6afb4f789a","system_id":"levelo_inurba_marseille","lat":43.28727,"lon":5.36078,"is_reserved":false,"is_disabled":false,"rental_uris":{"android":"levelo://app?vid=b1c44fb3-b780-4346-9631-da6afb4f789a","ios":"levelo://app?vid=b1c44fb3-b780-4346-9631-da6afb4f789a"},"vehicle_type_id":"4","last_reported":1701835767,"current_range_meters":28800,"station_id":"cki0cbj6b192h4jlfktg","pricing_plan_id":"free"},{"bike_id":"9b501635-88a4-472d-8ffa-8ee0f6c887d4","system_id":"levelo_inurba_marseille","lat":43.28727,"lon":5.36078,"is_reserved":false,"is_disabled":false,"rental_uris":{"android":"levelo://app?vid=9b501635-88a4-472d-8ffa-8ee0f6c887d4","ios":"levelo://app?vid=9b501635-88a4-472d-8ffa-8ee0f6c887d4"},"vehicle_type_id":"4","last_reported":1701835767,"current_range_meters":22400,"station_id":"cki0cbj6b192h4jlfktg","pricing_plan_id":"free"},{"bike_id":"3bc4e755-50b2-4f94-97bc-8e003e63d446","system_id":"levelo_inurba_marseille","lat":43.28727,"lon":5.36078,"is_reserved":false,"is_disabled":false,"rental_uris":{"android":"levelo://app?vid=3bc4e755-50b2-4f94-97bc-8e003e63d446","ios":"levelo://app?vid=3bc4e755-50b2-4f94-97bc-8e003e63d446"},"vehicle_type_id":"4","last_reported":1701835767,"current_range_meters":30000,"station_id":"cki0cbj6b192h4jlfktg","pricing_plan_id":"free"},{"bike_id":"05b9f037-9b98-4f3e-b7f5-f037052989da","system_id":"levelo_inurba_marseille","lat":43.28724,"lon":5.36086,"is_reserved":false,"is_disabled":false,"rental_uris":{"android":"levelo://app?vid=05b9f037-9b98-4f3e-b7f5-f037052989da","ios":"levelo://app?vid=05b9f037-9b98-4f3e-b7f5-f037052989da"},"vehicle_type_id":"4","last_reported":1701835767,"current_range_meters":18400,"station_id":"cki0cbj6b192h4jlfktg","pricing_plan_id":"free"},{"bike_id":"9c861999-47ed-40f5-ab0c-4689b8b8b5e6","system_id":"levelo_inurba_marseille","lat":43.28723,"lon":5.36091,"is_reserved":false,"is_disabled":false,"rental_uris":{"android":"levelo://app?vid=9c861999-47ed-40f5-ab0c-4689b8b8b5e6","ios":"levelo://app?vid=9c861999-47ed-40f5-ab0c-4689b8b8b5e6"},"vehicle_type_id":"4","last_reported":1701835767,"current_range_meters":10800,"station_id":"cki0cbj6b192h4jlfktg","pricing_plan_id":"free"},{"bike_id":"1658dd3b-9f05-49bc-82a4-60882e063b01","system_id":"levelo_inurba_marseille","lat":43.28727,"lon":5.36078,"is_reserved":false,"is_disabled":false,"rental_uris":{"android":"levelo://app?vid=1658dd3b-9f05-49bc-82a4-60882e063b01","ios":"levelo://app?vid=1658dd3b-9f05-49bc-82a4-60882e063b01"},"vehicle_type_id":"4","last_reported":1701835767,"current_range_meters":22400,"station_id":"cki0cbj6b192h4jlfktg","pricing_plan_id":"free"},{"bike_id":"a71dbc1b-d212-48d8-9ab5-75edcba29853","system_id":"levelo_inurba_marseille","lat":43.28718,"lon":5.360815,"is_reserved":false,"is_disabled":false,"rental_uris":{"android":"levelo://app?vid=a71dbc1b-d212-48d8-9ab5-75edcba29853","ios":"levelo://app?vid=a71dbc1b-d212-48d8-9ab5-75edcba29853"},"vehicle_type_id":"4","last_reported":1701835767,"current_range_meters":17600,"station_id":"cki0cbj6b192h4jlfktg","pricing_plan_id":"free"},{"bike_id":"322b6931-0027-409c-a27e-233f8bb64e3f","system_id":"levelo_inurba_marseille","lat":43.298681,"lon":5.397225,"is_reserved":false,"is_disabled":false,"rental_uris":{"android":"levelo://app?vid=322b6931-0027-409c-a27e-233f8bb64e3f","ios":"levelo://app?vid=322b6931-0027-409c-a27e-233f8bb64e3f"},"vehicle_type_id":"4","last_reported":1701835767,"current_range_meters":29600,"station_id":"ce4bh0h2rcd13ifvqd50","pricing_plan_id":"free"},{"bike_id":"235ea772-999e-4135-b664-a90b9a3c6d74","system_id":"levelo_inurba_marseille","lat":43.287061,"lon":5.373839,"is_reserved":false,"is_disabled":false,"rental_uris":{"android":"levelo://app?vid=235ea772-999e-4135-b664-a90b9a3c6d74","ios":"levelo://app?vid=235ea772-999e-4135-b664-a90b9a3c6d74"},"vehicle_type_id":"4","last_reported":1701835767,"current_range_meters":30400,"station_id":"ce4bh3p2rcd13ifvqdq0","pricing_plan_id":"free"},{"bike_id":"fd1307ec-f816-4c49-ace4-f060394290ad","system_id":"levelo_inurba_marseille","lat":43.298681,"lon":5.397225,"is_reserved":false,"is_disabled":false,"rental_uris":{"android":"levelo://app?vid=fd1307ec-f816-4c49-ace4-f060394290ad","ios":"levelo://app?vid=fd1307ec-f816-4c49-ace4-f060394290ad"},"vehicle_type_id":"4","last_reported":1701835767,"current_range_meters":26000,"station_id":"ce4bh0h2rcd13ifvqd50","pricing_plan_id":"free"},{"bike_id":"2f873562-1c11-432d-bd22-a4c73abe85da","system_id":"levelo_inurba_marseille","lat":43.286997,"lon":5.373834,"is_reserved":false,"is_disabled":false,"rental_uris":{"android":"levelo://app?vid=2f873562-1c11-432d-bd22-a4c73abe85da","ios":"levelo://app?vid=2f873562-1c11-432d-bd22-a4c73abe85da"},"vehicle_type_id":"4","last_reported":1701835767,"current_range_meters":30800,"station_id":"ce4bh3p2rcd13ifvqdq0","pricing_plan_id":"free"},{"bike_id":"1fbd3ca7-eb6e-41e3-85f0-c65b53cd56fd","system_id":"levelo_inurba_marseille","lat":43.286591,"lon":5.363346,"is_reserved":false,"is_disabled":false,"rental_uris":{"android":"levelo://app?vid=1fbd3ca7-eb6e-41e3-85f0-c65b53cd56fd","ios":"levelo://app?vid=1fbd3ca7-eb6e-41e3-85f0-c65b53cd56fd"},"vehicle_type_id":"4","last_reported":1701835767,"current_range_meters":29600,"station_id":"ce4bhah2rcd13ifvqej0","pricing_plan_id":"free"},{"bike_id":"c224fc14-4e9d-4e65-83ec-0217f0626955","system_id":"levelo_inurba_marseille","lat":43.298681,"lon":5.397225,"is_reserved":false,"is_disabled":false,"rental_uris":{"android":"levelo://app?vid=c224fc14-4e9d-4e65-83ec-0217f0626955","ios":"levelo://app?vid=c224fc14-4e9d-4e65-83ec-0217f0626955"},"vehicle_type_id":"4","last_reported":1701835767,"current_range_meters":26000,"station_id":"ce4bh0h2rcd13ifvqd50","pricing_plan_id":"free"},{"bike_id":"18224889-e510-42e5-8c24-808d97ccaf59","system_id":"levelo_inurba_marseille","lat":43.28694,"lon":5.37392,"is_reserved":false,"is_disabled":false,"rental_uris":{"android":"levelo://app?vid=18224889-e510-42e5-8c24-808d97ccaf59","ios":"levelo://app?vid=18224889-e510-42e5-8c24-808d97ccaf59"},"vehicle_type_id":"4","last_reported":1701835767,"current_range_meters":31200,"station_id":"ce4bh3p2rcd13ifvqdq0","pricing_plan_id":"free"},{"bike_id":"c1e27a33-181e-4a5d-8f16-b8e469d2e9ab","system_id":"levelo_inurba_marseille","lat":43.28691,"lon":5.374014,"is_reserved":false,"is_disabled":false,"rental_uris":{"android":"levelo://app?vid=c1e27a33-181e-4a5d-8f16-b8e469d2e9ab","ios":"levelo://app?vid=c1e27a33-181e-4a5d-8f16-b8e469d2e9ab"},"vehicle_type_id":"4","last_reported":1701835767,"current_range_meters":21200,"station_id":"ce4bh3p2rcd13ifvqdq0","pricing_plan_id":"free"},{"bike_id":"e187374f-ce3a-483d-8cab-92903ca67cb1","system_id":"levelo_inurba_marseille","lat":43.302759,"lon":5.400793,"is_reserved":false,"is_disabled":false,"rental_uris":{"android":"levelo://app?vid=e187374f-ce3a-483d-8cab-92903ca67cb1","ios":"levelo://app?vid=e187374f-ce3a-483d-8cab-92903ca67cb1"},"vehicle_type_id":"4","last_reported":1701835767,"current_range_meters":30400,"station_id":"ce4bgvh2rcd13ifvqcs0","pricing_plan_id":"free"},{"bike_id":"760459c5-eb15-4675-9664-44539431afac","system_id":"levelo_inurba_marseille","lat":43.316517,"lon":5.404375,"is_reserved":false,"is_disabled":false,"rental_uris":{"android":"levelo://app?vid=760459c5-eb15-4675-9664-44539431afac","ios":"levelo://app?vid=760459c5-eb15-4675-9664-44539431afac"},"vehicle_type_id":"4","last_reported":1701835767,"current_range_meters":30800,"station_id":"ce4bh012rcd13ifvqd00","pricing_plan_id":"free"},{"bike_id":"f56f8be2-ebde-4d23-8461-f7a6797dcf91","system_id":"levelo_inurba_marseille","lat":43.284538,"lon":5.358657,"is_reserved":false,"is_disabled":false,"rental_uris":{"android":"levelo://app?vid=f56f8be2-ebde-4d23-8461-f7a6797dcf91","ios":"levelo://app?vid=f56f8be2-ebde-4d23-8461-f7a6797dcf91"},"vehicle_type_id":"4","last_reported":1701835767,"current_range_meters":31600,"station_id":"ce4bhah2rcd13ifvqei0","pricing_plan_id":"free"},{"bike_id":"377edaf2-a03f-485e-8dfc-662d69a5852c","system_id":"levelo_inurba_marseille","lat":43.284538,"lon":5.358657,"is_reserved":false,"is_disabled":false,"rental_uris":{"android":"levelo://app?vid=377edaf2-a03f-485e-8dfc-662d69a5852c","ios":"levelo://app?vid=377edaf2-a03f-485e-8dfc-662d69a5852c"},"vehicle_type_id":"4","last_reported":1701835767,"current_range_meters":31600,"station_id":"ce4bhah2rcd13ifvqei0","pricing_plan_id":"free"},{"bike_id":"8ecdd6d8-318d-48d6-b323-0a270a0205b8","system_id":"levelo_inurba_marseille","lat":43.284538,"lon":5.358657,"is_reserved":false,"is_disabled":false,"rental_uris":{"android":"levelo://app?vid=8ecdd6d8-318d-48d6-b323-0a270a0205b8","ios":"levelo://app?vid=8ecdd6d8-318d-48d6-b323-0a270a0205b8"},"vehicle_type_id":"4","last_reported":1701835767,"current_range_meters":31600,"station_id":"ce4bhah2rcd13ifvqei0","pricing_plan_id":"free"},{"bike_id":"8666040e-b6eb-4b35-8626-e4aaade3e572","system_id":"levelo_inurba_marseille","lat":43.284534,"lon":5.358662,"is_reserved":false,"is_disabled":false,"rental_uris":{"android":"levelo://app?vid=8666040e-b6eb-4b35-8626-e4aaade3e572","ios":"levelo://app?vid=8666040e-b6eb-4b35-8626-e4aaade3e572"},"vehicle_type_id":"4","last_reported":1701835767,"current_range_meters":31600,"station_id":"ce4bhah2rcd13ifvqei0","pricing_plan_id":"free"},{"bike_id":"2abedbcc-388c-48ad-a06d-cc82bfc9c312","system_id":"levelo_inurba_marseille","lat":43.284538,"lon":5.358657,"is_reserved":false,"is_disabled":false,"rental_uris":{"android":"levelo://app?vid=2abedbcc-388c-48ad-a06d-cc82bfc9c312","ios":"levelo://app?vid=2abedbcc-388c-48ad-a06d-cc82bfc9c312"},"vehicle_type_id":"4","last_reported":1701835767,"current_range_meters":18000,"station_id":"ce4bhah2rcd13ifvqei0","pricing_plan_id":"free"},{"bike_id":"2c0a492b-091c-456e-8699-d46e88668379","system_id":"levelo_inurba_marseille","lat":43.284538,"lon":5.358657,"is_reserved":false,"is_disabled":false,"rental_uris":{"android":"levelo://app?vid=2c0a492b-091c-456e-8699-d46e88668379","ios":"levelo://app?vid=2c0a492b-091c-456e-8699-d46e88668379"},"vehicle_type_id":"4","last_reported":1701835767,"current_range_meters":18000,"station_id":"ce4bhah2rcd13ifvqei0","pricing_plan_id":"free"},{"bike_id":"15a282c0-db38-4075-8cbb-b8ce32797b67","system_id":"levelo_inurba_marseille","lat":43.284534,"lon":5.358662,"is_reserved":false,"is_disabled":false,"rental_uris":{"android":"levelo://app?vid=15a282c0-db38-4075-8cbb-b8ce32797b67","ios":"levelo://app?vid=15a282c0-db38-4075-8cbb-b8ce32797b67"},"vehicle_type_id":"4","last_reported":1701835767,"current_range_meters":22400,"station_id":"ce4bhah2rcd13ifvqei0","pricing_plan_id":"free"},{"bike_id":"23e20ab3-3c32-4bb8-b269-6448f0753884","system_id":"levelo_inurba_marseille","lat":43.284534,"lon":5.358662,"is_reserved":false,"is_disabled":false,"rental_uris":{"android":"levelo://app?vid=23e20ab3-3c32-4bb8-b269-6448f0753884","ios":"levelo://app?vid=23e20ab3-3c32-4bb8-b269-6448f0753884"},"vehicle_type_id":"4","last_reported":1701835767,"current_range_meters":31600,"station_id":"ce4bhah2rcd13ifvqei0","pricing_plan_id":"free"},{"bike_id":"f1e637d0-49e2-446b-b097-b337fd3570e6","system_id":"levelo_inurba_marseille","lat":43.284538,"lon":5.358657,"is_reserved":false,"is_disabled":false,"rental_uris":{"android":"levelo://app?vid=f1e637d0-49e2-446b-b097-b337fd3570e6","ios":"levelo://app?vid=f1e637d0-49e2-446b-b097-b337fd3570e6"},"vehicle_type_id":"4","last_reported":1701835767,"current_range_meters":30400,"station_id":"ce4bhah2rcd13ifvqei0","pricing_plan_id":"free"},{"bike_id":"51c79b9f-7d85-4db7-b30c-7d97acf8cc13","system_id":"levelo_inurba_marseille","lat":43.284538,"lon":5.358657,"is_reserved":false,"is_disabled":false,"rental_uris":{"android":"levelo://app?vid=51c79b9f-7d85-4db7-b30c-7d97acf8cc13","ios":"levelo://app?vid=51c79b9f-7d85-4db7-b30c-7d97acf8cc13"},"vehicle_type_id":"4","last_reported":1701835767,"current_range_meters":20000,"station_id":"ce4bhah2rcd13ifvqei0","pricing_plan_id":"free"},{"bike_id":"eab4f3b7-3094-4a59-b9ed-1e57c9953003","system_id":"levelo_inurba_marseille","lat":43.294314,"lon":5.397498,"is_reserved":false,"is_disabled":false,"rental_uris":{"android":"levelo://app?vid=eab4f3b7-3094-4a59-b9ed-1e57c9953003","ios":"levelo://app?vid=eab4f3b7-3094-4a59-b9ed-1e57c9953003"},"vehicle_type_id":"4","last_reported":1701835767,"current_range_meters":9200,"station_id":"ce4bh3h2rcd13ifvqdo0","pricing_plan_id":"free"},{"bike_id":"4087b8bf-134a-46b1-866c-d023b66ba3b3","system_id":"levelo_inurba_marseille","lat":43.284538,"lon":5.358657,"is_reserved":false,"is_disabled":false,"rental_uris":{"android":"levelo://app?vid=4087b8bf-134a-46b1-866c-d023b66ba3b3","ios":"levelo://app?vid=4087b8bf-134a-46b1-866c-d023b66ba3b3"},"vehicle_type_id":"4","last_reported":1701835767,"current_range_meters":31200,"station_id":"ce4bhah2rcd13ifvqei0","pricing_plan_id":"free"},{"bike_id":"073a4a5a-86ff-4e22-8802-80beab51a553","system_id":"levelo_inurba_marseille","lat":43.284534,"lon":5.358662,"is_reserved":false,"is_disabled":false,"rental_uris":{"android":"levelo://app?vid=073a4a5a-86ff-4e22-8802-80beab51a553","ios":"levelo://app?vid=073a4a5a-86ff-4e22-8802-80beab51a553"},"vehicle_type_id":"4","last_reported":1701835767,"current_range_meters":14800,"station_id":"ce4bhah2rcd13ifvqei0","pricing_plan_id":"free"},{"bike_id":"a867505a-c221-403a-bba6-7f68373835b5","system_id":"levelo_inurba_marseille","lat":43.285856,"lon":5.350771,"is_reserved":false,"is_disabled":false,"rental_uris":{"android":"levelo://app?vid=a867505a-c221-403a-bba6-7f68373835b5","ios":"levelo://app?vid=a867505a-c221-403a-bba6-7f68373835b5"},"vehicle_type_id":"4","last_reported":1701835767,"current_range_meters":16400,"station_id":"ce4bhch2rcd13ifvqeug","pricing_plan_id":"free"},{"bike_id":"b722d9b2-f3c7-4178-bd3f-c0b8e0497bdb","system_id":"levelo_inurba_marseille","lat":43.295713,"lon":5.399639,"is_reserved":false,"is_disabled":false,"rental_uris":{"android":"levelo://app?vid=b722d9b2-f3c7-4178-bd3f-c0b8e0497bdb","ios":"levelo://app?vid=b722d9b2-f3c7-4178-bd3f-c0b8e0497bdb"},"vehicle_type_id":"4","last_reported":1701835767,"current_range_meters":30000,"station_id":"ce4bh312rcd13ifvqdj0","pricing_plan_id":"free"},{"bike_id":"ade5ebcd-01db-4b10-b4a8-a32e41c77fca","system_id":"levelo_inurba_marseille","lat":43.319179,"lon":5.407725,"is_reserved":false,"is_disabled":false,"rental_uris":{"android":"levelo://app?vid=ade5ebcd-01db-4b10-b4a8-a32e41c77fca","ios":"levelo://app?vid=ade5ebcd-01db-4b10-b4a8-a32e41c77fca"},"vehicle_type_id":"4","last_reported":1701835767,"current_range_meters":26800,"station_id":"ce4bhq12rcd13ifvqhig","pricing_plan_id":"free"},{"bike_id":"6bc62c74-cb82-479a-ae6b-9258b7fc43b1","system_id":"levelo_inurba_marseille","lat":43.31897,"lon":5.40741,"is_reserved":false,"is_disabled":false,"rental_uris":{"android":"levelo://app?vid=6bc62c74-cb82-479a-ae6b-9258b7fc43b1","ios":"levelo://app?vid=6bc62c74-cb82-479a-ae6b-9258b7fc43b1"},"vehicle_type_id":"4","last_reported":1701835767,"current_range_meters":31200,"station_id":"ce4bhq12rcd13ifvqhig","pricing_plan_id":"free"},{"bike_id":"db920be0-fb0f-4fdb-91ad-92736490ed79","system_id":"levelo_inurba_marseille","lat":43.32331,"lon":5.406167,"is_reserved":false,"is_disabled":false,"rental_uris":{"android":"levelo://app?vid=db920be0-fb0f-4fdb-91ad-92736490ed79","ios":"levelo://app?vid=db920be0-fb0f-4fdb-91ad-92736490ed79"},"vehicle_type_id":"4","last_reported":1701835767,"current_range_meters":25600,"station_id":"ce4bhq92rcd13ifvqhjg","pricing_plan_id":"free"},{"bike_id":"21e9f313-4358-4246-886a-7b818e29db6a","system_id":"levelo_inurba_marseille","lat":43.288572,"lon":5.393225,"is_reserved":false,"is_disabled":false,"rental_uris":{"android":"levelo://app?vid=21e9f313-4358-4246-886a-7b818e29db6a","ios":"levelo://app?vid=21e9f313-4358-4246-886a-7b818e29db6a"},"vehicle_type_id":"4","last_reported":1701835767,"current_range_meters":18000,"station_id":"ce4bh2p2rcd13ifvqdi0","pricing_plan_id":"free"},{"bike_id":"d52ac959-1c06-4215-9463-2d5a0ce02c40","system_id":"levelo_inurba_marseille","lat":43.288501,"lon":5.393087,"is_reserved":false,"is_disabled":false,"rental_uris":{"android":"levelo://app?vid=d52ac959-1c06-4215-9463-2d5a0ce02c40","ios":"levelo://app?vid=d52ac959-1c06-4215-9463-2d5a0ce02c40"},"vehicle_type_id":"4","last_reported":1701835767,"current_range_meters":30800,"station_id":"ce4bh2p2rcd13ifvqdi0","pricing_plan_id":"free"},{"bike_id":"611aa79a-0a83-4ab7-a112-13ee77ddbdf2","system_id":"levelo_inurba_marseille","lat":43.283494,"lon":5.380945,"is_reserved":false,"is_disabled":false,"rental_uris":{"android":"levelo://app?vid=611aa79a-0a83-4ab7-a112-13ee77ddbdf2","ios":"levelo://app?vid=611aa79a-0a83-4ab7-a112-13ee77ddbdf2"},"vehicle_type_id":"4","last_reported":1701835767,"current_range_meters":28800,"station_id":"ce4bh412rcd13ifvqdr0","pricing_plan_id":"free"},{"bike_id":"9738ce5d-832a-4280-a550-2a00396f74a3","system_id":"levelo_inurba_marseille","lat":43.284217,"lon":5.349697,"is_reserved":false,"is_disabled":false,"rental_uris":{"android":"levelo://app?vid=9738ce5d-832a-4280-a550-2a00396f74a3","ios":"levelo://app?vid=9738ce5d-832a-4280-a550-2a00396f74a3"},"vehicle_type_id":"4","last_reported":1701835767,"current_range_meters":25600,"station_id":"ce4bhbh2rcd13ifvqepg","pricing_plan_id":"free"},{"bike_id":"59bbb630-b9b5-40a2-be7a-9960104c3558","system_id":"levelo_inurba_marseille","lat":43.282754,"lon":5.350519,"is_reserved":false,"is_disabled":false,"rental_uris":{"android":"levelo://app?vid=59bbb630-b9b5-40a2-be7a-9960104c3558","ios":"levelo://app?vid=59bbb630-b9b5-40a2-be7a-9960104c3558"},"vehicle_type_id":"4","last_reported":1701835767,"current_range_meters":30000,"station_id":"ce4bhbp2rcd13ifvqerg","pricing_plan_id":"free"},{"bike_id":"d646aa68-9c4d-43d0-ba82-1619c0e4ff50","system_id":"levelo_inurba_marseille","lat":43.282744,"lon":5.350533,"is_reserved":false,"is_disabled":false,"rental_uris":{"android":"levelo://app?vid=d646aa68-9c4d-43d0-ba82-1619c0e4ff50","ios":"levelo://app?vid=d646aa68-9c4d-43d0-ba82-1619c0e4ff50"},"vehicle_type_id":"4","last_reported":1701835767,"current_range_meters":30400,"station_id":"ce4bhbp2rcd13ifvqerg","pricing_plan_id":"free"},{"bike_id":"75972282-15cc-44bc-b5ff-d20e6063f1de","system_id":"levelo_inurba_marseille","lat":43.28039,"lon":5.369297,"is_reserved":false,"is_disabled":false,"rental_uris":{"android":"levelo://app?vid=75972282-15cc-44bc-b5ff-d20e6063f1de","ios":"levelo://app?vid=75972282-15cc-44bc-b5ff-d20e6063f1de"},"vehicle_type_id":"4","last_reported":1701835767,"current_range_meters":20000,"station_id":"ce4bha12rcd13ifvqef0","pricing_plan_id":"free"},{"bike_id":"54ed5a7f-9259-47f8-a381-3ea9ad9e4f00","system_id":"levelo_inurba_marseille","lat":43.28039,"lon":5.369297,"is_reserved":false,"is_disabled":false,"rental_uris":{"android":"levelo://app?vid=54ed5a7f-9259-47f8-a381-3ea9ad9e4f00","ios":"levelo://app?vid=54ed5a7f-9259-47f8-a381-3ea9ad9e4f00"},"vehicle_type_id":"4","last_reported":1701835767,"current_range_meters":12000,"station_id":"ce4bha12rcd13ifvqef0","pricing_plan_id":"free"},{"bike_id":"fa4c094d-7c46-426d-b881-1f52f22868da","system_id":"levelo_inurba_marseille","lat":43.28039,"lon":5.369297,"is_reserved":false,"is_disabled":false,"rental_uris":{"android":"levelo://app?vid=fa4c094d-7c46-426d-b881-1f52f22868da","ios":"levelo://app?vid=fa4c094d-7c46-426d-b881-1f52f22868da"},"vehicle_type_id":"4","last_reported":1701835767,"current_range_meters":18400,"station_id":"ce4bha12rcd13ifvqef0","pricing_plan_id":"free"},{"bike_id":"4af20425-dd25-4f1d-89c3-d29867d8ce0e","system_id":"levelo_inurba_marseille","lat":43.28039,"lon":5.369297,"is_reserved":false,"is_disabled":false,"rental_uris":{"android":"levelo://app?vid=4af20425-dd25-4f1d-89c3-d29867d8ce0e","ios":"levelo://app?vid=4af20425-dd25-4f1d-89c3-d29867d8ce0e"},"vehicle_type_id":"4","last_reported":1701835767,"current_range_meters":12800,"station_id":"ce4bha12rcd13ifvqef0","pricing_plan_id":"free"},{"bike_id":"3e63bd18-083f-433f-90d8-accbcf1dd2cc","system_id":"levelo_inurba_marseille","lat":43.28039,"lon":5.369297,"is_reserved":false,"is_disabled":false,"rental_uris":{"android":"levelo://app?vid=3e63bd18-083f-433f-90d8-accbcf1dd2cc","ios":"levelo://app?vid=3e63bd18-083f-433f-90d8-accbcf1dd2cc"},"vehicle_type_id":"4","last_reported":1701835767,"current_range_meters":30000,"station_id":"ce4bha12rcd13ifvqef0","pricing_plan_id":"free"},{"bike_id":"07e45ffb-536b-4d5f-90ef-e68954c5fde9","system_id":"levelo_inurba_marseille","lat":43.281044,"lon":5.378308,"is_reserved":false,"is_disabled":false,"rental_uris":{"android":"levelo://app?vid=07e45ffb-536b-4d5f-90ef-e68954c5fde9","ios":"levelo://app?vid=07e45ffb-536b-4d5f-90ef-e68954c5fde9"},"vehicle_type_id":"4","last_reported":1701835767,"current_range_meters":27600,"station_id":"ce4bha12rcd13ifvqee0","pricing_plan_id":"free"},{"bike_id":"e8014cea-c9dd-4195-91da-914c84f626a2","system_id":"levelo_inurba_marseille","lat":43.284393,"lon":5.391816,"is_reserved":false,"is_disabled":false,"rental_uris":{"android":"levelo://app?vid=e8014cea-c9dd-4195-91da-914c84f626a2","ios":"levelo://app?vid=e8014cea-c9dd-4195-91da-914c84f626a2"},"vehicle_type_id":"4","last_reported":1701835767,"current_range_meters":17200,"station_id":"ce4bhoh2rcd13ifvqh5g","pricing_plan_id":"free"},{"bike_id":"30faf595-d9a3-4e34-b5a3-d9005e5d8d47","system_id":"levelo_inurba_marseille","lat":43.2844,"lon":5.39186,"is_reserved":false,"is_disabled":false,"rental_uris":{"android":"levelo://app?vid=30faf595-d9a3-4e34-b5a3-d9005e5d8d47","ios":"levelo://app?vid=30faf595-d9a3-4e34-b5a3-d9005e5d8d47"},"vehicle_type_id":"4","last_reported":1701835767,"current_range_meters":8000,"station_id":"ce4bhoh2rcd13ifvqh5g","pricing_plan_id":"free"},{"bike_id":"3b4ac1c6-6cbf-4e90-b601-9d8596040740","system_id":"levelo_inurba_marseille","lat":43.284462,"lon":5.392121,"is_reserved":false,"is_disabled":false,"rental_uris":{"android":"levelo://app?vid=3b4ac1c6-6cbf-4e90-b601-9d8596040740","ios":"levelo://app?vid=3b4ac1c6-6cbf-4e90-b601-9d8596040740"},"vehicle_type_id":"4","last_reported":1701835767,"current_range_meters":10800,"station_id":"ce4bhoh2rcd13ifvqh5g","pricing_plan_id":"free"},{"bike_id":"69fa9f5d-f813-4ecf-b767-80aa965e71ed","system_id":"levelo_inurba_marseille","lat":43.284462,"lon":5.392121,"is_reserved":false,"is_disabled":false,"rental_uris":{"android":"levelo://app?vid=69fa9f5d-f813-4ecf-b767-80aa965e71ed","ios":"levelo://app?vid=69fa9f5d-f813-4ecf-b767-80aa965e71ed"},"vehicle_type_id":"4","last_reported":1701835767,"current_range_meters":26000,"station_id":"ce4bhoh2rcd13ifvqh5g","pricing_plan_id":"free"},{"bike_id":"35c24e5c-0f71-4fb4-9169-b0334483ea65","system_id":"levelo_inurba_marseille","lat":43.285742,"lon":5.395004,"is_reserved":false,"is_disabled":false,"rental_uris":{"android":"levelo://app?vid=35c24e5c-0f71-4fb4-9169-b0334483ea65","ios":"levelo://app?vid=35c24e5c-0f71-4fb4-9169-b0334483ea65"},"vehicle_type_id":"4","last_reported":1701835767,"current_range_meters":28000,"station_id":"ce4bh292rcd13ifvqdg0","pricing_plan_id":"free"},{"bike_id":"b03d3379-3aea-49d3-a5ac-5ae96e10a08d","system_id":"levelo_inurba_marseille","lat":43.28573,"lon":5.394992,"is_reserved":false,"is_disabled":false,"rental_uris":{"android":"levelo://app?vid=b03d3379-3aea-49d3-a5ac-5ae96e10a08d","ios":"levelo://app?vid=b03d3379-3aea-49d3-a5ac-5ae96e10a08d"},"vehicle_type_id":"4","last_reported":1701835767,"current_range_meters":14400,"station_id":"ce4bh292rcd13ifvqdg0","pricing_plan_id":"free"},{"bike_id":"537b6760-696d-4ecd-93fb-02bd18532c61","system_id":"levelo_inurba_marseille","lat":43.28573,"lon":5.394992,"is_reserved":false,"is_disabled":false,"rental_uris":{"android":"levelo://app?vid=537b6760-696d-4ecd-93fb-02bd18532c61","ios":"levelo://app?vid=537b6760-696d-4ecd-93fb-02bd18532c61"},"vehicle_type_id":"4","last_reported":1701835767,"current_range_meters":31200,"station_id":"ce4bh292rcd13ifvqdg0","pricing_plan_id":"free"},{"bike_id":"2f5c4560-0878-4aff-b74b-f90e1e833532","system_id":"levelo_inurba_marseille","lat":43.326605,"lon":5.409903,"is_reserved":false,"is_disabled":false,"rental_uris":{"android":"levelo://app?vid=2f5c4560-0878-4aff-b74b-f90e1e833532","ios":"levelo://app?vid=2f5c4560-0878-4aff-b74b-f90e1e833532"},"vehicle_type_id":"4","last_reported":1701835767,"current_range_meters":28000,"station_id":"ce4bhpp2rcd13ifvqhgg","pricing_plan_id":"free"},{"bike_id":"9faba46c-ddb2-4ff9-abba-999d21209561","system_id":"levelo_inurba_marseille","lat":43.304188,"lon":5.412904,"is_reserved":false,"is_disabled":false,"rental_uris":{"android":"levelo://app?vid=9faba46c-ddb2-4ff9-abba-999d21209561","ios":"levelo://app?vid=9faba46c-ddb2-4ff9-abba-999d21209561"},"vehicle_type_id":"4","last_reported":1701835767,"current_range_meters":27600,"station_id":"ce4bhop2rcd13ifvqh8g","pricing_plan_id":"free"},{"bike_id":"486efaf5-0116-4223-967f-075be4dc6679","system_id":"levelo_inurba_marseille","lat":43.279087,"lon":5.380114,"is_reserved":false,"is_disabled":false,"rental_uris":{"android":"levelo://app?vid=486efaf5-0116-4223-967f-075be4dc6679","ios":"levelo://app?vid=486efaf5-0116-4223-967f-075be4dc6679"},"vehicle_type_id":"4","last_reported":1701835767,"current_range_meters":28000,"station_id":"ce4bhf92rcd13ifvqf50","pricing_plan_id":"free"},{"bike_id":"5bdf052e-fe2c-47ce-ac13-84edc28fef3b","system_id":"levelo_inurba_marseille","lat":43.287154,"lon":5.399979,"is_reserved":false,"is_disabled":false,"rental_uris":{"android":"levelo://app?vid=5bdf052e-fe2c-47ce-ac13-84edc28fef3b","ios":"levelo://app?vid=5bdf052e-fe2c-47ce-ac13-84edc28fef3b"},"vehicle_type_id":"4","last_reported":1701835767,"current_range_meters":31200,"station_id":"ce4bho92rcd13ifvqh3g","pricing_plan_id":"free"},{"bike_id":"ed9165b6-9343-4194-b429-02400d728936","system_id":"levelo_inurba_marseille","lat":43.279742,"lon":5.38744,"is_reserved":false,"is_disabled":false,"rental_uris":{"android":"levelo://app?vid=ed9165b6-9343-4194-b429-02400d728936","ios":"levelo://app?vid=ed9165b6-9343-4194-b429-02400d728936"},"vehicle_type_id":"4","last_reported":1701835767,"current_range_meters":30400,"station_id":"ce4bhg12rcd13ifvqf80","pricing_plan_id":"free"},{"bike_id":"d46ebe5f-53fd-402a-975e-a6661698e060","system_id":"levelo_inurba_marseille","lat":43.320543,"lon":5.41547,"is_reserved":false,"is_disabled":false,"rental_uris":{"android":"levelo://app?vid=d46ebe5f-53fd-402a-975e-a6661698e060","ios":"levelo://app?vid=d46ebe5f-53fd-402a-975e-a6661698e060"},"vehicle_type_id":"4","last_reported":1701835767,"current_range_meters":26400,"station_id":"ce4bhq92rcd13ifvqhkg","pricing_plan_id":"free"},{"bike_id":"d5f6e73f-c04b-4893-aaf5-d187974d0a2d","system_id":"levelo_inurba_marseille","lat":43.27969,"lon":5.38729,"is_reserved":false,"is_disabled":false,"rental_uris":{"android":"levelo://app?vid=d5f6e73f-c04b-4893-aaf5-d187974d0a2d","ios":"levelo://app?vid=d5f6e73f-c04b-4893-aaf5-d187974d0a2d"},"vehicle_type_id":"4","last_reported":1701835767,"current_range_meters":4800,"station_id":"ce4bhg12rcd13ifvqf80","pricing_plan_id":"free"},{"bike_id":"e5d6c46c-88df-4016-89e2-55665425c00c","system_id":"levelo_inurba_marseille","lat":43.320045,"lon":5.415046,"is_reserved":false,"is_disabled":false,"rental_uris":{"android":"levelo://app?vid=e5d6c46c-88df-4016-89e2-55665425c00c","ios":"levelo://app?vid=e5d6c46c-88df-4016-89e2-55665425c00c"},"vehicle_type_id":"4","last_reported":1701835767,"current_range_meters":30400,"station_id":"ce4bhq92rcd13ifvqhkg","pricing_plan_id":"free"},{"bike_id":"66900054-2c43-4986-be1a-34ce600d185f","system_id":"levelo_inurba_marseille","lat":43.280784,"lon":5.396622,"is_reserved":false,"is_disabled":false,"rental_uris":{"android":"levelo://app?vid=66900054-2c43-4986-be1a-34ce600d185f","ios":"levelo://app?vid=66900054-2c43-4986-be1a-34ce600d185f"},"vehicle_type_id":"4","last_reported":1701835767,"current_range_meters":26800,"station_id":"ce4bho12rcd13ifvqh2g","pricing_plan_id":"free"},{"bike_id":"e653648a-b829-4301-bab0-7c830288dee0","system_id":"levelo_inurba_marseille","lat":43.303837,"lon":5.418724,"is_reserved":false,"is_disabled":false,"rental_uris":{"android":"levelo://app?vid=e653648a-b829-4301-bab0-7c830288dee0","ios":"levelo://app?vid=e653648a-b829-4301-bab0-7c830288dee0"},"vehicle_type_id":"4","last_reported":1701835767,"current_range_meters":30800,"station_id":"ce4bhop2rcd13ifvqh7g","pricing_plan_id":"free"},{"bike_id":"277807d3-0fac-4204-a839-b8ca8c686400","system_id":"levelo_inurba_marseille","lat":43.303837,"lon":5.418724,"is_reserved":false,"is_disabled":false,"rental_uris":{"android":"levelo://app?vid=277807d3-0fac-4204-a839-b8ca8c686400","ios":"levelo://app?vid=277807d3-0fac-4204-a839-b8ca8c686400"},"vehicle_type_id":"4","last_reported":1701835767,"current_range_meters":27600,"station_id":"ce4bhop2rcd13ifvqh7g","pricing_plan_id":"free"},{"bike_id":"8d3318de-ae70-4d4c-a0c3-af014cb01a56","system_id":"levelo_inurba_marseille","lat":43.278401,"lon":5.392152,"is_reserved":false,"is_disabled":false,"rental_uris":{"android":"levelo://app?vid=8d3318de-ae70-4d4c-a0c3-af014cb01a56","ios":"levelo://app?vid=8d3318de-ae70-4d4c-a0c3-af014cb01a56"},"vehicle_type_id":"4","last_reported":1701835767,"current_range_meters":27600,"station_id":"ce4bhjp2rcd13ifvqga0","pricing_plan_id":"free"},{"bike_id":"f6def740-c529-48fa-9ea7-749c5a705d12","system_id":"levelo_inurba_marseille","lat":43.278401,"lon":5.392152,"is_reserved":false,"is_disabled":false,"rental_uris":{"android":"levelo://app?vid=f6def740-c529-48fa-9ea7-749c5a705d12","ios":"levelo://app?vid=f6def740-c529-48fa-9ea7-749c5a705d12"},"vehicle_type_id":"4","last_reported":1701835767,"current_range_meters":26800,"station_id":"ce4bhjp2rcd13ifvqga0","pricing_plan_id":"free"},{"bike_id":"836698bf-0593-4c6f-a29c-25959d245d4a","system_id":"levelo_inurba_marseille","lat":43.273613,"lon":5.362705,"is_reserved":false,"is_disabled":false,"rental_uris":{"android":"levelo://app?vid=836698bf-0593-4c6f-a29c-25959d245d4a","ios":"levelo://app?vid=836698bf-0593-4c6f-a29c-25959d245d4a"},"vehicle_type_id":"4","last_reported":1701835767,"current_range_meters":27200,"station_id":"ce4bhbh2rcd13ifvqeo0","pricing_plan_id":"free"},{"bike_id":"9aec3c2e-d4fd-48f1-8674-3f948b7bfc69","system_id":"levelo_inurba_marseille","lat":43.33612,"lon":5.410321,"is_reserved":false,"is_disabled":false,"rental_uris":{"android":"levelo://app?vid=9aec3c2e-d4fd-48f1-8674-3f948b7bfc69","ios":"levelo://app?vid=9aec3c2e-d4fd-48f1-8674-3f948b7bfc69"},"vehicle_type_id":"4","last_reported":1701835767,"current_range_meters":7200,"station_id":"ce4bhqh2rcd13ifvqhmg","pricing_plan_id":"free"},{"bike_id":"9fd44b34-882b-417d-a6b8-bfa85ff544cf","system_id":"levelo_inurba_marseille","lat":43.33612,"lon":5.410321,"is_reserved":false,"is_disabled":false,"rental_uris":{"android":"levelo://app?vid=9fd44b34-882b-417d-a6b8-bfa85ff544cf","ios":"levelo://app?vid=9fd44b34-882b-417d-a6b8-bfa85ff544cf"},"vehicle_type_id":"4","last_reported":1701835767,"current_range_meters":24400,"station_id":"ce4bhqh2rcd13ifvqhmg","pricing_plan_id":"free"},{"bike_id":"b1e0d68f-b5ce-4efc-a11d-bb9890d3062f","system_id":"levelo_inurba_marseille","lat":43.27872,"lon":5.394951,"is_reserved":false,"is_disabled":false,"rental_uris":{"android":"levelo://app?vid=b1e0d68f-b5ce-4efc-a11d-bb9890d3062f","ios":"levelo://app?vid=b1e0d68f-b5ce-4efc-a11d-bb9890d3062f"},"vehicle_type_id":"4","last_reported":1701835767,"current_range_meters":26400,"station_id":"","pricing_plan_id":"free"},{"bike_id":"2c337d2b-cceb-4a65-b16d-e1c20cfe6466","system_id":"levelo_inurba_marseille","lat":43.279975,"lon":5.40009,"is_reserved":false,"is_disabled":false,"rental_uris":{"android":"levelo://app?vid=2c337d2b-cceb-4a65-b16d-e1c20cfe6466","ios":"levelo://app?vid=2c337d2b-cceb-4a65-b16d-e1c20cfe6466"},"vehicle_type_id":"4","last_reported":1701835767,"current_range_meters":30400,"station_id":"ce4bho92rcd13ifvqh4g","pricing_plan_id":"free"},{"bike_id":"4f3c361f-dc39-4eb2-8cb4-572b7625ae11","system_id":"levelo_inurba_marseille","lat":43.27996,"lon":5.40017,"is_reserved":false,"is_disabled":false,"rental_uris":{"android":"levelo://app?vid=4f3c361f-dc39-4eb2-8cb4-572b7625ae11","ios":"levelo://app?vid=4f3c361f-dc39-4eb2-8cb4-572b7625ae11"},"vehicle_type_id":"4","last_reported":1701835767,"current_range_meters":9200,"station_id":"ce4bho92rcd13ifvqh4g","pricing_plan_id":"free"},{"bike_id":"11d4b3bb-b6a2-41c3-b83d-3252d70f233c","system_id":"levelo_inurba_marseille","lat":43.27997,"lon":5.400206,"is_reserved":false,"is_disabled":false,"rental_uris":{"android":"levelo://app?vid=11d4b3bb-b6a2-41c3-b83d-3252d70f233c","ios":"levelo://app?vid=11d4b3bb-b6a2-41c3-b83d-3252d70f233c"},"vehicle_type_id":"4","last_reported":1701835767,"current_range_meters":31200,"station_id":"ce4bho92rcd13ifvqh4g","pricing_plan_id":"free"},{"bike_id":"06df1df5-3920-4087-b08a-c2cf0167de42","system_id":"levelo_inurba_marseille","lat":43.279882,"lon":5.400198,"is_reserved":false,"is_disabled":false,"rental_uris":{"android":"levelo://app?vid=06df1df5-3920-4087-b08a-c2cf0167de42","ios":"levelo://app?vid=06df1df5-3920-4087-b08a-c2cf0167de42"},"vehicle_type_id":"4","last_reported":1701835767,"current_range_meters":28800,"station_id":"ce4bho92rcd13ifvqh4g","pricing_plan_id":"free"},{"bike_id":"5c10bde1-24aa-4e39-bdd5-9dcf98042632","system_id":"levelo_inurba_marseille","lat":43.317121,"lon":5.423936,"is_reserved":false,"is_disabled":false,"rental_uris":{"android":"levelo://app?vid=5c10bde1-24aa-4e39-bdd5-9dcf98042632","ios":"levelo://app?vid=5c10bde1-24aa-4e39-bdd5-9dcf98042632"},"vehicle_type_id":"4","last_reported":1701835767,"current_range_meters":29200,"station_id":"ce4bhp92rcd13ifvqhbg","pricing_plan_id":"free"},{"bike_id":"354d4287-7d7e-4bcb-93a2-6e310ddd5d92","system_id":"levelo_inurba_marseille","lat":43.310785,"lon":5.424305,"is_reserved":false,"is_disabled":false,"rental_uris":{"android":"levelo://app?vid=354d4287-7d7e-4bcb-93a2-6e310ddd5d92","ios":"levelo://app?vid=354d4287-7d7e-4bcb-93a2-6e310ddd5d92"},"vehicle_type_id":"4","last_reported":1701835767,"current_range_meters":26400,"station_id":"ce4bhp92rcd13ifvqhag","pricing_plan_id":"free"},{"bike_id":"989a01d2-f2a9-4c11-8a79-9792d64b5413","system_id":"levelo_inurba_marseille","lat":43.27622,"lon":5.39483,"is_reserved":false,"is_disabled":false,"rental_uris":{"android":"levelo://app?vid=989a01d2-f2a9-4c11-8a79-9792d64b5413","ios":"levelo://app?vid=989a01d2-f2a9-4c11-8a79-9792d64b5413"},"vehicle_type_id":"4","last_reported":1701835767,"current_range_meters":10400,"station_id":"","pricing_plan_id":"free"},{"bike_id":"dd6b756e-3032-4bf3-8729-0e0248edbc6c","system_id":"levelo_inurba_marseille","lat":43.317121,"lon":5.423936,"is_reserved":false,"is_disabled":false,"rental_uris":{"android":"levelo://app?vid=dd6b756e-3032-4bf3-8729-0e0248edbc6c","ios":"levelo://app?vid=dd6b756e-3032-4bf3-8729-0e0248edbc6c"},"vehicle_type_id":"4","last_reported":1701835767,"current_range_meters":31600,"station_id":"ce4bhp92rcd13ifvqhbg","pricing_plan_id":"free"},{"bike_id":"35583fe3-d19c-4d33-bdaf-ce96ce3f04aa","system_id":"levelo_inurba_marseille","lat":43.340804,"lon":5.410219,"is_reserved":false,"is_disabled":false,"rental_uris":{"android":"levelo://app?vid=35583fe3-d19c-4d33-bdaf-ce96ce3f04aa","ios":"levelo://app?vid=35583fe3-d19c-4d33-bdaf-ce96ce3f04aa"},"vehicle_type_id":"4","last_reported":1701835767,"current_range_meters":25600,"station_id":"ce4bhqh2rcd13ifvqhlg","pricing_plan_id":"free"},{"bike_id":"910fd3aa-d2e0-4553-894a-6161d41c7fcd","system_id":"levelo_inurba_marseille","lat":43.27571,"lon":5.395334,"is_reserved":false,"is_disabled":false,"rental_uris":{"android":"levelo://app?vid=910fd3aa-d2e0-4553-894a-6161d41c7fcd","ios":"levelo://app?vid=910fd3aa-d2e0-4553-894a-6161d41c7fcd"},"vehicle_type_id":"4","last_reported":1701835767,"current_range_meters":4000,"station_id":"","pricing_plan_id":"free"},{"bike_id":"ab3cea41-20c5-4dad-8c4b-1d1da6b6b0b7","system_id":"levelo_inurba_marseille","lat":43.273125,"lon":5.390731,"is_reserved":false,"is_disabled":false,"rental_uris":{"android":"levelo://app?vid=ab3cea41-20c5-4dad-8c4b-1d1da6b6b0b7","ios":"levelo://app?vid=ab3cea41-20c5-4dad-8c4b-1d1da6b6b0b7"},"vehicle_type_id":"4","last_reported":1701835767,"current_range_meters":28400,"station_id":"ce4bhgp2rcd13ifvqfe0","pricing_plan_id":"free"},{"bike_id":"0debc1b1-b0b0-4512-99aa-fb482d2414d0","system_id":"levelo_inurba_marseille","lat":43.273129,"lon":5.390725,"is_reserved":false,"is_disabled":false,"rental_uris":{"android":"levelo://app?vid=0debc1b1-b0b0-4512-99aa-fb482d2414d0","ios":"levelo://app?vid=0debc1b1-b0b0-4512-99aa-fb482d2414d0"},"vehicle_type_id":"4","last_reported":1701835767,"current_range_meters":28000,"station_id":"ce4bhgp2rcd13ifvqfe0","pricing_plan_id":"free"},{"bike_id":"146933d4-ae13-45f7-922b-b93ca7376187","system_id":"levelo_inurba_marseille","lat":43.295523,"lon":5.422926,"is_reserved":false,"is_disabled":false,"rental_uris":{"android":"levelo://app?vid=146933d4-ae13-45f7-922b-b93ca7376187","ios":"levelo://app?vid=146933d4-ae13-45f7-922b-b93ca7376187"},"vehicle_type_id":"4","last_reported":1701835767,"current_range_meters":31200,"station_id":"ce4bhph2rcd13ifvqhdg","pricing_plan_id":"free"},{"bike_id":"4aaafaa4-5992-4d41-aca4-45ea537c3e9e","system_id":"levelo_inurba_marseille","lat":43.27214,"lon":5.3925,"is_reserved":false,"is_disabled":false,"rental_uris":{"android":"levelo://app?vid=4aaafaa4-5992-4d41-aca4-45ea537c3e9e","ios":"levelo://app?vid=4aaafaa4-5992-4d41-aca4-45ea537c3e9e"},"vehicle_type_id":"4","last_reported":1701835767,"current_range_meters":14400,"station_id":"","pricing_plan_id":"free"},{"bike_id":"2366e37e-c385-42f1-97be-f93069a110e5","system_id":"levelo_inurba_marseille","lat":43.279465,"lon":5.410561,"is_reserved":false,"is_disabled":false,"rental_uris":{"android":"levelo://app?vid=2366e37e-c385-42f1-97be-f93069a110e5","ios":"levelo://app?vid=2366e37e-c385-42f1-97be-f93069a110e5"},"vehicle_type_id":"4","last_reported":1701835767,"current_range_meters":13600,"station_id":"ce4bhnp2rcd13ifvqh0g","pricing_plan_id":"free"},{"bike_id":"a6f33f78-b9bb-4932-80af-5b43dd5bb9d9","system_id":"levelo_inurba_marseille","lat":43.269319,"lon":5.389397,"is_reserved":false,"is_disabled":false,"rental_uris":{"android":"levelo://app?vid=a6f33f78-b9bb-4932-80af-5b43dd5bb9d9","ios":"levelo://app?vid=a6f33f78-b9bb-4932-80af-5b43dd5bb9d9"},"vehicle_type_id":"4","last_reported":1701835767,"current_range_meters":28400,"station_id":"ce4bhhh2rcd13ifvqfl0","pricing_plan_id":"free"},{"bike_id":"682850e0-ed78-404e-9b83-ddad321a4830","system_id":"levelo_inurba_marseille","lat":43.265714,"lon":5.372891,"is_reserved":false,"is_disabled":false,"rental_uris":{"android":"levelo://app?vid=682850e0-ed78-404e-9b83-ddad321a4830","ios":"levelo://app?vid=682850e0-ed78-404e-9b83-ddad321a4830"},"vehicle_type_id":"4","last_reported":1701835767,"current_range_meters":22000,"station_id":"ce4bhg12rcd13ifvqf70","pricing_plan_id":"free"},{"bike_id":"cebe32b0-24a9-40e6-97b2-e78ed3669aae","system_id":"levelo_inurba_marseille","lat":43.26574,"lon":5.39003,"is_reserved":false,"is_disabled":false,"rental_uris":{"android":"levelo://app?vid=cebe32b0-24a9-40e6-97b2-e78ed3669aae","ios":"levelo://app?vid=cebe32b0-24a9-40e6-97b2-e78ed3669aae"},"vehicle_type_id":"4","last_reported":1701835767,"current_range_meters":14800,"station_id":"ce4bhe12rcd13ifvqf30","pricing_plan_id":"free"},{"bike_id":"8e50a2a3-63a6-454e-bfc7-0d30cf65c822","system_id":"levelo_inurba_marseille","lat":43.308051,"lon":5.43527,"is_reserved":false,"is_disabled":false,"rental_uris":{"android":"levelo://app?vid=8e50a2a3-63a6-454e-bfc7-0d30cf65c822","ios":"levelo://app?vid=8e50a2a3-63a6-454e-bfc7-0d30cf65c822"},"vehicle_type_id":"4","last_reported":1701835767,"current_range_meters":30000,"station_id":"ce4bhph2rcd13ifvqheg","pricing_plan_id":"free"},{"bike_id":"8813dbba-e27a-4b7d-8a9d-a2969baa525d","system_id":"levelo_inurba_marseille","lat":43.26562,"lon":5.3901,"is_reserved":false,"is_disabled":false,"rental_uris":{"android":"levelo://app?vid=8813dbba-e27a-4b7d-8a9d-a2969baa525d","ios":"levelo://app?vid=8813dbba-e27a-4b7d-8a9d-a2969baa525d"},"vehicle_type_id":"4","last_reported":1701835767,"current_range_meters":5600,"station_id":"ce4bhe12rcd13ifvqf30","pricing_plan_id":"free"},{"bike_id":"626647f3-e12f-4ae8-a68e-f1cf40963aa9","system_id":"levelo_inurba_marseille","lat":43.26949,"lon":5.40262,"is_reserved":false,"is_disabled":false,"rental_uris":{"android":"levelo://app?vid=626647f3-e12f-4ae8-a68e-f1cf40963aa9","ios":"levelo://app?vid=626647f3-e12f-4ae8-a68e-f1cf40963aa9"},"vehicle_type_id":"4","last_reported":1701835767,"current_range_meters":7200,"station_id":"cjm6bp8fraef2m0cb0m0","pricing_plan_id":"free"},{"bike_id":"8ddb55f7-c130-4e14-ad3f-0b255083145d","system_id":"levelo_inurba_marseille","lat":43.26941,"lon":5.40257,"is_reserved":false,"is_disabled":false,"rental_uris":{"android":"levelo://app?vid=8ddb55f7-c130-4e14-ad3f-0b255083145d","ios":"levelo://app?vid=8ddb55f7-c130-4e14-ad3f-0b255083145d"},"vehicle_type_id":"4","last_reported":1701835767,"current_range_meters":8400,"station_id":"cjm6bp8fraef2m0cb0m0","pricing_plan_id":"free"},{"bike_id":"4da8d4ff-cca1-4bbf-8bff-5890c75198a3","system_id":"levelo_inurba_marseille","lat":43.26183,"lon":5.37438,"is_reserved":false,"is_disabled":false,"rental_uris":{"android":"levelo://app?vid=4da8d4ff-cca1-4bbf-8bff-5890c75198a3","ios":"levelo://app?vid=4da8d4ff-cca1-4bbf-8bff-5890c75198a3"},"vehicle_type_id":"4","last_reported":1701835767,"current_range_meters":16400,"station_id":"ce4bhgp2rcd13ifvqfc0","pricing_plan_id":"free"},{"bike_id":"9ac7abeb-89e8-41a4-9fbb-7ef51af7ee65","system_id":"levelo_inurba_marseille","lat":43.317104,"lon":5.436818,"is_reserved":false,"is_disabled":false,"rental_uris":{"android":"levelo://app?vid=9ac7abeb-89e8-41a4-9fbb-7ef51af7ee65","ios":"levelo://app?vid=9ac7abeb-89e8-41a4-9fbb-7ef51af7ee65"},"vehicle_type_id":"4","last_reported":1701835767,"current_range_meters":29200,"station_id":"ce4bhp92rcd13ifvqhcg","pricing_plan_id":"free"},{"bike_id":"4f34044e-b6b5-4f45-aa26-16b610aacef7","system_id":"levelo_inurba_marseille","lat":43.317104,"lon":5.436818,"is_reserved":false,"is_disabled":false,"rental_uris":{"android":"levelo://app?vid=4f34044e-b6b5-4f45-aa26-16b610aacef7","ios":"levelo://app?vid=4f34044e-b6b5-4f45-aa26-16b610aacef7"},"vehicle_type_id":"4","last_reported":1701835767,"current_range_meters":30400,"station_id":"ce4bhp92rcd13ifvqhcg","pricing_plan_id":"free"},{"bike_id":"ce63206a-4c55-4867-9ae3-5b995ed6f84c","system_id":"levelo_inurba_marseille","lat":43.271368,"lon":5.40928,"is_reserved":false,"is_disabled":false,"rental_uris":{"android":"levelo://app?vid=ce63206a-4c55-4867-9ae3-5b995ed6f84c","ios":"levelo://app?vid=ce63206a-4c55-4867-9ae3-5b995ed6f84c"},"vehicle_type_id":"4","last_reported":1701835767,"current_range_meters":31200,"station_id":"ce4bhl12rcd13ifvqgf0","pricing_plan_id":"free"},{"bike_id":"da966aee-446d-419d-82fa-15da7f2fb1f2","system_id":"levelo_inurba_marseille","lat":43.271368,"lon":5.40928,"is_reserved":false,"is_disabled":false,"rental_uris":{"android":"levelo://app?vid=da966aee-446d-419d-82fa-15da7f2fb1f2","ios":"levelo://app?vid=da966aee-446d-419d-82fa-15da7f2fb1f2"},"vehicle_type_id":"4","last_reported":1701835767,"current_range_meters":18400,"station_id":"ce4bhl12rcd13ifvqgf0","pricing_plan_id":"free"},{"bike_id":"37038aca-97ca-4cb2-81d0-9a4826818ca5","system_id":"levelo_inurba_marseille","lat":43.26202,"lon":5.379299,"is_reserved":false,"is_disabled":false,"rental_uris":{"android":"levelo://app?vid=37038aca-97ca-4cb2-81d0-9a4826818ca5","ios":"levelo://app?vid=37038aca-97ca-4cb2-81d0-9a4826818ca5"},"vehicle_type_id":"4","last_reported":1701835767,"current_range_meters":28000,"station_id":"ce4bhjp2rcd13ifvqg90","pricing_plan_id":"free"},{"bike_id":"c767e99e-1927-4c14-b7fe-3da9a58a3d73","system_id":"levelo_inurba_marseille","lat":43.267959,"lon":5.402687,"is_reserved":false,"is_disabled":false,"rental_uris":{"android":"levelo://app?vid=c767e99e-1927-4c14-b7fe-3da9a58a3d73","ios":"levelo://app?vid=c767e99e-1927-4c14-b7fe-3da9a58a3d73"},"vehicle_type_id":"4","last_reported":1701835767,"current_range_meters":28000,"station_id":"ce501612rcd8frsf0b60","pricing_plan_id":"free"},{"bike_id":"16076b9d-08c1-4b78-aef5-4c8ec51413f4","system_id":"levelo_inurba_marseille","lat":43.298768,"lon":5.43643,"is_reserved":false,"is_disabled":false,"rental_uris":{"android":"levelo://app?vid=16076b9d-08c1-4b78-aef5-4c8ec51413f4","ios":"levelo://app?vid=16076b9d-08c1-4b78-aef5-4c8ec51413f4"},"vehicle_type_id":"4","last_reported":1701835767,"current_range_meters":15600,"station_id":"ce4bhpp2rcd13ifvqhfg","pricing_plan_id":"free"},{"bike_id":"c54cd023-a6f2-4d68-aabc-4be9f862ccbb","system_id":"levelo_inurba_marseille","lat":43.298768,"lon":5.43643,"is_reserved":false,"is_disabled":false,"rental_uris":{"android":"levelo://app?vid=c54cd023-a6f2-4d68-aabc-4be9f862ccbb","ios":"levelo://app?vid=c54cd023-a6f2-4d68-aabc-4be9f862ccbb"},"vehicle_type_id":"4","last_reported":1701835767,"current_range_meters":31600,"station_id":"ce4bhpp2rcd13ifvqhfg","pricing_plan_id":"free"},{"bike_id":"ee3f0752-b275-4948-a5e5-3ea20bb15c3f","system_id":"levelo_inurba_marseille","lat":43.2607,"lon":5.393983,"is_reserved":false,"is_disabled":false,"rental_uris":{"android":"levelo://app?vid=ee3f0752-b275-4948-a5e5-3ea20bb15c3f","ios":"levelo://app?vid=ee3f0752-b275-4948-a5e5-3ea20bb15c3f"},"vehicle_type_id":"4","last_reported":1701835767,"current_range_meters":23200,"station_id":"ce4bhh92rcd13ifvqfj0","pricing_plan_id":"free"},{"bike_id":"522bae95-be7b-45d2-9020-b81b1237bfad","system_id":"levelo_inurba_marseille","lat":43.2607,"lon":5.393983,"is_reserved":false,"is_disabled":false,"rental_uris":{"android":"levelo://app?vid=522bae95-be7b-45d2-9020-b81b1237bfad","ios":"levelo://app?vid=522bae95-be7b-45d2-9020-b81b1237bfad"},"vehicle_type_id":"4","last_reported":1701835767,"current_range_meters":19200,"station_id":"ce4bhh92rcd13ifvqfj0","pricing_plan_id":"free"},{"bike_id":"27e05443-4c1a-4d3d-99c9-39e4a9fc4815","system_id":"levelo_inurba_marseille","lat":43.275028,"lon":5.424534,"is_reserved":false,"is_disabled":false,"rental_uris":{"android":"levelo://app?vid=27e05443-4c1a-4d3d-99c9-39e4a9fc4815","ios":"levelo://app?vid=27e05443-4c1a-4d3d-99c9-39e4a9fc4815"},"vehicle_type_id":"4","last_reported":1701835767,"current_range_meters":16000,"station_id":"ce4bhn92rcd13ifvqgrg","pricing_plan_id":"free"},{"bike_id":"17f04a7c-4c0d-410b-8b98-175b327b84b8","system_id":"levelo_inurba_marseille","lat":43.258224,"lon":5.394369,"is_reserved":false,"is_disabled":false,"rental_uris":{"android":"levelo://app?vid=17f04a7c-4c0d-410b-8b98-175b327b84b8","ios":"levelo://app?vid=17f04a7c-4c0d-410b-8b98-175b327b84b8"},"vehicle_type_id":"4","last_reported":1701835767,"current_range_meters":30400,"station_id":"ce4bhip2rcd13ifvqft0","pricing_plan_id":"free"},{"bike_id":"8fc31891-07e7-42e9-9ea3-99bdd8d73bf3","system_id":"levelo_inurba_marseille","lat":43.27075,"lon":5.42273,"is_reserved":false,"is_disabled":false,"rental_uris":{"android":"levelo://app?vid=8fc31891-07e7-42e9-9ea3-99bdd8d73bf3","ios":"levelo://app?vid=8fc31891-07e7-42e9-9ea3-99bdd8d73bf3"},"vehicle_type_id":"4","last_reported":1701835767,"current_range_meters":19600,"station_id":"ce4bhk92rcd13ifvqgb0","pricing_plan_id":"free"},{"bike_id":"247af584-b3f4-42a0-9236-07d89794d35d","system_id":"levelo_inurba_marseille","lat":43.270721,"lon":5.422764,"is_reserved":false,"is_disabled":false,"rental_uris":{"android":"levelo://app?vid=247af584-b3f4-42a0-9236-07d89794d35d","ios":"levelo://app?vid=247af584-b3f4-42a0-9236-07d89794d35d"},"vehicle_type_id":"4","last_reported":1701835767,"current_range_meters":28400,"station_id":"ce4bhk92rcd13ifvqgb0","pricing_plan_id":"free"},{"bike_id":"c808fd05-3396-47eb-a8be-22cb6b8a77b4","system_id":"levelo_inurba_marseille","lat":43.2707,"lon":5.4228,"is_reserved":false,"is_disabled":false,"rental_uris":{"android":"levelo://app?vid=c808fd05-3396-47eb-a8be-22cb6b8a77b4","ios":"levelo://app?vid=c808fd05-3396-47eb-a8be-22cb6b8a77b4"},"vehicle_type_id":"4","last_reported":1701835767,"current_range_meters":20400,"station_id":"ce4bhk92rcd13ifvqgb0","pricing_plan_id":"free"},{"bike_id":"2aa8c6f8-6786-442b-8073-3dfaf081ec35","system_id":"levelo_inurba_marseille","lat":43.258658,"lon":5.398935,"is_reserved":false,"is_disabled":false,"rental_uris":{"android":"levelo://app?vid=2aa8c6f8-6786-442b-8073-3dfaf081ec35","ios":"levelo://app?vid=2aa8c6f8-6786-442b-8073-3dfaf081ec35"},"vehicle_type_id":"4","last_reported":1701835767,"current_range_meters":27200,"station_id":"ce4bhl92rcd13ifvqghg","pricing_plan_id":"free"},{"bike_id":"076e9c2a-30d3-41eb-8f8e-de0c7dd795ea","system_id":"levelo_inurba_marseille","lat":43.258658,"lon":5.398935,"is_reserved":false,"is_disabled":false,"rental_uris":{"android":"levelo://app?vid=076e9c2a-30d3-41eb-8f8e-de0c7dd795ea","ios":"levelo://app?vid=076e9c2a-30d3-41eb-8f8e-de0c7dd795ea"},"vehicle_type_id":"4","last_reported":1701835767,"current_range_meters":23200,"station_id":"ce4bhl92rcd13ifvqghg","pricing_plan_id":"free"},{"bike_id":"8b3d6b5e-cefe-45c0-903d-452bb75449c8","system_id":"levelo_inurba_marseille","lat":43.25932,"lon":5.40905,"is_reserved":false,"is_disabled":false,"rental_uris":{"android":"levelo://app?vid=8b3d6b5e-cefe-45c0-903d-452bb75449c8","ios":"levelo://app?vid=8b3d6b5e-cefe-45c0-903d-452bb75449c8"},"vehicle_type_id":"4","last_reported":1701835767,"current_range_meters":14000,"station_id":"ce4bhm92rcd13ifvqglg","pricing_plan_id":"free"},{"bike_id":"85461d52-108f-4674-9751-e4e6d032a0f3","system_id":"levelo_inurba_marseille","lat":43.25734,"lon":5.41102,"is_reserved":false,"is_disabled":false,"rental_uris":{"android":"levelo://app?vid=85461d52-108f-4674-9751-e4e6d032a0f3","ios":"levelo://app?vid=85461d52-108f-4674-9751-e4e6d032a0f3"},"vehicle_type_id":"4","last_reported":1701835767,"current_range_meters":12000,"station_id":"ce4bhkp2rcd13ifvqgd0","pricing_plan_id":"free"},{"bike_id":"5e03874a-61c5-470c-8350-111f23e224ac","system_id":"levelo_inurba_marseille","lat":43.257079,"lon":5.411051,"is_reserved":false,"is_disabled":false,"rental_uris":{"android":"levelo://app?vid=5e03874a-61c5-470c-8350-111f23e224ac","ios":"levelo://app?vid=5e03874a-61c5-470c-8350-111f23e224ac"},"vehicle_type_id":"4","last_reported":1701835767,"current_range_meters":30400,"station_id":"ce4bhkp2rcd13ifvqgd0","pricing_plan_id":"free"},{"bike_id":"d9778b34-be45-4a9e-815f-34fa65ab33d0","system_id":"levelo_inurba_marseille","lat":43.257079,"lon":5.411051,"is_reserved":false,"is_disabled":false,"rental_uris":{"android":"levelo://app?vid=d9778b34-be45-4a9e-815f-34fa65ab33d0","ios":"levelo://app?vid=d9778b34-be45-4a9e-815f-34fa65ab33d0"},"vehicle_type_id":"4","last_reported":1701835767,"current_range_meters":26000,"station_id":"ce4bhkp2rcd13ifvqgd0","pricing_plan_id":"free"},{"bike_id":"9831ea30-a414-4016-af10-11af522b70bf","system_id":"levelo_inurba_marseille","lat":43.257119,"lon":5.411094,"is_reserved":false,"is_disabled":false,"rental_uris":{"android":"levelo://app?vid=9831ea30-a414-4016-af10-11af522b70bf","ios":"levelo://app?vid=9831ea30-a414-4016-af10-11af522b70bf"},"vehicle_type_id":"4","last_reported":1701835767,"current_range_meters":25600,"station_id":"ce4bhkp2rcd13ifvqgd0","pricing_plan_id":"free"},{"bike_id":"41b314fe-f153-4859-ab5f-b5fb41d78049","system_id":"levelo_inurba_marseille","lat":43.25009,"lon":5.389145,"is_reserved":false,"is_disabled":false,"rental_uris":{"android":"levelo://app?vid=41b314fe-f153-4859-ab5f-b5fb41d78049","ios":"levelo://app?vid=41b314fe-f153-4859-ab5f-b5fb41d78049"},"vehicle_type_id":"4","last_reported":1701835767,"current_range_meters":20000,"station_id":"ce4bhgp2rcd13ifvqfd0","pricing_plan_id":"free"},{"bike_id":"fe139a46-b394-4f90-a721-da43cd164fb5","system_id":"levelo_inurba_marseille","lat":43.250009,"lon":5.389195,"is_reserved":false,"is_disabled":false,"rental_uris":{"android":"levelo://app?vid=fe139a46-b394-4f90-a721-da43cd164fb5","ios":"levelo://app?vid=fe139a46-b394-4f90-a721-da43cd164fb5"},"vehicle_type_id":"4","last_reported":1701835767,"current_range_meters":26400,"station_id":"ce4bhgp2rcd13ifvqfd0","pricing_plan_id":"free"},{"bike_id":"cd974829-e7ba-4c3e-8574-9c9abd6d45f3","system_id":"levelo_inurba_marseille","lat":43.2479,"lon":5.374457,"is_reserved":false,"is_disabled":false,"rental_uris":{"android":"levelo://app?vid=cd974829-e7ba-4c3e-8574-9c9abd6d45f3","ios":"levelo://app?vid=cd974829-e7ba-4c3e-8574-9c9abd6d45f3"},"vehicle_type_id":"4","last_reported":1701835767,"current_range_meters":27200,"station_id":"ce4bhgh2rcd13ifvqfb0","pricing_plan_id":"free"},{"bike_id":"96da180c-7b6f-4c60-8c7c-dbf05c2d449c","system_id":"levelo_inurba_marseille","lat":43.250966,"lon":5.395186,"is_reserved":false,"is_disabled":false,"rental_uris":{"android":"levelo://app?vid=96da180c-7b6f-4c60-8c7c-dbf05c2d449c","ios":"levelo://app?vid=96da180c-7b6f-4c60-8c7c-dbf05c2d449c"},"vehicle_type_id":"4","last_reported":1701835767,"current_range_meters":26000,"station_id":"ce4bhm12rcd13ifvqgkg","pricing_plan_id":"free"},{"bike_id":"12cbe630-05b0-4088-92e4-99c0ab782742","system_id":"levelo_inurba_marseille","lat":43.25083,"lon":5.39518,"is_reserved":false,"is_disabled":false,"rental_uris":{"android":"levelo://app?vid=12cbe630-05b0-4088-92e4-99c0ab782742","ios":"levelo://app?vid=12cbe630-05b0-4088-92e4-99c0ab782742"},"vehicle_type_id":"4","last_reported":1701835767,"current_range_meters":18000,"station_id":"ce4bhm12rcd13ifvqgkg","pricing_plan_id":"free"},{"bike_id":"e68cfafb-784c-4d25-b8a5-401a4f504e08","system_id":"levelo_inurba_marseille","lat":43.246777,"lon":5.381634,"is_reserved":false,"is_disabled":false,"rental_uris":{"android":"levelo://app?vid=e68cfafb-784c-4d25-b8a5-401a4f504e08","ios":"levelo://app?vid=e68cfafb-784c-4d25-b8a5-401a4f504e08"},"vehicle_type_id":"4","last_reported":1701835767,"current_range_meters":8400,"station_id":"ce4bhih2rcd13ifvqfr0","pricing_plan_id":"free"},{"bike_id":"7fa12c18-a7c6-491a-85c1-eafba9158c72","system_id":"levelo_inurba_marseille","lat":43.24668,"lon":5.38165,"is_reserved":false,"is_disabled":false,"rental_uris":{"android":"levelo://app?vid=7fa12c18-a7c6-491a-85c1-eafba9158c72","ios":"levelo://app?vid=7fa12c18-a7c6-491a-85c1-eafba9158c72"},"vehicle_type_id":"4","last_reported":1701835767,"current_range_meters":23600,"station_id":"ce4bhih2rcd13ifvqfr0","pricing_plan_id":"free"},{"bike_id":"c403e136-25ea-4b1e-bfc3-ca48b6becec5","system_id":"levelo_inurba_marseille","lat":43.24693,"lon":5.382096,"is_reserved":false,"is_disabled":false,"rental_uris":{"android":"levelo://app?vid=c403e136-25ea-4b1e-bfc3-ca48b6becec5","ios":"levelo://app?vid=c403e136-25ea-4b1e-bfc3-ca48b6becec5"},"vehicle_type_id":"4","last_reported":1701835767,"current_range_meters":28800,"station_id":"ce4bhih2rcd13ifvqfr0","pricing_plan_id":"free"},{"bike_id":"22ca3f6e-8a8d-4bcf-8856-80e810908e09","system_id":"levelo_inurba_marseille","lat":43.251153,"lon":5.40318,"is_reserved":false,"is_disabled":false,"rental_uris":{"android":"levelo://app?vid=22ca3f6e-8a8d-4bcf-8856-80e810908e09","ios":"levelo://app?vid=22ca3f6e-8a8d-4bcf-8856-80e810908e09"},"vehicle_type_id":"4","last_reported":1701835767,"current_range_meters":29600,"station_id":"ce4bhlh2rcd13ifvqgig","pricing_plan_id":"free"},{"bike_id":"eaccab18-fde4-4d71-b6e4-5ddb6cea73c5","system_id":"levelo_inurba_marseille","lat":43.25111,"lon":5.40319,"is_reserved":false,"is_disabled":false,"rental_uris":{"android":"levelo://app?vid=eaccab18-fde4-4d71-b6e4-5ddb6cea73c5","ios":"levelo://app?vid=eaccab18-fde4-4d71-b6e4-5ddb6cea73c5"},"vehicle_type_id":"4","last_reported":1701835767,"current_range_meters":24000,"station_id":"ce4bhlh2rcd13ifvqgig","pricing_plan_id":"free"},{"bike_id":"e8ae4e69-5800-48a3-a77e-3863e17506a9","system_id":"levelo_inurba_marseille","lat":43.2511,"lon":5.40324,"is_reserved":false,"is_disabled":false,"rental_uris":{"android":"levelo://app?vid=e8ae4e69-5800-48a3-a77e-3863e17506a9","ios":"levelo://app?vid=e8ae4e69-5800-48a3-a77e-3863e17506a9"},"vehicle_type_id":"4","last_reported":1701835767,"current_range_meters":26400,"station_id":"ce4bhlh2rcd13ifvqgig","pricing_plan_id":"free"},{"bike_id":"9604456b-7edc-4a91-b91c-eca3cb9c0e41","system_id":"levelo_inurba_marseille","lat":43.25105,"lon":5.40317,"is_reserved":false,"is_disabled":false,"rental_uris":{"android":"levelo://app?vid=9604456b-7edc-4a91-b91c-eca3cb9c0e41","ios":"levelo://app?vid=9604456b-7edc-4a91-b91c-eca3cb9c0e41"},"vehicle_type_id":"4","last_reported":1701835767,"current_range_meters":30800,"station_id":"ce4bhlh2rcd13ifvqgig","pricing_plan_id":"free"},{"bike_id":"997fd2e8-a739-42e8-907b-cbaffd16bd36","system_id":"levelo_inurba_marseille","lat":43.240623,"lon":5.377642,"is_reserved":false,"is_disabled":false,"rental_uris":{"android":"levelo://app?vid=997fd2e8-a739-42e8-907b-cbaffd16bd36","ios":"levelo://app?vid=997fd2e8-a739-42e8-907b-cbaffd16bd36"},"vehicle_type_id":"4","last_reported":1701835767,"current_range_meters":31600,"station_id":"ce4bhnp2rcd13ifvqgvg","pricing_plan_id":"free"},{"bike_id":"ee8c0082-cb54-4c25-8ad0-88221a3ae898","system_id":"levelo_inurba_marseille","lat":43.240623,"lon":5.377642,"is_reserved":false,"is_disabled":false,"rental_uris":{"android":"levelo://app?vid=ee8c0082-cb54-4c25-8ad0-88221a3ae898","ios":"levelo://app?vid=ee8c0082-cb54-4c25-8ad0-88221a3ae898"},"vehicle_type_id":"4","last_reported":1701835767,"current_range_meters":16800,"station_id":"ce4bhnp2rcd13ifvqgvg","pricing_plan_id":"free"},{"bike_id":"d7cdcc88-c2b1-419f-87e2-d0246c5882a9","system_id":"levelo_inurba_marseille","lat":43.239588,"lon":5.366238,"is_reserved":false,"is_disabled":false,"rental_uris":{"android":"levelo://app?vid=d7cdcc88-c2b1-419f-87e2-d0246c5882a9","ios":"levelo://app?vid=d7cdcc88-c2b1-419f-87e2-d0246c5882a9"},"vehicle_type_id":"4","last_reported":1701835767,"current_range_meters":31200,"station_id":"ce4bhi12rcd13ifvqfp0","pricing_plan_id":"free"},{"bike_id":"1998587d-5bb1-4c48-8dfc-63edbcaf2960","system_id":"levelo_inurba_marseille","lat":43.239588,"lon":5.366238,"is_reserved":false,"is_disabled":false,"rental_uris":{"android":"levelo://app?vid=1998587d-5bb1-4c48-8dfc-63edbcaf2960","ios":"levelo://app?vid=1998587d-5bb1-4c48-8dfc-63edbcaf2960"},"vehicle_type_id":"4","last_reported":1701835767,"current_range_meters":15200,"station_id":"ce4bhi12rcd13ifvqfp0","pricing_plan_id":"free"},{"bike_id":"04b00323-44dc-4556-add8-5a131157a4f0","system_id":"levelo_inurba_marseille","lat":43.24396,"lon":5.40179,"is_reserved":false,"is_disabled":false,"rental_uris":{"android":"levelo://app?vid=04b00323-44dc-4556-add8-5a131157a4f0","ios":"levelo://app?vid=04b00323-44dc-4556-add8-5a131157a4f0"},"vehicle_type_id":"4","last_reported":1701835767,"current_range_meters":0,"station_id":"","pricing_plan_id":"free"},{"bike_id":"e2fb0602-0025-4bc2-a80e-ca4c6079bddc","system_id":"levelo_inurba_marseille","lat":43.231923,"lon":5.355545,"is_reserved":false,"is_disabled":false,"rental_uris":{"android":"levelo://app?vid=e2fb0602-0025-4bc2-a80e-ca4c6079bddc","ios":"levelo://app?vid=e2fb0602-0025-4bc2-a80e-ca4c6079bddc"},