{"last_updated":1721772518,"ttl":30,"version":"2.2","data":{"bikes":[{"bike_id":"a2610bec-28cf-4e46-bfa7-b619ea248969","system_id":"levelo_inurba_marseille","lat":43.31257,"lon":5.36767,"is_reserved":false,"is_disabled":false,"rental_uris":{"android":"levelo://app?vid=a2610bec-28cf-4e46-bfa7-b619ea248969","ios":"levelo://app?vid=a2610bec-28cf-4e46-bfa7-b619ea248969"},"vehicle_type_id":"4","last_reported":1721772518,"current_range_meters":5600,"station_id":"","pricing_plan_id":"cebpf4jnsgd1na2vs0mg"},{"bike_id":"1f60616a-91b0-4d9b-b2dd-091f48e53b62","system_id":"levelo_inurba_marseille","lat":43.31341,"lon":5.367098,"is_reserved":false,"is_disabled":false,"rental_uris":{"android":"levelo://app?vid=1f60616a-91b0-4d9b-b2dd-091f48e53b62","ios":"levelo://app?vid=1f60616a-91b0-4d9b-b2dd-091f48e53b62"},"vehicle_type_id":"4","last_reported":1721772518,"current_range_meters":25600,"station_id":"ce4bgr92rcd13ifvqc6g","pricing_plan_id":"cebpf4jnsgd1na2vs0mg"},{"bike_id":"7c5e9319-7880-4c3f-8366-3e61044b0e7f","system_id":"levelo_inurba_marseille","lat":43.312239,"lon":5.368562,"is_reserved":false,"is_disabled":false,"rental_uris":{"android":"levelo://app?vid=7c5e9319-7880-4c3f-8366-3e61044b0e7f","ios":"levelo://app?vid=7c5e9319-7880-4c3f-8366-3e61044b0e7f"},"vehicle_type_id":"4","last_reported":1721772518,"current_range_meters":2000,"station_id":"ce4bgl92rcd13ifvqbq0","pricing_plan_id":"cebpf4jnsgd1na2vs0mg"},{"bike_id":"84c889e2-6216-42bd-9080-c9191e88f030","system_id":"levelo_inurba_marseille","lat":43.312239,"lon":5.368562,"is_reserved":false,"is_disabled":false,"rental_uris":{"android":"levelo://app?vid=84c889e2-6216-42bd-9080-c9191e88f030","ios":"levelo://app?vid=84c889e2-6216-42bd-9080-c9191e88f030"},"vehicle_type_id":"4","last_reported":1721772518,"current_range_meters":20800,"station_id":"ce4bgl92rcd13ifvqbq0","pricing_plan_id":"cebpf4jnsgd1na2vs0mg"},{"bike_id":"d66a4788-69bf-4fdf-9210-f325c86a3d39","system_id":"levelo_inurba_marseille","lat":43.312239,"lon":5.368562,"is_reserved":false,"is_disabled":false,"rental_uris":{"android":"levelo://app?vid=d66a4788-69bf-4fdf-9210-f325c86a3d39","ios":"levelo://app?vid=d66a4788-69bf-4fdf-9210-f325c86a3d39"},"vehicle_type_id":"4","last_reported":1721772518,"current_range_meters":24400,"station_id":"ce4bgl92rcd13ifvqbq0","pricing_plan_id":"cebpf4jnsgd1na2vs0mg"},{"bike_id":"fffd9908-5cb8-427d-95f9-20489bba7f89","system_id":"levelo_inurba_marseille","lat":43.312239,"lon":5.368562,"is_reserved":false,"is_disabled":false,"rental_uris":{"android":"levelo://app?vid=fffd9908-5cb8-427d-95f9-20489bba7f89","ios":"levelo://app?vid=fffd9908-5cb8-427d-95f9-20489bba7f89"},"vehicle_type_id":"4","last_reported":1721772518,"current_range_meters":2800,"station_id":"ce4bgl92rcd13ifvqbq0","pricing_plan_id":"cebpf4jnsgd1na2vs0mg"},{"bike_id":"207bbfc1-2311-41d3-8aaf-f0156cec096c","system_id":"levelo_inurba_marseille","lat":43.312239,"lon":5.368562,"is_reserved":false,"is_disabled":false,"rental_uris":{"android":"levelo://app?vid=207bbfc1-2311-41d3-8aaf-f0156cec096c","ios":"levelo://app?vid=207bbfc1-2311-41d3-8aaf-f0156cec096c"},"vehicle_type_id":"4","last_reported":1721772518,"current_range_meters":18800,"station_id":"ce4bgl92rcd13ifvqbq0","pricing_plan_id":"cebpf4jnsgd1na2vs0mg"},{"bike_id":"d1e7c2cd-427e-4a0d-9cb6-bf639a88dd9f","system_id":"levelo_inurba_marseille","lat":43.31231,"lon":5.36863,"is_reserved":false,"is_disabled":false,"rental_uris":{"android":"levelo://app?vid=d1e7c2cd-427e-4a0d-9cb6-bf639a88dd9f","ios":"levelo://app?vid=d1e7c2cd-427e-4a0d-9cb6-bf639a88dd9f"},"vehicle_type_id":"4","last_reported":1721772518,"current_range_meters":31200,"station_id":"ce4bgl92rcd13ifvqbq0","pricing_plan_id":"cebpf4jnsgd1na2vs0mg"},{"bike_id":"30006858-a81f-4bb7-9853-8307901269a6","system_id":"levelo_inurba_marseille","lat":43.312239,"lon":5.368562,"is_reserved":false,"is_disabled":false,"rental_uris":{"android":"levelo://app?vid=30006858-a81f-4bb7-9853-8307901269a6","ios":"levelo://app?vid=30006858-a81f-4bb7-9853-8307901269a6"},"vehicle_type_id":"4","last_reported":1721772518,"current_range_meters":3200,"station_id":"ce4bgl92rcd13ifvqbq0","pricing_plan_id":"cebpf4jnsgd1na2vs0mg"},{"bike_id":"1f74a088-27a6-4f54-9164-c46659c5a607","system_id":"levelo_inurba_marseille","lat":43.312239,"lon":5.368562,"is_reserved":false,"is_disabled":false,"rental_uris":{"android":"levelo://app?vid=1f74a088-27a6-4f54-9164-c46659c5a607","ios":"levelo://app?vid=1f74a088-27a6-4f54-9164-c46659c5a607"},"vehicle_type_id":"4","last_reported":1721772518,"current_range_meters":22800,"station_id":"ce4bgl92rcd13ifvqbq0","pricing_plan_id":"cebpf4jnsgd1na2vs0mg"},{"bike_id":"82857291-3e7b-4da8-b8d3-d95d380f0b29","system_id":"levelo_inurba_marseille","lat":43.312273,"lon":5.368797,"is_reserved":false,"is_disabled":false,"rental_uris":{"android":"levelo://app?vid=82857291-3e7b-4da8-b8d3-d95d380f0b29","ios":"levelo://app?vid=82857291-3e7b-4da8-b8d3-d95d380f0b29"},"vehicle_type_id":"4","last_reported":1721772518,"current_range_meters":31200,"station_id":"ce4bgl92rcd13ifvqbq0","pricing_plan_id":"cebpf4jnsgd1na2vs0mg"},{"bike_id":"60a6e705-3a28-4727-91d2-743554110596","system_id":"levelo_inurba_marseille","lat":43.309076,"lon":5.368465,"is_reserved":false,"is_disabled":false,"rental_uris":{"android":"levelo://app?vid=60a6e705-3a28-4727-91d2-743554110596","ios":"levelo://app?vid=60a6e705-3a28-4727-91d2-743554110596"},"vehicle_type_id":"4","last_reported":1721772518,"current_range_meters":22800,"station_id":"ce4bgn92rcd13ifvqbvg","pricing_plan_id":"cebpf4jnsgd1na2vs0mg"},{"bike_id":"f7ed8384-71d9-48af-8bc4-14444725b11f","system_id":"levelo_inurba_marseille","lat":43.309076,"lon":5.368465,"is_reserved":false,"is_disabled":false,"rental_uris":{"android":"levelo://app?vid=f7ed8384-71d9-48af-8bc4-14444725b11f","ios":"levelo://app?vid=f7ed8384-71d9-48af-8bc4-14444725b11f"},"vehicle_type_id":"4","last_reported":1721772518,"current_range_meters":15200,"station_id":"ce4bgn92rcd13ifvqbvg","pricing_plan_id":"cebpf4jnsgd1na2vs0mg"},{"bike_id":"07b3805b-082f-4d21-9070-9ccdcd26ed1c","system_id":"levelo_inurba_marseille","lat":43.309076,"lon":5.368465,"is_reserved":false,"is_disabled":false,"rental_uris":{"android":"levelo://app?vid=07b3805b-082f-4d21-9070-9ccdcd26ed1c","ios":"levelo://app?vid=07b3805b-082f-4d21-9070-9ccdcd26ed1c"},"vehicle_type_id":"4","last_reported":1721772518,"current_range_meters":14800,"station_id":"ce4bgn92rcd13ifvqbvg","pricing_plan_id":"cebpf4jnsgd1na2vs0mg"},{"bike_id":"61430669-6181-455f-8a92-8c814b028ba4","system_id":"levelo_inurba_marseille","lat":43.314811,"lon":5.373103,"is_reserved":false,"is_disabled":false,"rental_uris":{"android":"levelo://app?vid=61430669-6181-455f-8a92-8c814b028ba4","ios":"levelo://app?vid=61430669-6181-455f-8a92-8c814b028ba4"},"vehicle_type_id":"4","last_reported":1721772518,"current_range_meters":400,"station_id":"ce4bgt12rcd13ifvqcd0","pricing_plan_id":"cebpf4jnsgd1na2vs0mg"},{"bike_id":"73ca5e36-25ba-4b55-b87e-2812b954e7ea","system_id":"levelo_inurba_marseille","lat":43.314811,"lon":5.373104,"is_reserved":false,"is_disabled":false,"rental_uris":{"android":"levelo://app?vid=73ca5e36-25ba-4b55-b87e-2812b954e7ea","ios":"levelo://app?vid=73ca5e36-25ba-4b55-b87e-2812b954e7ea"},"vehicle_type_id":"4","last_reported":1721772518,"current_range_meters":5600,"station_id":"ce4bgt12rcd13ifvqcd0","pricing_plan_id":"cebpf4jnsgd1na2vs0mg"},{"bike_id":"c4a4d2d2-2a96-435f-bfdb-cc75a70aece7","system_id":"levelo_inurba_marseille","lat":43.314811,"lon":5.373103,"is_reserved":false,"is_disabled":false,"rental_uris":{"android":"levelo://app?vid=c4a4d2d2-2a96-435f-bfdb-cc75a70aece7","ios":"levelo://app?vid=c4a4d2d2-2a96-435f-bfdb-cc75a70aece7"},"vehicle_type_id":"4","last_reported":1721772518,"current_range_meters":0,"station_id":"ce4bgt12rcd13ifvqcd0","pricing_plan_id":"cebpf4jnsgd1na2vs0mg"},{"bike_id":"33fc05f9-b554-4cf3-9e7d-36b2e0d89193","system_id":"levelo_inurba_marseille","lat":43.314811,"lon":5.373104,"is_reserved":false,"is_disabled":false,"rental_uris":{"android":"levelo://app?vid=33fc05f9-b554-4cf3-9e7d-36b2e0d89193","ios":"levelo://app?vid=33fc05f9-b554-4cf3-9e7d-36b2e0d89193"},"vehicle_type_id":"4","last_reported":1721772518,"current_range_meters":7600,"station_id":"ce4bgt12rcd13ifvqcd0","pricing_plan_id":"cebpf4jnsgd1na2vs0mg"},{"bike_id":"09002a6c-0241-43fb-b0d3-b116cdb87a32","system_id":"levelo_inurba_marseille","lat":43.315042,"lon":5.373048,"is_reserved":false,"is_disabled":false,"rental_uris":{"android":"levelo://app?vid=09002a6c-0241-43fb-b0d3-b116cdb87a32","ios":"levelo://app?vid=09002a6c-0241-43fb-b0d3-b116cdb87a32"},"vehicle_type_id":"4","last_reported":1721772518,"current_range_meters":31200,"station_id":"ce4bgt12rcd13ifvqcd0","pricing_plan_id":"cebpf4jnsgd1na2vs0mg"},{"bike_id":"a9c10527-c1e6-4652-afb8-bc182774ad6b","system_id":"levelo_inurba_marseille","lat":43.314811,"lon":5.373103,"is_reserved":false,"is_disabled":false,"rental_uris":{"android":"levelo://app?vid=a9c10527-c1e6-4652-afb8-bc182774ad6b","ios":"levelo://app?vid=a9c10527-c1e6-4652-afb8-bc182774ad6b"},"vehicle_type_id":"4","last_reported":1721772518,"current_range_meters":30400,"station_id":"ce4bgt12rcd13ifvqcd0","pricing_plan_id":"cebpf4jnsgd1na2vs0mg"},{"bike_id":"0dc6824d-9d86-406a-a539-d8bec26b4b84","system_id":"levelo_inurba_marseille","lat":43.309034,"lon":5.371783,"is_reserved":false,"is_disabled":false,"rental_uris":{"android":"levelo://app?vid=0dc6824d-9d86-406a-a539-d8bec26b4b84","ios":"levelo://app?vid=0dc6824d-9d86-406a-a539-d8bec26b4b84"},"vehicle_type_id":"4","last_reported":1721772518,"current_range_meters":26000,"station_id":"ce4bguh2rcd13ifvqckg","pricing_plan_id":"cebpf4jnsgd1na2vs0mg"},{"bike_id":"a9ab0039-b7da-48e9-bda7-898cb83b16fe","system_id":"levelo_inurba_marseille","lat":43.30889,"lon":5.372,"is_reserved":false,"is_disabled":false,"rental_uris":{"android":"levelo://app?vid=a9ab0039-b7da-48e9-bda7-898cb83b16fe","ios":"levelo://app?vid=a9ab0039-b7da-48e9-bda7-898cb83b16fe"},"vehicle_type_id":"4","last_reported":1721772518,"current_range_meters":6800,"station_id":"ce4bguh2rcd13ifvqckg","pricing_plan_id":"cebpf4jnsgd1na2vs0mg"},{"bike_id":"0e088185-94fd-42a1-9b2d-b2d3c6f638da","system_id":"levelo_inurba_marseille","lat":43.309034,"lon":5.371783,"is_reserved":false,"is_disabled":false,"rental_uris":{"android":"levelo://app?vid=0e088185-94fd-42a1-9b2d-b2d3c6f638da","ios":"levelo://app?vid=0e088185-94fd-42a1-9b2d-b2d3c6f638da"},"vehicle_type_id":"4","last_reported":1721772518,"current_range_meters":16400,"station_id":"ce4bguh2rcd13ifvqckg","pricing_plan_id":"cebpf4jnsgd1na2vs0mg"},{"bike_id":"64f28399-beca-4faa-a237-2078ab020ce7","system_id":"levelo_inurba_marseille","lat":43.309034,"lon":5.371783,"is_reserved":false,"is_disabled":false,"rental_uris":{"android":"levelo://app?vid=64f28399-beca-4faa-a237-2078ab020ce7","ios":"levelo://app?vid=64f28399-beca-4faa-a237-2078ab020ce7"},"vehicle_type_id":"4","last_reported":1721772518,"current_range_meters":19200,"station_id":"ce4bguh2rcd13ifvqckg","pricing_plan_id":"cebpf4jnsgd1na2vs0mg"},{"bike_id":"0546327c-f56c-4032-9dfc-831455d342bb","system_id":"levelo_inurba_marseille","lat":43.308833,"lon":5.372033,"is_reserved":false,"is_disabled":false,"rental_uris":{"android":"levelo://app?vid=0546327c-f56c-4032-9dfc-831455d342bb","ios":"levelo://app?vid=0546327c-f56c-4032-9dfc-831455d342bb"},"vehicle_type_id":"4","last_reported":1721772518,"current_range_meters":24400,"station_id":"","pricing_plan_id":"cebpf4jnsgd1na2vs0mg"},{"bike_id":"8ebeb040-ea57-4531-a657-fe4e1b3cf0ed","system_id":"levelo_inurba_marseille","lat":43.30852,"lon":5.37161,"is_reserved":false,"is_disabled":false,"rental_uris":{"android":"levelo://app?vid=8ebeb040-ea57-4531-a657-fe4e1b3cf0ed","ios":"levelo://app?vid=8ebeb040-ea57-4531-a657-fe4e1b3cf0ed"},"vehicle_type_id":"4","last_reported":1721772518,"current_range_meters":22400,"station_id":"","pricing_plan_id":"cebpf4jnsgd1na2vs0mg"},{"bike_id":"f73d9013-8086-419c-a87f-64bd4db78279","system_id":"levelo_inurba_marseille","lat":43.318038,"lon":5.370134,"is_reserved":false,"is_disabled":false,"rental_uris":{"android":"levelo://app?vid=f73d9013-8086-419c-a87f-64bd4db78279","ios":"levelo://app?vid=f73d9013-8086-419c-a87f-64bd4db78279"},"vehicle_type_id":"4","last_reported":1721772518,"current_range_meters":18400,"station_id":"","pricing_plan_id":"cebpf4jnsgd1na2vs0mg"},{"bike_id":"eaef9ed1-c960-4211-b339-21c26165d84f","system_id":"levelo_inurba_marseille","lat":43.305368,"lon":5.367343,"is_reserved":false,"is_disabled":false,"rental_uris":{"android":"levelo://app?vid=eaef9ed1-c960-4211-b339-21c26165d84f","ios":"levelo://app?vid=eaef9ed1-c960-4211-b339-21c26165d84f"},"vehicle_type_id":"4","last_reported":1721772518,"current_range_meters":22800,"station_id":"ce4bgrp2rcd13ifvqc9g","pricing_plan_id":"cebpf4jnsgd1na2vs0mg"},{"bike_id":"0cd9db9d-e93d-45ef-a6bd-6c4e24a5b18f","system_id":"levelo_inurba_marseille","lat":43.30531,"lon":5.36537,"is_reserved":false,"is_disabled":false,"rental_uris":{"android":"levelo://app?vid=0cd9db9d-e93d-45ef-a6bd-6c4e24a5b18f","ios":"levelo://app?vid=0cd9db9d-e93d-45ef-a6bd-6c4e24a5b18f"},"vehicle_type_id":"4","last_reported":1721772518,"current_range_meters":23200,"station_id":"ce4bgs12rcd13ifvqcag","pricing_plan_id":"cebpf4jnsgd1na2vs0mg"},{"bike_id":"7aa912e5-90d3-4a7c-b3b2-1de5f704c585","system_id":"levelo_inurba_marseille","lat":43.31801,"lon":5.37453,"is_reserved":false,"is_disabled":false,"rental_uris":{"android":"levelo://app?vid=7aa912e5-90d3-4a7c-b3b2-1de5f704c585","ios":"levelo://app?vid=7aa912e5-90d3-4a7c-b3b2-1de5f704c585"},"vehicle_type_id":"4","last_reported":1721772518,"current_range_meters":8000,"station_id":"","pricing_plan_id":"cebpf4jnsgd1na2vs0mg"},{"bike_id":"4d2d5f57-4bab-4b09-8523-0cf42c3afc8a","system_id":"levelo_inurba_marseille","lat":43.305714,"lon":5.365633,"is_reserved":false,"is_disabled":false,"rental_uris":{"android":"levelo://app?vid=4d2d5f57-4bab-4b09-8523-0cf42c3afc8a","ios":"levelo://app?vid=4d2d5f57-4bab-4b09-8523-0cf42c3afc8a"},"vehicle_type_id":"4","last_reported":1721772518,"current_range_meters":26000,"station_id":"ce4bgs12rcd13ifvqcag","pricing_plan_id":"cebpf4jnsgd1na2vs0mg"},{"bike_id":"66f4d700-ccc0-40ae-abce-596913eb76a8","system_id":"levelo_inurba_marseille","lat":43.305989,"lon":5.37225,"is_reserved":false,"is_disabled":false,"rental_uris":{"android":"levelo://app?vid=66f4d700-ccc0-40ae-abce-596913eb76a8","ios":"levelo://app?vid=66f4d700-ccc0-40ae-abce-596913eb76a8"},"vehicle_type_id":"4","last_reported":1721772518,"current_range_meters":21600,"station_id":"ce4bgqh2rcd13ifvqc4g","pricing_plan_id":"cebpf4jnsgd1na2vs0mg"},{"bike_id":"498b9659-1e96-490d-865c-b50c7467d7e6","system_id":"levelo_inurba_marseille","lat":43.305989,"lon":5.37225,"is_reserved":false,"is_disabled":false,"rental_uris":{"android":"levelo://app?vid=498b9659-1e96-490d-865c-b50c7467d7e6","ios":"levelo://app?vid=498b9659-1e96-490d-865c-b50c7467d7e6"},"vehicle_type_id":"4","last_reported":1721772518,"current_range_meters":13600,"station_id":"ce4bgqh2rcd13ifvqc4g","pricing_plan_id":"cebpf4jnsgd1na2vs0mg"},{"bike_id":"fa7a5696-8fb0-4cef-bb6c-d46678164edd","system_id":"levelo_inurba_marseille","lat":43.305989,"lon":5.37225,"is_reserved":false,"is_disabled":false,"rental_uris":{"android":"levelo://app?vid=fa7a5696-8fb0-4cef-bb6c-d46678164edd","ios":"levelo://app?vid=fa7a5696-8fb0-4cef-bb6c-d46678164edd"},"vehicle_type_id":"4","last_reported":1721772518,"current_range_meters":14400,"station_id":"ce4bgqh2rcd13ifvqc4g","pricing_plan_id":"cebpf4jnsgd1na2vs0mg"},{"bike_id":"9db35b10-6b74-43f2-8181-a2ad6dd0a2db","system_id":"levelo_inurba_marseille","lat":43.311125,"lon":5.377624,"is_reserved":false,"is_disabled":false,"rental_uris":{"android":"levelo://app?vid=9db35b10-6b74-43f2-8181-a2ad6dd0a2db","ios":"levelo://app?vid=9db35b10-6b74-43f2-8181-a2ad6dd0a2db"},"vehicle_type_id":"4","last_reported":1721772518,"current_range_meters":4800,"station_id":"ce4bgt92rcd13ifvqcg0","pricing_plan_id":"cebpf4jnsgd1na2vs0mg"},{"bike_id":"1d82b885-45c1-4e1a-8f64-6be58555ac8a","system_id":"levelo_inurba_marseille","lat":43.311125,"lon":5.377624,"is_reserved":false,"is_disabled":false,"rental_uris":{"android":"levelo://app?vid=1d82b885-45c1-4e1a-8f64-6be58555ac8a","ios":"levelo://app?vid=1d82b885-45c1-4e1a-8f64-6be58555ac8a"},"vehicle_type_id":"4","last_reported":1721772518,"current_range_meters":20000,"station_id":"ce4bgt92rcd13ifvqcg0","pricing_plan_id":"cebpf4jnsgd1na2vs0mg"},{"bike_id":"85361222-5957-42d4-8222-81843318531f","system_id":"levelo_inurba_marseille","lat":43.311125,"lon":5.377624,"is_reserved":false,"is_disabled":false,"rental_uris":{"android":"levelo://app?vid=85361222-5957-42d4-8222-81843318531f","ios":"levelo://app?vid=85361222-5957-42d4-8222-81843318531f"},"vehicle_type_id":"4","last_reported":1721772518,"current_range_meters":22800,"station_id":"ce4bgt92rcd13ifvqcg0","pricing_plan_id":"cebpf4jnsgd1na2vs0mg"},{"bike_id":"cc1b4e9c-a9a4-4855-adcd-4490da2acebf","system_id":"levelo_inurba_marseille","lat":43.311125,"lon":5.377624,"is_reserved":false,"is_disabled":false,"rental_uris":{"android":"levelo://app?vid=cc1b4e9c-a9a4-4855-adcd-4490da2acebf","ios":"levelo://app?vid=cc1b4e9c-a9a4-4855-adcd-4490da2acebf"},"vehicle_type_id":"4","last_reported":1721772518,"current_range_meters":22000,"station_id":"ce4bgt92rcd13ifvqcg0","pricing_plan_id":"cebpf4jnsgd1na2vs0mg"},{"bike_id":"50e6dd34-b82f-44be-a392-81bc71bea2b4","system_id":"levelo_inurba_marseille","lat":43.311125,"lon":5.377624,"is_reserved":false,"is_disabled":false,"rental_uris":{"android":"levelo://app?vid=50e6dd34-b82f-44be-a392-81bc71bea2b4","ios":"levelo://app?vid=50e6dd34-b82f-44be-a392-81bc71bea2b4"},"vehicle_type_id":"4","last_reported":1721772518,"current_range_meters":24400,"station_id":"ce4bgt92rcd13ifvqcg0","pricing_plan_id":"cebpf4jnsgd1na2vs0mg"},{"bike_id":"75764afa-84d0-4f5d-b0a7-1230b6e0c9fb","system_id":"levelo_inurba_marseille","lat":43.311125,"lon":5.377624,"is_reserved":false,"is_disabled":false,"rental_uris":{"android":"levelo://app?vid=75764afa-84d0-4f5d-b0a7-1230b6e0c9fb","ios":"levelo://app?vid=75764afa-84d0-4f5d-b0a7-1230b6e0c9fb"},"vehicle_type_id":"4","last_reported":1721772518,"current_range_meters":7200,"station_id":"ce4bgt92rcd13ifvqcg0","pricing_plan_id":"cebpf4jnsgd1na2vs0mg"},{"bike_id":"99a8263f-8433-40d7-9003-ddc3c2671e90","system_id":"levelo_inurba_marseille","lat":43.307945,"lon":5.376487,"is_reserved":false,"is_disabled":false,"rental_uris":{"android":"levelo://app?vid=99a8263f-8433-40d7-9003-ddc3c2671e90","ios":"levelo://app?vid=99a8263f-8433-40d7-9003-ddc3c2671e90"},"vehicle_type_id":"4","last_reported":1721772518,"current_range_meters":26400,"station_id":"ce4bgv92rcd13ifvqcq0","pricing_plan_id":"cebpf4jnsgd1na2vs0mg"},{"bike_id":"bf3616e6-9226-459d-8a81-2025c9ee34b9","system_id":"levelo_inurba_marseille","lat":43.307945,"lon":5.376487,"is_reserved":false,"is_disabled":false,"rental_uris":{"android":"levelo://app?vid=bf3616e6-9226-459d-8a81-2025c9ee34b9","ios":"levelo://app?vid=bf3616e6-9226-459d-8a81-2025c9ee34b9"},"vehicle_type_id":"4","last_reported":1721772518,"current_range_meters":3600,"station_id":"ce4bgv92rcd13ifvqcq0","pricing_plan_id":"cebpf4jnsgd1na2vs0mg"},{"bike_id":"16022272-7d4e-40ef-9255-513a1a8ce055","system_id":"levelo_inurba_marseille","lat":43.307945,"lon":5.376487,"is_reserved":false,"is_disabled":false,"rental_uris":{"android":"levelo://app?vid=16022272-7d4e-40ef-9255-513a1a8ce055","ios":"levelo://app?vid=16022272-7d4e-40ef-9255-513a1a8ce055"},"vehicle_type_id":"4","last_reported":1721772518,"current_range_meters":15600,"station_id":"ce4bgv92rcd13ifvqcq0","pricing_plan_id":"cebpf4jnsgd1na2vs0mg"},{"bike_id":"7d2c7742-138d-4e71-a640-a638306de37a","system_id":"levelo_inurba_marseille","lat":43.307945,"lon":5.376487,"is_reserved":false,"is_disabled":false,"rental_uris":{"android":"levelo://app?vid=7d2c7742-138d-4e71-a640-a638306de37a","ios":"levelo://app?vid=7d2c7742-138d-4e71-a640-a638306de37a"},"vehicle_type_id":"4","last_reported":1721772518,"current_range_meters":14800,"station_id":"ce4bgv92rcd13ifvqcq0","pricing_plan_id":"cebpf4jnsgd1na2vs0mg"},{"bike_id":"7a71ca8a-001e-4987-ba4f-e3cd95a3927f","system_id":"levelo_inurba_marseille","lat":43.317075,"lon":5.377367,"is_reserved":false,"is_disabled":false,"rental_uris":{"android":"levelo://app?vid=7a71ca8a-001e-4987-ba4f-e3cd95a3927f","ios":"levelo://app?vid=7a71ca8a-001e-4987-ba4f-e3cd95a3927f"},"vehicle_type_id":"4","last_reported":1721772518,"current_range_meters":26800,"station_id":"ce4bgth2rcd13ifvqch0","pricing_plan_id":"cebpf4jnsgd1na2vs0mg"},{"bike_id":"8b631085-70db-42c4-8151-45cb8877f6a8","system_id":"levelo_inurba_marseille","lat":43.30392,"lon":5.36792,"is_reserved":false,"is_disabled":false,"rental_uris":{"android":"levelo://app?vid=8b631085-70db-42c4-8151-45cb8877f6a8","ios":"levelo://app?vid=8b631085-70db-42c4-8151-45cb8877f6a8"},"vehicle_type_id":"4","last_reported":1721772518,"current_range_meters":5200,"station_id":"","pricing_plan_id":"cebpf4jnsgd1na2vs0mg"},{"bike_id":"7629c9b8-de96-4782-a229-ed4ac605f716","system_id":"levelo_inurba_marseille","lat":43.303046,"lon":5.368981,"is_reserved":false,"is_disabled":false,"rental_uris":{"android":"levelo://app?vid=7629c9b8-de96-4782-a229-ed4ac605f716","ios":"levelo://app?vid=7629c9b8-de96-4782-a229-ed4ac605f716"},"vehicle_type_id":"4","last_reported":1721772518,"current_range_meters":3600,"station_id":"ce4bgqh2rcd13ifvqc5g","pricing_plan_id":"cebpf4jnsgd1na2vs0mg"},{"bike_id":"112a2110-a4f8-4491-a822-81f7802c07e3","system_id":"levelo_inurba_marseille","lat":43.303046,"lon":5.368981,"is_reserved":false,"is_disabled":false,"rental_uris":{"android":"levelo://app?vid=112a2110-a4f8-4491-a822-81f7802c07e3","ios":"levelo://app?vid=112a2110-a4f8-4491-a822-81f7802c07e3"},"vehicle_type_id":"4","last_reported":1721772518,"current_range_meters":23200,"station_id":"ce4bgqh2rcd13ifvqc5g","pricing_plan_id":"cebpf4jnsgd1na2vs0mg"},{"bike_id":"77ec9b35-78a7-450c-af20-36d0fc5c6292","system_id":"levelo_inurba_marseille","lat":43.303046,"lon":5.368981,"is_reserved":false,"is_disabled":false,"rental_uris":{"android":"levelo://app?vid=77ec9b35-78a7-450c-af20-36d0fc5c6292","ios":"levelo://app?vid=77ec9b35-78a7-450c-af20-36d0fc5c6292"},"vehicle_type_id":"4","last_reported":1721772518,"current_range_meters":6400,"station_id":"ce4bgqh2rcd13ifvqc5g","pricing_plan_id":"cebpf4jnsgd1na2vs0mg"},{"bike_id":"bc07a70f-50a6-49d7-889f-d94cf119987f","system_id":"levelo_inurba_marseille","lat":43.303046,"lon":5.368981,"is_reserved":false,"is_disabled":false,"rental_uris":{"android":"levelo://app?vid=bc07a70f-50a6-49d7-889f-d94cf119987f","ios":"levelo://app?vid=bc07a70f-50a6-49d7-889f-d94cf119987f"},"vehicle_type_id":"4","last_reported":1721772518,"current_range_meters":14400,"station_id":"ce4bgqh2rcd13ifvqc5g","pricing_plan_id":"cebpf4jnsgd1na2vs0mg"},{"bike_id":"ba2feee2-03ee-41b5-98c1-d5e3a0491b58","system_id":"levelo_inurba_marseille","lat":43.30304,"lon":5.368987,"is_reserved":false,"is_disabled":false,"rental_uris":{"android":"levelo://app?vid=ba2feee2-03ee-41b5-98c1-d5e3a0491b58","ios":"levelo://app?vid=ba2feee2-03ee-41b5-98c1-d5e3a0491b58"},"vehicle_type_id":"4","last_reported":1721772518,"current_range_meters":4400,"station_id":"ce4bgqh2rcd13ifvqc5g","pricing_plan_id":"cebpf4jnsgd1na2vs0mg"},{"bike_id":"514cd8b7-d85a-44a2-a375-6ca16a0307de","system_id":"levelo_inurba_marseille","lat":43.303046,"lon":5.368981,"is_reserved":false,"is_disabled":false,"rental_uris":{"android":"levelo://app?vid=514cd8b7-d85a-44a2-a375-6ca16a0307de","ios":"levelo://app?vid=514cd8b7-d85a-44a2-a375-6ca16a0307de"},"vehicle_type_id":"4","last_reported":1721772518,"current_range_meters":21600,"station_id":"ce4bgqh2rcd13ifvqc5g","pricing_plan_id":"cebpf4jnsgd1na2vs0mg"},{"bike_id":"2617e7db-9641-4170-94dc-a31c6fd824dd","system_id":"levelo_inurba_marseille","lat":43.303046,"lon":5.368981,"is_reserved":false,"is_disabled":false,"rental_uris":{"android":"levelo://app?vid=2617e7db-9641-4170-94dc-a31c6fd824dd","ios":"levelo://app?vid=2617e7db-9641-4170-94dc-a31c6fd824dd"},"vehicle_type_id":"4","last_reported":1721772518,"current_range_meters":20400,"station_id":"ce4bgqh2rcd13ifvqc5g","pricing_plan_id":"cebpf4jnsgd1na2vs0mg"},{"bike_id":"7a8a2741-ff3e-4656-aa7b-acbdae802213","system_id":"levelo_inurba_marseille","lat":43.315289,"lon":5.380349,"is_reserved":false,"is_disabled":false,"rental_uris":{"android":"levelo://app?vid=7a8a2741-ff3e-4656-aa7b-acbdae802213","ios":"levelo://app?vid=7a8a2741-ff3e-4656-aa7b-acbdae802213"},"vehicle_type_id":"4","last_reported":1721772518,"current_range_meters":29200,"station_id":"ce4bhsp2rcd13ifvqi50","pricing_plan_id":"cebpf4jnsgd1na2vs0mg"},{"bike_id":"35561786-9b7b-4d50-999c-d64ba3eea101","system_id":"levelo_inurba_marseille","lat":43.315289,"lon":5.380349,"is_reserved":false,"is_disabled":false,"rental_uris":{"android":"levelo://app?vid=35561786-9b7b-4d50-999c-d64ba3eea101","ios":"levelo://app?vid=35561786-9b7b-4d50-999c-d64ba3eea101"},"vehicle_type_id":"4","last_reported":1721772518,"current_range_meters":13200,"station_id":"ce4bhsp2rcd13ifvqi50","pricing_plan_id":"cebpf4jnsgd1na2vs0mg"},{"bike_id":"b15507e5-1388-4c64-b40c-2bebe45a4476","system_id":"levelo_inurba_marseille","lat":43.315289,"lon":5.380349,"is_reserved":false,"is_disabled":false,"rental_uris":{"android":"levelo://app?vid=b15507e5-1388-4c64-b40c-2bebe45a4476","ios":"levelo://app?vid=b15507e5-1388-4c64-b40c-2bebe45a4476"},"vehicle_type_id":"4","last_reported":1721772518,"current_range_meters":11200,"station_id":"ce4bhsp2rcd13ifvqi50","pricing_plan_id":"cebpf4jnsgd1na2vs0mg"},{"bike_id":"66dfdb2e-eb77-4d75-b255-5637f734236f","system_id":"levelo_inurba_marseille","lat":43.301939,"lon":5.366286,"is_reserved":false,"is_disabled":false,"rental_uris":{"android":"levelo://app?vid=66dfdb2e-eb77-4d75-b255-5637f734236f","ios":"levelo://app?vid=66dfdb2e-eb77-4d75-b255-5637f734236f"},"vehicle_type_id":"4","last_reported":1721772518,"current_range_meters":27600,"station_id":"ce4bgrh2rcd13ifvqc8g","pricing_plan_id":"cebpf4jnsgd1na2vs0mg"},{"bike_id":"83513f92-1658-4358-b623-266104c9bcf0","system_id":"levelo_inurba_marseille","lat":43.308012,"lon":5.381511,"is_reserved":false,"is_disabled":false,"rental_uris":{"android":"levelo://app?vid=83513f92-1658-4358-b623-266104c9bcf0","ios":"levelo://app?vid=83513f92-1658-4358-b623-266104c9bcf0"},"vehicle_type_id":"4","last_reported":1721772518,"current_range_meters":14800,"station_id":"ce4bgt12rcd13ifvqce0","pricing_plan_id":"cebpf4jnsgd1na2vs0mg"},{"bike_id":"bc1efb86-f313-4100-b1c7-97e1d7580be7","system_id":"levelo_inurba_marseille","lat":43.324793,"lon":5.365837,"is_reserved":false,"is_disabled":false,"rental_uris":{"android":"levelo://app?vid=bc1efb86-f313-4100-b1c7-97e1d7580be7","ios":"levelo://app?vid=bc1efb86-f313-4100-b1c7-97e1d7580be7"},"vehicle_type_id":"4","last_reported":1721772518,"current_range_meters":15200,"station_id":"ce4bhs12rcd13ifvqhvg","pricing_plan_id":"cebpf4jnsgd1na2vs0mg"},{"bike_id":"d8debfef-1b65-4608-96c7-7a66d8f8639a","system_id":"levelo_inurba_marseille","lat":43.324771,"lon":5.36557,"is_reserved":false,"is_disabled":false,"rental_uris":{"android":"levelo://app?vid=d8debfef-1b65-4608-96c7-7a66d8f8639a","ios":"levelo://app?vid=d8debfef-1b65-4608-96c7-7a66d8f8639a"},"vehicle_type_id":"4","last_reported":1721772518,"current_range_meters":28400,"station_id":"ce4bhs12rcd13ifvqhvg","pricing_plan_id":"cebpf4jnsgd1na2vs0mg"},{"bike_id":"22a0fe6c-be1b-4293-8452-eda5096d9086","system_id":"levelo_inurba_marseille","lat":43.324771,"lon":5.36557,"is_reserved":false,"is_disabled":false,"rental_uris":{"android":"levelo://app?vid=22a0fe6c-be1b-4293-8452-eda5096d9086","ios":"levelo://app?vid=22a0fe6c-be1b-4293-8452-eda5096d9086"},"vehicle_type_id":"4","last_reported":1721772518,"current_range_meters":7200,"station_id":"ce4bhs12rcd13ifvqhvg","pricing_plan_id":"cebpf4jnsgd1na2vs0mg"},{"bike_id":"8489d467-5a29-4be1-935a-1e629f2ff873","system_id":"levelo_inurba_marseille","lat":43.32485,"lon":5.365793,"is_reserved":false,"is_disabled":false,"rental_uris":{"android":"levelo://app?vid=8489d467-5a29-4be1-935a-1e629f2ff873","ios":"levelo://app?vid=8489d467-5a29-4be1-935a-1e629f2ff873"},"vehicle_type_id":"4","last_reported":1721772518,"current_range_meters":28800,"station_id":"ce4bhs12rcd13ifvqhvg","pricing_plan_id":"cebpf4jnsgd1na2vs0mg"},{"bike_id":"caa69d1a-2b82-4ebb-bb1f-02a9d70f4923","system_id":"levelo_inurba_marseille","lat":43.324771,"lon":5.36557,"is_reserved":false,"is_disabled":false,"rental_uris":{"android":"levelo://app?vid=caa69d1a-2b82-4ebb-bb1f-02a9d70f4923","ios":"levelo://app?vid=caa69d1a-2b82-4ebb-bb1f-02a9d70f4923"},"vehicle_type_id":"4","last_reported":1721772518,"current_range_meters":11200,"station_id":"ce4bhs12rcd13ifvqhvg","pricing_plan_id":"cebpf4jnsgd1na2vs0mg"},{"bike_id":"c46928a8-f957-43d8-bfb5-961be717bab7","system_id":"levelo_inurba_marseille","lat":43.324771,"lon":5.36557,"is_reserved":false,"is_disabled":false,"rental_uris":{"android":"levelo://app?vid=c46928a8-f957-43d8-bfb5-961be717bab7","ios":"levelo://app?vid=c46928a8-f957-43d8-bfb5-961be717bab7"},"vehicle_type_id":"4","last_reported":1721772518,"current_range_meters":30000,"station_id":"ce4bhs12rcd13ifvqhvg","pricing_plan_id":"cebpf4jnsgd1na2vs0mg"},{"bike_id":"870970ba-57b8-47df-85ec-7d609195c2e6","system_id":"levelo_inurba_marseille","lat":43.310804,"lon":5.38359,"is_reserved":false,"is_disabled":false,"rental_uris":{"android":"levelo://app?vid=870970ba-57b8-47df-85ec-7d609195c2e6","ios":"levelo://app?vid=870970ba-57b8-47df-85ec-7d609195c2e6"},"vehicle_type_id":"4","last_reported":1721772518,"current_range_meters":10800,"station_id":"ce4bgv92rcd13ifvqcr0","pricing_plan_id":"cebpf4jnsgd1na2vs0mg"},{"bike_id":"f5bbaaab-ebd1-44bc-a8a7-377405e1468b","system_id":"levelo_inurba_marseille","lat":43.310804,"lon":5.38359,"is_reserved":false,"is_disabled":false,"rental_uris":{"android":"levelo://app?vid=f5bbaaab-ebd1-44bc-a8a7-377405e1468b","ios":"levelo://app?vid=f5bbaaab-ebd1-44bc-a8a7-377405e1468b"},"vehicle_type_id":"4","last_reported":1721772518,"current_range_meters":31200,"station_id":"ce4bgv92rcd13ifvqcr0","pricing_plan_id":"cebpf4jnsgd1na2vs0mg"},{"bike_id":"03c7e3f3-59ff-4ce0-a0d5-301cae816487","system_id":"levelo_inurba_marseille","lat":43.310804,"lon":5.38359,"is_reserved":false,"is_disabled":false,"rental_uris":{"android":"levelo://app?vid=03c7e3f3-59ff-4ce0-a0d5-301cae816487","ios":"levelo://app?vid=03c7e3f3-59ff-4ce0-a0d5-301cae816487"},"vehicle_type_id":"4","last_reported":1721772518,"current_range_meters":30400,"station_id":"ce4bgv92rcd13ifvqcr0","pricing_plan_id":"cebpf4jnsgd1na2vs0mg"},{"bike_id":"4216f576-3f48-4a6b-8daf-05d9e732fcc5","system_id":"levelo_inurba_marseille","lat":43.310804,"lon":5.38359,"is_reserved":false,"is_disabled":false,"rental_uris":{"android":"levelo://app?vid=4216f576-3f48-4a6b-8daf-05d9e732fcc5","ios":"levelo://app?vid=4216f576-3f48-4a6b-8daf-05d9e732fcc5"},"vehicle_type_id":"4","last_reported":1721772518,"current_range_meters":22800,"station_id":"ce4bgv92rcd13ifvqcr0","pricing_plan_id":"cebpf4jnsgd1na2vs0mg"},{"bike_id":"1485abc2-c902-4a47-a595-3bc07c17ee30","system_id":"levelo_inurba_marseille","lat":43.310804,"lon":5.38359,"is_reserved":false,"is_disabled":false,"rental_uris":{"android":"levelo://app?vid=1485abc2-c902-4a47-a595-3bc07c17ee30","ios":"levelo://app?vid=1485abc2-c902-4a47-a595-3bc07c17ee30"},"vehicle_type_id":"4","last_reported":1721772518,"current_range_meters":22000,"station_id":"ce4bgv92rcd13ifvqcr0","pricing_plan_id":"cebpf4jnsgd1na2vs0mg"},{"bike_id":"2d37966c-73da-482f-9a90-c1cce552780d","system_id":"levelo_inurba_marseille","lat":43.302784,"lon":5.377158,"is_reserved":false,"is_disabled":false,"rental_uris":{"android":"levelo://app?vid=2d37966c-73da-482f-9a90-c1cce552780d","ios":"levelo://app?vid=2d37966c-73da-482f-9a90-c1cce552780d"},"vehicle_type_id":"4","last_reported":1721772518,"current_range_meters":14400,"station_id":"ce4bguh2rcd13ifvqcj0","pricing_plan_id":"cebpf4jnsgd1na2vs0mg"},{"bike_id":"80b015ea-b82e-4f19-95e3-d9fc65645042","system_id":"levelo_inurba_marseille","lat":43.30142,"lon":5.37415,"is_reserved":false,"is_disabled":false,"rental_uris":{"android":"levelo://app?vid=80b015ea-b82e-4f19-95e3-d9fc65645042","ios":"levelo://app?vid=80b015ea-b82e-4f19-95e3-d9fc65645042"},"vehicle_type_id":"4","last_reported":1721772518,"current_range_meters":3600,"station_id":"ce4bgs92rcd13ifvqcc0","pricing_plan_id":"cebpf4jnsgd1na2vs0mg"},{"bike_id":"5c0d6378-17ad-4c34-af83-7de0f568af0f","system_id":"levelo_inurba_marseille","lat":43.30143,"lon":5.37413,"is_reserved":false,"is_disabled":false,"rental_uris":{"android":"levelo://app?vid=5c0d6378-17ad-4c34-af83-7de0f568af0f","ios":"levelo://app?vid=5c0d6378-17ad-4c34-af83-7de0f568af0f"},"vehicle_type_id":"4","last_reported":1721772518,"current_range_meters":27200,"station_id":"ce4bgs92rcd13ifvqcc0","pricing_plan_id":"cebpf4jnsgd1na2vs0mg"},{"bike_id":"f7f46089-2666-4f98-a6b2-e7379274e68b","system_id":"levelo_inurba_marseille","lat":43.31624,"lon":5.383615,"is_reserved":false,"is_disabled":false,"rental_uris":{"android":"levelo://app?vid=f7f46089-2666-4f98-a6b2-e7379274e68b","ios":"levelo://app?vid=f7f46089-2666-4f98-a6b2-e7379274e68b"},"vehicle_type_id":"4","last_reported":1721772518,"current_range_meters":11200,"station_id":"","pricing_plan_id":"cebpf4jnsgd1na2vs0mg"},{"bike_id":"23e1c567-f5c0-476e-9d64-d1e27652f077","system_id":"levelo_inurba_marseille","lat":43.319935,"lon":5.381699,"is_reserved":false,"is_disabled":false,"rental_uris":{"android":"levelo://app?vid=23e1c567-f5c0-476e-9d64-d1e27652f077","ios":"levelo://app?vid=23e1c567-f5c0-476e-9d64-d1e27652f077"},"vehicle_type_id":"4","last_reported":1721772518,"current_range_meters":4800,"station_id":"ce4bhr12rcd13ifvqhpg","pricing_plan_id":"cebpf4jnsgd1na2vs0mg"},{"bike_id":"fb9ae2a9-51d7-4de2-99b7-c601b8e40082","system_id":"levelo_inurba_marseille","lat":43.319935,"lon":5.381699,"is_reserved":false,"is_disabled":false,"rental_uris":{"android":"levelo://app?vid=fb9ae2a9-51d7-4de2-99b7-c601b8e40082","ios":"levelo://app?vid=fb9ae2a9-51d7-4de2-99b7-c601b8e40082"},"vehicle_type_id":"4","last_reported":1721772518,"current_range_meters":28800,"station_id":"ce4bhr12rcd13ifvqhpg","pricing_plan_id":"cebpf4jnsgd1na2vs0mg"},{"bike_id":"5c91e561-b575-4b6c-ad6c-d27955169494","system_id":"levelo_inurba_marseille","lat":43.319935,"lon":5.381699,"is_reserved":false,"is_disabled":false,"rental_uris":{"android":"levelo://app?vid=5c91e561-b575-4b6c-ad6c-d27955169494","ios":"levelo://app?vid=5c91e561-b575-4b6c-ad6c-d27955169494"},"vehicle_type_id":"4","last_reported":1721772518,"current_range_meters":26800,"station_id":"ce4bhr12rcd13ifvqhpg","pricing_plan_id":"cebpf4jnsgd1na2vs0mg"},{"bike_id":"a092858c-aca9-4072-b94e-c7452ff90cd2","system_id":"levelo_inurba_marseille","lat":43.30612,"lon":5.38216,"is_reserved":false,"is_disabled":false,"rental_uris":{"android":"levelo://app?vid=a092858c-aca9-4072-b94e-c7452ff90cd2","ios":"levelo://app?vid=a092858c-aca9-4072-b94e-c7452ff90cd2"},"vehicle_type_id":"4","last_reported":1721772518,"current_range_meters":18800,"station_id":"","pricing_plan_id":"cebpf4jnsgd1na2vs0mg"},{"bike_id":"14d7f64f-30c8-4849-9b7c-1e53269ff46e","system_id":"levelo_inurba_marseille","lat":43.313571,"lon":5.384829,"is_reserved":false,"is_disabled":false,"rental_uris":{"android":"levelo://app?vid=14d7f64f-30c8-4849-9b7c-1e53269ff46e","ios":"levelo://app?vid=14d7f64f-30c8-4849-9b7c-1e53269ff46e"},"vehicle_type_id":"4","last_reported":1721772518,"current_range_meters":8000,"station_id":"ce4bgt92rcd13ifvqcf0","pricing_plan_id":"cebpf4jnsgd1na2vs0mg"},{"bike_id":"5c3613ad-d7dc-4542-b7df-4c2773e037aa","system_id":"levelo_inurba_marseille","lat":43.313571,"lon":5.384829,"is_reserved":false,"is_disabled":false,"rental_uris":{"android":"levelo://app?vid=5c3613ad-d7dc-4542-b7df-4c2773e037aa","ios":"levelo://app?vid=5c3613ad-d7dc-4542-b7df-4c2773e037aa"},"vehicle_type_id":"4","last_reported":1721772518,"current_range_meters":11200,"station_id":"ce4bgt92rcd13ifvqcf0","pricing_plan_id":"cebpf4jnsgd1na2vs0mg"},{"bike_id":"81542c76-9039-4c05-9d26-c44dc52e7255","system_id":"levelo_inurba_marseille","lat":43.313571,"lon":5.384829,"is_reserved":false,"is_disabled":false,"rental_uris":{"android":"levelo://app?vid=81542c76-9039-4c05-9d26-c44dc52e7255","ios":"levelo://app?vid=81542c76-9039-4c05-9d26-c44dc52e7255"},"vehicle_type_id":"4","last_reported":1721772518,"current_range_meters":4800,"station_id":"ce4bgt92rcd13ifvqcf0","pricing_plan_id":"cebpf4jnsgd1na2vs0mg"},{"bike_id":"33ee9832-2202-4e77-acb5-4c2fc32911cd","system_id":"levelo_inurba_marseille","lat":43.313571,"lon":5.384829,"is_reserved":false,"is_disabled":false,"rental_uris":{"android":"levelo://app?vid=33ee9832-2202-4e77-acb5-4c2fc32911cd","ios":"levelo://app?vid=33ee9832-2202-4e77-acb5-4c2fc32911cd"},"vehicle_type_id":"4","last_reported":1721772518,"current_range_meters":16800,"station_id":"ce4bgt92rcd13ifvqcf0","pricing_plan_id":"cebpf4jnsgd1na2vs0mg"},{"bike_id":"969ffb7f-9e5c-486f-8f94-f557490fd59c","system_id":"levelo_inurba_marseille","lat":43.31358,"lon":5.38492,"is_reserved":false,"is_disabled":false,"rental_uris":{"android":"levelo://app?vid=969ffb7f-9e5c-486f-8f94-f557490fd59c","ios":"levelo://app?vid=969ffb7f-9e5c-486f-8f94-f557490fd59c"},"vehicle_type_id":"4","last_reported":1721772518,"current_range_meters":800,"station_id":"ce4bgt92rcd13ifvqcf0","pricing_plan_id":"cebpf4jnsgd1na2vs0mg"},{"bike_id":"4e5f303e-79b4-40cc-93ab-0b27ac6e7940","system_id":"levelo_inurba_marseille","lat":43.313571,"lon":5.384829,"is_reserved":false,"is_disabled":false,"rental_uris":{"android":"levelo://app?vid=4e5f303e-79b4-40cc-93ab-0b27ac6e7940","ios":"levelo://app?vid=4e5f303e-79b4-40cc-93ab-0b27ac6e7940"},"vehicle_type_id":"4","last_reported":1721772518,"current_range_meters":2800,"station_id":"ce4bgt92rcd13ifvqcf0","pricing_plan_id":"cebpf4jnsgd1na2vs0mg"},{"bike_id":"5be3884f-cc4b-42a3-95f5-511554d18100","system_id":"levelo_inurba_marseille","lat":43.31362,"lon":5.38498,"is_reserved":false,"is_disabled":false,"rental_uris":{"android":"levelo://app?vid=5be3884f-cc4b-42a3-95f5-511554d18100","ios":"levelo://app?vid=5be3884f-cc4b-42a3-95f5-511554d18100"},"vehicle_type_id":"4","last_reported":1721772518,"current_range_meters":8000,"station_id":"ce4bgt92rcd13ifvqcf0","pricing_plan_id":"cebpf4jnsgd1na2vs0mg"},{"bike_id":"3d837c23-45e6-4c22-8e2f-f871bbfa4dea","system_id":"levelo_inurba_marseille","lat":43.31367,"lon":5.38498,"is_reserved":false,"is_disabled":false,"rental_uris":{"android":"levelo://app?vid=3d837c23-45e6-4c22-8e2f-f871bbfa4dea","ios":"levelo://app?vid=3d837c23-45e6-4c22-8e2f-f871bbfa4dea"},"vehicle_type_id":"4","last_reported":1721772518,"current_range_meters":1600,"station_id":"ce4bgt92rcd13ifvqcf0","pricing_plan_id":"cebpf4jnsgd1na2vs0mg"},{"bike_id":"487d860a-437d-414b-a4ad-b8ee92ab63e7","system_id":"levelo_inurba_marseille","lat":43.29975,"lon":5.37179,"is_reserved":false,"is_disabled":false,"rental_uris":{"android":"levelo://app?vid=487d860a-437d-414b-a4ad-b8ee92ab63e7","ios":"levelo://app?vid=487d860a-437d-414b-a4ad-b8ee92ab63e7"},"vehicle_type_id":"4","last_reported":1721772518,"current_range_meters":0,"station_id":"ce4bgr92rcd13ifvqc7g","pricing_plan_id":"cebpf4jnsgd1na2vs0mg"},{"bike_id":"b10177a8-1b56-4a82-b70b-c67347e0cabd","system_id":"levelo_inurba_marseille","lat":43.298796,"lon":5.366494,"is_reserved":false,"is_disabled":false,"rental_uris":{"android":"levelo://app?vid=b10177a8-1b56-4a82-b70b-c67347e0cabd","ios":"levelo://app?vid=b10177a8-1b56-4a82-b70b-c67347e0cabd"},"vehicle_type_id":"4","last_reported":1721772518,"current_range_meters":21600,"station_id":"","pricing_plan_id":"cebpf4jnsgd1na2vs0mg"},{"bike_id":"b3c97d5e-b6ba-43c6-af10-30c8437cef6b","system_id":"levelo_inurba_marseille","lat":43.30943,"lon":5.386278,"is_reserved":false,"is_disabled":false,"rental_uris":{"android":"levelo://app?vid=b3c97d5e-b6ba-43c6-af10-30c8437cef6b","ios":"levelo://app?vid=b3c97d5e-b6ba-43c6-af10-30c8437cef6b"},"vehicle_type_id":"4","last_reported":1721772518,"current_range_meters":5200,"station_id":"","pricing_plan_id":"cebpf4jnsgd1na2vs0mg"},{"bike_id":"919ddcfc-f54d-4be9-beea-fc9c069cf975","system_id":"levelo_inurba_marseille","lat":43.298433,"lon":5.362774,"is_reserved":false,"is_disabled":false,"rental_uris":{"android":"levelo://app?vid=919ddcfc-f54d-4be9-beea-fc9c069cf975","ios":"levelo://app?vid=919ddcfc-f54d-4be9-beea-fc9c069cf975"},"vehicle_type_id":"4","last_reported":1721772518,"current_range_meters":10000,"station_id":"ce4bgpp2rcd13ifvqc3g","pricing_plan_id":"cebpf4jnsgd1na2vs0mg"},{"bike_id":"fdcdf683-6354-4e27-9730-2c448e6bb7e5","system_id":"levelo_inurba_marseille","lat":43.311722,"lon":5.387247,"is_reserved":false,"is_disabled":false,"rental_uris":{"android":"levelo://app?vid=fdcdf683-6354-4e27-9730-2c448e6bb7e5","ios":"levelo://app?vid=fdcdf683-6354-4e27-9730-2c448e6bb7e5"},"vehicle_type_id":"4","last_reported":1721772518,"current_range_meters":0,"station_id":"ce4bgv12rcd13ifvqcp0","pricing_plan_id":"cebpf4jnsgd1na2vs0mg"},{"bike_id":"550fd90d-6573-4641-95c4-8f12271cd3ae","system_id":"levelo_inurba_marseille","lat":43.298433,"lon":5.362774,"is_reserved":false,"is_disabled":false,"rental_uris":{"android":"levelo://app?vid=550fd90d-6573-4641-95c4-8f12271cd3ae","ios":"levelo://app?vid=550fd90d-6573-4641-95c4-8f12271cd3ae"},"vehicle_type_id":"4","last_reported":1721772518,"current_range_meters":4400,"station_id":"ce4bgpp2rcd13ifvqc3g","pricing_plan_id":"cebpf4jnsgd1na2vs0mg"},{"bike_id":"f6192f2e-03e6-4bbc-9834-efc351ada340","system_id":"levelo_inurba_marseille","lat":43.3118,"lon":5.38714,"is_reserved":false,"is_disabled":false,"rental_uris":{"android":"levelo://app?vid=f6192f2e-03e6-4bbc-9834-efc351ada340","ios":"levelo://app?vid=f6192f2e-03e6-4bbc-9834-efc351ada340"},"vehicle_type_id":"4","last_reported":1721772518,"current_range_meters":1200,"station_id":"ce4bgv12rcd13ifvqcp0","pricing_plan_id":"cebpf4jnsgd1na2vs0mg"},{"bike_id":"fff35461-831a-4340-bc9b-f68d148a9d37","system_id":"levelo_inurba_marseille","lat":43.31176,"lon":5.38714,"is_reserved":false,"is_disabled":false,"rental_uris":{"android":"levelo://app?vid=fff35461-831a-4340-bc9b-f68d148a9d37","ios":"levelo://app?vid=fff35461-831a-4340-bc9b-f68d148a9d37"},"vehicle_type_id":"4","last_reported":1721772518,"current_range_meters":2800,"station_id":"ce4bgv12rcd13ifvqcp0","pricing_plan_id":"cebpf4jnsgd1na2vs0mg"},{"bike_id":"e4055899-7261-4249-bcd9-cb0fd4c9cc46","system_id":"levelo_inurba_marseille","lat":43.31174,"lon":5.38716,"is_reserved":false,"is_disabled":false,"rental_uris":{"android":"levelo://app?vid=e4055899-7261-4249-bcd9-cb0fd4c9cc46","ios":"levelo://app?vid=e4055899-7261-4249-bcd9-cb0fd4c9cc46"},"vehicle_type_id":"4","last_reported":1721772518,"current_range_meters":400,"station_id":"ce4bgv12rcd13ifvqcp0","pricing_plan_id":"cebpf4jnsgd1na2vs0mg"},{"bike_id":"4a8ad35d-3591-4881-b5f5-5bd46cb18c3c","system_id":"levelo_inurba_marseille","lat":43.3117,"lon":5.38717,"is_reserved":false,"is_disabled":false,"rental_uris":{"android":"levelo://app?vid=4a8ad35d-3591-4881-b5f5-5bd46cb18c3c","ios":"levelo://app?vid=4a8ad35d-3591-4881-b5f5-5bd46cb18c3c"},"vehicle_type_id":"4","last_reported":1721772518,"current_range_meters":28400,"station_id":"ce4bgv12rcd13ifvqcp0","pricing_plan_id":"cebpf4jnsgd1na2vs0mg"},{"bike_id":"3a4b2ee5-172d-4e84-a2ae-64b884dad604","system_id":"levelo_inurba_marseille","lat":43.31167,"lon":5.3872,"is_reserved":false,"is_disabled":false,"rental_uris":{"android":"levelo://app?vid=3a4b2ee5-172d-4e84-a2ae-64b884dad604","ios":"levelo://app?vid=3a4b2ee5-172d-4e84-a2ae-64b884dad604"},"vehicle_type_id":"4","last_reported":1721772518,"current_range_meters":20000,"station_id":"ce4bgv12rcd13ifvqcp0","pricing_plan_id":"cebpf4jnsgd1na2vs0mg"},{"bike_id":"025aa427-9f98-425c-9852-99d89801f239","system_id":"levelo_inurba_marseille","lat":43.311714,"lon":5.387206,"is_reserved":false,"is_disabled":false,"rental_uris":{"android":"levelo://app?vid=025aa427-9f98-425c-9852-99d89801f239","ios":"levelo://app?vid=025aa427-9f98-425c-9852-99d89801f239"},"vehicle_type_id":"4","last_reported":1721772518,"current_range_meters":18000,"station_id":"ce4bgv12rcd13ifvqcp0","pricing_plan_id":"cebpf4jnsgd1na2vs0mg"},{"bike_id":"09a7efa8-61c9-4acf-b537-fcfa6b8bab83","system_id":"levelo_inurba_marseille","lat":43.311754,"lon":5.38721,"is_reserved":false,"is_disabled":false,"rental_uris":{"android":"levelo://app?vid=09a7efa8-61c9-4acf-b537-fcfa6b8bab83","ios":"levelo://app?vid=09a7efa8-61c9-4acf-b537-fcfa6b8bab83"},"vehicle_type_id":"4","last_reported":1721772518,"current_range_meters":7600,"station_id":"ce4bgv12rcd13ifvqcp0","pricing_plan_id":"cebpf4jnsgd1na2vs0mg"},{"bike_id":"c78feed3-cbc0-49f6-aa73-88799215940b","system_id":"levelo_inurba_marseille","lat":43.31169,"lon":5.38721,"is_reserved":false,"is_disabled":false,"rental_uris":{"android":"levelo://app?vid=c78feed3-cbc0-49f6-aa73-88799215940b","ios":"levelo://app?vid=c78feed3-cbc0-49f6-aa73-88799215940b"},"vehicle_type_id":"4","last_reported":1721772518,"current_range_meters":1600,"station_id":"ce4bgv12rcd13ifvqcp0","pricing_plan_id":"cebpf4jnsgd1na2vs0mg"},{"bike_id":"1b17923c-a210-450f-8d40-40ba2b6ff5e9","system_id":"levelo_inurba_marseille","lat":43.31165,"lon":5.38722,"is_reserved":false,"is_disabled":false,"rental_uris":{"android":"levelo://app?vid=1b17923c-a210-450f-8d40-40ba2b6ff5e9","ios":"levelo://app?vid=1b17923c-a210-450f-8d40-40ba2b6ff5e9"},"vehicle_type_id":"4","last_reported":1721772518,"current_range_meters":22000,"station_id":"ce4bgv12rcd13ifvqcp0","pricing_plan_id":"cebpf4jnsgd1na2vs0mg"},{"bike_id":"1631df83-d189-4487-ac27-23be24a756ca","system_id":"levelo_inurba_marseille","lat":43.311722,"lon":5.387247,"is_reserved":false,"is_disabled":false,"rental_uris":{"android":"levelo://app?vid=1631df83-d189-4487-ac27-23be24a756ca","ios":"levelo://app?vid=1631df83-d189-4487-ac27-23be24a756ca"},"vehicle_type_id":"4","last_reported":1721772518,"current_range_meters":22000,"station_id":"ce4bgv12rcd13ifvqcp0","pricing_plan_id":"cebpf4jnsgd1na2vs0mg"},{"bike_id":"00917e3e-ca5f-4340-90f8-4f17e8d2a213","system_id":"levelo_inurba_marseille","lat":43.311722,"lon":5.387247,"is_reserved":false,"is_disabled":false,"rental_uris":{"android":"levelo://app?vid=00917e3e-ca5f-4340-90f8-4f17e8d2a213","ios":"levelo://app?vid=00917e3e-ca5f-4340-90f8-4f17e8d2a213"},"vehicle_type_id":"4","last_reported":1721772518,"current_range_meters":20800,"station_id":"ce4bgv12rcd13ifvqcp0","pricing_plan_id":"cebpf4jnsgd1na2vs0mg"},{"bike_id":"6bb2b6b2-1cd8-4526-94b7-ff7da9abffdf","system_id":"levelo_inurba_marseille","lat":43.32129,"lon":5.38441,"is_reserved":false,"is_disabled":false,"rental_uris":{"android":"levelo://app?vid=6bb2b6b2-1cd8-4526-94b7-ff7da9abffdf","ios":"levelo://app?vid=6bb2b6b2-1cd8-4526-94b7-ff7da9abffdf"},"vehicle_type_id":"4","last_reported":1721772518,"current_range_meters":16000,"station_id":"","pricing_plan_id":"cebpf4jnsgd1na2vs0mg"},{"bike_id":"c35b388e-e3c9-4fcc-91b7-5672aa48325d","system_id":"levelo_inurba_marseille","lat":43.322885,"lon":5.382718,"is_reserved":false,"is_disabled":false,"rental_uris":{"android":"levelo://app?vid=c35b388e-e3c9-4fcc-91b7-5672aa48325d","ios":"levelo://app?vid=c35b388e-e3c9-4fcc-91b7-5672aa48325d"},"vehicle_type_id":"4","last_reported":1721772518,"current_range_meters":22400,"station_id":"ce4bhr12rcd13ifvqhqg","pricing_plan_id":"cebpf4jnsgd1na2vs0mg"},{"bike_id":"c384ace1-cc9d-4ffa-a04f-b15e476be116","system_id":"levelo_inurba_marseille","lat":43.322872,"lon":5.382756,"is_reserved":false,"is_disabled":false,"rental_uris":{"android":"levelo://app?vid=c384ace1-cc9d-4ffa-a04f-b15e476be116","ios":"levelo://app?vid=c384ace1-cc9d-4ffa-a04f-b15e476be116"},"vehicle_type_id":"4","last_reported":1721772518,"current_range_meters":31200,"station_id":"ce4bhr12rcd13ifvqhqg","pricing_plan_id":"cebpf4jnsgd1na2vs0mg"},{"bike_id":"ff9bf8d4-e46f-4887-9632-14f51faab0fd","system_id":"levelo_inurba_marseille","lat":43.29743,"lon":5.36882,"is_reserved":false,"is_disabled":false,"rental_uris":{"android":"levelo://app?vid=ff9bf8d4-e46f-4887-9632-14f51faab0fd","ios":"levelo://app?vid=ff9bf8d4-e46f-4887-9632-14f51faab0fd"},"vehicle_type_id":"4","last_reported":1721772518,"current_range_meters":14800,"station_id":"","pricing_plan_id":"cebpf4jnsgd1na2vs0mg"},{"bike_id":"0434edf7-9870-42af-91d6-9800b0c26b22","system_id":"levelo_inurba_marseille","lat":43.322872,"lon":5.382756,"is_reserved":false,"is_disabled":false,"rental_uris":{"android":"levelo://app?vid=0434edf7-9870-42af-91d6-9800b0c26b22","ios":"levelo://app?vid=0434edf7-9870-42af-91d6-9800b0c26b22"},"vehicle_type_id":"4","last_reported":1721772518,"current_range_meters":11200,"station_id":"ce4bhr12rcd13ifvqhqg","pricing_plan_id":"cebpf4jnsgd1na2vs0mg"},{"bike_id":"3034a283-1449-452c-87cf-ae65caeb894e","system_id":"levelo_inurba_marseille","lat":43.322872,"lon":5.382756,"is_reserved":false,"is_disabled":false,"rental_uris":{"android":"levelo://app?vid=3034a283-1449-452c-87cf-ae65caeb894e","ios":"levelo://app?vid=3034a283-1449-452c-87cf-ae65caeb894e"},"vehicle_type_id":"4","last_reported":1721772518,"current_range_meters":18000,"station_id":"ce4bhr12rcd13ifvqhqg","pricing_plan_id":"cebpf4jnsgd1na2vs0mg"},{"bike_id":"3748e580-4673-47ce-adc0-2e3dccf6ebeb","system_id":"levelo_inurba_marseille","lat":43.32871,"lon":5.37565,"is_reserved":false,"is_disabled":false,"rental_uris":{"android":"levelo://app?vid=3748e580-4673-47ce-adc0-2e3dccf6ebeb","ios":"levelo://app?vid=3748e580-4673-47ce-adc0-2e3dccf6ebeb"},"vehicle_type_id":"4","last_reported":1721772518,"current_range_meters":14000,"station_id":"","pricing_plan_id":"cebpf4jnsgd1na2vs0mg"},{"bike_id":"9f896496-b613-42ee-832d-bb3778004f00","system_id":"levelo_inurba_marseille","lat":43.30956,"lon":5.39034,"is_reserved":false,"is_disabled":false,"rental_uris":{"android":"levelo://app?vid=9f896496-b613-42ee-832d-bb3778004f00","ios":"levelo://app?vid=9f896496-b613-42ee-832d-bb3778004f00"},"vehicle_type_id":"4","last_reported":1721772518,"current_range_meters":0,"station_id":"ce4bgup2rcd13ifvqco0","pricing_plan_id":"cebpf4jnsgd1na2vs0mg"},{"bike_id":"f7c6a6dd-a32c-4135-a51e-0bd1c0f1595a","system_id":"levelo_inurba_marseille","lat":43.309589,"lon":5.390258,"is_reserved":false,"is_disabled":false,"rental_uris":{"android":"levelo://app?vid=f7c6a6dd-a32c-4135-a51e-0bd1c0f1595a","ios":"levelo://app?vid=f7c6a6dd-a32c-4135-a51e-0bd1c0f1595a"},"vehicle_type_id":"4","last_reported":1721772518,"current_range_meters":25200,"station_id":"ce4bgup2rcd13ifvqco0","pricing_plan_id":"cebpf4jnsgd1na2vs0mg"},{"bike_id":"6099d670-4d85-4b86-9d4c-ad0fffc9caf5","system_id":"levelo_inurba_marseille","lat":43.309589,"lon":5.390258,"is_reserved":false,"is_disabled":false,"rental_uris":{"android":"levelo://app?vid=6099d670-4d85-4b86-9d4c-ad0fffc9caf5","ios":"levelo://app?vid=6099d670-4d85-4b86-9d4c-ad0fffc9caf5"},"vehicle_type_id":"4","last_reported":1721772518,"current_range_meters":7200,"station_id":"ce4bgup2rcd13ifvqco0","pricing_plan_id":"cebpf4jnsgd1na2vs0mg"},{"bike_id":"1f522328-55cc-4008-8deb-3fa70d2561a1","system_id":"levelo_inurba_marseille","lat":43.309589,"lon":5.390258,"is_reserved":false,"is_disabled":false,"rental_uris":{"android":"levelo://app?vid=1f522328-55cc-4008-8deb-3fa70d2561a1","ios":"levelo://app?vid=1f522328-55cc-4008-8deb-3fa70d2561a1"},"vehicle_type_id":"4","last_reported":1721772518,"current_range_meters":2400,"station_id":"ce4bgup2rcd13ifvqco0","pricing_plan_id":"cebpf4jnsgd1na2vs0mg"},{"bike_id":"9d6e5c8e-4be2-4964-9ca8-8cae3eb52a85","system_id":"levelo_inurba_marseille","lat":43.317557,"lon":5.390173,"is_reserved":false,"is_disabled":false,"rental_uris":{"android":"levelo://app?vid=9d6e5c8e-4be2-4964-9ca8-8cae3eb52a85","ios":"levelo://app?vid=9d6e5c8e-4be2-4964-9ca8-8cae3eb52a85"},"vehicle_type_id":"4","last_reported":1721772518,"current_range_meters":8800,"station_id":"ce4bhqp2rcd13ifvqhng","pricing_plan_id":"cebpf4jnsgd1na2vs0mg"},{"bike_id":"aca6ff4b-cf49-4355-b206-ecc2d3da5149","system_id":"levelo_inurba_marseille","lat":43.31755,"lon":5.39015,"is_reserved":false,"is_disabled":false,"rental_uris":{"android":"levelo://app?vid=aca6ff4b-cf49-4355-b206-ecc2d3da5149","ios":"levelo://app?vid=aca6ff4b-cf49-4355-b206-ecc2d3da5149"},"vehicle_type_id":"4","last_reported":1721772518,"current_range_meters":3200,"station_id":"ce4bhqp2rcd13ifvqhng","pricing_plan_id":"cebpf4jnsgd1na2vs0mg"},{"bike_id":"160d1f3f-4cbe-4d1c-b9d0-13adacd0d8f3","system_id":"levelo_inurba_marseille","lat":43.317557,"lon":5.390173,"is_reserved":false,"is_disabled":false,"rental_uris":{"android":"levelo://app?vid=160d1f3f-4cbe-4d1c-b9d0-13adacd0d8f3","ios":"levelo://app?vid=160d1f3f-4cbe-4d1c-b9d0-13adacd0d8f3"},"vehicle_type_id":"4","last_reported":1721772518,"current_range_meters":30400,"station_id":"ce4bhqp2rcd13ifvqhng","pricing_plan_id":"cebpf4jnsgd1na2vs0mg"},{"bike_id":"7d0aa484-dcb1-4c25-833d-cce67a521118","system_id":"levelo_inurba_marseille","lat":43.317557,"lon":5.390173,"is_reserved":false,"is_disabled":false,"rental_uris":{"android":"levelo://app?vid=7d0aa484-dcb1-4c25-833d-cce67a521118","ios":"levelo://app?vid=7d0aa484-dcb1-4c25-833d-cce67a521118"},"vehicle_type_id":"4","last_reported":1721772518,"current_range_meters":8400,"station_id":"ce4bhqp2rcd13ifvqhng","pricing_plan_id":"cebpf4jnsgd1na2vs0mg"},{"bike_id":"deab5ee0-a174-4d0b-98a6-96084846d34d","system_id":"levelo_inurba_marseille","lat":43.317557,"lon":5.390173,"is_reserved":false,"is_disabled":false,"rental_uris":{"android":"levelo://app?vid=deab5ee0-a174-4d0b-98a6-96084846d34d","ios":"levelo://app?vid=deab5ee0-a174-4d0b-98a6-96084846d34d"},"vehicle_type_id":"4","last_reported":1721772518,"current_range_meters":20000,"station_id":"ce4bhqp2rcd13ifvqhng","pricing_plan_id":"cebpf4jnsgd1na2vs0mg"},{"bike_id":"8ba6af56-b43b-4aa7-82bb-7513f53c0e29","system_id":"levelo_inurba_marseille","lat":43.317557,"lon":5.390173,"is_reserved":false,"is_disabled":false,"rental_uris":{"android":"levelo://app?vid=8ba6af56-b43b-4aa7-82bb-7513f53c0e29","ios":"levelo://app?vid=8ba6af56-b43b-4aa7-82bb-7513f53c0e29"},"vehicle_type_id":"4","last_reported":1721772518,"current_range_meters":15200,"station_id":"ce4bhqp2rcd13ifvqhng","pricing_plan_id":"cebpf4jnsgd1na2vs0mg"},{"bike_id":"a62ce65a-c999-4ad6-abe7-333b7bb4d3c8","system_id":"levelo_inurba_marseille","lat":43.317551,"lon":5.390254,"is_reserved":false,"is_disabled":false,"rental_uris":{"android":"levelo://app?vid=a62ce65a-c999-4ad6-abe7-333b7bb4d3c8","ios":"levelo://app?vid=a62ce65a-c999-4ad6-abe7-333b7bb4d3c8"},"vehicle_type_id":"4","last_reported":1721772518,"current_range_meters":11200,"station_id":"ce4bhqp2rcd13ifvqhng","pricing_plan_id":"cebpf4jnsgd1na2vs0mg"},{"bike_id":"3332e540-5a63-478f-b1f0-3e04d8a3905e","system_id":"levelo_inurba_marseille","lat":43.29527,"lon":5.36139,"is_reserved":false,"is_disabled":false,"rental_uris":{"android":"levelo://app?vid=3332e540-5a63-478f-b1f0-3e04d8a3905e","ios":"levelo://app?vid=3332e540-5a63-478f-b1f0-3e04d8a3905e"},"vehicle_type_id":"4","last_reported":1721772518,"current_range_meters":19600,"station_id":"","pricing_plan_id":"cebpf4jnsgd1na2vs0mg"},{"bike_id":"c5f18460-7d36-4cad-8b32-74651c85a374","system_id":"levelo_inurba_marseille","lat":43.304278,"lon":5.388868,"is_reserved":false,"is_disabled":false,"rental_uris":{"android":"levelo://app?vid=c5f18460-7d36-4cad-8b32-74651c85a374","ios":"levelo://app?vid=c5f18460-7d36-4cad-8b32-74651c85a374"},"vehicle_type_id":"4","last_reported":1721772518,"current_range_meters":800,"station_id":"ce4bgk12rcd13ifvqbi0","pricing_plan_id":"cebpf4jnsgd1na2vs0mg"},{"bike_id":"2b212087-6b26-411d-a2bc-c26206020869","system_id":"levelo_inurba_marseille","lat":43.30443,"lon":5.38891,"is_reserved":false,"is_disabled":false,"rental_uris":{"android":"levelo://app?vid=2b212087-6b26-411d-a2bc-c26206020869","ios":"levelo://app?vid=2b212087-6b26-411d-a2bc-c26206020869"},"vehicle_type_id":"4","last_reported":1721772518,"current_range_meters":4400,"station_id":"ce4bgk12rcd13ifvqbi0","pricing_plan_id":"cebpf4jnsgd1na2vs0mg"},{"bike_id":"e8c0aae8-a70b-4526-ae6f-ea08d0d843c2","system_id":"levelo_inurba_marseille","lat":43.29529,"lon":5.374985,"is_reserved":false,"is_disabled":false,"rental_uris":{"android":"levelo://app?vid=e8c0aae8-a70b-4526-ae6f-ea08d0d843c2","ios":"levelo://app?vid=e8c0aae8-a70b-4526-ae6f-ea08d0d843c2"},"vehicle_type_id":"4","last_reported":1721772518,"current_range_meters":0,"station_id":"ce4bgkp2rcd13ifvqbmg","pricing_plan_id":"cebpf4jnsgd1na2vs0mg"},{"bike_id":"19a0ca4b-cbd0-46bc-a485-6c6a20b2e20c","system_id":"levelo_inurba_marseille","lat":43.295279,"lon":5.375048,"is_reserved":false,"is_disabled":false,"rental_uris":{"android":"levelo://app?vid=19a0ca4b-cbd0-46bc-a485-6c6a20b2e20c","ios":"levelo://app?vid=19a0ca4b-cbd0-46bc-a485-6c6a20b2e20c"},"vehicle_type_id":"4","last_reported":1721772518,"current_range_meters":0,"station_id":"ce4bgkp2rcd13ifvqbmg","pricing_plan_id":"cebpf4jnsgd1na2vs0mg"},{"bike_id":"f29a3f7b-5c9b-4de1-a325-fcfd7a33236b","system_id":"levelo_inurba_marseille","lat":43.299724,"lon":5.384848,"is_reserved":false,"is_disabled":false,"rental_uris":{"android":"levelo://app?vid=f29a3f7b-5c9b-4de1-a325-fcfd7a33236b","ios":"levelo://app?vid=f29a3f7b-5c9b-4de1-a325-fcfd7a33236b"},"vehicle_type_id":"4","last_reported":1721772518,"current_range_meters":0,"station_id":"ce4bgj92rcd13ifvqbd0","pricing_plan_id":"cebpf4jnsgd1na2vs0mg"},{"bike_id":"042a39d1-f579-4f56-a344-163b5e648f47","system_id":"levelo_inurba_marseille","lat":43.304278,"lon":5.388868,"is_reserved":false,"is_disabled":false,"rental_uris":{"android":"levelo://app?vid=042a39d1-f579-4f56-a344-163b5e648f47","ios":"levelo://app?vid=042a39d1-f579-4f56-a344-163b5e648f47"},"vehicle_type_id":"4","last_reported":1721772518,"current_range_meters":14800,"station_id":"ce4bgk12rcd13ifvqbi0","pricing_plan_id":"cebpf4jnsgd1na2vs0mg"},{"bike_id":"57e3beb2-c4da-4f9c-80f6-c5573330c5f3","system_id":"levelo_inurba_marseille","lat":43.32367,"lon":5.388836,"is_reserved":false,"is_disabled":false,"rental_uris":{"android":"levelo://app?vid=57e3beb2-c4da-4f9c-80f6-c5573330c5f3","ios":"levelo://app?vid=57e3beb2-c4da-4f9c-80f6-c5573330c5f3"},"vehicle_type_id":"4","last_reported":1721772518,"current_range_meters":4800,"station_id":"ce4bhqp2rcd13ifvqhog","pricing_plan_id":"cebpf4jnsgd1na2vs0mg"},{"bike_id":"7f192520-bcca-4340-86d9-c54d37f217f0","system_id":"levelo_inurba_marseille","lat":43.32367,"lon":5.388836,"is_reserved":false,"is_disabled":false,"rental_uris":{"android":"levelo://app?vid=7f192520-bcca-4340-86d9-c54d37f217f0","ios":"levelo://app?vid=7f192520-bcca-4340-86d9-c54d37f217f0"},"vehicle_type_id":"4","last_reported":1721772518,"current_range_meters":16400,"station_id":"ce4bhqp2rcd13ifvqhog","pricing_plan_id":"cebpf4jnsgd1na2vs0mg"},{"bike_id":"90e85cbf-4f9d-4f07-9e8b-5e87820cbedd","system_id":"levelo_inurba_marseille","lat":43.32367,"lon":5.388836,"is_reserved":false,"is_disabled":false,"rental_uris":{"android":"levelo://app?vid=90e85cbf-4f9d-4f07-9e8b-5e87820cbedd","ios":"levelo://app?vid=90e85cbf-4f9d-4f07-9e8b-5e87820cbedd"},"vehicle_type_id":"4","last_reported":1721772518,"current_range_meters":31200,"station_id":"ce4bhqp2rcd13ifvqhog","pricing_plan_id":"cebpf4jnsgd1na2vs0mg"},{"bike_id":"dc9930b9-f88b-4314-a188-32582a796b6d","system_id":"levelo_inurba_marseille","lat":43.29602,"lon":5.381084,"is_reserved":false,"is_disabled":false,"rental_uris":{"android":"levelo://app?vid=dc9930b9-f88b-4314-a188-32582a796b6d","ios":"levelo://app?vid=dc9930b9-f88b-4314-a188-32582a796b6d"},"vehicle_type_id":"4","last_reported":1721772518,"current_range_meters":28400,"station_id":"ce4bgl12rcd13ifvqbo0","pricing_plan_id":"cebpf4jnsgd1na2vs0mg"},{"bike_id":"391edea0-f7ed-43d9-8081-b9557d780843","system_id":"levelo_inurba_marseille","lat":43.29602,"lon":5.381084,"is_reserved":false,"is_disabled":false,"rental_uris":{"android":"levelo://app?vid=391edea0-f7ed-43d9-8081-b9557d780843","ios":"levelo://app?vid=391edea0-f7ed-43d9-8081-b9557d780843"},"vehicle_type_id":"4","last_reported":1721772518,"current_range_meters":12400,"station_id":"ce4bgl12rcd13ifvqbo0","pricing_plan_id":"cebpf4jnsgd1na2vs0mg"},{"bike_id":"e8da80fd-c219-48af-bd7c-14e5174a942a","system_id":"levelo_inurba_marseille","lat":43.292569,"lon":5.409107,"is_reserved":false,"is_disabled":false,"rental_uris":{"android":"levelo://app?vid=e8da80fd-c219-48af-bd7c-14e5174a942a","ios":"levelo://app?vid=e8da80fd-c219-48af-bd7c-14e5174a942a"},"vehicle_type_id":"4","last_reported":1721772518,"current_range_meters":8800,"station_id":"ce4bh192rcd13ifvqdc0","pricing_plan_id":"cebpf4jnsgd1na2vs0mg"},{"bike_id":"d5a3d956-ae75-4a48-82c9-a69659da39b6","system_id":"levelo_inurba_marseille","lat":43.292749,"lon":5.368402,"is_reserved":false,"is_disabled":false,"rental_uris":{"android":"levelo://app?vid=d5a3d956-ae75-4a48-82c9-a69659da39b6","ios":"levelo://app?vid=d5a3d956-ae75-4a48-82c9-a69659da39b6"},"vehicle_type_id":"4","last_reported":1721772518,"current_range_meters":21200,"station_id":"ce4bhbp2rcd13ifvqesg","pricing_plan_id":"cebpf4jnsgd1na2vs0mg"},{"bike_id":"4cf8980a-0eaf-4bdd-9a00-1220cb854d68","system_id":"levelo_inurba_marseille","lat":43.29271,"lon":5.3684,"is_reserved":false,"is_disabled":false,"rental_uris":{"android":"levelo://app?vid=4cf8980a-0eaf-4bdd-9a00-1220cb854d68","ios":"levelo://app?vid=4cf8980a-0eaf-4bdd-9a00-1220cb854d68"},"vehicle_type_id":"4","last_reported":1721772518,"current_range_meters":10400,"station_id":"ce4bhbp2rcd13ifvqesg","pricing_plan_id":"cebpf4jnsgd1na2vs0mg"},{"bike_id":"68d931e1-9eac-4acc-b121-948cbe80346e","system_id":"levelo_inurba_marseille","lat":43.292749,"lon":5.368402,"is_reserved":false,"is_disabled":false,"rental_uris":{"android":"levelo://app?vid=68d931e1-9eac-4acc-b121-948cbe80346e","ios":"levelo://app?vid=68d931e1-9eac-4acc-b121-948cbe80346e"},"vehicle_type_id":"4","last_reported":1721772518,"current_range_meters":29600,"station_id":"ce4bhbp2rcd13ifvqesg","pricing_plan_id":"cebpf4jnsgd1na2vs0mg"},{"bike_id":"277cb58e-8f5d-4120-a7c7-b61b10ee82ef","system_id":"levelo_inurba_marseille","lat":43.292749,"lon":5.368402,"is_reserved":false,"is_disabled":false,"rental_uris":{"android":"levelo://app?vid=277cb58e-8f5d-4120-a7c7-b61b10ee82ef","ios":"levelo://app?vid=277cb58e-8f5d-4120-a7c7-b61b10ee82ef"},"vehicle_type_id":"4","last_reported":1721772518,"current_range_meters":14400,"station_id":"ce4bhbp2rcd13ifvqesg","pricing_plan_id":"cebpf4jnsgd1na2vs0mg"},{"bike_id":"0b4dca68-5109-48d9-be6b-eee6b7c45e38","system_id":"levelo_inurba_marseille","lat":43.29228,"lon":5.36596,"is_reserved":false,"is_disabled":false,"rental_uris":{"android":"levelo://app?vid=0b4dca68-5109-48d9-be6b-eee6b7c45e38","ios":"levelo://app?vid=0b4dca68-5109-48d9-be6b-eee6b7c45e38"},"vehicle_type_id":"4","last_reported":1721772518,"current_range_meters":30400,"station_id":"","pricing_plan_id":"cebpf4jnsgd1na2vs0mg"},{"bike_id":"b7f2bc84-7c21-4bee-9c8c-0e823b08cd6d","system_id":"levelo_inurba_marseille","lat":43.29299,"lon":5.37447,"is_reserved":false,"is_disabled":false,"rental_uris":{"android":"levelo://app?vid=b7f2bc84-7c21-4bee-9c8c-0e823b08cd6d","ios":"levelo://app?vid=b7f2bc84-7c21-4bee-9c8c-0e823b08cd6d"},"vehicle_type_id":"4","last_reported":1721772518,"current_range_meters":0,"station_id":"ce4bgi12rcd13ifvqb70","pricing_plan_id":"cebpf4jnsgd1na2vs0mg"},{"bike_id":"97e49256-f9b9-4987-9140-d89aebcfe7ce","system_id":"levelo_inurba_marseille","lat":43.2936,"lon":5.37835,"is_reserved":false,"is_disabled":false,"rental_uris":{"android":"levelo://app?vid=97e49256-f9b9-4987-9140-d89aebcfe7ce","ios":"levelo://app?vid=97e49256-f9b9-4987-9140-d89aebcfe7ce"},"vehicle_type_id":"4","last_reported":1721772518,"current_range_meters":0,"station_id":"ce4bgjh2rcd13ifvqbf0","pricing_plan_id":"cebpf4jnsgd1na2vs0mg"},{"bike_id":"3277e943-679d-49d4-8513-0dad3e3b5e2c","system_id":"levelo_inurba_marseille","lat":43.2936,"lon":5.37835,"is_reserved":false,"is_disabled":false,"rental_uris":{"android":"levelo://app?vid=3277e943-679d-49d4-8513-0dad3e3b5e2c","ios":"levelo://app?vid=3277e943-679d-49d4-8513-0dad3e3b5e2c"},"vehicle_type_id":"4","last_reported":1721772518,"current_range_meters":10400,"station_id":"ce4bgjh2rcd13ifvqbf0","pricing_plan_id":"cebpf4jnsgd1na2vs0mg"},{"bike_id":"34c277dc-fb5f-47d5-bc87-4780cd7d7cfd","system_id":"levelo_inurba_marseille","lat":43.298764,"lon":5.388973,"is_reserved":false,"is_disabled":false,"rental_uris":{"android":"levelo://app?vid=34c277dc-fb5f-47d5-bc87-4780cd7d7cfd","ios":"levelo://app?vid=34c277dc-fb5f-47d5-bc87-4780cd7d7cfd"},"vehicle_type_id":"4","last_reported":1721772518,"current_range_meters":19200,"station_id":"ce4bh392rcd13ifvqdl0","pricing_plan_id":"cebpf4jnsgd1na2vs0mg"},{"bike_id":"b229ecd8-344d-49ab-8e08-9c1726671e12","system_id":"levelo_inurba_marseille","lat":43.309038,"lon":5.396546,"is_reserved":false,"is_disabled":false,"rental_uris":{"android":"levelo://app?vid=b229ecd8-344d-49ab-8e08-9c1726671e12","ios":"levelo://app?vid=b229ecd8-344d-49ab-8e08-9c1726671e12"},"vehicle_type_id":"4","last_reported":1721772518,"current_range_meters":6800,"station_id":"ce4bh012rcd13ifvqcv0","pricing_plan_id":"cebpf4jnsgd1na2vs0mg"},{"bike_id":"44b726c5-869b-4619-bc72-f3d12e8aaf30","system_id":"levelo_inurba_marseille","lat":43.309038,"lon":5.396546,"is_reserved":false,"is_disabled":false,"rental_uris":{"android":"levelo://app?vid=44b726c5-869b-4619-bc72-f3d12e8aaf30","ios":"levelo://app?vid=44b726c5-869b-4619-bc72-f3d12e8aaf30"},"vehicle_type_id":"4","last_reported":1721772518,"current_range_meters":13200,"station_id":"ce4bh012rcd13ifvqcv0","pricing_plan_id":"cebpf4jnsgd1na2vs0mg"},{"bike_id":"1c962985-eb9a-434a-895d-b23518c8e244","system_id":"levelo_inurba_marseille","lat":43.313291,"lon":5.396838,"is_reserved":false,"is_disabled":false,"rental_uris":{"android":"levelo://app?vid=1c962985-eb9a-434a-895d-b23518c8e244","ios":"levelo://app?vid=1c962985-eb9a-434a-895d-b23518c8e244"},"vehicle_type_id":"4","last_reported":1721772518,"current_range_meters":2400,"station_id":"ce4bgvp2rcd13ifvqcu0","pricing_plan_id":"cebpf4jnsgd1na2vs0mg"},{"bike_id":"f81965e6-844a-46ca-83b6-2ae8f80a04b5","system_id":"levelo_inurba_marseille","lat":43.313291,"lon":5.396838,"is_reserved":false,"is_disabled":false,"rental_uris":{"android":"levelo://app?vid=f81965e6-844a-46ca-83b6-2ae8f80a04b5","ios":"levelo://app?vid=f81965e6-844a-46ca-83b6-2ae8f80a04b5"},"vehicle_type_id":"4","last_reported":1721772518,"current_range_meters":2000,"station_id":"ce4bgvp2rcd13ifvqcu0","pricing_plan_id":"cebpf4jnsgd1na2vs0mg"},{"bike_id":"c0f8d47f-3d71-4225-b5bd-a7f42e148fb6","system_id":"levelo_inurba_marseille","lat":43.313291,"lon":5.396838,"is_reserved":false,"is_disabled":false,"rental_uris":{"android":"levelo://app?vid=c0f8d47f-3d71-4225-b5bd-a7f42e148fb6","ios":"levelo://app?vid=c0f8d47f-3d71-4225-b5bd-a7f42e148fb6"},"vehicle_type_id":"4","last_reported":1721772518,"current_range_meters":16400,"station_id":"ce4bgvp2rcd13ifvqcu0","pricing_plan_id":"cebpf4jnsgd1na2vs0mg"},{"bike_id":"7f067c87-bc4f-43b1-98cd-053a084076da","system_id":"levelo_inurba_marseille","lat":43.313291,"lon":5.396838,"is_reserved":false,"is_disabled":false,"rental_uris":{"android":"levelo://app?vid=7f067c87-bc4f-43b1-98cd-053a084076da","ios":"levelo://app?vid=7f067c87-bc4f-43b1-98cd-053a084076da"},"vehicle_type_id":"4","last_reported":1721772518,"current_range_meters":22800,"station_id":"ce4bgvp2rcd13ifvqcu0","pricing_plan_id":"cebpf4jnsgd1na2vs0mg"},{"bike_id":"ede873a0-1d33-4675-8c97-f7b3eb1215d9","system_id":"levelo_inurba_marseille","lat":43.313291,"lon":5.396838,"is_reserved":false,"is_disabled":false,"rental_uris":{"android":"levelo://app?vid=ede873a0-1d33-4675-8c97-f7b3eb1215d9","ios":"levelo://app?vid=ede873a0-1d33-4675-8c97-f7b3eb1215d9"},"vehicle_type_id":"4","last_reported":1721772518,"current_range_meters":6800,"station_id":"ce4bgvp2rcd13ifvqcu0","pricing_plan_id":"cebpf4jnsgd1na2vs0mg"},{"bike_id":"a5d3a22e-72a3-4a8b-a915-504c26501da8","system_id":"levelo_inurba_marseille","lat":43.313291,"lon":5.396838,"is_reserved":false,"is_disabled":false,"rental_uris":{"android":"levelo://app?vid=a5d3a22e-72a3-4a8b-a915-504c26501da8","ios":"levelo://app?vid=a5d3a22e-72a3-4a8b-a915-504c26501da8"},"vehicle_type_id":"4","last_reported":1721772518,"current_range_meters":26400,"station_id":"ce4bgvp2rcd13ifvqcu0","pricing_plan_id":"cebpf4jnsgd1na2vs0mg"},{"bike_id":"3e3ab352-3d79-4dc7-b291-2133c5958920","system_id":"levelo_inurba_marseille","lat":43.313291,"lon":5.396838,"is_reserved":false,"is_disabled":false,"rental_uris":{"android":"levelo://app?vid=3e3ab352-3d79-4dc7-b291-2133c5958920","ios":"levelo://app?vid=3e3ab352-3d79-4dc7-b291-2133c5958920"},"vehicle_type_id":"4","last_reported":1721772518,"current_range_meters":0,"station_id":"ce4bgvp2rcd13ifvqcu0","pricing_plan_id":"cebpf4jnsgd1na2vs0mg"},{"bike_id":"d3a83a8c-9802-49ce-b8ce-65709d4630a9","system_id":"levelo_inurba_marseille","lat":43.313291,"lon":5.396838,"is_reserved":false,"is_disabled":false,"rental_uris":{"android":"levelo://app?vid=d3a83a8c-9802-49ce-b8ce-65709d4630a9","ios":"levelo://app?vid=d3a83a8c-9802-49ce-b8ce-65709d4630a9"},"vehicle_type_id":"4","last_reported":1721772518,"current_range_meters":24800,"station_id":"ce4bgvp2rcd13ifvqcu0","pricing_plan_id":"cebpf4jnsgd1na2vs0mg"},{"bike_id":"ab50043e-1008-4fe6-b4f5-cb1fb047dba4","system_id":"levelo_inurba_marseille","lat":43.313291,"lon":5.396838,"is_reserved":false,"is_disabled":false,"rental_uris":{"android":"levelo://app?vid=ab50043e-1008-4fe6-b4f5-cb1fb047dba4","ios":"levelo://app?vid=ab50043e-1008-4fe6-b4f5-cb1fb047dba4"},"vehicle_type_id":"4","last_reported":1721772518,"current_range_meters":10400,"station_id":"ce4bgvp2rcd13ifvqcu0","pricing_plan_id":"cebpf4jnsgd1na2vs0mg"},{"bike_id":"b1f5af3f-a8ad-4ab1-9a33-00e226f82fc5","system_id":"levelo_inurba_marseille","lat":43.313291,"lon":5.396838,"is_reserved":false,"is_disabled":false,"rental_uris":{"android":"levelo://app?vid=b1f5af3f-a8ad-4ab1-9a33-00e226f82fc5","ios":"levelo://app?vid=b1f5af3f-a8ad-4ab1-9a33-00e226f82fc5"},"vehicle_type_id":"4","last_reported":1721772518,"current_range_meters":8800,"station_id":"ce4bgvp2rcd13ifvqcu0","pricing_plan_id":"cebpf4jnsgd1na2vs0mg"},{"bike_id":"63e01d21-221a-4f91-88a0-35b5d9e421cc","system_id":"levelo_inurba_marseille","lat":43.313291,"lon":5.396838,"is_reserved":false,"is_disabled":false,"rental_uris":{"android":"levelo://app?vid=63e01d21-221a-4f91-88a0-35b5d9e421cc","ios":"levelo://app?vid=63e01d21-221a-4f91-88a0-35b5d9e421cc"},"vehicle_type_id":"4","last_reported":1721772518,"current_range_meters":1600,"station_id":"ce4bgvp2rcd13ifvqcu0","pricing_plan_id":"cebpf4jnsgd1na2vs0mg"},{"bike_id":"7881f017-489f-4d68-8082-25d0d005875b","system_id":"levelo_inurba_marseille","lat":43.313291,"lon":5.396838,"is_reserved":false,"is_disabled":false,"rental_uris":{"android":"levelo://app?vid=7881f017-489f-4d68-8082-25d0d005875b","ios":"levelo://app?vid=7881f017-489f-4d68-8082-25d0d005875b"},"vehicle_type_id":"4","last_reported":1721772518,"current_range_meters":11200,"station_id":"ce4bgvp2rcd13ifvqcu0","pricing_plan_id":"cebpf4jnsgd1na2vs0mg"},{"bike_id":"2e651fdb-4444-4d8b-bb01-3044165707fe","system_id":"levelo_inurba_marseille","lat":43.313291,"lon":5.396838,"is_reserved":false,"is_disabled":false,"rental_uris":{"android":"levelo://app?vid=2e651fdb-4444-4d8b-bb01-3044165707fe","ios":"levelo://app?vid=2e651fdb-4444-4d8b-bb01-3044165707fe"},"vehicle_type_id":"4","last_reported":1721772518,"current_range_meters":8400,"station_id":"ce4bgvp2rcd13ifvqcu0","pricing_plan_id":"cebpf4jnsgd1na2vs0mg"},{"bike_id":"d85425c5-3cc0-415c-b074-6786c0d8bdca","system_id":"levelo_inurba_marseille","lat":43.313291,"lon":5.396838,"is_reserved":false,"is_disabled":false,"rental_uris":{"android":"levelo://app?vid=d85425c5-3cc0-415c-b074-6786c0d8bdca","ios":"levelo://app?vid=d85425c5-3cc0-415c-b074-6786c0d8bdca"},"vehicle_type_id":"4","last_reported":1721772518,"current_range_meters":15200,"station_id":"ce4bgvp2rcd13ifvqcu0","pricing_plan_id":"cebpf4jnsgd1na2vs0mg"},{"bike_id":"c7b4ce92-22ab-410b-8d6b-e5cee2fbc3da","system_id":"levelo_inurba_marseille","lat":43.313291,"lon":5.396838,"is_reserved":false,"is_disabled":false,"rental_uris":{"android":"levelo://app?vid=c7b4ce92-22ab-410b-8d6b-e5cee2fbc3da","ios":"levelo://app?vid=c7b4ce92-22ab-410b-8d6b-e5cee2fbc3da"},"vehicle_type_id":"4","last_reported":1721772518,"current_range_meters":13200,"station_id":"ce4bgvp2rcd13ifvqcu0","pricing_plan_id":"cebpf4jnsgd1na2vs0mg"},{"bike_id":"f83b7edd-2725-4f4d-81bb-d1f1408589ec","system_id":"levelo_inurba_marseille","lat":43.313291,"lon":5.396838,"is_reserved":false,"is_disabled":false,"rental_uris":{"android":"levelo://app?vid=f83b7edd-2725-4f4d-81bb-d1f1408589ec","ios":"levelo://app?vid=f83b7edd-2725-4f4d-81bb-d1f1408589ec"},"vehicle_type_id":"4","last_reported":1721772518,"current_range_meters":0,"station_id":"ce4bgvp2rcd13ifvqcu0","pricing_plan_id":"cebpf4jnsgd1na2vs0mg"},{"bike_id":"963af80e-219c-4a76-97a5-e9d0ffe03179","system_id":"levelo_inurba_marseille","lat":43.309038,"lon":5.396546,"is_reserved":false,"is_disabled":false,"rental_uris":{"android":"levelo://app?vid=963af80e-219c-4a76-97a5-e9d0ffe03179","ios":"levelo://app?vid=963af80e-219c-4a76-97a5-e9d0ffe03179"},"vehicle_type_id":"4","last_reported":1721772518,"current_range_meters":27600,"station_id":"ce4bh012rcd13ifvqcv0","pricing_plan_id":"cebpf4jnsgd1na2vs0mg"},{"bike_id":"bb853a66-2b20-4467-9d73-778288d217a3","system_id":"levelo_inurba_marseille","lat":43.313291,"lon":5.396838,"is_reserved":false,"is_disabled":false,"rental_uris":{"android":"levelo://app?vid=bb853a66-2b20-4467-9d73-778288d217a3","ios":"levelo://app?vid=bb853a66-2b20-4467-9d73-778288d217a3"},"vehicle_type_id":"4","last_reported":1721772518,"current_range_meters":15200,"station_id":"ce4bgvp2rcd13ifvqcu0","pricing_plan_id":"cebpf4jnsgd1na2vs0mg"},{"bike_id":"b60545fa-4882-4b2b-87c4-75826f730610","system_id":"levelo_inurba_marseille","lat":43.313291,"lon":5.396838,"is_reserved":false,"is_disabled":false,"rental_uris":{"android":"levelo://app?vid=b60545fa-4882-4b2b-87c4-75826f730610","ios":"levelo://app?vid=b60545fa-4882-4b2b-87c4-75826f730610"},"vehicle_type_id":"4","last_reported":1721772518,"current_range_meters":4000,"station_id":"ce4bgvp2rcd13ifvqcu0","pricing_plan_id":"cebpf4jnsgd1na2vs0mg"},{"bike_id":"5f7e6f50-75eb-44f1-b8bd-d7bf6c545c65","system_id":"levelo_inurba_marseille","lat":43.309047,"lon":5.396551,"is_reserved":false,"is_disabled":false,"rental_uris":{"android":"levelo://app?vid=5f7e6f50-75eb-44f1-b8bd-d7bf6c545c65","ios":"levelo://app?vid=5f7e6f50-75eb-44f1-b8bd-d7bf6c545c65"},"vehicle_type_id":"4","last_reported":1721772518,"current_range_meters":28800,"station_id":"ce4bh012rcd13ifvqcv0","pricing_plan_id":"cebpf4jnsgd1na2vs0mg"},{"bike_id":"728572a0-0204-4a5f-8b0f-1b05a8780eee","system_id":"levelo_inurba_marseille","lat":43.309038,"lon":5.396546,"is_reserved":false,"is_disabled":false,"rental_uris":{"android":"levelo://app?vid=728572a0-0204-4a5f-8b0f-1b05a8780eee","ios":"levelo://app?vid=728572a0-0204-4a5f-8b0f-1b05a8780eee"},"vehicle_type_id":"4","last_reported":1721772518,"current_range_meters":16000,"station_id":"ce4bh012rcd13ifvqcv0","pricing_plan_id":"cebpf4jnsgd1na2vs0mg"},{"bike_id":"91535494-d97f-43d6-b2de-eb1a56367692","system_id":"levelo_inurba_marseille","lat":43.309038,"lon":5.396546,"is_reserved":false,"is_disabled":false,"rental_uris":{"android":"levelo://app?vid=91535494-d97f-43d6-b2de-eb1a56367692","ios":"levelo://app?vid=91535494-d97f-43d6-b2de-eb1a56367692"},"vehicle_type_id":"4","last_reported":1721772518,"current_range_meters":7200,"station_id":"ce4bh012rcd13ifvqcv0","pricing_plan_id":"cebpf4jnsgd1na2vs0mg"},{"bike_id":"c95c6585-8cee-48ba-a2fa-47a6304e8545","system_id":"levelo_inurba_marseille","lat":43.309038,"lon":5.396546,"is_reserved":false,"is_disabled":false,"rental_uris":{"android":"levelo://app?vid=c95c6585-8cee-48ba-a2fa-47a6304e8545","ios":"levelo://app?vid=c95c6585-8cee-48ba-a2fa-47a6304e8545"},"vehicle_type_id":"4","last_reported":1721772518,"current_range_meters":28400,"station_id":"ce4bh012rcd13ifvqcv0","pricing_plan_id":"cebpf4jnsgd1na2vs0mg"},{"bike_id":"d914cbaf-baac-411c-972d-07f9bb43fd02","system_id":"levelo_inurba_marseille","lat":43.29529,"lon":5.385581,"is_reserved":false,"is_disabled":false,"rental_uris":{"android":"levelo://app?vid=d914cbaf-baac-411c-972d-07f9bb43fd02","ios":"levelo://app?vid=d914cbaf-baac-411c-972d-07f9bb43fd02"},"vehicle_type_id":"4","last_reported":1721772518,"current_range_meters":4000,"station_id":"ce4bgih2rcd13ifvqba0","pricing_plan_id":"cebpf4jnsgd1na2vs0mg"},{"bike_id":"3641e135-e373-44ee-b6a0-0b5cebf35d26","system_id":"levelo_inurba_marseille","lat":43.30208,"lon":5.3947,"is_reserved":false,"is_disabled":false,"rental_uris":{"android":"levelo://app?vid=3641e135-e373-44ee-b6a0-0b5cebf35d26","ios":"levelo://app?vid=3641e135-e373-44ee-b6a0-0b5cebf35d26"},"vehicle_type_id":"4","last_reported":1721772518,"current_range_meters":7600,"station_id":"ce4bh0p2rcd13ifvqd70","pricing_plan_id":"cebpf4jnsgd1na2vs0mg"},{"bike_id":"c6b01c6e-4199-4dbf-bd8a-505c4e3abbb9","system_id":"levelo_inurba_marseille","lat":43.314479,"lon":5.398249,"is_reserved":false,"is_disabled":false,"rental_uris":{"android":"levelo://app?vid=c6b01c6e-4199-4dbf-bd8a-505c4e3abbb9","ios":"levelo://app?vid=c6b01c6e-4199-4dbf-bd8a-505c4e3abbb9"},"vehicle_type_id":"4","last_reported":1721772518,"current_range_meters":13600,"station_id":"","pricing_plan_id":"cebpf4jnsgd1na2vs0mg"},{"bike_id":"eaf9d00f-0d8e-4e68-945e-6a462d45ae78","system_id":"levelo_inurba_marseille","lat":43.290624,"lon":5.359245,"is_reserved":false,"is_disabled":false,"rental_uris":{"android":"levelo://app?vid=eaf9d00f-0d8e-4e68-945e-6a462d45ae78","ios":"levelo://app?vid=eaf9d00f-0d8e-4e68-945e-6a462d45ae78"},"vehicle_type_id":"4","last_reported":1721772518,"current_range_meters":4000,"station_id":"ce4bha92rcd13ifvqeg0","pricing_plan_id":"cebpf4jnsgd1na2vs0mg"},{"bike_id":"d91d8352-c4a5-488e-ae2b-e26d57d34f6f","system_id":"levelo_inurba_marseille","lat":43.290631,"lon":5.359244,"is_reserved":false,"is_disabled":false,"rental_uris":{"android":"levelo://app?vid=d91d8352-c4a5-488e-ae2b-e26d57d34f6f","ios":"levelo://app?vid=d91d8352-c4a5-488e-ae2b-e26d57d34f6f"},"vehicle_type_id":"4","last_reported":1721772518,"current_range_meters":20000,"station_id":"ce4bha92rcd13ifvqeg0","pricing_plan_id":"cebpf4jnsgd1na2vs0mg"},{"bike_id":"f0a1cfe0-4d7c-4faa-8328-40a54b67a899","system_id":"levelo_inurba_marseille","lat":43.290372,"lon":5.37555,"is_reserved":false,"is_disabled":false,"rental_uris":{"android":"levelo://app?vid=f0a1cfe0-4d7c-4faa-8328-40a54b67a899","ios":"levelo://app?vid=f0a1cfe0-4d7c-4faa-8328-40a54b67a899"},"vehicle_type_id":"4","last_reported":1721772518,"current_range_meters":0,"station_id":"ce4bh692rcd13ifvqe90","pricing_plan_id":"cebpf4jnsgd1na2vs0mg"},{"bike_id":"3460cf53-4fff-4934-bfad-da67df7bc338","system_id":"levelo_inurba_marseille","lat":43.294153,"lon":5.386305,"is_reserved":false,"is_disabled":false,"rental_uris":{"android":"levelo://app?vid=3460cf53-4fff-4934-bfad-da67df7bc338","ios":"levelo://app?vid=3460cf53-4fff-4934-bfad-da67df7bc338"},"vehicle_type_id":"4","last_reported":1721772518,"current_range_meters":0,"station_id":"ce4bh2h2rcd13ifvqdh0","pricing_plan_id":"cebpf4jnsgd1na2vs0mg"},{"bike_id":"f54d14c6-62b2-4980-9c1a-f9d46393e6cf","system_id":"levelo_inurba_marseille","lat":43.290319,"lon":5.375732,"is_reserved":false,"is_disabled":false,"rental_uris":{"android":"levelo://app?vid=f54d14c6-62b2-4980-9c1a-f9d46393e6cf","ios":"levelo://app?vid=f54d14c6-62b2-4980-9c1a-f9d46393e6cf"},"vehicle_type_id":"4","last_reported":1721772518,"current_range_meters":28400,"station_id":"ce4bh692rcd13ifvqe90","pricing_plan_id":"cebpf4jnsgd1na2vs0mg"},{"bike_id":"ee8d8577-27a3-4371-8a1d-5d8382bed2f0","system_id":"levelo_inurba_marseille","lat":43.289184,"lon":5.366408,"is_reserved":false,"is_disabled":false,"rental_uris":{"android":"levelo://app?vid=ee8d8577-27a3-4371-8a1d-5d8382bed2f0","ios":"levelo://app?vid=ee8d8577-27a3-4371-8a1d-5d8382bed2f0"},"vehicle_type_id":"4","last_reported":1721772518,"current_range_meters":1200,"station_id":"ce4bhap2rcd13ifvqek0","pricing_plan_id":"cebpf4jnsgd1na2vs0mg"},{"bike_id":"8c8e4710-012f-4d40-a42f-1768d6b5373e","system_id":"levelo_inurba_marseille","lat":43.289184,"lon":5.366408,"is_reserved":false,"is_disabled":false,"rental_uris":{"android":"levelo://app?vid=8c8e4710-012f-4d40-a42f-1768d6b5373e","ios":"levelo://app?vid=8c8e4710-012f-4d40-a42f-1768d6b5373e"},"vehicle_type_id":"4","last_reported":1721772518,"current_range_meters":30800,"station_id":"ce4bhap2rcd13ifvqek0","pricing_plan_id":"cebpf4jnsgd1na2vs0mg"},{"bike_id":"d5e86059-8597-46bb-885d-6c14fbb89c74","system_id":"levelo_inurba_marseille","lat":43.289184,"lon":5.366408,"is_reserved":false,"is_disabled":false,"rental_uris":{"android":"levelo://app?vid=d5e86059-8597-46bb-885d-6c14fbb89c74","ios":"levelo://app?vid=d5e86059-8597-46bb-885d-6c14fbb89c74"},"vehicle_type_id":"4","last_reported":1721772518,"current_range_meters":25200,"station_id":"ce4bhap2rcd13ifvqek0","pricing_plan_id":"cebpf4jnsgd1na2vs0mg"},{"bike_id":"a2992d8e-5e1b-4f0c-9ad8-9292c3b6c43e","system_id":"levelo_inurba_marseille","lat":43.289184,"lon":5.366408,"is_reserved":false,"is_disabled":false,"rental_uris":{"android":"levelo://app?vid=a2992d8e-5e1b-4f0c-9ad8-9292c3b6c43e","ios":"levelo://app?vid=a2992d8e-5e1b-4f0c-9ad8-9292c3b6c43e"},"vehicle_type_id":"4","last_reported":1721772518,"current_range_meters":30800,"station_id":"ce4bhap2rcd13ifvqek0","pricing_plan_id":"cebpf4jnsgd1na2vs0mg"},{"bike_id":"2ed1a38d-addc-40f8-bd14-f2c8a4c6590d","system_id":"levelo_inurba_marseille","lat":43.28934,"lon":5.3639,"is_reserved":false,"is_disabled":false,"rental_uris":{"android":"levelo://app?vid=2ed1a38d-addc-40f8-bd14-f2c8a4c6590d","ios":"levelo://app?vid=2ed1a38d-addc-40f8-bd14-f2c8a4c6590d"},"vehicle_type_id":"4","last_reported":1721772518,"current_range_meters":0,"station_id":"ce4bhc92rcd13ifvqetg","pricing_plan_id":"cebpf4jnsgd1na2vs0mg"},{"bike_id":"55f5dded-abd2-401e-96ce-861ac657b5a9","system_id":"levelo_inurba_marseille","lat":43.292642,"lon":5.384254,"is_reserved":false,"is_disabled":false,"rental_uris":{"android":"levelo://app?vid=55f5dded-abd2-401e-96ce-861ac657b5a9","ios":"levelo://app?vid=55f5dded-abd2-401e-96ce-861ac657b5a9"},"vehicle_type_id":"4","last_reported":1721772518,"current_range_meters":24000,"station_id":"ce4bh692rcd13ifvqea0","pricing_plan_id":"cebpf4jnsgd1na2vs0mg"},{"bike_id":"c34e5fcf-0e3d-4a38-84e4-fb74db726115","system_id":"levelo_inurba_marseille","lat":43.304296,"lon":5.397513,"is_reserved":false,"is_disabled":false,"rental_uris":{"android":"levelo://app?vid=c34e5fcf-0e3d-4a38-84e4-fb74db726115","ios":"levelo://app?vid=c34e5fcf-0e3d-4a38-84e4-fb74db726115"},"vehicle_type_id":"4","last_reported":1721772518,"current_range_meters":25600,"station_id":"ce4bh092rcd13ifvqd20","pricing_plan_id":"cebpf4jnsgd1na2vs0mg"},{"bike_id":"d1a45116-e31b-4f82-9aeb-e5f4b813d59b","system_id":"levelo_inurba_marseille","lat":43.290104,"lon":5.356111,"is_reserved":false,"is_disabled":false,"rental_uris":{"android":"levelo://app?vid=d1a45116-e31b-4f82-9aeb-e5f4b813d59b","ios":"levelo://app?vid=d1a45116-e31b-4f82-9aeb-e5f4b813d59b"},"vehicle_type_id":"4","last_reported":1721772518,"current_range_meters":6400,"station_id":"ce4bhb92rcd13ifvqen0","pricing_plan_id":"cebpf4jnsgd1na2vs0mg"},{"bike_id":"4436891b-deff-456e-8343-423651b58268","system_id":"levelo_inurba_marseille","lat":43.290995,"lon":5.381361,"is_reserved":false,"is_disabled":false,"rental_uris":{"android":"levelo://app?vid=4436891b-deff-456e-8343-423651b58268","ios":"levelo://app?vid=4436891b-deff-456e-8343-423651b58268"},"vehicle_type_id":"4","last_reported":1721772518,"current_range_meters":0,"station_id":"ce4bh512rcd13ifvqe2g","pricing_plan_id":"cebpf4jnsgd1na2vs0mg"},{"bike_id":"52542670-d31a-4af3-9744-76dda1a9cd57","system_id":"levelo_inurba_marseille","lat":43.288498,"lon":5.36652,"is_reserved":false,"is_disabled":false,"rental_uris":{"android":"levelo://app?vid=52542670-d31a-4af3-9744-76dda1a9cd57","ios":"levelo://app?vid=52542670-d31a-4af3-9744-76dda1a9cd57"},"vehicle_type_id":"4","last_reported":1721772518,"current_range_meters":0,"station_id":"","pricing_plan_id":"cebpf4jnsgd1na2vs0mg"},{"bike_id":"bbcbb08c-cb62-4b5c-b731-5be3155f7e09","system_id":"levelo_inurba_marseille","lat":43.28948,"lon":5.35732,"is_reserved":false,"is_disabled":false,"rental_uris":{"android":"levelo://app?vid=bbcbb08c-cb62-4b5c-b731-5be3155f7e09","ios":"levelo://app?vid=bbcbb08c-cb62-4b5c-b731-5be3155f7e09"},"vehicle_type_id":"4","last_reported":1721772518,"current_range_meters":0,"station_id":"","pricing_plan_id":"cebpf4jnsgd1na2vs0mg"},{"bike_id":"aa63e3ef-6679-4919-8a78-4cb616afaace","system_id":"levelo_inurba_marseille","lat":43.297807,"lon":5.393533,"is_reserved":false,"is_disabled":false,"rental_uris":{"android":"levelo://app?vid=aa63e3ef-6679-4919-8a78-4cb616afaace","ios":"levelo://app?vid=aa63e3ef-6679-4919-8a78-4cb616afaace"},"vehicle_type_id":"4","last_reported":1721772518,"current_range_meters":22400,"station_id":"chh1huq6cuj3fo74tm60","pricing_plan_id":"cebpf4jnsgd1na2vs0mg"},{"bike_id":"13adf633-558b-4d7e-8b90-0389319546c3","system_id":"levelo_inurba_marseille","lat":43.297815,"lon":5.393548,"is_reserved":false,"is_disabled":false,"rental_uris":{"android":"levelo://app?vid=13adf633-558b-4d7e-8b90-0389319546c3","ios":"levelo://app?vid=13adf633-558b-4d7e-8b90-0389319546c3"},"vehicle_type_id":"4","last_reported":1721772518,"current_range_meters":26000,"station_id":"chh1huq6cuj3fo74tm60","pricing_plan_id":"cebpf4jnsgd1na2vs0mg"},{"bike_id":"318a29f3-0b37-4b01-a936-7ef517af7a90","system_id":"levelo_inurba_marseille","lat":43.297807,"lon":5.393533,"is_reserved":false,"is_disabled":false,"rental_uris":{"android":"levelo://app?vid=318a29f3-0b37-4b01-a936-7ef517af7a90","ios":"levelo://app?vid=318a29f3-0b37-4b01-a936-7ef517af7a90"},"vehicle_type_id":"4","last_reported":1721772518,"current_range_meters":3200,"station_id":"chh1huq6cuj3fo74tm60","pricing_plan_id":"cebpf4jnsgd1na2vs0mg"},{"bike_id":"7324e92f-b23b-48e2-868a-2b4977e74fa2","system_id":"levelo_inurba_marseille","lat":43.297815,"lon":5.393548,"is_reserved":false,"is_disabled":false,"rental_uris":{"android":"levelo://app?vid=7324e92f-b23b-48e2-868a-2b4977e74fa2","ios":"levelo://app?vid=7324e92f-b23b-48e2-868a-2b4977e74fa2"},"vehicle_type_id":"4","last_reported":1721772518,"current_range_meters":7200,"station_id":"chh1huq6cuj3fo74tm60","pricing_plan_id":"cebpf4jnsgd1na2vs0mg"},{"bike_id":"65abb0b3-f5d9-473c-8090-915a30f4912d","system_id":"levelo_inurba_marseille","lat":43.297807,"lon":5.393533,"is_reserved":false,"is_disabled":false,"rental_uris":{"android":"levelo://app?vid=65abb0b3-f5d9-473c-8090-915a30f4912d","ios":"levelo://app?vid=65abb0b3-f5d9-473c-8090-915a30f4912d"},"vehicle_type_id":"4","last_reported":1721772518,"current_range_meters":27600,"station_id":"chh1huq6cuj3fo74tm60","pricing_plan_id":"cebpf4jnsgd1na2vs0mg"},{"bike_id":"c7ceceed-a421-45af-a3ad-861d5e96b58d","system_id":"levelo_inurba_marseille","lat":43.297815,"lon":5.393548,"is_reserved":false,"is_disabled":false,"rental_uris":{"android":"levelo://app?vid=c7ceceed-a421-45af-a3ad-861d5e96b58d","ios":"levelo://app?vid=c7ceceed-a421-45af-a3ad-861d5e96b58d"},"vehicle_type_id":"4","last_reported":1721772518,"current_range_meters":10800,"station_id":"chh1huq6cuj3fo74tm60","pricing_plan_id":"cebpf4jnsgd1na2vs0mg"},{"bike_id":"88e93af0-7a92-4be0-ba26-1b5b353c6c65","system_id":"levelo_inurba_marseille","lat":43.297807,"lon":5.393533,"is_reserved":false,"is_disabled":false,"rental_uris":{"android":"levelo://app?vid=88e93af0-7a92-4be0-ba26-1b5b353c6c65","ios":"levelo://app?vid=88e93af0-7a92-4be0-ba26-1b5b353c6c65"},"vehicle_type_id":"4","last_reported":1721772518,"current_range_meters":0,"station_id":"chh1huq6cuj3fo74tm60","pricing_plan_id":"cebpf4jnsgd1na2vs0mg"},{"bike_id":"e6e0243f-eac9-424e-b91e-46fc27167f0b","system_id":"levelo_inurba_marseille","lat":43.295169,"lon":5.390426,"is_reserved":false,"is_disabled":false,"rental_uris":{"android":"levelo://app?vid=e6e0243f-eac9-424e-b91e-46fc27167f0b","ios":"levelo://app?vid=e6e0243f-eac9-424e-b91e-46fc27167f0b"},"vehicle_type_id":"4","last_reported":1721772518,"current_range_meters":0,"station_id":"ce4bh3p2rcd13ifvqdp0","pricing_plan_id":"cebpf4jnsgd1na2vs0mg"},{"bike_id":"de2fddd2-630c-4f65-920f-dcce7e12b416","system_id":"levelo_inurba_marseille","lat":43.297815,"lon":5.393548,"is_reserved":false,"is_disabled":false,"rental_uris":{"android":"levelo://app?vid=de2fddd2-630c-4f65-920f-dcce7e12b416","ios":"levelo://app?vid=de2fddd2-630c-4f65-920f-dcce7e12b416"},"vehicle_type_id":"4","last_reported":1721772518,"current_range_meters":29200,"station_id":"chh1huq6cuj3fo74tm60","pricing_plan_id":"cebpf4jnsgd1na2vs0mg"},{"bike_id":"c4bce1d7-a53f-480c-bcad-ffa877c808ac","system_id":"levelo_inurba_marseille","lat":43.33023,"lon":5.39035,"is_reserved":false,"is_disabled":false,"rental_uris":{"android":"levelo://app?vid=c4bce1d7-a53f-480c-bcad-ffa877c808ac","ios":"levelo://app?vid=c4bce1d7-a53f-480c-bcad-ffa877c808ac"},"vehicle_type_id":"4","last_reported":1721772518,"current_range_meters":10000,"station_id":"ce4bhr92rcd13ifvqhrg","pricing_plan_id":"cebpf4jnsgd1na2vs0mg"},{"bike_id":"4e97ae4d-988d-4d10-8e61-fd84bb266a70","system_id":"levelo_inurba_marseille","lat":43.330442,"lon":5.389148,"is_reserved":false,"is_disabled":false,"rental_uris":{"android":"levelo://app?vid=4e97ae4d-988d-4d10-8e61-fd84bb266a70","ios":"levelo://app?vid=4e97ae4d-988d-4d10-8e61-fd84bb266a70"},"vehicle_type_id":"4","last_reported":1721772518,"current_range_meters":30400,"station_id":"ce4bhr92rcd13ifvqhrg","pricing_plan_id":"cebpf4jnsgd1na2vs0mg"},{"bike_id":"e3e3d7e8-1086-4876-93f5-3de8b8d810c2","system_id":"levelo_inurba_marseille","lat":43.330442,"lon":5.389148,"is_reserved":false,"is_disabled":false,"rental_uris":{"android":"levelo://app?vid=e3e3d7e8-1086-4876-93f5-3de8b8d810c2","ios":"levelo://app?vid=e3e3d7e8-1086-4876-93f5-3de8b8d810c2"},"vehicle_type_id":"4","last_reported":1721772518,"current_range_meters":4400,"station_id":"ce4bhr92rcd13ifvqhrg","pricing_plan_id":"cebpf4jnsgd1na2vs0mg"},{"bike_id":"8e163172-0a89-464b-b40e-57c7eba287a4","system_id":"levelo_inurba_marseille","lat":43.330442,"lon":5.389148,"is_reserved":false,"is_disabled":false,"rental_uris":{"android":"levelo://app?vid=8e163172-0a89-464b-b40e-57c7eba287a4","ios":"levelo://app?vid=8e163172-0a89-464b-b40e-57c7eba287a4"},"vehicle_type_id":"4","last_reported":1721772518,"current_range_meters":31200,"station_id":"ce4bhr92rcd13ifvqhrg","pricing_plan_id":"cebpf4jnsgd1na2vs0mg"},{"bike_id":"50d9761f-5e41-4097-8e74-e913cdfd8029","system_id":"levelo_inurba_marseille","lat":43.289741,"lon":5.378306,"is_reserved":false,"is_disabled":false,"rental_uris":{"android":"levelo://app?vid=50d9761f-5e41-4097-8e74-e913cdfd8029","ios":"levelo://app?vid=50d9761f-5e41-4097-8e74-e913cdfd8029"},"vehicle_type_id":"4","last_reported":1721772518,"current_range_meters":5600,"station_id":"ce4bh9p2rcd13ifvqed0","pricing_plan_id":"cebpf4jnsgd1na2vs0mg"},{"bike_id":"fc832a90-dbbc-4b8a-8461-11d0b114c9e5","system_id":"levelo_inurba_marseille","lat":43.33044,"lon":5.39008,"is_reserved":false,"is_disabled":false,"rental_uris":{"android":"levelo://app?vid=fc832a90-dbbc-4b8a-8461-11d0b114c9e5","ios":"levelo://app?vid=fc832a90-dbbc-4b8a-8461-11d0b114c9e5"},"vehicle_type_id":"4","last_reported":1721772518,"current_range_meters":8800,"station_id":"ce4bhr92rcd13ifvqhrg","pricing_plan_id":"cebpf4jnsgd1na2vs0mg"},{"bike_id":"a4c3a0db-43ef-4716-b2d3-2b0b3a174da5","system_id":"levelo_inurba_marseille","lat":43.288529,"lon":5.371471,"is_reserved":false,"is_disabled":false,"rental_uris":{"android":"levelo://app?vid=a4c3a0db-43ef-4716-b2d3-2b0b3a174da5","ios":"levelo://app?vid=a4c3a0db-43ef-4716-b2d3-2b0b3a174da5"},"vehicle_type_id":"4","last_reported":1721772518,"current_range_meters":18000,"station_id":"","pricing_plan_id":"cebpf4jnsgd1na2vs0mg"},{"bike_id":"0d0d71e6-c7de-47bc-b58d-2a347b506213","system_id":"levelo_inurba_marseille","lat":43.330442,"lon":5.389148,"is_reserved":false,"is_disabled":false,"rental_uris":{"android":"levelo://app?vid=0d0d71e6-c7de-47bc-b58d-2a347b506213","ios":"levelo://app?vid=0d0d71e6-c7de-47bc-b58d-2a347b506213"},"vehicle_type_id":"4","last_reported":1721772518,"current_range_meters":12000,"station_id":"ce4bhr92rcd13ifvqhrg","pricing_plan_id":"cebpf4jnsgd1na2vs0mg"},{"bike_id":"4cef5188-eb41-43f1-8637-b298d90e92fa","system_id":"levelo_inurba_marseille","lat":43.330442,"lon":5.389148,"is_reserved":false,"is_disabled":false,"rental_uris":{"android":"levelo://app?vid=4cef5188-eb41-43f1-8637-b298d90e92fa","ios":"levelo://app?vid=4cef5188-eb41-43f1-8637-b298d90e92fa"},"vehicle_type_id":"4","last_reported":1721772518,"current_range_meters":29200,"station_id":"ce4bhr92rcd13ifvqhrg","pricing_plan_id":"cebpf4jnsgd1na2vs0mg"},{"bike_id":"b408186a-2873-4ea8-9080-de11059f0e87","system_id":"levelo_inurba_marseille","lat":43.330442,"lon":5.389148,"is_reserved":false,"is_disabled":false,"rental_uris":{"android":"levelo://app?vid=b408186a-2873-4ea8-9080-de11059f0e87","ios":"levelo://app?vid=b408186a-2873-4ea8-9080-de11059f0e87"},"vehicle_type_id":"4","last_reported":1721772518,"current_range_meters":15600,"station_id":"ce4bhr92rcd13ifvqhrg","pricing_plan_id":"cebpf4jnsgd1na2vs0mg"},{"bike_id":"ddcf22a3-f534-482f-a971-8f862565c476","system_id":"levelo_inurba_marseille","lat":43.33026,"lon":5.3904,"is_reserved":false,"is_disabled":false,"rental_uris":{"android":"levelo://app?vid=ddcf22a3-f534-482f-a971-8f862565c476","ios":"levelo://app?vid=ddcf22a3-f534-482f-a971-8f862565c476"},"vehicle_type_id":"4","last_reported":1721772518,"current_range_meters":21600,"station_id":"ce4bhr92rcd13ifvqhrg","pricing_plan_id":"cebpf4jnsgd1na2vs0mg"},{"bike_id":"eb0c90c5-deb5-499d-8190-8d7a5955f909","system_id":"levelo_inurba_marseille","lat":43.295222,"lon":5.390459,"is_reserved":false,"is_disabled":false,"rental_uris":{"android":"levelo://app?vid=eb0c90c5-deb5-499d-8190-8d7a5955f909","ios":"levelo://app?vid=eb0c90c5-deb5-499d-8190-8d7a5955f909"},"vehicle_type_id":"4","last_reported":1721772518,"current_range_meters":0,"station_id":"ce4bh3p2rcd13ifvqdp0","pricing_plan_id":"cebpf4jnsgd1na2vs0mg"},{"bike_id":"e9b60a41-cbee-423f-be64-41a9b0202dba","system_id":"levelo_inurba_marseille","lat":43.29123,"lon":5.38308,"is_reserved":false,"is_disabled":false,"rental_uris":{"android":"levelo://app?vid=e9b60a41-cbee-423f-be64-41a9b0202dba","ios":"levelo://app?vid=e9b60a41-cbee-423f-be64-41a9b0202dba"},"vehicle_type_id":"4","last_reported":1721772518,"current_range_meters":16400,"station_id":"","pricing_plan_id":"cebpf4jnsgd1na2vs0mg"},{"bike_id":"fc5df5eb-fa54-4f37-95a3-86d6ae6f1908","system_id":"levelo_inurba_marseille","lat":43.295237,"lon":5.390519,"is_reserved":false,"is_disabled":false,"rental_uris":{"android":"levelo://app?vid=fc5df5eb-fa54-4f37-95a3-86d6ae6f1908","ios":"levelo://app?vid=fc5df5eb-fa54-4f37-95a3-86d6ae6f1908"},"vehicle_type_id":"4","last_reported":1721772518,"current_range_meters":0,"station_id":"ce4bh3p2rcd13ifvqdp0","pricing_plan_id":"cebpf4jnsgd1na2vs0mg"},{"bike_id":"ad36a530-563c-4ef6-9bd7-0b3408397ef2","system_id":"levelo_inurba_marseille","lat":43.31068,"lon":5.40093,"is_reserved":false,"is_disabled":false,"rental_uris":{"android":"levelo://app?vid=ad36a530-563c-4ef6-9bd7-0b3408397ef2","ios":"levelo://app?vid=ad36a530-563c-4ef6-9bd7-0b3408397ef2"},"vehicle_type_id":"4","last_reported":1721772518,"current_range_meters":28000,"station_id":"","pricing_plan_id":"cebpf4jnsgd1na2vs0mg"},{"bike_id":"76e269a5-1e5f-4216-ad9e-888a976adb86","system_id":"levelo_inurba_marseille","lat":43.2901,"lon":5.381269,"is_reserved":false,"is_disabled":false,"rental_uris":{"android":"levelo://app?vid=76e269a5-1e5f-4216-ad9e-888a976adb86","ios":"levelo://app?vid=76e269a5-1e5f-4216-ad9e-888a976adb86"},"vehicle_type_id":"4","last_reported":1721772518,"current_range_meters":16800,"station_id":"ce4bh4p2rcd13ifvqe1g","pricing_plan_id":"cebpf4jnsgd1na2vs0mg"},{"bike_id":"009c9575-effd-46bd-99c1-c5173b9bdd4d","system_id":"levelo_inurba_marseille","lat":43.28856,"lon":5.358371,"is_reserved":false,"is_disabled":false,"rental_uris":{"android":"levelo://app?vid=009c9575-effd-46bd-99c1-c5173b9bdd4d","ios":"levelo://app?vid=009c9575-effd-46bd-99c1-c5173b9bdd4d"},"vehicle_type_id":"4","last_reported":1721772518,"current_range_meters":12800,"station_id":"ce4bhb12rcd13ifvqem0","pricing_plan_id":"cebpf4jnsgd1na2vs0mg"},{"bike_id":"a75d2e42-c0f3-48f9-a1a9-e6a32158aff5","system_id":"levelo_inurba_marseille","lat":43.290094,"lon":5.381264,"is_reserved":false,"is_disabled":false,"rental_uris":{"android":"levelo://app?vid=a75d2e42-c0f3-48f9-a1a9-e6a32158aff5","ios":"levelo://app?vid=a75d2e42-c0f3-48f9-a1a9-e6a32158aff5"},"vehicle_type_id":"4","last_reported":1721772518,"current_range_meters":28000,"station_id":"ce4bh4p2rcd13ifvqe1g","pricing_plan_id":"cebpf4jnsgd1na2vs0mg"},{"bike_id":"fbc06b27-7ed7-4d2b-ba1d-32df39fb68b6","system_id":"levelo_inurba_marseille","lat":43.28929,"lon":5.35459,"is_reserved":false,"is_disabled":false,"rental_uris":{"android":"levelo://app?vid=fbc06b27-7ed7-4d2b-ba1d-32df39fb68b6","ios":"levelo://app?vid=fbc06b27-7ed7-4d2b-ba1d-32df39fb68b6"},"vehicle_type_id":"4","last_reported":1721772518,"current_range_meters":0,"station_id":"","pricing_plan_id":"cebpf4jnsgd1na2vs0mg"},{"bike_id":"43097afe-9068-40fd-8566-c5003776e17c","system_id":"levelo_inurba_marseille","lat":43.312609,"lon":5.401662,"is_reserved":false,"is_disabled":false,"rental_uris":{"android":"levelo://app?vid=43097afe-9068-40fd-8566-c5003776e17c","ios":"levelo://app?vid=43097afe-9068-40fd-8566-c5003776e17c"},"vehicle_type_id":"4","last_reported":1721772518,"current_range_meters":5600,"station_id":"ce4bh092rcd13ifvqd30","pricing_plan_id":"cebpf4jnsgd1na2vs0mg"},{"bike_id":"517ab5a6-112d-43f6-adda-8b8719ea83f6","system_id":"levelo_inurba_marseille","lat":43.312609,"lon":5.401662,"is_reserved":false,"is_disabled":false,"rental_uris":{"android":"levelo://app?vid=517ab5a6-112d-43f6-adda-8b8719ea83f6","ios":"levelo://app?vid=517ab5a6-112d-43f6-adda-8b8719ea83f6"},"vehicle_type_id":"4","last_reported":1721772518,"current_range_meters":20000,"station_id":"ce4bh092rcd13ifvqd30","pricing_plan_id":"cebpf4jnsgd1na2vs0mg"},{"bike_id":"94a35e71-a032-4f95-987f-0e9aeee118f3","system_id":"levelo_inurba_marseille","lat":43.309371,"lon":5.401449,"is_reserved":false,"is_disabled":false,"rental_uris":{"android":"levelo://app?vid=94a35e71-a032-4f95-987f-0e9aeee118f3","ios":"levelo://app?vid=94a35e71-a032-4f95-987f-0e9aeee118f3"},"vehicle_type_id":"4","last_reported":1721772518,"current_range_meters":0,"station_id":"ce4bgvp2rcd13ifvqct0","pricing_plan_id":"cebpf4jnsgd1na2vs0mg"},{"bike_id":"7100a93e-a911-4d65-bad1-a8019b399e1b","system_id":"levelo_inurba_marseille","lat":43.312609,"lon":5.401662,"is_reserved":false,"is_disabled":false,"rental_uris":{"android":"levelo://app?vid=7100a93e-a911-4d65-bad1-a8019b399e1b","ios":"levelo://app?vid=7100a93e-a911-4d65-bad1-a8019b399e1b"},"vehicle_type_id":"4","last_reported":1721772518,"current_range_meters":29200,"station_id":"ce4bh092rcd13ifvqd30","pricing_plan_id":"cebpf4jnsgd1na2vs0mg"},{"bike_id":"c3465d4e-1386-475c-955e-6c1ce6276d68","system_id":"levelo_inurba_marseille","lat":43.30932,"lon":5.40143,"is_reserved":false,"is_disabled":false,"rental_uris":{"android":"levelo://app?vid=c3465d4e-1386-475c-955e-6c1ce6276d68","ios":"levelo://app?vid=c3465d4e-1386-475c-955e-6c1ce6276d68"},"vehicle_type_id":"4","last_reported":1721772518,"current_range_meters":21200,"station_id":"ce4bgvp2rcd13ifvqct0","pricing_plan_id":"cebpf4jnsgd1na2vs0mg"},