{"last_updated":1773605762,"ttl":60,"version":"2.2","data":{"bikes":[{"bike_id":"9ac9e797-21c5-4c29-9cb6-1b4470cfe4c4","system_id":"levelo_inurba_marseille","lat":43.29021,"lon":5.38634,"is_reserved":false,"is_disabled":false,"rental_uris":{"android":"levelo://app?vid=9ac9e797-21c5-4c29-9cb6-1b4470cfe4c4","ios":"levelo://app?vid=9ac9e797-21c5-4c29-9cb6-1b4470cfe4c4"},"vehicle_type_id":"4","last_reported":1773605763,"current_range_meters":31200,"station_id":"ce4bh4p2rcd13ifvqe0g","pricing_plan_id":"cebpf4jnsgd1na2vs0mg"},{"bike_id":"cbcc7843-f649-4472-bcc4-3f5669995697","system_id":"levelo_inurba_marseille","lat":43.303,"lon":5.36894,"is_reserved":false,"is_disabled":false,"rental_uris":{"android":"levelo://app?vid=cbcc7843-f649-4472-bcc4-3f5669995697","ios":"levelo://app?vid=cbcc7843-f649-4472-bcc4-3f5669995697"},"vehicle_type_id":"4","last_reported":1773605763,"current_range_meters":34800,"station_id":"ce4bgqh2rcd13ifvqc5g","pricing_plan_id":"cebpf4jnsgd1na2vs0mg"},{"bike_id":"78b4a3b0-364f-4a8c-9298-50f60f0b0027","system_id":"levelo_inurba_marseille","lat":43.29037,"lon":5.39998,"is_reserved":false,"is_disabled":true,"rental_uris":{"android":"levelo://app?vid=78b4a3b0-364f-4a8c-9298-50f60f0b0027","ios":"levelo://app?vid=78b4a3b0-364f-4a8c-9298-50f60f0b0027"},"vehicle_type_id":"4","last_reported":1773605763,"current_range_meters":32400,"station_id":"ce4bh392rcd13ifvqdm0","pricing_plan_id":"cebpf4jnsgd1na2vs0mg"},{"bike_id":"a9e1d94c-0192-42b7-8417-1fd326761e14","system_id":"levelo_inurba_marseille","lat":43.2466,"lon":5.38155,"is_reserved":false,"is_disabled":false,"rental_uris":{"android":"levelo://app?vid=a9e1d94c-0192-42b7-8417-1fd326761e14","ios":"levelo://app?vid=a9e1d94c-0192-42b7-8417-1fd326761e14"},"vehicle_type_id":"4","last_reported":1773605763,"current_range_meters":26000,"station_id":"ce4bhih2rcd13ifvqfr0","pricing_plan_id":"cebpf4jnsgd1na2vs0mg"},{"bike_id":"e4c6d513-0f75-4d36-ab87-e09b44465632","system_id":"levelo_inurba_marseille","lat":43.27392,"lon":5.36251,"is_reserved":false,"is_disabled":true,"rental_uris":{"android":"levelo://app?vid=e4c6d513-0f75-4d36-ab87-e09b44465632","ios":"levelo://app?vid=e4c6d513-0f75-4d36-ab87-e09b44465632"},"vehicle_type_id":"4","last_reported":1773605763,"current_range_meters":33200,"station_id":"ce4bhbh2rcd13ifvqeo0","pricing_plan_id":"cebpf4jnsgd1na2vs0mg"},{"bike_id":"38f2a5c3-b83c-4fa7-81ca-0a644c9af4ab","system_id":"levelo_inurba_marseille","lat":43.32277,"lon":5.38282,"is_reserved":false,"is_disabled":false,"rental_uris":{"android":"levelo://app?vid=38f2a5c3-b83c-4fa7-81ca-0a644c9af4ab","ios":"levelo://app?vid=38f2a5c3-b83c-4fa7-81ca-0a644c9af4ab"},"vehicle_type_id":"4","last_reported":1773605763,"current_range_meters":19200,"station_id":"ce4bhr12rcd13ifvqhqg","pricing_plan_id":"cebpf4jnsgd1na2vs0mg"},{"bike_id":"1cf259df-4e5a-4977-9414-ac7c110ac7b2","system_id":"levelo_inurba_marseille","lat":43.25714,"lon":5.41108,"is_reserved":false,"is_disabled":false,"rental_uris":{"android":"levelo://app?vid=1cf259df-4e5a-4977-9414-ac7c110ac7b2","ios":"levelo://app?vid=1cf259df-4e5a-4977-9414-ac7c110ac7b2"},"vehicle_type_id":"4","last_reported":1773605763,"current_range_meters":30400,"station_id":"ce4bhkp2rcd13ifvqgd0","pricing_plan_id":"cebpf4jnsgd1na2vs0mg"},{"bike_id":"d7608530-50da-45b9-bb05-38940f5f5b96","system_id":"levelo_inurba_marseille","lat":43.299116,"lon":5.401318,"is_reserved":false,"is_disabled":false,"rental_uris":{"android":"levelo://app?vid=d7608530-50da-45b9-bb05-38940f5f5b96","ios":"levelo://app?vid=d7608530-50da-45b9-bb05-38940f5f5b96"},"vehicle_type_id":"4","last_reported":1773605763,"current_range_meters":14400,"station_id":"ce4bh0h2rcd13ifvqd40","pricing_plan_id":"cebpf4jnsgd1na2vs0mg"},{"bike_id":"18f35d94-7133-4b4b-a629-0bec9d48af36","system_id":"levelo_inurba_marseille","lat":43.28472,"lon":5.4839,"is_reserved":false,"is_disabled":false,"rental_uris":{"android":"levelo://app?vid=18f35d94-7133-4b4b-a629-0bec9d48af36","ios":"levelo://app?vid=18f35d94-7133-4b4b-a629-0bec9d48af36"},"vehicle_type_id":"4","last_reported":1773605763,"current_range_meters":21600,"station_id":"","pricing_plan_id":"cebpf4jnsgd1na2vs0mg"},{"bike_id":"058a40ef-aca0-46a1-b31e-3c5dc3514929","system_id":"levelo_inurba_marseille","lat":43.28425,"lon":5.34996,"is_reserved":false,"is_disabled":false,"rental_uris":{"android":"levelo://app?vid=058a40ef-aca0-46a1-b31e-3c5dc3514929","ios":"levelo://app?vid=058a40ef-aca0-46a1-b31e-3c5dc3514929"},"vehicle_type_id":"4","last_reported":1773605763,"current_range_meters":25600,"station_id":"ce4bhbh2rcd13ifvqepg","pricing_plan_id":"cebpf4jnsgd1na2vs0mg"},{"bike_id":"65d10f3b-fdb1-4316-80cd-8ee00585fdd2","system_id":"levelo_inurba_marseille","lat":43.31361,"lon":5.36718,"is_reserved":false,"is_disabled":false,"rental_uris":{"android":"levelo://app?vid=65d10f3b-fdb1-4316-80cd-8ee00585fdd2","ios":"levelo://app?vid=65d10f3b-fdb1-4316-80cd-8ee00585fdd2"},"vehicle_type_id":"4","last_reported":1773605763,"current_range_meters":36400,"station_id":"ce4bgr92rcd13ifvqc6g","pricing_plan_id":"cebpf4jnsgd1na2vs0mg"},{"bike_id":"7db92065-fd6e-4014-982f-daf9b3e1e88d","system_id":"levelo_inurba_marseille","lat":43.2584,"lon":5.3942,"is_reserved":false,"is_disabled":false,"rental_uris":{"android":"levelo://app?vid=7db92065-fd6e-4014-982f-daf9b3e1e88d","ios":"levelo://app?vid=7db92065-fd6e-4014-982f-daf9b3e1e88d"},"vehicle_type_id":"4","last_reported":1773605763,"current_range_meters":9200,"station_id":"ce4bhip2rcd13ifvqft0","pricing_plan_id":"cebpf4jnsgd1na2vs0mg"},{"bike_id":"0bca780e-422b-4854-83f6-74f6102aad07","system_id":"levelo_inurba_marseille","lat":43.27812,"lon":5.40675,"is_reserved":false,"is_disabled":false,"rental_uris":{"android":"levelo://app?vid=0bca780e-422b-4854-83f6-74f6102aad07","ios":"levelo://app?vid=0bca780e-422b-4854-83f6-74f6102aad07"},"vehicle_type_id":"4","last_reported":1773605763,"current_range_meters":34000,"station_id":"ce4bhnh2rcd13ifvqgtg","pricing_plan_id":"cebpf4jnsgd1na2vs0mg"},{"bike_id":"33b16ff4-aa90-4e96-a65b-80fdeacb58de","system_id":"levelo_inurba_marseille","lat":43.30541,"lon":5.36537,"is_reserved":false,"is_disabled":false,"rental_uris":{"android":"levelo://app?vid=33b16ff4-aa90-4e96-a65b-80fdeacb58de","ios":"levelo://app?vid=33b16ff4-aa90-4e96-a65b-80fdeacb58de"},"vehicle_type_id":"4","last_reported":1773605763,"current_range_meters":22800,"station_id":"ce4bgs12rcd13ifvqcag","pricing_plan_id":"cebpf4jnsgd1na2vs0mg"},{"bike_id":"362ee393-5919-418f-81d1-e66c99083136","system_id":"levelo_inurba_marseille","lat":43.30177,"lon":5.36634,"is_reserved":false,"is_disabled":false,"rental_uris":{"android":"levelo://app?vid=362ee393-5919-418f-81d1-e66c99083136","ios":"levelo://app?vid=362ee393-5919-418f-81d1-e66c99083136"},"vehicle_type_id":"4","last_reported":1773605763,"current_range_meters":34000,"station_id":"ce4bgrh2rcd13ifvqc8g","pricing_plan_id":"cebpf4jnsgd1na2vs0mg"},{"bike_id":"a078ced6-d429-4156-85ab-301f40f9c90e","system_id":"levelo_inurba_marseille","lat":43.27067,"lon":5.38308,"is_reserved":false,"is_disabled":false,"rental_uris":{"android":"levelo://app?vid=a078ced6-d429-4156-85ab-301f40f9c90e","ios":"levelo://app?vid=a078ced6-d429-4156-85ab-301f40f9c90e"},"vehicle_type_id":"4","last_reported":1773605763,"current_range_meters":30800,"station_id":"st_d3n2fo6cfp8s73cte1j0","pricing_plan_id":"cebpf4jnsgd1na2vs0mg"},{"bike_id":"5e41dc5c-d587-47f2-a73b-209fc0146bcf","system_id":"levelo_inurba_marseille","lat":43.29633,"lon":5.40599,"is_reserved":false,"is_disabled":false,"rental_uris":{"android":"levelo://app?vid=5e41dc5c-d587-47f2-a73b-209fc0146bcf","ios":"levelo://app?vid=5e41dc5c-d587-47f2-a73b-209fc0146bcf"},"vehicle_type_id":"4","last_reported":1773605763,"current_range_meters":35200,"station_id":"ce4bh0h2rcd13ifvqd60","pricing_plan_id":"cebpf4jnsgd1na2vs0mg"},{"bike_id":"8c9b3dae-0149-40eb-baf1-4b5ca1da76df","system_id":"levelo_inurba_marseille","lat":43.30524,"lon":5.36548,"is_reserved":false,"is_disabled":false,"rental_uris":{"android":"levelo://app?vid=8c9b3dae-0149-40eb-baf1-4b5ca1da76df","ios":"levelo://app?vid=8c9b3dae-0149-40eb-baf1-4b5ca1da76df"},"vehicle_type_id":"4","last_reported":1773605763,"current_range_meters":32800,"station_id":"ce4bgs12rcd13ifvqcag","pricing_plan_id":"cebpf4jnsgd1na2vs0mg"},{"bike_id":"6f61d387-d66c-4612-94f7-67c0f0b415c5","system_id":"levelo_inurba_marseille","lat":43.30139,"lon":5.37418,"is_reserved":false,"is_disabled":false,"rental_uris":{"android":"levelo://app?vid=6f61d387-d66c-4612-94f7-67c0f0b415c5","ios":"levelo://app?vid=6f61d387-d66c-4612-94f7-67c0f0b415c5"},"vehicle_type_id":"4","last_reported":1773605763,"current_range_meters":26000,"station_id":"ce4bgs92rcd13ifvqcc0","pricing_plan_id":"cebpf4jnsgd1na2vs0mg"},{"bike_id":"da385f78-6396-4965-90a0-0943e7ec39a9","system_id":"levelo_inurba_marseille","lat":43.28416,"lon":5.3752,"is_reserved":false,"is_disabled":false,"rental_uris":{"android":"levelo://app?vid=da385f78-6396-4965-90a0-0943e7ec39a9","ios":"levelo://app?vid=da385f78-6396-4965-90a0-0943e7ec39a9"},"vehicle_type_id":"4","last_reported":1773605763,"current_range_meters":20000,"station_id":"ce4bh412rcd13ifvqds0","pricing_plan_id":"cebpf4jnsgd1na2vs0mg"},{"bike_id":"76018294-dcc7-4c7d-ad2d-1448d43240dc","system_id":"levelo_inurba_marseille","lat":43.25106,"lon":5.40325,"is_reserved":false,"is_disabled":false,"rental_uris":{"android":"levelo://app?vid=76018294-dcc7-4c7d-ad2d-1448d43240dc","ios":"levelo://app?vid=76018294-dcc7-4c7d-ad2d-1448d43240dc"},"vehicle_type_id":"4","last_reported":1773605763,"current_range_meters":24400,"station_id":"ce4bhlh2rcd13ifvqgig","pricing_plan_id":"cebpf4jnsgd1na2vs0mg"},{"bike_id":"2140d105-5fb1-4359-b8b8-7fe54156c4c7","system_id":"levelo_inurba_marseille","lat":43.28561,"lon":5.39512,"is_reserved":false,"is_disabled":false,"rental_uris":{"android":"levelo://app?vid=2140d105-5fb1-4359-b8b8-7fe54156c4c7","ios":"levelo://app?vid=2140d105-5fb1-4359-b8b8-7fe54156c4c7"},"vehicle_type_id":"4","last_reported":1773605763,"current_range_meters":35600,"station_id":"ce4bh292rcd13ifvqdg0","pricing_plan_id":"cebpf4jnsgd1na2vs0mg"},{"bike_id":"701edb85-5aa2-4cdb-ae1a-76fccb058ba0","system_id":"levelo_inurba_marseille","lat":43.30136,"lon":5.37417,"is_reserved":false,"is_disabled":false,"rental_uris":{"android":"levelo://app?vid=701edb85-5aa2-4cdb-ae1a-76fccb058ba0","ios":"levelo://app?vid=701edb85-5aa2-4cdb-ae1a-76fccb058ba0"},"vehicle_type_id":"4","last_reported":1773605763,"current_range_meters":34000,"station_id":"ce4bgs92rcd13ifvqcc0","pricing_plan_id":"cebpf4jnsgd1na2vs0mg"},{"bike_id":"491d8f46-2be8-495f-9728-de67d7e66051","system_id":"levelo_inurba_marseille","lat":43.30785,"lon":5.38152,"is_reserved":false,"is_disabled":false,"rental_uris":{"android":"levelo://app?vid=491d8f46-2be8-495f-9728-de67d7e66051","ios":"levelo://app?vid=491d8f46-2be8-495f-9728-de67d7e66051"},"vehicle_type_id":"4","last_reported":1773605763,"current_range_meters":22800,"station_id":"ce4bgt12rcd13ifvqce0","pricing_plan_id":"cebpf4jnsgd1na2vs0mg"},{"bike_id":"806b261a-db94-4d3f-a83b-ece799b2cd32","system_id":"levelo_inurba_marseille","lat":43.28676,"lon":5.38699,"is_reserved":false,"is_disabled":false,"rental_uris":{"android":"levelo://app?vid=806b261a-db94-4d3f-a83b-ece799b2cd32","ios":"levelo://app?vid=806b261a-db94-4d3f-a83b-ece799b2cd32"},"vehicle_type_id":"4","last_reported":1773605763,"current_range_meters":34000,"station_id":"ce4bh492rcd13ifvqdug","pricing_plan_id":"cebpf4jnsgd1na2vs0mg"},{"bike_id":"13eecf55-fc78-4d2a-b864-65eaaa1152e0","system_id":"levelo_inurba_marseille","lat":43.30202,"lon":5.36612,"is_reserved":false,"is_disabled":false,"rental_uris":{"android":"levelo://app?vid=13eecf55-fc78-4d2a-b864-65eaaa1152e0","ios":"levelo://app?vid=13eecf55-fc78-4d2a-b864-65eaaa1152e0"},"vehicle_type_id":"4","last_reported":1773605763,"current_range_meters":39200,"station_id":"ce4bgrh2rcd13ifvqc8g","pricing_plan_id":"cebpf4jnsgd1na2vs0mg"},{"bike_id":"3c7690d1-a097-4dc1-a920-49c74ad74917","system_id":"levelo_inurba_marseille","lat":43.29067,"lon":5.37157,"is_reserved":false,"is_disabled":true,"rental_uris":{"android":"levelo://app?vid=3c7690d1-a097-4dc1-a920-49c74ad74917","ios":"levelo://app?vid=3c7690d1-a097-4dc1-a920-49c74ad74917"},"vehicle_type_id":"4","last_reported":1773605763,"current_range_meters":25600,"station_id":"ce4bh5p2rcd13ifvqe4g","pricing_plan_id":"cebpf4jnsgd1na2vs0mg"},{"bike_id":"9fdaf863-2190-4d2c-abe8-e311e709d276","system_id":"levelo_inurba_marseille","lat":43.3018,"lon":5.36626,"is_reserved":false,"is_disabled":false,"rental_uris":{"android":"levelo://app?vid=9fdaf863-2190-4d2c-abe8-e311e709d276","ios":"levelo://app?vid=9fdaf863-2190-4d2c-abe8-e311e709d276"},"vehicle_type_id":"4","last_reported":1773605763,"current_range_meters":22400,"station_id":"ce4bgrh2rcd13ifvqc8g","pricing_plan_id":"cebpf4jnsgd1na2vs0mg"},{"bike_id":"2f862d03-e88c-4088-99c2-e008a308cbbf","system_id":"levelo_inurba_marseille","lat":43.23967,"lon":5.36636,"is_reserved":false,"is_disabled":false,"rental_uris":{"android":"levelo://app?vid=2f862d03-e88c-4088-99c2-e008a308cbbf","ios":"levelo://app?vid=2f862d03-e88c-4088-99c2-e008a308cbbf"},"vehicle_type_id":"4","last_reported":1773605763,"current_range_meters":24000,"station_id":"ce4bhi12rcd13ifvqfp0","pricing_plan_id":"cebpf4jnsgd1na2vs0mg"},{"bike_id":"7e7249ab-ffda-4a8b-b45a-917693570120","system_id":"levelo_inurba_marseille","lat":43.28969,"lon":5.36403,"is_reserved":false,"is_disabled":false,"rental_uris":{"android":"levelo://app?vid=7e7249ab-ffda-4a8b-b45a-917693570120","ios":"levelo://app?vid=7e7249ab-ffda-4a8b-b45a-917693570120"},"vehicle_type_id":"4","last_reported":1773605763,"current_range_meters":27600,"station_id":"ce4bhc92rcd13ifvqetg","pricing_plan_id":"cebpf4jnsgd1na2vs0mg"},{"bike_id":"ced05e86-2551-48cf-8692-7f3559e5deac","system_id":"levelo_inurba_marseille","lat":43.29484,"lon":5.4333,"is_reserved":false,"is_disabled":false,"rental_uris":{"android":"levelo://app?vid=ced05e86-2551-48cf-8692-7f3559e5deac","ios":"levelo://app?vid=ced05e86-2551-48cf-8692-7f3559e5deac"},"vehicle_type_id":"4","last_reported":1773605763,"current_range_meters":3200,"station_id":"st_d3j5ugp08ojc73fj9d10","pricing_plan_id":"cebpf4jnsgd1na2vs0mg"},{"bike_id":"a2ef11d8-0e5e-4889-a570-21011d7270f6","system_id":"levelo_inurba_marseille","lat":43.29566,"lon":5.37539,"is_reserved":false,"is_disabled":false,"rental_uris":{"android":"levelo://app?vid=a2ef11d8-0e5e-4889-a570-21011d7270f6","ios":"levelo://app?vid=a2ef11d8-0e5e-4889-a570-21011d7270f6"},"vehicle_type_id":"4","last_reported":1773605763,"current_range_meters":38800,"station_id":"ce4bgh92rcd13ifvqb50","pricing_plan_id":"cebpf4jnsgd1na2vs0mg"},{"bike_id":"6152ef78-b464-49f9-b02f-37b215c6d4f3","system_id":"levelo_inurba_marseille","lat":43.25883,"lon":5.39894,"is_reserved":false,"is_disabled":true,"rental_uris":{"android":"levelo://app?vid=6152ef78-b464-49f9-b02f-37b215c6d4f3","ios":"levelo://app?vid=6152ef78-b464-49f9-b02f-37b215c6d4f3"},"vehicle_type_id":"4","last_reported":1773605763,"current_range_meters":37600,"station_id":"ce4bhl92rcd13ifvqghg","pricing_plan_id":"cebpf4jnsgd1na2vs0mg"},{"bike_id":"b89cd1c2-db43-4410-9d32-79ebd5d302f9","system_id":"levelo_inurba_marseille","lat":43.29544,"lon":5.39396,"is_reserved":false,"is_disabled":false,"rental_uris":{"android":"levelo://app?vid=b89cd1c2-db43-4410-9d32-79ebd5d302f9","ios":"levelo://app?vid=b89cd1c2-db43-4410-9d32-79ebd5d302f9"},"vehicle_type_id":"4","last_reported":1773605763,"current_range_meters":38400,"station_id":"ce4bh292rcd13ifvqdf0","pricing_plan_id":"cebpf4jnsgd1na2vs0mg"},{"bike_id":"92fbc6cc-0ce6-4f56-b7c8-95405ce28d0f","system_id":"levelo_inurba_marseille","lat":43.29624,"lon":5.40611,"is_reserved":false,"is_disabled":false,"rental_uris":{"android":"levelo://app?vid=92fbc6cc-0ce6-4f56-b7c8-95405ce28d0f","ios":"levelo://app?vid=92fbc6cc-0ce6-4f56-b7c8-95405ce28d0f"},"vehicle_type_id":"4","last_reported":1773605763,"current_range_meters":19600,"station_id":"ce4bh0h2rcd13ifvqd60","pricing_plan_id":"cebpf4jnsgd1na2vs0mg"},{"bike_id":"41ae287c-9cc1-430a-84ca-70506bc523b6","system_id":"levelo_inurba_marseille","lat":43.2256,"lon":5.41632,"is_reserved":false,"is_disabled":false,"rental_uris":{"android":"levelo://app?vid=41ae287c-9cc1-430a-84ca-70506bc523b6","ios":"levelo://app?vid=41ae287c-9cc1-430a-84ca-70506bc523b6"},"vehicle_type_id":"4","last_reported":1773605763,"current_range_meters":33600,"station_id":"st_d2o4gvlbi1j2169b742g","pricing_plan_id":"cebpf4jnsgd1na2vs0mg"},{"bike_id":"fe8dfa27-62f0-46d6-ba43-c3127399aaa0","system_id":"levelo_inurba_marseille","lat":43.29619,"lon":5.42158,"is_reserved":false,"is_disabled":false,"rental_uris":{"android":"levelo://app?vid=fe8dfa27-62f0-46d6-ba43-c3127399aaa0","ios":"levelo://app?vid=fe8dfa27-62f0-46d6-ba43-c3127399aaa0"},"vehicle_type_id":"4","last_reported":1773605763,"current_range_meters":22400,"station_id":"","pricing_plan_id":"cebpf4jnsgd1na2vs0mg"},{"bike_id":"fde23e65-e2cb-46cb-8f9a-49c501c3fb35","system_id":"levelo_inurba_marseille","lat":43.33164,"lon":5.37691,"is_reserved":false,"is_disabled":false,"rental_uris":{"android":"levelo://app?vid=fde23e65-e2cb-46cb-8f9a-49c501c3fb35","ios":"levelo://app?vid=fde23e65-e2cb-46cb-8f9a-49c501c3fb35"},"vehicle_type_id":"4","last_reported":1773605763,"current_range_meters":8000,"station_id":"st_d46cu089ee8s73dldbu0","pricing_plan_id":"cebpf4jnsgd1na2vs0mg"},{"bike_id":"af157042-6b1c-4da1-9339-4547bdca0041","system_id":"levelo_inurba_marseille","lat":43.30572,"lon":5.36515,"is_reserved":false,"is_disabled":false,"rental_uris":{"android":"levelo://app?vid=af157042-6b1c-4da1-9339-4547bdca0041","ios":"levelo://app?vid=af157042-6b1c-4da1-9339-4547bdca0041"},"vehicle_type_id":"4","last_reported":1773605763,"current_range_meters":10800,"station_id":"ce4bgs12rcd13ifvqcag","pricing_plan_id":"cebpf4jnsgd1na2vs0mg"},{"bike_id":"6cd1b79d-1347-474f-9698-eaf7241262db","system_id":"levelo_inurba_marseille","lat":43.28406,"lon":5.35006,"is_reserved":false,"is_disabled":false,"rental_uris":{"android":"levelo://app?vid=6cd1b79d-1347-474f-9698-eaf7241262db","ios":"levelo://app?vid=6cd1b79d-1347-474f-9698-eaf7241262db"},"vehicle_type_id":"4","last_reported":1773605763,"current_range_meters":38400,"station_id":"ce4bhbh2rcd13ifvqepg","pricing_plan_id":"cebpf4jnsgd1na2vs0mg"},{"bike_id":"bba2d762-24c5-424c-8885-ccb819513608","system_id":"levelo_inurba_marseille","lat":43.27694,"lon":5.38851,"is_reserved":false,"is_disabled":true,"rental_uris":{"android":"levelo://app?vid=bba2d762-24c5-424c-8885-ccb819513608","ios":"levelo://app?vid=bba2d762-24c5-424c-8885-ccb819513608"},"vehicle_type_id":"4","last_reported":1773605763,"current_range_meters":9200,"station_id":"ce4bhi12rcd13ifvqfo0","pricing_plan_id":"cebpf4jnsgd1na2vs0mg"},{"bike_id":"1217792c-987d-41a2-8823-875cdd503171","system_id":"levelo_inurba_marseille","lat":43.33155,"lon":5.37711,"is_reserved":false,"is_disabled":false,"rental_uris":{"android":"levelo://app?vid=1217792c-987d-41a2-8823-875cdd503171","ios":"levelo://app?vid=1217792c-987d-41a2-8823-875cdd503171"},"vehicle_type_id":"4","last_reported":1773605763,"current_range_meters":22800,"station_id":"st_d46cu089ee8s73dldbu0","pricing_plan_id":"cebpf4jnsgd1na2vs0mg"},{"bike_id":"cdf89b19-efb9-4df2-a873-89aaf5b5f343","system_id":"levelo_inurba_marseille","lat":43.2961,"lon":5.38109,"is_reserved":false,"is_disabled":false,"rental_uris":{"android":"levelo://app?vid=cdf89b19-efb9-4df2-a873-89aaf5b5f343","ios":"levelo://app?vid=cdf89b19-efb9-4df2-a873-89aaf5b5f343"},"vehicle_type_id":"4","last_reported":1773605763,"current_range_meters":8800,"station_id":"ce4bgl12rcd13ifvqbo0","pricing_plan_id":"cebpf4jnsgd1na2vs0mg"},{"bike_id":"1fa66c7c-5bbe-4c72-8397-ac5bb2c15dc7","system_id":"levelo_inurba_marseille","lat":43.32373,"lon":5.38875,"is_reserved":false,"is_disabled":false,"rental_uris":{"android":"levelo://app?vid=1fa66c7c-5bbe-4c72-8397-ac5bb2c15dc7","ios":"levelo://app?vid=1fa66c7c-5bbe-4c72-8397-ac5bb2c15dc7"},"vehicle_type_id":"4","last_reported":1773605763,"current_range_meters":34800,"station_id":"ce4bhqp2rcd13ifvqhog","pricing_plan_id":"cebpf4jnsgd1na2vs0mg"},{"bike_id":"9efe1c4f-047c-42f7-8402-5a19ec34d756","system_id":"levelo_inurba_marseille","lat":43.30407,"lon":5.41279,"is_reserved":false,"is_disabled":false,"rental_uris":{"android":"levelo://app?vid=9efe1c4f-047c-42f7-8402-5a19ec34d756","ios":"levelo://app?vid=9efe1c4f-047c-42f7-8402-5a19ec34d756"},"vehicle_type_id":"4","last_reported":1773605763,"current_range_meters":38000,"station_id":"ce4bhop2rcd13ifvqh8g","pricing_plan_id":"cebpf4jnsgd1na2vs0mg"},{"bike_id":"2c3e9862-6d9e-4def-8308-2994bae5c1ca","system_id":"levelo_inurba_marseille","lat":43.33725,"lon":5.39182,"is_reserved":false,"is_disabled":false,"rental_uris":{"android":"levelo://app?vid=2c3e9862-6d9e-4def-8308-2994bae5c1ca","ios":"levelo://app?vid=2c3e9862-6d9e-4def-8308-2994bae5c1ca"},"vehicle_type_id":"4","last_reported":1773605763,"current_range_meters":38400,"station_id":"ce4bhr92rcd13ifvqhsg","pricing_plan_id":"cebpf4jnsgd1na2vs0mg"},{"bike_id":"aed4118b-a0e3-4071-9098-af6c6a632706","system_id":"levelo_inurba_marseille","lat":43.3014,"lon":5.43093,"is_reserved":false,"is_disabled":false,"rental_uris":{"android":"levelo://app?vid=aed4118b-a0e3-4071-9098-af6c6a632706","ios":"levelo://app?vid=aed4118b-a0e3-4071-9098-af6c6a632706"},"vehicle_type_id":"4","last_reported":1773605763,"current_range_meters":6800,"station_id":"st_d3js3co5814s73ftftug","pricing_plan_id":"cebpf4jnsgd1na2vs0mg"},{"bike_id":"ee97d76b-d430-4b45-b3b0-dd8a973c7e77","system_id":"levelo_inurba_marseille","lat":43.23965,"lon":5.36635,"is_reserved":false,"is_disabled":false,"rental_uris":{"android":"levelo://app?vid=ee97d76b-d430-4b45-b3b0-dd8a973c7e77","ios":"levelo://app?vid=ee97d76b-d430-4b45-b3b0-dd8a973c7e77"},"vehicle_type_id":"4","last_reported":1773605763,"current_range_meters":34000,"station_id":"ce4bhi12rcd13ifvqfp0","pricing_plan_id":"cebpf4jnsgd1na2vs0mg"},{"bike_id":"e3a528d1-30a2-4f90-a1fa-20282ad643b5","system_id":"levelo_inurba_marseille","lat":43.26375,"lon":5.41062,"is_reserved":false,"is_disabled":false,"rental_uris":{"android":"levelo://app?vid=e3a528d1-30a2-4f90-a1fa-20282ad643b5","ios":"levelo://app?vid=e3a528d1-30a2-4f90-a1fa-20282ad643b5"},"vehicle_type_id":"4","last_reported":1773605763,"current_range_meters":28000,"station_id":"st_d4e5ca6na9uc73bfl5fg","pricing_plan_id":"cebpf4jnsgd1na2vs0mg"},{"bike_id":"e7b756cc-5d84-4593-8900-25a15e80ea6e","system_id":"levelo_inurba_marseille","lat":43.24086,"lon":5.37744,"is_reserved":false,"is_disabled":false,"rental_uris":{"android":"levelo://app?vid=e7b756cc-5d84-4593-8900-25a15e80ea6e","ios":"levelo://app?vid=e7b756cc-5d84-4593-8900-25a15e80ea6e"},"vehicle_type_id":"4","last_reported":1773605763,"current_range_meters":33200,"station_id":"ce4bhnp2rcd13ifvqgvg","pricing_plan_id":"cebpf4jnsgd1na2vs0mg"},{"bike_id":"5b0297b6-1c6b-4118-9fe3-c71c8a0eb126","system_id":"levelo_inurba_marseille","lat":43.30128,"lon":5.39873,"is_reserved":false,"is_disabled":false,"rental_uris":{"android":"levelo://app?vid=5b0297b6-1c6b-4118-9fe3-c71c8a0eb126","ios":"levelo://app?vid=5b0297b6-1c6b-4118-9fe3-c71c8a0eb126"},"vehicle_type_id":"4","last_reported":1773605763,"current_range_meters":30000,"station_id":"ce4bh0h2rcd13ifvqd40","pricing_plan_id":"cebpf4jnsgd1na2vs0mg"},{"bike_id":"193f3e37-9464-4f96-8f29-4fc2a2a78fd9","system_id":"levelo_inurba_marseille","lat":43.28597,"lon":5.35121,"is_reserved":false,"is_disabled":false,"rental_uris":{"android":"levelo://app?vid=193f3e37-9464-4f96-8f29-4fc2a2a78fd9","ios":"levelo://app?vid=193f3e37-9464-4f96-8f29-4fc2a2a78fd9"},"vehicle_type_id":"4","last_reported":1773605763,"current_range_meters":28400,"station_id":"ce4bhch2rcd13ifvqeug","pricing_plan_id":"cebpf4jnsgd1na2vs0mg"},{"bike_id":"e5bbee96-e148-49aa-9b68-543686be8194","system_id":"levelo_inurba_marseille","lat":43.23894,"lon":5.37459,"is_reserved":false,"is_disabled":true,"rental_uris":{"android":"levelo://app?vid=e5bbee96-e148-49aa-9b68-543686be8194","ios":"levelo://app?vid=e5bbee96-e148-49aa-9b68-543686be8194"},"vehicle_type_id":"4","last_reported":1773605763,"current_range_meters":2000,"station_id":"","pricing_plan_id":"cebpf4jnsgd1na2vs0mg"},{"bike_id":"af5a1dfc-fa5f-4ac5-873b-9fe0a40e1ab6","system_id":"levelo_inurba_marseille","lat":43.30792,"lon":5.38176,"is_reserved":false,"is_disabled":false,"rental_uris":{"android":"levelo://app?vid=af5a1dfc-fa5f-4ac5-873b-9fe0a40e1ab6","ios":"levelo://app?vid=af5a1dfc-fa5f-4ac5-873b-9fe0a40e1ab6"},"vehicle_type_id":"4","last_reported":1773605763,"current_range_meters":39200,"station_id":"ce4bgt12rcd13ifvqce0","pricing_plan_id":"cebpf4jnsgd1na2vs0mg"},{"bike_id":"24806c97-0e45-4c49-bb71-d4f27f1297a9","system_id":"levelo_inurba_marseille","lat":43.29525,"lon":5.38552,"is_reserved":false,"is_disabled":false,"rental_uris":{"android":"levelo://app?vid=24806c97-0e45-4c49-bb71-d4f27f1297a9","ios":"levelo://app?vid=24806c97-0e45-4c49-bb71-d4f27f1297a9"},"vehicle_type_id":"4","last_reported":1773605763,"current_range_meters":39200,"station_id":"ce4bgih2rcd13ifvqba0","pricing_plan_id":"cebpf4jnsgd1na2vs0mg"},{"bike_id":"1a90a8d3-c56d-44f0-9e3d-eb117a0cebc5","system_id":"levelo_inurba_marseille","lat":43.24159,"lon":5.39729,"is_reserved":false,"is_disabled":false,"rental_uris":{"android":"levelo://app?vid=1a90a8d3-c56d-44f0-9e3d-eb117a0cebc5","ios":"levelo://app?vid=1a90a8d3-c56d-44f0-9e3d-eb117a0cebc5"},"vehicle_type_id":"4","last_reported":1773605763,"current_range_meters":30800,"station_id":"ce4bhn12rcd13ifvqgpg","pricing_plan_id":"cebpf4jnsgd1na2vs0mg"},{"bike_id":"923e734c-35b5-436e-933e-614fd564a59f","system_id":"levelo_inurba_marseille","lat":43.26559,"lon":5.37294,"is_reserved":false,"is_disabled":false,"rental_uris":{"android":"levelo://app?vid=923e734c-35b5-436e-933e-614fd564a59f","ios":"levelo://app?vid=923e734c-35b5-436e-933e-614fd564a59f"},"vehicle_type_id":"4","last_reported":1773605763,"current_range_meters":14000,"station_id":"ce4bhg12rcd13ifvqf70","pricing_plan_id":"cebpf4jnsgd1na2vs0mg"},{"bike_id":"16a9b4d1-3c1d-430b-b38c-79d0b9d05151","system_id":"levelo_inurba_marseille","lat":43.23204,"lon":5.35537,"is_reserved":false,"is_disabled":false,"rental_uris":{"android":"levelo://app?vid=16a9b4d1-3c1d-430b-b38c-79d0b9d05151","ios":"levelo://app?vid=16a9b4d1-3c1d-430b-b38c-79d0b9d05151"},"vehicle_type_id":"4","last_reported":1773605763,"current_range_meters":24800,"station_id":"ce4bhu92rcd13ifvqi70","pricing_plan_id":"cebpf4jnsgd1na2vs0mg"},{"bike_id":"45215f52-9818-4ff3-af39-1f094cfbc110","system_id":"levelo_inurba_marseille","lat":43.21752,"lon":5.34625,"is_reserved":false,"is_disabled":false,"rental_uris":{"android":"levelo://app?vid=45215f52-9818-4ff3-af39-1f094cfbc110","ios":"levelo://app?vid=45215f52-9818-4ff3-af39-1f094cfbc110"},"vehicle_type_id":"4","last_reported":1773605763,"current_range_meters":11200,"station_id":"st_cvj6r9ubvosntc0bgbag","pricing_plan_id":"cebpf4jnsgd1na2vs0mg"},{"bike_id":"3d951476-aa89-47f5-907d-0788c1744f09","system_id":"levelo_inurba_marseille","lat":43.25341,"lon":5.42154,"is_reserved":false,"is_disabled":false,"rental_uris":{"android":"levelo://app?vid=3d951476-aa89-47f5-907d-0788c1744f09","ios":"levelo://app?vid=3d951476-aa89-47f5-907d-0788c1744f09"},"vehicle_type_id":"4","last_reported":1773605763,"current_range_meters":22800,"station_id":"st_d2m65c5bi1j21697t3ng","pricing_plan_id":"cebpf4jnsgd1na2vs0mg"},{"bike_id":"0cfe6147-16c1-48ba-ba73-5bbc93db4ab4","system_id":"levelo_inurba_marseille","lat":43.27067,"lon":5.38321,"is_reserved":false,"is_disabled":true,"rental_uris":{"android":"levelo://app?vid=0cfe6147-16c1-48ba-ba73-5bbc93db4ab4","ios":"levelo://app?vid=0cfe6147-16c1-48ba-ba73-5bbc93db4ab4"},"vehicle_type_id":"4","last_reported":1773605763,"current_range_meters":37600,"station_id":"st_d3n2fo6cfp8s73cte1j0","pricing_plan_id":"cebpf4jnsgd1na2vs0mg"},{"bike_id":"e32aa210-7bc7-4346-bc8b-5fdc7f7e3638","system_id":"levelo_inurba_marseille","lat":43.29694,"lon":5.37699,"is_reserved":false,"is_disabled":false,"rental_uris":{"android":"levelo://app?vid=e32aa210-7bc7-4346-bc8b-5fdc7f7e3638","ios":"levelo://app?vid=e32aa210-7bc7-4346-bc8b-5fdc7f7e3638"},"vehicle_type_id":"4","last_reported":1773605763,"current_range_meters":21600,"station_id":"ce4bgkh2rcd13ifvqbl0","pricing_plan_id":"cebpf4jnsgd1na2vs0mg"},{"bike_id":"c57c924b-3373-43fc-9a2c-6d8539988c6e","system_id":"levelo_inurba_marseille","lat":43.30191,"lon":5.36612,"is_reserved":false,"is_disabled":false,"rental_uris":{"android":"levelo://app?vid=c57c924b-3373-43fc-9a2c-6d8539988c6e","ios":"levelo://app?vid=c57c924b-3373-43fc-9a2c-6d8539988c6e"},"vehicle_type_id":"4","last_reported":1773605763,"current_range_meters":32000,"station_id":"ce4bgrh2rcd13ifvqc8g","pricing_plan_id":"cebpf4jnsgd1na2vs0mg"},{"bike_id":"968e0752-94e3-4427-8693-dccfb2dc93c6","system_id":"levelo_inurba_marseille","lat":43.32354,"lon":5.38831,"is_reserved":false,"is_disabled":false,"rental_uris":{"android":"levelo://app?vid=968e0752-94e3-4427-8693-dccfb2dc93c6","ios":"levelo://app?vid=968e0752-94e3-4427-8693-dccfb2dc93c6"},"vehicle_type_id":"4","last_reported":1773605763,"current_range_meters":35600,"station_id":"ce4bhqp2rcd13ifvqhog","pricing_plan_id":"cebpf4jnsgd1na2vs0mg"},{"bike_id":"800a0bd7-e849-4d35-83f8-f00d3b4762b1","system_id":"levelo_inurba_marseille","lat":43.28723,"lon":5.36072,"is_reserved":false,"is_disabled":false,"rental_uris":{"android":"levelo://app?vid=800a0bd7-e849-4d35-83f8-f00d3b4762b1","ios":"levelo://app?vid=800a0bd7-e849-4d35-83f8-f00d3b4762b1"},"vehicle_type_id":"4","last_reported":1773605763,"current_range_meters":22800,"station_id":"cki0cbj6b192h4jlfktg","pricing_plan_id":"cebpf4jnsgd1na2vs0mg"},{"bike_id":"98ff575e-e932-485c-a678-0a491cff6beb","system_id":"levelo_inurba_marseille","lat":43.26367,"lon":5.41077,"is_reserved":false,"is_disabled":false,"rental_uris":{"android":"levelo://app?vid=98ff575e-e932-485c-a678-0a491cff6beb","ios":"levelo://app?vid=98ff575e-e932-485c-a678-0a491cff6beb"},"vehicle_type_id":"4","last_reported":1773605763,"current_range_meters":28400,"station_id":"st_d4e5ca6na9uc73bfl5fg","pricing_plan_id":"cebpf4jnsgd1na2vs0mg"},{"bike_id":"2eb112e0-30fa-4776-b5a6-10d2c0c8b525","system_id":"levelo_inurba_marseille","lat":43.29056,"lon":5.39916,"is_reserved":false,"is_disabled":true,"rental_uris":{"android":"levelo://app?vid=2eb112e0-30fa-4776-b5a6-10d2c0c8b525","ios":"levelo://app?vid=2eb112e0-30fa-4776-b5a6-10d2c0c8b525"},"vehicle_type_id":"4","last_reported":1773605763,"current_range_meters":22800,"station_id":"ce4bh392rcd13ifvqdm0","pricing_plan_id":"cebpf4jnsgd1na2vs0mg"},{"bike_id":"5e37606c-cd45-4546-a107-12352d83874a","system_id":"levelo_inurba_marseille","lat":43.29165,"lon":5.39331,"is_reserved":false,"is_disabled":true,"rental_uris":{"android":"levelo://app?vid=5e37606c-cd45-4546-a107-12352d83874a","ios":"levelo://app?vid=5e37606c-cd45-4546-a107-12352d83874a"},"vehicle_type_id":"4","last_reported":1773605763,"current_range_meters":16400,"station_id":"","pricing_plan_id":"cebpf4jnsgd1na2vs0mg"},{"bike_id":"71501c24-7c0d-4212-996a-19e1a1605792","system_id":"levelo_inurba_marseille","lat":43.29477,"lon":5.43306,"is_reserved":false,"is_disabled":false,"rental_uris":{"android":"levelo://app?vid=71501c24-7c0d-4212-996a-19e1a1605792","ios":"levelo://app?vid=71501c24-7c0d-4212-996a-19e1a1605792"},"vehicle_type_id":"4","last_reported":1773605763,"current_range_meters":28800,"station_id":"st_d3j5ugp08ojc73fj9d10","pricing_plan_id":"cebpf4jnsgd1na2vs0mg"},{"bike_id":"cb262abd-8fa3-4907-9d6d-7f138f8b8e6c","system_id":"levelo_inurba_marseille","lat":43.28618,"lon":5.35108,"is_reserved":false,"is_disabled":false,"rental_uris":{"android":"levelo://app?vid=cb262abd-8fa3-4907-9d6d-7f138f8b8e6c","ios":"levelo://app?vid=cb262abd-8fa3-4907-9d6d-7f138f8b8e6c"},"vehicle_type_id":"4","last_reported":1773605763,"current_range_meters":39200,"station_id":"ce4bhch2rcd13ifvqeug","pricing_plan_id":"cebpf4jnsgd1na2vs0mg"},{"bike_id":"0ddbdcf0-3ed3-47c0-ae8e-a0e77cb9b432","system_id":"levelo_inurba_marseille","lat":43.25703,"lon":5.41125,"is_reserved":false,"is_disabled":false,"rental_uris":{"android":"levelo://app?vid=0ddbdcf0-3ed3-47c0-ae8e-a0e77cb9b432","ios":"levelo://app?vid=0ddbdcf0-3ed3-47c0-ae8e-a0e77cb9b432"},"vehicle_type_id":"4","last_reported":1773605763,"current_range_meters":40000,"station_id":"ce4bhkp2rcd13ifvqgd0","pricing_plan_id":"cebpf4jnsgd1na2vs0mg"},{"bike_id":"d2d3977e-a511-4526-90b4-a6ef895839c4","system_id":"levelo_inurba_marseille","lat":43.24085,"lon":5.37751,"is_reserved":false,"is_disabled":false,"rental_uris":{"android":"levelo://app?vid=d2d3977e-a511-4526-90b4-a6ef895839c4","ios":"levelo://app?vid=d2d3977e-a511-4526-90b4-a6ef895839c4"},"vehicle_type_id":"4","last_reported":1773605763,"current_range_meters":8800,"station_id":"ce4bhnp2rcd13ifvqgvg","pricing_plan_id":"cebpf4jnsgd1na2vs0mg"},{"bike_id":"ff6a7a0a-0bad-4577-a255-93f349964cab","system_id":"levelo_inurba_marseille","lat":43.29097,"lon":5.38161,"is_reserved":false,"is_disabled":false,"rental_uris":{"android":"levelo://app?vid=ff6a7a0a-0bad-4577-a255-93f349964cab","ios":"levelo://app?vid=ff6a7a0a-0bad-4577-a255-93f349964cab"},"vehicle_type_id":"4","last_reported":1773605763,"current_range_meters":34000,"station_id":"ce4bh512rcd13ifvqe2g","pricing_plan_id":"cebpf4jnsgd1na2vs0mg"},{"bike_id":"fab9d42d-0389-4e3c-b710-106effb7d2e6","system_id":"levelo_inurba_marseille","lat":43.27816,"lon":5.40726,"is_reserved":false,"is_disabled":false,"rental_uris":{"android":"levelo://app?vid=fab9d42d-0389-4e3c-b710-106effb7d2e6","ios":"levelo://app?vid=fab9d42d-0389-4e3c-b710-106effb7d2e6"},"vehicle_type_id":"4","last_reported":1773605763,"current_range_meters":30000,"station_id":"ce4bhnh2rcd13ifvqgtg","pricing_plan_id":"cebpf4jnsgd1na2vs0mg"},{"bike_id":"6973bc0a-497d-4669-a2cb-c63cb0fa1dd6","system_id":"levelo_inurba_marseille","lat":43.29655,"lon":5.37177,"is_reserved":false,"is_disabled":false,"rental_uris":{"android":"levelo://app?vid=6973bc0a-497d-4669-a2cb-c63cb0fa1dd6","ios":"levelo://app?vid=6973bc0a-497d-4669-a2cb-c63cb0fa1dd6"},"vehicle_type_id":"4","last_reported":1773605763,"current_range_meters":37600,"station_id":"ce4bgnh2rcd13ifvqc0g","pricing_plan_id":"cebpf4jnsgd1na2vs0mg"},{"bike_id":"a29b970f-b285-425f-be46-e5d395220578","system_id":"levelo_inurba_marseille","lat":43.25243,"lon":5.4027,"is_reserved":false,"is_disabled":false,"rental_uris":{"android":"levelo://app?vid=a29b970f-b285-425f-be46-e5d395220578","ios":"levelo://app?vid=a29b970f-b285-425f-be46-e5d395220578"},"vehicle_type_id":"4","last_reported":1773605763,"current_range_meters":24400,"station_id":"","pricing_plan_id":"cebpf4jnsgd1na2vs0mg"},{"bike_id":"d4547259-2408-4784-8c3d-3037a0146380","system_id":"levelo_inurba_marseille","lat":43.301342,"lon":5.374307,"is_reserved":false,"is_disabled":false,"rental_uris":{"android":"levelo://app?vid=d4547259-2408-4784-8c3d-3037a0146380","ios":"levelo://app?vid=d4547259-2408-4784-8c3d-3037a0146380"},"vehicle_type_id":"4","last_reported":1773605763,"current_range_meters":12800,"station_id":"ce4bgs92rcd13ifvqcc0","pricing_plan_id":"cebpf4jnsgd1na2vs0mg"},{"bike_id":"1b76ca95-f18f-46ad-b5e2-115c03b09dc0","system_id":"levelo_inurba_marseille","lat":43.29758,"lon":5.42782,"is_reserved":false,"is_disabled":false,"rental_uris":{"android":"levelo://app?vid=1b76ca95-f18f-46ad-b5e2-115c03b09dc0","ios":"levelo://app?vid=1b76ca95-f18f-46ad-b5e2-115c03b09dc0"},"vehicle_type_id":"4","last_reported":1773605763,"current_range_meters":16800,"station_id":"st_d3md5207bmas73dh9klg","pricing_plan_id":"cebpf4jnsgd1na2vs0mg"},{"bike_id":"aa1ea814-effc-4a82-a7ce-fc6b0be25510","system_id":"levelo_inurba_marseille","lat":43.31858,"lon":5.3697,"is_reserved":false,"is_disabled":false,"rental_uris":{"android":"levelo://app?vid=aa1ea814-effc-4a82-a7ce-fc6b0be25510","ios":"levelo://app?vid=aa1ea814-effc-4a82-a7ce-fc6b0be25510"},"vehicle_type_id":"4","last_reported":1773605763,"current_range_meters":35200,"station_id":"","pricing_plan_id":"cebpf4jnsgd1na2vs0mg"},{"bike_id":"52e7db0c-350f-482f-b340-fbb82d9af1d8","system_id":"levelo_inurba_marseille","lat":43.26524,"lon":5.39028,"is_reserved":false,"is_disabled":false,"rental_uris":{"android":"levelo://app?vid=52e7db0c-350f-482f-b340-fbb82d9af1d8","ios":"levelo://app?vid=52e7db0c-350f-482f-b340-fbb82d9af1d8"},"vehicle_type_id":"4","last_reported":1773605763,"current_range_meters":16400,"station_id":"ce4bhe12rcd13ifvqf30","pricing_plan_id":"cebpf4jnsgd1na2vs0mg"},{"bike_id":"2a4f8eda-7d12-44c5-ad20-8a189bd76664","system_id":"levelo_inurba_marseille","lat":43.3024,"lon":5.40056,"is_reserved":false,"is_disabled":true,"rental_uris":{"android":"levelo://app?vid=2a4f8eda-7d12-44c5-ad20-8a189bd76664","ios":"levelo://app?vid=2a4f8eda-7d12-44c5-ad20-8a189bd76664"},"vehicle_type_id":"4","last_reported":1773605763,"current_range_meters":14400,"station_id":"ce4bgvh2rcd13ifvqcs0","pricing_plan_id":"cebpf4jnsgd1na2vs0mg"},{"bike_id":"adb3e066-3d52-48f2-aa5f-de1d01f85bb9","system_id":"levelo_inurba_marseille","lat":43.30135,"lon":5.37422,"is_reserved":false,"is_disabled":false,"rental_uris":{"android":"levelo://app?vid=adb3e066-3d52-48f2-aa5f-de1d01f85bb9","ios":"levelo://app?vid=adb3e066-3d52-48f2-aa5f-de1d01f85bb9"},"vehicle_type_id":"4","last_reported":1773605763,"current_range_meters":15200,"station_id":"ce4bgs92rcd13ifvqcc0","pricing_plan_id":"cebpf4jnsgd1na2vs0mg"},{"bike_id":"1ecfc0d1-b96c-40be-af91-f18edf7aecef","system_id":"levelo_inurba_marseille","lat":43.29752,"lon":5.37687,"is_reserved":false,"is_disabled":false,"rental_uris":{"android":"levelo://app?vid=1ecfc0d1-b96c-40be-af91-f18edf7aecef","ios":"levelo://app?vid=1ecfc0d1-b96c-40be-af91-f18edf7aecef"},"vehicle_type_id":"4","last_reported":1773605763,"current_range_meters":36400,"station_id":"","pricing_plan_id":"cebpf4jnsgd1na2vs0mg"},{"bike_id":"df5bb365-9582-4f6c-9fdf-6f2e80ba9689","system_id":"levelo_inurba_marseille","lat":43.30647,"lon":5.401,"is_reserved":false,"is_disabled":false,"rental_uris":{"android":"levelo://app?vid=df5bb365-9582-4f6c-9fdf-6f2e80ba9689","ios":"levelo://app?vid=df5bb365-9582-4f6c-9fdf-6f2e80ba9689"},"vehicle_type_id":"4","last_reported":1773605763,"current_range_meters":11200,"station_id":"ce4bh112rcd13ifvqda0","pricing_plan_id":"cebpf4jnsgd1na2vs0mg"},{"bike_id":"a2330dbf-c3a2-4724-96f4-5d6cfb20b0b7","system_id":"levelo_inurba_marseille","lat":43.29565,"lon":5.42219,"is_reserved":false,"is_disabled":false,"rental_uris":{"android":"levelo://app?vid=a2330dbf-c3a2-4724-96f4-5d6cfb20b0b7","ios":"levelo://app?vid=a2330dbf-c3a2-4724-96f4-5d6cfb20b0b7"},"vehicle_type_id":"4","last_reported":1773605763,"current_range_meters":33600,"station_id":"ce4bhph2rcd13ifvqhdg","pricing_plan_id":"cebpf4jnsgd1na2vs0mg"},{"bike_id":"833ead7f-2cc1-415f-b495-f484e1825ff8","system_id":"levelo_inurba_marseille","lat":43.30729,"lon":5.42462,"is_reserved":false,"is_disabled":false,"rental_uris":{"android":"levelo://app?vid=833ead7f-2cc1-415f-b495-f484e1825ff8","ios":"levelo://app?vid=833ead7f-2cc1-415f-b495-f484e1825ff8"},"vehicle_type_id":"4","last_reported":1773605763,"current_range_meters":36000,"station_id":"st_cvj6ca6bvosntc0bfgr0","pricing_plan_id":"cebpf4jnsgd1na2vs0mg"},{"bike_id":"eb2f308c-8a12-4604-91b5-c6e7beca1962","system_id":"levelo_inurba_marseille","lat":43.25589,"lon":5.3826,"is_reserved":false,"is_disabled":false,"rental_uris":{"android":"levelo://app?vid=eb2f308c-8a12-4604-91b5-c6e7beca1962","ios":"levelo://app?vid=eb2f308c-8a12-4604-91b5-c6e7beca1962"},"vehicle_type_id":"4","last_reported":1773605763,"current_range_meters":22000,"station_id":"ce4bhih2rcd13ifvqfs0","pricing_plan_id":"cebpf4jnsgd1na2vs0mg"},{"bike_id":"ec062fde-2e15-4dbb-92cd-dbc3f4ead404","system_id":"levelo_inurba_marseille","lat":43.29116,"lon":5.43276,"is_reserved":false,"is_disabled":true,"rental_uris":{"android":"levelo://app?vid=ec062fde-2e15-4dbb-92cd-dbc3f4ead404","ios":"levelo://app?vid=ec062fde-2e15-4dbb-92cd-dbc3f4ead404"},"vehicle_type_id":"4","last_reported":1773605763,"current_range_meters":25200,"station_id":"","pricing_plan_id":"cebpf4jnsgd1na2vs0mg"},{"bike_id":"27ec4d0c-39bd-4f99-9048-845cafcd9bd1","system_id":"levelo_inurba_marseille","lat":43.30789,"lon":5.38152,"is_reserved":false,"is_disabled":false,"rental_uris":{"android":"levelo://app?vid=27ec4d0c-39bd-4f99-9048-845cafcd9bd1","ios":"levelo://app?vid=27ec4d0c-39bd-4f99-9048-845cafcd9bd1"},"vehicle_type_id":"4","last_reported":1773605763,"current_range_meters":39200,"station_id":"ce4bgt12rcd13ifvqce0","pricing_plan_id":"cebpf4jnsgd1na2vs0mg"},{"bike_id":"85f520fc-113e-4f17-b2a5-245ce16c5540","system_id":"levelo_inurba_marseille","lat":43.25337,"lon":5.42161,"is_reserved":false,"is_disabled":false,"rental_uris":{"android":"levelo://app?vid=85f520fc-113e-4f17-b2a5-245ce16c5540","ios":"levelo://app?vid=85f520fc-113e-4f17-b2a5-245ce16c5540"},"vehicle_type_id":"4","last_reported":1773605763,"current_range_meters":38400,"station_id":"st_d2m65c5bi1j21697t3ng","pricing_plan_id":"cebpf4jnsgd1na2vs0mg"},{"bike_id":"9c00d6c6-9fc4-41c3-99aa-080f67701f5f","system_id":"levelo_inurba_marseille","lat":43.27903,"lon":5.38016,"is_reserved":false,"is_disabled":false,"rental_uris":{"android":"levelo://app?vid=9c00d6c6-9fc4-41c3-99aa-080f67701f5f","ios":"levelo://app?vid=9c00d6c6-9fc4-41c3-99aa-080f67701f5f"},"vehicle_type_id":"4","last_reported":1773605763,"current_range_meters":25200,"station_id":"ce4bhf92rcd13ifvqf50","pricing_plan_id":"cebpf4jnsgd1na2vs0mg"},{"bike_id":"be4b33f3-f666-4b28-9e53-550c3c6e8b23","system_id":"levelo_inurba_marseille","lat":43.28481,"lon":5.48396,"is_reserved":false,"is_disabled":false,"rental_uris":{"android":"levelo://app?vid=be4b33f3-f666-4b28-9e53-550c3c6e8b23","ios":"levelo://app?vid=be4b33f3-f666-4b28-9e53-550c3c6e8b23"},"vehicle_type_id":"4","last_reported":1773605763,"current_range_meters":10800,"station_id":"st_d3svhcjqgbts73a3dn0g","pricing_plan_id":"cebpf4jnsgd1na2vs0mg"},{"bike_id":"6c16204e-e56c-491f-b6a1-89a823debe08","system_id":"levelo_inurba_marseille","lat":43.27665,"lon":5.38911,"is_reserved":false,"is_disabled":false,"rental_uris":{"android":"levelo://app?vid=6c16204e-e56c-491f-b6a1-89a823debe08","ios":"levelo://app?vid=6c16204e-e56c-491f-b6a1-89a823debe08"},"vehicle_type_id":"4","last_reported":1773605763,"current_range_meters":38800,"station_id":"ce4bhi12rcd13ifvqfo0","pricing_plan_id":"cebpf4jnsgd1na2vs0mg"},{"bike_id":"12f1d2b1-fb1d-483c-863b-27f8c8a4a5fe","system_id":"levelo_inurba_marseille","lat":43.26188,"lon":5.37455,"is_reserved":false,"is_disabled":false,"rental_uris":{"android":"levelo://app?vid=12f1d2b1-fb1d-483c-863b-27f8c8a4a5fe","ios":"levelo://app?vid=12f1d2b1-fb1d-483c-863b-27f8c8a4a5fe"},"vehicle_type_id":"4","last_reported":1773605763,"current_range_meters":30000,"station_id":"ce4bhgp2rcd13ifvqfc0","pricing_plan_id":"cebpf4jnsgd1na2vs0mg"},{"bike_id":"6a484aca-a49d-477e-8029-3d44800101b4","system_id":"levelo_inurba_marseille","lat":43.2922,"lon":5.36061,"is_reserved":false,"is_disabled":false,"rental_uris":{"android":"levelo://app?vid=6a484aca-a49d-477e-8029-3d44800101b4","ios":"levelo://app?vid=6a484aca-a49d-477e-8029-3d44800101b4"},"vehicle_type_id":"4","last_reported":1773605763,"current_range_meters":24000,"station_id":"ce4bhbh2rcd13ifvqeqg","pricing_plan_id":"cebpf4jnsgd1na2vs0mg"},{"bike_id":"193cbe9d-b7d2-421e-9f76-9c8c86aebb4a","system_id":"levelo_inurba_marseille","lat":43.33542,"lon":5.37453,"is_reserved":false,"is_disabled":false,"rental_uris":{"android":"levelo://app?vid=193cbe9d-b7d2-421e-9f76-9c8c86aebb4a","ios":"levelo://app?vid=193cbe9d-b7d2-421e-9f76-9c8c86aebb4a"},"vehicle_type_id":"4","last_reported":1773605763,"current_range_meters":11600,"station_id":"st_d46tts09ee8s73dlu43g","pricing_plan_id":"cebpf4jnsgd1na2vs0mg"},{"bike_id":"2eb4e2f7-b026-41fd-b14a-470029a1b823","system_id":"levelo_inurba_marseille","lat":43.28939,"lon":5.3639,"is_reserved":false,"is_disabled":false,"rental_uris":{"android":"levelo://app?vid=2eb4e2f7-b026-41fd-b14a-470029a1b823","ios":"levelo://app?vid=2eb4e2f7-b026-41fd-b14a-470029a1b823"},"vehicle_type_id":"4","last_reported":1773605763,"current_range_meters":22800,"station_id":"ce4bhc92rcd13ifvqetg","pricing_plan_id":"cebpf4jnsgd1na2vs0mg"},{"bike_id":"91de8c26-a4ae-4282-976b-d4b287103bef","system_id":"levelo_inurba_marseille","lat":43.29419,"lon":5.43311,"is_reserved":false,"is_disabled":false,"rental_uris":{"android":"levelo://app?vid=91de8c26-a4ae-4282-976b-d4b287103bef","ios":"levelo://app?vid=91de8c26-a4ae-4282-976b-d4b287103bef"},"vehicle_type_id":"4","last_reported":1773605763,"current_range_meters":9600,"station_id":"st_d3j5ugp08ojc73fj9d10","pricing_plan_id":"cebpf4jnsgd1na2vs0mg"},{"bike_id":"8bc84236-a04b-4659-82d6-41126e4720c2","system_id":"levelo_inurba_marseille","lat":43.26214,"lon":5.37928,"is_reserved":false,"is_disabled":false,"rental_uris":{"android":"levelo://app?vid=8bc84236-a04b-4659-82d6-41126e4720c2","ios":"levelo://app?vid=8bc84236-a04b-4659-82d6-41126e4720c2"},"vehicle_type_id":"4","last_reported":1773605763,"current_range_meters":31200,"station_id":"ce4bhjp2rcd13ifvqg90","pricing_plan_id":"cebpf4jnsgd1na2vs0mg"},{"bike_id":"b9622205-555a-4512-8f08-ceebf70cba43","system_id":"levelo_inurba_marseille","lat":43.31717,"lon":5.40455,"is_reserved":false,"is_disabled":false,"rental_uris":{"android":"levelo://app?vid=b9622205-555a-4512-8f08-ceebf70cba43","ios":"levelo://app?vid=b9622205-555a-4512-8f08-ceebf70cba43"},"vehicle_type_id":"4","last_reported":1773605763,"current_range_meters":28400,"station_id":"ce4bh012rcd13ifvqd00","pricing_plan_id":"cebpf4jnsgd1na2vs0mg"},{"bike_id":"641cab82-5627-4c24-a3b6-dfa17af8941b","system_id":"levelo_inurba_marseille","lat":43.24551,"lon":5.3949,"is_reserved":false,"is_disabled":false,"rental_uris":{"android":"levelo://app?vid=641cab82-5627-4c24-a3b6-dfa17af8941b","ios":"levelo://app?vid=641cab82-5627-4c24-a3b6-dfa17af8941b"},"vehicle_type_id":"4","last_reported":1773605763,"current_range_meters":22800,"station_id":"ce4bhlp2rcd13ifvqgjg","pricing_plan_id":"cebpf4jnsgd1na2vs0mg"},{"bike_id":"fd7cf758-e983-4794-bd70-b9f498bd15ff","system_id":"levelo_inurba_marseille","lat":43.30111,"lon":5.39863,"is_reserved":false,"is_disabled":true,"rental_uris":{"android":"levelo://app?vid=fd7cf758-e983-4794-bd70-b9f498bd15ff","ios":"levelo://app?vid=fd7cf758-e983-4794-bd70-b9f498bd15ff"},"vehicle_type_id":"4","last_reported":1773605763,"current_range_meters":37600,"station_id":"ce4bh0h2rcd13ifvqd40","pricing_plan_id":"cebpf4jnsgd1na2vs0mg"},{"bike_id":"a979051f-4c38-4b8e-a795-1121cdf88367","system_id":"levelo_inurba_marseille","lat":43.31088,"lon":5.42451,"is_reserved":false,"is_disabled":false,"rental_uris":{"android":"levelo://app?vid=a979051f-4c38-4b8e-a795-1121cdf88367","ios":"levelo://app?vid=a979051f-4c38-4b8e-a795-1121cdf88367"},"vehicle_type_id":"4","last_reported":1773605763,"current_range_meters":40000,"station_id":"ce4bhp92rcd13ifvqhag","pricing_plan_id":"cebpf4jnsgd1na2vs0mg"},{"bike_id":"9fc9c49f-ae17-4b94-b8aa-ffe30b7768e5","system_id":"levelo_inurba_marseille","lat":43.24806,"lon":5.3745,"is_reserved":false,"is_disabled":false,"rental_uris":{"android":"levelo://app?vid=9fc9c49f-ae17-4b94-b8aa-ffe30b7768e5","ios":"levelo://app?vid=9fc9c49f-ae17-4b94-b8aa-ffe30b7768e5"},"vehicle_type_id":"4","last_reported":1773605763,"current_range_meters":8400,"station_id":"ce4bhgh2rcd13ifvqfb0","pricing_plan_id":"cebpf4jnsgd1na2vs0mg"},{"bike_id":"e4708870-4dff-4aa8-9967-07c6721658d1","system_id":"levelo_inurba_marseille","lat":43.28531,"lon":5.44089,"is_reserved":false,"is_disabled":false,"rental_uris":{"android":"levelo://app?vid=e4708870-4dff-4aa8-9967-07c6721658d1","ios":"levelo://app?vid=e4708870-4dff-4aa8-9967-07c6721658d1"},"vehicle_type_id":"4","last_reported":1773605763,"current_range_meters":25600,"station_id":"st_d3j3df2ikq2c7380ej80","pricing_plan_id":"cebpf4jnsgd1na2vs0mg"},{"bike_id":"3d7100c2-5bd5-4a18-a534-e313e8e3db75","system_id":"levelo_inurba_marseille","lat":43.28608,"lon":5.35125,"is_reserved":false,"is_disabled":false,"rental_uris":{"android":"levelo://app?vid=3d7100c2-5bd5-4a18-a534-e313e8e3db75","ios":"levelo://app?vid=3d7100c2-5bd5-4a18-a534-e313e8e3db75"},"vehicle_type_id":"4","last_reported":1773605763,"current_range_meters":25600,"station_id":"ce4bhch2rcd13ifvqeug","pricing_plan_id":"cebpf4jnsgd1na2vs0mg"},{"bike_id":"24baf80d-27d3-4da0-8127-72f01437a9a6","system_id":"levelo_inurba_marseille","lat":43.29374,"lon":5.37825,"is_reserved":false,"is_disabled":false,"rental_uris":{"android":"levelo://app?vid=24baf80d-27d3-4da0-8127-72f01437a9a6","ios":"levelo://app?vid=24baf80d-27d3-4da0-8127-72f01437a9a6"},"vehicle_type_id":"4","last_reported":1773605763,"current_range_meters":30000,"station_id":"ce4bgjh2rcd13ifvqbf0","pricing_plan_id":"cebpf4jnsgd1na2vs0mg"},{"bike_id":"acbbef11-1175-4fc2-be23-3149665f36b3","system_id":"levelo_inurba_marseille","lat":43.30513,"lon":5.36479,"is_reserved":false,"is_disabled":true,"rental_uris":{"android":"levelo://app?vid=acbbef11-1175-4fc2-be23-3149665f36b3","ios":"levelo://app?vid=acbbef11-1175-4fc2-be23-3149665f36b3"},"vehicle_type_id":"4","last_reported":1773605763,"current_range_meters":20400,"station_id":"","pricing_plan_id":"cebpf4jnsgd1na2vs0mg"},{"bike_id":"146924aa-0df6-4383-ae0f-7b8a2ad4f685","system_id":"levelo_inurba_marseille","lat":43.21213,"lon":5.35096,"is_reserved":false,"is_disabled":false,"rental_uris":{"android":"levelo://app?vid=146924aa-0df6-4383-ae0f-7b8a2ad4f685","ios":"levelo://app?vid=146924aa-0df6-4383-ae0f-7b8a2ad4f685"},"vehicle_type_id":"4","last_reported":1773605763,"current_range_meters":14000,"station_id":"st_cvj6sg6p6f1abm77japg","pricing_plan_id":"cebpf4jnsgd1na2vs0mg"},{"bike_id":"a398e305-5bb3-4ba2-82a4-102dfa2af1e8","system_id":"levelo_inurba_marseille","lat":43.2176,"lon":5.34591,"is_reserved":false,"is_disabled":false,"rental_uris":{"android":"levelo://app?vid=a398e305-5bb3-4ba2-82a4-102dfa2af1e8","ios":"levelo://app?vid=a398e305-5bb3-4ba2-82a4-102dfa2af1e8"},"vehicle_type_id":"4","last_reported":1773605763,"current_range_meters":28000,"station_id":"st_cvj6r9ubvosntc0bgbag","pricing_plan_id":"cebpf4jnsgd1na2vs0mg"},{"bike_id":"2a9972cc-1ce4-4329-aab1-44e4bf88f58e","system_id":"levelo_inurba_marseille","lat":43.30304,"lon":5.36885,"is_reserved":false,"is_disabled":false,"rental_uris":{"android":"levelo://app?vid=2a9972cc-1ce4-4329-aab1-44e4bf88f58e","ios":"levelo://app?vid=2a9972cc-1ce4-4329-aab1-44e4bf88f58e"},"vehicle_type_id":"4","last_reported":1773605763,"current_range_meters":35200,"station_id":"ce4bgqh2rcd13ifvqc5g","pricing_plan_id":"cebpf4jnsgd1na2vs0mg"},{"bike_id":"39511bac-a378-495c-8620-d864725c8485","system_id":"levelo_inurba_marseille","lat":43.25086,"lon":5.39509,"is_reserved":false,"is_disabled":false,"rental_uris":{"android":"levelo://app?vid=39511bac-a378-495c-8620-d864725c8485","ios":"levelo://app?vid=39511bac-a378-495c-8620-d864725c8485"},"vehicle_type_id":"4","last_reported":1773605763,"current_range_meters":39200,"station_id":"ce4bhm12rcd13ifvqgkg","pricing_plan_id":"cebpf4jnsgd1na2vs0mg"},{"bike_id":"673dd333-2d1b-407c-809d-6056f9ddaa6b","system_id":"levelo_inurba_marseille","lat":43.28273,"lon":5.35096,"is_reserved":false,"is_disabled":false,"rental_uris":{"android":"levelo://app?vid=673dd333-2d1b-407c-809d-6056f9ddaa6b","ios":"levelo://app?vid=673dd333-2d1b-407c-809d-6056f9ddaa6b"},"vehicle_type_id":"4","last_reported":1773605763,"current_range_meters":38800,"station_id":"ce4bhbp2rcd13ifvqerg","pricing_plan_id":"cebpf4jnsgd1na2vs0mg"},{"bike_id":"3a46d46a-3434-4c09-9481-ae1049d546b0","system_id":"levelo_inurba_marseille","lat":43.3143,"lon":5.37315,"is_reserved":false,"is_disabled":false,"rental_uris":{"android":"levelo://app?vid=3a46d46a-3434-4c09-9481-ae1049d546b0","ios":"levelo://app?vid=3a46d46a-3434-4c09-9481-ae1049d546b0"},"vehicle_type_id":"4","last_reported":1773605763,"current_range_meters":36800,"station_id":"","pricing_plan_id":"cebpf4jnsgd1na2vs0mg"},{"bike_id":"64069c02-c977-4af0-a752-efe4502ec874","system_id":"levelo_inurba_marseille","lat":43.2848,"lon":5.48393,"is_reserved":false,"is_disabled":false,"rental_uris":{"android":"levelo://app?vid=64069c02-c977-4af0-a752-efe4502ec874","ios":"levelo://app?vid=64069c02-c977-4af0-a752-efe4502ec874"},"vehicle_type_id":"4","last_reported":1773605763,"current_range_meters":36400,"station_id":"","pricing_plan_id":"cebpf4jnsgd1na2vs0mg"},{"bike_id":"0ff0d14d-48ca-4630-8046-3c4847dd67df","system_id":"levelo_inurba_marseille","lat":43.24995,"lon":5.3893,"is_reserved":false,"is_disabled":false,"rental_uris":{"android":"levelo://app?vid=0ff0d14d-48ca-4630-8046-3c4847dd67df","ios":"levelo://app?vid=0ff0d14d-48ca-4630-8046-3c4847dd67df"},"vehicle_type_id":"4","last_reported":1773605763,"current_range_meters":27200,"station_id":"ce4bhgp2rcd13ifvqfd0","pricing_plan_id":"cebpf4jnsgd1na2vs0mg"},{"bike_id":"0c60e9f7-419a-402d-bbe7-ab8848add394","system_id":"levelo_inurba_marseille","lat":43.31646,"lon":5.40506,"is_reserved":false,"is_disabled":false,"rental_uris":{"android":"levelo://app?vid=0c60e9f7-419a-402d-bbe7-ab8848add394","ios":"levelo://app?vid=0c60e9f7-419a-402d-bbe7-ab8848add394"},"vehicle_type_id":"4","last_reported":1773605763,"current_range_meters":28800,"station_id":"ce4bh012rcd13ifvqd00","pricing_plan_id":"cebpf4jnsgd1na2vs0mg"},{"bike_id":"03f34d7d-917c-4dbc-a948-c509cfdaf4df","system_id":"levelo_inurba_marseille","lat":43.23379,"lon":5.41245,"is_reserved":false,"is_disabled":false,"rental_uris":{"android":"levelo://app?vid=03f34d7d-917c-4dbc-a948-c509cfdaf4df","ios":"levelo://app?vid=03f34d7d-917c-4dbc-a948-c509cfdaf4df"},"vehicle_type_id":"4","last_reported":1773605763,"current_range_meters":20000,"station_id":"","pricing_plan_id":"cebpf4jnsgd1na2vs0mg"},{"bike_id":"6ba02607-5543-4986-b3cb-a1df5f02d1dd","system_id":"levelo_inurba_marseille","lat":43.31372,"lon":5.36603,"is_reserved":false,"is_disabled":false,"rental_uris":{"android":"levelo://app?vid=6ba02607-5543-4986-b3cb-a1df5f02d1dd","ios":"levelo://app?vid=6ba02607-5543-4986-b3cb-a1df5f02d1dd"},"vehicle_type_id":"4","last_reported":1773605763,"current_range_meters":37600,"station_id":"ce4bgr92rcd13ifvqc6g","pricing_plan_id":"cebpf4jnsgd1na2vs0mg"},{"bike_id":"68f8bcec-7291-4d62-b8e4-32de3382d5ae","system_id":"levelo_inurba_marseille","lat":43.30147,"lon":5.37414,"is_reserved":false,"is_disabled":false,"rental_uris":{"android":"levelo://app?vid=68f8bcec-7291-4d62-b8e4-32de3382d5ae","ios":"levelo://app?vid=68f8bcec-7291-4d62-b8e4-32de3382d5ae"},"vehicle_type_id":"4","last_reported":1773605763,"current_range_meters":8800,"station_id":"ce4bgs92rcd13ifvqcc0","pricing_plan_id":"cebpf4jnsgd1na2vs0mg"},{"bike_id":"7bf0a830-d498-457c-a030-91c3bd84fed4","system_id":"levelo_inurba_marseille","lat":43.23213,"lon":5.35592,"is_reserved":false,"is_disabled":false,"rental_uris":{"android":"levelo://app?vid=7bf0a830-d498-457c-a030-91c3bd84fed4","ios":"levelo://app?vid=7bf0a830-d498-457c-a030-91c3bd84fed4"},"vehicle_type_id":"4","last_reported":1773605763,"current_range_meters":30000,"station_id":"ce4bhu92rcd13ifvqi70","pricing_plan_id":"cebpf4jnsgd1na2vs0mg"},{"bike_id":"db5fc025-f609-443b-b481-2f6cefb137d4","system_id":"levelo_inurba_marseille","lat":43.2848,"lon":5.48391,"is_reserved":false,"is_disabled":false,"rental_uris":{"android":"levelo://app?vid=db5fc025-f609-443b-b481-2f6cefb137d4","ios":"levelo://app?vid=db5fc025-f609-443b-b481-2f6cefb137d4"},"vehicle_type_id":"4","last_reported":1773605763,"current_range_meters":27600,"station_id":"","pricing_plan_id":"cebpf4jnsgd1na2vs0mg"},{"bike_id":"3b85e9e8-4938-4ae7-a83e-c8e2526a550f","system_id":"levelo_inurba_marseille","lat":43.24182,"lon":5.36412,"is_reserved":false,"is_disabled":false,"rental_uris":{"android":"levelo://app?vid=3b85e9e8-4938-4ae7-a83e-c8e2526a550f","ios":"levelo://app?vid=3b85e9e8-4938-4ae7-a83e-c8e2526a550f"},"vehicle_type_id":"4","last_reported":1773605763,"current_range_meters":9200,"station_id":"cpo36qri1sfpv3e86is0","pricing_plan_id":"cebpf4jnsgd1na2vs0mg"},{"bike_id":"c6384ce6-6b54-4b6d-b227-3cffde6120a6","system_id":"levelo_inurba_marseille","lat":43.30926,"lon":5.40153,"is_reserved":false,"is_disabled":true,"rental_uris":{"android":"levelo://app?vid=c6384ce6-6b54-4b6d-b227-3cffde6120a6","ios":"levelo://app?vid=c6384ce6-6b54-4b6d-b227-3cffde6120a6"},"vehicle_type_id":"4","last_reported":1773605763,"current_range_meters":30000,"station_id":"ce4bgvp2rcd13ifvqct0","pricing_plan_id":"cebpf4jnsgd1na2vs0mg"},{"bike_id":"291874e8-1076-4212-bc5a-785d26390212","system_id":"levelo_inurba_marseille","lat":43.27946,"lon":5.41036,"is_reserved":false,"is_disabled":false,"rental_uris":{"android":"levelo://app?vid=291874e8-1076-4212-bc5a-785d26390212","ios":"levelo://app?vid=291874e8-1076-4212-bc5a-785d26390212"},"vehicle_type_id":"4","last_reported":1773605763,"current_range_meters":17600,"station_id":"ce4bhnp2rcd13ifvqh0g","pricing_plan_id":"cebpf4jnsgd1na2vs0mg"},{"bike_id":"3c1ed8e9-99fc-4294-894f-2389c8144b0d","system_id":"levelo_inurba_marseille","lat":43.24661,"lon":5.38181,"is_reserved":false,"is_disabled":false,"rental_uris":{"android":"levelo://app?vid=3c1ed8e9-99fc-4294-894f-2389c8144b0d","ios":"levelo://app?vid=3c1ed8e9-99fc-4294-894f-2389c8144b0d"},"vehicle_type_id":"4","last_reported":1773605763,"current_range_meters":20400,"station_id":"ce4bhih2rcd13ifvqfr0","pricing_plan_id":"cebpf4jnsgd1na2vs0mg"},{"bike_id":"e3992951-2693-423e-8845-e8948be986e5","system_id":"levelo_inurba_marseille","lat":43.32491,"lon":5.36554,"is_reserved":false,"is_disabled":false,"rental_uris":{"android":"levelo://app?vid=e3992951-2693-423e-8845-e8948be986e5","ios":"levelo://app?vid=e3992951-2693-423e-8845-e8948be986e5"},"vehicle_type_id":"4","last_reported":1773605763,"current_range_meters":39200,"station_id":"ce4bhs12rcd13ifvqhvg","pricing_plan_id":"cebpf4jnsgd1na2vs0mg"},{"bike_id":"e7ae5c95-d527-48cc-944c-1c33cfee8730","system_id":"levelo_inurba_marseille","lat":43.27065,"lon":5.42267,"is_reserved":false,"is_disabled":false,"rental_uris":{"android":"levelo://app?vid=e7ae5c95-d527-48cc-944c-1c33cfee8730","ios":"levelo://app?vid=e7ae5c95-d527-48cc-944c-1c33cfee8730"},"vehicle_type_id":"4","last_reported":1773605763,"current_range_meters":28000,"station_id":"ce4bhk92rcd13ifvqgb0","pricing_plan_id":"cebpf4jnsgd1na2vs0mg"},{"bike_id":"f257dd80-e766-437d-a2a6-656afc6644e8","system_id":"levelo_inurba_marseille","lat":43.30324,"lon":5.40444,"is_reserved":false,"is_disabled":false,"rental_uris":{"android":"levelo://app?vid=f257dd80-e766-437d-a2a6-656afc6644e8","ios":"levelo://app?vid=f257dd80-e766-437d-a2a6-656afc6644e8"},"vehicle_type_id":"4","last_reported":1773605763,"current_range_meters":39200,"station_id":"ce4bh012rcd13ifvqd10","pricing_plan_id":"cebpf4jnsgd1na2vs0mg"},{"bike_id":"de263c28-22df-409e-b364-e2f185fde54e","system_id":"levelo_inurba_marseille","lat":43.2925,"lon":5.38449,"is_reserved":false,"is_disabled":false,"rental_uris":{"android":"levelo://app?vid=de263c28-22df-409e-b364-e2f185fde54e","ios":"levelo://app?vid=de263c28-22df-409e-b364-e2f185fde54e"},"vehicle_type_id":"4","last_reported":1773605763,"current_range_meters":28800,"station_id":"ce4bh692rcd13ifvqea0","pricing_plan_id":"cebpf4jnsgd1na2vs0mg"},{"bike_id":"c0c5d9dc-928d-48b1-bc04-fe5d71707694","system_id":"levelo_inurba_marseille","lat":43.32362,"lon":5.36727,"is_reserved":false,"is_disabled":false,"rental_uris":{"android":"levelo://app?vid=c0c5d9dc-928d-48b1-bc04-fe5d71707694","ios":"levelo://app?vid=c0c5d9dc-928d-48b1-bc04-fe5d71707694"},"vehicle_type_id":"4","last_reported":1773605763,"current_range_meters":32400,"station_id":"ce4bhsh2rcd13ifvqi2g","pricing_plan_id":"cebpf4jnsgd1na2vs0mg"},{"bike_id":"22360622-7e81-4b7a-8e6d-37ee8465bcdb","system_id":"levelo_inurba_marseille","lat":43.28077,"lon":5.3966,"is_reserved":false,"is_disabled":true,"rental_uris":{"android":"levelo://app?vid=22360622-7e81-4b7a-8e6d-37ee8465bcdb","ios":"levelo://app?vid=22360622-7e81-4b7a-8e6d-37ee8465bcdb"},"vehicle_type_id":"4","last_reported":1773605763,"current_range_meters":34800,"station_id":"ce4bho12rcd13ifvqh2g","pricing_plan_id":"cebpf4jnsgd1na2vs0mg"},{"bike_id":"37d43fd8-cdec-4372-bbf9-45ba3794afe0","system_id":"levelo_inurba_marseille","lat":43.29432,"lon":5.39754,"is_reserved":false,"is_disabled":true,"rental_uris":{"android":"levelo://app?vid=37d43fd8-cdec-4372-bbf9-45ba3794afe0","ios":"levelo://app?vid=37d43fd8-cdec-4372-bbf9-45ba3794afe0"},"vehicle_type_id":"4","last_reported":1773605763,"current_range_meters":22400,"station_id":"ce4bh3h2rcd13ifvqdo0","pricing_plan_id":"cebpf4jnsgd1na2vs0mg"},{"bike_id":"475f6229-3b8f-4eab-b8fd-2fbd86f0fb75","system_id":"levelo_inurba_marseille","lat":43.24157,"lon":5.3641,"is_reserved":false,"is_disabled":false,"rental_uris":{"android":"levelo://app?vid=475f6229-3b8f-4eab-b8fd-2fbd86f0fb75","ios":"levelo://app?vid=475f6229-3b8f-4eab-b8fd-2fbd86f0fb75"},"vehicle_type_id":"4","last_reported":1773605763,"current_range_meters":34000,"station_id":"cpo36qri1sfpv3e86is0","pricing_plan_id":"cebpf4jnsgd1na2vs0mg"},{"bike_id":"aaf56433-ee77-470c-b7b6-221e680ae993","system_id":"levelo_inurba_marseille","lat":43.22571,"lon":5.41644,"is_reserved":false,"is_disabled":false,"rental_uris":{"android":"levelo://app?vid=aaf56433-ee77-470c-b7b6-221e680ae993","ios":"levelo://app?vid=aaf56433-ee77-470c-b7b6-221e680ae993"},"vehicle_type_id":"4","last_reported":1773605763,"current_range_meters":37600,"station_id":"st_d2o4gvlbi1j2169b742g","pricing_plan_id":"cebpf4jnsgd1na2vs0mg"},{"bike_id":"3ff3df78-eee4-4716-9de4-5e86fa44030b","system_id":"levelo_inurba_marseille","lat":43.30131,"lon":5.37416,"is_reserved":false,"is_disabled":false,"rental_uris":{"android":"levelo://app?vid=3ff3df78-eee4-4716-9de4-5e86fa44030b","ios":"levelo://app?vid=3ff3df78-eee4-4716-9de4-5e86fa44030b"},"vehicle_type_id":"4","last_reported":1773605763,"current_range_meters":39200,"station_id":"ce4bgs92rcd13ifvqcc0","pricing_plan_id":"cebpf4jnsgd1na2vs0mg"},{"bike_id":"fa95127e-b64f-4956-80d7-20753c90be50","system_id":"levelo_inurba_marseille","lat":43.29448,"lon":5.39751,"is_reserved":false,"is_disabled":true,"rental_uris":{"android":"levelo://app?vid=fa95127e-b64f-4956-80d7-20753c90be50","ios":"levelo://app?vid=fa95127e-b64f-4956-80d7-20753c90be50"},"vehicle_type_id":"4","last_reported":1773605763,"current_range_meters":36400,"station_id":"ce4bh3h2rcd13ifvqdo0","pricing_plan_id":"cebpf4jnsgd1na2vs0mg"},{"bike_id":"18cb493e-4646-4c2a-8148-9694f41e134b","system_id":"levelo_inurba_marseille","lat":43.28256,"lon":5.35079,"is_reserved":false,"is_disabled":false,"rental_uris":{"android":"levelo://app?vid=18cb493e-4646-4c2a-8148-9694f41e134b","ios":"levelo://app?vid=18cb493e-4646-4c2a-8148-9694f41e134b"},"vehicle_type_id":"4","last_reported":1773605763,"current_range_meters":38000,"station_id":"ce4bhbp2rcd13ifvqerg","pricing_plan_id":"cebpf4jnsgd1na2vs0mg"},{"bike_id":"eb259eb3-17cb-4932-bfd9-164bb2aaf2fe","system_id":"levelo_inurba_marseille","lat":43.23194,"lon":5.35553,"is_reserved":false,"is_disabled":false,"rental_uris":{"android":"levelo://app?vid=eb259eb3-17cb-4932-bfd9-164bb2aaf2fe","ios":"levelo://app?vid=eb259eb3-17cb-4932-bfd9-164bb2aaf2fe"},"vehicle_type_id":"4","last_reported":1773605763,"current_range_meters":36800,"station_id":"ce4bhu92rcd13ifvqi70","pricing_plan_id":"cebpf4jnsgd1na2vs0mg"},{"bike_id":"9f1129e7-2235-4faf-8100-e46743b37449","system_id":"levelo_inurba_marseille","lat":43.25727,"lon":5.41109,"is_reserved":false,"is_disabled":false,"rental_uris":{"android":"levelo://app?vid=9f1129e7-2235-4faf-8100-e46743b37449","ios":"levelo://app?vid=9f1129e7-2235-4faf-8100-e46743b37449"},"vehicle_type_id":"4","last_reported":1773605763,"current_range_meters":36800,"station_id":"ce4bhkp2rcd13ifvqgd0","pricing_plan_id":"cebpf4jnsgd1na2vs0mg"},{"bike_id":"41b16539-d93d-4e64-a8e4-b7d380ab4e3b","system_id":"levelo_inurba_marseille","lat":43.2498,"lon":5.38994,"is_reserved":false,"is_disabled":false,"rental_uris":{"android":"levelo://app?vid=41b16539-d93d-4e64-a8e4-b7d380ab4e3b","ios":"levelo://app?vid=41b16539-d93d-4e64-a8e4-b7d380ab4e3b"},"vehicle_type_id":"4","last_reported":1773605763,"current_range_meters":10000,"station_id":"","pricing_plan_id":"cebpf4jnsgd1na2vs0mg"},{"bike_id":"f99da3b0-cfd6-4344-bb1c-6c34844412c7","system_id":"levelo_inurba_marseille","lat":43.3109,"lon":5.42434,"is_reserved":false,"is_disabled":false,"rental_uris":{"android":"levelo://app?vid=f99da3b0-cfd6-4344-bb1c-6c34844412c7","ios":"levelo://app?vid=f99da3b0-cfd6-4344-bb1c-6c34844412c7"},"vehicle_type_id":"4","last_reported":1773605763,"current_range_meters":25200,"station_id":"ce4bhp92rcd13ifvqhag","pricing_plan_id":"cebpf4jnsgd1na2vs0mg"},{"bike_id":"226e61ac-0637-4869-8182-3703f231ef81","system_id":"levelo_inurba_marseille","lat":43.29628,"lon":5.37716,"is_reserved":false,"is_disabled":false,"rental_uris":{"android":"levelo://app?vid=226e61ac-0637-4869-8182-3703f231ef81","ios":"levelo://app?vid=226e61ac-0637-4869-8182-3703f231ef81"},"vehicle_type_id":"4","last_reported":1773605763,"current_range_meters":24800,"station_id":"ce4bgi92rcd13ifvqb90","pricing_plan_id":"cebpf4jnsgd1na2vs0mg"},{"bike_id":"27ac43ef-b310-4729-8ed6-886c4b81d2ae","system_id":"levelo_inurba_marseille","lat":43.23192,"lon":5.3555,"is_reserved":false,"is_disabled":false,"rental_uris":{"android":"levelo://app?vid=27ac43ef-b310-4729-8ed6-886c4b81d2ae","ios":"levelo://app?vid=27ac43ef-b310-4729-8ed6-886c4b81d2ae"},"vehicle_type_id":"4","last_reported":1773605763,"current_range_meters":19600,"station_id":"ce4bhu92rcd13ifvqi70","pricing_plan_id":"cebpf4jnsgd1na2vs0mg"},{"bike_id":"a4951a30-7084-4efc-835c-7b8db4704dd8","system_id":"levelo_inurba_marseille","lat":43.26938,"lon":5.40256,"is_reserved":false,"is_disabled":false,"rental_uris":{"android":"levelo://app?vid=a4951a30-7084-4efc-835c-7b8db4704dd8","ios":"levelo://app?vid=a4951a30-7084-4efc-835c-7b8db4704dd8"},"vehicle_type_id":"4","last_reported":1773605763,"current_range_meters":38800,"station_id":"cjm6bp8fraef2m0cb0m0","pricing_plan_id":"cebpf4jnsgd1na2vs0mg"},{"bike_id":"a79fcd2b-2ebe-4f81-a02f-4d6a67e6cab1","system_id":"levelo_inurba_marseille","lat":43.30139,"lon":5.43109,"is_reserved":false,"is_disabled":false,"rental_uris":{"android":"levelo://app?vid=a79fcd2b-2ebe-4f81-a02f-4d6a67e6cab1","ios":"levelo://app?vid=a79fcd2b-2ebe-4f81-a02f-4d6a67e6cab1"},"vehicle_type_id":"4","last_reported":1773605763,"current_range_meters":10000,"station_id":"st_d3js3co5814s73ftftug","pricing_plan_id":"cebpf4jnsgd1na2vs0mg"},{"bike_id":"68909a52-a81a-47d2-a672-452ce92b3e14","system_id":"levelo_inurba_marseille","lat":43.29787,"lon":5.37121,"is_reserved":false,"is_disabled":false,"rental_uris":{"android":"levelo://app?vid=68909a52-a81a-47d2-a672-452ce92b3e14","ios":"levelo://app?vid=68909a52-a81a-47d2-a672-452ce92b3e14"},"vehicle_type_id":"4","last_reported":1773605763,"current_range_meters":39200,"station_id":"ce4bgop2rcd13ifvqc1g","pricing_plan_id":"cebpf4jnsgd1na2vs0mg"},{"bike_id":"6e8cbc55-1efb-4ebc-b70e-2a9253dbdc8a","system_id":"levelo_inurba_marseille","lat":43.3075,"lon":5.42428,"is_reserved":false,"is_disabled":false,"rental_uris":{"android":"levelo://app?vid=6e8cbc55-1efb-4ebc-b70e-2a9253dbdc8a","ios":"levelo://app?vid=6e8cbc55-1efb-4ebc-b70e-2a9253dbdc8a"},"vehicle_type_id":"4","last_reported":1773605763,"current_range_meters":20400,"station_id":"st_cvj6ca6bvosntc0bfgr0","pricing_plan_id":"cebpf4jnsgd1na2vs0mg"},{"bike_id":"fceacbae-990b-4213-8c3b-c375f2e5e911","system_id":"levelo_inurba_marseille","lat":43.29813,"lon":5.38112,"is_reserved":false,"is_disabled":true,"rental_uris":{"android":"levelo://app?vid=fceacbae-990b-4213-8c3b-c375f2e5e911","ios":"levelo://app?vid=fceacbae-990b-4213-8c3b-c375f2e5e911"},"vehicle_type_id":"4","last_reported":1773605763,"current_range_meters":17200,"station_id":"ce4bgip2rcd13ifvqbb0","pricing_plan_id":"cebpf4jnsgd1na2vs0mg"},{"bike_id":"88cb8c7f-0ccd-4a01-91f9-3a530d0e94ef","system_id":"levelo_inurba_marseille","lat":43.28611,"lon":5.35108,"is_reserved":false,"is_disabled":false,"rental_uris":{"android":"levelo://app?vid=88cb8c7f-0ccd-4a01-91f9-3a530d0e94ef","ios":"levelo://app?vid=88cb8c7f-0ccd-4a01-91f9-3a530d0e94ef"},"vehicle_type_id":"4","last_reported":1773605763,"current_range_meters":36400,"station_id":"ce4bhch2rcd13ifvqeug","pricing_plan_id":"cebpf4jnsgd1na2vs0mg"},{"bike_id":"466d5686-152b-40db-b82b-75b5e82313ee","system_id":"levelo_inurba_marseille","lat":43.30195,"lon":5.37397,"is_reserved":false,"is_disabled":false,"rental_uris":{"android":"levelo://app?vid=466d5686-152b-40db-b82b-75b5e82313ee","ios":"levelo://app?vid=466d5686-152b-40db-b82b-75b5e82313ee"},"vehicle_type_id":"4","last_reported":1773605763,"current_range_meters":16000,"station_id":"","pricing_plan_id":"cebpf4jnsgd1na2vs0mg"},{"bike_id":"c5bffb78-664b-4d92-be59-5528982594be","system_id":"levelo_inurba_marseille","lat":43.25082,"lon":5.39517,"is_reserved":false,"is_disabled":false,"rental_uris":{"android":"levelo://app?vid=c5bffb78-664b-4d92-be59-5528982594be","ios":"levelo://app?vid=c5bffb78-664b-4d92-be59-5528982594be"},"vehicle_type_id":"4","last_reported":1773605763,"current_range_meters":20400,"station_id":"ce4bhm12rcd13ifvqgkg","pricing_plan_id":"cebpf4jnsgd1na2vs0mg"},{"bike_id":"88baf1fe-4b9b-4c52-81f7-dd067c921a9f","system_id":"levelo_inurba_marseille","lat":43.29833,"lon":5.4406,"is_reserved":false,"is_disabled":false,"rental_uris":{"android":"levelo://app?vid=88baf1fe-4b9b-4c52-81f7-dd067c921a9f","ios":"levelo://app?vid=88baf1fe-4b9b-4c52-81f7-dd067c921a9f"},"vehicle_type_id":"4","last_reported":1773605763,"current_range_meters":9600,"station_id":"st_d3jp68qikq2c7381ktn0","pricing_plan_id":"cebpf4jnsgd1na2vs0mg"},{"bike_id":"18217d73-d36b-4021-98d3-29812d614da9","system_id":"levelo_inurba_marseille","lat":43.23947,"lon":5.36698,"is_reserved":false,"is_disabled":true,"rental_uris":{"android":"levelo://app?vid=18217d73-d36b-4021-98d3-29812d614da9","ios":"levelo://app?vid=18217d73-d36b-4021-98d3-29812d614da9"},"vehicle_type_id":"4","last_reported":1773605763,"current_range_meters":38800,"station_id":"","pricing_plan_id":"cebpf4jnsgd1na2vs0mg"},{"bike_id":"b6ec6e81-232c-46cf-9e13-528e1af99472","system_id":"levelo_inurba_marseille","lat":43.299404,"lon":5.365562,"is_reserved":false,"is_disabled":false,"rental_uris":{"android":"levelo://app?vid=b6ec6e81-232c-46cf-9e13-528e1af99472","ios":"levelo://app?vid=b6ec6e81-232c-46cf-9e13-528e1af99472"},"vehicle_type_id":"4","last_reported":1773605763,"current_range_meters":39200,"station_id":"ce4bgm92rcd13ifvqbr0","pricing_plan_id":"cebpf4jnsgd1na2vs0mg"},{"bike_id":"fc2123ba-d009-4e3e-9d64-8369f2cbeba7","system_id":"levelo_inurba_marseille","lat":43.313192,"lon":5.396771,"is_reserved":false,"is_disabled":false,"rental_uris":{"android":"levelo://app?vid=fc2123ba-d009-4e3e-9d64-8369f2cbeba7","ios":"levelo://app?vid=fc2123ba-d009-4e3e-9d64-8369f2cbeba7"},"vehicle_type_id":"4","last_reported":1773605763,"current_range_meters":33200,"station_id":"ce4bgvp2rcd13ifvqcu0","pricing_plan_id":"cebpf4jnsgd1na2vs0mg"},{"bike_id":"e9f4ad97-2705-426c-ac8f-f586afa31954","system_id":"levelo_inurba_marseille","lat":43.25583,"lon":5.38233,"is_reserved":false,"is_disabled":false,"rental_uris":{"android":"levelo://app?vid=e9f4ad97-2705-426c-ac8f-f586afa31954","ios":"levelo://app?vid=e9f4ad97-2705-426c-ac8f-f586afa31954"},"vehicle_type_id":"4","last_reported":1773605763,"current_range_meters":36800,"station_id":"ce4bhih2rcd13ifvqfs0","pricing_plan_id":"cebpf4jnsgd1na2vs0mg"},{"bike_id":"534fae4e-5467-465e-9b5b-6a06a0e23f60","system_id":"levelo_inurba_marseille","lat":43.29227,"lon":5.3607,"is_reserved":false,"is_disabled":false,"rental_uris":{"android":"levelo://app?vid=534fae4e-5467-465e-9b5b-6a06a0e23f60","ios":"levelo://app?vid=534fae4e-5467-465e-9b5b-6a06a0e23f60"},"vehicle_type_id":"4","last_reported":1773605763,"current_range_meters":32800,"station_id":"ce4bhbh2rcd13ifvqeqg","pricing_plan_id":"cebpf4jnsgd1na2vs0mg"},{"bike_id":"f986342b-4108-4ed3-b188-ff46fe04b13d","system_id":"levelo_inurba_marseille","lat":43.2582,"lon":5.39421,"is_reserved":false,"is_disabled":true,"rental_uris":{"android":"levelo://app?vid=f986342b-4108-4ed3-b188-ff46fe04b13d","ios":"levelo://app?vid=f986342b-4108-4ed3-b188-ff46fe04b13d"},"vehicle_type_id":"4","last_reported":1773605763,"current_range_meters":36400,"station_id":"ce4bhip2rcd13ifvqft0","pricing_plan_id":"cebpf4jnsgd1na2vs0mg"},{"bike_id":"d008a3ca-bdab-43f7-957e-465391a2d48d","system_id":"levelo_inurba_marseille","lat":43.3171,"lon":5.42415,"is_reserved":false,"is_disabled":false,"rental_uris":{"android":"levelo://app?vid=d008a3ca-bdab-43f7-957e-465391a2d48d","ios":"levelo://app?vid=d008a3ca-bdab-43f7-957e-465391a2d48d"},"vehicle_type_id":"4","last_reported":1773605763,"current_range_meters":24400,"station_id":"ce4bhp92rcd13ifvqhbg","pricing_plan_id":"cebpf4jnsgd1na2vs0mg"},{"bike_id":"620ff2af-052e-41b1-a64f-0ec58b0cc2e0","system_id":"levelo_inurba_marseille","lat":43.3054,"lon":5.36556,"is_reserved":false,"is_disabled":false,"rental_uris":{"android":"levelo://app?vid=620ff2af-052e-41b1-a64f-0ec58b0cc2e0","ios":"levelo://app?vid=620ff2af-052e-41b1-a64f-0ec58b0cc2e0"},"vehicle_type_id":"4","last_reported":1773605763,"current_range_meters":36800,"station_id":"ce4bgs12rcd13ifvqcag","pricing_plan_id":"cebpf4jnsgd1na2vs0mg"},{"bike_id":"65807dd8-4e9a-4424-87d6-078114446bc9","system_id":"levelo_inurba_marseille","lat":43.25099,"lon":5.40317,"is_reserved":false,"is_disabled":false,"rental_uris":{"android":"levelo://app?vid=65807dd8-4e9a-4424-87d6-078114446bc9","ios":"levelo://app?vid=65807dd8-4e9a-4424-87d6-078114446bc9"},"vehicle_type_id":"4","last_reported":1773605763,"current_range_meters":39200,"station_id":"ce4bhlh2rcd13ifvqgig","pricing_plan_id":"cebpf4jnsgd1na2vs0mg"},{"bike_id":"2da74aad-d5d0-4aee-be79-0fb398f1f69b","system_id":"levelo_inurba_marseille","lat":43.29764,"lon":5.38103,"is_reserved":false,"is_disabled":true,"rental_uris":{"android":"levelo://app?vid=2da74aad-d5d0-4aee-be79-0fb398f1f69b","ios":"levelo://app?vid=2da74aad-d5d0-4aee-be79-0fb398f1f69b"},"vehicle_type_id":"4","last_reported":1773605763,"current_range_meters":18800,"station_id":"ce4bgip2rcd13ifvqbb0","pricing_plan_id":"cebpf4jnsgd1na2vs0mg"},{"bike_id":"b61fc4f0-0b5d-40e3-b924-ba214b5f1194","system_id":"levelo_inurba_marseille","lat":43.27823,"lon":5.40697,"is_reserved":false,"is_disabled":true,"rental_uris":{"android":"levelo://app?vid=b61fc4f0-0b5d-40e3-b924-ba214b5f1194","ios":"levelo://app?vid=b61fc4f0-0b5d-40e3-b924-ba214b5f1194"},"vehicle_type_id":"4","last_reported":1773605763,"current_range_meters":29600,"station_id":"ce4bhnh2rcd13ifvqgtg","pricing_plan_id":"cebpf4jnsgd1na2vs0mg"},{"bike_id":"313bfe16-7c5c-4962-a7d7-f602759b78ab","system_id":"levelo_inurba_marseille","lat":43.29581,"lon":5.39956,"is_reserved":false,"is_disabled":false,"rental_uris":{"android":"levelo://app?vid=313bfe16-7c5c-4962-a7d7-f602759b78ab","ios":"levelo://app?vid=313bfe16-7c5c-4962-a7d7-f602759b78ab"},"vehicle_type_id":"4","last_reported":1773605763,"current_range_meters":28000,"station_id":"ce4bh312rcd13ifvqdj0","pricing_plan_id":"cebpf4jnsgd1na2vs0mg"},{"bike_id":"c5e75752-a286-449d-8e67-bace779c66a2","system_id":"levelo_inurba_marseille","lat":43.23183,"lon":5.39969,"is_reserved":false,"is_disabled":false,"rental_uris":{"android":"levelo://app?vid=c5e75752-a286-449d-8e67-bace779c66a2","ios":"levelo://app?vid=c5e75752-a286-449d-8e67-bace779c66a2"},"vehicle_type_id":"4","last_reported":1773605763,"current_range_meters":32000,"station_id":"ce4bhn12rcd13ifvqgqg","pricing_plan_id":"cebpf4jnsgd1na2vs0mg"},{"bike_id":"5ac9f0dc-8c94-42f1-a0d6-ec3ff233a36a","system_id":"levelo_inurba_marseille","lat":43.27052,"lon":5.403,"is_reserved":false,"is_disabled":false,"rental_uris":{"android":"levelo://app?vid=5ac9f0dc-8c94-42f1-a0d6-ec3ff233a36a","ios":"levelo://app?vid=5ac9f0dc-8c94-42f1-a0d6-ec3ff233a36a"},"vehicle_type_id":"4","last_reported":1773605763,"current_range_meters":38800,"station_id":"ce4bhk92rcd13ifvqgc0","pricing_plan_id":"cebpf4jnsgd1na2vs0mg"},{"bike_id":"56d02fa4-96e8-4dff-884b-0dff978b7572","system_id":"levelo_inurba_marseille","lat":43.31178,"lon":5.38703,"is_reserved":false,"is_disabled":false,"rental_uris":{"android":"levelo://app?vid=56d02fa4-96e8-4dff-884b-0dff978b7572","ios":"levelo://app?vid=56d02fa4-96e8-4dff-884b-0dff978b7572"},"vehicle_type_id":"4","last_reported":1773605763,"current_range_meters":25600,"station_id":"ce4bgv12rcd13ifvqcp0","pricing_plan_id":"cebpf4jnsgd1na2vs0mg"},{"bike_id":"57bb4d9e-d4d4-4990-bab6-6d06f315dddc","system_id":"levelo_inurba_marseille","lat":43.30132,"lon":5.37435,"is_reserved":false,"is_disabled":false,"rental_uris":{"android":"levelo://app?vid=57bb4d9e-d4d4-4990-bab6-6d06f315dddc","ios":"levelo://app?vid=57bb4d9e-d4d4-4990-bab6-6d06f315dddc"},"vehicle_type_id":"4","last_reported":1773605763,"current_range_meters":33200,"station_id":"ce4bgs92rcd13ifvqcc0","pricing_plan_id":"cebpf4jnsgd1na2vs0mg"},{"bike_id":"2bab96cf-f3bd-4d1e-9a10-e0bfbf596746","system_id":"levelo_inurba_marseille","lat":43.23187,"lon":5.39981,"is_reserved":false,"is_disabled":false,"rental_uris":{"android":"levelo://app?vid=2bab96cf-f3bd-4d1e-9a10-e0bfbf596746","ios":"levelo://app?vid=2bab96cf-f3bd-4d1e-9a10-e0bfbf596746"},"vehicle_type_id":"4","last_reported":1773605763,"current_range_meters":28400,"station_id":"ce4bhn12rcd13ifvqgqg","pricing_plan_id":"cebpf4jnsgd1na2vs0mg"},{"bike_id":"ef364c26-b12f-4ac2-8385-acdb623c591d","system_id":"levelo_inurba_marseille","lat":43.22555,"lon":5.41632,"is_reserved":false,"is_disabled":false,"rental_uris":{"android":"levelo://app?vid=ef364c26-b12f-4ac2-8385-acdb623c591d","ios":"levelo://app?vid=ef364c26-b12f-4ac2-8385-acdb623c591d"},"vehicle_type_id":"4","last_reported":1773605763,"current_range_meters":9200,"station_id":"st_d2o4gvlbi1j2169b742g","pricing_plan_id":"cebpf4jnsgd1na2vs0mg"},{"bike_id":"fb0b812d-2e71-4d80-94bc-562e817288fa","system_id":"levelo_inurba_marseille","lat":43.23203,"lon":5.35559,"is_reserved":false,"is_disabled":false,"rental_uris":{"android":"levelo://app?vid=fb0b812d-2e71-4d80-94bc-562e817288fa","ios":"levelo://app?vid=fb0b812d-2e71-4d80-94bc-562e817288fa"},"vehicle_type_id":"4","last_reported":1773605763,"current_range_meters":3200,"station_id":"ce4bhu92rcd13ifvqi70","pricing_plan_id":"cebpf4jnsgd1na2vs0mg"},{"bike_id":"a89f76cd-419e-4d7f-ae28-c16c51ac0137","system_id":"levelo_inurba_marseille","lat":43.289342,"lon":5.396041,"is_reserved":false,"is_disabled":false,"rental_uris":{"android":"levelo://app?vid=a89f76cd-419e-4d7f-ae28-c16c51ac0137","ios":"levelo://app?vid=a89f76cd-419e-4d7f-ae28-c16c51ac0137"},"vehicle_type_id":"4","last_reported":1773605763,"current_range_meters":10000,"station_id":"ce4bh3h2rcd13ifvqdn0","pricing_plan_id":"cebpf4jnsgd1na2vs0mg"},{"bike_id":"a4eb7b70-3e7d-4627-9e7f-b91ca61dff8b","system_id":"levelo_inurba_marseille","lat":43.28482,"lon":5.38562,"is_reserved":false,"is_disabled":false,"rental_uris":{"android":"levelo://app?vid=a4eb7b70-3e7d-4627-9e7f-b91ca61dff8b","ios":"levelo://app?vid=a4eb7b70-3e7d-4627-9e7f-b91ca61dff8b"},"vehicle_type_id":"4","last_reported":1773605763,"current_range_meters":32400,"station_id":"ce4bh8p2rcd13ifvqeb0","pricing_plan_id":"cebpf4jnsgd1na2vs0mg"},{"bike_id":"8617b24d-bdd2-49e3-beda-5d74fc474252","system_id":"levelo_inurba_marseille","lat":43.28477,"lon":5.48401,"is_reserved":false,"is_disabled":false,"rental_uris":{"android":"levelo://app?vid=8617b24d-bdd2-49e3-beda-5d74fc474252","ios":"levelo://app?vid=8617b24d-bdd2-49e3-beda-5d74fc474252"},"vehicle_type_id":"4","last_reported":1773605763,"current_range_meters":24000,"station_id":"","pricing_plan_id":"cebpf4jnsgd1na2vs0mg"},{"bike_id":"2d6ce0f2-f4a1-46bb-94c8-ab091a0106b7","system_id":"levelo_inurba_marseille","lat":43.2635,"lon":5.41097,"is_reserved":false,"is_disabled":false,"rental_uris":{"android":"levelo://app?vid=2d6ce0f2-f4a1-46bb-94c8-ab091a0106b7","ios":"levelo://app?vid=2d6ce0f2-f4a1-46bb-94c8-ab091a0106b7"},"vehicle_type_id":"4","last_reported":1773605763,"current_range_meters":4000,"station_id":"st_d4e5ca6na9uc73bfl5fg","pricing_plan_id":"cebpf4jnsgd1na2vs0mg"},{"bike_id":"43240df1-5a28-4e78-b7f9-1f8cc59b2bb0","system_id":"levelo_inurba_marseille","lat":43.2973,"lon":5.36588,"is_reserved":false,"is_disabled":false,"rental_uris":{"android":"levelo://app?vid=43240df1-5a28-4e78-b7f9-1f8cc59b2bb0","ios":"levelo://app?vid=43240df1-5a28-4e78-b7f9-1f8cc59b2bb0"},"vehicle_type_id":"4","last_reported":1773605763,"current_range_meters":6000,"station_id":"ce4bgn12rcd13ifvqbt0","pricing_plan_id":"cebpf4jnsgd1na2vs0mg"},{"bike_id":"5513dccf-31e4-4825-b6d2-d5fbbde55b2d","system_id":"levelo_inurba_marseille","lat":43.27186,"lon":5.4099,"is_reserved":false,"is_disabled":false,"rental_uris":{"android":"levelo://app?vid=5513dccf-31e4-4825-b6d2-d5fbbde55b2d","ios":"levelo://app?vid=5513dccf-31e4-4825-b6d2-d5fbbde55b2d"},"vehicle_type_id":"4","last_reported":1773605763,"current_range_meters":30800,"station_id":"ce4bhl12rcd13ifvqgf0","pricing_plan_id":"cebpf4jnsgd1na2vs0mg"},{"bike_id":"e0f4c726-c891-4b59-a727-5f7bf2fb4325","system_id":"levelo_inurba_marseille","lat":43.28566,"lon":5.44069,"is_reserved":false,"is_disabled":false,"rental_uris":{"android":"levelo://app?vid=e0f4c726-c891-4b59-a727-5f7bf2fb4325","ios":"levelo://app?vid=e0f4c726-c891-4b59-a727-5f7bf2fb4325"},"vehicle_type_id":"4","last_reported":1773605763,"current_range_meters":35600,"station_id":"st_d3j3df2ikq2c7380ej80","pricing_plan_id":"cebpf4jnsgd1na2vs0mg"},{"bike_id":"82c0c316-3d54-4686-bc65-a1a7205fd35f","system_id":"levelo_inurba_marseille","lat":43.24663,"lon":5.38176,"is_reserved":false,"is_disabled":false,"rental_uris":{"android":"levelo://app?vid=82c0c316-3d54-4686-bc65-a1a7205fd35f","ios":"levelo://app?vid=82c0c316-3d54-4686-bc65-a1a7205fd35f"},"vehicle_type_id":"4","last_reported":1773605763,"current_range_meters":9600,"station_id":"ce4bhih2rcd13ifvqfr0","pricing_plan_id":"cebpf4jnsgd1na2vs0mg"},{"bike_id":"3d4208c2-815f-40bf-8bb0-f78b87ee07d6","system_id":"levelo_inurba_marseille","lat":43.28424,"lon":5.34989,"is_reserved":false,"is_disabled":false,"rental_uris":{"android":"levelo://app?vid=3d4208c2-815f-40bf-8bb0-f78b87ee07d6","ios":"levelo://app?vid=3d4208c2-815f-40bf-8bb0-f78b87ee07d6"},"vehicle_type_id":"4","last_reported":1773605763,"current_range_meters":38000,"station_id":"ce4bhbh2rcd13ifvqepg","pricing_plan_id":"cebpf4jnsgd1na2vs0mg"},{"bike_id":"a4bc2e63-1424-4546-bce2-2446518734a4","system_id":"levelo_inurba_marseille","lat":43.30608,"lon":5.39345,"is_reserved":false,"is_disabled":false,"rental_uris":{"android":"levelo://app?vid=a4bc2e63-1424-4546-bce2-2446518734a4","ios":"levelo://app?vid=a4bc2e63-1424-4546-bce2-2446518734a4"},"vehicle_type_id":"4","last_reported":1773605763,"current_range_meters":40000,"station_id":"ce4bh0p2rcd13ifvqd80","pricing_plan_id":"cebpf4jnsgd1na2vs0mg"},{"bike_id":"98617173-6fdc-4310-b875-4375e3808dce","system_id":"levelo_inurba_marseille","lat":43.30373,"lon":5.42492,"is_reserved":false,"is_disabled":false,"rental_uris":{"android":"levelo://app?vid=98617173-6fdc-4310-b875-4375e3808dce","ios":"levelo://app?vid=98617173-6fdc-4310-b875-4375e3808dce"},"vehicle_type_id":"4","last_reported":1773605763,"current_range_meters":28800,"station_id":"ce4bhoh2rcd13ifvqh6g","pricing_plan_id":"cebpf4jnsgd1na2vs0mg"},{"bike_id":"155725a2-4e9c-4e7c-942b-f2b8be31f206","system_id":"levelo_inurba_marseille","lat":43.21734,"lon":5.34611,"is_reserved":false,"is_disabled":false,"rental_uris":{"android":"levelo://app?vid=155725a2-4e9c-4e7c-942b-f2b8be31f206","ios":"levelo://app?vid=155725a2-4e9c-4e7c-942b-f2b8be31f206"},"vehicle_type_id":"4","last_reported":1773605763,"current_range_meters":33600,"station_id":"st_cvj6r9ubvosntc0bgbag","pricing_plan_id":"cebpf4jnsgd1na2vs0mg"},{"bike_id":"3d6d862f-f900-4f61-8b34-b732ea1cb130","system_id":"levelo_inurba_marseille","lat":43.30321,"lon":5.40428,"is_reserved":false,"is_disabled":false,"rental_uris":{"android":"levelo://app?vid=3d6d862f-f900-4f61-8b34-b732ea1cb130","ios":"levelo://app?vid=3d6d862f-f900-4f61-8b34-b732ea1cb130"},"vehicle_type_id":"4","last_reported":1773605763,"current_range_meters":34000,"station_id":"ce4bh012rcd13ifvqd10","pricing_plan_id":"cebpf4jnsgd1na2vs0mg"},{"bike_id":"56fddcda-c541-44a5-8391-f7fbf087f4ed","system_id":"levelo_inurba_marseille","lat":43.22566,"lon":5.41629,"is_reserved":false,"is_disabled":false,"rental_uris":{"android":"levelo://app?vid=56fddcda-c541-44a5-8391-f7fbf087f4ed","ios":"levelo://app?vid=56fddcda-c541-44a5-8391-f7fbf087f4ed"},"vehicle_type_id":"4","last_reported":1773605763,"current_range_meters":36000,"station_id":"st_d2o4gvlbi1j2169b742g","pricing_plan_id":"cebpf4jnsgd1na2vs0mg"},{"bike_id":"5e62ff30-da89-4bff-93fb-760715bd71df","system_id":"levelo_inurba_marseille","lat":43.30278,"lon":5.37701,"is_reserved":false,"is_disabled":false,"rental_uris":{"android":"levelo://app?vid=5e62ff30-da89-4bff-93fb-760715bd71df","ios":"levelo://app?vid=5e62ff30-da89-4bff-93fb-760715bd71df"},"vehicle_type_id":"4","last_reported":1773605763,"current_range_meters":28400,"station_id":"ce4bguh2rcd13ifvqcj0","pricing_plan_id":"cebpf4jnsgd1na2vs0mg"},{"bike_id":"7d84d8de-e109-43a4-995f-678227f9f2ff","system_id":"levelo_inurba_marseille","lat":43.27056,"lon":5.40255,"is_reserved":false,"is_disabled":false,"rental_uris":{"android":"levelo://app?vid=7d84d8de-e109-43a4-995f-678227f9f2ff","ios":"levelo://app?vid=7d84d8de-e109-43a4-995f-678227f9f2ff"},"vehicle_type_id":"4","last_reported":1773605763,"current_range_meters":38400,"station_id":"ce4bhk92rcd13ifvqgc0","pricing_plan_id":"cebpf4jnsgd1na2vs0mg"},{"bike_id":"b9a98121-0544-43f0-9523-0b773741399a","system_id":"levelo_inurba_marseille","lat":43.28848,"lon":5.35846,"is_reserved":false,"is_disabled":false,"rental_uris":{"android":"levelo://app?vid=b9a98121-0544-43f0-9523-0b773741399a","ios":"levelo://app?vid=b9a98121-0544-43f0-9523-0b773741399a"},"vehicle_type_id":"4","last_reported":1773605763,"current_range_meters":39200,"station_id":"ce4bhb12rcd13ifvqem0","pricing_plan_id":"cebpf4jnsgd1na2vs0mg"},{"bike_id":"00167bed-39c6-409d-9516-94265ed0b791","system_id":"levelo_inurba_marseille","lat":43.30084,"lon":5.39068,"is_reserved":false,"is_disabled":false,"rental_uris":{"android":"levelo://app?vid=00167bed-39c6-409d-9516-94265ed0b791","ios":"levelo://app?vid=00167bed-39c6-409d-9516-94265ed0b791"},"vehicle_type_id":"4","last_reported":1773605763,"current_range_meters":35600,"station_id":"ce4bh192rcd13ifvqdb0","pricing_plan_id":"cebpf4jnsgd1na2vs0mg"},{"bike_id":"162e4c4d-1839-4f38-862f-1e9396c5e259","system_id":"levelo_inurba_marseille","lat":43.3055,"lon":5.36712,"is_reserved":false,"is_disabled":false,"rental_uris":{"android":"levelo://app?vid=162e4c4d-1839-4f38-862f-1e9396c5e259","ios":"levelo://app?vid=162e4c4d-1839-4f38-862f-1e9396c5e259"},"vehicle_type_id":"4","last_reported":1773605763,"current_range_meters":33600,"station_id":"ce4bgrp2rcd13ifvqc9g","pricing_plan_id":"cebpf4jnsgd1na2vs0mg"},{"bike_id":"d213d92d-5289-4183-93be-f84e36b07244","system_id":"levelo_inurba_marseille","lat":43.29012,"lon":5.35623,"is_reserved":false,"is_disabled":false,"rental_uris":{"android":"levelo://app?vid=d213d92d-5289-4183-93be-f84e36b07244","ios":"levelo://app?vid=d213d92d-5289-4183-93be-f84e36b07244"},"vehicle_type_id":"4","last_reported":1773605763,"current_range_meters":23200,"station_id":"ce4bhb92rcd13ifvqen0","pricing_plan_id":"cebpf4jnsgd1na2vs0mg"},{"bike_id":"87624a35-123d-4612-b461-3664a925c595","system_id":"levelo_inurba_marseille","lat":43.31106,"lon":5.37754,"is_reserved":false,"is_disabled":false,"rental_uris":{"android":"levelo://app?vid=87624a35-123d-4612-b461-3664a925c595","ios":"levelo://app?vid=87624a35-123d-4612-b461-3664a925c595"},"vehicle_type_id":"4","last_reported":1773605763,"current_range_meters":36000,"station_id":"ce4bgt92rcd13ifvqcg0","pricing_plan_id":"cebpf4jnsgd1na2vs0mg"},{"bike_id":"f9091acf-5db4-4a20-b1ae-87d3b83f1b76","system_id":"levelo_inurba_marseille","lat":43.29665,"lon":5.39535,"is_reserved":false,"is_disabled":false,"rental_uris":{"android":"levelo://app?vid=f9091acf-5db4-4a20-b1ae-87d3b83f1b76","ios":"levelo://app?vid=f9091acf-5db4-4a20-b1ae-87d3b83f1b76"},"vehicle_type_id":"4","last_reported":1773605763,"current_range_meters":8800,"station_id":"","pricing_plan_id":"cebpf4jnsgd1na2vs0mg"},{"bike_id":"2e2cafb6-e5c3-479c-8a76-66c5dfecc926","system_id":"levelo_inurba_marseille","lat":43.26189,"lon":5.37455,"is_reserved":false,"is_disabled":true,"rental_uris":{"android":"levelo://app?vid=2e2cafb6-e5c3-479c-8a76-66c5dfecc926","ios":"levelo://app?vid=2e2cafb6-e5c3-479c-8a76-66c5dfecc926"},"vehicle_type_id":"4","last_reported":1773605763,"current_range_meters":28000,"station_id":"ce4bhgp2rcd13ifvqfc0","pricing_plan_id":"cebpf4jnsgd1na2vs0mg"},{"bike_id":"66f843e4-1744-4333-9cdc-3ca26dae893a","system_id":"levelo_inurba_marseille","lat":43.31676,"lon":5.39576,"is_reserved":false,"is_disabled":false,"rental_uris":{"android":"levelo://app?vid=66f843e4-1744-4333-9cdc-3ca26dae893a","ios":"levelo://app?vid=66f843e4-1744-4333-9cdc-3ca26dae893a"},"vehicle_type_id":"4","last_reported":1773605763,"current_range_meters":23200,"station_id":"","pricing_plan_id":"cebpf4jnsgd1na2vs0mg"},{"bike_id":"967b3ac3-efe8-46ab-bb72-26ffac146717","system_id":"levelo_inurba_marseille","lat":43.231771,"lon":5.399883,"is_reserved":false,"is_disabled":false,"rental_uris":{"android":"levelo://app?vid=967b3ac3-efe8-46ab-bb72-26ffac146717","ios":"levelo://app?vid=967b3ac3-efe8-46ab-bb72-26ffac146717"},"vehicle_type_id":"4","last_reported":1773605763,"current_range_meters":26800,"station_id":"ce4bhn12rcd13ifvqgqg","pricing_plan_id":"cebpf4jnsgd1na2vs0mg"},{"bike_id":"ad4e4093-c1e7-46d4-94c7-c4f2eb52e5de","system_id":"levelo_inurba_marseille","lat":43.29868,"lon":5.39736,"is_reserved":false,"is_disabled":false,"rental_uris":{"android":"levelo://app?vid=ad4e4093-c1e7-46d4-94c7-c4f2eb52e5de","ios":"levelo://app?vid=ad4e4093-c1e7-46d4-94c7-c4f2eb52e5de"},"vehicle_type_id":"4","last_reported":1773605763,"current_range_meters":27200,"station_id":"ce4bh0h2rcd13ifvqd50","pricing_plan_id":"cebpf4jnsgd1na2vs0mg"},{"bike_id":"242e55c9-ac4f-4aec-81c1-865b2142177b","system_id":"levelo_inurba_marseille","lat":43.2294,"lon":5.35403,"is_reserved":false,"is_disabled":false,"rental_uris":{"android":"levelo://app?vid=242e55c9-ac4f-4aec-81c1-865b2142177b","ios":"levelo://app?vid=242e55c9-ac4f-4aec-81c1-865b2142177b"},"vehicle_type_id":"4","last_reported":1773605763,"current_range_meters":7200,"station_id":"cpo3532slgdg3j2ikp40","pricing_plan_id":"cebpf4jnsgd1na2vs0mg"},{"bike_id":"ac325101-b5a7-4f5d-9bc7-aba501847b2e","system_id":"levelo_inurba_marseille","lat":43.27372,"lon":5.36253,"is_reserved":false,"is_disabled":true,"rental_uris":{"android":"levelo://app?vid=ac325101-b5a7-4f5d-9bc7-aba501847b2e","ios":"levelo://app?vid=ac325101-b5a7-4f5d-9bc7-aba501847b2e"},"vehicle_type_id":"4","last_reported":1773605763,"current_range_meters":36800,"station_id":"ce4bhbh2rcd13ifvqeo0","pricing_plan_id":"cebpf4jnsgd1na2vs0mg"},{"bike_id":"cffdf26c-1919-4029-87b5-8b45a2bc0447","system_id":"levelo_inurba_marseille","lat":43.29568,"lon":5.3675,"is_reserved":false,"is_disabled":true,"rental_uris":{"android":"levelo://app?vid=cffdf26c-1919-4029-87b5-8b45a2bc0447","ios":"levelo://app?vid=cffdf26c-1919-4029-87b5-8b45a2bc0447"},"vehicle_type_id":"4","last_reported":1773605763,"current_range_meters":37600,"station_id":"ce4bgph2rcd13ifvqc2g","pricing_plan_id":"cebpf4jnsgd1na2vs0mg"},{"bike_id":"d5a63e25-8c5a-447f-a295-18a457b77d52","system_id":"levelo_inurba_marseille","lat":43.2991,"lon":5.38077,"is_reserved":false,"is_disabled":false,"rental_uris":{"android":"levelo://app?vid=d5a63e25-8c5a-447f-a295-18a457b77d52","ios":"levelo://app?vid=d5a63e25-8c5a-447f-a295-18a457b77d52"},"vehicle_type_id":"4","last_reported":1773605763,"current_range_meters":32000,"station_id":"","pricing_plan_id":"cebpf4jnsgd1na2vs0mg"},{"bike_id":"a4c3098a-b5b8-4a55-bbaa-5e988921d269","system_id":"levelo_inurba_marseille","lat":43.26571,"lon":5.39049,"is_reserved":false,"is_disabled":false,"rental_uris":{"android":"levelo://app?vid=a4c3098a-b5b8-4a55-bbaa-5e988921d269","ios":"levelo://app?vid=a4c3098a-b5b8-4a55-bbaa-5e988921d269"},"vehicle_type_id":"4","last_reported":1773605763,"current_range_meters":20400,"station_id":"ce4bhe12rcd13ifvqf30","pricing_plan_id":"cebpf4jnsgd1na2vs0mg"},{"bike_id":"5ad76827-dbcd-4895-afdb-3b15273992bb","system_id":"levelo_inurba_marseille","lat":43.28723,"lon":5.39979,"is_reserved":false,"is_disabled":true,"rental_uris":{"android":"levelo://app?vid=5ad76827-dbcd-4895-afdb-3b15273992bb","ios":"levelo://app?vid=5ad76827-dbcd-4895-afdb-3b15273992bb"},"vehicle_type_id":"4","last_reported":1773605763,"current_range_meters":30800,"station_id":"ce4bho92rcd13ifvqh3g","pricing_plan_id":"cebpf4jnsgd1na2vs0mg"},{"bike_id":"971f58a1-a8b1-439c-9f6a-5203e2975904","system_id":"levelo_inurba_marseille","lat":43.2952,"lon":5.38571,"is_reserved":false,"is_disabled":true,"rental_uris":{"android":"levelo://app?vid=971f58a1-a8b1-439c-9f6a-5203e2975904","ios":"levelo://app?vid=971f58a1-a8b1-439c-9f6a-5203e2975904"},"vehicle_type_id":"4","last_reported":1773605763,"current_range_meters":27200,"station_id":"ce4bgih2rcd13ifvqba0","pricing_plan_id":"cebpf4jnsgd1na2vs0mg"},{"bike_id":"c94288f2-a497-4ad8-8895-742d04d19603","system_id":"levelo_inurba_marseille","lat":43.29191,"lon":5.35792,"is_reserved":false,"is_disabled":false,"rental_uris":{"android":"levelo://app?vid=c94288f2-a497-4ad8-8895-742d04d19603","ios":"levelo://app?vid=c94288f2-a497-4ad8-8895-742d04d19603"},"vehicle_type_id":"4","last_reported":1773605763,"current_range_meters":27600,"station_id":"ce4bhb12rcd13ifvqel0","pricing_plan_id":"cebpf4jnsgd1na2vs0mg"},{"bike_id":"35421bfe-0191-432b-8ecb-842605e3be68","system_id":"levelo_inurba_marseille","lat":43.26573,"lon":5.39011,"is_reserved":false,"is_disabled":false,"rental_uris":{"android":"levelo://app?vid=35421bfe-0191-432b-8ecb-842605e3be68","ios":"levelo://app?vid=35421bfe-0191-432b-8ecb-842605e3be68"},"vehicle_type_id":"4","last_reported":1773605763,"current_range_meters":38800,"station_id":"ce4bhe12rcd13ifvqf30","pricing_plan_id":"cebpf4jnsgd1na2vs0mg"},{"bike_id":"13b759af-9f39-4385-b233-8157f102d0b7","system_id":"levelo_inurba_marseille","lat":43.23945,"lon":5.3667,"is_reserved":false,"is_disabled":false,"rental_uris":{"android":"levelo://app?vid=13b759af-9f39-4385-b233-8157f102d0b7","ios":"levelo://app?vid=13b759af-9f39-4385-b233-8157f102d0b7"},"vehicle_type_id":"4","last_reported":1773605763,"current_range_meters":38400,"station_id":"ce4bhi12rcd13ifvqfp0","pricing_plan_id":"cebpf4jnsgd1na2vs0mg"},{"bike_id":"af63abbd-18da-43af-aad8-a6b71c750205","system_id":"levelo_inurba_marseille","lat":43.314412,"lon":5.373352,"is_reserved":false,"is_disabled":false,"rental_uris":{"android":"levelo://app?vid=af63abbd-18da-43af-aad8-a6b71c750205","ios":"levelo://app?vid=af63abbd-18da-43af-aad8-a6b71c750205"},"vehicle_type_id":"4","last_reported":1773605763,"current_range_meters":32400,"station_id":"ce4bgt12rcd13ifvqcd0","pricing_plan_id":"cebpf4jnsgd1na2vs0mg"},{"bike_id":"01f10342-9976-4e28-9719-3ad2a077affc","system_id":"levelo_inurba_marseille","lat":43.29538,"lon":5.38544,"is_reserved":false,"is_disabled":false,"rental_uris":{"android":"levelo://app?vid=01f10342-9976-4e28-9719-3ad2a077affc","ios":"levelo://app?vid=01f10342-9976-4e28-9719-3ad2a077affc"},"vehicle_type_id":"4","last_reported":1773605763,"current_range_meters":25200,"station_id":"ce4bgih2rcd13ifvqba0","pricing_plan_id":"cebpf4jnsgd1na2vs0mg"},{"bike_id":"81b4eccb-b711-4b1e-b2aa-2c8d66eb49bf","system_id":"levelo_inurba_marseille","lat":43.29526,"lon":5.39398,"is_reserved":false,"is_disabled":false,"rental_uris":{"android":"levelo://app?vid=81b4eccb-b711-4b1e-b2aa-2c8d66eb49bf","ios":"levelo://app?vid=81b4eccb-b711-4b1e-b2aa-2c8d66eb49bf"},"vehicle_type_id":"4","last_reported":1773605763,"current_range_meters":32800,"station_id":"ce4bh292rcd13ifvqdf0","pricing_plan_id":"cebpf4jnsgd1na2vs0mg"},{"bike_id":"93c8107a-44d9-4b92-a485-08cbd24bb80c","system_id":"levelo_inurba_marseille","lat":43.28632,"lon":5.35137,"is_reserved":false,"is_disabled":false,"rental_uris":{"android":"levelo://app?vid=93c8107a-44d9-4b92-a485-08cbd24bb80c","ios":"levelo://app?vid=93c8107a-44d9-4b92-a485-08cbd24bb80c"},"vehicle_type_id":"4","last_reported":1773605763,"current_range_meters":38400,"station_id":"ce4bhch2rcd13ifvqeug","pricing_plan_id":"cebpf4jnsgd1na2vs0mg"},{"bike_id":"4605d0eb-aef4-494c-b103-fe3cbd9a939f","system_id":"levelo_inurba_marseille","lat":43.26068,"lon":5.39396,"is_reserved":false,"is_disabled":false,"rental_uris":{"android":"levelo://app?vid=4605d0eb-aef4-494c-b103-fe3cbd9a939f","ios":"levelo://app?vid=4605d0eb-aef4-494c-b103-fe3cbd9a939f"},"vehicle_type_id":"4","last_reported":1773605763,"current_range_meters":14000,"station_id":"ce4bhh92rcd13ifvqfj0","pricing_plan_id":"cebpf4jnsgd1na2vs0mg"},{"bike_id":"505ba4fb-8eb2-40be-85c9-9860da4ba8de","system_id":"levelo_inurba_marseille","lat":43.25583,"lon":5.38225,"is_reserved":false,"is_disabled":false,"rental_uris":{"android":"levelo://app?vid=505ba4fb-8eb2-40be-85c9-9860da4ba8de","ios":"levelo://app?vid=505ba4fb-8eb2-40be-85c9-9860da4ba8de"},"vehicle_type_id":"4","last_reported":1773605763,"current_range_meters":39200,"station_id":"ce4bhih2rcd13ifvqfs0","pricing_plan_id":"cebpf4jnsgd1na2vs0mg"},{"bike_id":"e2ff8fbe-6ee0-4693-94cc-f4a9ec9cf6bf","system_id":"levelo_inurba_marseille","lat":43.31269,"lon":5.40188,"is_reserved":false,"is_disabled":true,"rental_uris":{"android":"levelo://app?vid=e2ff8fbe-6ee0-4693-94cc-f4a9ec9cf6bf","ios":"levelo://app?vid=e2ff8fbe-6ee0-4693-94cc-f4a9ec9cf6bf"},"vehicle_type_id":"4","last_reported":1773605763,"current_range_meters":8400,"station_id":"ce4bh092rcd13ifvqd30","pricing_plan_id":"cebpf4jnsgd1na2vs0mg"},{"bike_id":"a4e1eda7-e339-4e89-aeab-5ba3de0c460b","system_id":"levelo_inurba_marseille","lat":43.28352,"lon":5.38112,"is_reserved":false,"is_disabled":true,"rental_uris":{"android":"levelo://app?vid=a4e1eda7-e339-4e89-aeab-5ba3de0c460b","ios":"levelo://app?vid=a4e1eda7-e339-4e89-aeab-5ba3de0c460b"},"vehicle_type_id":"4","last_reported":1773605763,"current_range_meters":30400,"station_id":"ce4bh412rcd13ifvqdr0","pricing_plan_id":"cebpf4jnsgd1na2vs0mg"},{"bike_id":"36d46123-1b41-417b-9791-17a81620f364","system_id":"levelo_inurba_marseille","lat":43.32378,"lon":5.36694,"is_reserved":false,"is_disabled":false,"rental_uris":{"android":"levelo://app?vid=36d46123-1b41-417b-9791-17a81620f364","ios":"levelo://app?vid=36d46123-1b41-417b-9791-17a81620f364"},"vehicle_type_id":"4","last_reported":1773605763,"current_range_meters":38000,"station_id":"ce4bhsh2rcd13ifvqi2g","pricing_plan_id":"cebpf4jnsgd1na2vs0mg"},{"bike_id":"1419a7a9-1389-49a8-87ca-4326bc806043","system_id":"levelo_inurba_marseille","lat":43.27818,"lon":5.40699,"is_reserved":false,"is_disabled":false,"rental_uris":{"android":"levelo://app?vid=1419a7a9-1389-49a8-87ca-4326bc806043","ios":"levelo://app?vid=1419a7a9-1389-49a8-87ca-4326bc806043"},"vehicle_type_id":"4","last_reported":1773605763,"current_range_meters":39200,"station_id":"ce4bhnh2rcd13ifvqgtg","pricing_plan_id":"cebpf4jnsgd1na2vs0mg"},{"bike_id":"176e891c-d922-4cb1-8d68-5d499dc5afe5","system_id":"levelo_inurba_marseille","lat":43.3042,"lon":5.39754,"is_reserved":false,"is_disabled":false,"rental_uris":{"android":"levelo://app?vid=176e891c-d922-4cb1-8d68-5d499dc5afe5","ios":"levelo://app?vid=176e891c-d922-4cb1-8d68-5d499dc5afe5"},"vehicle_type_id":"4","last_reported":1773605763,"current_range_meters":37600,"station_id":"ce4bh092rcd13ifvqd20","pricing_plan_id":"cebpf4jnsgd1na2vs0mg"},