{"last_updated":1743523886,"ttl":60,"version":"2.2","data":{"bikes":[{"bike_id":"ff01fb96-8972-4174-a8c0-84801fa0f119","system_id":"levelo_inurba_marseille","lat":43.27375,"lon":5.36265,"is_reserved":false,"is_disabled":false,"rental_uris":{"android":"levelo://app?vid=ff01fb96-8972-4174-a8c0-84801fa0f119","ios":"levelo://app?vid=ff01fb96-8972-4174-a8c0-84801fa0f119"},"vehicle_type_id":"4","last_reported":1743523887,"current_range_meters":2800,"station_id":"ce4bhbh2rcd13ifvqeo0","pricing_plan_id":"cebpf4jnsgd1na2vs0mg"},{"bike_id":"e96d4c22-dbb0-4e17-a460-e6a292888356","system_id":"levelo_inurba_marseille","lat":43.231825,"lon":5.399914,"is_reserved":false,"is_disabled":false,"rental_uris":{"android":"levelo://app?vid=e96d4c22-dbb0-4e17-a460-e6a292888356","ios":"levelo://app?vid=e96d4c22-dbb0-4e17-a460-e6a292888356"},"vehicle_type_id":"4","last_reported":1743523887,"current_range_meters":0,"station_id":"ce4bhn12rcd13ifvqgqg","pricing_plan_id":"cebpf4jnsgd1na2vs0mg"},{"bike_id":"4644cefd-c3fa-441e-9df3-f30d29e70c6a","system_id":"levelo_inurba_marseille","lat":43.30124,"lon":5.37393,"is_reserved":false,"is_disabled":false,"rental_uris":{"android":"levelo://app?vid=4644cefd-c3fa-441e-9df3-f30d29e70c6a","ios":"levelo://app?vid=4644cefd-c3fa-441e-9df3-f30d29e70c6a"},"vehicle_type_id":"4","last_reported":1743523887,"current_range_meters":2800,"station_id":"ce4bgs92rcd13ifvqcc0","pricing_plan_id":"cebpf4jnsgd1na2vs0mg"},{"bike_id":"330b5351-6d84-4604-bcc1-e04d25148677","system_id":"levelo_inurba_marseille","lat":43.296172,"lon":5.365177,"is_reserved":false,"is_disabled":false,"rental_uris":{"android":"levelo://app?vid=330b5351-6d84-4604-bcc1-e04d25148677","ios":"levelo://app?vid=330b5351-6d84-4604-bcc1-e04d25148677"},"vehicle_type_id":"4","last_reported":1743523887,"current_range_meters":2800,"station_id":"","pricing_plan_id":"cebpf4jnsgd1na2vs0mg"},{"bike_id":"0b78d579-8788-41e4-89a2-a8feb76f1c5d","system_id":"levelo_inurba_marseille","lat":43.26562,"lon":5.37285,"is_reserved":false,"is_disabled":false,"rental_uris":{"android":"levelo://app?vid=0b78d579-8788-41e4-89a2-a8feb76f1c5d","ios":"levelo://app?vid=0b78d579-8788-41e4-89a2-a8feb76f1c5d"},"vehicle_type_id":"4","last_reported":1743523887,"current_range_meters":3200,"station_id":"ce4bhg12rcd13ifvqf70","pricing_plan_id":"cebpf4jnsgd1na2vs0mg"},{"bike_id":"7f0bab17-e55f-460b-8bb8-16112257b54b","system_id":"levelo_inurba_marseille","lat":43.2997,"lon":5.37167,"is_reserved":false,"is_disabled":false,"rental_uris":{"android":"levelo://app?vid=7f0bab17-e55f-460b-8bb8-16112257b54b","ios":"levelo://app?vid=7f0bab17-e55f-460b-8bb8-16112257b54b"},"vehicle_type_id":"4","last_reported":1743523887,"current_range_meters":3200,"station_id":"ce4bgr92rcd13ifvqc7g","pricing_plan_id":"cebpf4jnsgd1na2vs0mg"},{"bike_id":"238fa162-f17e-401c-b360-ecc62a759afb","system_id":"levelo_inurba_marseille","lat":43.292,"lon":5.35829,"is_reserved":false,"is_disabled":false,"rental_uris":{"android":"levelo://app?vid=238fa162-f17e-401c-b360-ecc62a759afb","ios":"levelo://app?vid=238fa162-f17e-401c-b360-ecc62a759afb"},"vehicle_type_id":"4","last_reported":1743523887,"current_range_meters":3200,"station_id":"ce4bhb12rcd13ifvqel0","pricing_plan_id":"cebpf4jnsgd1na2vs0mg"},{"bike_id":"11af3c4e-7f28-4fbe-8bb0-f5973ebd03e8","system_id":"levelo_inurba_marseille","lat":43.29735,"lon":5.36616,"is_reserved":false,"is_disabled":false,"rental_uris":{"android":"levelo://app?vid=11af3c4e-7f28-4fbe-8bb0-f5973ebd03e8","ios":"levelo://app?vid=11af3c4e-7f28-4fbe-8bb0-f5973ebd03e8"},"vehicle_type_id":"4","last_reported":1743523887,"current_range_meters":3200,"station_id":"ce4bgn12rcd13ifvqbt0","pricing_plan_id":"cebpf4jnsgd1na2vs0mg"},{"bike_id":"6a42d0a1-74a6-4df0-95f9-5dbc273d3c16","system_id":"levelo_inurba_marseille","lat":43.28723,"lon":5.37934,"is_reserved":false,"is_disabled":false,"rental_uris":{"android":"levelo://app?vid=6a42d0a1-74a6-4df0-95f9-5dbc273d3c16","ios":"levelo://app?vid=6a42d0a1-74a6-4df0-95f9-5dbc273d3c16"},"vehicle_type_id":"4","last_reported":1743523887,"current_range_meters":3600,"station_id":"ce4bh9p2rcd13ifvqec0","pricing_plan_id":"cebpf4jnsgd1na2vs0mg"},{"bike_id":"b050f117-8c41-48bd-b26d-397cadc4d8b2","system_id":"levelo_inurba_marseille","lat":43.274257,"lon":5.394175,"is_reserved":false,"is_disabled":false,"rental_uris":{"android":"levelo://app?vid=b050f117-8c41-48bd-b26d-397cadc4d8b2","ios":"levelo://app?vid=b050f117-8c41-48bd-b26d-397cadc4d8b2"},"vehicle_type_id":"4","last_reported":1743523887,"current_range_meters":3600,"station_id":"ce4bhdp2rcd13ifvqf20","pricing_plan_id":"cebpf4jnsgd1na2vs0mg"},{"bike_id":"0e0c7240-af8d-42cb-8489-9077132234b0","system_id":"levelo_inurba_marseille","lat":43.303796,"lon":5.424849,"is_reserved":false,"is_disabled":false,"rental_uris":{"android":"levelo://app?vid=0e0c7240-af8d-42cb-8489-9077132234b0","ios":"levelo://app?vid=0e0c7240-af8d-42cb-8489-9077132234b0"},"vehicle_type_id":"4","last_reported":1743523887,"current_range_meters":3600,"station_id":"ce4bhoh2rcd13ifvqh6g","pricing_plan_id":"cebpf4jnsgd1na2vs0mg"},{"bike_id":"c6366b3a-51f3-456a-b2df-2a5d5fe0eeaf","system_id":"levelo_inurba_marseille","lat":43.2993,"lon":5.37472,"is_reserved":false,"is_disabled":false,"rental_uris":{"android":"levelo://app?vid=c6366b3a-51f3-456a-b2df-2a5d5fe0eeaf","ios":"levelo://app?vid=c6366b3a-51f3-456a-b2df-2a5d5fe0eeaf"},"vehicle_type_id":"4","last_reported":1743523887,"current_range_meters":3600,"station_id":"ce4bgjh2rcd13ifvqbg0","pricing_plan_id":"cebpf4jnsgd1na2vs0mg"},{"bike_id":"095c7374-fcbb-4ba0-aecf-e1be0ec80d78","system_id":"levelo_inurba_marseille","lat":43.250034,"lon":5.3893,"is_reserved":false,"is_disabled":false,"rental_uris":{"android":"levelo://app?vid=095c7374-fcbb-4ba0-aecf-e1be0ec80d78","ios":"levelo://app?vid=095c7374-fcbb-4ba0-aecf-e1be0ec80d78"},"vehicle_type_id":"4","last_reported":1743523887,"current_range_meters":4000,"station_id":"ce4bhgp2rcd13ifvqfd0","pricing_plan_id":"cebpf4jnsgd1na2vs0mg"},{"bike_id":"6d2ee296-fb02-427b-a018-386c7ad6095e","system_id":"levelo_inurba_marseille","lat":43.2953,"lon":5.39045,"is_reserved":false,"is_disabled":false,"rental_uris":{"android":"levelo://app?vid=6d2ee296-fb02-427b-a018-386c7ad6095e","ios":"levelo://app?vid=6d2ee296-fb02-427b-a018-386c7ad6095e"},"vehicle_type_id":"4","last_reported":1743523887,"current_range_meters":4000,"station_id":"ce4bh3p2rcd13ifvqdp0","pricing_plan_id":"cebpf4jnsgd1na2vs0mg"},{"bike_id":"6cfdb3b7-0493-4f1a-b87f-da8495dfd8f6","system_id":"levelo_inurba_marseille","lat":43.29917,"lon":5.38136,"is_reserved":false,"is_disabled":false,"rental_uris":{"android":"levelo://app?vid=6cfdb3b7-0493-4f1a-b87f-da8495dfd8f6","ios":"levelo://app?vid=6cfdb3b7-0493-4f1a-b87f-da8495dfd8f6"},"vehicle_type_id":"4","last_reported":1743523887,"current_range_meters":4400,"station_id":"ce4bgj12rcd13ifvqbc0","pricing_plan_id":"cebpf4jnsgd1na2vs0mg"},{"bike_id":"4b39ecf5-38cb-408b-8823-098d0675bdef","system_id":"levelo_inurba_marseille","lat":43.2954,"lon":5.39016,"is_reserved":false,"is_disabled":false,"rental_uris":{"android":"levelo://app?vid=4b39ecf5-38cb-408b-8823-098d0675bdef","ios":"levelo://app?vid=4b39ecf5-38cb-408b-8823-098d0675bdef"},"vehicle_type_id":"4","last_reported":1743523887,"current_range_meters":4400,"station_id":"ce4bh3p2rcd13ifvqdp0","pricing_plan_id":"cebpf4jnsgd1na2vs0mg"},{"bike_id":"af3cfe8c-ba88-488e-950b-915dc1379ac0","system_id":"levelo_inurba_marseille","lat":43.27388,"lon":5.36253,"is_reserved":false,"is_disabled":false,"rental_uris":{"android":"levelo://app?vid=af3cfe8c-ba88-488e-950b-915dc1379ac0","ios":"levelo://app?vid=af3cfe8c-ba88-488e-950b-915dc1379ac0"},"vehicle_type_id":"4","last_reported":1743523887,"current_range_meters":4400,"station_id":"ce4bhbh2rcd13ifvqeo0","pricing_plan_id":"cebpf4jnsgd1na2vs0mg"},{"bike_id":"3e69fe7a-4ed8-4e40-ba81-d7b6456f37bf","system_id":"levelo_inurba_marseille","lat":43.24666,"lon":5.38162,"is_reserved":false,"is_disabled":false,"rental_uris":{"android":"levelo://app?vid=3e69fe7a-4ed8-4e40-ba81-d7b6456f37bf","ios":"levelo://app?vid=3e69fe7a-4ed8-4e40-ba81-d7b6456f37bf"},"vehicle_type_id":"4","last_reported":1743523887,"current_range_meters":4400,"station_id":"ce4bhih2rcd13ifvqfr0","pricing_plan_id":"cebpf4jnsgd1na2vs0mg"},{"bike_id":"0fda9265-b963-42aa-b583-d0ca50b14159","system_id":"levelo_inurba_marseille","lat":43.32539,"lon":5.41426,"is_reserved":false,"is_disabled":false,"rental_uris":{"android":"levelo://app?vid=0fda9265-b963-42aa-b583-d0ca50b14159","ios":"levelo://app?vid=0fda9265-b963-42aa-b583-d0ca50b14159"},"vehicle_type_id":"4","last_reported":1743523887,"current_range_meters":4000,"station_id":"ce4bhq12rcd13ifvqhhg","pricing_plan_id":"cebpf4jnsgd1na2vs0mg"},{"bike_id":"ab917714-e47d-4ed7-b902-4c1637c1701e","system_id":"levelo_inurba_marseille","lat":43.28849,"lon":5.3591,"is_reserved":false,"is_disabled":false,"rental_uris":{"android":"levelo://app?vid=ab917714-e47d-4ed7-b902-4c1637c1701e","ios":"levelo://app?vid=ab917714-e47d-4ed7-b902-4c1637c1701e"},"vehicle_type_id":"4","last_reported":1743523887,"current_range_meters":4400,"station_id":"ce4bhb12rcd13ifvqem0","pricing_plan_id":"cebpf4jnsgd1na2vs0mg"},{"bike_id":"b1ce64d3-aa39-4c99-9993-316b964b59e6","system_id":"levelo_inurba_marseille","lat":43.23189,"lon":5.39992,"is_reserved":false,"is_disabled":false,"rental_uris":{"android":"levelo://app?vid=b1ce64d3-aa39-4c99-9993-316b964b59e6","ios":"levelo://app?vid=b1ce64d3-aa39-4c99-9993-316b964b59e6"},"vehicle_type_id":"4","last_reported":1743523887,"current_range_meters":4400,"station_id":"ce4bhn12rcd13ifvqgqg","pricing_plan_id":"cebpf4jnsgd1na2vs0mg"},{"bike_id":"ed4ea787-ec90-42eb-a034-c13b26009c56","system_id":"levelo_inurba_marseille","lat":43.29413,"lon":5.38635,"is_reserved":false,"is_disabled":false,"rental_uris":{"android":"levelo://app?vid=ed4ea787-ec90-42eb-a034-c13b26009c56","ios":"levelo://app?vid=ed4ea787-ec90-42eb-a034-c13b26009c56"},"vehicle_type_id":"4","last_reported":1743523887,"current_range_meters":4400,"station_id":"ce4bh2h2rcd13ifvqdh0","pricing_plan_id":"cebpf4jnsgd1na2vs0mg"},{"bike_id":"76214319-d124-4f72-9d5f-e474c7ce99f4","system_id":"levelo_inurba_marseille","lat":43.31078,"lon":5.38355,"is_reserved":false,"is_disabled":false,"rental_uris":{"android":"levelo://app?vid=76214319-d124-4f72-9d5f-e474c7ce99f4","ios":"levelo://app?vid=76214319-d124-4f72-9d5f-e474c7ce99f4"},"vehicle_type_id":"4","last_reported":1743523887,"current_range_meters":4800,"station_id":"ce4bgvp2rcd13ifvqcu0","pricing_plan_id":"cebpf4jnsgd1na2vs0mg"},{"bike_id":"555a8d80-9b65-4666-a10c-a4535e3f897a","system_id":"levelo_inurba_marseille","lat":43.28422,"lon":5.34987,"is_reserved":false,"is_disabled":false,"rental_uris":{"android":"levelo://app?vid=555a8d80-9b65-4666-a10c-a4535e3f897a","ios":"levelo://app?vid=555a8d80-9b65-4666-a10c-a4535e3f897a"},"vehicle_type_id":"4","last_reported":1743523887,"current_range_meters":4800,"station_id":"ce4bhbh2rcd13ifvqepg","pricing_plan_id":"cebpf4jnsgd1na2vs0mg"},{"bike_id":"f50dd1be-9ee4-480d-920f-0721f0997798","system_id":"levelo_inurba_marseille","lat":43.23187,"lon":5.39968,"is_reserved":false,"is_disabled":false,"rental_uris":{"android":"levelo://app?vid=f50dd1be-9ee4-480d-920f-0721f0997798","ios":"levelo://app?vid=f50dd1be-9ee4-480d-920f-0721f0997798"},"vehicle_type_id":"4","last_reported":1743523887,"current_range_meters":4800,"station_id":"ce4bhn12rcd13ifvqgqg","pricing_plan_id":"cebpf4jnsgd1na2vs0mg"},{"bike_id":"1b167083-12b7-424b-b082-ddc2382f2cdc","system_id":"levelo_inurba_marseille","lat":43.285986,"lon":5.35095,"is_reserved":false,"is_disabled":false,"rental_uris":{"android":"levelo://app?vid=1b167083-12b7-424b-b082-ddc2382f2cdc","ios":"levelo://app?vid=1b167083-12b7-424b-b082-ddc2382f2cdc"},"vehicle_type_id":"4","last_reported":1743523887,"current_range_meters":4800,"station_id":"","pricing_plan_id":"cebpf4jnsgd1na2vs0mg"},{"bike_id":"0c40db3f-32b6-4ea9-9b45-f4c085819df2","system_id":"levelo_inurba_marseille","lat":43.28346,"lon":5.38878,"is_reserved":false,"is_disabled":false,"rental_uris":{"android":"levelo://app?vid=0c40db3f-32b6-4ea9-9b45-f4c085819df2","ios":"levelo://app?vid=0c40db3f-32b6-4ea9-9b45-f4c085819df2"},"vehicle_type_id":"4","last_reported":1743523887,"current_range_meters":5600,"station_id":"","pricing_plan_id":"cebpf4jnsgd1na2vs0mg"},{"bike_id":"791f8b6d-c7b8-43a3-af53-554de4edbd8b","system_id":"levelo_inurba_marseille","lat":43.27046,"lon":5.40023,"is_reserved":false,"is_disabled":false,"rental_uris":{"android":"levelo://app?vid=791f8b6d-c7b8-43a3-af53-554de4edbd8b","ios":"levelo://app?vid=791f8b6d-c7b8-43a3-af53-554de4edbd8b"},"vehicle_type_id":"4","last_reported":1743523887,"current_range_meters":6000,"station_id":"","pricing_plan_id":"cebpf4jnsgd1na2vs0mg"},{"bike_id":"121010d1-d0ea-475b-97a6-f9054736109c","system_id":"levelo_inurba_marseille","lat":43.23216,"lon":5.39961,"is_reserved":false,"is_disabled":false,"rental_uris":{"android":"levelo://app?vid=121010d1-d0ea-475b-97a6-f9054736109c","ios":"levelo://app?vid=121010d1-d0ea-475b-97a6-f9054736109c"},"vehicle_type_id":"4","last_reported":1743523887,"current_range_meters":6000,"station_id":"","pricing_plan_id":"cebpf4jnsgd1na2vs0mg"},{"bike_id":"f2647b8e-1f6a-40c4-9cdf-d6947ebbff6b","system_id":"levelo_inurba_marseille","lat":43.29047,"lon":5.39959,"is_reserved":false,"is_disabled":false,"rental_uris":{"android":"levelo://app?vid=f2647b8e-1f6a-40c4-9cdf-d6947ebbff6b","ios":"levelo://app?vid=f2647b8e-1f6a-40c4-9cdf-d6947ebbff6b"},"vehicle_type_id":"4","last_reported":1743523887,"current_range_meters":6000,"station_id":"ce4bh392rcd13ifvqdm0","pricing_plan_id":"cebpf4jnsgd1na2vs0mg"},{"bike_id":"efff6894-2944-4884-921d-742302a5e435","system_id":"levelo_inurba_marseille","lat":43.28112,"lon":5.3787,"is_reserved":false,"is_disabled":false,"rental_uris":{"android":"levelo://app?vid=efff6894-2944-4884-921d-742302a5e435","ios":"levelo://app?vid=efff6894-2944-4884-921d-742302a5e435"},"vehicle_type_id":"4","last_reported":1743523887,"current_range_meters":6000,"station_id":"ce4bha12rcd13ifvqee0","pricing_plan_id":"cebpf4jnsgd1na2vs0mg"},{"bike_id":"6fc20f37-f174-4122-a42c-bbe1322549eb","system_id":"levelo_inurba_marseille","lat":43.27215,"lon":5.39187,"is_reserved":false,"is_disabled":false,"rental_uris":{"android":"levelo://app?vid=6fc20f37-f174-4122-a42c-bbe1322549eb","ios":"levelo://app?vid=6fc20f37-f174-4122-a42c-bbe1322549eb"},"vehicle_type_id":"4","last_reported":1743523887,"current_range_meters":6400,"station_id":"ce4bhhp2rcd13ifvqfm0","pricing_plan_id":"cebpf4jnsgd1na2vs0mg"},{"bike_id":"4438d6dc-f517-4b79-a268-9e4f79818f0c","system_id":"levelo_inurba_marseille","lat":43.306497,"lon":5.400914,"is_reserved":false,"is_disabled":false,"rental_uris":{"android":"levelo://app?vid=4438d6dc-f517-4b79-a268-9e4f79818f0c","ios":"levelo://app?vid=4438d6dc-f517-4b79-a268-9e4f79818f0c"},"vehicle_type_id":"4","last_reported":1743523887,"current_range_meters":6000,"station_id":"ce4bh112rcd13ifvqda0","pricing_plan_id":"cebpf4jnsgd1na2vs0mg"},{"bike_id":"563b72d6-f21d-4ce3-af73-1a8af9913faf","system_id":"levelo_inurba_marseille","lat":43.231807,"lon":5.399883,"is_reserved":false,"is_disabled":false,"rental_uris":{"android":"levelo://app?vid=563b72d6-f21d-4ce3-af73-1a8af9913faf","ios":"levelo://app?vid=563b72d6-f21d-4ce3-af73-1a8af9913faf"},"vehicle_type_id":"4","last_reported":1743523887,"current_range_meters":6000,"station_id":"ce4bhn12rcd13ifvqgqg","pricing_plan_id":"cebpf4jnsgd1na2vs0mg"},{"bike_id":"4f6db61e-8293-4a0d-bb9c-f9aae02e4996","system_id":"levelo_inurba_marseille","lat":43.25091,"lon":5.39518,"is_reserved":false,"is_disabled":false,"rental_uris":{"android":"levelo://app?vid=4f6db61e-8293-4a0d-bb9c-f9aae02e4996","ios":"levelo://app?vid=4f6db61e-8293-4a0d-bb9c-f9aae02e4996"},"vehicle_type_id":"4","last_reported":1743523887,"current_range_meters":6000,"station_id":"ce4bhm12rcd13ifvqgkg","pricing_plan_id":"cebpf4jnsgd1na2vs0mg"},{"bike_id":"18be9252-d4a2-4ca2-8c81-7b6b3b8fe4bd","system_id":"levelo_inurba_marseille","lat":43.2862,"lon":5.35106,"is_reserved":false,"is_disabled":false,"rental_uris":{"android":"levelo://app?vid=18be9252-d4a2-4ca2-8c81-7b6b3b8fe4bd","ios":"levelo://app?vid=18be9252-d4a2-4ca2-8c81-7b6b3b8fe4bd"},"vehicle_type_id":"4","last_reported":1743523887,"current_range_meters":6400,"station_id":"ce4bhch2rcd13ifvqeug","pricing_plan_id":"cebpf4jnsgd1na2vs0mg"},{"bike_id":"f19b0f37-3532-4116-825a-8049c9568d9f","system_id":"levelo_inurba_marseille","lat":43.31333,"lon":5.39698,"is_reserved":false,"is_disabled":false,"rental_uris":{"android":"levelo://app?vid=f19b0f37-3532-4116-825a-8049c9568d9f","ios":"levelo://app?vid=f19b0f37-3532-4116-825a-8049c9568d9f"},"vehicle_type_id":"4","last_reported":1743523887,"current_range_meters":6400,"station_id":"ce4bgvp2rcd13ifvqcu0","pricing_plan_id":"cebpf4jnsgd1na2vs0mg"},{"bike_id":"019248e4-2737-4343-8c4e-07c46f0be0e4","system_id":"levelo_inurba_marseille","lat":43.31497,"lon":5.37306,"is_reserved":false,"is_disabled":false,"rental_uris":{"android":"levelo://app?vid=019248e4-2737-4343-8c4e-07c46f0be0e4","ios":"levelo://app?vid=019248e4-2737-4343-8c4e-07c46f0be0e4"},"vehicle_type_id":"4","last_reported":1743523887,"current_range_meters":6000,"station_id":"ce4bgt12rcd13ifvqcd0","pricing_plan_id":"cebpf4jnsgd1na2vs0mg"},{"bike_id":"83ee946d-bfe9-4d7f-a56e-d9b90e7002cc","system_id":"levelo_inurba_marseille","lat":43.28854,"lon":5.35866,"is_reserved":false,"is_disabled":false,"rental_uris":{"android":"levelo://app?vid=83ee946d-bfe9-4d7f-a56e-d9b90e7002cc","ios":"levelo://app?vid=83ee946d-bfe9-4d7f-a56e-d9b90e7002cc"},"vehicle_type_id":"4","last_reported":1743523887,"current_range_meters":6400,"station_id":"ce4bhb12rcd13ifvqem0","pricing_plan_id":"cebpf4jnsgd1na2vs0mg"},{"bike_id":"51287c29-d4dc-4d87-9c10-b00400223251","system_id":"levelo_inurba_marseille","lat":43.28041,"lon":5.3694,"is_reserved":false,"is_disabled":false,"rental_uris":{"android":"levelo://app?vid=51287c29-d4dc-4d87-9c10-b00400223251","ios":"levelo://app?vid=51287c29-d4dc-4d87-9c10-b00400223251"},"vehicle_type_id":"4","last_reported":1743523887,"current_range_meters":6800,"station_id":"ce4bha12rcd13ifvqef0","pricing_plan_id":"cebpf4jnsgd1na2vs0mg"},{"bike_id":"23a2997f-acca-44d1-a72c-cccdd94a796c","system_id":"levelo_inurba_marseille","lat":43.30977,"lon":5.40174,"is_reserved":false,"is_disabled":true,"rental_uris":{"android":"levelo://app?vid=23a2997f-acca-44d1-a72c-cccdd94a796c","ios":"levelo://app?vid=23a2997f-acca-44d1-a72c-cccdd94a796c"},"vehicle_type_id":"4","last_reported":1743523887,"current_range_meters":6800,"station_id":"","pricing_plan_id":"cebpf4jnsgd1na2vs0mg"},{"bike_id":"eebf72b5-e3ef-4e3f-8181-c82b2045fd37","system_id":"levelo_inurba_marseille","lat":43.265625,"lon":5.372885,"is_reserved":false,"is_disabled":false,"rental_uris":{"android":"levelo://app?vid=eebf72b5-e3ef-4e3f-8181-c82b2045fd37","ios":"levelo://app?vid=eebf72b5-e3ef-4e3f-8181-c82b2045fd37"},"vehicle_type_id":"4","last_reported":1743523887,"current_range_meters":6800,"station_id":"ce4bhg12rcd13ifvqf70","pricing_plan_id":"cebpf4jnsgd1na2vs0mg"},{"bike_id":"c6438c46-204d-4a79-9a65-1f7b29c6cbc4","system_id":"levelo_inurba_marseille","lat":43.28425,"lon":5.39195,"is_reserved":false,"is_disabled":true,"rental_uris":{"android":"levelo://app?vid=c6438c46-204d-4a79-9a65-1f7b29c6cbc4","ios":"levelo://app?vid=c6438c46-204d-4a79-9a65-1f7b29c6cbc4"},"vehicle_type_id":"4","last_reported":1743523887,"current_range_meters":6800,"station_id":"ce4bhoh2rcd13ifvqh5g","pricing_plan_id":"cebpf4jnsgd1na2vs0mg"},{"bike_id":"2e8d8654-23f7-434b-a09e-ae1e8d2abb71","system_id":"levelo_inurba_marseille","lat":43.251,"lon":5.39519,"is_reserved":false,"is_disabled":false,"rental_uris":{"android":"levelo://app?vid=2e8d8654-23f7-434b-a09e-ae1e8d2abb71","ios":"levelo://app?vid=2e8d8654-23f7-434b-a09e-ae1e8d2abb71"},"vehicle_type_id":"4","last_reported":1743523887,"current_range_meters":6800,"station_id":"ce4bhm12rcd13ifvqgkg","pricing_plan_id":"cebpf4jnsgd1na2vs0mg"},{"bike_id":"e0c838b6-37f5-4b4f-bb89-487a0ae7ca4a","system_id":"levelo_inurba_marseille","lat":43.30737,"lon":5.42435,"is_reserved":false,"is_disabled":false,"rental_uris":{"android":"levelo://app?vid=e0c838b6-37f5-4b4f-bb89-487a0ae7ca4a","ios":"levelo://app?vid=e0c838b6-37f5-4b4f-bb89-487a0ae7ca4a"},"vehicle_type_id":"4","last_reported":1743523887,"current_range_meters":6800,"station_id":"st_cvj6ca6bvosntc0bfgr0","pricing_plan_id":"cebpf4jnsgd1na2vs0mg"},{"bike_id":"627317a6-7c8e-4b84-9108-64b8834011ec","system_id":"levelo_inurba_marseille","lat":43.23168,"lon":5.43668,"is_reserved":false,"is_disabled":false,"rental_uris":{"android":"levelo://app?vid=627317a6-7c8e-4b84-9108-64b8834011ec","ios":"levelo://app?vid=627317a6-7c8e-4b84-9108-64b8834011ec"},"vehicle_type_id":"4","last_reported":1743523887,"current_range_meters":6800,"station_id":"ce4bhmp2rcd13ifvqgog","pricing_plan_id":"cebpf4jnsgd1na2vs0mg"},{"bike_id":"1d88f4a3-9fba-48c8-a6c8-77657445585d","system_id":"levelo_inurba_marseille","lat":43.29906,"lon":5.4365,"is_reserved":false,"is_disabled":false,"rental_uris":{"android":"levelo://app?vid=1d88f4a3-9fba-48c8-a6c8-77657445585d","ios":"levelo://app?vid=1d88f4a3-9fba-48c8-a6c8-77657445585d"},"vehicle_type_id":"4","last_reported":1743523887,"current_range_meters":6800,"station_id":"ce4bhpp2rcd13ifvqhfg","pricing_plan_id":"cebpf4jnsgd1na2vs0mg"},{"bike_id":"6443ff17-877e-46c3-9add-4854da91e9dc","system_id":"levelo_inurba_marseille","lat":43.30327,"lon":5.4043,"is_reserved":false,"is_disabled":false,"rental_uris":{"android":"levelo://app?vid=6443ff17-877e-46c3-9add-4854da91e9dc","ios":"levelo://app?vid=6443ff17-877e-46c3-9add-4854da91e9dc"},"vehicle_type_id":"4","last_reported":1743523887,"current_range_meters":6800,"station_id":"ce4bh012rcd13ifvqd10","pricing_plan_id":"cebpf4jnsgd1na2vs0mg"},{"bike_id":"fa36f309-6b39-4046-9bcf-4e553f3ec51d","system_id":"levelo_inurba_marseille","lat":43.25581,"lon":5.38239,"is_reserved":false,"is_disabled":false,"rental_uris":{"android":"levelo://app?vid=fa36f309-6b39-4046-9bcf-4e553f3ec51d","ios":"levelo://app?vid=fa36f309-6b39-4046-9bcf-4e553f3ec51d"},"vehicle_type_id":"4","last_reported":1743523887,"current_range_meters":7200,"station_id":"ce4bhih2rcd13ifvqfs0","pricing_plan_id":"cebpf4jnsgd1na2vs0mg"},{"bike_id":"6af1f1a3-83db-4014-8132-8a596ecc18cf","system_id":"levelo_inurba_marseille","lat":43.29529,"lon":5.39039,"is_reserved":false,"is_disabled":false,"rental_uris":{"android":"levelo://app?vid=6af1f1a3-83db-4014-8132-8a596ecc18cf","ios":"levelo://app?vid=6af1f1a3-83db-4014-8132-8a596ecc18cf"},"vehicle_type_id":"4","last_reported":1743523887,"current_range_meters":7200,"station_id":"ce4bh3p2rcd13ifvqdp0","pricing_plan_id":"cebpf4jnsgd1na2vs0mg"},{"bike_id":"6d51773c-f101-4b09-b507-ab028ef1af9c","system_id":"levelo_inurba_marseille","lat":43.28874,"lon":5.3588,"is_reserved":false,"is_disabled":false,"rental_uris":{"android":"levelo://app?vid=6d51773c-f101-4b09-b507-ab028ef1af9c","ios":"levelo://app?vid=6d51773c-f101-4b09-b507-ab028ef1af9c"},"vehicle_type_id":"4","last_reported":1743523887,"current_range_meters":7200,"station_id":"ce4bhb12rcd13ifvqem0","pricing_plan_id":"cebpf4jnsgd1na2vs0mg"},{"bike_id":"85a4500b-bd11-4e00-911a-71b368f68cce","system_id":"levelo_inurba_marseille","lat":43.26944,"lon":5.38915,"is_reserved":false,"is_disabled":false,"rental_uris":{"android":"levelo://app?vid=85a4500b-bd11-4e00-911a-71b368f68cce","ios":"levelo://app?vid=85a4500b-bd11-4e00-911a-71b368f68cce"},"vehicle_type_id":"4","last_reported":1743523887,"current_range_meters":7200,"station_id":"ce4bhhh2rcd13ifvqfl0","pricing_plan_id":"cebpf4jnsgd1na2vs0mg"},{"bike_id":"9493bf49-0f31-45d0-8bca-9731d482889d","system_id":"levelo_inurba_marseille","lat":43.28404,"lon":5.37523,"is_reserved":false,"is_disabled":false,"rental_uris":{"android":"levelo://app?vid=9493bf49-0f31-45d0-8bca-9731d482889d","ios":"levelo://app?vid=9493bf49-0f31-45d0-8bca-9731d482889d"},"vehicle_type_id":"4","last_reported":1743523887,"current_range_meters":6800,"station_id":"ce4bh412rcd13ifvqds0","pricing_plan_id":"cebpf4jnsgd1na2vs0mg"},{"bike_id":"c975b681-27a9-471d-bc6c-05ef789cacb3","system_id":"levelo_inurba_marseille","lat":43.306035,"lon":5.372258,"is_reserved":false,"is_disabled":false,"rental_uris":{"android":"levelo://app?vid=c975b681-27a9-471d-bc6c-05ef789cacb3","ios":"levelo://app?vid=c975b681-27a9-471d-bc6c-05ef789cacb3"},"vehicle_type_id":"4","last_reported":1743523887,"current_range_meters":8000,"station_id":"ce4bgqh2rcd13ifvqc4g","pricing_plan_id":"cebpf4jnsgd1na2vs0mg"},{"bike_id":"3d5279c8-bd1d-4653-a2cc-95d8cc98d103","system_id":"levelo_inurba_marseille","lat":43.30591,"lon":5.3652,"is_reserved":false,"is_disabled":false,"rental_uris":{"android":"levelo://app?vid=3d5279c8-bd1d-4653-a2cc-95d8cc98d103","ios":"levelo://app?vid=3d5279c8-bd1d-4653-a2cc-95d8cc98d103"},"vehicle_type_id":"4","last_reported":1743523887,"current_range_meters":8000,"station_id":"ce4bgs12rcd13ifvqcag","pricing_plan_id":"cebpf4jnsgd1na2vs0mg"},{"bike_id":"a83c5137-02f5-4482-9aa6-c4907e7a2f41","system_id":"levelo_inurba_marseille","lat":43.246629,"lon":5.381628,"is_reserved":false,"is_disabled":false,"rental_uris":{"android":"levelo://app?vid=a83c5137-02f5-4482-9aa6-c4907e7a2f41","ios":"levelo://app?vid=a83c5137-02f5-4482-9aa6-c4907e7a2f41"},"vehicle_type_id":"4","last_reported":1743523887,"current_range_meters":7200,"station_id":"ce4bhgh2rcd13ifvqfb0","pricing_plan_id":"cebpf4jnsgd1na2vs0mg"},{"bike_id":"3e5329f3-c0cd-422c-afb1-2f46242590da","system_id":"levelo_inurba_marseille","lat":43.31925,"lon":5.37583,"is_reserved":false,"is_disabled":false,"rental_uris":{"android":"levelo://app?vid=3e5329f3-c0cd-422c-afb1-2f46242590da","ios":"levelo://app?vid=3e5329f3-c0cd-422c-afb1-2f46242590da"},"vehicle_type_id":"4","last_reported":1743523887,"current_range_meters":8000,"station_id":"","pricing_plan_id":"cebpf4jnsgd1na2vs0mg"},{"bike_id":"56cb6893-a008-492f-b651-f230474dc9b0","system_id":"levelo_inurba_marseille","lat":43.25875,"lon":5.39897,"is_reserved":false,"is_disabled":false,"rental_uris":{"android":"levelo://app?vid=56cb6893-a008-492f-b651-f230474dc9b0","ios":"levelo://app?vid=56cb6893-a008-492f-b651-f230474dc9b0"},"vehicle_type_id":"4","last_reported":1743523887,"current_range_meters":8000,"station_id":"ce4bhl92rcd13ifvqghg","pricing_plan_id":"cebpf4jnsgd1na2vs0mg"},{"bike_id":"9a626882-4f58-47c5-bb00-45d8e05aed33","system_id":"levelo_inurba_marseille","lat":43.30541,"lon":5.36523,"is_reserved":false,"is_disabled":false,"rental_uris":{"android":"levelo://app?vid=9a626882-4f58-47c5-bb00-45d8e05aed33","ios":"levelo://app?vid=9a626882-4f58-47c5-bb00-45d8e05aed33"},"vehicle_type_id":"4","last_reported":1743523887,"current_range_meters":8400,"station_id":"ce4bgs12rcd13ifvqcag","pricing_plan_id":"cebpf4jnsgd1na2vs0mg"},{"bike_id":"9a8d9987-a8ad-412d-8f4d-a69badaf8bdd","system_id":"levelo_inurba_marseille","lat":43.30577,"lon":5.36539,"is_reserved":false,"is_disabled":false,"rental_uris":{"android":"levelo://app?vid=9a8d9987-a8ad-412d-8f4d-a69badaf8bdd","ios":"levelo://app?vid=9a8d9987-a8ad-412d-8f4d-a69badaf8bdd"},"vehicle_type_id":"4","last_reported":1743523887,"current_range_meters":8400,"station_id":"ce4bgs12rcd13ifvqcag","pricing_plan_id":"cebpf4jnsgd1na2vs0mg"},{"bike_id":"dcb25f41-2871-4ee9-aad5-5838e4df716a","system_id":"levelo_inurba_marseille","lat":43.24173,"lon":5.36396,"is_reserved":false,"is_disabled":false,"rental_uris":{"android":"levelo://app?vid=dcb25f41-2871-4ee9-aad5-5838e4df716a","ios":"levelo://app?vid=dcb25f41-2871-4ee9-aad5-5838e4df716a"},"vehicle_type_id":"4","last_reported":1743523887,"current_range_meters":6400,"station_id":"cpo36qri1sfpv3e86is0","pricing_plan_id":"cebpf4jnsgd1na2vs0mg"},{"bike_id":"2ce75609-c026-4945-91a4-90c5d8a4d8c7","system_id":"levelo_inurba_marseille","lat":43.26808,"lon":5.40268,"is_reserved":false,"is_disabled":false,"rental_uris":{"android":"levelo://app?vid=2ce75609-c026-4945-91a4-90c5d8a4d8c7","ios":"levelo://app?vid=2ce75609-c026-4945-91a4-90c5d8a4d8c7"},"vehicle_type_id":"4","last_reported":1743523887,"current_range_meters":8400,"station_id":"ce501612rcd8frsf0b60","pricing_plan_id":"cebpf4jnsgd1na2vs0mg"},{"bike_id":"08724991-fdd4-4564-9d6b-c761aefd13aa","system_id":"levelo_inurba_marseille","lat":43.28861,"lon":5.35874,"is_reserved":false,"is_disabled":false,"rental_uris":{"android":"levelo://app?vid=08724991-fdd4-4564-9d6b-c761aefd13aa","ios":"levelo://app?vid=08724991-fdd4-4564-9d6b-c761aefd13aa"},"vehicle_type_id":"4","last_reported":1743523887,"current_range_meters":8400,"station_id":"ce4bhb12rcd13ifvqem0","pricing_plan_id":"cebpf4jnsgd1na2vs0mg"},{"bike_id":"dadbecbd-2112-4a8f-9230-df76eb69fd1a","system_id":"levelo_inurba_marseille","lat":43.26209,"lon":5.37928,"is_reserved":false,"is_disabled":false,"rental_uris":{"android":"levelo://app?vid=dadbecbd-2112-4a8f-9230-df76eb69fd1a","ios":"levelo://app?vid=dadbecbd-2112-4a8f-9230-df76eb69fd1a"},"vehicle_type_id":"4","last_reported":1743523887,"current_range_meters":8000,"station_id":"ce4bhjp2rcd13ifvqg90","pricing_plan_id":"cebpf4jnsgd1na2vs0mg"},{"bike_id":"49a8834c-4664-4384-b097-cca5d6c6b80e","system_id":"levelo_inurba_marseille","lat":43.29892,"lon":5.38908,"is_reserved":false,"is_disabled":false,"rental_uris":{"android":"levelo://app?vid=49a8834c-4664-4384-b097-cca5d6c6b80e","ios":"levelo://app?vid=49a8834c-4664-4384-b097-cca5d6c6b80e"},"vehicle_type_id":"4","last_reported":1743523887,"current_range_meters":6000,"station_id":"ce4bh392rcd13ifvqdl0","pricing_plan_id":"cebpf4jnsgd1na2vs0mg"},{"bike_id":"11fb0821-8afa-433a-9d88-19545526da74","system_id":"levelo_inurba_marseille","lat":43.27906,"lon":5.37997,"is_reserved":false,"is_disabled":true,"rental_uris":{"android":"levelo://app?vid=11fb0821-8afa-433a-9d88-19545526da74","ios":"levelo://app?vid=11fb0821-8afa-433a-9d88-19545526da74"},"vehicle_type_id":"4","last_reported":1743523887,"current_range_meters":8400,"station_id":"ce4bhf92rcd13ifvqf50","pricing_plan_id":"cebpf4jnsgd1na2vs0mg"},{"bike_id":"17a9f521-0a6b-4bdc-b7f9-a91d95f8426b","system_id":"levelo_inurba_marseille","lat":43.29873,"lon":5.39747,"is_reserved":false,"is_disabled":false,"rental_uris":{"android":"levelo://app?vid=17a9f521-0a6b-4bdc-b7f9-a91d95f8426b","ios":"levelo://app?vid=17a9f521-0a6b-4bdc-b7f9-a91d95f8426b"},"vehicle_type_id":"4","last_reported":1743523887,"current_range_meters":8000,"station_id":"ce4bh0h2rcd13ifvqd50","pricing_plan_id":"cebpf4jnsgd1na2vs0mg"},{"bike_id":"b27b21e2-4279-4299-9cbe-3d483b033a02","system_id":"levelo_inurba_marseille","lat":43.30326,"lon":5.40431,"is_reserved":false,"is_disabled":false,"rental_uris":{"android":"levelo://app?vid=b27b21e2-4279-4299-9cbe-3d483b033a02","ios":"levelo://app?vid=b27b21e2-4279-4299-9cbe-3d483b033a02"},"vehicle_type_id":"4","last_reported":1743523887,"current_range_meters":8400,"station_id":"ce4bh012rcd13ifvqd10","pricing_plan_id":"cebpf4jnsgd1na2vs0mg"},{"bike_id":"77cbabbb-fdd3-4a53-bd78-d2b13092668a","system_id":"levelo_inurba_marseille","lat":43.30258,"lon":5.40075,"is_reserved":false,"is_disabled":false,"rental_uris":{"android":"levelo://app?vid=77cbabbb-fdd3-4a53-bd78-d2b13092668a","ios":"levelo://app?vid=77cbabbb-fdd3-4a53-bd78-d2b13092668a"},"vehicle_type_id":"4","last_reported":1743523887,"current_range_meters":8400,"station_id":"ce4bgvh2rcd13ifvqcs0","pricing_plan_id":"cebpf4jnsgd1na2vs0mg"},{"bike_id":"a98ca414-5a9d-44e4-9fe8-4c3a59245923","system_id":"levelo_inurba_marseille","lat":43.30805,"lon":5.43521,"is_reserved":false,"is_disabled":false,"rental_uris":{"android":"levelo://app?vid=a98ca414-5a9d-44e4-9fe8-4c3a59245923","ios":"levelo://app?vid=a98ca414-5a9d-44e4-9fe8-4c3a59245923"},"vehicle_type_id":"4","last_reported":1743523887,"current_range_meters":8800,"station_id":"ce4bhph2rcd13ifvqheg","pricing_plan_id":"cebpf4jnsgd1na2vs0mg"},{"bike_id":"1167d76f-0701-42ca-9566-e6b8288b4501","system_id":"levelo_inurba_marseille","lat":43.28298,"lon":5.37869,"is_reserved":false,"is_disabled":false,"rental_uris":{"android":"levelo://app?vid=1167d76f-0701-42ca-9566-e6b8288b4501","ios":"levelo://app?vid=1167d76f-0701-42ca-9566-e6b8288b4501"},"vehicle_type_id":"4","last_reported":1743523887,"current_range_meters":8800,"station_id":"","pricing_plan_id":"cebpf4jnsgd1na2vs0mg"},{"bike_id":"33b8dd29-56e2-488c-9bb6-7f788906afe5","system_id":"levelo_inurba_marseille","lat":43.30769,"lon":5.37257,"is_reserved":false,"is_disabled":false,"rental_uris":{"android":"levelo://app?vid=33b8dd29-56e2-488c-9bb6-7f788906afe5","ios":"levelo://app?vid=33b8dd29-56e2-488c-9bb6-7f788906afe5"},"vehicle_type_id":"4","last_reported":1743523887,"current_range_meters":8800,"station_id":"","pricing_plan_id":"cebpf4jnsgd1na2vs0mg"},{"bike_id":"2b9b31ad-6e45-403f-9450-a25bb8507203","system_id":"levelo_inurba_marseille","lat":43.32106,"lon":5.36797,"is_reserved":false,"is_disabled":false,"rental_uris":{"android":"levelo://app?vid=2b9b31ad-6e45-403f-9450-a25bb8507203","ios":"levelo://app?vid=2b9b31ad-6e45-403f-9450-a25bb8507203"},"vehicle_type_id":"4","last_reported":1743523887,"current_range_meters":8800,"station_id":"ce4bhrh2rcd13ifvqhug","pricing_plan_id":"cebpf4jnsgd1na2vs0mg"},{"bike_id":"748b71ce-c474-4f6b-863d-7b9cbcc5236b","system_id":"levelo_inurba_marseille","lat":43.2945,"lon":5.39748,"is_reserved":false,"is_disabled":false,"rental_uris":{"android":"levelo://app?vid=748b71ce-c474-4f6b-863d-7b9cbcc5236b","ios":"levelo://app?vid=748b71ce-c474-4f6b-863d-7b9cbcc5236b"},"vehicle_type_id":"4","last_reported":1743523887,"current_range_meters":8800,"station_id":"ce4bh3h2rcd13ifvqdo0","pricing_plan_id":"cebpf4jnsgd1na2vs0mg"},{"bike_id":"aff48b0f-bd10-4bb1-9c3c-4f44c0c93ad2","system_id":"levelo_inurba_marseille","lat":43.29939,"lon":5.36543,"is_reserved":false,"is_disabled":false,"rental_uris":{"android":"levelo://app?vid=aff48b0f-bd10-4bb1-9c3c-4f44c0c93ad2","ios":"levelo://app?vid=aff48b0f-bd10-4bb1-9c3c-4f44c0c93ad2"},"vehicle_type_id":"4","last_reported":1743523887,"current_range_meters":8800,"station_id":"ce4bgm92rcd13ifvqbr0","pricing_plan_id":"cebpf4jnsgd1na2vs0mg"},{"bike_id":"e2a9d998-d526-41bb-a87d-3c01accdc80d","system_id":"levelo_inurba_marseille","lat":43.29882,"lon":5.37593,"is_reserved":false,"is_disabled":false,"rental_uris":{"android":"levelo://app?vid=e2a9d998-d526-41bb-a87d-3c01accdc80d","ios":"levelo://app?vid=e2a9d998-d526-41bb-a87d-3c01accdc80d"},"vehicle_type_id":"4","last_reported":1743523887,"current_range_meters":8800,"station_id":"","pricing_plan_id":"cebpf4jnsgd1na2vs0mg"},{"bike_id":"6b84f3c5-fe72-4ddd-889c-3fd12a1108fb","system_id":"levelo_inurba_marseille","lat":43.26205,"lon":5.3793,"is_reserved":false,"is_disabled":false,"rental_uris":{"android":"levelo://app?vid=6b84f3c5-fe72-4ddd-889c-3fd12a1108fb","ios":"levelo://app?vid=6b84f3c5-fe72-4ddd-889c-3fd12a1108fb"},"vehicle_type_id":"4","last_reported":1743523887,"current_range_meters":8800,"station_id":"ce4bhjp2rcd13ifvqg90","pricing_plan_id":"cebpf4jnsgd1na2vs0mg"},{"bike_id":"7fa5b4bd-aa9a-4311-94f5-47774eaccefc","system_id":"levelo_inurba_marseille","lat":43.296238,"lon":5.371733,"is_reserved":false,"is_disabled":false,"rental_uris":{"android":"levelo://app?vid=7fa5b4bd-aa9a-4311-94f5-47774eaccefc","ios":"levelo://app?vid=7fa5b4bd-aa9a-4311-94f5-47774eaccefc"},"vehicle_type_id":"4","last_reported":1743523887,"current_range_meters":8800,"station_id":"ce4bgnh2rcd13ifvqc0g","pricing_plan_id":"cebpf4jnsgd1na2vs0mg"},{"bike_id":"9f019910-c8cf-4280-9fcb-e8843ecf3299","system_id":"levelo_inurba_marseille","lat":43.30358,"lon":5.41881,"is_reserved":false,"is_disabled":false,"rental_uris":{"android":"levelo://app?vid=9f019910-c8cf-4280-9fcb-e8843ecf3299","ios":"levelo://app?vid=9f019910-c8cf-4280-9fcb-e8843ecf3299"},"vehicle_type_id":"4","last_reported":1743523887,"current_range_meters":9200,"station_id":"ce4bhop2rcd13ifvqh7g","pricing_plan_id":"cebpf4jnsgd1na2vs0mg"},{"bike_id":"11989da7-291c-4a31-8a38-58465ed357ae","system_id":"levelo_inurba_marseille","lat":43.25076,"lon":5.39493,"is_reserved":false,"is_disabled":false,"rental_uris":{"android":"levelo://app?vid=11989da7-291c-4a31-8a38-58465ed357ae","ios":"levelo://app?vid=11989da7-291c-4a31-8a38-58465ed357ae"},"vehicle_type_id":"4","last_reported":1743523887,"current_range_meters":9200,"station_id":"ce4bhm12rcd13ifvqgkg","pricing_plan_id":"cebpf4jnsgd1na2vs0mg"},{"bike_id":"4ad73676-975d-4eb4-8ab0-34916f3a4594","system_id":"levelo_inurba_marseille","lat":43.30631,"lon":5.37124,"is_reserved":false,"is_disabled":false,"rental_uris":{"android":"levelo://app?vid=4ad73676-975d-4eb4-8ab0-34916f3a4594","ios":"levelo://app?vid=4ad73676-975d-4eb4-8ab0-34916f3a4594"},"vehicle_type_id":"4","last_reported":1743523887,"current_range_meters":9200,"station_id":"","pricing_plan_id":"cebpf4jnsgd1na2vs0mg"},{"bike_id":"3438a6de-f135-40be-94e3-ede308f75d18","system_id":"levelo_inurba_marseille","lat":43.30331,"lon":5.40434,"is_reserved":false,"is_disabled":false,"rental_uris":{"android":"levelo://app?vid=3438a6de-f135-40be-94e3-ede308f75d18","ios":"levelo://app?vid=3438a6de-f135-40be-94e3-ede308f75d18"},"vehicle_type_id":"4","last_reported":1743523887,"current_range_meters":9200,"station_id":"ce4bh012rcd13ifvqd10","pricing_plan_id":"cebpf4jnsgd1na2vs0mg"},{"bike_id":"aa49c401-0827-48f2-babe-a013b8c2c0e6","system_id":"levelo_inurba_marseille","lat":43.31278,"lon":5.40171,"is_reserved":false,"is_disabled":false,"rental_uris":{"android":"levelo://app?vid=aa49c401-0827-48f2-babe-a013b8c2c0e6","ios":"levelo://app?vid=aa49c401-0827-48f2-babe-a013b8c2c0e6"},"vehicle_type_id":"4","last_reported":1743523887,"current_range_meters":8800,"station_id":"ce4bh092rcd13ifvqd30","pricing_plan_id":"cebpf4jnsgd1na2vs0mg"},{"bike_id":"d4d811dc-9fa0-41f2-afd1-4142df7cdd2a","system_id":"levelo_inurba_marseille","lat":43.28699,"lon":5.37382,"is_reserved":false,"is_disabled":false,"rental_uris":{"android":"levelo://app?vid=d4d811dc-9fa0-41f2-afd1-4142df7cdd2a","ios":"levelo://app?vid=d4d811dc-9fa0-41f2-afd1-4142df7cdd2a"},"vehicle_type_id":"4","last_reported":1743523887,"current_range_meters":9200,"station_id":"ce4bh3p2rcd13ifvqdq0","pricing_plan_id":"cebpf4jnsgd1na2vs0mg"},{"bike_id":"df869567-cfef-482d-8686-e2e7e3c36829","system_id":"levelo_inurba_marseille","lat":43.27908,"lon":5.37996,"is_reserved":false,"is_disabled":false,"rental_uris":{"android":"levelo://app?vid=df869567-cfef-482d-8686-e2e7e3c36829","ios":"levelo://app?vid=df869567-cfef-482d-8686-e2e7e3c36829"},"vehicle_type_id":"4","last_reported":1743523887,"current_range_meters":9200,"station_id":"ce4bhf92rcd13ifvqf50","pricing_plan_id":"cebpf4jnsgd1na2vs0mg"},{"bike_id":"c53375e6-7471-4f96-bcd6-44d600095d67","system_id":"levelo_inurba_marseille","lat":43.24665,"lon":5.38158,"is_reserved":false,"is_disabled":false,"rental_uris":{"android":"levelo://app?vid=c53375e6-7471-4f96-bcd6-44d600095d67","ios":"levelo://app?vid=c53375e6-7471-4f96-bcd6-44d600095d67"},"vehicle_type_id":"4","last_reported":1743523887,"current_range_meters":9600,"station_id":"ce4bhih2rcd13ifvqfr0","pricing_plan_id":"cebpf4jnsgd1na2vs0mg"},{"bike_id":"bba1b8cd-f2fc-41bb-8318-28717b6a2a3c","system_id":"levelo_inurba_marseille","lat":43.32374,"lon":5.38883,"is_reserved":false,"is_disabled":false,"rental_uris":{"android":"levelo://app?vid=bba1b8cd-f2fc-41bb-8318-28717b6a2a3c","ios":"levelo://app?vid=bba1b8cd-f2fc-41bb-8318-28717b6a2a3c"},"vehicle_type_id":"4","last_reported":1743523887,"current_range_meters":9600,"station_id":"ce4bhqp2rcd13ifvqhog","pricing_plan_id":"cebpf4jnsgd1na2vs0mg"},{"bike_id":"4b45ce81-4c0c-49af-a536-460862c54894","system_id":"levelo_inurba_marseille","lat":43.32368,"lon":5.3891,"is_reserved":false,"is_disabled":false,"rental_uris":{"android":"levelo://app?vid=4b45ce81-4c0c-49af-a536-460862c54894","ios":"levelo://app?vid=4b45ce81-4c0c-49af-a536-460862c54894"},"vehicle_type_id":"4","last_reported":1743523887,"current_range_meters":9600,"station_id":"ce4bhqp2rcd13ifvqhog","pricing_plan_id":"cebpf4jnsgd1na2vs0mg"},{"bike_id":"8f044826-7f3d-4d55-889d-674ac1cbfa9f","system_id":"levelo_inurba_marseille","lat":43.31754,"lon":5.39017,"is_reserved":false,"is_disabled":false,"rental_uris":{"android":"levelo://app?vid=8f044826-7f3d-4d55-889d-674ac1cbfa9f","ios":"levelo://app?vid=8f044826-7f3d-4d55-889d-674ac1cbfa9f"},"vehicle_type_id":"4","last_reported":1743523887,"current_range_meters":9600,"station_id":"ce4bhqp2rcd13ifvqhng","pricing_plan_id":"cebpf4jnsgd1na2vs0mg"},{"bike_id":"13161356-95c6-4060-a97e-b43abfa49f71","system_id":"levelo_inurba_marseille","lat":43.28365,"lon":5.38632,"is_reserved":false,"is_disabled":false,"rental_uris":{"android":"levelo://app?vid=13161356-95c6-4060-a97e-b43abfa49f71","ios":"levelo://app?vid=13161356-95c6-4060-a97e-b43abfa49f71"},"vehicle_type_id":"4","last_reported":1743523887,"current_range_meters":9600,"station_id":"ce4bh492rcd13ifvqdvg","pricing_plan_id":"cebpf4jnsgd1na2vs0mg"},{"bike_id":"a495ab47-72d1-4f9e-8b95-72d772792f33","system_id":"levelo_inurba_marseille","lat":43.3043,"lon":5.36832,"is_reserved":false,"is_disabled":false,"rental_uris":{"android":"levelo://app?vid=a495ab47-72d1-4f9e-8b95-72d772792f33","ios":"levelo://app?vid=a495ab47-72d1-4f9e-8b95-72d772792f33"},"vehicle_type_id":"4","last_reported":1743523887,"current_range_meters":9600,"station_id":"","pricing_plan_id":"cebpf4jnsgd1na2vs0mg"},{"bike_id":"2b0eb36e-4975-415c-a908-5480bff6827f","system_id":"levelo_inurba_marseille","lat":43.280023,"lon":5.400141,"is_reserved":false,"is_disabled":false,"rental_uris":{"android":"levelo://app?vid=2b0eb36e-4975-415c-a908-5480bff6827f","ios":"levelo://app?vid=2b0eb36e-4975-415c-a908-5480bff6827f"},"vehicle_type_id":"4","last_reported":1743523887,"current_range_meters":9600,"station_id":"ce4bho92rcd13ifvqh4g","pricing_plan_id":"cebpf4jnsgd1na2vs0mg"},{"bike_id":"1ff0dbb0-942f-40a3-b15a-76cc512bb845","system_id":"levelo_inurba_marseille","lat":43.2738,"lon":5.36253,"is_reserved":false,"is_disabled":false,"rental_uris":{"android":"levelo://app?vid=1ff0dbb0-942f-40a3-b15a-76cc512bb845","ios":"levelo://app?vid=1ff0dbb0-942f-40a3-b15a-76cc512bb845"},"vehicle_type_id":"4","last_reported":1743523887,"current_range_meters":9600,"station_id":"ce4bhbh2rcd13ifvqeo0","pricing_plan_id":"cebpf4jnsgd1na2vs0mg"},{"bike_id":"d401c91b-f7b3-4280-a9d6-cbf23d0a329a","system_id":"levelo_inurba_marseille","lat":43.303,"lon":5.39221,"is_reserved":false,"is_disabled":false,"rental_uris":{"android":"levelo://app?vid=d401c91b-f7b3-4280-a9d6-cbf23d0a329a","ios":"levelo://app?vid=d401c91b-f7b3-4280-a9d6-cbf23d0a329a"},"vehicle_type_id":"4","last_reported":1743523887,"current_range_meters":9600,"station_id":"ce4bgkh2rcd13ifvqbk0","pricing_plan_id":"cebpf4jnsgd1na2vs0mg"},{"bike_id":"e2a280ce-aa91-4dbe-a294-89dde46cec89","system_id":"levelo_inurba_marseille","lat":43.30272,"lon":5.40075,"is_reserved":false,"is_disabled":false,"rental_uris":{"android":"levelo://app?vid=e2a280ce-aa91-4dbe-a294-89dde46cec89","ios":"levelo://app?vid=e2a280ce-aa91-4dbe-a294-89dde46cec89"},"vehicle_type_id":"4","last_reported":1743523887,"current_range_meters":9600,"station_id":"ce4bgvh2rcd13ifvqcs0","pricing_plan_id":"cebpf4jnsgd1na2vs0mg"},{"bike_id":"041c6bb4-25e5-4d13-ad6c-53bcd18cf89f","system_id":"levelo_inurba_marseille","lat":43.25093,"lon":5.39523,"is_reserved":false,"is_disabled":false,"rental_uris":{"android":"levelo://app?vid=041c6bb4-25e5-4d13-ad6c-53bcd18cf89f","ios":"levelo://app?vid=041c6bb4-25e5-4d13-ad6c-53bcd18cf89f"},"vehicle_type_id":"4","last_reported":1743523887,"current_range_meters":9600,"station_id":"ce4bhm12rcd13ifvqgkg","pricing_plan_id":"cebpf4jnsgd1na2vs0mg"},{"bike_id":"d47ca5ac-a3e2-4cd1-82a3-e960af7da6da","system_id":"levelo_inurba_marseille","lat":43.25481,"lon":5.37678,"is_reserved":false,"is_disabled":false,"rental_uris":{"android":"levelo://app?vid=d47ca5ac-a3e2-4cd1-82a3-e960af7da6da","ios":"levelo://app?vid=d47ca5ac-a3e2-4cd1-82a3-e960af7da6da"},"vehicle_type_id":"4","last_reported":1743523887,"current_range_meters":9600,"station_id":"ce4bhh12rcd13ifvqff0","pricing_plan_id":"cebpf4jnsgd1na2vs0mg"},{"bike_id":"66a6759f-f104-404f-ba35-7dd5d87e6d0b","system_id":"levelo_inurba_marseille","lat":43.30153,"lon":5.37664,"is_reserved":false,"is_disabled":false,"rental_uris":{"android":"levelo://app?vid=66a6759f-f104-404f-ba35-7dd5d87e6d0b","ios":"levelo://app?vid=66a6759f-f104-404f-ba35-7dd5d87e6d0b"},"vehicle_type_id":"4","last_reported":1743523887,"current_range_meters":9600,"station_id":"","pricing_plan_id":"cebpf4jnsgd1na2vs0mg"},{"bike_id":"326d8af0-edaa-47e4-acb2-3f9fff2e2123","system_id":"levelo_inurba_marseille","lat":43.28575,"lon":5.3949,"is_reserved":false,"is_disabled":false,"rental_uris":{"android":"levelo://app?vid=326d8af0-edaa-47e4-acb2-3f9fff2e2123","ios":"levelo://app?vid=326d8af0-edaa-47e4-acb2-3f9fff2e2123"},"vehicle_type_id":"4","last_reported":1743523887,"current_range_meters":10000,"station_id":"ce4bh292rcd13ifvqdg0","pricing_plan_id":"cebpf4jnsgd1na2vs0mg"},{"bike_id":"e6928b84-bc47-4de0-8a23-14baa6be129c","system_id":"levelo_inurba_marseille","lat":43.301117,"lon":5.39952,"is_reserved":false,"is_disabled":true,"rental_uris":{"android":"levelo://app?vid=e6928b84-bc47-4de0-8a23-14baa6be129c","ios":"levelo://app?vid=e6928b84-bc47-4de0-8a23-14baa6be129c"},"vehicle_type_id":"4","last_reported":1743523887,"current_range_meters":10000,"station_id":"","pricing_plan_id":"cebpf4jnsgd1na2vs0mg"},{"bike_id":"e47bc61d-df2d-41b3-b26b-dd94e6e5e301","system_id":"levelo_inurba_marseille","lat":43.26241,"lon":5.42154,"is_reserved":false,"is_disabled":false,"rental_uris":{"android":"levelo://app?vid=e47bc61d-df2d-41b3-b26b-dd94e6e5e301","ios":"levelo://app?vid=e47bc61d-df2d-41b3-b26b-dd94e6e5e301"},"vehicle_type_id":"4","last_reported":1743523887,"current_range_meters":10000,"station_id":"","pricing_plan_id":"cebpf4jnsgd1na2vs0mg"},{"bike_id":"63277dc7-d202-4427-a390-6288f74e4b8d","system_id":"levelo_inurba_marseille","lat":43.29272,"lon":5.38435,"is_reserved":false,"is_disabled":false,"rental_uris":{"android":"levelo://app?vid=63277dc7-d202-4427-a390-6288f74e4b8d","ios":"levelo://app?vid=63277dc7-d202-4427-a390-6288f74e4b8d"},"vehicle_type_id":"4","last_reported":1743523887,"current_range_meters":9600,"station_id":"ce4bh692rcd13ifvqea0","pricing_plan_id":"cebpf4jnsgd1na2vs0mg"},{"bike_id":"ab52962f-bc93-4ddd-be76-164eb31c1a2f","system_id":"levelo_inurba_marseille","lat":43.25007,"lon":5.38942,"is_reserved":false,"is_disabled":false,"rental_uris":{"android":"levelo://app?vid=ab52962f-bc93-4ddd-be76-164eb31c1a2f","ios":"levelo://app?vid=ab52962f-bc93-4ddd-be76-164eb31c1a2f"},"vehicle_type_id":"4","last_reported":1743523887,"current_range_meters":10000,"station_id":"ce4bhgp2rcd13ifvqfd0","pricing_plan_id":"cebpf4jnsgd1na2vs0mg"},{"bike_id":"93a428f6-6bad-4a02-8565-b91a2bee43a8","system_id":"levelo_inurba_marseille","lat":43.28431,"lon":5.37524,"is_reserved":false,"is_disabled":false,"rental_uris":{"android":"levelo://app?vid=93a428f6-6bad-4a02-8565-b91a2bee43a8","ios":"levelo://app?vid=93a428f6-6bad-4a02-8565-b91a2bee43a8"},"vehicle_type_id":"4","last_reported":1743523887,"current_range_meters":10000,"station_id":"ce4bh412rcd13ifvqds0","pricing_plan_id":"cebpf4jnsgd1na2vs0mg"},{"bike_id":"2c567be4-626d-4614-8796-6c92d09d2fa1","system_id":"levelo_inurba_marseille","lat":43.29527,"lon":5.37418,"is_reserved":false,"is_disabled":false,"rental_uris":{"android":"levelo://app?vid=2c567be4-626d-4614-8796-6c92d09d2fa1","ios":"levelo://app?vid=2c567be4-626d-4614-8796-6c92d09d2fa1"},"vehicle_type_id":"4","last_reported":1743523887,"current_range_meters":10800,"station_id":"","pricing_plan_id":"cebpf4jnsgd1na2vs0mg"},{"bike_id":"462667d0-1571-4bdd-aff6-447a78cb8e22","system_id":"levelo_inurba_marseille","lat":43.27215,"lon":5.39178,"is_reserved":false,"is_disabled":false,"rental_uris":{"android":"levelo://app?vid=462667d0-1571-4bdd-aff6-447a78cb8e22","ios":"levelo://app?vid=462667d0-1571-4bdd-aff6-447a78cb8e22"},"vehicle_type_id":"4","last_reported":1743523887,"current_range_meters":10800,"station_id":"ce4bhhp2rcd13ifvqfm0","pricing_plan_id":"cebpf4jnsgd1na2vs0mg"},{"bike_id":"5fc4a222-ed4f-4087-b637-f1649ce4e863","system_id":"levelo_inurba_marseille","lat":43.28044,"lon":5.36936,"is_reserved":false,"is_disabled":false,"rental_uris":{"android":"levelo://app?vid=5fc4a222-ed4f-4087-b637-f1649ce4e863","ios":"levelo://app?vid=5fc4a222-ed4f-4087-b637-f1649ce4e863"},"vehicle_type_id":"4","last_reported":1743523887,"current_range_meters":10800,"station_id":"ce4bha12rcd13ifvqef0","pricing_plan_id":"cebpf4jnsgd1na2vs0mg"},{"bike_id":"16dd592e-7732-47c3-a664-305413913b8b","system_id":"levelo_inurba_marseille","lat":43.28466,"lon":5.35896,"is_reserved":false,"is_disabled":false,"rental_uris":{"android":"levelo://app?vid=16dd592e-7732-47c3-a664-305413913b8b","ios":"levelo://app?vid=16dd592e-7732-47c3-a664-305413913b8b"},"vehicle_type_id":"4","last_reported":1743523887,"current_range_meters":10800,"station_id":"ce4bhah2rcd13ifvqei0","pricing_plan_id":"cebpf4jnsgd1na2vs0mg"},{"bike_id":"5ecafc64-86c4-4df5-818d-7b60b3345ce1","system_id":"levelo_inurba_marseille","lat":43.28619,"lon":5.35098,"is_reserved":false,"is_disabled":false,"rental_uris":{"android":"levelo://app?vid=5ecafc64-86c4-4df5-818d-7b60b3345ce1","ios":"levelo://app?vid=5ecafc64-86c4-4df5-818d-7b60b3345ce1"},"vehicle_type_id":"4","last_reported":1743523887,"current_range_meters":10800,"station_id":"ce4bhch2rcd13ifvqeug","pricing_plan_id":"cebpf4jnsgd1na2vs0mg"},{"bike_id":"27773214-4312-4127-aa54-e74cba3d6d07","system_id":"levelo_inurba_marseille","lat":43.27787,"lon":5.40721,"is_reserved":false,"is_disabled":false,"rental_uris":{"android":"levelo://app?vid=27773214-4312-4127-aa54-e74cba3d6d07","ios":"levelo://app?vid=27773214-4312-4127-aa54-e74cba3d6d07"},"vehicle_type_id":"4","last_reported":1743523887,"current_range_meters":10800,"station_id":"ce4bhnh2rcd13ifvqgtg","pricing_plan_id":"cebpf4jnsgd1na2vs0mg"},{"bike_id":"0037c8a4-750d-4ff5-ba6b-89279fe15428","system_id":"levelo_inurba_marseille","lat":43.3229,"lon":5.38275,"is_reserved":false,"is_disabled":false,"rental_uris":{"android":"levelo://app?vid=0037c8a4-750d-4ff5-ba6b-89279fe15428","ios":"levelo://app?vid=0037c8a4-750d-4ff5-ba6b-89279fe15428"},"vehicle_type_id":"4","last_reported":1743523887,"current_range_meters":10800,"station_id":"ce4bhr12rcd13ifvqhqg","pricing_plan_id":"cebpf4jnsgd1na2vs0mg"},{"bike_id":"3f46f339-a31d-44ce-840d-5e9cadf9dbc5","system_id":"levelo_inurba_marseille","lat":43.26199,"lon":5.37446,"is_reserved":false,"is_disabled":false,"rental_uris":{"android":"levelo://app?vid=3f46f339-a31d-44ce-840d-5e9cadf9dbc5","ios":"levelo://app?vid=3f46f339-a31d-44ce-840d-5e9cadf9dbc5"},"vehicle_type_id":"4","last_reported":1743523887,"current_range_meters":10800,"station_id":"ce4bhgp2rcd13ifvqfc0","pricing_plan_id":"cebpf4jnsgd1na2vs0mg"},{"bike_id":"f2dfd2a0-5846-4c43-9aae-f5b5157fea3b","system_id":"levelo_inurba_marseille","lat":43.28639,"lon":5.35059,"is_reserved":false,"is_disabled":false,"rental_uris":{"android":"levelo://app?vid=f2dfd2a0-5846-4c43-9aae-f5b5157fea3b","ios":"levelo://app?vid=f2dfd2a0-5846-4c43-9aae-f5b5157fea3b"},"vehicle_type_id":"4","last_reported":1743523887,"current_range_meters":10800,"station_id":"ce4bhch2rcd13ifvqeug","pricing_plan_id":"cebpf4jnsgd1na2vs0mg"},{"bike_id":"34ead93f-0548-429e-a369-3703fc242f80","system_id":"levelo_inurba_marseille","lat":43.25579,"lon":5.38237,"is_reserved":false,"is_disabled":false,"rental_uris":{"android":"levelo://app?vid=34ead93f-0548-429e-a369-3703fc242f80","ios":"levelo://app?vid=34ead93f-0548-429e-a369-3703fc242f80"},"vehicle_type_id":"4","last_reported":1743523887,"current_range_meters":11200,"station_id":"ce4bhih2rcd13ifvqfs0","pricing_plan_id":"cebpf4jnsgd1na2vs0mg"},{"bike_id":"b5db910a-6ec4-4445-8f0d-2fe4bfb07856","system_id":"levelo_inurba_marseille","lat":43.30084,"lon":5.39075,"is_reserved":false,"is_disabled":false,"rental_uris":{"android":"levelo://app?vid=b5db910a-6ec4-4445-8f0d-2fe4bfb07856","ios":"levelo://app?vid=b5db910a-6ec4-4445-8f0d-2fe4bfb07856"},"vehicle_type_id":"4","last_reported":1743523887,"current_range_meters":11200,"station_id":"ce4bh192rcd13ifvqdb0","pricing_plan_id":"cebpf4jnsgd1na2vs0mg"},{"bike_id":"b18d61be-1314-4787-bdc3-677619cdb9f9","system_id":"levelo_inurba_marseille","lat":43.2992,"lon":5.37046,"is_reserved":false,"is_disabled":false,"rental_uris":{"android":"levelo://app?vid=b18d61be-1314-4787-bdc3-677619cdb9f9","ios":"levelo://app?vid=b18d61be-1314-4787-bdc3-677619cdb9f9"},"vehicle_type_id":"4","last_reported":1743523887,"current_range_meters":11200,"station_id":"","pricing_plan_id":"cebpf4jnsgd1na2vs0mg"},{"bike_id":"ede02c45-5bfb-47bf-8787-de910beadc67","system_id":"levelo_inurba_marseille","lat":43.28496,"lon":5.38576,"is_reserved":false,"is_disabled":false,"rental_uris":{"android":"levelo://app?vid=ede02c45-5bfb-47bf-8787-de910beadc67","ios":"levelo://app?vid=ede02c45-5bfb-47bf-8787-de910beadc67"},"vehicle_type_id":"4","last_reported":1743523887,"current_range_meters":11200,"station_id":"ce4bh8p2rcd13ifvqeb0","pricing_plan_id":"cebpf4jnsgd1na2vs0mg"},{"bike_id":"61eea5a5-84c9-41c4-a6a7-db4fe9316ed8","system_id":"levelo_inurba_marseille","lat":43.301421,"lon":5.380535,"is_reserved":false,"is_disabled":false,"rental_uris":{"android":"levelo://app?vid=61eea5a5-84c9-41c4-a6a7-db4fe9316ed8","ios":"levelo://app?vid=61eea5a5-84c9-41c4-a6a7-db4fe9316ed8"},"vehicle_type_id":"4","last_reported":1743523887,"current_range_meters":11600,"station_id":"ce4bgt92rcd13ifvqcg0","pricing_plan_id":"cebpf4jnsgd1na2vs0mg"},{"bike_id":"9fbd420b-6ea9-4b7f-900a-35df51907f64","system_id":"levelo_inurba_marseille","lat":43.29903,"lon":5.4367,"is_reserved":false,"is_disabled":false,"rental_uris":{"android":"levelo://app?vid=9fbd420b-6ea9-4b7f-900a-35df51907f64","ios":"levelo://app?vid=9fbd420b-6ea9-4b7f-900a-35df51907f64"},"vehicle_type_id":"4","last_reported":1743523887,"current_range_meters":11600,"station_id":"ce4bhpp2rcd13ifvqhfg","pricing_plan_id":"cebpf4jnsgd1na2vs0mg"},{"bike_id":"9f3ed6bd-6a32-454a-ba55-ab9bb6b83e8a","system_id":"levelo_inurba_marseille","lat":43.27625,"lon":5.36101,"is_reserved":false,"is_disabled":false,"rental_uris":{"android":"levelo://app?vid=9f3ed6bd-6a32-454a-ba55-ab9bb6b83e8a","ios":"levelo://app?vid=9f3ed6bd-6a32-454a-ba55-ab9bb6b83e8a"},"vehicle_type_id":"4","last_reported":1743523887,"current_range_meters":11600,"station_id":"ce4bgj92rcd13ifvqbe0","pricing_plan_id":"cebpf4jnsgd1na2vs0mg"},{"bike_id":"7d24f7f3-5a91-46ae-971d-a7a715309919","system_id":"levelo_inurba_marseille","lat":43.23192,"lon":5.39983,"is_reserved":false,"is_disabled":false,"rental_uris":{"android":"levelo://app?vid=7d24f7f3-5a91-46ae-971d-a7a715309919","ios":"levelo://app?vid=7d24f7f3-5a91-46ae-971d-a7a715309919"},"vehicle_type_id":"4","last_reported":1743523887,"current_range_meters":11600,"station_id":"ce4bhn12rcd13ifvqgqg","pricing_plan_id":"cebpf4jnsgd1na2vs0mg"},{"bike_id":"01b49bb5-ec47-4e2a-895b-e89570444ab0","system_id":"levelo_inurba_marseille","lat":43.29029,"lon":5.38641,"is_reserved":false,"is_disabled":false,"rental_uris":{"android":"levelo://app?vid=01b49bb5-ec47-4e2a-895b-e89570444ab0","ios":"levelo://app?vid=01b49bb5-ec47-4e2a-895b-e89570444ab0"},"vehicle_type_id":"4","last_reported":1743523887,"current_range_meters":11600,"station_id":"ce4bh4p2rcd13ifvqe0g","pricing_plan_id":"cebpf4jnsgd1na2vs0mg"},{"bike_id":"421332b7-320a-477a-9ef6-8ec6e97bd939","system_id":"levelo_inurba_marseille","lat":43.29426,"lon":5.38618,"is_reserved":false,"is_disabled":false,"rental_uris":{"android":"levelo://app?vid=421332b7-320a-477a-9ef6-8ec6e97bd939","ios":"levelo://app?vid=421332b7-320a-477a-9ef6-8ec6e97bd939"},"vehicle_type_id":"4","last_reported":1743523887,"current_range_meters":11600,"station_id":"ce4bh2h2rcd13ifvqdh0","pricing_plan_id":"cebpf4jnsgd1na2vs0mg"},{"bike_id":"3ba6ccff-1eda-46d4-acbd-01dbdd65bb76","system_id":"levelo_inurba_marseille","lat":43.29907,"lon":5.43665,"is_reserved":false,"is_disabled":false,"rental_uris":{"android":"levelo://app?vid=3ba6ccff-1eda-46d4-acbd-01dbdd65bb76","ios":"levelo://app?vid=3ba6ccff-1eda-46d4-acbd-01dbdd65bb76"},"vehicle_type_id":"4","last_reported":1743523887,"current_range_meters":11600,"station_id":"ce4bhpp2rcd13ifvqhfg","pricing_plan_id":"cebpf4jnsgd1na2vs0mg"},{"bike_id":"610a2606-04c6-4b7d-a37b-8ef28fd0cbd2","system_id":"levelo_inurba_marseille","lat":43.245462,"lon":5.395204,"is_reserved":false,"is_disabled":false,"rental_uris":{"android":"levelo://app?vid=610a2606-04c6-4b7d-a37b-8ef28fd0cbd2","ios":"levelo://app?vid=610a2606-04c6-4b7d-a37b-8ef28fd0cbd2"},"vehicle_type_id":"4","last_reported":1743523887,"current_range_meters":11600,"station_id":"ce4bhlp2rcd13ifvqgjg","pricing_plan_id":"cebpf4jnsgd1na2vs0mg"},{"bike_id":"61d4a085-0148-4389-94b3-b7f1ae317df3","system_id":"levelo_inurba_marseille","lat":43.28273,"lon":5.35067,"is_reserved":false,"is_disabled":false,"rental_uris":{"android":"levelo://app?vid=61d4a085-0148-4389-94b3-b7f1ae317df3","ios":"levelo://app?vid=61d4a085-0148-4389-94b3-b7f1ae317df3"},"vehicle_type_id":"4","last_reported":1743523887,"current_range_meters":11600,"station_id":"ce4bhbp2rcd13ifvqerg","pricing_plan_id":"cebpf4jnsgd1na2vs0mg"},{"bike_id":"278a506b-3b1b-4d97-bb5e-5869d9c38046","system_id":"levelo_inurba_marseille","lat":43.31759,"lon":5.39002,"is_reserved":false,"is_disabled":false,"rental_uris":{"android":"levelo://app?vid=278a506b-3b1b-4d97-bb5e-5869d9c38046","ios":"levelo://app?vid=278a506b-3b1b-4d97-bb5e-5869d9c38046"},"vehicle_type_id":"4","last_reported":1743523887,"current_range_meters":12000,"station_id":"ce4bhqp2rcd13ifvqhng","pricing_plan_id":"cebpf4jnsgd1na2vs0mg"},{"bike_id":"c3742909-8ac1-45e8-bbc0-0a14494abaa8","system_id":"levelo_inurba_marseille","lat":43.24658,"lon":5.38911,"is_reserved":false,"is_disabled":false,"rental_uris":{"android":"levelo://app?vid=c3742909-8ac1-45e8-bbc0-0a14494abaa8","ios":"levelo://app?vid=c3742909-8ac1-45e8-bbc0-0a14494abaa8"},"vehicle_type_id":"4","last_reported":1743523887,"current_range_meters":12000,"station_id":"ce4bhg12rcd13ifvqf60","pricing_plan_id":"cebpf4jnsgd1na2vs0mg"},{"bike_id":"4220d26d-272d-4b23-9cec-a79c1d919b49","system_id":"levelo_inurba_marseille","lat":43.30598,"lon":5.37101,"is_reserved":false,"is_disabled":false,"rental_uris":{"android":"levelo://app?vid=4220d26d-272d-4b23-9cec-a79c1d919b49","ios":"levelo://app?vid=4220d26d-272d-4b23-9cec-a79c1d919b49"},"vehicle_type_id":"4","last_reported":1743523887,"current_range_meters":12000,"station_id":"","pricing_plan_id":"cebpf4jnsgd1na2vs0mg"},{"bike_id":"dc2726de-9b67-47f5-ae40-952775339bb1","system_id":"levelo_inurba_marseille","lat":43.28985,"lon":5.37834,"is_reserved":false,"is_disabled":false,"rental_uris":{"android":"levelo://app?vid=dc2726de-9b67-47f5-ae40-952775339bb1","ios":"levelo://app?vid=dc2726de-9b67-47f5-ae40-952775339bb1"},"vehicle_type_id":"4","last_reported":1743523887,"current_range_meters":12000,"station_id":"ce4bh9p2rcd13ifvqed0","pricing_plan_id":"cebpf4jnsgd1na2vs0mg"},{"bike_id":"0ed5651f-777e-4e38-a39c-0a5ee31c5521","system_id":"levelo_inurba_marseille","lat":43.28038,"lon":5.36949,"is_reserved":false,"is_disabled":false,"rental_uris":{"android":"levelo://app?vid=0ed5651f-777e-4e38-a39c-0a5ee31c5521","ios":"levelo://app?vid=0ed5651f-777e-4e38-a39c-0a5ee31c5521"},"vehicle_type_id":"4","last_reported":1743523887,"current_range_meters":12400,"station_id":"ce4bha12rcd13ifvqef0","pricing_plan_id":"cebpf4jnsgd1na2vs0mg"},{"bike_id":"a0da4baf-c909-49d9-bd7b-5a273546fb7f","system_id":"levelo_inurba_marseille","lat":43.2929,"lon":5.37639,"is_reserved":false,"is_disabled":false,"rental_uris":{"android":"levelo://app?vid=a0da4baf-c909-49d9-bd7b-5a273546fb7f","ios":"levelo://app?vid=a0da4baf-c909-49d9-bd7b-5a273546fb7f"},"vehicle_type_id":"4","last_reported":1743523887,"current_range_meters":12400,"station_id":"ce4bgi12rcd13ifvqb80","pricing_plan_id":"cebpf4jnsgd1na2vs0mg"},{"bike_id":"ae176130-5e9a-4e23-81f0-1d64cf0e629a","system_id":"levelo_inurba_marseille","lat":43.25115,"lon":5.40306,"is_reserved":false,"is_disabled":false,"rental_uris":{"android":"levelo://app?vid=ae176130-5e9a-4e23-81f0-1d64cf0e629a","ios":"levelo://app?vid=ae176130-5e9a-4e23-81f0-1d64cf0e629a"},"vehicle_type_id":"4","last_reported":1743523887,"current_range_meters":12000,"station_id":"ce4bhlh2rcd13ifvqgig","pricing_plan_id":"cebpf4jnsgd1na2vs0mg"},{"bike_id":"e211ac28-5b0e-4edd-b4b7-904e111fe510","system_id":"levelo_inurba_marseille","lat":43.24664,"lon":5.38157,"is_reserved":false,"is_disabled":false,"rental_uris":{"android":"levelo://app?vid=e211ac28-5b0e-4edd-b4b7-904e111fe510","ios":"levelo://app?vid=e211ac28-5b0e-4edd-b4b7-904e111fe510"},"vehicle_type_id":"4","last_reported":1743523887,"current_range_meters":12400,"station_id":"ce4bhih2rcd13ifvqfr0","pricing_plan_id":"cebpf4jnsgd1na2vs0mg"},{"bike_id":"7c16598b-d567-4118-9838-6675dfc96bfd","system_id":"levelo_inurba_marseille","lat":43.25505,"lon":5.3765,"is_reserved":false,"is_disabled":false,"rental_uris":{"android":"levelo://app?vid=7c16598b-d567-4118-9838-6675dfc96bfd","ios":"levelo://app?vid=7c16598b-d567-4118-9838-6675dfc96bfd"},"vehicle_type_id":"4","last_reported":1743523887,"current_range_meters":12000,"station_id":"ce4bhh12rcd13ifvqff0","pricing_plan_id":"cebpf4jnsgd1na2vs0mg"},{"bike_id":"fc5b273c-e281-4971-84ec-1b44051e0c87","system_id":"levelo_inurba_marseille","lat":43.32337,"lon":5.40621,"is_reserved":false,"is_disabled":false,"rental_uris":{"android":"levelo://app?vid=fc5b273c-e281-4971-84ec-1b44051e0c87","ios":"levelo://app?vid=fc5b273c-e281-4971-84ec-1b44051e0c87"},"vehicle_type_id":"4","last_reported":1743523887,"current_range_meters":12800,"station_id":"ce4bhq92rcd13ifvqhjg","pricing_plan_id":"cebpf4jnsgd1na2vs0mg"},{"bike_id":"1e6e06aa-7f38-424f-a28e-4da075067b60","system_id":"levelo_inurba_marseille","lat":43.27996,"lon":5.39977,"is_reserved":false,"is_disabled":false,"rental_uris":{"android":"levelo://app?vid=1e6e06aa-7f38-424f-a28e-4da075067b60","ios":"levelo://app?vid=1e6e06aa-7f38-424f-a28e-4da075067b60"},"vehicle_type_id":"4","last_reported":1743523887,"current_range_meters":12800,"station_id":"ce4bho92rcd13ifvqh4g","pricing_plan_id":"cebpf4jnsgd1na2vs0mg"},{"bike_id":"a9392c32-b8e3-41f9-ae3c-96f82eb8a90f","system_id":"levelo_inurba_marseille","lat":43.23073,"lon":5.35521,"is_reserved":false,"is_disabled":false,"rental_uris":{"android":"levelo://app?vid=a9392c32-b8e3-41f9-ae3c-96f82eb8a90f","ios":"levelo://app?vid=a9392c32-b8e3-41f9-ae3c-96f82eb8a90f"},"vehicle_type_id":"4","last_reported":1743523887,"current_range_meters":12800,"station_id":"cpo3342slgdg3j2ifvpg","pricing_plan_id":"cebpf4jnsgd1na2vs0mg"},{"bike_id":"5c93903a-d083-4892-919b-04ce29fe76dc","system_id":"levelo_inurba_marseille","lat":43.275725,"lon":5.384323,"is_reserved":false,"is_disabled":false,"rental_uris":{"android":"levelo://app?vid=5c93903a-d083-4892-919b-04ce29fe76dc","ios":"levelo://app?vid=5c93903a-d083-4892-919b-04ce29fe76dc"},"vehicle_type_id":"4","last_reported":1743523887,"current_range_meters":12800,"station_id":"ce4bhh92rcd13ifvqfi0","pricing_plan_id":"cebpf4jnsgd1na2vs0mg"},{"bike_id":"062f662a-fdc3-4404-96a7-532a807a62a2","system_id":"levelo_inurba_marseille","lat":43.2872,"lon":5.37941,"is_reserved":false,"is_disabled":true,"rental_uris":{"android":"levelo://app?vid=062f662a-fdc3-4404-96a7-532a807a62a2","ios":"levelo://app?vid=062f662a-fdc3-4404-96a7-532a807a62a2"},"vehicle_type_id":"4","last_reported":1743523887,"current_range_meters":12800,"station_id":"ce4bh9p2rcd13ifvqec0","pricing_plan_id":"cebpf4jnsgd1na2vs0mg"},{"bike_id":"0955bcb1-f8dc-47f4-a135-54218809acb7","system_id":"levelo_inurba_marseille","lat":43.2656,"lon":5.37282,"is_reserved":false,"is_disabled":true,"rental_uris":{"android":"levelo://app?vid=0955bcb1-f8dc-47f4-a135-54218809acb7","ios":"levelo://app?vid=0955bcb1-f8dc-47f4-a135-54218809acb7"},"vehicle_type_id":"4","last_reported":1743523887,"current_range_meters":12800,"station_id":"ce4bhg12rcd13ifvqf70","pricing_plan_id":"cebpf4jnsgd1na2vs0mg"},{"bike_id":"6e6a66e5-58ca-4db1-9695-b46ed5c28827","system_id":"levelo_inurba_marseille","lat":43.31806,"lon":5.36818,"is_reserved":false,"is_disabled":false,"rental_uris":{"android":"levelo://app?vid=6e6a66e5-58ca-4db1-9695-b46ed5c28827","ios":"levelo://app?vid=6e6a66e5-58ca-4db1-9695-b46ed5c28827"},"vehicle_type_id":"4","last_reported":1743523887,"current_range_meters":12800,"station_id":"","pricing_plan_id":"cebpf4jnsgd1na2vs0mg"},{"bike_id":"0c1f813d-5f18-4f24-adae-496558062e87","system_id":"levelo_inurba_marseille","lat":43.26943,"lon":5.40249,"is_reserved":false,"is_disabled":false,"rental_uris":{"android":"levelo://app?vid=0c1f813d-5f18-4f24-adae-496558062e87","ios":"levelo://app?vid=0c1f813d-5f18-4f24-adae-496558062e87"},"vehicle_type_id":"4","last_reported":1743523887,"current_range_meters":12400,"station_id":"cjm6bp8fraef2m0cb0m0","pricing_plan_id":"cebpf4jnsgd1na2vs0mg"},{"bike_id":"6b8d5371-b5ab-4832-8c8e-12234f9dff78","system_id":"levelo_inurba_marseille","lat":43.31744,"lon":5.39018,"is_reserved":false,"is_disabled":false,"rental_uris":{"android":"levelo://app?vid=6b8d5371-b5ab-4832-8c8e-12234f9dff78","ios":"levelo://app?vid=6b8d5371-b5ab-4832-8c8e-12234f9dff78"},"vehicle_type_id":"4","last_reported":1743523887,"current_range_meters":12800,"station_id":"ce4bhqp2rcd13ifvqhng","pricing_plan_id":"cebpf4jnsgd1na2vs0mg"},{"bike_id":"22709390-df3e-423c-a3e6-423b32d643d0","system_id":"levelo_inurba_marseille","lat":43.28084,"lon":5.3966,"is_reserved":false,"is_disabled":false,"rental_uris":{"android":"levelo://app?vid=22709390-df3e-423c-a3e6-423b32d643d0","ios":"levelo://app?vid=22709390-df3e-423c-a3e6-423b32d643d0"},"vehicle_type_id":"4","last_reported":1743523887,"current_range_meters":12800,"station_id":"ce4bho12rcd13ifvqh2g","pricing_plan_id":"cebpf4jnsgd1na2vs0mg"},{"bike_id":"673cd2fb-9a5c-412d-a385-2a1c87de78c8","system_id":"levelo_inurba_marseille","lat":43.28626,"lon":5.37081,"is_reserved":false,"is_disabled":false,"rental_uris":{"android":"levelo://app?vid=673cd2fb-9a5c-412d-a385-2a1c87de78c8","ios":"levelo://app?vid=673cd2fb-9a5c-412d-a385-2a1c87de78c8"},"vehicle_type_id":"4","last_reported":1743523887,"current_range_meters":12800,"station_id":"ce4bht12rcd13ifvqi60","pricing_plan_id":"cebpf4jnsgd1na2vs0mg"},{"bike_id":"150f091e-9283-420c-a6cd-3b92b4dc7a44","system_id":"levelo_inurba_marseille","lat":43.29575,"lon":5.385589,"is_reserved":false,"is_disabled":false,"rental_uris":{"android":"levelo://app?vid=150f091e-9283-420c-a6cd-3b92b4dc7a44","ios":"levelo://app?vid=150f091e-9283-420c-a6cd-3b92b4dc7a44"},"vehicle_type_id":"4","last_reported":1743523887,"current_range_meters":13600,"station_id":"ce4bh3p2rcd13ifvqdp0","pricing_plan_id":"cebpf4jnsgd1na2vs0mg"},{"bike_id":"f616f89a-6b5f-47f2-be4a-c1252268f5f4","system_id":"levelo_inurba_marseille","lat":43.294184,"lon":5.386083,"is_reserved":false,"is_disabled":true,"rental_uris":{"android":"levelo://app?vid=f616f89a-6b5f-47f2-be4a-c1252268f5f4","ios":"levelo://app?vid=f616f89a-6b5f-47f2-be4a-c1252268f5f4"},"vehicle_type_id":"4","last_reported":1743523887,"current_range_meters":13600,"station_id":"ce4bh2h2rcd13ifvqdh0","pricing_plan_id":"cebpf4jnsgd1na2vs0mg"},{"bike_id":"bad8b686-d4b1-4fd1-a906-eeff21f737a2","system_id":"levelo_inurba_marseille","lat":43.24175,"lon":5.39721,"is_reserved":false,"is_disabled":false,"rental_uris":{"android":"levelo://app?vid=bad8b686-d4b1-4fd1-a906-eeff21f737a2","ios":"levelo://app?vid=bad8b686-d4b1-4fd1-a906-eeff21f737a2"},"vehicle_type_id":"4","last_reported":1743523887,"current_range_meters":13600,"station_id":"ce4bhn12rcd13ifvqgpg","pricing_plan_id":"cebpf4jnsgd1na2vs0mg"},{"bike_id":"1e2b5904-95aa-4671-878b-f5d9d32c752f","system_id":"levelo_inurba_marseille","lat":43.28575,"lon":5.39501,"is_reserved":false,"is_disabled":false,"rental_uris":{"android":"levelo://app?vid=1e2b5904-95aa-4671-878b-f5d9d32c752f","ios":"levelo://app?vid=1e2b5904-95aa-4671-878b-f5d9d32c752f"},"vehicle_type_id":"4","last_reported":1743523887,"current_range_meters":13600,"station_id":"ce4bh292rcd13ifvqdg0","pricing_plan_id":"cebpf4jnsgd1na2vs0mg"},{"bike_id":"bb962793-1631-49d8-a62d-89c39352b24b","system_id":"levelo_inurba_marseille","lat":43.30551,"lon":5.36714,"is_reserved":false,"is_disabled":false,"rental_uris":{"android":"levelo://app?vid=bb962793-1631-49d8-a62d-89c39352b24b","ios":"levelo://app?vid=bb962793-1631-49d8-a62d-89c39352b24b"},"vehicle_type_id":"4","last_reported":1743523887,"current_range_meters":13600,"station_id":"ce4bgrp2rcd13ifvqc9g","pricing_plan_id":"cebpf4jnsgd1na2vs0mg"},{"bike_id":"effd04a1-593c-4657-981e-899c8e5cca60","system_id":"levelo_inurba_marseille","lat":43.26211,"lon":5.37926,"is_reserved":false,"is_disabled":false,"rental_uris":{"android":"levelo://app?vid=effd04a1-593c-4657-981e-899c8e5cca60","ios":"levelo://app?vid=effd04a1-593c-4657-981e-899c8e5cca60"},"vehicle_type_id":"4","last_reported":1743523887,"current_range_meters":13600,"station_id":"ce4bhjp2rcd13ifvqg90","pricing_plan_id":"cebpf4jnsgd1na2vs0mg"},{"bike_id":"7e82243d-870b-427d-be5b-425884f92d1c","system_id":"levelo_inurba_marseille","lat":43.28659,"lon":5.36354,"is_reserved":false,"is_disabled":false,"rental_uris":{"android":"levelo://app?vid=7e82243d-870b-427d-be5b-425884f92d1c","ios":"levelo://app?vid=7e82243d-870b-427d-be5b-425884f92d1c"},"vehicle_type_id":"4","last_reported":1743523887,"current_range_meters":13600,"station_id":"ce4bhah2rcd13ifvqej0","pricing_plan_id":"cebpf4jnsgd1na2vs0mg"},{"bike_id":"8c8c904f-4688-4edc-8d5e-ac5ec4c04aa2","system_id":"levelo_inurba_marseille","lat":43.26068,"lon":5.39393,"is_reserved":false,"is_disabled":true,"rental_uris":{"android":"levelo://app?vid=8c8c904f-4688-4edc-8d5e-ac5ec4c04aa2","ios":"levelo://app?vid=8c8c904f-4688-4edc-8d5e-ac5ec4c04aa2"},"vehicle_type_id":"4","last_reported":1743523887,"current_range_meters":14000,"station_id":"ce4bhh92rcd13ifvqfj0","pricing_plan_id":"cebpf4jnsgd1na2vs0mg"},{"bike_id":"95c89058-622b-4bf9-9367-8d2304112c26","system_id":"levelo_inurba_marseille","lat":43.27911,"lon":5.39588,"is_reserved":false,"is_disabled":false,"rental_uris":{"android":"levelo://app?vid=95c89058-622b-4bf9-9367-8d2304112c26","ios":"levelo://app?vid=95c89058-622b-4bf9-9367-8d2304112c26"},"vehicle_type_id":"4","last_reported":1743523887,"current_range_meters":14000,"station_id":"ce4bhf92rcd13ifvqf40","pricing_plan_id":"cebpf4jnsgd1na2vs0mg"},{"bike_id":"b5aca857-643c-4c5c-af25-c761000c7e1b","system_id":"levelo_inurba_marseille","lat":43.287209,"lon":5.373806,"is_reserved":false,"is_disabled":false,"rental_uris":{"android":"levelo://app?vid=b5aca857-643c-4c5c-af25-c761000c7e1b","ios":"levelo://app?vid=b5aca857-643c-4c5c-af25-c761000c7e1b"},"vehicle_type_id":"4","last_reported":1743523887,"current_range_meters":14000,"station_id":"ce4bh3p2rcd13ifvqdq0","pricing_plan_id":"cebpf4jnsgd1na2vs0mg"},{"bike_id":"937d9a14-c4ca-4abb-bf03-3878945f5aa5","system_id":"levelo_inurba_marseille","lat":43.29244,"lon":5.376494,"is_reserved":false,"is_disabled":false,"rental_uris":{"android":"levelo://app?vid=937d9a14-c4ca-4abb-bf03-3878945f5aa5","ios":"levelo://app?vid=937d9a14-c4ca-4abb-bf03-3878945f5aa5"},"vehicle_type_id":"4","last_reported":1743523887,"current_range_meters":14000,"station_id":"ce4bgi12rcd13ifvqb80","pricing_plan_id":"cebpf4jnsgd1na2vs0mg"},{"bike_id":"d662608d-504d-43ae-8d4a-6ba237d6c000","system_id":"levelo_inurba_marseille","lat":43.31078,"lon":5.40091,"is_reserved":false,"is_disabled":false,"rental_uris":{"android":"levelo://app?vid=d662608d-504d-43ae-8d4a-6ba237d6c000","ios":"levelo://app?vid=d662608d-504d-43ae-8d4a-6ba237d6c000"},"vehicle_type_id":"4","last_reported":1743523887,"current_range_meters":14000,"station_id":"","pricing_plan_id":"cebpf4jnsgd1na2vs0mg"},{"bike_id":"680d6ea3-e2ef-4241-ba3c-0936ae30977d","system_id":"levelo_inurba_marseille","lat":43.246624,"lon":5.389123,"is_reserved":false,"is_disabled":false,"rental_uris":{"android":"levelo://app?vid=680d6ea3-e2ef-4241-ba3c-0936ae30977d","ios":"levelo://app?vid=680d6ea3-e2ef-4241-ba3c-0936ae30977d"},"vehicle_type_id":"4","last_reported":1743523887,"current_range_meters":14000,"station_id":"ce4bhg12rcd13ifvqf60","pricing_plan_id":"cebpf4jnsgd1na2vs0mg"},{"bike_id":"17011927-5eb5-4a38-a132-35a6858ea1fb","system_id":"levelo_inurba_marseille","lat":43.30324,"lon":5.39235,"is_reserved":false,"is_disabled":true,"rental_uris":{"android":"levelo://app?vid=17011927-5eb5-4a38-a132-35a6858ea1fb","ios":"levelo://app?vid=17011927-5eb5-4a38-a132-35a6858ea1fb"},"vehicle_type_id":"4","last_reported":1743523887,"current_range_meters":14000,"station_id":"ce4bgkh2rcd13ifvqbk0","pricing_plan_id":"cebpf4jnsgd1na2vs0mg"},{"bike_id":"551c9afc-b64d-474e-a901-8b2a1c876329","system_id":"levelo_inurba_marseille","lat":43.26506,"lon":5.39536,"is_reserved":false,"is_disabled":false,"rental_uris":{"android":"levelo://app?vid=551c9afc-b64d-474e-a901-8b2a1c876329","ios":"levelo://app?vid=551c9afc-b64d-474e-a901-8b2a1c876329"},"vehicle_type_id":"4","last_reported":1743523887,"current_range_meters":14000,"station_id":"ce4bhi12rcd13ifvqfq0","pricing_plan_id":"cebpf4jnsgd1na2vs0mg"},{"bike_id":"b80ee275-2592-4659-b2e9-175feb839700","system_id":"levelo_inurba_marseille","lat":43.232011,"lon":5.355398,"is_reserved":false,"is_disabled":false,"rental_uris":{"android":"levelo://app?vid=b80ee275-2592-4659-b2e9-175feb839700","ios":"levelo://app?vid=b80ee275-2592-4659-b2e9-175feb839700"},"vehicle_type_id":"4","last_reported":1743523887,"current_range_meters":14400,"station_id":"ce4bhu92rcd13ifvqi70","pricing_plan_id":"cebpf4jnsgd1na2vs0mg"},{"bike_id":"f589c491-61bb-4ca1-aa3e-7e3bb3446950","system_id":"levelo_inurba_marseille","lat":43.23197,"lon":5.35556,"is_reserved":false,"is_disabled":false,"rental_uris":{"android":"levelo://app?vid=f589c491-61bb-4ca1-aa3e-7e3bb3446950","ios":"levelo://app?vid=f589c491-61bb-4ca1-aa3e-7e3bb3446950"},"vehicle_type_id":"4","last_reported":1743523887,"current_range_meters":14400,"station_id":"ce4bhu92rcd13ifvqi70","pricing_plan_id":"cebpf4jnsgd1na2vs0mg"},{"bike_id":"dd3db03f-0f43-4986-9ec8-2a76818fb28c","system_id":"levelo_inurba_marseille","lat":43.23208,"lon":5.35574,"is_reserved":false,"is_disabled":false,"rental_uris":{"android":"levelo://app?vid=dd3db03f-0f43-4986-9ec8-2a76818fb28c","ios":"levelo://app?vid=dd3db03f-0f43-4986-9ec8-2a76818fb28c"},"vehicle_type_id":"4","last_reported":1743523887,"current_range_meters":14400,"station_id":"ce4bhu92rcd13ifvqi70","pricing_plan_id":"cebpf4jnsgd1na2vs0mg"},{"bike_id":"c2fae8da-3fc3-44b1-879d-c8d1b88a2e89","system_id":"levelo_inurba_marseille","lat":43.27913,"lon":5.38009,"is_reserved":false,"is_disabled":false,"rental_uris":{"android":"levelo://app?vid=c2fae8da-3fc3-44b1-879d-c8d1b88a2e89","ios":"levelo://app?vid=c2fae8da-3fc3-44b1-879d-c8d1b88a2e89"},"vehicle_type_id":"4","last_reported":1743523887,"current_range_meters":14400,"station_id":"ce4bhf92rcd13ifvqf50","pricing_plan_id":"cebpf4jnsgd1na2vs0mg"},{"bike_id":"9053ac2e-ca6a-448e-8119-b229170f892a","system_id":"levelo_inurba_marseille","lat":43.28922,"lon":5.38406,"is_reserved":false,"is_disabled":false,"rental_uris":{"android":"levelo://app?vid=9053ac2e-ca6a-448e-8119-b229170f892a","ios":"levelo://app?vid=9053ac2e-ca6a-448e-8119-b229170f892a"},"vehicle_type_id":"4","last_reported":1743523887,"current_range_meters":14400,"station_id":"ce4bh612rcd13ifvqe6g","pricing_plan_id":"cebpf4jnsgd1na2vs0mg"},{"bike_id":"1886761a-d428-4c75-8156-0f40c5c89d00","system_id":"levelo_inurba_marseille","lat":43.30131,"lon":5.3986,"is_reserved":false,"is_disabled":false,"rental_uris":{"android":"levelo://app?vid=1886761a-d428-4c75-8156-0f40c5c89d00","ios":"levelo://app?vid=1886761a-d428-4c75-8156-0f40c5c89d00"},"vehicle_type_id":"4","last_reported":1743523887,"current_range_meters":14800,"station_id":"ce4bh0h2rcd13ifvqd40","pricing_plan_id":"cebpf4jnsgd1na2vs0mg"},{"bike_id":"ab3d0103-4a2f-4f2e-8ffb-851b77d43b37","system_id":"levelo_inurba_marseille","lat":43.28003,"lon":5.40007,"is_reserved":false,"is_disabled":false,"rental_uris":{"android":"levelo://app?vid=ab3d0103-4a2f-4f2e-8ffb-851b77d43b37","ios":"levelo://app?vid=ab3d0103-4a2f-4f2e-8ffb-851b77d43b37"},"vehicle_type_id":"4","last_reported":1743523887,"current_range_meters":14800,"station_id":"ce4bho92rcd13ifvqh4g","pricing_plan_id":"cebpf4jnsgd1na2vs0mg"},{"bike_id":"fa3df7d8-1bbb-4297-915c-4e2ccc3d71cc","system_id":"levelo_inurba_marseille","lat":43.303375,"lon":5.390896,"is_reserved":false,"is_disabled":false,"rental_uris":{"android":"levelo://app?vid=fa3df7d8-1bbb-4297-915c-4e2ccc3d71cc","ios":"levelo://app?vid=fa3df7d8-1bbb-4297-915c-4e2ccc3d71cc"},"vehicle_type_id":"4","last_reported":1743523887,"current_range_meters":14400,"station_id":"ce4bhb92rcd13ifvqen0","pricing_plan_id":"cebpf4jnsgd1na2vs0mg"},{"bike_id":"0ed80ee8-56b7-4580-8a94-56be39e58fa3","system_id":"levelo_inurba_marseille","lat":43.25588,"lon":5.38239,"is_reserved":false,"is_disabled":false,"rental_uris":{"android":"levelo://app?vid=0ed80ee8-56b7-4580-8a94-56be39e58fa3","ios":"levelo://app?vid=0ed80ee8-56b7-4580-8a94-56be39e58fa3"},"vehicle_type_id":"4","last_reported":1743523887,"current_range_meters":14800,"station_id":"ce4bhih2rcd13ifvqfs0","pricing_plan_id":"cebpf4jnsgd1na2vs0mg"},{"bike_id":"e4575841-85f2-4e7b-9e04-760affd0009f","system_id":"levelo_inurba_marseille","lat":43.28619,"lon":5.35104,"is_reserved":false,"is_disabled":false,"rental_uris":{"android":"levelo://app?vid=e4575841-85f2-4e7b-9e04-760affd0009f","ios":"levelo://app?vid=e4575841-85f2-4e7b-9e04-760affd0009f"},"vehicle_type_id":"4","last_reported":1743523887,"current_range_meters":14800,"station_id":"ce4bhch2rcd13ifvqeug","pricing_plan_id":"cebpf4jnsgd1na2vs0mg"},{"bike_id":"03fe0962-c4e5-4daa-85de-048a5f65841a","system_id":"levelo_inurba_marseille","lat":43.28435,"lon":5.35002,"is_reserved":false,"is_disabled":false,"rental_uris":{"android":"levelo://app?vid=03fe0962-c4e5-4daa-85de-048a5f65841a","ios":"levelo://app?vid=03fe0962-c4e5-4daa-85de-048a5f65841a"},"vehicle_type_id":"4","last_reported":1743523887,"current_range_meters":14800,"station_id":"ce4bhbh2rcd13ifvqepg","pricing_plan_id":"cebpf4jnsgd1na2vs0mg"},{"bike_id":"f243ee3c-9b98-451a-9f48-7ec3e30e2cbf","system_id":"levelo_inurba_marseille","lat":43.27913,"lon":5.39585,"is_reserved":false,"is_disabled":false,"rental_uris":{"android":"levelo://app?vid=f243ee3c-9b98-451a-9f48-7ec3e30e2cbf","ios":"levelo://app?vid=f243ee3c-9b98-451a-9f48-7ec3e30e2cbf"},"vehicle_type_id":"4","last_reported":1743523887,"current_range_meters":15200,"station_id":"ce4bhf92rcd13ifvqf40","pricing_plan_id":"cebpf4jnsgd1na2vs0mg"},{"bike_id":"ca032882-266e-418a-bfe7-e59727896cff","system_id":"levelo_inurba_marseille","lat":43.29961,"lon":5.41317,"is_reserved":false,"is_disabled":false,"rental_uris":{"android":"levelo://app?vid=ca032882-266e-418a-bfe7-e59727896cff","ios":"levelo://app?vid=ca032882-266e-418a-bfe7-e59727896cff"},"vehicle_type_id":"4","last_reported":1743523887,"current_range_meters":14800,"station_id":"ce4bhp12rcd13ifvqh9g","pricing_plan_id":"cebpf4jnsgd1na2vs0mg"},{"bike_id":"2b077733-2833-4ac8-b113-78ce737dcbd9","system_id":"levelo_inurba_marseille","lat":43.28002,"lon":5.4004,"is_reserved":false,"is_disabled":false,"rental_uris":{"android":"levelo://app?vid=2b077733-2833-4ac8-b113-78ce737dcbd9","ios":"levelo://app?vid=2b077733-2833-4ac8-b113-78ce737dcbd9"},"vehicle_type_id":"4","last_reported":1743523887,"current_range_meters":15200,"station_id":"ce4bho92rcd13ifvqh4g","pricing_plan_id":"cebpf4jnsgd1na2vs0mg"},{"bike_id":"ad8639f3-453e-4e19-b46c-464b354623d0","system_id":"levelo_inurba_marseille","lat":43.29418,"lon":5.38637,"is_reserved":false,"is_disabled":false,"rental_uris":{"android":"levelo://app?vid=ad8639f3-453e-4e19-b46c-464b354623d0","ios":"levelo://app?vid=ad8639f3-453e-4e19-b46c-464b354623d0"},"vehicle_type_id":"4","last_reported":1743523887,"current_range_meters":15200,"station_id":"ce4bh2h2rcd13ifvqdh0","pricing_plan_id":"cebpf4jnsgd1na2vs0mg"},{"bike_id":"9721a759-f49b-4860-aa27-8fbab3b1cf2c","system_id":"levelo_inurba_marseille","lat":43.30883,"lon":5.3719,"is_reserved":false,"is_disabled":false,"rental_uris":{"android":"levelo://app?vid=9721a759-f49b-4860-aa27-8fbab3b1cf2c","ios":"levelo://app?vid=9721a759-f49b-4860-aa27-8fbab3b1cf2c"},"vehicle_type_id":"4","last_reported":1743523887,"current_range_meters":15200,"station_id":"ce4bguh2rcd13ifvqckg","pricing_plan_id":"cebpf4jnsgd1na2vs0mg"},{"bike_id":"077070b5-80cc-4d57-a43c-848a5978784d","system_id":"levelo_inurba_marseille","lat":43.260645,"lon":5.393955,"is_reserved":false,"is_disabled":false,"rental_uris":{"android":"levelo://app?vid=077070b5-80cc-4d57-a43c-848a5978784d","ios":"levelo://app?vid=077070b5-80cc-4d57-a43c-848a5978784d"},"vehicle_type_id":"4","last_reported":1743523887,"current_range_meters":15200,"station_id":"ce4bhh92rcd13ifvqfj0","pricing_plan_id":"cebpf4jnsgd1na2vs0mg"},{"bike_id":"a5739eb8-2aee-4fe9-848b-ab3555671aa4","system_id":"levelo_inurba_marseille","lat":43.29457,"lon":5.39747,"is_reserved":false,"is_disabled":false,"rental_uris":{"android":"levelo://app?vid=a5739eb8-2aee-4fe9-848b-ab3555671aa4","ios":"levelo://app?vid=a5739eb8-2aee-4fe9-848b-ab3555671aa4"},"vehicle_type_id":"4","last_reported":1743523887,"current_range_meters":15200,"station_id":"ce4bh3h2rcd13ifvqdo0","pricing_plan_id":"cebpf4jnsgd1na2vs0mg"},{"bike_id":"a9ce41da-8233-4cc1-8d4a-af9547bbf906","system_id":"levelo_inurba_marseille","lat":43.30603,"lon":5.39358,"is_reserved":false,"is_disabled":false,"rental_uris":{"android":"levelo://app?vid=a9ce41da-8233-4cc1-8d4a-af9547bbf906","ios":"levelo://app?vid=a9ce41da-8233-4cc1-8d4a-af9547bbf906"},"vehicle_type_id":"4","last_reported":1743523887,"current_range_meters":15200,"station_id":"ce4bh0p2rcd13ifvqd80","pricing_plan_id":"cebpf4jnsgd1na2vs0mg"},{"bike_id":"f55695a6-b65f-4a30-99ab-94b2bfa63268","system_id":"levelo_inurba_marseille","lat":43.23185,"lon":5.35558,"is_reserved":false,"is_disabled":false,"rental_uris":{"android":"levelo://app?vid=f55695a6-b65f-4a30-99ab-94b2bfa63268","ios":"levelo://app?vid=f55695a6-b65f-4a30-99ab-94b2bfa63268"},"vehicle_type_id":"4","last_reported":1743523887,"current_range_meters":15200,"station_id":"ce4bhu92rcd13ifvqi70","pricing_plan_id":"cebpf4jnsgd1na2vs0mg"},{"bike_id":"eae44260-fa89-4dde-bed2-9dc919403c58","system_id":"levelo_inurba_marseille","lat":43.27876,"lon":5.37976,"is_reserved":false,"is_disabled":false,"rental_uris":{"android":"levelo://app?vid=eae44260-fa89-4dde-bed2-9dc919403c58","ios":"levelo://app?vid=eae44260-fa89-4dde-bed2-9dc919403c58"},"vehicle_type_id":"4","last_reported":1743523887,"current_range_meters":15200,"station_id":"ce4bhf92rcd13ifvqf50","pricing_plan_id":"cebpf4jnsgd1na2vs0mg"},{"bike_id":"df8f1dd9-ccbe-4014-bcdc-65a2ed7cbbcd","system_id":"levelo_inurba_marseille","lat":43.30595,"lon":5.36507,"is_reserved":false,"is_disabled":false,"rental_uris":{"android":"levelo://app?vid=df8f1dd9-ccbe-4014-bcdc-65a2ed7cbbcd","ios":"levelo://app?vid=df8f1dd9-ccbe-4014-bcdc-65a2ed7cbbcd"},"vehicle_type_id":"4","last_reported":1743523887,"current_range_meters":15200,"station_id":"","pricing_plan_id":"cebpf4jnsgd1na2vs0mg"},{"bike_id":"ef49a497-7fb4-4909-944f-498cb840c67c","system_id":"levelo_inurba_marseille","lat":43.28673,"lon":5.38673,"is_reserved":false,"is_disabled":false,"rental_uris":{"android":"levelo://app?vid=ef49a497-7fb4-4909-944f-498cb840c67c","ios":"levelo://app?vid=ef49a497-7fb4-4909-944f-498cb840c67c"},"vehicle_type_id":"4","last_reported":1743523887,"current_range_meters":15200,"station_id":"ce4bh492rcd13ifvqdug","pricing_plan_id":"cebpf4jnsgd1na2vs0mg"},{"bike_id":"d2296d13-f03d-4aba-bfdf-7d37d24c21d5","system_id":"levelo_inurba_marseille","lat":43.28448,"lon":5.39204,"is_reserved":false,"is_disabled":false,"rental_uris":{"android":"levelo://app?vid=d2296d13-f03d-4aba-bfdf-7d37d24c21d5","ios":"levelo://app?vid=d2296d13-f03d-4aba-bfdf-7d37d24c21d5"},"vehicle_type_id":"4","last_reported":1743523887,"current_range_meters":15200,"station_id":"ce4bhoh2rcd13ifvqh5g","pricing_plan_id":"cebpf4jnsgd1na2vs0mg"},{"bike_id":"d7045921-f1e9-4f00-924b-59a57bde6ed8","system_id":"levelo_inurba_marseille","lat":43.31328,"lon":5.3969,"is_reserved":false,"is_disabled":false,"rental_uris":{"android":"levelo://app?vid=d7045921-f1e9-4f00-924b-59a57bde6ed8","ios":"levelo://app?vid=d7045921-f1e9-4f00-924b-59a57bde6ed8"},"vehicle_type_id":"4","last_reported":1743523887,"current_range_meters":15200,"station_id":"ce4bgvp2rcd13ifvqcu0","pricing_plan_id":"cebpf4jnsgd1na2vs0mg"},{"bike_id":"75dae32f-059a-4b5b-a5e8-963c6eda2f66","system_id":"levelo_inurba_marseille","lat":43.27515,"lon":5.41057,"is_reserved":false,"is_disabled":false,"rental_uris":{"android":"levelo://app?vid=75dae32f-059a-4b5b-a5e8-963c6eda2f66","ios":"levelo://app?vid=75dae32f-059a-4b5b-a5e8-963c6eda2f66"},"vehicle_type_id":"4","last_reported":1743523887,"current_range_meters":15200,"station_id":"","pricing_plan_id":"cebpf4jnsgd1na2vs0mg"},{"bike_id":"048526f8-409c-4881-a29c-121d4afcd420","system_id":"levelo_inurba_marseille","lat":43.29871,"lon":5.39709,"is_reserved":false,"is_disabled":false,"rental_uris":{"android":"levelo://app?vid=048526f8-409c-4881-a29c-121d4afcd420","ios":"levelo://app?vid=048526f8-409c-4881-a29c-121d4afcd420"},"vehicle_type_id":"4","last_reported":1743523887,"current_range_meters":16000,"station_id":"ce4bh0h2rcd13ifvqd50","pricing_plan_id":"cebpf4jnsgd1na2vs0mg"},{"bike_id":"7b869cea-1d61-42d2-b04b-29df5bd7497f","system_id":"levelo_inurba_marseille","lat":43.32111,"lon":5.36811,"is_reserved":false,"is_disabled":false,"rental_uris":{"android":"levelo://app?vid=7b869cea-1d61-42d2-b04b-29df5bd7497f","ios":"levelo://app?vid=7b869cea-1d61-42d2-b04b-29df5bd7497f"},"vehicle_type_id":"4","last_reported":1743523887,"current_range_meters":16000,"station_id":"ce4bhrh2rcd13ifvqhug","pricing_plan_id":"cebpf4jnsgd1na2vs0mg"},{"bike_id":"8b22119f-8e4e-402a-8d97-b4352e829e1a","system_id":"levelo_inurba_marseille","lat":43.28472,"lon":5.35879,"is_reserved":false,"is_disabled":false,"rental_uris":{"android":"levelo://app?vid=8b22119f-8e4e-402a-8d97-b4352e829e1a","ios":"levelo://app?vid=8b22119f-8e4e-402a-8d97-b4352e829e1a"},"vehicle_type_id":"4","last_reported":1743523887,"current_range_meters":18000,"station_id":"ce4bhah2rcd13ifvqei0","pricing_plan_id":"cebpf4jnsgd1na2vs0mg"},{"bike_id":"7be06644-e888-41f2-9c08-173a9a3965bc","system_id":"levelo_inurba_marseille","lat":43.231889,"lon":5.399881,"is_reserved":false,"is_disabled":false,"rental_uris":{"android":"levelo://app?vid=7be06644-e888-41f2-9c08-173a9a3965bc","ios":"levelo://app?vid=7be06644-e888-41f2-9c08-173a9a3965bc"},"vehicle_type_id":"4","last_reported":1743523887,"current_range_meters":16000,"station_id":"ce4bhn12rcd13ifvqgqg","pricing_plan_id":"cebpf4jnsgd1na2vs0mg"},{"bike_id":"a680fcef-3560-458d-9c46-af5039ad5317","system_id":"levelo_inurba_marseille","lat":43.26538,"lon":5.37268,"is_reserved":false,"is_disabled":false,"rental_uris":{"android":"levelo://app?vid=a680fcef-3560-458d-9c46-af5039ad5317","ios":"levelo://app?vid=a680fcef-3560-458d-9c46-af5039ad5317"},"vehicle_type_id":"4","last_reported":1743523887,"current_range_meters":16000,"station_id":"ce4bhg12rcd13ifvqf70","pricing_plan_id":"cebpf4jnsgd1na2vs0mg"},{"bike_id":"64d267a9-f77f-46f7-9279-a4d553f59527","system_id":"levelo_inurba_marseille","lat":43.28625,"lon":5.35117,"is_reserved":false,"is_disabled":false,"rental_uris":{"android":"levelo://app?vid=64d267a9-f77f-46f7-9279-a4d553f59527","ios":"levelo://app?vid=64d267a9-f77f-46f7-9279-a4d553f59527"},"vehicle_type_id":"4","last_reported":1743523887,"current_range_meters":16000,"station_id":"ce4bhch2rcd13ifvqeug","pricing_plan_id":"cebpf4jnsgd1na2vs0mg"},{"bike_id":"4f6e66b1-344d-4b00-a2f2-5cfb6e845a1e","system_id":"levelo_inurba_marseille","lat":43.30885,"lon":5.37179,"is_reserved":false,"is_disabled":false,"rental_uris":{"android":"levelo://app?vid=4f6e66b1-344d-4b00-a2f2-5cfb6e845a1e","ios":"levelo://app?vid=4f6e66b1-344d-4b00-a2f2-5cfb6e845a1e"},"vehicle_type_id":"4","last_reported":1743523887,"current_range_meters":16000,"station_id":"ce4bguh2rcd13ifvqckg","pricing_plan_id":"cebpf4jnsgd1na2vs0mg"},{"bike_id":"1bec4234-93d5-4c63-9ad7-9f2c019e2f28","system_id":"levelo_inurba_marseille","lat":43.29043,"lon":5.39965,"is_reserved":false,"is_disabled":false,"rental_uris":{"android":"levelo://app?vid=1bec4234-93d5-4c63-9ad7-9f2c019e2f28","ios":"levelo://app?vid=1bec4234-93d5-4c63-9ad7-9f2c019e2f28"},"vehicle_type_id":"4","last_reported":1743523887,"current_range_meters":16000,"station_id":"ce4bh392rcd13ifvqdm0","pricing_plan_id":"cebpf4jnsgd1na2vs0mg"},{"bike_id":"87ac0446-76c6-4cbf-9d33-c33a5ec7d106","system_id":"levelo_inurba_marseille","lat":43.27989,"lon":5.40043,"is_reserved":false,"is_disabled":false,"rental_uris":{"android":"levelo://app?vid=87ac0446-76c6-4cbf-9d33-c33a5ec7d106","ios":"levelo://app?vid=87ac0446-76c6-4cbf-9d33-c33a5ec7d106"},"vehicle_type_id":"4","last_reported":1743523887,"current_range_meters":16000,"station_id":"ce4bho92rcd13ifvqh4g","pricing_plan_id":"cebpf4jnsgd1na2vs0mg"},{"bike_id":"4d457a79-c686-48a4-ab95-b7508f2ecbcc","system_id":"levelo_inurba_marseille","lat":43.29273,"lon":5.37596,"is_reserved":false,"is_disabled":false,"rental_uris":{"android":"levelo://app?vid=4d457a79-c686-48a4-ab95-b7508f2ecbcc","ios":"levelo://app?vid=4d457a79-c686-48a4-ab95-b7508f2ecbcc"},"vehicle_type_id":"4","last_reported":1743523887,"current_range_meters":16400,"station_id":"ce4bgi12rcd13ifvqb80","pricing_plan_id":"cebpf4jnsgd1na2vs0mg"},{"bike_id":"3b71b32f-972b-46a4-ba99-78465b89ee13","system_id":"levelo_inurba_marseille","lat":43.30327,"lon":5.40427,"is_reserved":false,"is_disabled":false,"rental_uris":{"android":"levelo://app?vid=3b71b32f-972b-46a4-ba99-78465b89ee13","ios":"levelo://app?vid=3b71b32f-972b-46a4-ba99-78465b89ee13"},"vehicle_type_id":"4","last_reported":1743523887,"current_range_meters":16400,"station_id":"ce4bh012rcd13ifvqd10","pricing_plan_id":"cebpf4jnsgd1na2vs0mg"},{"bike_id":"d157a8ac-f1ea-480a-a1ee-9ac00962bb01","system_id":"levelo_inurba_marseille","lat":43.29554,"lon":5.42283,"is_reserved":false,"is_disabled":false,"rental_uris":{"android":"levelo://app?vid=d157a8ac-f1ea-480a-a1ee-9ac00962bb01","ios":"levelo://app?vid=d157a8ac-f1ea-480a-a1ee-9ac00962bb01"},"vehicle_type_id":"4","last_reported":1743523887,"current_range_meters":16400,"station_id":"ce4bhph2rcd13ifvqhdg","pricing_plan_id":"cebpf4jnsgd1na2vs0mg"},{"bike_id":"414b1618-8907-418c-9232-e3993fbc4299","system_id":"levelo_inurba_marseille","lat":43.32,"lon":5.38154,"is_reserved":false,"is_disabled":false,"rental_uris":{"android":"levelo://app?vid=414b1618-8907-418c-9232-e3993fbc4299","ios":"levelo://app?vid=414b1618-8907-418c-9232-e3993fbc4299"},"vehicle_type_id":"4","last_reported":1743523887,"current_range_meters":16400,"station_id":"ce4bhr12rcd13ifvqhpg","pricing_plan_id":"cebpf4jnsgd1na2vs0mg"},{"bike_id":"ee8045b8-79f0-437a-8208-2821d28fa36d","system_id":"levelo_inurba_marseille","lat":43.28639,"lon":5.35132,"is_reserved":false,"is_disabled":false,"rental_uris":{"android":"levelo://app?vid=ee8045b8-79f0-437a-8208-2821d28fa36d","ios":"levelo://app?vid=ee8045b8-79f0-437a-8208-2821d28fa36d"},"vehicle_type_id":"4","last_reported":1743523887,"current_range_meters":16400,"station_id":"ce4bhch2rcd13ifvqeug","pricing_plan_id":"cebpf4jnsgd1na2vs0mg"},{"bike_id":"20e37ee5-4144-46f6-ae82-ff86e3144909","system_id":"levelo_inurba_marseille","lat":43.3057,"lon":5.36712,"is_reserved":false,"is_disabled":false,"rental_uris":{"android":"levelo://app?vid=20e37ee5-4144-46f6-ae82-ff86e3144909","ios":"levelo://app?vid=20e37ee5-4144-46f6-ae82-ff86e3144909"},"vehicle_type_id":"4","last_reported":1743523887,"current_range_meters":16400,"station_id":"ce4bgrp2rcd13ifvqc9g","pricing_plan_id":"cebpf4jnsgd1na2vs0mg"},{"bike_id":"07958e7d-5787-4c8a-a781-0ee21b7cb5ca","system_id":"levelo_inurba_marseille","lat":43.28141,"lon":5.37846,"is_reserved":false,"is_disabled":false,"rental_uris":{"android":"levelo://app?vid=07958e7d-5787-4c8a-a781-0ee21b7cb5ca","ios":"levelo://app?vid=07958e7d-5787-4c8a-a781-0ee21b7cb5ca"},"vehicle_type_id":"4","last_reported":1743523887,"current_range_meters":16400,"station_id":"ce4bha12rcd13ifvqee0","pricing_plan_id":"cebpf4jnsgd1na2vs0mg"},{"bike_id":"88dbd027-7b05-4c40-9cde-ac00a9fed7b0","system_id":"levelo_inurba_marseille","lat":43.308,"lon":5.43507,"is_reserved":false,"is_disabled":false,"rental_uris":{"android":"levelo://app?vid=88dbd027-7b05-4c40-9cde-ac00a9fed7b0","ios":"levelo://app?vid=88dbd027-7b05-4c40-9cde-ac00a9fed7b0"},"vehicle_type_id":"4","last_reported":1743523887,"current_range_meters":16400,"station_id":"ce4bhph2rcd13ifvqheg","pricing_plan_id":"cebpf4jnsgd1na2vs0mg"},{"bike_id":"b6144d09-6dd1-4ca4-97f5-4ec37918d3dd","system_id":"levelo_inurba_marseille","lat":43.26687,"lon":5.38271,"is_reserved":false,"is_disabled":true,"rental_uris":{"android":"levelo://app?vid=b6144d09-6dd1-4ca4-97f5-4ec37918d3dd","ios":"levelo://app?vid=b6144d09-6dd1-4ca4-97f5-4ec37918d3dd"},"vehicle_type_id":"4","last_reported":1743523887,"current_range_meters":16400,"station_id":"ce4bhg92rcd13ifvqf90","pricing_plan_id":"cebpf4jnsgd1na2vs0mg"},{"bike_id":"7408871e-c525-4dcf-9189-15a12bf2355d","system_id":"levelo_inurba_marseille","lat":43.26553,"lon":5.373,"is_reserved":false,"is_disabled":false,"rental_uris":{"android":"levelo://app?vid=7408871e-c525-4dcf-9189-15a12bf2355d","ios":"levelo://app?vid=7408871e-c525-4dcf-9189-15a12bf2355d"},"vehicle_type_id":"4","last_reported":1743523887,"current_range_meters":16400,"station_id":"ce4bhg12rcd13ifvqf70","pricing_plan_id":"cebpf4jnsgd1na2vs0mg"},{"bike_id":"4e03cd8f-595f-4da6-b751-38ed2c7d3d6b","system_id":"levelo_inurba_marseille","lat":43.31455,"lon":5.37393,"is_reserved":false,"is_disabled":false,"rental_uris":{"android":"levelo://app?vid=4e03cd8f-595f-4da6-b751-38ed2c7d3d6b","ios":"levelo://app?vid=4e03cd8f-595f-4da6-b751-38ed2c7d3d6b"},"vehicle_type_id":"4","last_reported":1743523887,"current_range_meters":16400,"station_id":"","pricing_plan_id":"cebpf4jnsgd1na2vs0mg"},{"bike_id":"ae849b2a-959d-46d9-9034-f2c31e544af2","system_id":"levelo_inurba_marseille","lat":43.28584,"lon":5.39501,"is_reserved":false,"is_disabled":false,"rental_uris":{"android":"levelo://app?vid=ae849b2a-959d-46d9-9034-f2c31e544af2","ios":"levelo://app?vid=ae849b2a-959d-46d9-9034-f2c31e544af2"},"vehicle_type_id":"4","last_reported":1743523887,"current_range_meters":16400,"station_id":"ce4bh292rcd13ifvqdg0","pricing_plan_id":"cebpf4jnsgd1na2vs0mg"},{"bike_id":"89ec85da-3d66-44c4-ba32-45121e50a416","system_id":"levelo_inurba_marseille","lat":43.30556,"lon":5.36522,"is_reserved":false,"is_disabled":false,"rental_uris":{"android":"levelo://app?vid=89ec85da-3d66-44c4-ba32-45121e50a416","ios":"levelo://app?vid=89ec85da-3d66-44c4-ba32-45121e50a416"},"vehicle_type_id":"4","last_reported":1743523887,"current_range_meters":16800,"station_id":"ce4bgs12rcd13ifvqcag","pricing_plan_id":"cebpf4jnsgd1na2vs0mg"},{"bike_id":"60565ac3-703a-4eb1-a913-a3096dad7e9b","system_id":"levelo_inurba_marseille","lat":43.32368,"lon":5.3889,"is_reserved":false,"is_disabled":false,"rental_uris":{"android":"levelo://app?vid=60565ac3-703a-4eb1-a913-a3096dad7e9b","ios":"levelo://app?vid=60565ac3-703a-4eb1-a913-a3096dad7e9b"},"vehicle_type_id":"4","last_reported":1743523887,"current_range_meters":16800,"station_id":"ce4bhqp2rcd13ifvqhog","pricing_plan_id":"cebpf4jnsgd1na2vs0mg"},{"bike_id":"1a346cc6-dc71-4bf1-9b80-dea4b47b07ad","system_id":"levelo_inurba_marseille","lat":43.27673,"lon":5.3887,"is_reserved":false,"is_disabled":true,"rental_uris":{"android":"levelo://app?vid=1a346cc6-dc71-4bf1-9b80-dea4b47b07ad","ios":"levelo://app?vid=1a346cc6-dc71-4bf1-9b80-dea4b47b07ad"},"vehicle_type_id":"4","last_reported":1743523887,"current_range_meters":16800,"station_id":"ce4bhi12rcd13ifvqfo0","pricing_plan_id":"cebpf4jnsgd1na2vs0mg"},{"bike_id":"1d4eb565-73cc-4084-9e0d-921f97151adc","system_id":"levelo_inurba_marseille","lat":43.28623,"lon":5.35101,"is_reserved":false,"is_disabled":false,"rental_uris":{"android":"levelo://app?vid=1d4eb565-73cc-4084-9e0d-921f97151adc","ios":"levelo://app?vid=1d4eb565-73cc-4084-9e0d-921f97151adc"},"vehicle_type_id":"4","last_reported":1743523887,"current_range_meters":16800,"station_id":"ce4bhch2rcd13ifvqeug","pricing_plan_id":"cebpf4jnsgd1na2vs0mg"},{"bike_id":"ddf4f7bc-b429-4ca6-98cc-3ac180d0ed5f","system_id":"levelo_inurba_marseille","lat":43.23193,"lon":5.35566,"is_reserved":false,"is_disabled":false,"rental_uris":{"android":"levelo://app?vid=ddf4f7bc-b429-4ca6-98cc-3ac180d0ed5f","ios":"levelo://app?vid=ddf4f7bc-b429-4ca6-98cc-3ac180d0ed5f"},"vehicle_type_id":"4","last_reported":1743523887,"current_range_meters":16800,"station_id":"ce4bhu92rcd13ifvqi70","pricing_plan_id":"cebpf4jnsgd1na2vs0mg"},{"bike_id":"c91da42f-6fe5-4904-affe-04dbffd94113","system_id":"levelo_inurba_marseille","lat":43.28355,"lon":5.38649,"is_reserved":false,"is_disabled":false,"rental_uris":{"android":"levelo://app?vid=c91da42f-6fe5-4904-affe-04dbffd94113","ios":"levelo://app?vid=c91da42f-6fe5-4904-affe-04dbffd94113"},"vehicle_type_id":"4","last_reported":1743523887,"current_range_meters":17200,"station_id":"ce4bh492rcd13ifvqdvg","pricing_plan_id":"cebpf4jnsgd1na2vs0mg"},{"bike_id":"81a9ab6a-4096-42e3-a5f1-39db9639f79b","system_id":"levelo_inurba_marseille","lat":43.28672,"lon":5.3636,"is_reserved":false,"is_disabled":false,"rental_uris":{"android":"levelo://app?vid=81a9ab6a-4096-42e3-a5f1-39db9639f79b","ios":"levelo://app?vid=81a9ab6a-4096-42e3-a5f1-39db9639f79b"},"vehicle_type_id":"4","last_reported":1743523887,"current_range_meters":16800,"station_id":"ce4bhah2rcd13ifvqej0","pricing_plan_id":"cebpf4jnsgd1na2vs0mg"},{"bike_id":"2fcf5b74-dc86-43a5-ba88-a217cecd519f","system_id":"levelo_inurba_marseille","lat":43.23187,"lon":5.39952,"is_reserved":false,"is_disabled":false,"rental_uris":{"android":"levelo://app?vid=2fcf5b74-dc86-43a5-ba88-a217cecd519f","ios":"levelo://app?vid=2fcf5b74-dc86-43a5-ba88-a217cecd519f"},"vehicle_type_id":"4","last_reported":1743523887,"current_range_meters":16800,"station_id":"ce4bhn12rcd13ifvqgqg","pricing_plan_id":"cebpf4jnsgd1na2vs0mg"},{"bike_id":"b6967ef8-8308-4e0c-bb97-0db832ec5ea6","system_id":"levelo_inurba_marseille","lat":43.29544,"lon":5.42243,"is_reserved":false,"is_disabled":false,"rental_uris":{"android":"levelo://app?vid=b6967ef8-8308-4e0c-bb97-0db832ec5ea6","ios":"levelo://app?vid=b6967ef8-8308-4e0c-bb97-0db832ec5ea6"},"vehicle_type_id":"4","last_reported":1743523887,"current_range_meters":17200,"station_id":"ce4bhph2rcd13ifvqhdg","pricing_plan_id":"cebpf4jnsgd1na2vs0mg"},{"bike_id":"c87dfbca-94ac-4e34-ad01-a0fbfbff32de","system_id":"levelo_inurba_marseille","lat":43.280367,"lon":5.369451,"is_reserved":false,"is_disabled":false,"rental_uris":{"android":"levelo://app?vid=c87dfbca-94ac-4e34-ad01-a0fbfbff32de","ios":"levelo://app?vid=c87dfbca-94ac-4e34-ad01-a0fbfbff32de"},"vehicle_type_id":"4","last_reported":1743523887,"current_range_meters":17200,"station_id":"ce4bha12rcd13ifvqef0","pricing_plan_id":"cebpf4jnsgd1na2vs0mg"},{"bike_id":"1105a73c-527f-4dd3-b633-fa1b1c130272","system_id":"levelo_inurba_marseille","lat":43.26573,"lon":5.37311,"is_reserved":false,"is_disabled":false,"rental_uris":{"android":"levelo://app?vid=1105a73c-527f-4dd3-b633-fa1b1c130272","ios":"levelo://app?vid=1105a73c-527f-4dd3-b633-fa1b1c130272"},"vehicle_type_id":"4","last_reported":1743523887,"current_range_meters":17200,"station_id":"ce4bhg12rcd13ifvqf70","pricing_plan_id":"cebpf4jnsgd1na2vs0mg"},{"bike_id":"a83fcdbb-98fb-439d-b99a-d47786a0988e","system_id":"levelo_inurba_marseille","lat":43.27194,"lon":5.40977,"is_reserved":false,"is_disabled":false,"rental_uris":{"android":"levelo://app?vid=a83fcdbb-98fb-439d-b99a-d47786a0988e","ios":"levelo://app?vid=a83fcdbb-98fb-439d-b99a-d47786a0988e"},