{"last_updated":1705648036,"ttl":30,"version":"2.2","data":{"bikes":[{"bike_id":"97f08bf8-1ec8-41a0-9009-c1b03f85bd6a","system_id":"levelo_inurba_marseille","lat":43.31341,"lon":5.367098,"is_reserved":false,"is_disabled":false,"rental_uris":{"android":"levelo://app?vid=97f08bf8-1ec8-41a0-9009-c1b03f85bd6a","ios":"levelo://app?vid=97f08bf8-1ec8-41a0-9009-c1b03f85bd6a"},"vehicle_type_id":"4","last_reported":1705648036,"current_range_meters":4000,"station_id":"ce4bgr92rcd13ifvqc6g","pricing_plan_id":"free"},{"bike_id":"21f47aa9-7888-4e15-b6ad-53dcb49ea195","system_id":"levelo_inurba_marseille","lat":43.313391,"lon":5.36706,"is_reserved":false,"is_disabled":false,"rental_uris":{"android":"levelo://app?vid=21f47aa9-7888-4e15-b6ad-53dcb49ea195","ios":"levelo://app?vid=21f47aa9-7888-4e15-b6ad-53dcb49ea195"},"vehicle_type_id":"4","last_reported":1705648036,"current_range_meters":27200,"station_id":"ce4bgr92rcd13ifvqc6g","pricing_plan_id":"free"},{"bike_id":"11ea3866-1832-421d-8345-c8122112d6c1","system_id":"levelo_inurba_marseille","lat":43.313391,"lon":5.36706,"is_reserved":false,"is_disabled":false,"rental_uris":{"android":"levelo://app?vid=11ea3866-1832-421d-8345-c8122112d6c1","ios":"levelo://app?vid=11ea3866-1832-421d-8345-c8122112d6c1"},"vehicle_type_id":"4","last_reported":1705648036,"current_range_meters":6400,"station_id":"ce4bgr92rcd13ifvqc6g","pricing_plan_id":"free"},{"bike_id":"6032d1ea-954a-4972-b4e6-53cf6f2a7168","system_id":"levelo_inurba_marseille","lat":43.312239,"lon":5.368562,"is_reserved":false,"is_disabled":false,"rental_uris":{"android":"levelo://app?vid=6032d1ea-954a-4972-b4e6-53cf6f2a7168","ios":"levelo://app?vid=6032d1ea-954a-4972-b4e6-53cf6f2a7168"},"vehicle_type_id":"4","last_reported":1705648036,"current_range_meters":27600,"station_id":"ce4bgl92rcd13ifvqbq0","pricing_plan_id":"free"},{"bike_id":"8d10b4d2-ffc4-4c9c-aefd-ffbd23cc5e98","system_id":"levelo_inurba_marseille","lat":43.312239,"lon":5.368562,"is_reserved":false,"is_disabled":false,"rental_uris":{"android":"levelo://app?vid=8d10b4d2-ffc4-4c9c-aefd-ffbd23cc5e98","ios":"levelo://app?vid=8d10b4d2-ffc4-4c9c-aefd-ffbd23cc5e98"},"vehicle_type_id":"4","last_reported":1705648036,"current_range_meters":27600,"station_id":"ce4bgl92rcd13ifvqbq0","pricing_plan_id":"free"},{"bike_id":"f0ee75e9-678a-4b18-b6c9-bca33982961c","system_id":"levelo_inurba_marseille","lat":43.309076,"lon":5.368465,"is_reserved":false,"is_disabled":false,"rental_uris":{"android":"levelo://app?vid=f0ee75e9-678a-4b18-b6c9-bca33982961c","ios":"levelo://app?vid=f0ee75e9-678a-4b18-b6c9-bca33982961c"},"vehicle_type_id":"4","last_reported":1705648036,"current_range_meters":30400,"station_id":"ce4bgn92rcd13ifvqbvg","pricing_plan_id":"free"},{"bike_id":"7f57cc82-d70c-4c1a-ba34-96ebd763daa3","system_id":"levelo_inurba_marseille","lat":43.310477,"lon":5.371359,"is_reserved":false,"is_disabled":false,"rental_uris":{"android":"levelo://app?vid=7f57cc82-d70c-4c1a-ba34-96ebd763daa3","ios":"levelo://app?vid=7f57cc82-d70c-4c1a-ba34-96ebd763daa3"},"vehicle_type_id":"4","last_reported":1705648036,"current_range_meters":3200,"station_id":"","pricing_plan_id":"free"},{"bike_id":"7f6fd0f9-e357-4cf5-8c98-f161d9b27fac","system_id":"levelo_inurba_marseille","lat":43.314811,"lon":5.373103,"is_reserved":false,"is_disabled":false,"rental_uris":{"android":"levelo://app?vid=7f6fd0f9-e357-4cf5-8c98-f161d9b27fac","ios":"levelo://app?vid=7f6fd0f9-e357-4cf5-8c98-f161d9b27fac"},"vehicle_type_id":"4","last_reported":1705648036,"current_range_meters":29200,"station_id":"ce4bgt12rcd13ifvqcd0","pricing_plan_id":"free"},{"bike_id":"68cb40b2-684c-45a9-a526-3a161654aa25","system_id":"levelo_inurba_marseille","lat":43.31484,"lon":5.37303,"is_reserved":false,"is_disabled":false,"rental_uris":{"android":"levelo://app?vid=68cb40b2-684c-45a9-a526-3a161654aa25","ios":"levelo://app?vid=68cb40b2-684c-45a9-a526-3a161654aa25"},"vehicle_type_id":"4","last_reported":1705648036,"current_range_meters":3600,"station_id":"ce4bgt12rcd13ifvqcd0","pricing_plan_id":"free"},{"bike_id":"b8850593-5fd1-4141-b7e1-95cc17a7818c","system_id":"levelo_inurba_marseille","lat":43.314811,"lon":5.373104,"is_reserved":false,"is_disabled":false,"rental_uris":{"android":"levelo://app?vid=b8850593-5fd1-4141-b7e1-95cc17a7818c","ios":"levelo://app?vid=b8850593-5fd1-4141-b7e1-95cc17a7818c"},"vehicle_type_id":"4","last_reported":1705648036,"current_range_meters":4000,"station_id":"ce4bgt12rcd13ifvqcd0","pricing_plan_id":"free"},{"bike_id":"fc86e187-24cd-438e-b959-a2e66411c122","system_id":"levelo_inurba_marseille","lat":43.309039,"lon":5.371797,"is_reserved":false,"is_disabled":false,"rental_uris":{"android":"levelo://app?vid=fc86e187-24cd-438e-b959-a2e66411c122","ios":"levelo://app?vid=fc86e187-24cd-438e-b959-a2e66411c122"},"vehicle_type_id":"4","last_reported":1705648036,"current_range_meters":28000,"station_id":"ce4bguh2rcd13ifvqckg","pricing_plan_id":"free"},{"bike_id":"5f838d90-cace-47c8-a8c2-671dc5a298a6","system_id":"levelo_inurba_marseille","lat":43.309039,"lon":5.371797,"is_reserved":false,"is_disabled":false,"rental_uris":{"android":"levelo://app?vid=5f838d90-cace-47c8-a8c2-671dc5a298a6","ios":"levelo://app?vid=5f838d90-cace-47c8-a8c2-671dc5a298a6"},"vehicle_type_id":"4","last_reported":1705648036,"current_range_meters":20000,"station_id":"ce4bguh2rcd13ifvqckg","pricing_plan_id":"free"},{"bike_id":"046a39d3-6e80-431c-a0be-137415dccbf7","system_id":"levelo_inurba_marseille","lat":43.309039,"lon":5.371797,"is_reserved":false,"is_disabled":false,"rental_uris":{"android":"levelo://app?vid=046a39d3-6e80-431c-a0be-137415dccbf7","ios":"levelo://app?vid=046a39d3-6e80-431c-a0be-137415dccbf7"},"vehicle_type_id":"4","last_reported":1705648036,"current_range_meters":31600,"station_id":"ce4bguh2rcd13ifvqckg","pricing_plan_id":"free"},{"bike_id":"357b62b6-9c8d-4ca8-b807-4e45847eea8b","system_id":"levelo_inurba_marseille","lat":43.309039,"lon":5.371797,"is_reserved":false,"is_disabled":false,"rental_uris":{"android":"levelo://app?vid=357b62b6-9c8d-4ca8-b807-4e45847eea8b","ios":"levelo://app?vid=357b62b6-9c8d-4ca8-b807-4e45847eea8b"},"vehicle_type_id":"4","last_reported":1705648036,"current_range_meters":17200,"station_id":"ce4bguh2rcd13ifvqckg","pricing_plan_id":"free"},{"bike_id":"bdeb0438-bfe3-4562-91e3-8d67a00a1d8d","system_id":"levelo_inurba_marseille","lat":43.309039,"lon":5.371797,"is_reserved":false,"is_disabled":false,"rental_uris":{"android":"levelo://app?vid=bdeb0438-bfe3-4562-91e3-8d67a00a1d8d","ios":"levelo://app?vid=bdeb0438-bfe3-4562-91e3-8d67a00a1d8d"},"vehicle_type_id":"4","last_reported":1705648036,"current_range_meters":23600,"station_id":"ce4bguh2rcd13ifvqckg","pricing_plan_id":"free"},{"bike_id":"0b579656-9bde-41d2-a1f7-a6691603f6d4","system_id":"levelo_inurba_marseille","lat":43.309039,"lon":5.371797,"is_reserved":false,"is_disabled":false,"rental_uris":{"android":"levelo://app?vid=0b579656-9bde-41d2-a1f7-a6691603f6d4","ios":"levelo://app?vid=0b579656-9bde-41d2-a1f7-a6691603f6d4"},"vehicle_type_id":"4","last_reported":1705648036,"current_range_meters":20000,"station_id":"ce4bguh2rcd13ifvqckg","pricing_plan_id":"free"},{"bike_id":"5b4c658e-4c00-4dea-be99-79dd98b62fc6","system_id":"levelo_inurba_marseille","lat":43.309039,"lon":5.371797,"is_reserved":false,"is_disabled":false,"rental_uris":{"android":"levelo://app?vid=5b4c658e-4c00-4dea-be99-79dd98b62fc6","ios":"levelo://app?vid=5b4c658e-4c00-4dea-be99-79dd98b62fc6"},"vehicle_type_id":"4","last_reported":1705648036,"current_range_meters":21600,"station_id":"ce4bguh2rcd13ifvqckg","pricing_plan_id":"free"},{"bike_id":"d984e707-eae5-45a6-b19a-6c8514e957b6","system_id":"levelo_inurba_marseille","lat":43.31298,"lon":5.37576,"is_reserved":false,"is_disabled":false,"rental_uris":{"android":"levelo://app?vid=d984e707-eae5-45a6-b19a-6c8514e957b6","ios":"levelo://app?vid=d984e707-eae5-45a6-b19a-6c8514e957b6"},"vehicle_type_id":"4","last_reported":1705648036,"current_range_meters":0,"station_id":"","pricing_plan_id":"free"},{"bike_id":"52a1c2fe-c622-4c91-9d01-64f3fab1f855","system_id":"levelo_inurba_marseille","lat":43.305368,"lon":5.367343,"is_reserved":false,"is_disabled":false,"rental_uris":{"android":"levelo://app?vid=52a1c2fe-c622-4c91-9d01-64f3fab1f855","ios":"levelo://app?vid=52a1c2fe-c622-4c91-9d01-64f3fab1f855"},"vehicle_type_id":"4","last_reported":1705648036,"current_range_meters":24400,"station_id":"ce4bgrp2rcd13ifvqc9g","pricing_plan_id":"free"},{"bike_id":"e75b3ddb-33be-4965-9654-dfc31f055542","system_id":"levelo_inurba_marseille","lat":43.305368,"lon":5.367343,"is_reserved":false,"is_disabled":false,"rental_uris":{"android":"levelo://app?vid=e75b3ddb-33be-4965-9654-dfc31f055542","ios":"levelo://app?vid=e75b3ddb-33be-4965-9654-dfc31f055542"},"vehicle_type_id":"4","last_reported":1705648036,"current_range_meters":20000,"station_id":"ce4bgrp2rcd13ifvqc9g","pricing_plan_id":"free"},{"bike_id":"a529f334-ba61-4f46-a4f2-8e6a18b1b5a9","system_id":"levelo_inurba_marseille","lat":43.305368,"lon":5.367343,"is_reserved":false,"is_disabled":false,"rental_uris":{"android":"levelo://app?vid=a529f334-ba61-4f46-a4f2-8e6a18b1b5a9","ios":"levelo://app?vid=a529f334-ba61-4f46-a4f2-8e6a18b1b5a9"},"vehicle_type_id":"4","last_reported":1705648036,"current_range_meters":24400,"station_id":"ce4bgrp2rcd13ifvqc9g","pricing_plan_id":"free"},{"bike_id":"fdb6f704-296e-46d2-b4e3-bfcbdf526dff","system_id":"levelo_inurba_marseille","lat":43.305368,"lon":5.367343,"is_reserved":false,"is_disabled":false,"rental_uris":{"android":"levelo://app?vid=fdb6f704-296e-46d2-b4e3-bfcbdf526dff","ios":"levelo://app?vid=fdb6f704-296e-46d2-b4e3-bfcbdf526dff"},"vehicle_type_id":"4","last_reported":1705648036,"current_range_meters":7600,"station_id":"ce4bgrp2rcd13ifvqc9g","pricing_plan_id":"free"},{"bike_id":"471a3ec9-0fd5-4070-ba3b-e861c151641b","system_id":"levelo_inurba_marseille","lat":43.305368,"lon":5.367343,"is_reserved":false,"is_disabled":false,"rental_uris":{"android":"levelo://app?vid=471a3ec9-0fd5-4070-ba3b-e861c151641b","ios":"levelo://app?vid=471a3ec9-0fd5-4070-ba3b-e861c151641b"},"vehicle_type_id":"4","last_reported":1705648036,"current_range_meters":28800,"station_id":"ce4bgrp2rcd13ifvqc9g","pricing_plan_id":"free"},{"bike_id":"a52fbb90-6c8a-43a4-a669-e401d31a5c1f","system_id":"levelo_inurba_marseille","lat":43.305706,"lon":5.365654,"is_reserved":false,"is_disabled":false,"rental_uris":{"android":"levelo://app?vid=a52fbb90-6c8a-43a4-a669-e401d31a5c1f","ios":"levelo://app?vid=a52fbb90-6c8a-43a4-a669-e401d31a5c1f"},"vehicle_type_id":"4","last_reported":1705648036,"current_range_meters":25600,"station_id":"ce4bgs12rcd13ifvqcag","pricing_plan_id":"free"},{"bike_id":"abf892c7-535a-4cb7-9f6a-a8836755e27e","system_id":"levelo_inurba_marseille","lat":43.311125,"lon":5.377624,"is_reserved":false,"is_disabled":false,"rental_uris":{"android":"levelo://app?vid=abf892c7-535a-4cb7-9f6a-a8836755e27e","ios":"levelo://app?vid=abf892c7-535a-4cb7-9f6a-a8836755e27e"},"vehicle_type_id":"4","last_reported":1705648036,"current_range_meters":23600,"station_id":"ce4bgt92rcd13ifvqcg0","pricing_plan_id":"free"},{"bike_id":"9d889b2a-dcb6-4301-94ff-b032c2977d4e","system_id":"levelo_inurba_marseille","lat":43.311114,"lon":5.377591,"is_reserved":false,"is_disabled":false,"rental_uris":{"android":"levelo://app?vid=9d889b2a-dcb6-4301-94ff-b032c2977d4e","ios":"levelo://app?vid=9d889b2a-dcb6-4301-94ff-b032c2977d4e"},"vehicle_type_id":"4","last_reported":1705648036,"current_range_meters":29200,"station_id":"ce4bgt92rcd13ifvqcg0","pricing_plan_id":"free"},{"bike_id":"e17a15dc-bb6e-48d3-8803-72936cee17de","system_id":"levelo_inurba_marseille","lat":43.311125,"lon":5.377624,"is_reserved":false,"is_disabled":false,"rental_uris":{"android":"levelo://app?vid=e17a15dc-bb6e-48d3-8803-72936cee17de","ios":"levelo://app?vid=e17a15dc-bb6e-48d3-8803-72936cee17de"},"vehicle_type_id":"4","last_reported":1705648036,"current_range_meters":30800,"station_id":"ce4bgt92rcd13ifvqcg0","pricing_plan_id":"free"},{"bike_id":"fcb1d93c-3c5c-4f6a-a10c-3253c0f853dc","system_id":"levelo_inurba_marseille","lat":43.311125,"lon":5.377624,"is_reserved":false,"is_disabled":false,"rental_uris":{"android":"levelo://app?vid=fcb1d93c-3c5c-4f6a-a10c-3253c0f853dc","ios":"levelo://app?vid=fcb1d93c-3c5c-4f6a-a10c-3253c0f853dc"},"vehicle_type_id":"4","last_reported":1705648036,"current_range_meters":22000,"station_id":"ce4bgt92rcd13ifvqcg0","pricing_plan_id":"free"},{"bike_id":"a0237fe9-2f53-4862-82dc-9c3b0af83bb6","system_id":"levelo_inurba_marseille","lat":43.311125,"lon":5.377624,"is_reserved":false,"is_disabled":false,"rental_uris":{"android":"levelo://app?vid=a0237fe9-2f53-4862-82dc-9c3b0af83bb6","ios":"levelo://app?vid=a0237fe9-2f53-4862-82dc-9c3b0af83bb6"},"vehicle_type_id":"4","last_reported":1705648036,"current_range_meters":19600,"station_id":"ce4bgt92rcd13ifvqcg0","pricing_plan_id":"free"},{"bike_id":"9e4a7e0c-29f1-43f2-86a6-9207027a9e95","system_id":"levelo_inurba_marseille","lat":43.311125,"lon":5.377624,"is_reserved":false,"is_disabled":false,"rental_uris":{"android":"levelo://app?vid=9e4a7e0c-29f1-43f2-86a6-9207027a9e95","ios":"levelo://app?vid=9e4a7e0c-29f1-43f2-86a6-9207027a9e95"},"vehicle_type_id":"4","last_reported":1705648036,"current_range_meters":26400,"station_id":"ce4bgt92rcd13ifvqcg0","pricing_plan_id":"free"},{"bike_id":"18bf36bc-9404-4384-b3f8-cef6b1045496","system_id":"levelo_inurba_marseille","lat":43.307945,"lon":5.376487,"is_reserved":false,"is_disabled":false,"rental_uris":{"android":"levelo://app?vid=18bf36bc-9404-4384-b3f8-cef6b1045496","ios":"levelo://app?vid=18bf36bc-9404-4384-b3f8-cef6b1045496"},"vehicle_type_id":"4","last_reported":1705648036,"current_range_meters":23600,"station_id":"ce4bgv92rcd13ifvqcq0","pricing_plan_id":"free"},{"bike_id":"74871b01-7b55-455c-a237-6ae1de48dbc4","system_id":"levelo_inurba_marseille","lat":43.317075,"lon":5.377367,"is_reserved":false,"is_disabled":false,"rental_uris":{"android":"levelo://app?vid=74871b01-7b55-455c-a237-6ae1de48dbc4","ios":"levelo://app?vid=74871b01-7b55-455c-a237-6ae1de48dbc4"},"vehicle_type_id":"4","last_reported":1705648036,"current_range_meters":26000,"station_id":"ce4bgth2rcd13ifvqch0","pricing_plan_id":"free"},{"bike_id":"819b1a40-d6df-482f-82e8-64b53a316ad6","system_id":"levelo_inurba_marseille","lat":43.317025,"lon":5.37738,"is_reserved":false,"is_disabled":false,"rental_uris":{"android":"levelo://app?vid=819b1a40-d6df-482f-82e8-64b53a316ad6","ios":"levelo://app?vid=819b1a40-d6df-482f-82e8-64b53a316ad6"},"vehicle_type_id":"4","last_reported":1705648036,"current_range_meters":11600,"station_id":"ce4bgth2rcd13ifvqch0","pricing_plan_id":"free"},{"bike_id":"ad290e33-0ba5-476f-b7cb-ba0ba539f3fe","system_id":"levelo_inurba_marseille","lat":43.317075,"lon":5.377367,"is_reserved":false,"is_disabled":false,"rental_uris":{"android":"levelo://app?vid=ad290e33-0ba5-476f-b7cb-ba0ba539f3fe","ios":"levelo://app?vid=ad290e33-0ba5-476f-b7cb-ba0ba539f3fe"},"vehicle_type_id":"4","last_reported":1705648036,"current_range_meters":30000,"station_id":"ce4bgth2rcd13ifvqch0","pricing_plan_id":"free"},{"bike_id":"38b175f6-b519-44a3-ac7a-ad6585f805fa","system_id":"levelo_inurba_marseille","lat":43.30316,"lon":5.36895,"is_reserved":false,"is_disabled":false,"rental_uris":{"android":"levelo://app?vid=38b175f6-b519-44a3-ac7a-ad6585f805fa","ios":"levelo://app?vid=38b175f6-b519-44a3-ac7a-ad6585f805fa"},"vehicle_type_id":"4","last_reported":1705648036,"current_range_meters":2800,"station_id":"ce4bgqh2rcd13ifvqc5g","pricing_plan_id":"free"},{"bike_id":"2dc4c5c9-7f5f-49a0-9366-9644d54090cb","system_id":"levelo_inurba_marseille","lat":43.303046,"lon":5.368981,"is_reserved":false,"is_disabled":false,"rental_uris":{"android":"levelo://app?vid=2dc4c5c9-7f5f-49a0-9366-9644d54090cb","ios":"levelo://app?vid=2dc4c5c9-7f5f-49a0-9366-9644d54090cb"},"vehicle_type_id":"4","last_reported":1705648036,"current_range_meters":31600,"station_id":"ce4bgqh2rcd13ifvqc5g","pricing_plan_id":"free"},{"bike_id":"956b0e11-9d8c-4070-8a05-8aa37ef08fae","system_id":"levelo_inurba_marseille","lat":43.303046,"lon":5.368981,"is_reserved":false,"is_disabled":false,"rental_uris":{"android":"levelo://app?vid=956b0e11-9d8c-4070-8a05-8aa37ef08fae","ios":"levelo://app?vid=956b0e11-9d8c-4070-8a05-8aa37ef08fae"},"vehicle_type_id":"4","last_reported":1705648036,"current_range_meters":0,"station_id":"ce4bgqh2rcd13ifvqc5g","pricing_plan_id":"free"},{"bike_id":"3e5976e0-3364-4b0c-a4d6-fb7c367fb5a9","system_id":"levelo_inurba_marseille","lat":43.303046,"lon":5.368981,"is_reserved":false,"is_disabled":false,"rental_uris":{"android":"levelo://app?vid=3e5976e0-3364-4b0c-a4d6-fb7c367fb5a9","ios":"levelo://app?vid=3e5976e0-3364-4b0c-a4d6-fb7c367fb5a9"},"vehicle_type_id":"4","last_reported":1705648036,"current_range_meters":27600,"station_id":"ce4bgqh2rcd13ifvqc5g","pricing_plan_id":"free"},{"bike_id":"15c787c0-c09d-4fdb-9d13-006f6c96b22d","system_id":"levelo_inurba_marseille","lat":43.315268,"lon":5.380375,"is_reserved":false,"is_disabled":false,"rental_uris":{"android":"levelo://app?vid=15c787c0-c09d-4fdb-9d13-006f6c96b22d","ios":"levelo://app?vid=15c787c0-c09d-4fdb-9d13-006f6c96b22d"},"vehicle_type_id":"4","last_reported":1705648036,"current_range_meters":14800,"station_id":"ce4bhsp2rcd13ifvqi50","pricing_plan_id":"free"},{"bike_id":"005ea7c6-0d96-4979-9e9f-b4f56a2ed4d9","system_id":"levelo_inurba_marseille","lat":43.308,"lon":5.38146,"is_reserved":false,"is_disabled":false,"rental_uris":{"android":"levelo://app?vid=005ea7c6-0d96-4979-9e9f-b4f56a2ed4d9","ios":"levelo://app?vid=005ea7c6-0d96-4979-9e9f-b4f56a2ed4d9"},"vehicle_type_id":"4","last_reported":1705648036,"current_range_meters":30000,"station_id":"ce4bgt12rcd13ifvqce0","pricing_plan_id":"free"},{"bike_id":"f73943a6-5301-42bb-b60f-63964bddc3a4","system_id":"levelo_inurba_marseille","lat":43.30801,"lon":5.381543,"is_reserved":false,"is_disabled":false,"rental_uris":{"android":"levelo://app?vid=f73943a6-5301-42bb-b60f-63964bddc3a4","ios":"levelo://app?vid=f73943a6-5301-42bb-b60f-63964bddc3a4"},"vehicle_type_id":"4","last_reported":1705648036,"current_range_meters":0,"station_id":"ce4bgt12rcd13ifvqce0","pricing_plan_id":"free"},{"bike_id":"1c8c89d9-5a35-4280-92be-c8eb95800dd4","system_id":"levelo_inurba_marseille","lat":43.308012,"lon":5.381511,"is_reserved":false,"is_disabled":false,"rental_uris":{"android":"levelo://app?vid=1c8c89d9-5a35-4280-92be-c8eb95800dd4","ios":"levelo://app?vid=1c8c89d9-5a35-4280-92be-c8eb95800dd4"},"vehicle_type_id":"4","last_reported":1705648036,"current_range_meters":26000,"station_id":"ce4bgt12rcd13ifvqce0","pricing_plan_id":"free"},{"bike_id":"fa016646-fe23-4cb4-b0c4-7da58e200e94","system_id":"levelo_inurba_marseille","lat":43.304606,"lon":5.379026,"is_reserved":false,"is_disabled":false,"rental_uris":{"android":"levelo://app?vid=fa016646-fe23-4cb4-b0c4-7da58e200e94","ios":"levelo://app?vid=fa016646-fe23-4cb4-b0c4-7da58e200e94"},"vehicle_type_id":"4","last_reported":1705648036,"current_range_meters":800,"station_id":"ce4bgup2rcd13ifvqcn0","pricing_plan_id":"free"},{"bike_id":"cc0ff622-a8c2-4001-94a0-f0194f405ceb","system_id":"levelo_inurba_marseille","lat":43.304606,"lon":5.379026,"is_reserved":false,"is_disabled":false,"rental_uris":{"android":"levelo://app?vid=cc0ff622-a8c2-4001-94a0-f0194f405ceb","ios":"levelo://app?vid=cc0ff622-a8c2-4001-94a0-f0194f405ceb"},"vehicle_type_id":"4","last_reported":1705648036,"current_range_meters":25200,"station_id":"ce4bgup2rcd13ifvqcn0","pricing_plan_id":"free"},{"bike_id":"7ec1be20-6201-4fae-84cd-455ded7d0a4e","system_id":"levelo_inurba_marseille","lat":43.304606,"lon":5.379026,"is_reserved":false,"is_disabled":false,"rental_uris":{"android":"levelo://app?vid=7ec1be20-6201-4fae-84cd-455ded7d0a4e","ios":"levelo://app?vid=7ec1be20-6201-4fae-84cd-455ded7d0a4e"},"vehicle_type_id":"4","last_reported":1705648036,"current_range_meters":14800,"station_id":"ce4bgup2rcd13ifvqcn0","pricing_plan_id":"free"},{"bike_id":"548e247c-47af-4e09-9cf9-a68d2d19f6fe","system_id":"levelo_inurba_marseille","lat":43.304606,"lon":5.379026,"is_reserved":false,"is_disabled":false,"rental_uris":{"android":"levelo://app?vid=548e247c-47af-4e09-9cf9-a68d2d19f6fe","ios":"levelo://app?vid=548e247c-47af-4e09-9cf9-a68d2d19f6fe"},"vehicle_type_id":"4","last_reported":1705648036,"current_range_meters":28800,"station_id":"ce4bgup2rcd13ifvqcn0","pricing_plan_id":"free"},{"bike_id":"c3692ec7-7344-4e6d-9af7-34c5bc1c46fc","system_id":"levelo_inurba_marseille","lat":43.304606,"lon":5.379026,"is_reserved":false,"is_disabled":false,"rental_uris":{"android":"levelo://app?vid=c3692ec7-7344-4e6d-9af7-34c5bc1c46fc","ios":"levelo://app?vid=c3692ec7-7344-4e6d-9af7-34c5bc1c46fc"},"vehicle_type_id":"4","last_reported":1705648036,"current_range_meters":20800,"station_id":"ce4bgup2rcd13ifvqcn0","pricing_plan_id":"free"},{"bike_id":"dbc22a5a-5dbd-4491-96a0-6e34fb4d3d27","system_id":"levelo_inurba_marseille","lat":43.304606,"lon":5.379026,"is_reserved":false,"is_disabled":false,"rental_uris":{"android":"levelo://app?vid=dbc22a5a-5dbd-4491-96a0-6e34fb4d3d27","ios":"levelo://app?vid=dbc22a5a-5dbd-4491-96a0-6e34fb4d3d27"},"vehicle_type_id":"4","last_reported":1705648036,"current_range_meters":25200,"station_id":"ce4bgup2rcd13ifvqcn0","pricing_plan_id":"free"},{"bike_id":"b394d8c8-146a-45c2-8a65-1a483eec2322","system_id":"levelo_inurba_marseille","lat":43.304606,"lon":5.379026,"is_reserved":false,"is_disabled":false,"rental_uris":{"android":"levelo://app?vid=b394d8c8-146a-45c2-8a65-1a483eec2322","ios":"levelo://app?vid=b394d8c8-146a-45c2-8a65-1a483eec2322"},"vehicle_type_id":"4","last_reported":1705648036,"current_range_meters":15600,"station_id":"ce4bgup2rcd13ifvqcn0","pricing_plan_id":"free"},{"bike_id":"8e373d2a-2634-4b64-9640-a8891f2abe09","system_id":"levelo_inurba_marseille","lat":43.30467,"lon":5.37905,"is_reserved":false,"is_disabled":false,"rental_uris":{"android":"levelo://app?vid=8e373d2a-2634-4b64-9640-a8891f2abe09","ios":"levelo://app?vid=8e373d2a-2634-4b64-9640-a8891f2abe09"},"vehicle_type_id":"4","last_reported":1705648036,"current_range_meters":20400,"station_id":"ce4bgup2rcd13ifvqcn0","pricing_plan_id":"free"},{"bike_id":"1e4fa6a5-1757-4d24-8bff-c5807eb7e814","system_id":"levelo_inurba_marseille","lat":43.304606,"lon":5.379026,"is_reserved":false,"is_disabled":false,"rental_uris":{"android":"levelo://app?vid=1e4fa6a5-1757-4d24-8bff-c5807eb7e814","ios":"levelo://app?vid=1e4fa6a5-1757-4d24-8bff-c5807eb7e814"},"vehicle_type_id":"4","last_reported":1705648036,"current_range_meters":7600,"station_id":"ce4bgup2rcd13ifvqcn0","pricing_plan_id":"free"},{"bike_id":"4670fb2d-dc30-4855-964d-940313d18d6d","system_id":"levelo_inurba_marseille","lat":43.304606,"lon":5.379026,"is_reserved":false,"is_disabled":false,"rental_uris":{"android":"levelo://app?vid=4670fb2d-dc30-4855-964d-940313d18d6d","ios":"levelo://app?vid=4670fb2d-dc30-4855-964d-940313d18d6d"},"vehicle_type_id":"4","last_reported":1705648036,"current_range_meters":8400,"station_id":"ce4bgup2rcd13ifvqcn0","pricing_plan_id":"free"},{"bike_id":"75ba6554-940a-4647-a210-035b5e41dc36","system_id":"levelo_inurba_marseille","lat":43.304606,"lon":5.379026,"is_reserved":false,"is_disabled":false,"rental_uris":{"android":"levelo://app?vid=75ba6554-940a-4647-a210-035b5e41dc36","ios":"levelo://app?vid=75ba6554-940a-4647-a210-035b5e41dc36"},"vehicle_type_id":"4","last_reported":1705648036,"current_range_meters":4000,"station_id":"ce4bgup2rcd13ifvqcn0","pricing_plan_id":"free"},{"bike_id":"5d853006-7bbd-4819-9fd4-f91f52528b65","system_id":"levelo_inurba_marseille","lat":43.304606,"lon":5.379026,"is_reserved":false,"is_disabled":false,"rental_uris":{"android":"levelo://app?vid=5d853006-7bbd-4819-9fd4-f91f52528b65","ios":"levelo://app?vid=5d853006-7bbd-4819-9fd4-f91f52528b65"},"vehicle_type_id":"4","last_reported":1705648036,"current_range_meters":28400,"station_id":"ce4bgup2rcd13ifvqcn0","pricing_plan_id":"free"},{"bike_id":"516e8ec7-dcc0-4eae-a5b9-12e43f3399da","system_id":"levelo_inurba_marseille","lat":43.304606,"lon":5.379026,"is_reserved":false,"is_disabled":false,"rental_uris":{"android":"levelo://app?vid=516e8ec7-dcc0-4eae-a5b9-12e43f3399da","ios":"levelo://app?vid=516e8ec7-dcc0-4eae-a5b9-12e43f3399da"},"vehicle_type_id":"4","last_reported":1705648036,"current_range_meters":24800,"station_id":"ce4bgup2rcd13ifvqcn0","pricing_plan_id":"free"},{"bike_id":"b809651d-4ca5-4349-b277-8f6e65e73109","system_id":"levelo_inurba_marseille","lat":43.304606,"lon":5.379026,"is_reserved":false,"is_disabled":false,"rental_uris":{"android":"levelo://app?vid=b809651d-4ca5-4349-b277-8f6e65e73109","ios":"levelo://app?vid=b809651d-4ca5-4349-b277-8f6e65e73109"},"vehicle_type_id":"4","last_reported":1705648036,"current_range_meters":16000,"station_id":"ce4bgup2rcd13ifvqcn0","pricing_plan_id":"free"},{"bike_id":"fd71e410-64dd-4217-b8ad-cd802d5fcf7c","system_id":"levelo_inurba_marseille","lat":43.304606,"lon":5.379026,"is_reserved":false,"is_disabled":false,"rental_uris":{"android":"levelo://app?vid=fd71e410-64dd-4217-b8ad-cd802d5fcf7c","ios":"levelo://app?vid=fd71e410-64dd-4217-b8ad-cd802d5fcf7c"},"vehicle_type_id":"4","last_reported":1705648036,"current_range_meters":18400,"station_id":"ce4bgup2rcd13ifvqcn0","pricing_plan_id":"free"},{"bike_id":"ffa5fef5-b0e0-45af-98bb-4fa6880af65d","system_id":"levelo_inurba_marseille","lat":43.304606,"lon":5.379026,"is_reserved":false,"is_disabled":false,"rental_uris":{"android":"levelo://app?vid=ffa5fef5-b0e0-45af-98bb-4fa6880af65d","ios":"levelo://app?vid=ffa5fef5-b0e0-45af-98bb-4fa6880af65d"},"vehicle_type_id":"4","last_reported":1705648036,"current_range_meters":20400,"station_id":"ce4bgup2rcd13ifvqcn0","pricing_plan_id":"free"},{"bike_id":"bc5b3074-3336-4f53-8375-5fe8d078756f","system_id":"levelo_inurba_marseille","lat":43.304606,"lon":5.379026,"is_reserved":false,"is_disabled":false,"rental_uris":{"android":"levelo://app?vid=bc5b3074-3336-4f53-8375-5fe8d078756f","ios":"levelo://app?vid=bc5b3074-3336-4f53-8375-5fe8d078756f"},"vehicle_type_id":"4","last_reported":1705648036,"current_range_meters":13600,"station_id":"ce4bgup2rcd13ifvqcn0","pricing_plan_id":"free"},{"bike_id":"3a78043c-99af-4808-99bb-975569c77a6b","system_id":"levelo_inurba_marseille","lat":43.304606,"lon":5.379026,"is_reserved":false,"is_disabled":false,"rental_uris":{"android":"levelo://app?vid=3a78043c-99af-4808-99bb-975569c77a6b","ios":"levelo://app?vid=3a78043c-99af-4808-99bb-975569c77a6b"},"vehicle_type_id":"4","last_reported":1705648036,"current_range_meters":0,"station_id":"ce4bgup2rcd13ifvqcn0","pricing_plan_id":"free"},{"bike_id":"9e0aff55-68fe-4579-a0bd-b62b59fcccee","system_id":"levelo_inurba_marseille","lat":43.304606,"lon":5.379026,"is_reserved":false,"is_disabled":false,"rental_uris":{"android":"levelo://app?vid=9e0aff55-68fe-4579-a0bd-b62b59fcccee","ios":"levelo://app?vid=9e0aff55-68fe-4579-a0bd-b62b59fcccee"},"vehicle_type_id":"4","last_reported":1705648036,"current_range_meters":25200,"station_id":"ce4bgup2rcd13ifvqcn0","pricing_plan_id":"free"},{"bike_id":"00fc2ee2-46cd-4c11-9c37-822296403f6d","system_id":"levelo_inurba_marseille","lat":43.304606,"lon":5.379026,"is_reserved":false,"is_disabled":false,"rental_uris":{"android":"levelo://app?vid=00fc2ee2-46cd-4c11-9c37-822296403f6d","ios":"levelo://app?vid=00fc2ee2-46cd-4c11-9c37-822296403f6d"},"vehicle_type_id":"4","last_reported":1705648036,"current_range_meters":6000,"station_id":"ce4bgup2rcd13ifvqcn0","pricing_plan_id":"free"},{"bike_id":"71a126c7-b719-426c-b069-4af1d4a5ba47","system_id":"levelo_inurba_marseille","lat":43.324717,"lon":5.365639,"is_reserved":false,"is_disabled":false,"rental_uris":{"android":"levelo://app?vid=71a126c7-b719-426c-b069-4af1d4a5ba47","ios":"levelo://app?vid=71a126c7-b719-426c-b069-4af1d4a5ba47"},"vehicle_type_id":"4","last_reported":1705648036,"current_range_meters":3600,"station_id":"ce4bhs12rcd13ifvqhvg","pricing_plan_id":"free"},{"bike_id":"c7489a96-6454-48e7-825d-ec911cb91bbf","system_id":"levelo_inurba_marseille","lat":43.304606,"lon":5.379026,"is_reserved":false,"is_disabled":false,"rental_uris":{"android":"levelo://app?vid=c7489a96-6454-48e7-825d-ec911cb91bbf","ios":"levelo://app?vid=c7489a96-6454-48e7-825d-ec911cb91bbf"},"vehicle_type_id":"4","last_reported":1705648036,"current_range_meters":10000,"station_id":"ce4bgup2rcd13ifvqcn0","pricing_plan_id":"free"},{"bike_id":"7c53c2d8-36cd-4a8e-b6aa-4ee6e4b89aa4","system_id":"levelo_inurba_marseille","lat":43.304606,"lon":5.379026,"is_reserved":false,"is_disabled":false,"rental_uris":{"android":"levelo://app?vid=7c53c2d8-36cd-4a8e-b6aa-4ee6e4b89aa4","ios":"levelo://app?vid=7c53c2d8-36cd-4a8e-b6aa-4ee6e4b89aa4"},"vehicle_type_id":"4","last_reported":1705648036,"current_range_meters":16800,"station_id":"ce4bgup2rcd13ifvqcn0","pricing_plan_id":"free"},{"bike_id":"d00b74c2-3359-4d71-b409-cabe2be70921","system_id":"levelo_inurba_marseille","lat":43.304617,"lon":5.379146,"is_reserved":false,"is_disabled":false,"rental_uris":{"android":"levelo://app?vid=d00b74c2-3359-4d71-b409-cabe2be70921","ios":"levelo://app?vid=d00b74c2-3359-4d71-b409-cabe2be70921"},"vehicle_type_id":"4","last_reported":1705648036,"current_range_meters":11600,"station_id":"","pricing_plan_id":"free"},{"bike_id":"2179bf7d-2ef3-478f-ab07-0d1474ed1fd2","system_id":"levelo_inurba_marseille","lat":43.324764,"lon":5.365696,"is_reserved":false,"is_disabled":false,"rental_uris":{"android":"levelo://app?vid=2179bf7d-2ef3-478f-ab07-0d1474ed1fd2","ios":"levelo://app?vid=2179bf7d-2ef3-478f-ab07-0d1474ed1fd2"},"vehicle_type_id":"4","last_reported":1705648036,"current_range_meters":7600,"station_id":"ce4bhs12rcd13ifvqhvg","pricing_plan_id":"free"},{"bike_id":"3cb5ad2b-e743-4194-9d67-007686b421e8","system_id":"levelo_inurba_marseille","lat":43.324771,"lon":5.36557,"is_reserved":false,"is_disabled":false,"rental_uris":{"android":"levelo://app?vid=3cb5ad2b-e743-4194-9d67-007686b421e8","ios":"levelo://app?vid=3cb5ad2b-e743-4194-9d67-007686b421e8"},"vehicle_type_id":"4","last_reported":1705648036,"current_range_meters":17600,"station_id":"ce4bhs12rcd13ifvqhvg","pricing_plan_id":"free"},{"bike_id":"d655f5bb-ed30-48d1-8fea-b10c22e797ad","system_id":"levelo_inurba_marseille","lat":43.324771,"lon":5.36557,"is_reserved":false,"is_disabled":false,"rental_uris":{"android":"levelo://app?vid=d655f5bb-ed30-48d1-8fea-b10c22e797ad","ios":"levelo://app?vid=d655f5bb-ed30-48d1-8fea-b10c22e797ad"},"vehicle_type_id":"4","last_reported":1705648036,"current_range_meters":22000,"station_id":"ce4bhs12rcd13ifvqhvg","pricing_plan_id":"free"},{"bike_id":"55c4df9c-2e38-4d9d-8a4f-91f0b93032bb","system_id":"levelo_inurba_marseille","lat":43.324852,"lon":5.365734,"is_reserved":false,"is_disabled":false,"rental_uris":{"android":"levelo://app?vid=55c4df9c-2e38-4d9d-8a4f-91f0b93032bb","ios":"levelo://app?vid=55c4df9c-2e38-4d9d-8a4f-91f0b93032bb"},"vehicle_type_id":"4","last_reported":1705648036,"current_range_meters":21600,"station_id":"ce4bhs12rcd13ifvqhvg","pricing_plan_id":"free"},{"bike_id":"5f0513f9-88e1-4300-8b58-e75262291bc9","system_id":"levelo_inurba_marseille","lat":43.30287,"lon":5.376957,"is_reserved":false,"is_disabled":false,"rental_uris":{"android":"levelo://app?vid=5f0513f9-88e1-4300-8b58-e75262291bc9","ios":"levelo://app?vid=5f0513f9-88e1-4300-8b58-e75262291bc9"},"vehicle_type_id":"4","last_reported":1705648036,"current_range_meters":30000,"station_id":"","pricing_plan_id":"free"},{"bike_id":"44ae915b-abfb-4ec8-8549-601801e3fd19","system_id":"levelo_inurba_marseille","lat":43.30287,"lon":5.37696,"is_reserved":false,"is_disabled":false,"rental_uris":{"android":"levelo://app?vid=44ae915b-abfb-4ec8-8549-601801e3fd19","ios":"levelo://app?vid=44ae915b-abfb-4ec8-8549-601801e3fd19"},"vehicle_type_id":"4","last_reported":1705648036,"current_range_meters":27200,"station_id":"","pricing_plan_id":"free"},{"bike_id":"38364657-3212-40f5-9fd1-923bbe45536c","system_id":"levelo_inurba_marseille","lat":43.3028,"lon":5.37686,"is_reserved":false,"is_disabled":false,"rental_uris":{"android":"levelo://app?vid=38364657-3212-40f5-9fd1-923bbe45536c","ios":"levelo://app?vid=38364657-3212-40f5-9fd1-923bbe45536c"},"vehicle_type_id":"4","last_reported":1705648036,"current_range_meters":28800,"station_id":"","pricing_plan_id":"free"},{"bike_id":"009c4824-569c-4e4d-956c-907920f132ca","system_id":"levelo_inurba_marseille","lat":43.30287,"lon":5.377,"is_reserved":false,"is_disabled":false,"rental_uris":{"android":"levelo://app?vid=009c4824-569c-4e4d-956c-907920f132ca","ios":"levelo://app?vid=009c4824-569c-4e4d-956c-907920f132ca"},"vehicle_type_id":"4","last_reported":1705648036,"current_range_meters":28000,"station_id":"","pricing_plan_id":"free"},{"bike_id":"a3bbbcc9-80fd-4d27-a820-b5b86d437525","system_id":"levelo_inurba_marseille","lat":43.302857,"lon":5.37698,"is_reserved":false,"is_disabled":false,"rental_uris":{"android":"levelo://app?vid=a3bbbcc9-80fd-4d27-a820-b5b86d437525","ios":"levelo://app?vid=a3bbbcc9-80fd-4d27-a820-b5b86d437525"},"vehicle_type_id":"4","last_reported":1705648036,"current_range_meters":24800,"station_id":"","pricing_plan_id":"free"},{"bike_id":"8b823239-9f51-4ee7-b69b-6304b05fd101","system_id":"levelo_inurba_marseille","lat":43.302837,"lon":5.37698,"is_reserved":false,"is_disabled":false,"rental_uris":{"android":"levelo://app?vid=8b823239-9f51-4ee7-b69b-6304b05fd101","ios":"levelo://app?vid=8b823239-9f51-4ee7-b69b-6304b05fd101"},"vehicle_type_id":"4","last_reported":1705648036,"current_range_meters":19200,"station_id":"","pricing_plan_id":"free"},{"bike_id":"86810773-dacb-40d2-9290-21b32c111fca","system_id":"levelo_inurba_marseille","lat":43.30281,"lon":5.37694,"is_reserved":false,"is_disabled":false,"rental_uris":{"android":"levelo://app?vid=86810773-dacb-40d2-9290-21b32c111fca","ios":"levelo://app?vid=86810773-dacb-40d2-9290-21b32c111fca"},"vehicle_type_id":"4","last_reported":1705648036,"current_range_meters":22000,"station_id":"","pricing_plan_id":"free"},{"bike_id":"91a4173d-76ed-4fa1-a178-d07a50888f3b","system_id":"levelo_inurba_marseille","lat":43.30283,"lon":5.37698,"is_reserved":false,"is_disabled":false,"rental_uris":{"android":"levelo://app?vid=91a4173d-76ed-4fa1-a178-d07a50888f3b","ios":"levelo://app?vid=91a4173d-76ed-4fa1-a178-d07a50888f3b"},"vehicle_type_id":"4","last_reported":1705648036,"current_range_meters":19600,"station_id":"","pricing_plan_id":"free"},{"bike_id":"4882552d-04dc-4ad5-96fc-fa5d2c660440","system_id":"levelo_inurba_marseille","lat":43.30283,"lon":5.376987,"is_reserved":false,"is_disabled":false,"rental_uris":{"android":"levelo://app?vid=4882552d-04dc-4ad5-96fc-fa5d2c660440","ios":"levelo://app?vid=4882552d-04dc-4ad5-96fc-fa5d2c660440"},"vehicle_type_id":"4","last_reported":1705648036,"current_range_meters":27600,"station_id":"","pricing_plan_id":"free"},{"bike_id":"aa10fdc8-227b-4180-8e63-e9ed01058d1e","system_id":"levelo_inurba_marseille","lat":43.3028,"lon":5.37694,"is_reserved":false,"is_disabled":false,"rental_uris":{"android":"levelo://app?vid=aa10fdc8-227b-4180-8e63-e9ed01058d1e","ios":"levelo://app?vid=aa10fdc8-227b-4180-8e63-e9ed01058d1e"},"vehicle_type_id":"4","last_reported":1705648036,"current_range_meters":29200,"station_id":"","pricing_plan_id":"free"},{"bike_id":"bf221d23-5669-4ea3-9337-cb628145dc3d","system_id":"levelo_inurba_marseille","lat":43.30277,"lon":5.37694,"is_reserved":false,"is_disabled":false,"rental_uris":{"android":"levelo://app?vid=bf221d23-5669-4ea3-9337-cb628145dc3d","ios":"levelo://app?vid=bf221d23-5669-4ea3-9337-cb628145dc3d"},"vehicle_type_id":"4","last_reported":1705648036,"current_range_meters":19600,"station_id":"","pricing_plan_id":"free"},{"bike_id":"afcd3e37-a1fb-4242-a876-60cb9987e67b","system_id":"levelo_inurba_marseille","lat":43.30143,"lon":5.37413,"is_reserved":false,"is_disabled":false,"rental_uris":{"android":"levelo://app?vid=afcd3e37-a1fb-4242-a876-60cb9987e67b","ios":"levelo://app?vid=afcd3e37-a1fb-4242-a876-60cb9987e67b"},"vehicle_type_id":"4","last_reported":1705648036,"current_range_meters":26000,"station_id":"ce4bgs92rcd13ifvqcc0","pricing_plan_id":"free"},{"bike_id":"1b6ee8aa-9f26-4230-a915-3764fa12e029","system_id":"levelo_inurba_marseille","lat":43.30143,"lon":5.37413,"is_reserved":false,"is_disabled":false,"rental_uris":{"android":"levelo://app?vid=1b6ee8aa-9f26-4230-a915-3764fa12e029","ios":"levelo://app?vid=1b6ee8aa-9f26-4230-a915-3764fa12e029"},"vehicle_type_id":"4","last_reported":1705648036,"current_range_meters":11600,"station_id":"ce4bgs92rcd13ifvqcc0","pricing_plan_id":"free"},{"bike_id":"f056bb93-4d90-48e3-a325-6a463ab204ba","system_id":"levelo_inurba_marseille","lat":43.301429,"lon":5.37413,"is_reserved":false,"is_disabled":false,"rental_uris":{"android":"levelo://app?vid=f056bb93-4d90-48e3-a325-6a463ab204ba","ios":"levelo://app?vid=f056bb93-4d90-48e3-a325-6a463ab204ba"},"vehicle_type_id":"4","last_reported":1705648036,"current_range_meters":31600,"station_id":"ce4bgs92rcd13ifvqcc0","pricing_plan_id":"free"},{"bike_id":"5f5f2d48-54fb-4959-a38a-0307b80517c3","system_id":"levelo_inurba_marseille","lat":43.301429,"lon":5.37413,"is_reserved":false,"is_disabled":false,"rental_uris":{"android":"levelo://app?vid=5f5f2d48-54fb-4959-a38a-0307b80517c3","ios":"levelo://app?vid=5f5f2d48-54fb-4959-a38a-0307b80517c3"},"vehicle_type_id":"4","last_reported":1705648036,"current_range_meters":0,"station_id":"ce4bgs92rcd13ifvqcc0","pricing_plan_id":"free"},{"bike_id":"2e1d7e98-fd89-49c6-a8ff-495bbc919fa0","system_id":"levelo_inurba_marseille","lat":43.301429,"lon":5.37413,"is_reserved":false,"is_disabled":false,"rental_uris":{"android":"levelo://app?vid=2e1d7e98-fd89-49c6-a8ff-495bbc919fa0","ios":"levelo://app?vid=2e1d7e98-fd89-49c6-a8ff-495bbc919fa0"},"vehicle_type_id":"4","last_reported":1705648036,"current_range_meters":1200,"station_id":"ce4bgs92rcd13ifvqcc0","pricing_plan_id":"free"},{"bike_id":"f0e6f343-5d11-4ccd-b521-fba2ec1496b9","system_id":"levelo_inurba_marseille","lat":43.319935,"lon":5.381699,"is_reserved":false,"is_disabled":false,"rental_uris":{"android":"levelo://app?vid=f0e6f343-5d11-4ccd-b521-fba2ec1496b9","ios":"levelo://app?vid=f0e6f343-5d11-4ccd-b521-fba2ec1496b9"},"vehicle_type_id":"4","last_reported":1705648036,"current_range_meters":17200,"station_id":"ce4bhr12rcd13ifvqhpg","pricing_plan_id":"free"},{"bike_id":"2200c8c5-2419-4eb5-b913-cfff868d749d","system_id":"levelo_inurba_marseille","lat":43.319935,"lon":5.381699,"is_reserved":false,"is_disabled":false,"rental_uris":{"android":"levelo://app?vid=2200c8c5-2419-4eb5-b913-cfff868d749d","ios":"levelo://app?vid=2200c8c5-2419-4eb5-b913-cfff868d749d"},"vehicle_type_id":"4","last_reported":1705648036,"current_range_meters":1200,"station_id":"ce4bhr12rcd13ifvqhpg","pricing_plan_id":"free"},{"bike_id":"9426cd9d-4ca2-4df4-8414-1606b7267150","system_id":"levelo_inurba_marseille","lat":43.313571,"lon":5.384829,"is_reserved":false,"is_disabled":false,"rental_uris":{"android":"levelo://app?vid=9426cd9d-4ca2-4df4-8414-1606b7267150","ios":"levelo://app?vid=9426cd9d-4ca2-4df4-8414-1606b7267150"},"vehicle_type_id":"4","last_reported":1705648036,"current_range_meters":22400,"station_id":"ce4bgt92rcd13ifvqcf0","pricing_plan_id":"free"},{"bike_id":"68d9e1da-2ad1-4e30-81d2-c2fb7e824460","system_id":"levelo_inurba_marseille","lat":43.299222,"lon":5.365554,"is_reserved":false,"is_disabled":false,"rental_uris":{"android":"levelo://app?vid=68d9e1da-2ad1-4e30-81d2-c2fb7e824460","ios":"levelo://app?vid=68d9e1da-2ad1-4e30-81d2-c2fb7e824460"},"vehicle_type_id":"4","last_reported":1705648036,"current_range_meters":21200,"station_id":"ce4bgm92rcd13ifvqbr0","pricing_plan_id":"free"},{"bike_id":"d441c98c-2e43-4126-b47f-963c20fb6911","system_id":"levelo_inurba_marseille","lat":43.304606,"lon":5.379026,"is_reserved":false,"is_disabled":false,"rental_uris":{"android":"levelo://app?vid=d441c98c-2e43-4126-b47f-963c20fb6911","ios":"levelo://app?vid=d441c98c-2e43-4126-b47f-963c20fb6911"},"vehicle_type_id":"4","last_reported":1705648036,"current_range_meters":23200,"station_id":"ce4bgup2rcd13ifvqcn0","pricing_plan_id":"free"},{"bike_id":"fd85f526-2b34-4607-b74a-30e0789ec525","system_id":"levelo_inurba_marseille","lat":43.304606,"lon":5.379026,"is_reserved":false,"is_disabled":false,"rental_uris":{"android":"levelo://app?vid=fd85f526-2b34-4607-b74a-30e0789ec525","ios":"levelo://app?vid=fd85f526-2b34-4607-b74a-30e0789ec525"},"vehicle_type_id":"4","last_reported":1705648036,"current_range_meters":25200,"station_id":"ce4bgup2rcd13ifvqcn0","pricing_plan_id":"free"},{"bike_id":"3e7c9caa-aa1e-4de3-8a16-d9f6b252f1aa","system_id":"levelo_inurba_marseille","lat":43.305364,"lon":5.384119,"is_reserved":false,"is_disabled":false,"rental_uris":{"android":"levelo://app?vid=3e7c9caa-aa1e-4de3-8a16-d9f6b252f1aa","ios":"levelo://app?vid=3e7c9caa-aa1e-4de3-8a16-d9f6b252f1aa"},"vehicle_type_id":"4","last_reported":1705648036,"current_range_meters":25600,"station_id":"ce4bgg92rcd13ifvqb30","pricing_plan_id":"free"},{"bike_id":"73c23064-bbcd-480a-8cc8-052e65af91b2","system_id":"levelo_inurba_marseille","lat":43.299243,"lon":5.374807,"is_reserved":false,"is_disabled":false,"rental_uris":{"android":"levelo://app?vid=73c23064-bbcd-480a-8cc8-052e65af91b2","ios":"levelo://app?vid=73c23064-bbcd-480a-8cc8-052e65af91b2"},"vehicle_type_id":"4","last_reported":1705648036,"current_range_meters":26800,"station_id":"ce4bgjh2rcd13ifvqbg0","pricing_plan_id":"free"},{"bike_id":"9ee1956c-f05e-410b-8c17-5f1b53e1ff5e","system_id":"levelo_inurba_marseille","lat":43.30537,"lon":5.38429,"is_reserved":false,"is_disabled":false,"rental_uris":{"android":"levelo://app?vid=9ee1956c-f05e-410b-8c17-5f1b53e1ff5e","ios":"levelo://app?vid=9ee1956c-f05e-410b-8c17-5f1b53e1ff5e"},"vehicle_type_id":"4","last_reported":1705648036,"current_range_meters":31200,"station_id":"ce4bgg92rcd13ifvqb30","pricing_plan_id":"free"},{"bike_id":"89166dc7-c15b-4597-88d6-ed8dbf5c572a","system_id":"levelo_inurba_marseille","lat":43.299243,"lon":5.37481,"is_reserved":false,"is_disabled":false,"rental_uris":{"android":"levelo://app?vid=89166dc7-c15b-4597-88d6-ed8dbf5c572a","ios":"levelo://app?vid=89166dc7-c15b-4597-88d6-ed8dbf5c572a"},"vehicle_type_id":"4","last_reported":1705648036,"current_range_meters":14000,"station_id":"ce4bgjh2rcd13ifvqbg0","pricing_plan_id":"free"},{"bike_id":"a2d437d9-1026-47aa-803f-86c1832cd1d8","system_id":"levelo_inurba_marseille","lat":43.299243,"lon":5.374807,"is_reserved":false,"is_disabled":false,"rental_uris":{"android":"levelo://app?vid=a2d437d9-1026-47aa-803f-86c1832cd1d8","ios":"levelo://app?vid=a2d437d9-1026-47aa-803f-86c1832cd1d8"},"vehicle_type_id":"4","last_reported":1705648036,"current_range_meters":23600,"station_id":"ce4bgjh2rcd13ifvqbg0","pricing_plan_id":"free"},{"bike_id":"34c8b400-5074-46e3-aa02-f5d274dfaa4f","system_id":"levelo_inurba_marseille","lat":43.322879,"lon":5.382676,"is_reserved":false,"is_disabled":false,"rental_uris":{"android":"levelo://app?vid=34c8b400-5074-46e3-aa02-f5d274dfaa4f","ios":"levelo://app?vid=34c8b400-5074-46e3-aa02-f5d274dfaa4f"},"vehicle_type_id":"4","last_reported":1705648036,"current_range_meters":6800,"station_id":"ce4bhr12rcd13ifvqhqg","pricing_plan_id":"free"},{"bike_id":"aa1b3cf4-5953-466c-a16f-697ec5cccb4c","system_id":"levelo_inurba_marseille","lat":43.322911,"lon":5.382673,"is_reserved":false,"is_disabled":false,"rental_uris":{"android":"levelo://app?vid=aa1b3cf4-5953-466c-a16f-697ec5cccb4c","ios":"levelo://app?vid=aa1b3cf4-5953-466c-a16f-697ec5cccb4c"},"vehicle_type_id":"4","last_reported":1705648036,"current_range_meters":6400,"station_id":"ce4bhr12rcd13ifvqhqg","pricing_plan_id":"free"},{"bike_id":"c59e915a-05cb-49b2-8b19-dcae4465ebcc","system_id":"levelo_inurba_marseille","lat":43.322874,"lon":5.382724,"is_reserved":false,"is_disabled":false,"rental_uris":{"android":"levelo://app?vid=c59e915a-05cb-49b2-8b19-dcae4465ebcc","ios":"levelo://app?vid=c59e915a-05cb-49b2-8b19-dcae4465ebcc"},"vehicle_type_id":"4","last_reported":1705648036,"current_range_meters":27600,"station_id":"ce4bhr12rcd13ifvqhqg","pricing_plan_id":"free"},{"bike_id":"510e4003-ad50-4182-a4bb-6da1b111fff5","system_id":"levelo_inurba_marseille","lat":43.322872,"lon":5.382756,"is_reserved":false,"is_disabled":false,"rental_uris":{"android":"levelo://app?vid=510e4003-ad50-4182-a4bb-6da1b111fff5","ios":"levelo://app?vid=510e4003-ad50-4182-a4bb-6da1b111fff5"},"vehicle_type_id":"4","last_reported":1705648036,"current_range_meters":18400,"station_id":"ce4bhr12rcd13ifvqhqg","pricing_plan_id":"free"},{"bike_id":"afe2d6ba-ebda-4981-9104-c77037901f05","system_id":"levelo_inurba_marseille","lat":43.322872,"lon":5.382756,"is_reserved":false,"is_disabled":false,"rental_uris":{"android":"levelo://app?vid=afe2d6ba-ebda-4981-9104-c77037901f05","ios":"levelo://app?vid=afe2d6ba-ebda-4981-9104-c77037901f05"},"vehicle_type_id":"4","last_reported":1705648036,"current_range_meters":8400,"station_id":"ce4bhr12rcd13ifvqhqg","pricing_plan_id":"free"},{"bike_id":"02f97db8-1e1e-4f38-89f3-11868234f7c3","system_id":"levelo_inurba_marseille","lat":43.32823,"lon":5.3668,"is_reserved":false,"is_disabled":false,"rental_uris":{"android":"levelo://app?vid=02f97db8-1e1e-4f38-89f3-11868234f7c3","ios":"levelo://app?vid=02f97db8-1e1e-4f38-89f3-11868234f7c3"},"vehicle_type_id":"4","last_reported":1705648036,"current_range_meters":10400,"station_id":"ce4bhs92rcd13ifvqi0g","pricing_plan_id":"free"},{"bike_id":"33a5b9b9-aec4-4925-974d-72730cfc5f44","system_id":"levelo_inurba_marseille","lat":43.32824,"lon":5.36675,"is_reserved":false,"is_disabled":false,"rental_uris":{"android":"levelo://app?vid=33a5b9b9-aec4-4925-974d-72730cfc5f44","ios":"levelo://app?vid=33a5b9b9-aec4-4925-974d-72730cfc5f44"},"vehicle_type_id":"4","last_reported":1705648036,"current_range_meters":20000,"station_id":"ce4bhs92rcd13ifvqi0g","pricing_plan_id":"free"},{"bike_id":"ea0178f3-2c6b-4af6-b062-91b0b8dde1df","system_id":"levelo_inurba_marseille","lat":43.32825,"lon":5.366794,"is_reserved":false,"is_disabled":false,"rental_uris":{"android":"levelo://app?vid=ea0178f3-2c6b-4af6-b062-91b0b8dde1df","ios":"levelo://app?vid=ea0178f3-2c6b-4af6-b062-91b0b8dde1df"},"vehicle_type_id":"4","last_reported":1705648036,"current_range_meters":29200,"station_id":"ce4bhs92rcd13ifvqi0g","pricing_plan_id":"free"},{"bike_id":"85cedcff-9e9a-415d-8415-195178ea3cb7","system_id":"levelo_inurba_marseille","lat":43.328256,"lon":5.366796,"is_reserved":false,"is_disabled":false,"rental_uris":{"android":"levelo://app?vid=85cedcff-9e9a-415d-8415-195178ea3cb7","ios":"levelo://app?vid=85cedcff-9e9a-415d-8415-195178ea3cb7"},"vehicle_type_id":"4","last_reported":1705648036,"current_range_meters":12800,"station_id":"ce4bhs92rcd13ifvqi0g","pricing_plan_id":"free"},{"bike_id":"59148974-5dd5-4b80-aebd-ec12c23b58c1","system_id":"levelo_inurba_marseille","lat":43.32826,"lon":5.36691,"is_reserved":false,"is_disabled":false,"rental_uris":{"android":"levelo://app?vid=59148974-5dd5-4b80-aebd-ec12c23b58c1","ios":"levelo://app?vid=59148974-5dd5-4b80-aebd-ec12c23b58c1"},"vehicle_type_id":"4","last_reported":1705648036,"current_range_meters":10800,"station_id":"ce4bhs92rcd13ifvqi0g","pricing_plan_id":"free"},{"bike_id":"7a5cfd19-67b5-4404-837f-9d2597d5b4a4","system_id":"levelo_inurba_marseille","lat":43.32826,"lon":5.36666,"is_reserved":false,"is_disabled":false,"rental_uris":{"android":"levelo://app?vid=7a5cfd19-67b5-4404-837f-9d2597d5b4a4","ios":"levelo://app?vid=7a5cfd19-67b5-4404-837f-9d2597d5b4a4"},"vehicle_type_id":"4","last_reported":1705648036,"current_range_meters":6400,"station_id":"ce4bhs92rcd13ifvqi0g","pricing_plan_id":"free"},{"bike_id":"b3d1df88-d8ad-420f-822b-89111e75191e","system_id":"levelo_inurba_marseille","lat":43.328265,"lon":5.366806,"is_reserved":false,"is_disabled":false,"rental_uris":{"android":"levelo://app?vid=b3d1df88-d8ad-420f-822b-89111e75191e","ios":"levelo://app?vid=b3d1df88-d8ad-420f-822b-89111e75191e"},"vehicle_type_id":"4","last_reported":1705648036,"current_range_meters":400,"station_id":"ce4bhs92rcd13ifvqi0g","pricing_plan_id":"free"},{"bike_id":"6da9db5a-42ba-4fa8-afc9-4fdbb45498c1","system_id":"levelo_inurba_marseille","lat":43.32827,"lon":5.36678,"is_reserved":false,"is_disabled":false,"rental_uris":{"android":"levelo://app?vid=6da9db5a-42ba-4fa8-afc9-4fdbb45498c1","ios":"levelo://app?vid=6da9db5a-42ba-4fa8-afc9-4fdbb45498c1"},"vehicle_type_id":"4","last_reported":1705648036,"current_range_meters":5200,"station_id":"ce4bhs92rcd13ifvqi0g","pricing_plan_id":"free"},{"bike_id":"2849c95b-f1a6-402d-aac7-80ea81f2feb2","system_id":"levelo_inurba_marseille","lat":43.328271,"lon":5.36686,"is_reserved":false,"is_disabled":false,"rental_uris":{"android":"levelo://app?vid=2849c95b-f1a6-402d-aac7-80ea81f2feb2","ios":"levelo://app?vid=2849c95b-f1a6-402d-aac7-80ea81f2feb2"},"vehicle_type_id":"4","last_reported":1705648036,"current_range_meters":26800,"station_id":"ce4bhs92rcd13ifvqi0g","pricing_plan_id":"free"},{"bike_id":"1782ad4d-7cbc-4ac0-af82-b65688e9d34c","system_id":"levelo_inurba_marseille","lat":43.328371,"lon":5.366909,"is_reserved":false,"is_disabled":false,"rental_uris":{"android":"levelo://app?vid=1782ad4d-7cbc-4ac0-af82-b65688e9d34c","ios":"levelo://app?vid=1782ad4d-7cbc-4ac0-af82-b65688e9d34c"},"vehicle_type_id":"4","last_reported":1705648036,"current_range_meters":19600,"station_id":"ce4bhs92rcd13ifvqi0g","pricing_plan_id":"free"},{"bike_id":"88638e12-da12-4596-b7e2-600ab2f62219","system_id":"levelo_inurba_marseille","lat":43.328371,"lon":5.366909,"is_reserved":false,"is_disabled":false,"rental_uris":{"android":"levelo://app?vid=88638e12-da12-4596-b7e2-600ab2f62219","ios":"levelo://app?vid=88638e12-da12-4596-b7e2-600ab2f62219"},"vehicle_type_id":"4","last_reported":1705648036,"current_range_meters":2400,"station_id":"ce4bhs92rcd13ifvqi0g","pricing_plan_id":"free"},{"bike_id":"bae0e6ef-8eeb-485a-a054-bea3431d2035","system_id":"levelo_inurba_marseille","lat":43.328371,"lon":5.366909,"is_reserved":false,"is_disabled":false,"rental_uris":{"android":"levelo://app?vid=bae0e6ef-8eeb-485a-a054-bea3431d2035","ios":"levelo://app?vid=bae0e6ef-8eeb-485a-a054-bea3431d2035"},"vehicle_type_id":"4","last_reported":1705648036,"current_range_meters":11200,"station_id":"ce4bhs92rcd13ifvqi0g","pricing_plan_id":"free"},{"bike_id":"a53b6dde-9c97-4a96-897c-ee7f9265222d","system_id":"levelo_inurba_marseille","lat":43.328371,"lon":5.366909,"is_reserved":false,"is_disabled":false,"rental_uris":{"android":"levelo://app?vid=a53b6dde-9c97-4a96-897c-ee7f9265222d","ios":"levelo://app?vid=a53b6dde-9c97-4a96-897c-ee7f9265222d"},"vehicle_type_id":"4","last_reported":1705648036,"current_range_meters":14000,"station_id":"ce4bhs92rcd13ifvqi0g","pricing_plan_id":"free"},{"bike_id":"641739e6-19de-47df-9491-35da26c3c9da","system_id":"levelo_inurba_marseille","lat":43.328371,"lon":5.366909,"is_reserved":false,"is_disabled":false,"rental_uris":{"android":"levelo://app?vid=641739e6-19de-47df-9491-35da26c3c9da","ios":"levelo://app?vid=641739e6-19de-47df-9491-35da26c3c9da"},"vehicle_type_id":"4","last_reported":1705648036,"current_range_meters":20800,"station_id":"ce4bhs92rcd13ifvqi0g","pricing_plan_id":"free"},{"bike_id":"6b4ea496-3016-42db-af64-ba8beb6e73fc","system_id":"levelo_inurba_marseille","lat":43.328371,"lon":5.366909,"is_reserved":false,"is_disabled":false,"rental_uris":{"android":"levelo://app?vid=6b4ea496-3016-42db-af64-ba8beb6e73fc","ios":"levelo://app?vid=6b4ea496-3016-42db-af64-ba8beb6e73fc"},"vehicle_type_id":"4","last_reported":1705648036,"current_range_meters":16800,"station_id":"ce4bhs92rcd13ifvqi0g","pricing_plan_id":"free"},{"bike_id":"38082c03-fac1-44d3-a79f-5142b4a113a9","system_id":"levelo_inurba_marseille","lat":43.328373,"lon":5.366902,"is_reserved":false,"is_disabled":false,"rental_uris":{"android":"levelo://app?vid=38082c03-fac1-44d3-a79f-5142b4a113a9","ios":"levelo://app?vid=38082c03-fac1-44d3-a79f-5142b4a113a9"},"vehicle_type_id":"4","last_reported":1705648036,"current_range_meters":16000,"station_id":"ce4bhs92rcd13ifvqi0g","pricing_plan_id":"free"},{"bike_id":"e55fb5c0-e19d-4c78-a94e-57085539ff46","system_id":"levelo_inurba_marseille","lat":43.2968,"lon":5.37291,"is_reserved":false,"is_disabled":false,"rental_uris":{"android":"levelo://app?vid=e55fb5c0-e19d-4c78-a94e-57085539ff46","ios":"levelo://app?vid=e55fb5c0-e19d-4c78-a94e-57085539ff46"},"vehicle_type_id":"4","last_reported":1705648036,"current_range_meters":22000,"station_id":"ce4bgk12rcd13ifvqbj0","pricing_plan_id":"free"},{"bike_id":"aa147695-b904-47eb-80f2-8d58fab22e5f","system_id":"levelo_inurba_marseille","lat":43.296131,"lon":5.370791,"is_reserved":false,"is_disabled":false,"rental_uris":{"android":"levelo://app?vid=aa147695-b904-47eb-80f2-8d58fab22e5f","ios":"levelo://app?vid=aa147695-b904-47eb-80f2-8d58fab22e5f"},"vehicle_type_id":"4","last_reported":1705648036,"current_range_meters":31600,"station_id":"ce4bgnh2rcd13ifvqc0g","pricing_plan_id":"free"},{"bike_id":"6ae855db-c6ce-4bba-9f73-e265e6fc5f72","system_id":"levelo_inurba_marseille","lat":43.296131,"lon":5.370791,"is_reserved":false,"is_disabled":false,"rental_uris":{"android":"levelo://app?vid=6ae855db-c6ce-4bba-9f73-e265e6fc5f72","ios":"levelo://app?vid=6ae855db-c6ce-4bba-9f73-e265e6fc5f72"},"vehicle_type_id":"4","last_reported":1705648036,"current_range_meters":25600,"station_id":"ce4bgnh2rcd13ifvqc0g","pricing_plan_id":"free"},{"bike_id":"7147cfc0-3d98-4d3f-a4c9-c1f4d8f2b46f","system_id":"levelo_inurba_marseille","lat":43.296131,"lon":5.370791,"is_reserved":false,"is_disabled":false,"rental_uris":{"android":"levelo://app?vid=7147cfc0-3d98-4d3f-a4c9-c1f4d8f2b46f","ios":"levelo://app?vid=7147cfc0-3d98-4d3f-a4c9-c1f4d8f2b46f"},"vehicle_type_id":"4","last_reported":1705648036,"current_range_meters":30400,"station_id":"ce4bgnh2rcd13ifvqc0g","pricing_plan_id":"free"},{"bike_id":"6b1ac908-449f-42bd-ba46-0deca7bae048","system_id":"levelo_inurba_marseille","lat":43.296131,"lon":5.370791,"is_reserved":false,"is_disabled":false,"rental_uris":{"android":"levelo://app?vid=6b1ac908-449f-42bd-ba46-0deca7bae048","ios":"levelo://app?vid=6b1ac908-449f-42bd-ba46-0deca7bae048"},"vehicle_type_id":"4","last_reported":1705648036,"current_range_meters":26000,"station_id":"ce4bgnh2rcd13ifvqc0g","pricing_plan_id":"free"},{"bike_id":"818f431b-fbef-4b52-a717-8fa7bb5e6401","system_id":"levelo_inurba_marseille","lat":43.296131,"lon":5.370791,"is_reserved":false,"is_disabled":false,"rental_uris":{"android":"levelo://app?vid=818f431b-fbef-4b52-a717-8fa7bb5e6401","ios":"levelo://app?vid=818f431b-fbef-4b52-a717-8fa7bb5e6401"},"vehicle_type_id":"4","last_reported":1705648036,"current_range_meters":31600,"station_id":"ce4bgnh2rcd13ifvqc0g","pricing_plan_id":"free"},{"bike_id":"4ca457c4-6317-453b-8e66-ce9ad219fb8f","system_id":"levelo_inurba_marseille","lat":43.296131,"lon":5.370791,"is_reserved":false,"is_disabled":false,"rental_uris":{"android":"levelo://app?vid=4ca457c4-6317-453b-8e66-ce9ad219fb8f","ios":"levelo://app?vid=4ca457c4-6317-453b-8e66-ce9ad219fb8f"},"vehicle_type_id":"4","last_reported":1705648036,"current_range_meters":25600,"station_id":"ce4bgnh2rcd13ifvqc0g","pricing_plan_id":"free"},{"bike_id":"5a1a818e-a7d8-4780-89c9-2df77c970ecc","system_id":"levelo_inurba_marseille","lat":43.296131,"lon":5.370791,"is_reserved":false,"is_disabled":false,"rental_uris":{"android":"levelo://app?vid=5a1a818e-a7d8-4780-89c9-2df77c970ecc","ios":"levelo://app?vid=5a1a818e-a7d8-4780-89c9-2df77c970ecc"},"vehicle_type_id":"4","last_reported":1705648036,"current_range_meters":26800,"station_id":"ce4bgnh2rcd13ifvqc0g","pricing_plan_id":"free"},{"bike_id":"1aa14191-e2a0-4fc9-97dd-3caf553dd3cc","system_id":"levelo_inurba_marseille","lat":43.296131,"lon":5.370791,"is_reserved":false,"is_disabled":false,"rental_uris":{"android":"levelo://app?vid=1aa14191-e2a0-4fc9-97dd-3caf553dd3cc","ios":"levelo://app?vid=1aa14191-e2a0-4fc9-97dd-3caf553dd3cc"},"vehicle_type_id":"4","last_reported":1705648036,"current_range_meters":26800,"station_id":"ce4bgnh2rcd13ifvqc0g","pricing_plan_id":"free"},{"bike_id":"aeff4c78-8744-49d2-996a-685611708397","system_id":"levelo_inurba_marseille","lat":43.299028,"lon":5.381509,"is_reserved":false,"is_disabled":false,"rental_uris":{"android":"levelo://app?vid=aeff4c78-8744-49d2-996a-685611708397","ios":"levelo://app?vid=aeff4c78-8744-49d2-996a-685611708397"},"vehicle_type_id":"4","last_reported":1705648036,"current_range_meters":18800,"station_id":"ce4bgj12rcd13ifvqbc0","pricing_plan_id":"free"},{"bike_id":"7624b2d4-e2c8-4dbf-a3d5-435def3873f9","system_id":"levelo_inurba_marseille","lat":43.309589,"lon":5.390258,"is_reserved":false,"is_disabled":false,"rental_uris":{"android":"levelo://app?vid=7624b2d4-e2c8-4dbf-a3d5-435def3873f9","ios":"levelo://app?vid=7624b2d4-e2c8-4dbf-a3d5-435def3873f9"},"vehicle_type_id":"4","last_reported":1705648036,"current_range_meters":24000,"station_id":"ce4bgup2rcd13ifvqco0","pricing_plan_id":"free"},{"bike_id":"d4cad057-839e-4481-bf36-a28c6dbccf26","system_id":"levelo_inurba_marseille","lat":43.309589,"lon":5.390258,"is_reserved":false,"is_disabled":false,"rental_uris":{"android":"levelo://app?vid=d4cad057-839e-4481-bf36-a28c6dbccf26","ios":"levelo://app?vid=d4cad057-839e-4481-bf36-a28c6dbccf26"},"vehicle_type_id":"4","last_reported":1705648036,"current_range_meters":26800,"station_id":"ce4bgup2rcd13ifvqco0","pricing_plan_id":"free"},{"bike_id":"c811e294-6ed2-4ada-bfbc-92b71b356359","system_id":"levelo_inurba_marseille","lat":43.309589,"lon":5.390258,"is_reserved":false,"is_disabled":false,"rental_uris":{"android":"levelo://app?vid=c811e294-6ed2-4ada-bfbc-92b71b356359","ios":"levelo://app?vid=c811e294-6ed2-4ada-bfbc-92b71b356359"},"vehicle_type_id":"4","last_reported":1705648036,"current_range_meters":25600,"station_id":"ce4bgup2rcd13ifvqco0","pricing_plan_id":"free"},{"bike_id":"0b015cc3-2389-4486-b1ca-eba0470631c1","system_id":"levelo_inurba_marseille","lat":43.317557,"lon":5.390173,"is_reserved":false,"is_disabled":false,"rental_uris":{"android":"levelo://app?vid=0b015cc3-2389-4486-b1ca-eba0470631c1","ios":"levelo://app?vid=0b015cc3-2389-4486-b1ca-eba0470631c1"},"vehicle_type_id":"4","last_reported":1705648036,"current_range_meters":6800,"station_id":"ce4bhqp2rcd13ifvqhng","pricing_plan_id":"free"},{"bike_id":"a443f054-1d0a-4801-b2c7-eac97ebfa79b","system_id":"levelo_inurba_marseille","lat":43.317557,"lon":5.390173,"is_reserved":false,"is_disabled":false,"rental_uris":{"android":"levelo://app?vid=a443f054-1d0a-4801-b2c7-eac97ebfa79b","ios":"levelo://app?vid=a443f054-1d0a-4801-b2c7-eac97ebfa79b"},"vehicle_type_id":"4","last_reported":1705648036,"current_range_meters":11600,"station_id":"ce4bhqp2rcd13ifvqhng","pricing_plan_id":"free"},{"bike_id":"986d08bb-3947-40d3-b2ab-e75d58963874","system_id":"levelo_inurba_marseille","lat":43.317557,"lon":5.390173,"is_reserved":false,"is_disabled":false,"rental_uris":{"android":"levelo://app?vid=986d08bb-3947-40d3-b2ab-e75d58963874","ios":"levelo://app?vid=986d08bb-3947-40d3-b2ab-e75d58963874"},"vehicle_type_id":"4","last_reported":1705648036,"current_range_meters":24800,"station_id":"ce4bhqp2rcd13ifvqhng","pricing_plan_id":"free"},{"bike_id":"7d8ee653-4df0-4cbe-8624-9a044210a969","system_id":"levelo_inurba_marseille","lat":43.317557,"lon":5.390173,"is_reserved":false,"is_disabled":false,"rental_uris":{"android":"levelo://app?vid=7d8ee653-4df0-4cbe-8624-9a044210a969","ios":"levelo://app?vid=7d8ee653-4df0-4cbe-8624-9a044210a969"},"vehicle_type_id":"4","last_reported":1705648036,"current_range_meters":26800,"station_id":"ce4bhqp2rcd13ifvqhng","pricing_plan_id":"free"},{"bike_id":"8966ddbe-985e-4787-8591-79fc8c9a9b7f","system_id":"levelo_inurba_marseille","lat":43.298037,"lon":5.381066,"is_reserved":false,"is_disabled":false,"rental_uris":{"android":"levelo://app?vid=8966ddbe-985e-4787-8591-79fc8c9a9b7f","ios":"levelo://app?vid=8966ddbe-985e-4787-8591-79fc8c9a9b7f"},"vehicle_type_id":"4","last_reported":1705648036,"current_range_meters":26400,"station_id":"ce4bgip2rcd13ifvqbb0","pricing_plan_id":"free"},{"bike_id":"a64e2d9d-f330-48eb-bd82-0f57d309aa41","system_id":"levelo_inurba_marseille","lat":43.298037,"lon":5.381066,"is_reserved":false,"is_disabled":false,"rental_uris":{"android":"levelo://app?vid=a64e2d9d-f330-48eb-bd82-0f57d309aa41","ios":"levelo://app?vid=a64e2d9d-f330-48eb-bd82-0f57d309aa41"},"vehicle_type_id":"4","last_reported":1705648036,"current_range_meters":30400,"station_id":"ce4bgip2rcd13ifvqbb0","pricing_plan_id":"free"},{"bike_id":"02cb121d-af56-478c-a21f-831c3a3ebb8d","system_id":"levelo_inurba_marseille","lat":43.298037,"lon":5.381066,"is_reserved":false,"is_disabled":false,"rental_uris":{"android":"levelo://app?vid=02cb121d-af56-478c-a21f-831c3a3ebb8d","ios":"levelo://app?vid=02cb121d-af56-478c-a21f-831c3a3ebb8d"},"vehicle_type_id":"4","last_reported":1705648036,"current_range_meters":21600,"station_id":"ce4bgip2rcd13ifvqbb0","pricing_plan_id":"free"},{"bike_id":"83012c23-3f62-48d1-889b-ce3860250a2e","system_id":"levelo_inurba_marseille","lat":43.298037,"lon":5.381066,"is_reserved":false,"is_disabled":false,"rental_uris":{"android":"levelo://app?vid=83012c23-3f62-48d1-889b-ce3860250a2e","ios":"levelo://app?vid=83012c23-3f62-48d1-889b-ce3860250a2e"},"vehicle_type_id":"4","last_reported":1705648036,"current_range_meters":30800,"station_id":"ce4bgip2rcd13ifvqbb0","pricing_plan_id":"free"},{"bike_id":"ed8f2dd7-8300-4875-8e01-f1b375fdb60a","system_id":"levelo_inurba_marseille","lat":43.304274,"lon":5.388873,"is_reserved":false,"is_disabled":false,"rental_uris":{"android":"levelo://app?vid=ed8f2dd7-8300-4875-8e01-f1b375fdb60a","ios":"levelo://app?vid=ed8f2dd7-8300-4875-8e01-f1b375fdb60a"},"vehicle_type_id":"4","last_reported":1705648036,"current_range_meters":20000,"station_id":"ce4bgk12rcd13ifvqbi0","pricing_plan_id":"free"},{"bike_id":"f9a51851-b468-47f9-8d17-1da9eca7c662","system_id":"levelo_inurba_marseille","lat":43.304278,"lon":5.388868,"is_reserved":false,"is_disabled":false,"rental_uris":{"android":"levelo://app?vid=f9a51851-b468-47f9-8d17-1da9eca7c662","ios":"levelo://app?vid=f9a51851-b468-47f9-8d17-1da9eca7c662"},"vehicle_type_id":"4","last_reported":1705648036,"current_range_meters":1200,"station_id":"ce4bgk12rcd13ifvqbi0","pricing_plan_id":"free"},{"bike_id":"e79938eb-d4d4-49e5-976c-f4ca06cc0c65","system_id":"levelo_inurba_marseille","lat":43.298037,"lon":5.381066,"is_reserved":false,"is_disabled":false,"rental_uris":{"android":"levelo://app?vid=e79938eb-d4d4-49e5-976c-f4ca06cc0c65","ios":"levelo://app?vid=e79938eb-d4d4-49e5-976c-f4ca06cc0c65"},"vehicle_type_id":"4","last_reported":1705648036,"current_range_meters":17600,"station_id":"ce4bgip2rcd13ifvqbb0","pricing_plan_id":"free"},{"bike_id":"44c4886e-9e7f-48b3-b391-481eccf75440","system_id":"levelo_inurba_marseille","lat":43.296263,"lon":5.377094,"is_reserved":false,"is_disabled":false,"rental_uris":{"android":"levelo://app?vid=44c4886e-9e7f-48b3-b391-481eccf75440","ios":"levelo://app?vid=44c4886e-9e7f-48b3-b391-481eccf75440"},"vehicle_type_id":"4","last_reported":1705648036,"current_range_meters":21200,"station_id":"ce4bgi92rcd13ifvqb90","pricing_plan_id":"free"},{"bike_id":"532eef4b-f2ef-4e5e-9fda-bf6e9efd2da5","system_id":"levelo_inurba_marseille","lat":43.296263,"lon":5.377094,"is_reserved":false,"is_disabled":false,"rental_uris":{"android":"levelo://app?vid=532eef4b-f2ef-4e5e-9fda-bf6e9efd2da5","ios":"levelo://app?vid=532eef4b-f2ef-4e5e-9fda-bf6e9efd2da5"},"vehicle_type_id":"4","last_reported":1705648036,"current_range_meters":15200,"station_id":"ce4bgi92rcd13ifvqb90","pricing_plan_id":"free"},{"bike_id":"018075ce-08a6-4e7a-851e-3ac8c1aba935","system_id":"levelo_inurba_marseille","lat":43.295279,"lon":5.375048,"is_reserved":false,"is_disabled":false,"rental_uris":{"android":"levelo://app?vid=018075ce-08a6-4e7a-851e-3ac8c1aba935","ios":"levelo://app?vid=018075ce-08a6-4e7a-851e-3ac8c1aba935"},"vehicle_type_id":"4","last_reported":1705648036,"current_range_meters":17600,"station_id":"ce4bgkp2rcd13ifvqbmg","pricing_plan_id":"free"},{"bike_id":"388f2a3d-c9dc-4c48-a918-f3e377728665","system_id":"levelo_inurba_marseille","lat":43.295279,"lon":5.375048,"is_reserved":false,"is_disabled":false,"rental_uris":{"android":"levelo://app?vid=388f2a3d-c9dc-4c48-a918-f3e377728665","ios":"levelo://app?vid=388f2a3d-c9dc-4c48-a918-f3e377728665"},"vehicle_type_id":"4","last_reported":1705648036,"current_range_meters":31600,"station_id":"ce4bgkp2rcd13ifvqbmg","pricing_plan_id":"free"},{"bike_id":"4a07e542-530c-4768-93f8-ae7c7a503c0e","system_id":"levelo_inurba_marseille","lat":43.295279,"lon":5.375048,"is_reserved":false,"is_disabled":false,"rental_uris":{"android":"levelo://app?vid=4a07e542-530c-4768-93f8-ae7c7a503c0e","ios":"levelo://app?vid=4a07e542-530c-4768-93f8-ae7c7a503c0e"},"vehicle_type_id":"4","last_reported":1705648036,"current_range_meters":25600,"station_id":"ce4bgkp2rcd13ifvqbmg","pricing_plan_id":"free"},{"bike_id":"7448bcbb-55d8-461d-874b-fe129afe1022","system_id":"levelo_inurba_marseille","lat":43.295279,"lon":5.375048,"is_reserved":false,"is_disabled":false,"rental_uris":{"android":"levelo://app?vid=7448bcbb-55d8-461d-874b-fe129afe1022","ios":"levelo://app?vid=7448bcbb-55d8-461d-874b-fe129afe1022"},"vehicle_type_id":"4","last_reported":1705648036,"current_range_meters":24400,"station_id":"ce4bgkp2rcd13ifvqbmg","pricing_plan_id":"free"},{"bike_id":"df9eaf5c-4282-4873-95c0-8c5598549ad3","system_id":"levelo_inurba_marseille","lat":43.295279,"lon":5.375048,"is_reserved":false,"is_disabled":false,"rental_uris":{"android":"levelo://app?vid=df9eaf5c-4282-4873-95c0-8c5598549ad3","ios":"levelo://app?vid=df9eaf5c-4282-4873-95c0-8c5598549ad3"},"vehicle_type_id":"4","last_reported":1705648036,"current_range_meters":27600,"station_id":"ce4bgkp2rcd13ifvqbmg","pricing_plan_id":"free"},{"bike_id":"7218317b-3a98-4f6d-b9bd-a4580fbf777b","system_id":"levelo_inurba_marseille","lat":43.295279,"lon":5.375048,"is_reserved":false,"is_disabled":false,"rental_uris":{"android":"levelo://app?vid=7218317b-3a98-4f6d-b9bd-a4580fbf777b","ios":"levelo://app?vid=7218317b-3a98-4f6d-b9bd-a4580fbf777b"},"vehicle_type_id":"4","last_reported":1705648036,"current_range_meters":24800,"station_id":"ce4bgkp2rcd13ifvqbmg","pricing_plan_id":"free"},{"bike_id":"3f1ac6a1-e676-4499-a5d3-78914f1d8f7e","system_id":"levelo_inurba_marseille","lat":43.323569,"lon":5.38873,"is_reserved":false,"is_disabled":false,"rental_uris":{"android":"levelo://app?vid=3f1ac6a1-e676-4499-a5d3-78914f1d8f7e","ios":"levelo://app?vid=3f1ac6a1-e676-4499-a5d3-78914f1d8f7e"},"vehicle_type_id":"4","last_reported":1705648036,"current_range_meters":5600,"station_id":"ce4bhqp2rcd13ifvqhog","pricing_plan_id":"free"},{"bike_id":"48d01839-1c06-4604-a1d2-ae1f8bd3df35","system_id":"levelo_inurba_marseille","lat":43.32367,"lon":5.388836,"is_reserved":false,"is_disabled":false,"rental_uris":{"android":"levelo://app?vid=48d01839-1c06-4604-a1d2-ae1f8bd3df35","ios":"levelo://app?vid=48d01839-1c06-4604-a1d2-ae1f8bd3df35"},"vehicle_type_id":"4","last_reported":1705648036,"current_range_meters":6400,"station_id":"ce4bhqp2rcd13ifvqhog","pricing_plan_id":"free"},{"bike_id":"e488bc27-b4bd-4ecb-9994-ebd8743b5676","system_id":"levelo_inurba_marseille","lat":43.32362,"lon":5.38882,"is_reserved":false,"is_disabled":false,"rental_uris":{"android":"levelo://app?vid=e488bc27-b4bd-4ecb-9994-ebd8743b5676","ios":"levelo://app?vid=e488bc27-b4bd-4ecb-9994-ebd8743b5676"},"vehicle_type_id":"4","last_reported":1705648036,"current_range_meters":9200,"station_id":"ce4bhqp2rcd13ifvqhog","pricing_plan_id":"free"},{"bike_id":"8830a332-90e7-4935-8f04-108744eae5d6","system_id":"levelo_inurba_marseille","lat":43.32368,"lon":5.3888,"is_reserved":false,"is_disabled":false,"rental_uris":{"android":"levelo://app?vid=8830a332-90e7-4935-8f04-108744eae5d6","ios":"levelo://app?vid=8830a332-90e7-4935-8f04-108744eae5d6"},"vehicle_type_id":"4","last_reported":1705648036,"current_range_meters":1200,"station_id":"ce4bhqp2rcd13ifvqhog","pricing_plan_id":"free"},{"bike_id":"2ec4001f-5cf2-4614-bbfc-ffc6c5b765c3","system_id":"levelo_inurba_marseille","lat":43.32365,"lon":5.38888,"is_reserved":false,"is_disabled":false,"rental_uris":{"android":"levelo://app?vid=2ec4001f-5cf2-4614-bbfc-ffc6c5b765c3","ios":"levelo://app?vid=2ec4001f-5cf2-4614-bbfc-ffc6c5b765c3"},"vehicle_type_id":"4","last_reported":1705648036,"current_range_meters":17200,"station_id":"ce4bhqp2rcd13ifvqhog","pricing_plan_id":"free"},{"bike_id":"76d2d8d7-8638-4213-9d68-910604c565ee","system_id":"levelo_inurba_marseille","lat":43.32376,"lon":5.38892,"is_reserved":false,"is_disabled":false,"rental_uris":{"android":"levelo://app?vid=76d2d8d7-8638-4213-9d68-910604c565ee","ios":"levelo://app?vid=76d2d8d7-8638-4213-9d68-910604c565ee"},"vehicle_type_id":"4","last_reported":1705648036,"current_range_meters":0,"station_id":"ce4bhqp2rcd13ifvqhog","pricing_plan_id":"free"},{"bike_id":"68ea6136-1ed2-48b7-9eee-a83c4272e619","system_id":"levelo_inurba_marseille","lat":43.29602,"lon":5.381084,"is_reserved":false,"is_disabled":false,"rental_uris":{"android":"levelo://app?vid=68ea6136-1ed2-48b7-9eee-a83c4272e619","ios":"levelo://app?vid=68ea6136-1ed2-48b7-9eee-a83c4272e619"},"vehicle_type_id":"4","last_reported":1705648036,"current_range_meters":17600,"station_id":"ce4bgl12rcd13ifvqbo0","pricing_plan_id":"free"},{"bike_id":"25377ffc-e261-44f7-ade2-a839054bcf1b","system_id":"levelo_inurba_marseille","lat":43.29601,"lon":5.381084,"is_reserved":false,"is_disabled":false,"rental_uris":{"android":"levelo://app?vid=25377ffc-e261-44f7-ade2-a839054bcf1b","ios":"levelo://app?vid=25377ffc-e261-44f7-ade2-a839054bcf1b"},"vehicle_type_id":"4","last_reported":1705648036,"current_range_meters":16000,"station_id":"ce4bgl12rcd13ifvqbo0","pricing_plan_id":"free"},{"bike_id":"c3a73e39-2e07-4978-b167-fe18f4e2a1b0","system_id":"levelo_inurba_marseille","lat":43.283502,"lon":5.386471,"is_reserved":false,"is_disabled":false,"rental_uris":{"android":"levelo://app?vid=c3a73e39-2e07-4978-b167-fe18f4e2a1b0","ios":"levelo://app?vid=c3a73e39-2e07-4978-b167-fe18f4e2a1b0"},"vehicle_type_id":"4","last_reported":1705648036,"current_range_meters":25200,"station_id":"ce4bh492rcd13ifvqdvg","pricing_plan_id":"free"},{"bike_id":"bac455df-667c-4c19-8b17-6ffa078d4380","system_id":"levelo_inurba_marseille","lat":43.292749,"lon":5.368402,"is_reserved":false,"is_disabled":false,"rental_uris":{"android":"levelo://app?vid=bac455df-667c-4c19-8b17-6ffa078d4380","ios":"levelo://app?vid=bac455df-667c-4c19-8b17-6ffa078d4380"},"vehicle_type_id":"4","last_reported":1705648036,"current_range_meters":29200,"station_id":"ce4bhbp2rcd13ifvqesg","pricing_plan_id":"free"},{"bike_id":"f2e52203-8358-4fe4-9ae3-d45c0a259bcd","system_id":"levelo_inurba_marseille","lat":43.305994,"lon":5.393687,"is_reserved":false,"is_disabled":false,"rental_uris":{"android":"levelo://app?vid=f2e52203-8358-4fe4-9ae3-d45c0a259bcd","ios":"levelo://app?vid=f2e52203-8358-4fe4-9ae3-d45c0a259bcd"},"vehicle_type_id":"4","last_reported":1705648036,"current_range_meters":18000,"station_id":"ce4bh0p2rcd13ifvqd80","pricing_plan_id":"free"},{"bike_id":"93e1067e-6ed3-4ca4-a285-aa568dfed99a","system_id":"levelo_inurba_marseille","lat":43.305994,"lon":5.393687,"is_reserved":false,"is_disabled":false,"rental_uris":{"android":"levelo://app?vid=93e1067e-6ed3-4ca4-a285-aa568dfed99a","ios":"levelo://app?vid=93e1067e-6ed3-4ca4-a285-aa568dfed99a"},"vehicle_type_id":"4","last_reported":1705648036,"current_range_meters":22400,"station_id":"ce4bh0p2rcd13ifvqd80","pricing_plan_id":"free"},{"bike_id":"3960338a-3845-4eec-a4df-2ba3b107e3c8","system_id":"levelo_inurba_marseille","lat":43.305994,"lon":5.393687,"is_reserved":false,"is_disabled":false,"rental_uris":{"android":"levelo://app?vid=3960338a-3845-4eec-a4df-2ba3b107e3c8","ios":"levelo://app?vid=3960338a-3845-4eec-a4df-2ba3b107e3c8"},"vehicle_type_id":"4","last_reported":1705648036,"current_range_meters":29200,"station_id":"ce4bh0p2rcd13ifvqd80","pricing_plan_id":"free"},{"bike_id":"c395b1ed-de2c-4230-81bc-565438897f92","system_id":"levelo_inurba_marseille","lat":43.30591,"lon":5.39355,"is_reserved":false,"is_disabled":false,"rental_uris":{"android":"levelo://app?vid=c395b1ed-de2c-4230-81bc-565438897f92","ios":"levelo://app?vid=c395b1ed-de2c-4230-81bc-565438897f92"},"vehicle_type_id":"4","last_reported":1705648036,"current_range_meters":0,"station_id":"","pricing_plan_id":"free"},{"bike_id":"04c51690-6f6c-4821-aa84-5418a3fede36","system_id":"levelo_inurba_marseille","lat":43.305994,"lon":5.393687,"is_reserved":false,"is_disabled":false,"rental_uris":{"android":"levelo://app?vid=04c51690-6f6c-4821-aa84-5418a3fede36","ios":"levelo://app?vid=04c51690-6f6c-4821-aa84-5418a3fede36"},"vehicle_type_id":"4","last_reported":1705648036,"current_range_meters":21200,"station_id":"ce4bh0p2rcd13ifvqd80","pricing_plan_id":"free"},{"bike_id":"e200ab54-65ef-48bf-8ab1-dc331bb4410b","system_id":"levelo_inurba_marseille","lat":43.305994,"lon":5.393687,"is_reserved":false,"is_disabled":false,"rental_uris":{"android":"levelo://app?vid=e200ab54-65ef-48bf-8ab1-dc331bb4410b","ios":"levelo://app?vid=e200ab54-65ef-48bf-8ab1-dc331bb4410b"},"vehicle_type_id":"4","last_reported":1705648036,"current_range_meters":27600,"station_id":"ce4bh0p2rcd13ifvqd80","pricing_plan_id":"free"},{"bike_id":"100f18f7-067d-4c74-96a7-062fe2c5c29c","system_id":"levelo_inurba_marseille","lat":43.305994,"lon":5.393687,"is_reserved":false,"is_disabled":false,"rental_uris":{"android":"levelo://app?vid=100f18f7-067d-4c74-96a7-062fe2c5c29c","ios":"levelo://app?vid=100f18f7-067d-4c74-96a7-062fe2c5c29c"},"vehicle_type_id":"4","last_reported":1705648036,"current_range_meters":17600,"station_id":"ce4bh0p2rcd13ifvqd80","pricing_plan_id":"free"},{"bike_id":"91325232-b7c7-4ab0-b66b-ec7c31f5c08d","system_id":"levelo_inurba_marseille","lat":43.305994,"lon":5.393687,"is_reserved":false,"is_disabled":false,"rental_uris":{"android":"levelo://app?vid=91325232-b7c7-4ab0-b66b-ec7c31f5c08d","ios":"levelo://app?vid=91325232-b7c7-4ab0-b66b-ec7c31f5c08d"},"vehicle_type_id":"4","last_reported":1705648036,"current_range_meters":18400,"station_id":"ce4bh0p2rcd13ifvqd80","pricing_plan_id":"free"},{"bike_id":"70b7698e-b450-48c3-975c-c8a18ccd4b97","system_id":"levelo_inurba_marseille","lat":43.305994,"lon":5.393687,"is_reserved":false,"is_disabled":false,"rental_uris":{"android":"levelo://app?vid=70b7698e-b450-48c3-975c-c8a18ccd4b97","ios":"levelo://app?vid=70b7698e-b450-48c3-975c-c8a18ccd4b97"},"vehicle_type_id":"4","last_reported":1705648036,"current_range_meters":18400,"station_id":"ce4bh0p2rcd13ifvqd80","pricing_plan_id":"free"},{"bike_id":"1cca00a7-2a38-41d3-a5c4-577c5b953858","system_id":"levelo_inurba_marseille","lat":43.305994,"lon":5.393687,"is_reserved":false,"is_disabled":false,"rental_uris":{"android":"levelo://app?vid=1cca00a7-2a38-41d3-a5c4-577c5b953858","ios":"levelo://app?vid=1cca00a7-2a38-41d3-a5c4-577c5b953858"},"vehicle_type_id":"4","last_reported":1705648036,"current_range_meters":28000,"station_id":"ce4bh0p2rcd13ifvqd80","pricing_plan_id":"free"},{"bike_id":"c7464e50-2373-41d8-8fb9-e8aa2f45b7ca","system_id":"levelo_inurba_marseille","lat":43.305994,"lon":5.393687,"is_reserved":false,"is_disabled":false,"rental_uris":{"android":"levelo://app?vid=c7464e50-2373-41d8-8fb9-e8aa2f45b7ca","ios":"levelo://app?vid=c7464e50-2373-41d8-8fb9-e8aa2f45b7ca"},"vehicle_type_id":"4","last_reported":1705648036,"current_range_meters":11600,"station_id":"ce4bh0p2rcd13ifvqd80","pricing_plan_id":"free"},{"bike_id":"3fa4e361-1d10-4fdf-b9cd-f0ca0dd26347","system_id":"levelo_inurba_marseille","lat":43.305994,"lon":5.393687,"is_reserved":false,"is_disabled":false,"rental_uris":{"android":"levelo://app?vid=3fa4e361-1d10-4fdf-b9cd-f0ca0dd26347","ios":"levelo://app?vid=3fa4e361-1d10-4fdf-b9cd-f0ca0dd26347"},"vehicle_type_id":"4","last_reported":1705648036,"current_range_meters":12400,"station_id":"ce4bh0p2rcd13ifvqd80","pricing_plan_id":"free"},{"bike_id":"4d9c4a8c-0705-4255-b1f8-b897ca8e43d4","system_id":"levelo_inurba_marseille","lat":43.305994,"lon":5.393687,"is_reserved":false,"is_disabled":false,"rental_uris":{"android":"levelo://app?vid=4d9c4a8c-0705-4255-b1f8-b897ca8e43d4","ios":"levelo://app?vid=4d9c4a8c-0705-4255-b1f8-b897ca8e43d4"},"vehicle_type_id":"4","last_reported":1705648036,"current_range_meters":18000,"station_id":"ce4bh0p2rcd13ifvqd80","pricing_plan_id":"free"},{"bike_id":"13173c9e-6f5b-457b-bd69-4eac9ef17d1f","system_id":"levelo_inurba_marseille","lat":43.305994,"lon":5.393687,"is_reserved":false,"is_disabled":false,"rental_uris":{"android":"levelo://app?vid=13173c9e-6f5b-457b-bd69-4eac9ef17d1f","ios":"levelo://app?vid=13173c9e-6f5b-457b-bd69-4eac9ef17d1f"},"vehicle_type_id":"4","last_reported":1705648036,"current_range_meters":19200,"station_id":"ce4bh0p2rcd13ifvqd80","pricing_plan_id":"free"},{"bike_id":"13c8b102-04a6-41f0-8d1b-f017d95e08fa","system_id":"levelo_inurba_marseille","lat":43.305994,"lon":5.393687,"is_reserved":false,"is_disabled":false,"rental_uris":{"android":"levelo://app?vid=13c8b102-04a6-41f0-8d1b-f017d95e08fa","ios":"levelo://app?vid=13c8b102-04a6-41f0-8d1b-f017d95e08fa"},"vehicle_type_id":"4","last_reported":1705648036,"current_range_meters":30000,"station_id":"ce4bh0p2rcd13ifvqd80","pricing_plan_id":"free"},{"bike_id":"1a7da6d5-0571-4c60-bb3b-5ca70dffd4d9","system_id":"levelo_inurba_marseille","lat":43.305994,"lon":5.393687,"is_reserved":false,"is_disabled":false,"rental_uris":{"android":"levelo://app?vid=1a7da6d5-0571-4c60-bb3b-5ca70dffd4d9","ios":"levelo://app?vid=1a7da6d5-0571-4c60-bb3b-5ca70dffd4d9"},"vehicle_type_id":"4","last_reported":1705648036,"current_range_meters":22800,"station_id":"ce4bh0p2rcd13ifvqd80","pricing_plan_id":"free"},{"bike_id":"bff8b308-e366-4a48-8ce0-9bce3ae4754c","system_id":"levelo_inurba_marseille","lat":43.305994,"lon":5.393687,"is_reserved":false,"is_disabled":false,"rental_uris":{"android":"levelo://app?vid=bff8b308-e366-4a48-8ce0-9bce3ae4754c","ios":"levelo://app?vid=bff8b308-e366-4a48-8ce0-9bce3ae4754c"},"vehicle_type_id":"4","last_reported":1705648036,"current_range_meters":16800,"station_id":"ce4bh0p2rcd13ifvqd80","pricing_plan_id":"free"},{"bike_id":"934ced4f-95af-460b-92d0-a9e6eb70e4ce","system_id":"levelo_inurba_marseille","lat":43.292311,"lon":5.360731,"is_reserved":false,"is_disabled":false,"rental_uris":{"android":"levelo://app?vid=934ced4f-95af-460b-92d0-a9e6eb70e4ce","ios":"levelo://app?vid=934ced4f-95af-460b-92d0-a9e6eb70e4ce"},"vehicle_type_id":"4","last_reported":1705648036,"current_range_meters":22800,"station_id":"ce4bhbh2rcd13ifvqeqg","pricing_plan_id":"free"},{"bike_id":"d210c0c0-efe0-4845-80a5-31d054b291fb","system_id":"levelo_inurba_marseille","lat":43.298764,"lon":5.388973,"is_reserved":false,"is_disabled":false,"rental_uris":{"android":"levelo://app?vid=d210c0c0-efe0-4845-80a5-31d054b291fb","ios":"levelo://app?vid=d210c0c0-efe0-4845-80a5-31d054b291fb"},"vehicle_type_id":"4","last_reported":1705648036,"current_range_meters":0,"station_id":"ce4bh392rcd13ifvqdl0","pricing_plan_id":"free"},{"bike_id":"bc59182a-c0e7-40b7-8ada-0fd1fdbc5ebf","system_id":"levelo_inurba_marseille","lat":43.309038,"lon":5.396546,"is_reserved":false,"is_disabled":false,"rental_uris":{"android":"levelo://app?vid=bc59182a-c0e7-40b7-8ada-0fd1fdbc5ebf","ios":"levelo://app?vid=bc59182a-c0e7-40b7-8ada-0fd1fdbc5ebf"},"vehicle_type_id":"4","last_reported":1705648036,"current_range_meters":22000,"station_id":"ce4bh012rcd13ifvqcv0","pricing_plan_id":"free"},{"bike_id":"8cc48b94-e704-412b-8563-bf57280de357","system_id":"levelo_inurba_marseille","lat":43.309038,"lon":5.396546,"is_reserved":false,"is_disabled":false,"rental_uris":{"android":"levelo://app?vid=8cc48b94-e704-412b-8563-bf57280de357","ios":"levelo://app?vid=8cc48b94-e704-412b-8563-bf57280de357"},"vehicle_type_id":"4","last_reported":1705648036,"current_range_meters":25600,"station_id":"ce4bh012rcd13ifvqcv0","pricing_plan_id":"free"},{"bike_id":"82392f58-20ed-49af-96d5-b19f25a44163","system_id":"levelo_inurba_marseille","lat":43.29198,"lon":5.35813,"is_reserved":false,"is_disabled":false,"rental_uris":{"android":"levelo://app?vid=82392f58-20ed-49af-96d5-b19f25a44163","ios":"levelo://app?vid=82392f58-20ed-49af-96d5-b19f25a44163"},"vehicle_type_id":"4","last_reported":1705648036,"current_range_meters":22400,"station_id":"ce4bhb12rcd13ifvqel0","pricing_plan_id":"free"},{"bike_id":"966ff916-f2d9-4381-adf0-4885fd1b339e","system_id":"levelo_inurba_marseille","lat":43.309038,"lon":5.396546,"is_reserved":false,"is_disabled":false,"rental_uris":{"android":"levelo://app?vid=966ff916-f2d9-4381-adf0-4885fd1b339e","ios":"levelo://app?vid=966ff916-f2d9-4381-adf0-4885fd1b339e"},"vehicle_type_id":"4","last_reported":1705648036,"current_range_meters":10800,"station_id":"ce4bh012rcd13ifvqcv0","pricing_plan_id":"free"},{"bike_id":"d77a5bb5-6454-4a6b-a351-466b0d80fb3b","system_id":"levelo_inurba_marseille","lat":43.309038,"lon":5.396546,"is_reserved":false,"is_disabled":false,"rental_uris":{"android":"levelo://app?vid=d77a5bb5-6454-4a6b-a351-466b0d80fb3b","ios":"levelo://app?vid=d77a5bb5-6454-4a6b-a351-466b0d80fb3b"},"vehicle_type_id":"4","last_reported":1705648036,"current_range_meters":31600,"station_id":"ce4bh012rcd13ifvqcv0","pricing_plan_id":"free"},{"bike_id":"95de8453-9a51-4969-831b-a2a289b93878","system_id":"levelo_inurba_marseille","lat":43.29198,"lon":5.35803,"is_reserved":false,"is_disabled":false,"rental_uris":{"android":"levelo://app?vid=95de8453-9a51-4969-831b-a2a289b93878","ios":"levelo://app?vid=95de8453-9a51-4969-831b-a2a289b93878"},"vehicle_type_id":"4","last_reported":1705648036,"current_range_meters":18000,"station_id":"ce4bhb12rcd13ifvqel0","pricing_plan_id":"free"},{"bike_id":"89b466d5-747f-4217-8eac-7d14c5c08ba3","system_id":"levelo_inurba_marseille","lat":43.291994,"lon":5.357886,"is_reserved":false,"is_disabled":false,"rental_uris":{"android":"levelo://app?vid=89b466d5-747f-4217-8eac-7d14c5c08ba3","ios":"levelo://app?vid=89b466d5-747f-4217-8eac-7d14c5c08ba3"},"vehicle_type_id":"4","last_reported":1705648036,"current_range_meters":16400,"station_id":"ce4bhb12rcd13ifvqel0","pricing_plan_id":"free"},{"bike_id":"883cc4c9-72f2-4995-903b-b967619bc3cd","system_id":"levelo_inurba_marseille","lat":43.309038,"lon":5.396546,"is_reserved":false,"is_disabled":false,"rental_uris":{"android":"levelo://app?vid=883cc4c9-72f2-4995-903b-b967619bc3cd","ios":"levelo://app?vid=883cc4c9-72f2-4995-903b-b967619bc3cd"},"vehicle_type_id":"4","last_reported":1705648036,"current_range_meters":31600,"station_id":"ce4bh012rcd13ifvqcv0","pricing_plan_id":"free"},{"bike_id":"4a46300c-10cd-4637-9dbd-350cf5d42386","system_id":"levelo_inurba_marseille","lat":43.309038,"lon":5.396546,"is_reserved":false,"is_disabled":false,"rental_uris":{"android":"levelo://app?vid=4a46300c-10cd-4637-9dbd-350cf5d42386","ios":"levelo://app?vid=4a46300c-10cd-4637-9dbd-350cf5d42386"},"vehicle_type_id":"4","last_reported":1705648036,"current_range_meters":24000,"station_id":"ce4bh012rcd13ifvqcv0","pricing_plan_id":"free"},{"bike_id":"af9f5846-f319-4b44-a5ac-42250bc30dfe","system_id":"levelo_inurba_marseille","lat":43.313291,"lon":5.396838,"is_reserved":false,"is_disabled":false,"rental_uris":{"android":"levelo://app?vid=af9f5846-f319-4b44-a5ac-42250bc30dfe","ios":"levelo://app?vid=af9f5846-f319-4b44-a5ac-42250bc30dfe"},"vehicle_type_id":"4","last_reported":1705648036,"current_range_meters":25200,"station_id":"ce4bgvp2rcd13ifvqcu0","pricing_plan_id":"free"},{"bike_id":"594ca8dd-9a23-4c08-a4ce-d3939694c9d4","system_id":"levelo_inurba_marseille","lat":43.313291,"lon":5.396838,"is_reserved":false,"is_disabled":false,"rental_uris":{"android":"levelo://app?vid=594ca8dd-9a23-4c08-a4ce-d3939694c9d4","ios":"levelo://app?vid=594ca8dd-9a23-4c08-a4ce-d3939694c9d4"},"vehicle_type_id":"4","last_reported":1705648036,"current_range_meters":30400,"station_id":"ce4bgvp2rcd13ifvqcu0","pricing_plan_id":"free"},{"bike_id":"69a5a573-6f73-4038-9d02-f377b6d7081f","system_id":"levelo_inurba_marseille","lat":43.313255,"lon":5.396974,"is_reserved":false,"is_disabled":false,"rental_uris":{"android":"levelo://app?vid=69a5a573-6f73-4038-9d02-f377b6d7081f","ios":"levelo://app?vid=69a5a573-6f73-4038-9d02-f377b6d7081f"},"vehicle_type_id":"4","last_reported":1705648036,"current_range_meters":28400,"station_id":"ce4bgvp2rcd13ifvqcu0","pricing_plan_id":"free"},{"bike_id":"086505e2-e395-4616-b47e-bb25e4d31dce","system_id":"levelo_inurba_marseille","lat":43.313291,"lon":5.396838,"is_reserved":false,"is_disabled":false,"rental_uris":{"android":"levelo://app?vid=086505e2-e395-4616-b47e-bb25e4d31dce","ios":"levelo://app?vid=086505e2-e395-4616-b47e-bb25e4d31dce"},"vehicle_type_id":"4","last_reported":1705648036,"current_range_meters":31600,"station_id":"ce4bgvp2rcd13ifvqcu0","pricing_plan_id":"free"},{"bike_id":"8e551101-d672-427b-a7a4-360b3c010dd0","system_id":"levelo_inurba_marseille","lat":43.291994,"lon":5.357886,"is_reserved":false,"is_disabled":false,"rental_uris":{"android":"levelo://app?vid=8e551101-d672-427b-a7a4-360b3c010dd0","ios":"levelo://app?vid=8e551101-d672-427b-a7a4-360b3c010dd0"},"vehicle_type_id":"4","last_reported":1705648036,"current_range_meters":7200,"station_id":"ce4bhb12rcd13ifvqel0","pricing_plan_id":"free"},{"bike_id":"232d99d9-439e-4f2a-a964-a56400edb9e1","system_id":"levelo_inurba_marseille","lat":43.313281,"lon":5.397036,"is_reserved":false,"is_disabled":false,"rental_uris":{"android":"levelo://app?vid=232d99d9-439e-4f2a-a964-a56400edb9e1","ios":"levelo://app?vid=232d99d9-439e-4f2a-a964-a56400edb9e1"},"vehicle_type_id":"4","last_reported":1705648036,"current_range_meters":11600,"station_id":"ce4bgvp2rcd13ifvqcu0","pricing_plan_id":"free"},{"bike_id":"0647c76e-f225-4c0b-a865-87d9f93c4281","system_id":"levelo_inurba_marseille","lat":43.291813,"lon":5.357943,"is_reserved":false,"is_disabled":false,"rental_uris":{"android":"levelo://app?vid=0647c76e-f225-4c0b-a865-87d9f93c4281","ios":"levelo://app?vid=0647c76e-f225-4c0b-a865-87d9f93c4281"},"vehicle_type_id":"4","last_reported":1705648036,"current_range_meters":2000,"station_id":"ce4bhb12rcd13ifvqel0","pricing_plan_id":"free"},{"bike_id":"3847d04e-74d7-417b-92e9-c96678943ed8","system_id":"levelo_inurba_marseille","lat":43.302008,"lon":5.394694,"is_reserved":false,"is_disabled":false,"rental_uris":{"android":"levelo://app?vid=3847d04e-74d7-417b-92e9-c96678943ed8","ios":"levelo://app?vid=3847d04e-74d7-417b-92e9-c96678943ed8"},"vehicle_type_id":"4","last_reported":1705648036,"current_range_meters":31200,"station_id":"ce4bh0p2rcd13ifvqd70","pricing_plan_id":"free"},{"bike_id":"32ca3097-c7db-4515-a7c2-310986d166e5","system_id":"levelo_inurba_marseille","lat":43.302008,"lon":5.394694,"is_reserved":false,"is_disabled":false,"rental_uris":{"android":"levelo://app?vid=32ca3097-c7db-4515-a7c2-310986d166e5","ios":"levelo://app?vid=32ca3097-c7db-4515-a7c2-310986d166e5"},"vehicle_type_id":"4","last_reported":1705648036,"current_range_meters":30800,"station_id":"ce4bh0p2rcd13ifvqd70","pricing_plan_id":"free"},{"bike_id":"357a745a-32a4-4c05-8557-00885035ea73","system_id":"levelo_inurba_marseille","lat":43.302008,"lon":5.394694,"is_reserved":false,"is_disabled":false,"rental_uris":{"android":"levelo://app?vid=357a745a-32a4-4c05-8557-00885035ea73","ios":"levelo://app?vid=357a745a-32a4-4c05-8557-00885035ea73"},"vehicle_type_id":"4","last_reported":1705648036,"current_range_meters":22400,"station_id":"ce4bh0p2rcd13ifvqd70","pricing_plan_id":"free"},{"bike_id":"1e9b9da5-397c-4c44-8c9f-022a6c028085","system_id":"levelo_inurba_marseille","lat":43.30214,"lon":5.39474,"is_reserved":false,"is_disabled":false,"rental_uris":{"android":"levelo://app?vid=1e9b9da5-397c-4c44-8c9f-022a6c028085","ios":"levelo://app?vid=1e9b9da5-397c-4c44-8c9f-022a6c028085"},"vehicle_type_id":"4","last_reported":1705648036,"current_range_meters":31200,"station_id":"ce4bh0p2rcd13ifvqd70","pricing_plan_id":"free"},{"bike_id":"9de27978-a842-4c30-bda8-dbf748895729","system_id":"levelo_inurba_marseille","lat":43.290624,"lon":5.359245,"is_reserved":false,"is_disabled":false,"rental_uris":{"android":"levelo://app?vid=9de27978-a842-4c30-bda8-dbf748895729","ios":"levelo://app?vid=9de27978-a842-4c30-bda8-dbf748895729"},"vehicle_type_id":"4","last_reported":1705648036,"current_range_meters":28800,"station_id":"ce4bha92rcd13ifvqeg0","pricing_plan_id":"free"},{"bike_id":"dd3674e4-d7e8-49db-b983-1335e502b75d","system_id":"levelo_inurba_marseille","lat":43.290624,"lon":5.359245,"is_reserved":false,"is_disabled":false,"rental_uris":{"android":"levelo://app?vid=dd3674e4-d7e8-49db-b983-1335e502b75d","ios":"levelo://app?vid=dd3674e4-d7e8-49db-b983-1335e502b75d"},"vehicle_type_id":"4","last_reported":1705648036,"current_range_meters":29600,"station_id":"ce4bha92rcd13ifvqeg0","pricing_plan_id":"free"},{"bike_id":"34c138cb-8d0b-4b84-92f1-42a523c84c60","system_id":"levelo_inurba_marseille","lat":43.290327,"lon":5.375711,"is_reserved":false,"is_disabled":false,"rental_uris":{"android":"levelo://app?vid=34c138cb-8d0b-4b84-92f1-42a523c84c60","ios":"levelo://app?vid=34c138cb-8d0b-4b84-92f1-42a523c84c60"},"vehicle_type_id":"4","last_reported":1705648036,"current_range_meters":31200,"station_id":"ce4bh692rcd13ifvqe90","pricing_plan_id":"free"},{"bike_id":"28bf3e83-b1ea-49f7-b200-a878644a397f","system_id":"levelo_inurba_marseille","lat":43.289184,"lon":5.366408,"is_reserved":false,"is_disabled":false,"rental_uris":{"android":"levelo://app?vid=28bf3e83-b1ea-49f7-b200-a878644a397f","ios":"levelo://app?vid=28bf3e83-b1ea-49f7-b200-a878644a397f"},"vehicle_type_id":"4","last_reported":1705648036,"current_range_meters":19600,"station_id":"ce4bhap2rcd13ifvqek0","pricing_plan_id":"free"},{"bike_id":"dfb58b7b-86bb-4637-8137-083f2e0ddc9b","system_id":"levelo_inurba_marseille","lat":43.289184,"lon":5.366408,"is_reserved":false,"is_disabled":false,"rental_uris":{"android":"levelo://app?vid=dfb58b7b-86bb-4637-8137-083f2e0ddc9b","ios":"levelo://app?vid=dfb58b7b-86bb-4637-8137-083f2e0ddc9b"},"vehicle_type_id":"4","last_reported":1705648036,"current_range_meters":2800,"station_id":"ce4bhap2rcd13ifvqek0","pricing_plan_id":"free"},{"bike_id":"10e469ef-34e4-4589-b9db-0d2b31951f9c","system_id":"levelo_inurba_marseille","lat":43.28941,"lon":5.36397,"is_reserved":false,"is_disabled":false,"rental_uris":{"android":"levelo://app?vid=10e469ef-34e4-4589-b9db-0d2b31951f9c","ios":"levelo://app?vid=10e469ef-34e4-4589-b9db-0d2b31951f9c"},"vehicle_type_id":"4","last_reported":1705648036,"current_range_meters":26000,"station_id":"ce4bhc92rcd13ifvqetg","pricing_plan_id":"free"},{"bike_id":"c5dbd980-e721-4e69-a538-324a988762ce","system_id":"levelo_inurba_marseille","lat":43.2894,"lon":5.3639,"is_reserved":false,"is_disabled":false,"rental_uris":{"android":"levelo://app?vid=c5dbd980-e721-4e69-a538-324a988762ce","ios":"levelo://app?vid=c5dbd980-e721-4e69-a538-324a988762ce"},"vehicle_type_id":"4","last_reported":1705648036,"current_range_meters":28400,"station_id":"ce4bhc92rcd13ifvqetg","pricing_plan_id":"free"},{"bike_id":"78975643-3f74-4332-a023-befd63ff1069","system_id":"levelo_inurba_marseille","lat":43.289184,"lon":5.366408,"is_reserved":false,"is_disabled":false,"rental_uris":{"android":"levelo://app?vid=78975643-3f74-4332-a023-befd63ff1069","ios":"levelo://app?vid=78975643-3f74-4332-a023-befd63ff1069"},"vehicle_type_id":"4","last_reported":1705648036,"current_range_meters":25600,"station_id":"ce4bhap2rcd13ifvqek0","pricing_plan_id":"free"},{"bike_id":"3e11964d-fc05-426e-b1e3-b89c94bc1f83","system_id":"levelo_inurba_marseille","lat":43.302008,"lon":5.394694,"is_reserved":false,"is_disabled":false,"rental_uris":{"android":"levelo://app?vid=3e11964d-fc05-426e-b1e3-b89c94bc1f83","ios":"levelo://app?vid=3e11964d-fc05-426e-b1e3-b89c94bc1f83"},"vehicle_type_id":"4","last_reported":1705648036,"current_range_meters":31200,"station_id":"ce4bh0p2rcd13ifvqd70","pricing_plan_id":"free"},{"bike_id":"bd822b4f-6afc-4001-882d-146a7ccc4829","system_id":"levelo_inurba_marseille","lat":43.290103,"lon":5.356114,"is_reserved":false,"is_disabled":false,"rental_uris":{"android":"levelo://app?vid=bd822b4f-6afc-4001-882d-146a7ccc4829","ios":"levelo://app?vid=bd822b4f-6afc-4001-882d-146a7ccc4829"},"vehicle_type_id":"4","last_reported":1705648036,"current_range_meters":14400,"station_id":"ce4bhb92rcd13ifvqen0","pricing_plan_id":"free"},{"bike_id":"26b58ef9-abd0-4ada-8969-6ccdd7d4dcc9","system_id":"levelo_inurba_marseille","lat":43.290104,"lon":5.356111,"is_reserved":false,"is_disabled":false,"rental_uris":{"android":"levelo://app?vid=26b58ef9-abd0-4ada-8969-6ccdd7d4dcc9","ios":"levelo://app?vid=26b58ef9-abd0-4ada-8969-6ccdd7d4dcc9"},"vehicle_type_id":"4","last_reported":1705648036,"current_range_meters":18800,"station_id":"ce4bhb92rcd13ifvqen0","pricing_plan_id":"free"},{"bike_id":"8f96b3c1-529b-459d-a5bb-4ef8ceb0da0b","system_id":"levelo_inurba_marseille","lat":43.29095,"lon":5.38138,"is_reserved":false,"is_disabled":false,"rental_uris":{"android":"levelo://app?vid=8f96b3c1-529b-459d-a5bb-4ef8ceb0da0b","ios":"levelo://app?vid=8f96b3c1-529b-459d-a5bb-4ef8ceb0da0b"},"vehicle_type_id":"4","last_reported":1705648036,"current_range_meters":23200,"station_id":"ce4bh512rcd13ifvqe2g","pricing_plan_id":"free"},{"bike_id":"2be52fe1-c94b-437d-a74f-155a4b56c77d","system_id":"levelo_inurba_marseille","lat":43.289743,"lon":5.378304,"is_reserved":false,"is_disabled":false,"rental_uris":{"android":"levelo://app?vid=2be52fe1-c94b-437d-a74f-155a4b56c77d","ios":"levelo://app?vid=2be52fe1-c94b-437d-a74f-155a4b56c77d"},"vehicle_type_id":"4","last_reported":1705648036,"current_range_meters":15600,"station_id":"ce4bh9p2rcd13ifvqed0","pricing_plan_id":"free"},{"bike_id":"e6f8c567-142c-4e0c-b27f-96103a7669be","system_id":"levelo_inurba_marseille","lat":43.330442,"lon":5.389148,"is_reserved":false,"is_disabled":false,"rental_uris":{"android":"levelo://app?vid=e6f8c567-142c-4e0c-b27f-96103a7669be","ios":"levelo://app?vid=e6f8c567-142c-4e0c-b27f-96103a7669be"},"vehicle_type_id":"4","last_reported":1705648036,"current_range_meters":19600,"station_id":"ce4bhr92rcd13ifvqhrg","pricing_plan_id":"free"},{"bike_id":"5a3a6bda-4f38-4591-951d-24143e9e10ff","system_id":"levelo_inurba_marseille","lat":43.330442,"lon":5.389148,"is_reserved":false,"is_disabled":false,"rental_uris":{"android":"levelo://app?vid=5a3a6bda-4f38-4591-951d-24143e9e10ff","ios":"levelo://app?vid=5a3a6bda-4f38-4591-951d-24143e9e10ff"},"vehicle_type_id":"4","last_reported":1705648036,"current_range_meters":12800,"station_id":"ce4bhr92rcd13ifvqhrg","pricing_plan_id":"free"},{"bike_id":"405a6318-214e-4286-b6a7-f53543ab2e22","system_id":"levelo_inurba_marseille","lat":43.330442,"lon":5.389148,"is_reserved":false,"is_disabled":false,"rental_uris":{"android":"levelo://app?vid=405a6318-214e-4286-b6a7-f53543ab2e22","ios":"levelo://app?vid=405a6318-214e-4286-b6a7-f53543ab2e22"},"vehicle_type_id":"4","last_reported":1705648036,"current_range_meters":27200,"station_id":"ce4bhr92rcd13ifvqhrg","pricing_plan_id":"free"},{"bike_id":"c4c1a8fb-9c1f-44ab-afcd-5d539332ffb6","system_id":"levelo_inurba_marseille","lat":43.330442,"lon":5.389148,"is_reserved":false,"is_disabled":false,"rental_uris":{"android":"levelo://app?vid=c4c1a8fb-9c1f-44ab-afcd-5d539332ffb6","ios":"levelo://app?vid=c4c1a8fb-9c1f-44ab-afcd-5d539332ffb6"},"vehicle_type_id":"4","last_reported":1705648036,"current_range_meters":20400,"station_id":"ce4bhr92rcd13ifvqhrg","pricing_plan_id":"free"},{"bike_id":"ec5f6629-5ef3-4894-b672-950f8864e5b8","system_id":"levelo_inurba_marseille","lat":43.330442,"lon":5.389148,"is_reserved":false,"is_disabled":false,"rental_uris":{"android":"levelo://app?vid=ec5f6629-5ef3-4894-b672-950f8864e5b8","ios":"levelo://app?vid=ec5f6629-5ef3-4894-b672-950f8864e5b8"},"vehicle_type_id":"4","last_reported":1705648036,"current_range_meters":8800,"station_id":"ce4bhr92rcd13ifvqhrg","pricing_plan_id":"free"},{"bike_id":"032ab1f7-a406-4e66-b5c8-0c1d8f0b810c","system_id":"levelo_inurba_marseille","lat":43.330442,"lon":5.389148,"is_reserved":false,"is_disabled":false,"rental_uris":{"android":"levelo://app?vid=032ab1f7-a406-4e66-b5c8-0c1d8f0b810c","ios":"levelo://app?vid=032ab1f7-a406-4e66-b5c8-0c1d8f0b810c"},"vehicle_type_id":"4","last_reported":1705648036,"current_range_meters":0,"station_id":"ce4bhr92rcd13ifvqhrg","pricing_plan_id":"free"},{"bike_id":"3c6cd8da-dbcd-4568-a57b-a4874ba428f8","system_id":"levelo_inurba_marseille","lat":43.330442,"lon":5.389148,"is_reserved":false,"is_disabled":false,"rental_uris":{"android":"levelo://app?vid=3c6cd8da-dbcd-4568-a57b-a4874ba428f8","ios":"levelo://app?vid=3c6cd8da-dbcd-4568-a57b-a4874ba428f8"},"vehicle_type_id":"4","last_reported":1705648036,"current_range_meters":15200,"station_id":"ce4bhr92rcd13ifvqhrg","pricing_plan_id":"free"},{"bike_id":"a0b68c2c-ada6-479b-9a12-ec54009a1582","system_id":"levelo_inurba_marseille","lat":43.288483,"lon":5.358997,"is_reserved":false,"is_disabled":false,"rental_uris":{"android":"levelo://app?vid=a0b68c2c-ada6-479b-9a12-ec54009a1582","ios":"levelo://app?vid=a0b68c2c-ada6-479b-9a12-ec54009a1582"},"vehicle_type_id":"4","last_reported":1705648036,"current_range_meters":21600,"station_id":"ce4bhb12rcd13ifvqem0","pricing_plan_id":"free"},{"bike_id":"66620d0c-afaa-4004-99c2-8bbfe5234786","system_id":"levelo_inurba_marseille","lat":43.28854,"lon":5.3586,"is_reserved":false,"is_disabled":false,"rental_uris":{"android":"levelo://app?vid=66620d0c-afaa-4004-99c2-8bbfe5234786","ios":"levelo://app?vid=66620d0c-afaa-4004-99c2-8bbfe5234786"},"vehicle_type_id":"4","last_reported":1705648036,"current_range_meters":9200,"station_id":"ce4bhb12rcd13ifvqem0","pricing_plan_id":"free"},{"bike_id":"0f141978-faec-4f34-b3b3-c94e1b144ec0","system_id":"levelo_inurba_marseille","lat":43.28853,"lon":5.35851,"is_reserved":false,"is_disabled":false,"rental_uris":{"android":"levelo://app?vid=0f141978-faec-4f34-b3b3-c94e1b144ec0","ios":"levelo://app?vid=0f141978-faec-4f34-b3b3-c94e1b144ec0"},"vehicle_type_id":"4","last_reported":1705648036,"current_range_meters":9200,"station_id":"ce4bhb12rcd13ifvqem0","pricing_plan_id":"free"},{"bike_id":"fd45db9b-84b1-4d25-885e-eba0ba08ba90","system_id":"levelo_inurba_marseille","lat":43.28856,"lon":5.358371,"is_reserved":false,"is_disabled":false,"rental_uris":{"android":"levelo://app?vid=fd45db9b-84b1-4d25-885e-eba0ba08ba90","ios":"levelo://app?vid=fd45db9b-84b1-4d25-885e-eba0ba08ba90"},"vehicle_type_id":"4","last_reported":1705648036,"current_range_meters":10400,"station_id":"ce4bhb12rcd13ifvqem0","pricing_plan_id":"free"},{"bike_id":"9afdc3ee-c964-4838-af91-749001c606fc","system_id":"levelo_inurba_marseille","lat":43.28856,"lon":5.358371,"is_reserved":false,"is_disabled":false,"rental_uris":{"android":"levelo://app?vid=9afdc3ee-c964-4838-af91-749001c606fc","ios":"levelo://app?vid=9afdc3ee-c964-4838-af91-749001c606fc"},"vehicle_type_id":"4","last_reported":1705648036,"current_range_meters":22400,"station_id":"ce4bhb12rcd13ifvqem0","pricing_plan_id":"free"},{"bike_id":"e8cc2af9-e2ca-433e-b26c-d985060f6258","system_id":"levelo_inurba_marseille","lat":43.288392,"lon":5.358487,"is_reserved":false,"is_disabled":false,"rental_uris":{"android":"levelo://app?vid=e8cc2af9-e2ca-433e-b26c-d985060f6258","ios":"levelo://app?vid=e8cc2af9-e2ca-433e-b26c-d985060f6258"},"vehicle_type_id":"4","last_reported":1705648036,"current_range_meters":25600,"station_id":"ce4bhb12rcd13ifvqem0","pricing_plan_id":"free"},{"bike_id":"fc1ae9c9-5834-4266-ad39-6fed82d75eca","system_id":"levelo_inurba_marseille","lat":43.283494,"lon":5.380945,"is_reserved":false,"is_disabled":false,"rental_uris":{"android":"levelo://app?vid=fc1ae9c9-5834-4266-ad39-6fed82d75eca","ios":"levelo://app?vid=fc1ae9c9-5834-4266-ad39-6fed82d75eca"},"vehicle_type_id":"4","last_reported":1705648036,"current_range_meters":14400,"station_id":"ce4bh412rcd13ifvqdr0","pricing_plan_id":"free"},