{"last_updated":1687284449,"ttl":30,"version":"2.2","data":{"bikes":[{"bike_id":"1667f944-d565-40dd-8d9d-140ee335a0fe","system_id":"levelo_inurba_marseille","lat":43.31218,"lon":5.36854,"is_reserved":false,"is_disabled":false,"rental_uris":{"android":"levelo://app?vid=1667f944-d565-40dd-8d9d-140ee335a0fe","ios":"levelo://app?vid=1667f944-d565-40dd-8d9d-140ee335a0fe"},"vehicle_type_id":"4","last_reported":1687284450,"current_range_meters":0,"station_id":"ce4bgl92rcd13ifvqbq0","pricing_plan_id":"free"},{"bike_id":"6e4fd040-1866-4783-872c-dd21a7ae18af","system_id":"levelo_inurba_marseille","lat":43.31365,"lon":5.37062,"is_reserved":false,"is_disabled":false,"rental_uris":{"android":"levelo://app?vid=6e4fd040-1866-4783-872c-dd21a7ae18af","ios":"levelo://app?vid=6e4fd040-1866-4783-872c-dd21a7ae18af"},"vehicle_type_id":"4","last_reported":1687284450,"current_range_meters":14000,"station_id":"","pricing_plan_id":"free"},{"bike_id":"3da540aa-5929-4d4a-8397-46574265df24","system_id":"levelo_inurba_marseille","lat":43.30756,"lon":5.36719,"is_reserved":false,"is_disabled":false,"rental_uris":{"android":"levelo://app?vid=3da540aa-5929-4d4a-8397-46574265df24","ios":"levelo://app?vid=3da540aa-5929-4d4a-8397-46574265df24"},"vehicle_type_id":"4","last_reported":1687284450,"current_range_meters":16800,"station_id":"","pricing_plan_id":"free"},{"bike_id":"ba6a4a67-26d2-45cf-9427-a18b5844b82d","system_id":"levelo_inurba_marseille","lat":43.308614,"lon":5.372098,"is_reserved":false,"is_disabled":false,"rental_uris":{"android":"levelo://app?vid=ba6a4a67-26d2-45cf-9427-a18b5844b82d","ios":"levelo://app?vid=ba6a4a67-26d2-45cf-9427-a18b5844b82d"},"vehicle_type_id":"4","last_reported":1687284450,"current_range_meters":17200,"station_id":"ce4bguh2rcd13ifvqckg","pricing_plan_id":"free"},{"bike_id":"5fbdbe65-e141-4473-b7c7-3ca166ee6d1f","system_id":"levelo_inurba_marseille","lat":43.3084,"lon":5.3714,"is_reserved":false,"is_disabled":false,"rental_uris":{"android":"levelo://app?vid=5fbdbe65-e141-4473-b7c7-3ca166ee6d1f","ios":"levelo://app?vid=5fbdbe65-e141-4473-b7c7-3ca166ee6d1f"},"vehicle_type_id":"4","last_reported":1687284450,"current_range_meters":8400,"station_id":"","pricing_plan_id":"free"},{"bike_id":"a33f44f3-fa16-4e60-977b-64341c5b07e3","system_id":"levelo_inurba_marseille","lat":43.305714,"lon":5.365633,"is_reserved":false,"is_disabled":false,"rental_uris":{"android":"levelo://app?vid=a33f44f3-fa16-4e60-977b-64341c5b07e3","ios":"levelo://app?vid=a33f44f3-fa16-4e60-977b-64341c5b07e3"},"vehicle_type_id":"4","last_reported":1687284450,"current_range_meters":8000,"station_id":"ce4bgs12rcd13ifvqcag","pricing_plan_id":"free"},{"bike_id":"508bfa82-65ca-4e66-93ac-a27f30b821d8","system_id":"levelo_inurba_marseille","lat":43.305706,"lon":5.365654,"is_reserved":false,"is_disabled":false,"rental_uris":{"android":"levelo://app?vid=508bfa82-65ca-4e66-93ac-a27f30b821d8","ios":"levelo://app?vid=508bfa82-65ca-4e66-93ac-a27f30b821d8"},"vehicle_type_id":"4","last_reported":1687284450,"current_range_meters":21200,"station_id":"ce4bgs12rcd13ifvqcag","pricing_plan_id":"free"},{"bike_id":"8c5a65e0-8341-4563-857a-95cc49aadc1e","system_id":"levelo_inurba_marseille","lat":43.311131,"lon":5.377651,"is_reserved":false,"is_disabled":false,"rental_uris":{"android":"levelo://app?vid=8c5a65e0-8341-4563-857a-95cc49aadc1e","ios":"levelo://app?vid=8c5a65e0-8341-4563-857a-95cc49aadc1e"},"vehicle_type_id":"4","last_reported":1687284450,"current_range_meters":18000,"station_id":"ce4bgt92rcd13ifvqcg0","pricing_plan_id":"free"},{"bike_id":"c62c9b7d-94cb-4a4f-8d51-b6bee4ca9b1c","system_id":"levelo_inurba_marseille","lat":43.317075,"lon":5.377367,"is_reserved":false,"is_disabled":false,"rental_uris":{"android":"levelo://app?vid=c62c9b7d-94cb-4a4f-8d51-b6bee4ca9b1c","ios":"levelo://app?vid=c62c9b7d-94cb-4a4f-8d51-b6bee4ca9b1c"},"vehicle_type_id":"4","last_reported":1687284450,"current_range_meters":13200,"station_id":"ce4bgth2rcd13ifvqch0","pricing_plan_id":"free"},{"bike_id":"157eff7b-c34f-45ca-9e1f-bca1fea1c830","system_id":"levelo_inurba_marseille","lat":43.317075,"lon":5.377367,"is_reserved":false,"is_disabled":false,"rental_uris":{"android":"levelo://app?vid=157eff7b-c34f-45ca-9e1f-bca1fea1c830","ios":"levelo://app?vid=157eff7b-c34f-45ca-9e1f-bca1fea1c830"},"vehicle_type_id":"4","last_reported":1687284450,"current_range_meters":28800,"station_id":"ce4bgth2rcd13ifvqch0","pricing_plan_id":"free"},{"bike_id":"d8884ec4-0f20-4305-8253-c982357ee553","system_id":"levelo_inurba_marseille","lat":43.30301,"lon":5.36853,"is_reserved":false,"is_disabled":false,"rental_uris":{"android":"levelo://app?vid=d8884ec4-0f20-4305-8253-c982357ee553","ios":"levelo://app?vid=d8884ec4-0f20-4305-8253-c982357ee553"},"vehicle_type_id":"4","last_reported":1687284450,"current_range_meters":28400,"station_id":"","pricing_plan_id":"free"},{"bike_id":"7d5096d7-6a6b-469f-96c6-a492d427689a","system_id":"levelo_inurba_marseille","lat":43.315289,"lon":5.380349,"is_reserved":false,"is_disabled":false,"rental_uris":{"android":"levelo://app?vid=7d5096d7-6a6b-469f-96c6-a492d427689a","ios":"levelo://app?vid=7d5096d7-6a6b-469f-96c6-a492d427689a"},"vehicle_type_id":"4","last_reported":1687284450,"current_range_meters":30400,"station_id":"ce4bhsp2rcd13ifvqi50","pricing_plan_id":"free"},{"bike_id":"071c1dd0-65ff-49f3-9a30-c6c1afc6ca61","system_id":"levelo_inurba_marseille","lat":43.31524,"lon":5.38037,"is_reserved":false,"is_disabled":false,"rental_uris":{"android":"levelo://app?vid=071c1dd0-65ff-49f3-9a30-c6c1afc6ca61","ios":"levelo://app?vid=071c1dd0-65ff-49f3-9a30-c6c1afc6ca61"},"vehicle_type_id":"4","last_reported":1687284450,"current_range_meters":6800,"station_id":"ce4bhsp2rcd13ifvqi50","pricing_plan_id":"free"},{"bike_id":"2af1ae09-cc0b-4281-9c66-63cb23820cde","system_id":"levelo_inurba_marseille","lat":43.301939,"lon":5.366286,"is_reserved":false,"is_disabled":false,"rental_uris":{"android":"levelo://app?vid=2af1ae09-cc0b-4281-9c66-63cb23820cde","ios":"levelo://app?vid=2af1ae09-cc0b-4281-9c66-63cb23820cde"},"vehicle_type_id":"4","last_reported":1687284450,"current_range_meters":4800,"station_id":"ce4bgrh2rcd13ifvqc8g","pricing_plan_id":"free"},{"bike_id":"71f3689d-3dee-488a-a5b5-611b616891c1","system_id":"levelo_inurba_marseille","lat":43.308012,"lon":5.381511,"is_reserved":false,"is_disabled":false,"rental_uris":{"android":"levelo://app?vid=71f3689d-3dee-488a-a5b5-611b616891c1","ios":"levelo://app?vid=71f3689d-3dee-488a-a5b5-611b616891c1"},"vehicle_type_id":"4","last_reported":1687284450,"current_range_meters":5200,"station_id":"ce4bgt12rcd13ifvqce0","pricing_plan_id":"free"},{"bike_id":"08abd2b0-2ac0-4403-b1df-1274405e776c","system_id":"levelo_inurba_marseille","lat":43.308012,"lon":5.381511,"is_reserved":false,"is_disabled":false,"rental_uris":{"android":"levelo://app?vid=08abd2b0-2ac0-4403-b1df-1274405e776c","ios":"levelo://app?vid=08abd2b0-2ac0-4403-b1df-1274405e776c"},"vehicle_type_id":"4","last_reported":1687284450,"current_range_meters":10000,"station_id":"ce4bgt12rcd13ifvqce0","pricing_plan_id":"free"},{"bike_id":"ae33307b-fcd5-479b-9ae1-9002ed226c6e","system_id":"levelo_inurba_marseille","lat":43.308012,"lon":5.381511,"is_reserved":false,"is_disabled":false,"rental_uris":{"android":"levelo://app?vid=ae33307b-fcd5-479b-9ae1-9002ed226c6e","ios":"levelo://app?vid=ae33307b-fcd5-479b-9ae1-9002ed226c6e"},"vehicle_type_id":"4","last_reported":1687284450,"current_range_meters":19600,"station_id":"ce4bgt12rcd13ifvqce0","pricing_plan_id":"free"},{"bike_id":"43fc693e-f2a9-4aec-8fd9-d094bb02cb70","system_id":"levelo_inurba_marseille","lat":43.304606,"lon":5.379026,"is_reserved":false,"is_disabled":false,"rental_uris":{"android":"levelo://app?vid=43fc693e-f2a9-4aec-8fd9-d094bb02cb70","ios":"levelo://app?vid=43fc693e-f2a9-4aec-8fd9-d094bb02cb70"},"vehicle_type_id":"4","last_reported":1687284450,"current_range_meters":8800,"station_id":"ce4bgup2rcd13ifvqcn0","pricing_plan_id":"free"},{"bike_id":"e777952e-4869-4ca9-9a36-0c4ff2372dfc","system_id":"levelo_inurba_marseille","lat":43.30026,"lon":5.37058,"is_reserved":false,"is_disabled":false,"rental_uris":{"android":"levelo://app?vid=e777952e-4869-4ca9-9a36-0c4ff2372dfc","ios":"levelo://app?vid=e777952e-4869-4ca9-9a36-0c4ff2372dfc"},"vehicle_type_id":"4","last_reported":1687284450,"current_range_meters":17600,"station_id":"","pricing_plan_id":"free"},{"bike_id":"c7c64f8e-4e44-485d-80ef-c29f6be6f29a","system_id":"levelo_inurba_marseille","lat":43.319935,"lon":5.381699,"is_reserved":false,"is_disabled":false,"rental_uris":{"android":"levelo://app?vid=c7c64f8e-4e44-485d-80ef-c29f6be6f29a","ios":"levelo://app?vid=c7c64f8e-4e44-485d-80ef-c29f6be6f29a"},"vehicle_type_id":"4","last_reported":1687284450,"current_range_meters":3600,"station_id":"ce4bhr12rcd13ifvqhpg","pricing_plan_id":"free"},{"bike_id":"f6dbdca5-240f-4c4f-809e-4c00e06d6699","system_id":"levelo_inurba_marseille","lat":43.305364,"lon":5.384119,"is_reserved":false,"is_disabled":false,"rental_uris":{"android":"levelo://app?vid=f6dbdca5-240f-4c4f-809e-4c00e06d6699","ios":"levelo://app?vid=f6dbdca5-240f-4c4f-809e-4c00e06d6699"},"vehicle_type_id":"4","last_reported":1687284450,"current_range_meters":16400,"station_id":"ce4bgg92rcd13ifvqb30","pricing_plan_id":"free"},{"bike_id":"b6b99719-4d9c-4cf5-b959-e7844da5e543","system_id":"levelo_inurba_marseille","lat":43.29933,"lon":5.37464,"is_reserved":false,"is_disabled":false,"rental_uris":{"android":"levelo://app?vid=b6b99719-4d9c-4cf5-b959-e7844da5e543","ios":"levelo://app?vid=b6b99719-4d9c-4cf5-b959-e7844da5e543"},"vehicle_type_id":"4","last_reported":1687284450,"current_range_meters":10000,"station_id":"ce4bhp12rcd13ifvqh9g","pricing_plan_id":"free"},{"bike_id":"cf711208-de3f-42ad-9cf0-a880a26b74e6","system_id":"levelo_inurba_marseille","lat":43.32627,"lon":5.37498,"is_reserved":false,"is_disabled":false,"rental_uris":{"android":"levelo://app?vid=cf711208-de3f-42ad-9cf0-a880a26b74e6","ios":"levelo://app?vid=cf711208-de3f-42ad-9cf0-a880a26b74e6"},"vehicle_type_id":"4","last_reported":1687284450,"current_range_meters":0,"station_id":"","pricing_plan_id":"free"},{"bike_id":"4fa884fc-e1db-47b2-828e-be0ab4d285b6","system_id":"levelo_inurba_marseille","lat":43.311722,"lon":5.387247,"is_reserved":false,"is_disabled":false,"rental_uris":{"android":"levelo://app?vid=4fa884fc-e1db-47b2-828e-be0ab4d285b6","ios":"levelo://app?vid=4fa884fc-e1db-47b2-828e-be0ab4d285b6"},"vehicle_type_id":"4","last_reported":1687284450,"current_range_meters":8000,"station_id":"ce4bgv12rcd13ifvqcp0","pricing_plan_id":"free"},{"bike_id":"e8e50549-4f14-4a79-8e01-73f4b2c3ac89","system_id":"levelo_inurba_marseille","lat":43.32197,"lon":5.38296,"is_reserved":false,"is_disabled":false,"rental_uris":{"android":"levelo://app?vid=e8e50549-4f14-4a79-8e01-73f4b2c3ac89","ios":"levelo://app?vid=e8e50549-4f14-4a79-8e01-73f4b2c3ac89"},"vehicle_type_id":"4","last_reported":1687284450,"current_range_meters":11600,"station_id":"","pricing_plan_id":"free"},{"bike_id":"db4e72b2-ad08-4787-8cc1-d917696a4d8b","system_id":"levelo_inurba_marseille","lat":43.328371,"lon":5.366909,"is_reserved":false,"is_disabled":false,"rental_uris":{"android":"levelo://app?vid=db4e72b2-ad08-4787-8cc1-d917696a4d8b","ios":"levelo://app?vid=db4e72b2-ad08-4787-8cc1-d917696a4d8b"},"vehicle_type_id":"4","last_reported":1687284450,"current_range_meters":30000,"station_id":"ce4bhs92rcd13ifvqi0g","pricing_plan_id":"free"},{"bike_id":"bb6686a2-be97-4336-b67e-063cbdc7775a","system_id":"levelo_inurba_marseille","lat":43.328371,"lon":5.366909,"is_reserved":false,"is_disabled":false,"rental_uris":{"android":"levelo://app?vid=bb6686a2-be97-4336-b67e-063cbdc7775a","ios":"levelo://app?vid=bb6686a2-be97-4336-b67e-063cbdc7775a"},"vehicle_type_id":"4","last_reported":1687284450,"current_range_meters":6800,"station_id":"ce4bhs92rcd13ifvqi0g","pricing_plan_id":"free"},{"bike_id":"834d1afe-bb61-4a75-ba6d-f90f323b91a4","system_id":"levelo_inurba_marseille","lat":43.328371,"lon":5.366909,"is_reserved":false,"is_disabled":false,"rental_uris":{"android":"levelo://app?vid=834d1afe-bb61-4a75-ba6d-f90f323b91a4","ios":"levelo://app?vid=834d1afe-bb61-4a75-ba6d-f90f323b91a4"},"vehicle_type_id":"4","last_reported":1687284450,"current_range_meters":24800,"station_id":"ce4bhs92rcd13ifvqi0g","pricing_plan_id":"free"},{"bike_id":"f9f1a296-c401-40a0-b431-7544da14c26f","system_id":"levelo_inurba_marseille","lat":43.328371,"lon":5.366909,"is_reserved":false,"is_disabled":false,"rental_uris":{"android":"levelo://app?vid=f9f1a296-c401-40a0-b431-7544da14c26f","ios":"levelo://app?vid=f9f1a296-c401-40a0-b431-7544da14c26f"},"vehicle_type_id":"4","last_reported":1687284450,"current_range_meters":23200,"station_id":"ce4bhs92rcd13ifvqi0g","pricing_plan_id":"free"},{"bike_id":"408cdbd3-920b-45b4-ab4e-0217d7cee4ab","system_id":"levelo_inurba_marseille","lat":43.32832,"lon":5.3669,"is_reserved":false,"is_disabled":false,"rental_uris":{"android":"levelo://app?vid=408cdbd3-920b-45b4-ab4e-0217d7cee4ab","ios":"levelo://app?vid=408cdbd3-920b-45b4-ab4e-0217d7cee4ab"},"vehicle_type_id":"4","last_reported":1687284450,"current_range_meters":10400,"station_id":"ce4bhs92rcd13ifvqi0g","pricing_plan_id":"free"},{"bike_id":"b4ea75e9-eca7-4ccc-91f9-d0cb06a4a0a6","system_id":"levelo_inurba_marseille","lat":43.328371,"lon":5.366912,"is_reserved":false,"is_disabled":false,"rental_uris":{"android":"levelo://app?vid=b4ea75e9-eca7-4ccc-91f9-d0cb06a4a0a6","ios":"levelo://app?vid=b4ea75e9-eca7-4ccc-91f9-d0cb06a4a0a6"},"vehicle_type_id":"4","last_reported":1687284450,"current_range_meters":29600,"station_id":"ce4bhs92rcd13ifvqi0g","pricing_plan_id":"free"},{"bike_id":"349b7ed6-f14e-4e88-9788-495af6e5ffa6","system_id":"levelo_inurba_marseille","lat":43.328371,"lon":5.366909,"is_reserved":false,"is_disabled":false,"rental_uris":{"android":"levelo://app?vid=349b7ed6-f14e-4e88-9788-495af6e5ffa6","ios":"levelo://app?vid=349b7ed6-f14e-4e88-9788-495af6e5ffa6"},"vehicle_type_id":"4","last_reported":1687284450,"current_range_meters":0,"station_id":"ce4bhs92rcd13ifvqi0g","pricing_plan_id":"free"},{"bike_id":"832e1273-fa14-42aa-b411-4f520f45589b","system_id":"levelo_inurba_marseille","lat":43.328371,"lon":5.366912,"is_reserved":false,"is_disabled":false,"rental_uris":{"android":"levelo://app?vid=832e1273-fa14-42aa-b411-4f520f45589b","ios":"levelo://app?vid=832e1273-fa14-42aa-b411-4f520f45589b"},"vehicle_type_id":"4","last_reported":1687284450,"current_range_meters":31200,"station_id":"ce4bhs92rcd13ifvqi0g","pricing_plan_id":"free"},{"bike_id":"176f4894-d7fc-460e-aa5d-7c8c1e206dc3","system_id":"levelo_inurba_marseille","lat":43.29705,"lon":5.36612,"is_reserved":false,"is_disabled":false,"rental_uris":{"android":"levelo://app?vid=176f4894-d7fc-460e-aa5d-7c8c1e206dc3","ios":"levelo://app?vid=176f4894-d7fc-460e-aa5d-7c8c1e206dc3"},"vehicle_type_id":"4","last_reported":1687284450,"current_range_meters":23200,"station_id":"ce4bgn12rcd13ifvqbt0","pricing_plan_id":"free"},{"bike_id":"eaffef81-aa3a-4b52-8b81-19e52849b1b3","system_id":"levelo_inurba_marseille","lat":43.29698,"lon":5.36588,"is_reserved":false,"is_disabled":false,"rental_uris":{"android":"levelo://app?vid=eaffef81-aa3a-4b52-8b81-19e52849b1b3","ios":"levelo://app?vid=eaffef81-aa3a-4b52-8b81-19e52849b1b3"},"vehicle_type_id":"4","last_reported":1687284450,"current_range_meters":3200,"station_id":"ce4bgn12rcd13ifvqbt0","pricing_plan_id":"free"},{"bike_id":"2386cced-4124-4585-b248-effe2964bc9e","system_id":"levelo_inurba_marseille","lat":43.29573,"lon":5.367355,"is_reserved":false,"is_disabled":false,"rental_uris":{"android":"levelo://app?vid=2386cced-4124-4585-b248-effe2964bc9e","ios":"levelo://app?vid=2386cced-4124-4585-b248-effe2964bc9e"},"vehicle_type_id":"4","last_reported":1687284450,"current_range_meters":4400,"station_id":"ce4bgph2rcd13ifvqc2g","pricing_plan_id":"free"},{"bike_id":"8f94a818-09fd-4846-ae68-2992933ba387","system_id":"levelo_inurba_marseille","lat":43.29573,"lon":5.367355,"is_reserved":false,"is_disabled":false,"rental_uris":{"android":"levelo://app?vid=8f94a818-09fd-4846-ae68-2992933ba387","ios":"levelo://app?vid=8f94a818-09fd-4846-ae68-2992933ba387"},"vehicle_type_id":"4","last_reported":1687284450,"current_range_meters":3200,"station_id":"ce4bgph2rcd13ifvqc2g","pricing_plan_id":"free"},{"bike_id":"24f41ca5-b432-4feb-a0c8-a15026b97306","system_id":"levelo_inurba_marseille","lat":43.296131,"lon":5.370773,"is_reserved":false,"is_disabled":false,"rental_uris":{"android":"levelo://app?vid=24f41ca5-b432-4feb-a0c8-a15026b97306","ios":"levelo://app?vid=24f41ca5-b432-4feb-a0c8-a15026b97306"},"vehicle_type_id":"4","last_reported":1687284450,"current_range_meters":3600,"station_id":"ce4bgnh2rcd13ifvqc0g","pricing_plan_id":"free"},{"bike_id":"041bc147-ef2f-419b-bb81-deca3bdf89e2","system_id":"levelo_inurba_marseille","lat":43.29611,"lon":5.36046,"is_reserved":false,"is_disabled":false,"rental_uris":{"android":"levelo://app?vid=041bc147-ef2f-419b-bb81-deca3bdf89e2","ios":"levelo://app?vid=041bc147-ef2f-419b-bb81-deca3bdf89e2"},"vehicle_type_id":"4","last_reported":1687284450,"current_range_meters":21200,"station_id":"","pricing_plan_id":"free"},{"bike_id":"557c76fe-06d1-45b4-9bb1-db279b3fbb78","system_id":"levelo_inurba_marseille","lat":43.2968,"lon":5.37291,"is_reserved":false,"is_disabled":false,"rental_uris":{"android":"levelo://app?vid=557c76fe-06d1-45b4-9bb1-db279b3fbb78","ios":"levelo://app?vid=557c76fe-06d1-45b4-9bb1-db279b3fbb78"},"vehicle_type_id":"4","last_reported":1687284450,"current_range_meters":15600,"station_id":"ce4bgk12rcd13ifvqbj0","pricing_plan_id":"free"},{"bike_id":"40eaa1fe-e8a8-4ef2-a28d-e08343e53ede","system_id":"levelo_inurba_marseille","lat":43.299028,"lon":5.381509,"is_reserved":false,"is_disabled":false,"rental_uris":{"android":"levelo://app?vid=40eaa1fe-e8a8-4ef2-a28d-e08343e53ede","ios":"levelo://app?vid=40eaa1fe-e8a8-4ef2-a28d-e08343e53ede"},"vehicle_type_id":"4","last_reported":1687284450,"current_range_meters":0,"station_id":"ce4bgj12rcd13ifvqbc0","pricing_plan_id":"free"},{"bike_id":"6411ad9a-87f4-47e4-9041-b2bf2c31f2fe","system_id":"levelo_inurba_marseille","lat":43.296935,"lon":5.376544,"is_reserved":false,"is_disabled":false,"rental_uris":{"android":"levelo://app?vid=6411ad9a-87f4-47e4-9041-b2bf2c31f2fe","ios":"levelo://app?vid=6411ad9a-87f4-47e4-9041-b2bf2c31f2fe"},"vehicle_type_id":"4","last_reported":1687284450,"current_range_meters":800,"station_id":"ce4bgkh2rcd13ifvqbl0","pricing_plan_id":"free"},{"bike_id":"ad24bcba-3d84-4b4f-b98c-61ad10be4496","system_id":"levelo_inurba_marseille","lat":43.317557,"lon":5.390173,"is_reserved":false,"is_disabled":false,"rental_uris":{"android":"levelo://app?vid=ad24bcba-3d84-4b4f-b98c-61ad10be4496","ios":"levelo://app?vid=ad24bcba-3d84-4b4f-b98c-61ad10be4496"},"vehicle_type_id":"4","last_reported":1687284450,"current_range_meters":14400,"station_id":"ce4bhqp2rcd13ifvqhng","pricing_plan_id":"free"},{"bike_id":"250c8a96-8498-4211-b8f3-1b00a8d1fbaf","system_id":"levelo_inurba_marseille","lat":43.296477,"lon":5.37768,"is_reserved":false,"is_disabled":false,"rental_uris":{"android":"levelo://app?vid=250c8a96-8498-4211-b8f3-1b00a8d1fbaf","ios":"levelo://app?vid=250c8a96-8498-4211-b8f3-1b00a8d1fbaf"},"vehicle_type_id":"4","last_reported":1687284450,"current_range_meters":4400,"station_id":"","pricing_plan_id":"free"},{"bike_id":"bc1b147c-4b71-4ab7-9254-226c40751779","system_id":"levelo_inurba_marseille","lat":43.304274,"lon":5.388873,"is_reserved":false,"is_disabled":false,"rental_uris":{"android":"levelo://app?vid=bc1b147c-4b71-4ab7-9254-226c40751779","ios":"levelo://app?vid=bc1b147c-4b71-4ab7-9254-226c40751779"},"vehicle_type_id":"4","last_reported":1687284450,"current_range_meters":18800,"station_id":"ce4bgk12rcd13ifvqbi0","pricing_plan_id":"free"},{"bike_id":"3a039cfb-eadd-49d8-b9ae-811dd55efe42","system_id":"levelo_inurba_marseille","lat":43.295748,"lon":5.37522,"is_reserved":false,"is_disabled":false,"rental_uris":{"android":"levelo://app?vid=3a039cfb-eadd-49d8-b9ae-811dd55efe42","ios":"levelo://app?vid=3a039cfb-eadd-49d8-b9ae-811dd55efe42"},"vehicle_type_id":"4","last_reported":1687284450,"current_range_meters":17200,"station_id":"ce4bgh92rcd13ifvqb50","pricing_plan_id":"free"},{"bike_id":"343dc59d-f68b-4fe8-badb-3b17d9a661ce","system_id":"levelo_inurba_marseille","lat":43.296277,"lon":5.377108,"is_reserved":false,"is_disabled":false,"rental_uris":{"android":"levelo://app?vid=343dc59d-f68b-4fe8-badb-3b17d9a661ce","ios":"levelo://app?vid=343dc59d-f68b-4fe8-badb-3b17d9a661ce"},"vehicle_type_id":"4","last_reported":1687284450,"current_range_meters":3200,"station_id":"ce4bgi92rcd13ifvqb90","pricing_plan_id":"free"},{"bike_id":"eb56f040-d7e3-440c-9d05-82afe187dd21","system_id":"levelo_inurba_marseille","lat":43.29971,"lon":5.38482,"is_reserved":false,"is_disabled":false,"rental_uris":{"android":"levelo://app?vid=eb56f040-d7e3-440c-9d05-82afe187dd21","ios":"levelo://app?vid=eb56f040-d7e3-440c-9d05-82afe187dd21"},"vehicle_type_id":"4","last_reported":1687284450,"current_range_meters":30000,"station_id":"ce4bgj92rcd13ifvqbd0","pricing_plan_id":"free"},{"bike_id":"73b2b588-dec4-46f7-a7a4-efe91a4cac31","system_id":"levelo_inurba_marseille","lat":43.295279,"lon":5.375048,"is_reserved":false,"is_disabled":false,"rental_uris":{"android":"levelo://app?vid=73b2b588-dec4-46f7-a7a4-efe91a4cac31","ios":"levelo://app?vid=73b2b588-dec4-46f7-a7a4-efe91a4cac31"},"vehicle_type_id":"4","last_reported":1687284450,"current_range_meters":7600,"station_id":"ce4bgkp2rcd13ifvqbmg","pricing_plan_id":"free"},{"bike_id":"26705483-aa00-467d-926c-d276d6b4c1fa","system_id":"levelo_inurba_marseille","lat":43.29507,"lon":5.37492,"is_reserved":false,"is_disabled":false,"rental_uris":{"android":"levelo://app?vid=26705483-aa00-467d-926c-d276d6b4c1fa","ios":"levelo://app?vid=26705483-aa00-467d-926c-d276d6b4c1fa"},"vehicle_type_id":"4","last_reported":1687284450,"current_range_meters":7600,"station_id":"ce4bgkp2rcd13ifvqbmg","pricing_plan_id":"free"},{"bike_id":"00b69418-2f98-430b-a3b2-9cf96a86f792","system_id":"levelo_inurba_marseille","lat":43.290631,"lon":5.359244,"is_reserved":false,"is_disabled":false,"rental_uris":{"android":"levelo://app?vid=00b69418-2f98-430b-a3b2-9cf96a86f792","ios":"levelo://app?vid=00b69418-2f98-430b-a3b2-9cf96a86f792"},"vehicle_type_id":"4","last_reported":1687284450,"current_range_meters":21600,"station_id":"ce4bha92rcd13ifvqeg0","pricing_plan_id":"free"},{"bike_id":"924f5e2c-3798-48c5-a26b-4aa840da3bf3","system_id":"levelo_inurba_marseille","lat":43.323729,"lon":5.388839,"is_reserved":false,"is_disabled":false,"rental_uris":{"android":"levelo://app?vid=924f5e2c-3798-48c5-a26b-4aa840da3bf3","ios":"levelo://app?vid=924f5e2c-3798-48c5-a26b-4aa840da3bf3"},"vehicle_type_id":"4","last_reported":1687284450,"current_range_meters":25200,"station_id":"","pricing_plan_id":"free"},{"bike_id":"91d6eb88-e010-42e7-8e13-8eaef7be11b0","system_id":"levelo_inurba_marseille","lat":43.29284,"lon":5.36932,"is_reserved":false,"is_disabled":false,"rental_uris":{"android":"levelo://app?vid=91d6eb88-e010-42e7-8e13-8eaef7be11b0","ios":"levelo://app?vid=91d6eb88-e010-42e7-8e13-8eaef7be11b0"},"vehicle_type_id":"4","last_reported":1687284450,"current_range_meters":3200,"station_id":"","pricing_plan_id":"free"},{"bike_id":"32f4de05-6de3-440e-bd2a-6546023a74d7","system_id":"levelo_inurba_marseille","lat":43.29306,"lon":5.37443,"is_reserved":false,"is_disabled":false,"rental_uris":{"android":"levelo://app?vid=32f4de05-6de3-440e-bd2a-6546023a74d7","ios":"levelo://app?vid=32f4de05-6de3-440e-bd2a-6546023a74d7"},"vehicle_type_id":"4","last_reported":1687284450,"current_range_meters":0,"station_id":"ce4bgi12rcd13ifvqb70","pricing_plan_id":"free"},{"bike_id":"2269cc36-9451-4ae5-be17-533be2fdabdd","system_id":"levelo_inurba_marseille","lat":43.293009,"lon":5.374584,"is_reserved":false,"is_disabled":false,"rental_uris":{"android":"levelo://app?vid=2269cc36-9451-4ae5-be17-533be2fdabdd","ios":"levelo://app?vid=2269cc36-9451-4ae5-be17-533be2fdabdd"},"vehicle_type_id":"4","last_reported":1687284450,"current_range_meters":2000,"station_id":"ce4bgi12rcd13ifvqb70","pricing_plan_id":"free"},{"bike_id":"f96bc5ef-773a-4c29-b818-b40707fecfaa","system_id":"levelo_inurba_marseille","lat":43.305994,"lon":5.393687,"is_reserved":false,"is_disabled":false,"rental_uris":{"android":"levelo://app?vid=f96bc5ef-773a-4c29-b818-b40707fecfaa","ios":"levelo://app?vid=f96bc5ef-773a-4c29-b818-b40707fecfaa"},"vehicle_type_id":"4","last_reported":1687284450,"current_range_meters":31600,"station_id":"ce4bh0p2rcd13ifvqd80","pricing_plan_id":"free"},{"bike_id":"66b480a6-9947-4496-98e2-93e61a3244b4","system_id":"levelo_inurba_marseille","lat":43.305994,"lon":5.393687,"is_reserved":false,"is_disabled":false,"rental_uris":{"android":"levelo://app?vid=66b480a6-9947-4496-98e2-93e61a3244b4","ios":"levelo://app?vid=66b480a6-9947-4496-98e2-93e61a3244b4"},"vehicle_type_id":"4","last_reported":1687284450,"current_range_meters":31600,"station_id":"ce4bh0p2rcd13ifvqd80","pricing_plan_id":"free"},{"bike_id":"7ee8e857-e58f-4d0f-9ec8-cf55d6494b29","system_id":"levelo_inurba_marseille","lat":43.29266,"lon":5.35956,"is_reserved":false,"is_disabled":false,"rental_uris":{"android":"levelo://app?vid=7ee8e857-e58f-4d0f-9ec8-cf55d6494b29","ios":"levelo://app?vid=7ee8e857-e58f-4d0f-9ec8-cf55d6494b29"},"vehicle_type_id":"4","last_reported":1687284450,"current_range_meters":1600,"station_id":"","pricing_plan_id":"free"},{"bike_id":"3392968c-b0b3-4ec1-87cf-fcd4131f17c3","system_id":"levelo_inurba_marseille","lat":43.292311,"lon":5.360731,"is_reserved":false,"is_disabled":false,"rental_uris":{"android":"levelo://app?vid=3392968c-b0b3-4ec1-87cf-fcd4131f17c3","ios":"levelo://app?vid=3392968c-b0b3-4ec1-87cf-fcd4131f17c3"},"vehicle_type_id":"4","last_reported":1687284450,"current_range_meters":18800,"station_id":"ce4bhbh2rcd13ifvqeqg","pricing_plan_id":"free"},{"bike_id":"7d757264-df29-4687-af8f-4acea8dc4494","system_id":"levelo_inurba_marseille","lat":43.29226,"lon":5.36096,"is_reserved":false,"is_disabled":false,"rental_uris":{"android":"levelo://app?vid=7d757264-df29-4687-af8f-4acea8dc4494","ios":"levelo://app?vid=7d757264-df29-4687-af8f-4acea8dc4494"},"vehicle_type_id":"4","last_reported":1687284450,"current_range_meters":1200,"station_id":"","pricing_plan_id":"free"},{"bike_id":"42f8762a-b249-4850-baa3-77c7de573d7d","system_id":"levelo_inurba_marseille","lat":43.29231,"lon":5.36051,"is_reserved":false,"is_disabled":false,"rental_uris":{"android":"levelo://app?vid=42f8762a-b249-4850-baa3-77c7de573d7d","ios":"levelo://app?vid=42f8762a-b249-4850-baa3-77c7de573d7d"},"vehicle_type_id":"4","last_reported":1687284450,"current_range_meters":2000,"station_id":"ce4bhbh2rcd13ifvqeqg","pricing_plan_id":"free"},{"bike_id":"3f091ed7-c092-4efc-b246-411e10ec4ff9","system_id":"levelo_inurba_marseille","lat":43.29226,"lon":5.36045,"is_reserved":false,"is_disabled":false,"rental_uris":{"android":"levelo://app?vid=3f091ed7-c092-4efc-b246-411e10ec4ff9","ios":"levelo://app?vid=3f091ed7-c092-4efc-b246-411e10ec4ff9"},"vehicle_type_id":"4","last_reported":1687284450,"current_range_meters":400,"station_id":"ce4bhbh2rcd13ifvqeqg","pricing_plan_id":"free"},{"bike_id":"c04fd9ed-9577-4802-8d10-ed98ab35bbe2","system_id":"levelo_inurba_marseille","lat":43.30085,"lon":5.390856,"is_reserved":false,"is_disabled":false,"rental_uris":{"android":"levelo://app?vid=c04fd9ed-9577-4802-8d10-ed98ab35bbe2","ios":"levelo://app?vid=c04fd9ed-9577-4802-8d10-ed98ab35bbe2"},"vehicle_type_id":"4","last_reported":1687284450,"current_range_meters":19600,"station_id":"ce4bh192rcd13ifvqdb0","pricing_plan_id":"free"},{"bike_id":"c85d760a-b0be-4d0a-9abd-4bc647359383","system_id":"levelo_inurba_marseille","lat":43.300852,"lon":5.390859,"is_reserved":false,"is_disabled":false,"rental_uris":{"android":"levelo://app?vid=c85d760a-b0be-4d0a-9abd-4bc647359383","ios":"levelo://app?vid=c85d760a-b0be-4d0a-9abd-4bc647359383"},"vehicle_type_id":"4","last_reported":1687284450,"current_range_meters":15600,"station_id":"ce4bh192rcd13ifvqdb0","pricing_plan_id":"free"},{"bike_id":"3b630d12-2d2b-4258-9c1e-3dc62282cd44","system_id":"levelo_inurba_marseille","lat":43.29191,"lon":5.37235,"is_reserved":false,"is_disabled":false,"rental_uris":{"android":"levelo://app?vid=3b630d12-2d2b-4258-9c1e-3dc62282cd44","ios":"levelo://app?vid=3b630d12-2d2b-4258-9c1e-3dc62282cd44"},"vehicle_type_id":"4","last_reported":1687284450,"current_range_meters":8400,"station_id":"","pricing_plan_id":"free"},{"bike_id":"111a1b96-bb08-446b-8a10-76696d4db117","system_id":"levelo_inurba_marseille","lat":43.298764,"lon":5.388973,"is_reserved":false,"is_disabled":false,"rental_uris":{"android":"levelo://app?vid=111a1b96-bb08-446b-8a10-76696d4db117","ios":"levelo://app?vid=111a1b96-bb08-446b-8a10-76696d4db117"},"vehicle_type_id":"4","last_reported":1687284450,"current_range_meters":30000,"station_id":"ce4bh392rcd13ifvqdl0","pricing_plan_id":"free"},{"bike_id":"0e7216c6-807f-4d19-85ec-96db0c644a23","system_id":"levelo_inurba_marseille","lat":43.30085,"lon":5.390856,"is_reserved":false,"is_disabled":false,"rental_uris":{"android":"levelo://app?vid=0e7216c6-807f-4d19-85ec-96db0c644a23","ios":"levelo://app?vid=0e7216c6-807f-4d19-85ec-96db0c644a23"},"vehicle_type_id":"4","last_reported":1687284450,"current_range_meters":0,"station_id":"ce4bh192rcd13ifvqdb0","pricing_plan_id":"free"},{"bike_id":"6fcc942a-e101-45d0-ace3-3c9f2bb99412","system_id":"levelo_inurba_marseille","lat":43.298764,"lon":5.388973,"is_reserved":false,"is_disabled":false,"rental_uris":{"android":"levelo://app?vid=6fcc942a-e101-45d0-ace3-3c9f2bb99412","ios":"levelo://app?vid=6fcc942a-e101-45d0-ace3-3c9f2bb99412"},"vehicle_type_id":"4","last_reported":1687284450,"current_range_meters":8000,"station_id":"ce4bh392rcd13ifvqdl0","pricing_plan_id":"free"},{"bike_id":"8f16ebc3-7c0c-4351-be16-15719425e79e","system_id":"levelo_inurba_marseille","lat":43.309038,"lon":5.396546,"is_reserved":false,"is_disabled":false,"rental_uris":{"android":"levelo://app?vid=8f16ebc3-7c0c-4351-be16-15719425e79e","ios":"levelo://app?vid=8f16ebc3-7c0c-4351-be16-15719425e79e"},"vehicle_type_id":"4","last_reported":1687284450,"current_range_meters":31200,"station_id":"ce4bh012rcd13ifvqcv0","pricing_plan_id":"free"},{"bike_id":"91f27ca4-b1d4-4b07-bbb6-4e3add10a601","system_id":"levelo_inurba_marseille","lat":43.309038,"lon":5.396546,"is_reserved":false,"is_disabled":false,"rental_uris":{"android":"levelo://app?vid=91f27ca4-b1d4-4b07-bbb6-4e3add10a601","ios":"levelo://app?vid=91f27ca4-b1d4-4b07-bbb6-4e3add10a601"},"vehicle_type_id":"4","last_reported":1687284450,"current_range_meters":800,"station_id":"ce4bh012rcd13ifvqcv0","pricing_plan_id":"free"},{"bike_id":"d38c5de4-1b75-44fb-88b5-eb30bcdcd7d0","system_id":"levelo_inurba_marseille","lat":43.313243,"lon":5.396843,"is_reserved":false,"is_disabled":false,"rental_uris":{"android":"levelo://app?vid=d38c5de4-1b75-44fb-88b5-eb30bcdcd7d0","ios":"levelo://app?vid=d38c5de4-1b75-44fb-88b5-eb30bcdcd7d0"},"vehicle_type_id":"4","last_reported":1687284450,"current_range_meters":21600,"station_id":"","pricing_plan_id":"free"},{"bike_id":"457a6dc4-927f-4ae0-be45-6d29583f6bf9","system_id":"levelo_inurba_marseille","lat":43.309038,"lon":5.396546,"is_reserved":false,"is_disabled":false,"rental_uris":{"android":"levelo://app?vid=457a6dc4-927f-4ae0-be45-6d29583f6bf9","ios":"levelo://app?vid=457a6dc4-927f-4ae0-be45-6d29583f6bf9"},"vehicle_type_id":"4","last_reported":1687284450,"current_range_meters":2400,"station_id":"ce4bh012rcd13ifvqcv0","pricing_plan_id":"free"},{"bike_id":"c699ad3d-699f-41d7-a3af-033e51cd7abf","system_id":"levelo_inurba_marseille","lat":43.29175,"lon":5.35795,"is_reserved":false,"is_disabled":false,"rental_uris":{"android":"levelo://app?vid=c699ad3d-699f-41d7-a3af-033e51cd7abf","ios":"levelo://app?vid=c699ad3d-699f-41d7-a3af-033e51cd7abf"},"vehicle_type_id":"4","last_reported":1687284450,"current_range_meters":22000,"station_id":"","pricing_plan_id":"free"},{"bike_id":"edbfc046-49e5-43fb-8f6f-62e5755f4188","system_id":"levelo_inurba_marseille","lat":43.29522,"lon":5.38524,"is_reserved":false,"is_disabled":false,"rental_uris":{"android":"levelo://app?vid=edbfc046-49e5-43fb-8f6f-62e5755f4188","ios":"levelo://app?vid=edbfc046-49e5-43fb-8f6f-62e5755f4188"},"vehicle_type_id":"4","last_reported":1687284450,"current_range_meters":2800,"station_id":"","pricing_plan_id":"free"},{"bike_id":"e4511920-d742-4e69-9af5-376fa30ab61c","system_id":"levelo_inurba_marseille","lat":43.29529,"lon":5.385581,"is_reserved":false,"is_disabled":false,"rental_uris":{"android":"levelo://app?vid=e4511920-d742-4e69-9af5-376fa30ab61c","ios":"levelo://app?vid=e4511920-d742-4e69-9af5-376fa30ab61c"},"vehicle_type_id":"4","last_reported":1687284450,"current_range_meters":6400,"station_id":"ce4bgih2rcd13ifvqba0","pricing_plan_id":"free"},{"bike_id":"7a2abc4b-9aae-4aad-856d-40e46d5fadb2","system_id":"levelo_inurba_marseille","lat":43.290624,"lon":5.359245,"is_reserved":false,"is_disabled":false,"rental_uris":{"android":"levelo://app?vid=7a2abc4b-9aae-4aad-856d-40e46d5fadb2","ios":"levelo://app?vid=7a2abc4b-9aae-4aad-856d-40e46d5fadb2"},"vehicle_type_id":"4","last_reported":1687284450,"current_range_meters":5600,"station_id":"ce4bha92rcd13ifvqeg0","pricing_plan_id":"free"},{"bike_id":"17ad601d-be87-4258-8342-733172c7b94e","system_id":"levelo_inurba_marseille","lat":43.290631,"lon":5.359244,"is_reserved":false,"is_disabled":false,"rental_uris":{"android":"levelo://app?vid=17ad601d-be87-4258-8342-733172c7b94e","ios":"levelo://app?vid=17ad601d-be87-4258-8342-733172c7b94e"},"vehicle_type_id":"4","last_reported":1687284450,"current_range_meters":10400,"station_id":"ce4bha92rcd13ifvqeg0","pricing_plan_id":"free"},{"bike_id":"3f8a925a-6a54-4259-a38f-9cf091aab246","system_id":"levelo_inurba_marseille","lat":43.294162,"lon":5.386292,"is_reserved":false,"is_disabled":false,"rental_uris":{"android":"levelo://app?vid=3f8a925a-6a54-4259-a38f-9cf091aab246","ios":"levelo://app?vid=3f8a925a-6a54-4259-a38f-9cf091aab246"},"vehicle_type_id":"4","last_reported":1687284450,"current_range_meters":31200,"station_id":"ce4bh2h2rcd13ifvqdh0","pricing_plan_id":"free"},{"bike_id":"3db2aeac-2511-4def-a8a8-5dd1df394a3b","system_id":"levelo_inurba_marseille","lat":43.290327,"lon":5.375711,"is_reserved":false,"is_disabled":false,"rental_uris":{"android":"levelo://app?vid=3db2aeac-2511-4def-a8a8-5dd1df394a3b","ios":"levelo://app?vid=3db2aeac-2511-4def-a8a8-5dd1df394a3b"},"vehicle_type_id":"4","last_reported":1687284450,"current_range_meters":31200,"station_id":"ce4bh692rcd13ifvqe90","pricing_plan_id":"free"},{"bike_id":"01eb0812-4558-4aea-bf50-ad066f363f38","system_id":"levelo_inurba_marseille","lat":43.28951,"lon":5.36437,"is_reserved":false,"is_disabled":false,"rental_uris":{"android":"levelo://app?vid=01eb0812-4558-4aea-bf50-ad066f363f38","ios":"levelo://app?vid=01eb0812-4558-4aea-bf50-ad066f363f38"},"vehicle_type_id":"4","last_reported":1687284450,"current_range_meters":6000,"station_id":"","pricing_plan_id":"free"},{"bike_id":"0609f09b-61e5-40d1-a057-3a5b9409ddd1","system_id":"levelo_inurba_marseille","lat":43.294153,"lon":5.386305,"is_reserved":false,"is_disabled":false,"rental_uris":{"android":"levelo://app?vid=0609f09b-61e5-40d1-a057-3a5b9409ddd1","ios":"levelo://app?vid=0609f09b-61e5-40d1-a057-3a5b9409ddd1"},"vehicle_type_id":"4","last_reported":1687284450,"current_range_meters":24000,"station_id":"ce4bh2h2rcd13ifvqdh0","pricing_plan_id":"free"},{"bike_id":"a60caa9b-21ef-445d-8333-ef2797a36af5","system_id":"levelo_inurba_marseille","lat":43.289184,"lon":5.366408,"is_reserved":false,"is_disabled":false,"rental_uris":{"android":"levelo://app?vid=a60caa9b-21ef-445d-8333-ef2797a36af5","ios":"levelo://app?vid=a60caa9b-21ef-445d-8333-ef2797a36af5"},"vehicle_type_id":"4","last_reported":1687284450,"current_range_meters":18800,"station_id":"ce4bhap2rcd13ifvqek0","pricing_plan_id":"free"},{"bike_id":"f913a5f6-ec54-4cd5-a671-cd808a355916","system_id":"levelo_inurba_marseille","lat":43.289184,"lon":5.366408,"is_reserved":false,"is_disabled":false,"rental_uris":{"android":"levelo://app?vid=f913a5f6-ec54-4cd5-a671-cd808a355916","ios":"levelo://app?vid=f913a5f6-ec54-4cd5-a671-cd808a355916"},"vehicle_type_id":"4","last_reported":1687284450,"current_range_meters":4800,"station_id":"ce4bhap2rcd13ifvqek0","pricing_plan_id":"free"},{"bike_id":"c34c5e34-1cc0-459a-aedf-4135c5a753a5","system_id":"levelo_inurba_marseille","lat":43.289184,"lon":5.366408,"is_reserved":false,"is_disabled":false,"rental_uris":{"android":"levelo://app?vid=c34c5e34-1cc0-459a-aedf-4135c5a753a5","ios":"levelo://app?vid=c34c5e34-1cc0-459a-aedf-4135c5a753a5"},"vehicle_type_id":"4","last_reported":1687284450,"current_range_meters":10400,"station_id":"ce4bhap2rcd13ifvqek0","pricing_plan_id":"free"},{"bike_id":"7382a73e-cdb3-4890-a36d-ea634aeed312","system_id":"levelo_inurba_marseille","lat":43.289184,"lon":5.366408,"is_reserved":false,"is_disabled":false,"rental_uris":{"android":"levelo://app?vid=7382a73e-cdb3-4890-a36d-ea634aeed312","ios":"levelo://app?vid=7382a73e-cdb3-4890-a36d-ea634aeed312"},"vehicle_type_id":"4","last_reported":1687284450,"current_range_meters":10800,"station_id":"ce4bhap2rcd13ifvqek0","pricing_plan_id":"free"},{"bike_id":"1a8fe91e-5aa7-4c87-8a84-6d1d0b72b8d2","system_id":"levelo_inurba_marseille","lat":43.289184,"lon":5.366408,"is_reserved":false,"is_disabled":false,"rental_uris":{"android":"levelo://app?vid=1a8fe91e-5aa7-4c87-8a84-6d1d0b72b8d2","ios":"levelo://app?vid=1a8fe91e-5aa7-4c87-8a84-6d1d0b72b8d2"},"vehicle_type_id":"4","last_reported":1687284450,"current_range_meters":5200,"station_id":"ce4bhap2rcd13ifvqek0","pricing_plan_id":"free"},{"bike_id":"3b49a833-3767-4e66-80dc-5f74862cd932","system_id":"levelo_inurba_marseille","lat":43.289184,"lon":5.366408,"is_reserved":false,"is_disabled":false,"rental_uris":{"android":"levelo://app?vid=3b49a833-3767-4e66-80dc-5f74862cd932","ios":"levelo://app?vid=3b49a833-3767-4e66-80dc-5f74862cd932"},"vehicle_type_id":"4","last_reported":1687284450,"current_range_meters":22000,"station_id":"ce4bhap2rcd13ifvqek0","pricing_plan_id":"free"},{"bike_id":"bf806780-bfee-448c-9a17-2b28bdc6e4df","system_id":"levelo_inurba_marseille","lat":43.289184,"lon":5.366408,"is_reserved":false,"is_disabled":false,"rental_uris":{"android":"levelo://app?vid=bf806780-bfee-448c-9a17-2b28bdc6e4df","ios":"levelo://app?vid=bf806780-bfee-448c-9a17-2b28bdc6e4df"},"vehicle_type_id":"4","last_reported":1687284450,"current_range_meters":10800,"station_id":"ce4bhap2rcd13ifvqek0","pricing_plan_id":"free"},{"bike_id":"b8ec827e-141b-437a-bc46-de383b4a74a4","system_id":"levelo_inurba_marseille","lat":43.289184,"lon":5.366408,"is_reserved":false,"is_disabled":false,"rental_uris":{"android":"levelo://app?vid=b8ec827e-141b-437a-bc46-de383b4a74a4","ios":"levelo://app?vid=b8ec827e-141b-437a-bc46-de383b4a74a4"},"vehicle_type_id":"4","last_reported":1687284450,"current_range_meters":19600,"station_id":"ce4bhap2rcd13ifvqek0","pricing_plan_id":"free"},{"bike_id":"82a61a0a-db15-4df0-88c1-f983948c7dd6","system_id":"levelo_inurba_marseille","lat":43.30085,"lon":5.390856,"is_reserved":false,"is_disabled":false,"rental_uris":{"android":"levelo://app?vid=82a61a0a-db15-4df0-88c1-f983948c7dd6","ios":"levelo://app?vid=82a61a0a-db15-4df0-88c1-f983948c7dd6"},"vehicle_type_id":"4","last_reported":1687284450,"current_range_meters":31600,"station_id":"ce4bh192rcd13ifvqdb0","pricing_plan_id":"free"},{"bike_id":"97f72a9d-0955-4dd7-970a-8c71356f74e9","system_id":"levelo_inurba_marseille","lat":43.28924,"lon":5.36394,"is_reserved":false,"is_disabled":false,"rental_uris":{"android":"levelo://app?vid=97f72a9d-0955-4dd7-970a-8c71356f74e9","ios":"levelo://app?vid=97f72a9d-0955-4dd7-970a-8c71356f74e9"},"vehicle_type_id":"4","last_reported":1687284450,"current_range_meters":15200,"station_id":"ce4bhc92rcd13ifvqetg","pricing_plan_id":"free"},{"bike_id":"d14ce4f3-bc67-45f6-ab1c-aa75e4bdf38d","system_id":"levelo_inurba_marseille","lat":43.304274,"lon":5.397513,"is_reserved":false,"is_disabled":false,"rental_uris":{"android":"levelo://app?vid=d14ce4f3-bc67-45f6-ab1c-aa75e4bdf38d","ios":"levelo://app?vid=d14ce4f3-bc67-45f6-ab1c-aa75e4bdf38d"},"vehicle_type_id":"4","last_reported":1687284450,"current_range_meters":18400,"station_id":"ce4bh092rcd13ifvqd20","pricing_plan_id":"free"},{"bike_id":"8fe1c6f5-cb2b-4f2e-929d-f2ceb85064a8","system_id":"levelo_inurba_marseille","lat":43.304274,"lon":5.397513,"is_reserved":false,"is_disabled":false,"rental_uris":{"android":"levelo://app?vid=8fe1c6f5-cb2b-4f2e-929d-f2ceb85064a8","ios":"levelo://app?vid=8fe1c6f5-cb2b-4f2e-929d-f2ceb85064a8"},"vehicle_type_id":"4","last_reported":1687284450,"current_range_meters":20000,"station_id":"ce4bh092rcd13ifvqd20","pricing_plan_id":"free"},{"bike_id":"38eb09af-7166-42b9-865e-84246929498f","system_id":"levelo_inurba_marseille","lat":43.29255,"lon":5.38438,"is_reserved":false,"is_disabled":false,"rental_uris":{"android":"levelo://app?vid=38eb09af-7166-42b9-865e-84246929498f","ios":"levelo://app?vid=38eb09af-7166-42b9-865e-84246929498f"},"vehicle_type_id":"4","last_reported":1687284450,"current_range_meters":31200,"station_id":"ce4bh692rcd13ifvqea0","pricing_plan_id":"free"},{"bike_id":"d66b6caa-ba76-4130-8524-c17497d6b045","system_id":"levelo_inurba_marseille","lat":43.29253,"lon":5.38439,"is_reserved":false,"is_disabled":false,"rental_uris":{"android":"levelo://app?vid=d66b6caa-ba76-4130-8524-c17497d6b045","ios":"levelo://app?vid=d66b6caa-ba76-4130-8524-c17497d6b045"},"vehicle_type_id":"4","last_reported":1687284450,"current_range_meters":12400,"station_id":"ce4bh692rcd13ifvqea0","pricing_plan_id":"free"},{"bike_id":"06d817da-6b26-4ac5-a53e-339ea6bb2212","system_id":"levelo_inurba_marseille","lat":43.30404,"lon":5.3975,"is_reserved":false,"is_disabled":false,"rental_uris":{"android":"levelo://app?vid=06d817da-6b26-4ac5-a53e-339ea6bb2212","ios":"levelo://app?vid=06d817da-6b26-4ac5-a53e-339ea6bb2212"},"vehicle_type_id":"4","last_reported":1687284450,"current_range_meters":16800,"station_id":"","pricing_plan_id":"free"},{"bike_id":"3e999894-79e7-48c6-8329-5aba4c801cf5","system_id":"levelo_inurba_marseille","lat":43.3305,"lon":5.38908,"is_reserved":false,"is_disabled":false,"rental_uris":{"android":"levelo://app?vid=3e999894-79e7-48c6-8329-5aba4c801cf5","ios":"levelo://app?vid=3e999894-79e7-48c6-8329-5aba4c801cf5"},"vehicle_type_id":"4","last_reported":1687284450,"current_range_meters":10000,"station_id":"ce4bhr92rcd13ifvqhrg","pricing_plan_id":"free"},{"bike_id":"ac1a1253-a31d-4629-ac34-b850440d9c7b","system_id":"levelo_inurba_marseille","lat":43.29004,"lon":5.35613,"is_reserved":false,"is_disabled":false,"rental_uris":{"android":"levelo://app?vid=ac1a1253-a31d-4629-ac34-b850440d9c7b","ios":"levelo://app?vid=ac1a1253-a31d-4629-ac34-b850440d9c7b"},"vehicle_type_id":"4","last_reported":1687284450,"current_range_meters":27600,"station_id":"ce4bhb92rcd13ifvqen0","pricing_plan_id":"free"},{"bike_id":"55648779-b55c-4c2e-9736-bcbb239d3e77","system_id":"levelo_inurba_marseille","lat":43.29005,"lon":5.35597,"is_reserved":false,"is_disabled":false,"rental_uris":{"android":"levelo://app?vid=55648779-b55c-4c2e-9736-bcbb239d3e77","ios":"levelo://app?vid=55648779-b55c-4c2e-9736-bcbb239d3e77"},"vehicle_type_id":"4","last_reported":1687284450,"current_range_meters":5600,"station_id":"ce4bhb92rcd13ifvqen0","pricing_plan_id":"free"},{"bike_id":"1e847934-e0b9-4a27-b150-deeb6f0812be","system_id":"levelo_inurba_marseille","lat":43.290104,"lon":5.356111,"is_reserved":false,"is_disabled":false,"rental_uris":{"android":"levelo://app?vid=1e847934-e0b9-4a27-b150-deeb6f0812be","ios":"levelo://app?vid=1e847934-e0b9-4a27-b150-deeb6f0812be"},"vehicle_type_id":"4","last_reported":1687284450,"current_range_meters":8400,"station_id":"ce4bhb92rcd13ifvqen0","pricing_plan_id":"free"},{"bike_id":"1922e66e-1280-417d-ad7b-b7bf05063bfa","system_id":"levelo_inurba_marseille","lat":43.297815,"lon":5.393548,"is_reserved":false,"is_disabled":false,"rental_uris":{"android":"levelo://app?vid=1922e66e-1280-417d-ad7b-b7bf05063bfa","ios":"levelo://app?vid=1922e66e-1280-417d-ad7b-b7bf05063bfa"},"vehicle_type_id":"4","last_reported":1687284450,"current_range_meters":23200,"station_id":"chh1huq6cuj3fo74tm60","pricing_plan_id":"free"},{"bike_id":"f1fbbd42-ed6c-4ae9-a967-b54718f89085","system_id":"levelo_inurba_marseille","lat":43.297815,"lon":5.393548,"is_reserved":false,"is_disabled":false,"rental_uris":{"android":"levelo://app?vid=f1fbbd42-ed6c-4ae9-a967-b54718f89085","ios":"levelo://app?vid=f1fbbd42-ed6c-4ae9-a967-b54718f89085"},"vehicle_type_id":"4","last_reported":1687284450,"current_range_meters":16400,"station_id":"chh1huq6cuj3fo74tm60","pricing_plan_id":"free"},{"bike_id":"3a3ab376-5c38-4bd0-8a81-e6a27f720939","system_id":"levelo_inurba_marseille","lat":43.295169,"lon":5.390426,"is_reserved":false,"is_disabled":false,"rental_uris":{"android":"levelo://app?vid=3a3ab376-5c38-4bd0-8a81-e6a27f720939","ios":"levelo://app?vid=3a3ab376-5c38-4bd0-8a81-e6a27f720939"},"vehicle_type_id":"4","last_reported":1687284450,"current_range_meters":9600,"station_id":"ce4bh3p2rcd13ifvqdp0","pricing_plan_id":"free"},{"bike_id":"21562506-4f5f-43ad-aac5-c51d4162fe9d","system_id":"levelo_inurba_marseille","lat":43.28847,"lon":5.37236,"is_reserved":false,"is_disabled":false,"rental_uris":{"android":"levelo://app?vid=21562506-4f5f-43ad-aac5-c51d4162fe9d","ios":"levelo://app?vid=21562506-4f5f-43ad-aac5-c51d4162fe9d"},"vehicle_type_id":"4","last_reported":1687284450,"current_range_meters":14400,"station_id":"","pricing_plan_id":"free"},{"bike_id":"268ab9ae-c929-4e52-9f6b-c6f9a2429482","system_id":"levelo_inurba_marseille","lat":43.295169,"lon":5.390426,"is_reserved":false,"is_disabled":false,"rental_uris":{"android":"levelo://app?vid=268ab9ae-c929-4e52-9f6b-c6f9a2429482","ios":"levelo://app?vid=268ab9ae-c929-4e52-9f6b-c6f9a2429482"},"vehicle_type_id":"4","last_reported":1687284450,"current_range_meters":14400,"station_id":"ce4bh3p2rcd13ifvqdp0","pricing_plan_id":"free"},{"bike_id":"ec44556c-e71c-47c0-90d2-7ff77980bd03","system_id":"levelo_inurba_marseille","lat":43.309371,"lon":5.401449,"is_reserved":false,"is_disabled":false,"rental_uris":{"android":"levelo://app?vid=ec44556c-e71c-47c0-90d2-7ff77980bd03","ios":"levelo://app?vid=ec44556c-e71c-47c0-90d2-7ff77980bd03"},"vehicle_type_id":"4","last_reported":1687284450,"current_range_meters":11200,"station_id":"ce4bgvp2rcd13ifvqct0","pricing_plan_id":"free"},{"bike_id":"c7e964bd-7f19-4419-ba5c-f550195f9133","system_id":"levelo_inurba_marseille","lat":43.28856,"lon":5.358371,"is_reserved":false,"is_disabled":false,"rental_uris":{"android":"levelo://app?vid=c7e964bd-7f19-4419-ba5c-f550195f9133","ios":"levelo://app?vid=c7e964bd-7f19-4419-ba5c-f550195f9133"},"vehicle_type_id":"4","last_reported":1687284450,"current_range_meters":30800,"station_id":"ce4bhb12rcd13ifvqem0","pricing_plan_id":"free"},{"bike_id":"fc270946-86fe-48b8-b824-bf09bce02e98","system_id":"levelo_inurba_marseille","lat":43.28834,"lon":5.35837,"is_reserved":false,"is_disabled":false,"rental_uris":{"android":"levelo://app?vid=fc270946-86fe-48b8-b824-bf09bce02e98","ios":"levelo://app?vid=fc270946-86fe-48b8-b824-bf09bce02e98"},"vehicle_type_id":"4","last_reported":1687284450,"current_range_meters":9600,"station_id":"ce4bhb12rcd13ifvqem0","pricing_plan_id":"free"},{"bike_id":"76ebc372-7653-472d-8c9b-73646f23df7a","system_id":"levelo_inurba_marseille","lat":43.30925,"lon":5.4014,"is_reserved":false,"is_disabled":false,"rental_uris":{"android":"levelo://app?vid=76ebc372-7653-472d-8c9b-73646f23df7a","ios":"levelo://app?vid=76ebc372-7653-472d-8c9b-73646f23df7a"},"vehicle_type_id":"4","last_reported":1687284450,"current_range_meters":28000,"station_id":"ce4bgvp2rcd13ifvqct0","pricing_plan_id":"free"},{"bike_id":"fbd88a77-1e80-42e4-8315-2492409b2c0a","system_id":"levelo_inurba_marseille","lat":43.30941,"lon":5.40143,"is_reserved":false,"is_disabled":false,"rental_uris":{"android":"levelo://app?vid=fbd88a77-1e80-42e4-8315-2492409b2c0a","ios":"levelo://app?vid=fbd88a77-1e80-42e4-8315-2492409b2c0a"},"vehicle_type_id":"4","last_reported":1687284450,"current_range_meters":18400,"station_id":"ce4bgvp2rcd13ifvqct0","pricing_plan_id":"free"},{"bike_id":"269bbddb-a1d6-4742-8e89-cb47e1b934ad","system_id":"levelo_inurba_marseille","lat":43.309371,"lon":5.401449,"is_reserved":false,"is_disabled":false,"rental_uris":{"android":"levelo://app?vid=269bbddb-a1d6-4742-8e89-cb47e1b934ad","ios":"levelo://app?vid=269bbddb-a1d6-4742-8e89-cb47e1b934ad"},"vehicle_type_id":"4","last_reported":1687284450,"current_range_meters":10000,"station_id":"ce4bgvp2rcd13ifvqct0","pricing_plan_id":"free"},{"bike_id":"8a08c496-a59f-4510-b6cf-3bc56de8c56b","system_id":"levelo_inurba_marseille","lat":43.301117,"lon":5.398795,"is_reserved":false,"is_disabled":false,"rental_uris":{"android":"levelo://app?vid=8a08c496-a59f-4510-b6cf-3bc56de8c56b","ios":"levelo://app?vid=8a08c496-a59f-4510-b6cf-3bc56de8c56b"},"vehicle_type_id":"4","last_reported":1687284450,"current_range_meters":3600,"station_id":"ce4bh0h2rcd13ifvqd40","pricing_plan_id":"free"},{"bike_id":"73f88fee-d185-4df9-be1d-65a3f3c6cc13","system_id":"levelo_inurba_marseille","lat":43.301117,"lon":5.398795,"is_reserved":false,"is_disabled":false,"rental_uris":{"android":"levelo://app?vid=73f88fee-d185-4df9-be1d-65a3f3c6cc13","ios":"levelo://app?vid=73f88fee-d185-4df9-be1d-65a3f3c6cc13"},"vehicle_type_id":"4","last_reported":1687284450,"current_range_meters":14000,"station_id":"ce4bh0h2rcd13ifvqd40","pricing_plan_id":"free"},{"bike_id":"c3ca491e-0474-4587-a34c-368165322775","system_id":"levelo_inurba_marseille","lat":43.301117,"lon":5.398795,"is_reserved":false,"is_disabled":false,"rental_uris":{"android":"levelo://app?vid=c3ca491e-0474-4587-a34c-368165322775","ios":"levelo://app?vid=c3ca491e-0474-4587-a34c-368165322775"},"vehicle_type_id":"4","last_reported":1687284450,"current_range_meters":21600,"station_id":"ce4bh0h2rcd13ifvqd40","pricing_plan_id":"free"},{"bike_id":"f69ef1b8-d44a-4024-9c79-5e40ef1e8ecd","system_id":"levelo_inurba_marseille","lat":43.301117,"lon":5.398795,"is_reserved":false,"is_disabled":false,"rental_uris":{"android":"levelo://app?vid=f69ef1b8-d44a-4024-9c79-5e40ef1e8ecd","ios":"levelo://app?vid=f69ef1b8-d44a-4024-9c79-5e40ef1e8ecd"},"vehicle_type_id":"4","last_reported":1687284450,"current_range_meters":15600,"station_id":"ce4bh0h2rcd13ifvqd40","pricing_plan_id":"free"},{"bike_id":"c76037a2-c80a-4d84-90f5-00474b839724","system_id":"levelo_inurba_marseille","lat":43.28707,"lon":5.37364,"is_reserved":false,"is_disabled":false,"rental_uris":{"android":"levelo://app?vid=c76037a2-c80a-4d84-90f5-00474b839724","ios":"levelo://app?vid=c76037a2-c80a-4d84-90f5-00474b839724"},"vehicle_type_id":"4","last_reported":1687284450,"current_range_meters":29200,"station_id":"ce4bh3p2rcd13ifvqdq0","pricing_plan_id":"free"},{"bike_id":"cc7d1647-d4bc-44c5-a1c2-23803bfeb243","system_id":"levelo_inurba_marseille","lat":43.286591,"lon":5.363346,"is_reserved":false,"is_disabled":false,"rental_uris":{"android":"levelo://app?vid=cc7d1647-d4bc-44c5-a1c2-23803bfeb243","ios":"levelo://app?vid=cc7d1647-d4bc-44c5-a1c2-23803bfeb243"},"vehicle_type_id":"4","last_reported":1687284450,"current_range_meters":5200,"station_id":"ce4bhah2rcd13ifvqej0","pricing_plan_id":"free"},{"bike_id":"01fc7a21-2e34-4e91-b3d2-68918d990e59","system_id":"levelo_inurba_marseille","lat":43.29868,"lon":5.39728,"is_reserved":false,"is_disabled":false,"rental_uris":{"android":"levelo://app?vid=01fc7a21-2e34-4e91-b3d2-68918d990e59","ios":"levelo://app?vid=01fc7a21-2e34-4e91-b3d2-68918d990e59"},"vehicle_type_id":"4","last_reported":1687284450,"current_range_meters":11600,"station_id":"ce4bh0h2rcd13ifvqd50","pricing_plan_id":"free"},{"bike_id":"baa40bc0-be0f-4bf5-9e1c-5174d0fd05f7","system_id":"levelo_inurba_marseille","lat":43.29867,"lon":5.39731,"is_reserved":false,"is_disabled":false,"rental_uris":{"android":"levelo://app?vid=baa40bc0-be0f-4bf5-9e1c-5174d0fd05f7","ios":"levelo://app?vid=baa40bc0-be0f-4bf5-9e1c-5174d0fd05f7"},"vehicle_type_id":"4","last_reported":1687284450,"current_range_meters":30800,"station_id":"ce4bh0h2rcd13ifvqd50","pricing_plan_id":"free"},{"bike_id":"d59359ad-798c-49c5-904c-4118b7b6c481","system_id":"levelo_inurba_marseille","lat":43.29869,"lon":5.39737,"is_reserved":false,"is_disabled":false,"rental_uris":{"android":"levelo://app?vid=d59359ad-798c-49c5-904c-4118b7b6c481","ios":"levelo://app?vid=d59359ad-798c-49c5-904c-4118b7b6c481"},"vehicle_type_id":"4","last_reported":1687284450,"current_range_meters":3200,"station_id":"ce4bh0h2rcd13ifvqd50","pricing_plan_id":"free"},{"bike_id":"f5ffa669-9f56-423d-beb8-028d50811ae2","system_id":"levelo_inurba_marseille","lat":43.29858,"lon":5.39728,"is_reserved":false,"is_disabled":false,"rental_uris":{"android":"levelo://app?vid=f5ffa669-9f56-423d-beb8-028d50811ae2","ios":"levelo://app?vid=f5ffa669-9f56-423d-beb8-028d50811ae2"},"vehicle_type_id":"4","last_reported":1687284450,"current_range_meters":31200,"station_id":"ce4bh0h2rcd13ifvqd50","pricing_plan_id":"free"},{"bike_id":"90fe9e52-5741-4e04-a361-61a2c57a20ef","system_id":"levelo_inurba_marseille","lat":43.286591,"lon":5.363346,"is_reserved":false,"is_disabled":false,"rental_uris":{"android":"levelo://app?vid=90fe9e52-5741-4e04-a361-61a2c57a20ef","ios":"levelo://app?vid=90fe9e52-5741-4e04-a361-61a2c57a20ef"},"vehicle_type_id":"4","last_reported":1687284450,"current_range_meters":9600,"station_id":"ce4bhah2rcd13ifvqej0","pricing_plan_id":"free"},{"bike_id":"c4631f7b-2142-45c7-8168-c48b6a7b70b2","system_id":"levelo_inurba_marseille","lat":43.286591,"lon":5.363346,"is_reserved":false,"is_disabled":false,"rental_uris":{"android":"levelo://app?vid=c4631f7b-2142-45c7-8168-c48b6a7b70b2","ios":"levelo://app?vid=c4631f7b-2142-45c7-8168-c48b6a7b70b2"},"vehicle_type_id":"4","last_reported":1687284450,"current_range_meters":5600,"station_id":"ce4bhah2rcd13ifvqej0","pricing_plan_id":"free"},{"bike_id":"d98cba49-cbf7-4446-8835-70029bc1f912","system_id":"levelo_inurba_marseille","lat":43.29525,"lon":5.39387,"is_reserved":false,"is_disabled":false,"rental_uris":{"android":"levelo://app?vid=d98cba49-cbf7-4446-8835-70029bc1f912","ios":"levelo://app?vid=d98cba49-cbf7-4446-8835-70029bc1f912"},"vehicle_type_id":"4","last_reported":1687284450,"current_range_meters":4400,"station_id":"ce4bh292rcd13ifvqdf0","pricing_plan_id":"free"},{"bike_id":"5054e3ca-0890-4b45-969a-d7115d72bb9a","system_id":"levelo_inurba_marseille","lat":43.286961,"lon":5.373785,"is_reserved":false,"is_disabled":false,"rental_uris":{"android":"levelo://app?vid=5054e3ca-0890-4b45-969a-d7115d72bb9a","ios":"levelo://app?vid=5054e3ca-0890-4b45-969a-d7115d72bb9a"},"vehicle_type_id":"4","last_reported":1687284450,"current_range_meters":16800,"station_id":"ce4bh3p2rcd13ifvqdq0","pricing_plan_id":"free"},{"bike_id":"50333ff9-8e24-4e11-8123-b5dfd9281f9b","system_id":"levelo_inurba_marseille","lat":43.295194,"lon":5.39397,"is_reserved":false,"is_disabled":false,"rental_uris":{"android":"levelo://app?vid=50333ff9-8e24-4e11-8123-b5dfd9281f9b","ios":"levelo://app?vid=50333ff9-8e24-4e11-8123-b5dfd9281f9b"},"vehicle_type_id":"4","last_reported":1687284450,"current_range_meters":12000,"station_id":"ce4bh292rcd13ifvqdf0","pricing_plan_id":"free"},{"bike_id":"e98b1d69-bde9-457a-9287-1b24b6f85e96","system_id":"levelo_inurba_marseille","lat":43.286039,"lon":5.370679,"is_reserved":false,"is_disabled":false,"rental_uris":{"android":"levelo://app?vid=e98b1d69-bde9-457a-9287-1b24b6f85e96","ios":"levelo://app?vid=e98b1d69-bde9-457a-9287-1b24b6f85e96"},"vehicle_type_id":"4","last_reported":1687284450,"current_range_meters":23600,"station_id":"ce4bht12rcd13ifvqi60","pricing_plan_id":"free"},{"bike_id":"78191be4-4c50-48d0-8e71-1e3d76d0b37a","system_id":"levelo_inurba_marseille","lat":43.290336,"lon":5.386425,"is_reserved":false,"is_disabled":false,"rental_uris":{"android":"levelo://app?vid=78191be4-4c50-48d0-8e71-1e3d76d0b37a","ios":"levelo://app?vid=78191be4-4c50-48d0-8e71-1e3d76d0b37a"},"vehicle_type_id":"4","last_reported":1687284450,"current_range_meters":0,"station_id":"ce4bh4p2rcd13ifvqe0g","pricing_plan_id":"free"},{"bike_id":"5626af29-9ded-4339-8a4f-ae5eb09432c3","system_id":"levelo_inurba_marseille","lat":43.28613,"lon":5.37062,"is_reserved":false,"is_disabled":false,"rental_uris":{"android":"levelo://app?vid=5626af29-9ded-4339-8a4f-ae5eb09432c3","ios":"levelo://app?vid=5626af29-9ded-4339-8a4f-ae5eb09432c3"},"vehicle_type_id":"4","last_reported":1687284450,"current_range_meters":30000,"station_id":"","pricing_plan_id":"free"},{"bike_id":"e9bfbcd4-ff0c-4a60-a7fe-f90d864174f3","system_id":"levelo_inurba_marseille","lat":43.286039,"lon":5.370679,"is_reserved":false,"is_disabled":false,"rental_uris":{"android":"levelo://app?vid=e9bfbcd4-ff0c-4a60-a7fe-f90d864174f3","ios":"levelo://app?vid=e9bfbcd4-ff0c-4a60-a7fe-f90d864174f3"},"vehicle_type_id":"4","last_reported":1687284450,"current_range_meters":14800,"station_id":"ce4bht12rcd13ifvqi60","pricing_plan_id":"free"},{"bike_id":"3c70a16b-117c-43f4-b742-c4acfdf6cf1e","system_id":"levelo_inurba_marseille","lat":43.286039,"lon":5.370681,"is_reserved":false,"is_disabled":false,"rental_uris":{"android":"levelo://app?vid=3c70a16b-117c-43f4-b742-c4acfdf6cf1e","ios":"levelo://app?vid=3c70a16b-117c-43f4-b742-c4acfdf6cf1e"},"vehicle_type_id":"4","last_reported":1687284450,"current_range_meters":6400,"station_id":"ce4bht12rcd13ifvqi60","pricing_plan_id":"free"},{"bike_id":"f392ea7e-db25-4121-884c-0358b3a49b19","system_id":"levelo_inurba_marseille","lat":43.287184,"lon":5.37937,"is_reserved":false,"is_disabled":false,"rental_uris":{"android":"levelo://app?vid=f392ea7e-db25-4121-884c-0358b3a49b19","ios":"levelo://app?vid=f392ea7e-db25-4121-884c-0358b3a49b19"},"vehicle_type_id":"4","last_reported":1687284450,"current_range_meters":31200,"station_id":"ce4bh9p2rcd13ifvqec0","pricing_plan_id":"free"},{"bike_id":"16e24b6a-7f68-4517-b624-511422646795","system_id":"levelo_inurba_marseille","lat":43.287185,"lon":5.379373,"is_reserved":false,"is_disabled":false,"rental_uris":{"android":"levelo://app?vid=16e24b6a-7f68-4517-b624-511422646795","ios":"levelo://app?vid=16e24b6a-7f68-4517-b624-511422646795"},"vehicle_type_id":"4","last_reported":1687284450,"current_range_meters":6000,"station_id":"ce4bh9p2rcd13ifvqec0","pricing_plan_id":"free"},{"bike_id":"d72e7a5d-4ee7-4fe2-bf09-c089eb04589a","system_id":"levelo_inurba_marseille","lat":43.316517,"lon":5.404375,"is_reserved":false,"is_disabled":false,"rental_uris":{"android":"levelo://app?vid=d72e7a5d-4ee7-4fe2-bf09-c089eb04589a","ios":"levelo://app?vid=d72e7a5d-4ee7-4fe2-bf09-c089eb04589a"},"vehicle_type_id":"4","last_reported":1687284450,"current_range_meters":13200,"station_id":"ce4bh012rcd13ifvqd00","pricing_plan_id":"free"},{"bike_id":"47bcb94d-b5f6-4637-8509-3698f3d6472a","system_id":"levelo_inurba_marseille","lat":43.301117,"lon":5.398795,"is_reserved":false,"is_disabled":false,"rental_uris":{"android":"levelo://app?vid=47bcb94d-b5f6-4637-8509-3698f3d6472a","ios":"levelo://app?vid=47bcb94d-b5f6-4637-8509-3698f3d6472a"},"vehicle_type_id":"4","last_reported":1687284450,"current_range_meters":2400,"station_id":"ce4bh0h2rcd13ifvqd40","pricing_plan_id":"free"},{"bike_id":"aaa6c642-961e-4394-a11c-1e020f3b51cb","system_id":"levelo_inurba_marseille","lat":43.291994,"lon":5.392907,"is_reserved":false,"is_disabled":false,"rental_uris":{"android":"levelo://app?vid=aaa6c642-961e-4394-a11c-1e020f3b51cb","ios":"levelo://app?vid=aaa6c642-961e-4394-a11c-1e020f3b51cb"},"vehicle_type_id":"4","last_reported":1687284450,"current_range_meters":18400,"station_id":"ce4bh192rcd13ifvqdd0","pricing_plan_id":"free"},{"bike_id":"a7fc1897-79df-49f5-b5a0-3a86b7ed938b","system_id":"levelo_inurba_marseille","lat":43.33348,"lon":5.39375,"is_reserved":false,"is_disabled":false,"rental_uris":{"android":"levelo://app?vid=a7fc1897-79df-49f5-b5a0-3a86b7ed938b","ios":"levelo://app?vid=a7fc1897-79df-49f5-b5a0-3a86b7ed938b"},"vehicle_type_id":"4","last_reported":1687284450,"current_range_meters":0,"station_id":"","pricing_plan_id":"free"},{"bike_id":"c45c133c-7e18-4892-ad2a-838c1064d748","system_id":"levelo_inurba_marseille","lat":43.28468,"lon":5.358952,"is_reserved":false,"is_disabled":false,"rental_uris":{"android":"levelo://app?vid=c45c133c-7e18-4892-ad2a-838c1064d748","ios":"levelo://app?vid=c45c133c-7e18-4892-ad2a-838c1064d748"},"vehicle_type_id":"4","last_reported":1687284450,"current_range_meters":18400,"station_id":"ce4bhah2rcd13ifvqei0","pricing_plan_id":"free"},{"bike_id":"c8edf14d-638d-4040-b85d-d6614aa8827a","system_id":"levelo_inurba_marseille","lat":43.284534,"lon":5.358662,"is_reserved":false,"is_disabled":false,"rental_uris":{"android":"levelo://app?vid=c8edf14d-638d-4040-b85d-d6614aa8827a","ios":"levelo://app?vid=c8edf14d-638d-4040-b85d-d6614aa8827a"},"vehicle_type_id":"4","last_reported":1687284450,"current_range_meters":16800,"station_id":"ce4bhah2rcd13ifvqei0","pricing_plan_id":"free"},{"bike_id":"06803be0-9b72-4d0b-a2b6-390e6a5c9ee3","system_id":"levelo_inurba_marseille","lat":43.28458,"lon":5.35889,"is_reserved":false,"is_disabled":false,"rental_uris":{"android":"levelo://app?vid=06803be0-9b72-4d0b-a2b6-390e6a5c9ee3","ios":"levelo://app?vid=06803be0-9b72-4d0b-a2b6-390e6a5c9ee3"},"vehicle_type_id":"4","last_reported":1687284450,"current_range_meters":21600,"station_id":"ce4bhah2rcd13ifvqei0","pricing_plan_id":"free"},{"bike_id":"0ae69976-ee49-47c3-b1d6-776657a1c9f7","system_id":"levelo_inurba_marseille","lat":43.28618,"lon":5.35107,"is_reserved":false,"is_disabled":false,"rental_uris":{"android":"levelo://app?vid=0ae69976-ee49-47c3-b1d6-776657a1c9f7","ios":"levelo://app?vid=0ae69976-ee49-47c3-b1d6-776657a1c9f7"},"vehicle_type_id":"4","last_reported":1687284450,"current_range_meters":12000,"station_id":"ce4bhch2rcd13ifvqeug","pricing_plan_id":"free"},{"bike_id":"7d5342a7-9cfd-4fe4-af7d-10b72572457e","system_id":"levelo_inurba_marseille","lat":43.285856,"lon":5.350771,"is_reserved":false,"is_disabled":false,"rental_uris":{"android":"levelo://app?vid=7d5342a7-9cfd-4fe4-af7d-10b72572457e","ios":"levelo://app?vid=7d5342a7-9cfd-4fe4-af7d-10b72572457e"},"vehicle_type_id":"4","last_reported":1687284450,"current_range_meters":24400,"station_id":"ce4bhch2rcd13ifvqeug","pricing_plan_id":"free"},{"bike_id":"a3d1d3d6-4d14-4a31-94a0-63d7f8781381","system_id":"levelo_inurba_marseille","lat":43.286168,"lon":5.351035,"is_reserved":false,"is_disabled":false,"rental_uris":{"android":"levelo://app?vid=a3d1d3d6-4d14-4a31-94a0-63d7f8781381","ios":"levelo://app?vid=a3d1d3d6-4d14-4a31-94a0-63d7f8781381"},"vehicle_type_id":"4","last_reported":1687284450,"current_range_meters":0,"station_id":"ce4bhch2rcd13ifvqeug","pricing_plan_id":"free"},{"bike_id":"5d33473e-a64d-4e7c-8947-b68bb9592a2e","system_id":"levelo_inurba_marseille","lat":43.285856,"lon":5.350771,"is_reserved":false,"is_disabled":false,"rental_uris":{"android":"levelo://app?vid=5d33473e-a64d-4e7c-8947-b68bb9592a2e","ios":"levelo://app?vid=5d33473e-a64d-4e7c-8947-b68bb9592a2e"},"vehicle_type_id":"4","last_reported":1687284450,"current_range_meters":18400,"station_id":"ce4bhch2rcd13ifvqeug","pricing_plan_id":"free"},{"bike_id":"802e95e9-5ca5-42fb-b010-72d25b0873bb","system_id":"levelo_inurba_marseille","lat":43.286128,"lon":5.351141,"is_reserved":false,"is_disabled":false,"rental_uris":{"android":"levelo://app?vid=802e95e9-5ca5-42fb-b010-72d25b0873bb","ios":"levelo://app?vid=802e95e9-5ca5-42fb-b010-72d25b0873bb"},"vehicle_type_id":"4","last_reported":1687284450,"current_range_meters":0,"station_id":"ce4bhch2rcd13ifvqeug","pricing_plan_id":"free"},{"bike_id":"10a594cf-e9de-49a3-a005-ca277e9c14ac","system_id":"levelo_inurba_marseille","lat":43.285856,"lon":5.350771,"is_reserved":false,"is_disabled":false,"rental_uris":{"android":"levelo://app?vid=10a594cf-e9de-49a3-a005-ca277e9c14ac","ios":"levelo://app?vid=10a594cf-e9de-49a3-a005-ca277e9c14ac"},"vehicle_type_id":"4","last_reported":1687284450,"current_range_meters":31200,"station_id":"ce4bhch2rcd13ifvqeug","pricing_plan_id":"free"},{"bike_id":"9821ee43-e608-475f-8a0d-ac6c1f36dafb","system_id":"levelo_inurba_marseille","lat":43.286133,"lon":5.351081,"is_reserved":false,"is_disabled":false,"rental_uris":{"android":"levelo://app?vid=9821ee43-e608-475f-8a0d-ac6c1f36dafb","ios":"levelo://app?vid=9821ee43-e608-475f-8a0d-ac6c1f36dafb"},"vehicle_type_id":"4","last_reported":1687284450,"current_range_meters":31200,"station_id":"ce4bhch2rcd13ifvqeug","pricing_plan_id":"free"},{"bike_id":"07941692-9658-4225-b342-654ff90dd3ca","system_id":"levelo_inurba_marseille","lat":43.286128,"lon":5.351092,"is_reserved":false,"is_disabled":false,"rental_uris":{"android":"levelo://app?vid=07941692-9658-4225-b342-654ff90dd3ca","ios":"levelo://app?vid=07941692-9658-4225-b342-654ff90dd3ca"},"vehicle_type_id":"4","last_reported":1687284450,"current_range_meters":3600,"station_id":"ce4bhch2rcd13ifvqeug","pricing_plan_id":"free"},{"bike_id":"ecd25a77-cf61-4118-8271-8bf340b130d0","system_id":"levelo_inurba_marseille","lat":43.286131,"lon":5.351076,"is_reserved":false,"is_disabled":false,"rental_uris":{"android":"levelo://app?vid=ecd25a77-cf61-4118-8271-8bf340b130d0","ios":"levelo://app?vid=ecd25a77-cf61-4118-8271-8bf340b130d0"},"vehicle_type_id":"4","last_reported":1687284450,"current_range_meters":7600,"station_id":"","pricing_plan_id":"free"},{"bike_id":"c6ee6779-57c3-410f-a0ff-27776d75230c","system_id":"levelo_inurba_marseille","lat":43.285856,"lon":5.350771,"is_reserved":false,"is_disabled":false,"rental_uris":{"android":"levelo://app?vid=c6ee6779-57c3-410f-a0ff-27776d75230c","ios":"levelo://app?vid=c6ee6779-57c3-410f-a0ff-27776d75230c"},"vehicle_type_id":"4","last_reported":1687284450,"current_range_meters":1600,"station_id":"ce4bhch2rcd13ifvqeug","pricing_plan_id":"free"},{"bike_id":"01abdd6c-e4cb-4b9d-a948-2e717db5253f","system_id":"levelo_inurba_marseille","lat":43.28611,"lon":5.3511,"is_reserved":false,"is_disabled":false,"rental_uris":{"android":"levelo://app?vid=01abdd6c-e4cb-4b9d-a948-2e717db5253f","ios":"levelo://app?vid=01abdd6c-e4cb-4b9d-a948-2e717db5253f"},"vehicle_type_id":"4","last_reported":1687284450,"current_range_meters":14400,"station_id":"ce4bhch2rcd13ifvqeug","pricing_plan_id":"free"},{"bike_id":"872f3e10-6a71-4d28-b12f-eb546ed7d30a","system_id":"levelo_inurba_marseille","lat":43.28614,"lon":5.351,"is_reserved":false,"is_disabled":false,"rental_uris":{"android":"levelo://app?vid=872f3e10-6a71-4d28-b12f-eb546ed7d30a","ios":"levelo://app?vid=872f3e10-6a71-4d28-b12f-eb546ed7d30a"},"vehicle_type_id":"4","last_reported":1687284450,"current_range_meters":0,"station_id":"ce4bhch2rcd13ifvqeug","pricing_plan_id":"free"},{"bike_id":"84e57819-0d66-4727-ad3f-f172e0cd2a12","system_id":"levelo_inurba_marseille","lat":43.28609,"lon":5.35104,"is_reserved":false,"is_disabled":false,"rental_uris":{"android":"levelo://app?vid=84e57819-0d66-4727-ad3f-f172e0cd2a12","ios":"levelo://app?vid=84e57819-0d66-4727-ad3f-f172e0cd2a12"},"vehicle_type_id":"4","last_reported":1687284450,"current_range_meters":18000,"station_id":"ce4bhch2rcd13ifvqeug","pricing_plan_id":"free"},{"bike_id":"aeac572f-88af-4703-beaa-21089d5e35a4","system_id":"levelo_inurba_marseille","lat":43.28611,"lon":5.35097,"is_reserved":false,"is_disabled":false,"rental_uris":{"android":"levelo://app?vid=aeac572f-88af-4703-beaa-21089d5e35a4","ios":"levelo://app?vid=aeac572f-88af-4703-beaa-21089d5e35a4"},"vehicle_type_id":"4","last_reported":1687284450,"current_range_meters":9600,"station_id":"ce4bhch2rcd13ifvqeug","pricing_plan_id":"free"},{"bike_id":"9e72b8ae-ff16-4108-877a-0665b03cb85f","system_id":"levelo_inurba_marseille","lat":43.28608,"lon":5.35097,"is_reserved":false,"is_disabled":false,"rental_uris":{"android":"levelo://app?vid=9e72b8ae-ff16-4108-877a-0665b03cb85f","ios":"levelo://app?vid=9e72b8ae-ff16-4108-877a-0665b03cb85f"},"vehicle_type_id":"4","last_reported":1687284450,"current_range_meters":0,"station_id":"ce4bhch2rcd13ifvqeug","pricing_plan_id":"free"},{"bike_id":"79af50ba-cdd4-476c-be74-70b2178d530b","system_id":"levelo_inurba_marseille","lat":43.295713,"lon":5.399639,"is_reserved":false,"is_disabled":false,"rental_uris":{"android":"levelo://app?vid=79af50ba-cdd4-476c-be74-70b2178d530b","ios":"levelo://app?vid=79af50ba-cdd4-476c-be74-70b2178d530b"},"vehicle_type_id":"4","last_reported":1687284450,"current_range_meters":400,"station_id":"ce4bh312rcd13ifvqdj0","pricing_plan_id":"free"},{"bike_id":"f6fda2f2-04f1-4377-bae3-2fc212d95c47","system_id":"levelo_inurba_marseille","lat":43.34228,"lon":5.36183,"is_reserved":false,"is_disabled":false,"rental_uris":{"android":"levelo://app?vid=f6fda2f2-04f1-4377-bae3-2fc212d95c47","ios":"levelo://app?vid=f6fda2f2-04f1-4377-bae3-2fc212d95c47"},"vehicle_type_id":"4","last_reported":1687284450,"current_range_meters":10000,"station_id":"","pricing_plan_id":"free"},{"bike_id":"a0294cbe-ddff-445e-81c2-60a75d245509","system_id":"levelo_inurba_marseille","lat":43.32184,"lon":5.40591,"is_reserved":false,"is_disabled":false,"rental_uris":{"android":"levelo://app?vid=a0294cbe-ddff-445e-81c2-60a75d245509","ios":"levelo://app?vid=a0294cbe-ddff-445e-81c2-60a75d245509"},"vehicle_type_id":"4","last_reported":1687284450,"current_range_meters":17600,"station_id":"","pricing_plan_id":"free"},{"bike_id":"d7b29256-fc07-4272-a85c-ecffd4d1832a","system_id":"levelo_inurba_marseille","lat":43.33715,"lon":5.3919,"is_reserved":false,"is_disabled":false,"rental_uris":{"android":"levelo://app?vid=d7b29256-fc07-4272-a85c-ecffd4d1832a","ios":"levelo://app?vid=d7b29256-fc07-4272-a85c-ecffd4d1832a"},"vehicle_type_id":"4","last_reported":1687284450,"current_range_meters":10800,"station_id":"","pricing_plan_id":"free"},{"bike_id":"3c93e75d-1921-431d-8673-92d6689faf88","system_id":"levelo_inurba_marseille","lat":43.33719,"lon":5.3919,"is_reserved":false,"is_disabled":false,"rental_uris":{"android":"levelo://app?vid=3c93e75d-1921-431d-8673-92d6689faf88","ios":"levelo://app?vid=3c93e75d-1921-431d-8673-92d6689faf88"},"vehicle_type_id":"4","last_reported":1687284450,"current_range_meters":18400,"station_id":"","pricing_plan_id":"free"},{"bike_id":"1b5cab66-590b-460a-9914-864900fba592","system_id":"levelo_inurba_marseille","lat":43.33721,"lon":5.39189,"is_reserved":false,"is_disabled":false,"rental_uris":{"android":"levelo://app?vid=1b5cab66-590b-460a-9914-864900fba592","ios":"levelo://app?vid=1b5cab66-590b-460a-9914-864900fba592"},"vehicle_type_id":"4","last_reported":1687284450,"current_range_meters":8000,"station_id":"","pricing_plan_id":"free"},{"bike_id":"5b2482f2-bb69-4954-b7cf-e075b1760e43","system_id":"levelo_inurba_marseille","lat":43.323464,"lon":5.406297,"is_reserved":false,"is_disabled":false,"rental_uris":{"android":"levelo://app?vid=5b2482f2-bb69-4954-b7cf-e075b1760e43","ios":"levelo://app?vid=5b2482f2-bb69-4954-b7cf-e075b1760e43"},"vehicle_type_id":"4","last_reported":1687284450,"current_range_meters":19600,"station_id":"ce4bhq92rcd13ifvqhjg","pricing_plan_id":"free"},{"bike_id":"64766038-4d37-4bbb-8324-fdd09852a999","system_id":"levelo_inurba_marseille","lat":43.33722,"lon":5.39201,"is_reserved":false,"is_disabled":false,"rental_uris":{"android":"levelo://app?vid=64766038-4d37-4bbb-8324-fdd09852a999","ios":"levelo://app?vid=64766038-4d37-4bbb-8324-fdd09852a999"},"vehicle_type_id":"4","last_reported":1687284450,"current_range_meters":17200,"station_id":"","pricing_plan_id":"free"},{"bike_id":"4d40e54a-4867-4e42-951a-2e56bdf05e3a","system_id":"levelo_inurba_marseille","lat":43.284787,"lon":5.384116,"is_reserved":false,"is_disabled":false,"rental_uris":{"android":"levelo://app?vid=4d40e54a-4867-4e42-951a-2e56bdf05e3a","ios":"levelo://app?vid=4d40e54a-4867-4e42-951a-2e56bdf05e3a"},"vehicle_type_id":"4","last_reported":1687284450,"current_range_meters":13200,"station_id":"ce4bh512rcd13ifvqe3g","pricing_plan_id":"free"},{"bike_id":"da5c9033-aee3-45c5-a84a-afb04787aef3","system_id":"levelo_inurba_marseille","lat":43.284793,"lon":5.384113,"is_reserved":false,"is_disabled":false,"rental_uris":{"android":"levelo://app?vid=da5c9033-aee3-45c5-a84a-afb04787aef3","ios":"levelo://app?vid=da5c9033-aee3-45c5-a84a-afb04787aef3"},"vehicle_type_id":"4","last_reported":1687284450,"current_range_meters":11600,"station_id":"ce4bh512rcd13ifvqe3g","pricing_plan_id":"free"},{"bike_id":"2f5f6b14-3056-4003-9db2-8159309df3b4","system_id":"levelo_inurba_marseille","lat":43.284787,"lon":5.384116,"is_reserved":false,"is_disabled":false,"rental_uris":{"android":"levelo://app?vid=2f5f6b14-3056-4003-9db2-8159309df3b4","ios":"levelo://app?vid=2f5f6b14-3056-4003-9db2-8159309df3b4"},"vehicle_type_id":"4","last_reported":1687284450,"current_range_meters":24800,"station_id":"ce4bh512rcd13ifvqe3g","pricing_plan_id":"free"},{"bike_id":"00b4d942-d645-4a17-a320-9c02b5ecca68","system_id":"levelo_inurba_marseille","lat":43.288501,"lon":5.393087,"is_reserved":false,"is_disabled":false,"rental_uris":{"android":"levelo://app?vid=00b4d942-d645-4a17-a320-9c02b5ecca68","ios":"levelo://app?vid=00b4d942-d645-4a17-a320-9c02b5ecca68"},"vehicle_type_id":"4","last_reported":1687284450,"current_range_meters":13600,"station_id":"ce4bh2p2rcd13ifvqdi0","pricing_plan_id":"free"},{"bike_id":"41c5253a-a08a-4a1c-943f-83fb01018796","system_id":"levelo_inurba_marseille","lat":43.283498,"lon":5.380948,"is_reserved":false,"is_disabled":false,"rental_uris":{"android":"levelo://app?vid=41c5253a-a08a-4a1c-943f-83fb01018796","ios":"levelo://app?vid=41c5253a-a08a-4a1c-943f-83fb01018796"},"vehicle_type_id":"4","last_reported":1687284450,"current_range_meters":10000,"station_id":"ce4bh412rcd13ifvqdr0","pricing_plan_id":"free"},{"bike_id":"d5b2f3b5-7a34-4115-a44c-b0a0a7fb136e","system_id":"levelo_inurba_marseille","lat":43.284462,"lon":5.392121,"is_reserved":false,"is_disabled":false,"rental_uris":{"android":"levelo://app?vid=d5b2f3b5-7a34-4115-a44c-b0a0a7fb136e","ios":"levelo://app?vid=d5b2f3b5-7a34-4115-a44c-b0a0a7fb136e"},"vehicle_type_id":"4","last_reported":1687284450,"current_range_meters":22000,"station_id":"ce4bhoh2rcd13ifvqh5g","pricing_plan_id":"free"},{"bike_id":"1446d86a-a401-4ff3-8f95-c86b593b1615","system_id":"levelo_inurba_marseille","lat":43.284187,"lon":5.349798,"is_reserved":false,"is_disabled":false,"rental_uris":{"android":"levelo://app?vid=1446d86a-a401-4ff3-8f95-c86b593b1615","ios":"levelo://app?vid=1446d86a-a401-4ff3-8f95-c86b593b1615"},"vehicle_type_id":"4","last_reported":1687284450,"current_range_meters":31200,"station_id":"ce4bhbh2rcd13ifvqepg","pricing_plan_id":"free"},{"bike_id":"20bc335f-753e-46da-8248-cd05a575dcb3","system_id":"levelo_inurba_marseille","lat":43.28412,"lon":5.34988,"is_reserved":false,"is_disabled":false,"rental_uris":{"android":"levelo://app?vid=20bc335f-753e-46da-8248-cd05a575dcb3","ios":"levelo://app?vid=20bc335f-753e-46da-8248-cd05a575dcb3"},"vehicle_type_id":"4","last_reported":1687284450,"current_range_meters":31200,"station_id":"ce4bhbh2rcd13ifvqepg","pricing_plan_id":"free"},{"bike_id":"16e5fedd-6e86-436a-a0a2-72c7cd60a6ea","system_id":"levelo_inurba_marseille","lat":43.32172,"lon":5.408,"is_reserved":false,"is_disabled":false,"rental_uris":{"android":"levelo://app?vid=16e5fedd-6e86-436a-a0a2-72c7cd60a6ea","ios":"levelo://app?vid=16e5fedd-6e86-436a-a0a2-72c7cd60a6ea"},"vehicle_type_id":"4","last_reported":1687284450,"current_range_meters":23200,"station_id":"","pricing_plan_id":"free"},{"bike_id":"acb18ae2-8b8a-4727-a1e2-e5b5982684c4","system_id":"levelo_inurba_marseille","lat":43.28407,"lon":5.34973,"is_reserved":false,"is_disabled":false,"rental_uris":{"android":"levelo://app?vid=acb18ae2-8b8a-4727-a1e2-e5b5982684c4","ios":"levelo://app?vid=acb18ae2-8b8a-4727-a1e2-e5b5982684c4"},"vehicle_type_id":"4","last_reported":1687284450,"current_range_meters":30000,"station_id":"ce4bhbh2rcd13ifvqepg","pricing_plan_id":"free"},{"bike_id":"33e79df3-6a7b-46d3-b4d5-f487bd3f35b6","system_id":"levelo_inurba_marseille","lat":43.282745,"lon":5.35062,"is_reserved":false,"is_disabled":false,"rental_uris":{"android":"levelo://app?vid=33e79df3-6a7b-46d3-b4d5-f487bd3f35b6","ios":"levelo://app?vid=33e79df3-6a7b-46d3-b4d5-f487bd3f35b6"},"vehicle_type_id":"4","last_reported":1687284450,"current_range_meters":6800,"station_id":"ce4bhbp2rcd13ifvqerg","pricing_plan_id":"free"},{"bike_id":"e9e2d1ba-de81-40b5-8285-9e3d6d18de7b","system_id":"levelo_inurba_marseille","lat":43.282754,"lon":5.350519,"is_reserved":false,"is_disabled":false,"rental_uris":{"android":"levelo://app?vid=e9e2d1ba-de81-40b5-8285-9e3d6d18de7b","ios":"levelo://app?vid=e9e2d1ba-de81-40b5-8285-9e3d6d18de7b"},"vehicle_type_id":"4","last_reported":1687284450,"current_range_meters":0,"station_id":"ce4bhbp2rcd13ifvqerg","pricing_plan_id":"free"},{"bike_id":"f24a3c26-0a55-4bc5-b060-05f874bedf9a","system_id":"levelo_inurba_marseille","lat":43.282726,"lon":5.350582,"is_reserved":false,"is_disabled":false,"rental_uris":{"android":"levelo://app?vid=f24a3c26-0a55-4bc5-b060-05f874bedf9a","ios":"levelo://app?vid=f24a3c26-0a55-4bc5-b060-05f874bedf9a"},"vehicle_type_id":"4","last_reported":1687284450,"current_range_meters":19600,"station_id":"ce4bhbp2rcd13ifvqerg","pricing_plan_id":"free"},{"bike_id":"aa91d3c9-7ed9-42a1-8900-6cd8168a939d","system_id":"levelo_inurba_marseille","lat":43.283502,"lon":5.386471,"is_reserved":false,"is_disabled":false,"rental_uris":{"android":"levelo://app?vid=aa91d3c9-7ed9-42a1-8900-6cd8168a939d","ios":"levelo://app?vid=aa91d3c9-7ed9-42a1-8900-6cd8168a939d"},"vehicle_type_id":"4","last_reported":1687284450,"current_range_meters":0,"station_id":"ce4bh492rcd13ifvqdvg","pricing_plan_id":"free"},{"bike_id":"f8a8d428-2b83-4593-aabd-bec11ced2fae","system_id":"levelo_inurba_marseille","lat":43.283502,"lon":5.386471,"is_reserved":false,"is_disabled":false,"rental_uris":{"android":"levelo://app?vid=f8a8d428-2b83-4593-aabd-bec11ced2fae","ios":"levelo://app?vid=f8a8d428-2b83-4593-aabd-bec11ced2fae"},"vehicle_type_id":"4","last_reported":1687284450,"current_range_meters":10400,"station_id":"ce4bh492rcd13ifvqdvg","pricing_plan_id":"free"},{"bike_id":"3c61871c-bd65-4380-8b62-f2187458c6cf","system_id":"levelo_inurba_marseille","lat":43.28032,"lon":5.36943,"is_reserved":false,"is_disabled":false,"rental_uris":{"android":"levelo://app?vid=3c61871c-bd65-4380-8b62-f2187458c6cf","ios":"levelo://app?vid=3c61871c-bd65-4380-8b62-f2187458c6cf"},"vehicle_type_id":"4","last_reported":1687284450,"current_range_meters":19200,"station_id":"ce4bha12rcd13ifvqef0","pricing_plan_id":"free"},{"bike_id":"9064fe79-f0b6-4203-84f4-698fe07fd37e","system_id":"levelo_inurba_marseille","lat":43.28031,"lon":5.36941,"is_reserved":false,"is_disabled":false,"rental_uris":{"android":"levelo://app?vid=9064fe79-f0b6-4203-84f4-698fe07fd37e","ios":"levelo://app?vid=9064fe79-f0b6-4203-84f4-698fe07fd37e"},"vehicle_type_id":"4","last_reported":1687284450,"current_range_meters":16800,"station_id":"ce4bha12rcd13ifvqef0","pricing_plan_id":"free"},{"bike_id":"4989b521-664d-4a8e-af69-f942665c60c0","system_id":"levelo_inurba_marseille","lat":43.280382,"lon":5.369291,"is_reserved":false,"is_disabled":false,"rental_uris":{"android":"levelo://app?vid=4989b521-664d-4a8e-af69-f942665c60c0","ios":"levelo://app?vid=4989b521-664d-4a8e-af69-f942665c60c0"},"vehicle_type_id":"4","last_reported":1687284450,"current_range_meters":30800,"station_id":"ce4bha12rcd13ifvqef0","pricing_plan_id":"free"},{"bike_id":"6489e7e3-d34f-49e8-999e-49aeabad95fc","system_id":"levelo_inurba_marseille","lat":43.28039,"lon":5.369297,"is_reserved":false,"is_disabled":false,"rental_uris":{"android":"levelo://app?vid=6489e7e3-d34f-49e8-999e-49aeabad95fc","ios":"levelo://app?vid=6489e7e3-d34f-49e8-999e-49aeabad95fc"},"vehicle_type_id":"4","last_reported":1687284450,"current_range_meters":25600,"station_id":"ce4bha12rcd13ifvqef0","pricing_plan_id":"free"},{"bike_id":"b56869d9-cbaa-435c-8bf5-76c108000e3c","system_id":"levelo_inurba_marseille","lat":43.280382,"lon":5.369291,"is_reserved":false,"is_disabled":false,"rental_uris":{"android":"levelo://app?vid=b56869d9-cbaa-435c-8bf5-76c108000e3c","ios":"levelo://app?vid=b56869d9-cbaa-435c-8bf5-76c108000e3c"},"vehicle_type_id":"4","last_reported":1687284450,"current_range_meters":22000,"station_id":"ce4bha12rcd13ifvqef0","pricing_plan_id":"free"},{"bike_id":"0e94f8a5-9507-466d-bb75-93efa2bca82a","system_id":"levelo_inurba_marseille","lat":43.290412,"lon":5.399633,"is_reserved":false,"is_disabled":false,"rental_uris":{"android":"levelo://app?vid=0e94f8a5-9507-466d-bb75-93efa2bca82a","ios":"levelo://app?vid=0e94f8a5-9507-466d-bb75-93efa2bca82a"},"vehicle_type_id":"4","last_reported":1687284450,"current_range_meters":10400,"station_id":"ce4bh392rcd13ifvqdm0","pricing_plan_id":"free"},{"bike_id":"a40e3ba5-216d-4827-9bab-bfc6884f03c4","system_id":"levelo_inurba_marseille","lat":43.284462,"lon":5.392121,"is_reserved":false,"is_disabled":false,"rental_uris":{"android":"levelo://app?vid=a40e3ba5-216d-4827-9bab-bfc6884f03c4","ios":"levelo://app?vid=a40e3ba5-216d-4827-9bab-bfc6884f03c4"},"vehicle_type_id":"4","last_reported":1687284450,"current_range_meters":2800,"station_id":"ce4bhoh2rcd13ifvqh5g","pricing_plan_id":"free"},{"bike_id":"925a00b4-ad50-47ee-a1cf-912bf5975409","system_id":"levelo_inurba_marseille","lat":43.284462,"lon":5.392121,"is_reserved":false,"is_disabled":false,"rental_uris":{"android":"levelo://app?vid=925a00b4-ad50-47ee-a1cf-912bf5975409","ios":"levelo://app?vid=925a00b4-ad50-47ee-a1cf-912bf5975409"},"vehicle_type_id":"4","last_reported":1687284450,"current_range_meters":12000,"station_id":"ce4bhoh2rcd13ifvqh5g","pricing_plan_id":"free"},{"bike_id":"e70567ea-e52b-4dea-8a3f-55bc3e8cc0eb","system_id":"levelo_inurba_marseille","lat":43.284462,"lon":5.392121,"is_reserved":false,"is_disabled":false,"rental_uris":{"android":"levelo://app?vid=e70567ea-e52b-4dea-8a3f-55bc3e8cc0eb","ios":"levelo://app?vid=e70567ea-e52b-4dea-8a3f-55bc3e8cc0eb"},"vehicle_type_id":"4","last_reported":1687284450,"current_range_meters":9200,"station_id":"ce4bhoh2rcd13ifvqh5g","pricing_plan_id":"free"},{"bike_id":"ad8032fe-dcd8-4599-8b28-6004580e35d4","system_id":"levelo_inurba_marseille","lat":43.285742,"lon":5.395004,"is_reserved":false,"is_disabled":false,"rental_uris":{"android":"levelo://app?vid=ad8032fe-dcd8-4599-8b28-6004580e35d4","ios":"levelo://app?vid=ad8032fe-dcd8-4599-8b28-6004580e35d4"},"vehicle_type_id":"4","last_reported":1687284450,"current_range_meters":22000,"station_id":"ce4bh292rcd13ifvqdg0","pricing_plan_id":"free"},{"bike_id":"bd8cc73e-353a-4d63-87be-485fe19ba6b8","system_id":"levelo_inurba_marseille","lat":43.285742,"lon":5.395004,"is_reserved":false,"is_disabled":false,"rental_uris":{"android":"levelo://app?vid=bd8cc73e-353a-4d63-87be-485fe19ba6b8","ios":"levelo://app?vid=bd8cc73e-353a-4d63-87be-485fe19ba6b8"},"vehicle_type_id":"4","last_reported":1687284450,"current_range_meters":1600,"station_id":"ce4bh292rcd13ifvqdg0","pricing_plan_id":"free"},{"bike_id":"ff22564b-7f59-4dba-a7bd-0f1bc5689db1","system_id":"levelo_inurba_marseille","lat":43.3266,"lon":5.40979,"is_reserved":false,"is_disabled":false,"rental_uris":{"android":"levelo://app?vid=ff22564b-7f59-4dba-a7bd-0f1bc5689db1","ios":"levelo://app?vid=ff22564b-7f59-4dba-a7bd-0f1bc5689db1"},"vehicle_type_id":"4","last_reported":1687284450,"current_range_meters":25600,"station_id":"ce4bhpp2rcd13ifvqhgg","pricing_plan_id":"free"},{"bike_id":"7a5f1dab-0115-4817-9dc9-6580ff55f2fe","system_id":"levelo_inurba_marseille","lat":43.326605,"lon":5.409903,"is_reserved":false,"is_disabled":false,"rental_uris":{"android":"levelo://app?vid=7a5f1dab-0115-4817-9dc9-6580ff55f2fe","ios":"levelo://app?vid=7a5f1dab-0115-4817-9dc9-6580ff55f2fe"},"vehicle_type_id":"4","last_reported":1687284450,"current_range_meters":18000,"station_id":"ce4bhpp2rcd13ifvqhgg","pricing_plan_id":"free"},{"bike_id":"aca7feca-8408-41e9-9146-d6b03594eda4","system_id":"levelo_inurba_marseille","lat":43.27781,"lon":5.36238,"is_reserved":false,"is_disabled":false,"rental_uris":{"android":"levelo://app?vid=aca7feca-8408-41e9-9146-d6b03594eda4","ios":"levelo://app?vid=aca7feca-8408-41e9-9146-d6b03594eda4"},"vehicle_type_id":"4","last_reported":1687284450,"current_range_meters":15200,"station_id":"","pricing_plan_id":"free"},{"bike_id":"6e52b45f-4881-448a-b226-7a664c9d54fb","system_id":"levelo_inurba_marseille","lat":43.299577,"lon":5.413277,"is_reserved":false,"is_disabled":false,"rental_uris":{"android":"levelo://app?vid=6e52b45f-4881-448a-b226-7a664c9d54fb","ios":"levelo://app?vid=6e52b45f-4881-448a-b226-7a664c9d54fb"},"vehicle_type_id":"4","last_reported":1687284450,"current_range_meters":16000,"station_id":"ce4bhp12rcd13ifvqh9g","pricing_plan_id":"free"},{"bike_id":"5b9cb1c2-3c2c-4ff5-9a05-9f6c26bf2661","system_id":"levelo_inurba_marseille","lat":43.29961,"lon":5.41315,"is_reserved":false,"is_disabled":false,"rental_uris":{"android":"levelo://app?vid=5b9cb1c2-3c2c-4ff5-9a05-9f6c26bf2661","ios":"levelo://app?vid=5b9cb1c2-3c2c-4ff5-9a05-9f6c26bf2661"},"vehicle_type_id":"4","last_reported":1687284450,"current_range_meters":22400,"station_id":"ce4bhp12rcd13ifvqh9g","pricing_plan_id":"free"},{"bike_id":"3427211e-9e18-4a3d-9d85-6e5a4e8ccb5d","system_id":"levelo_inurba_marseille","lat":43.2996,"lon":5.41317,"is_reserved":false,"is_disabled":false,"rental_uris":{"android":"levelo://app?vid=3427211e-9e18-4a3d-9d85-6e5a4e8ccb5d","ios":"levelo://app?vid=3427211e-9e18-4a3d-9d85-6e5a4e8ccb5d"},"vehicle_type_id":"4","last_reported":1687284450,"current_range_meters":25600,"station_id":"ce4bhp12rcd13ifvqh9g","pricing_plan_id":"free"},{"bike_id":"9351a50b-4ca5-4906-a46a-01d367482062","system_id":"levelo_inurba_marseille","lat":43.3252,"lon":5.41407,"is_reserved":false,"is_disabled":false,"rental_uris":{"android":"levelo://app?vid=9351a50b-4ca5-4906-a46a-01d367482062","ios":"levelo://app?vid=9351a50b-4ca5-4906-a46a-01d367482062"},"vehicle_type_id":"4","last_reported":1687284450,"current_range_meters":18000,"station_id":"ce4bhq12rcd13ifvqhhg","pricing_plan_id":"free"},{"bike_id":"8054319e-c9b4-4cbd-9493-6306ebcda21a","system_id":"levelo_inurba_marseille","lat":43.29285,"lon":5.40923,"is_reserved":false,"is_disabled":false,"rental_uris":{"android":"levelo://app?vid=8054319e-c9b4-4cbd-9493-6306ebcda21a","ios":"levelo://app?vid=8054319e-c9b4-4cbd-9493-6306ebcda21a"},"vehicle_type_id":"4","last_reported":1687284450,"current_range_meters":27600,"station_id":"ce4bh192rcd13ifvqdc0","pricing_plan_id":"free"},{"bike_id":"dda5e06d-b0b1-4cce-9d1a-027d40c20189","system_id":"levelo_inurba_marseille","lat":43.325233,"lon":5.414318,"is_reserved":false,"is_disabled":false,"rental_uris":{"android":"levelo://app?vid=dda5e06d-b0b1-4cce-9d1a-027d40c20189","ios":"levelo://app?vid=dda5e06d-b0b1-4cce-9d1a-027d40c20189"},"vehicle_type_id":"4","last_reported":1687284450,"current_range_meters":6800,"station_id":"ce4bhq12rcd13ifvqhhg","pricing_plan_id":"free"},{"bike_id":"b8e15839-635b-48f4-925c-f0da4de7061d","system_id":"levelo_inurba_marseille","lat":43.29266,"lon":5.40909,"is_reserved":false,"is_disabled":false,"rental_uris":{"android":"levelo://app?vid=b8e15839-635b-48f4-925c-f0da4de7061d","ios":"levelo://app?vid=b8e15839-635b-48f4-925c-f0da4de7061d"},"vehicle_type_id":"4","last_reported":1687284450,"current_range_meters":31200,"station_id":"ce4bh192rcd13ifvqdc0","pricing_plan_id":"free"},{"bike_id":"20814a6c-7942-4df0-bbfc-9919cf225342","system_id":"levelo_inurba_marseille","lat":43.29257,"lon":5.40901,"is_reserved":false,"is_disabled":false,"rental_uris":{"android":"levelo://app?vid=20814a6c-7942-4df0-bbfc-9919cf225342","ios":"levelo://app?vid=20814a6c-7942-4df0-bbfc-9919cf225342"},"vehicle_type_id":"4","last_reported":1687284450,"current_range_meters":13200,"station_id":"ce4bh192rcd13ifvqdc0","pricing_plan_id":"free"},{"bike_id":"a58b6923-e914-4495-af70-8c32f13d33aa","system_id":"levelo_inurba_marseille","lat":43.32543,"lon":5.41422,"is_reserved":false,"is_disabled":false,"rental_uris":{"android":"levelo://app?vid=a58b6923-e914-4495-af70-8c32f13d33aa","ios":"levelo://app?vid=a58b6923-e914-4495-af70-8c32f13d33aa"},"vehicle_type_id":"4","last_reported":1687284450,"current_range_meters":31200,"station_id":"ce4bhq12rcd13ifvqhhg","pricing_plan_id":"free"},{"bike_id":"e1710b0d-e0e9-4493-8442-6d1b2b79e318","system_id":"levelo_inurba_marseille","lat":43.325374,"lon":5.414254,"is_reserved":false,"is_disabled":false,"rental_uris":{"android":"levelo://app?vid=e1710b0d-e0e9-4493-8442-6d1b2b79e318","ios":"levelo://app?vid=e1710b0d-e0e9-4493-8442-6d1b2b79e318"},"vehicle_type_id":"4","last_reported":1687284450,"current_range_meters":31200,"station_id":"","pricing_plan_id":"free"},{"bike_id":"d82d692d-8abd-4398-9be6-c48573d77bce","system_id":"levelo_inurba_marseille","lat":43.325233,"lon":5.414318,"is_reserved":false,"is_disabled":false,"rental_uris":{"android":"levelo://app?vid=d82d692d-8abd-4398-9be6-c48573d77bce","ios":"levelo://app?vid=d82d692d-8abd-4398-9be6-c48573d77bce"},"vehicle_type_id":"4","last_reported":1687284450,"current_range_meters":30000,"station_id":"ce4bhq12rcd13ifvqhhg","pricing_plan_id":"free"},{"bike_id":"4be0fff3-5aee-49af-888d-19b74eff7df5","system_id":"levelo_inurba_marseille","lat":43.325233,"lon":5.414318,"is_reserved":false,"is_disabled":false,"rental_uris":{"android":"levelo://app?vid=4be0fff3-5aee-49af-888d-19b74eff7df5","ios":"levelo://app?vid=4be0fff3-5aee-49af-888d-19b74eff7df5"},"vehicle_type_id":"4","last_reported":1687284450,"current_range_meters":30800,"station_id":"ce4bhq12rcd13ifvqhhg","pricing_plan_id":"free"},{"bike_id":"29c45aac-1ff1-4a4d-b83c-592045ec484f","system_id":"levelo_inurba_marseille","lat":43.325376,"lon":5.414268,"is_reserved":false,"is_disabled":false,"rental_uris":{"android":"levelo://app?vid=29c45aac-1ff1-4a4d-b83c-592045ec484f","ios":"levelo://app?vid=29c45aac-1ff1-4a4d-b83c-592045ec484f"},"vehicle_type_id":"4","last_reported":1687284450,"current_range_meters":30400,"station_id":"","pricing_plan_id":"free"},{"bike_id":"1fc96723-841e-44fb-87c5-4629dfd9900b","system_id":"levelo_inurba_marseille","lat":43.325341,"lon":5.41431,"is_reserved":false,"is_disabled":false,"rental_uris":{"android":"levelo://app?vid=1fc96723-841e-44fb-87c5-4629dfd9900b","ios":"levelo://app?vid=1fc96723-841e-44fb-87c5-4629dfd9900b"},"vehicle_type_id":"4","last_reported":1687284450,"current_range_meters":17200,"station_id":"ce4bhq12rcd13ifvqhhg","pricing_plan_id":"free"},{"bike_id":"7acc3454-40ab-4bf0-9cca-026c3b7bbccb","system_id":"levelo_inurba_marseille","lat":43.27618,"lon":5.361009,"is_reserved":false,"is_disabled":false,"rental_uris":{"android":"levelo://app?vid=7acc3454-40ab-4bf0-9cca-026c3b7bbccb","ios":"levelo://app?vid=7acc3454-40ab-4bf0-9cca-026c3b7bbccb"},"vehicle_type_id":"4","last_reported":1687284450,"current_range_meters":0,"station_id":"ce4bgj92rcd13ifvqbe0","pricing_plan_id":"free"},{"bike_id":"3f916686-feb7-49a8-9f2c-10fbc058c1eb","system_id":"levelo_inurba_marseille","lat":43.29246,"lon":5.40906,"is_reserved":false,"is_disabled":false,"rental_uris":{"android":"levelo://app?vid=3f916686-feb7-49a8-9f2c-10fbc058c1eb","ios":"levelo://app?vid=3f916686-feb7-49a8-9f2c-10fbc058c1eb"},"vehicle_type_id":"4","last_reported":1687284450,"current_range_meters":31600,"station_id":"ce4bh192rcd13ifvqdc0","pricing_plan_id":"free"},{"bike_id":"19c975c5-8131-49d8-87e1-5bec2d98383d","system_id":"levelo_inurba_marseille","lat":43.29246,"lon":5.40911,"is_reserved":false,"is_disabled":false,"rental_uris":{"android":"levelo://app?vid=19c975c5-8131-49d8-87e1-5bec2d98383d","ios":"levelo://app?vid=19c975c5-8131-49d8-87e1-5bec2d98383d"},"vehicle_type_id":"4","last_reported":1687284450,"current_range_meters":28000,"station_id":"ce4bh192rcd13ifvqdc0","pricing_plan_id":"free"},{"bike_id":"61d2370f-4d80-4cc6-adc3-0a144a65e2ca","system_id":"levelo_inurba_marseille","lat":43.27618,"lon":5.361009,"is_reserved":false,"is_disabled":false,"rental_uris":{"android":"levelo://app?vid=61d2370f-4d80-4cc6-adc3-0a144a65e2ca","ios":"levelo://app?vid=61d2370f-4d80-4cc6-adc3-0a144a65e2ca"},"vehicle_type_id":"4","last_reported":1687284450,"current_range_meters":6800,"station_id":"ce4bgj92rcd13ifvqbe0","pricing_plan_id":"free"},{"bike_id":"5736aa0d-5f43-4665-bbba-ec56a5a96ca0","system_id":"levelo_inurba_marseille","lat":43.27618,"lon":5.361009,"is_reserved":false,"is_disabled":false,"rental_uris":{"android":"levelo://app?vid=5736aa0d-5f43-4665-bbba-ec56a5a96ca0","ios":"levelo://app?vid=5736aa0d-5f43-4665-bbba-ec56a5a96ca0"},"vehicle_type_id":"4","last_reported":1687284450,"current_range_meters":16400,"station_id":"ce4bgj92rcd13ifvqbe0","pricing_plan_id":"free"},{"bike_id":"55f9ddd2-99a0-412a-996e-c97b7f090b85","system_id":"levelo_inurba_marseille","lat":43.27618,"lon":5.361009,"is_reserved":false,"is_disabled":false,"rental_uris":{"android":"levelo://app?vid=55f9ddd2-99a0-412a-996e-c97b7f090b85","ios":"levelo://app?vid=55f9ddd2-99a0-412a-996e-c97b7f090b85"},"vehicle_type_id":"4","last_reported":1687284450,"current_range_meters":4800,"station_id":"ce4bgj92rcd13ifvqbe0","pricing_plan_id":"free"},{"bike_id":"9bbb6010-8ab6-4e11-9234-b16b2f8ba7f0","system_id":"levelo_inurba_marseille","lat":43.27618,"lon":5.361009,"is_reserved":false,"is_disabled":false,"rental_uris":{"android":"levelo://app?vid=9bbb6010-8ab6-4e11-9234-b16b2f8ba7f0","ios":"levelo://app?vid=9bbb6010-8ab6-4e11-9234-b16b2f8ba7f0"},"vehicle_type_id":"4","last_reported":1687284450,"current_range_meters":16400,"station_id":"ce4bgj92rcd13ifvqbe0","pricing_plan_id":"free"},{"bike_id":"7d5679d6-e776-4eb9-acc0-33f66aa8f14a","system_id":"levelo_inurba_marseille","lat":43.28533,"lon":5.40158,"is_reserved":false,"is_disabled":false,"rental_uris":{"android":"levelo://app?vid=7d5679d6-e776-4eb9-acc0-33f66aa8f14a","ios":"levelo://app?vid=7d5679d6-e776-4eb9-acc0-33f66aa8f14a"},"vehicle_type_id":"4","last_reported":1687284450,"current_range_meters":0,"station_id":"","pricing_plan_id":"free"},{"bike_id":"c23e418f-06a8-4b4f-a6a5-25ba52bc7684","system_id":"levelo_inurba_marseille","lat":43.33361,"lon":5.4105,"is_reserved":false,"is_disabled":false,"rental_uris":{"android":"levelo://app?vid=c23e418f-06a8-4b4f-a6a5-25ba52bc7684","ios":"levelo://app?vid=c23e418f-06a8-4b4f-a6a5-25ba52bc7684"},"vehicle_type_id":"4","last_reported":1687284450,"current_range_meters":0,"station_id":"","pricing_plan_id":"free"},{"bike_id":"e9cd5572-d3d2-48f9-86e4-67bc3ec73e38","system_id":"levelo_inurba_marseille","lat":43.280784,"lon":5.396622,"is_reserved":false,"is_disabled":false,"rental_uris":{"android":"levelo://app?vid=e9cd5572-d3d2-48f9-86e4-67bc3ec73e38","ios":"levelo://app?vid=e9cd5572-d3d2-48f9-86e4-67bc3ec73e38"},"vehicle_type_id":"4","last_reported":1687284450,"current_range_meters":16000,"station_id":"ce4bho12rcd13ifvqh2g","pricing_plan_id":"free"},{"bike_id":"9f5ced0b-d4e4-47cc-b05d-46a05656639c","system_id":"levelo_inurba_marseille","lat":43.303837,"lon":5.418724,"is_reserved":false,"is_disabled":false,"rental_uris":{"android":"levelo://app?vid=9f5ced0b-d4e4-47cc-b05d-46a05656639c","ios":"levelo://app?vid=9f5ced0b-d4e4-47cc-b05d-46a05656639c"},"vehicle_type_id":"4","last_reported":1687284450,"current_range_meters":31200,"station_id":"ce4bhop2rcd13ifvqh7g","pricing_plan_id":"free"},{"bike_id":"675d4f79-3dd8-4b14-9e60-9ad4dc087c33","system_id":"levelo_inurba_marseille","lat":43.272116,"lon":5.391747,"is_reserved":false,"is_disabled":false,"rental_uris":{"android":"levelo://app?vid=675d4f79-3dd8-4b14-9e60-9ad4dc087c33","ios":"levelo://app?vid=675d4f79-3dd8-4b14-9e60-9ad4dc087c33"},"vehicle_type_id":"4","last_reported":1687284450,"current_range_meters":3600,"station_id":"ce4bhhp2rcd13ifvqfm0","pricing_plan_id":"free"},{"bike_id":"f7de955d-ed1c-4109-98cb-375ca6bd81ed","system_id":"levelo_inurba_marseille","lat":43.278401,"lon":5.392152,"is_reserved":false,"is_disabled":false,"rental_uris":{"android":"levelo://app?vid=f7de955d-ed1c-4109-98cb-375ca6bd81ed","ios":"levelo://app?vid=f7de955d-ed1c-4109-98cb-375ca6bd81ed"},"vehicle_type_id":"4","last_reported":1687284450,"current_range_meters":3200,"station_id":"ce4bhjp2rcd13ifvqga0","pricing_plan_id":"free"},{"bike_id":"6113e6a8-d43c-4459-bfe1-f4ed71261764","system_id":"levelo_inurba_marseille","lat":43.27827,"lon":5.39202,"is_reserved":false,"is_disabled":false,"rental_uris":{"android":"levelo://app?vid=6113e6a8-d43c-4459-bfe1-f4ed71261764","ios":"levelo://app?vid=6113e6a8-d43c-4459-bfe1-f4ed71261764"},"vehicle_type_id":"4","last_reported":1687284450,"current_range_meters":1600,"station_id":"ce4bhjp2rcd13ifvqga0","pricing_plan_id":"free"},{"bike_id":"3f9e8f6e-8691-4893-9cfc-cd2f109343b7","system_id":"levelo_inurba_marseille","lat":43.2738,"lon":5.36251,"is_reserved":false,"is_disabled":false,"rental_uris":{"android":"levelo://app?vid=3f9e8f6e-8691-4893-9cfc-cd2f109343b7","ios":"levelo://app?vid=3f9e8f6e-8691-4893-9cfc-cd2f109343b7"},"vehicle_type_id":"4","last_reported":1687284450,"current_range_meters":31200,"station_id":"ce4bhbh2rcd13ifvqeo0","pricing_plan_id":"free"},{"bike_id":"4347b25c-9c42-4bc0-8d3e-269227c5fda3","system_id":"levelo_inurba_marseille","lat":43.278401,"lon":5.392152,"is_reserved":false,"is_disabled":false,"rental_uris":{"android":"levelo://app?vid=4347b25c-9c42-4bc0-8d3e-269227c5fda3","ios":"levelo://app?vid=4347b25c-9c42-4bc0-8d3e-269227c5fda3"},"vehicle_type_id":"4","last_reported":1687284450,"current_range_meters":12800,"station_id":"ce4bhjp2rcd13ifvqga0","pricing_plan_id":"free"},{"bike_id":"b642f080-e7f9-45a8-b52e-55092241970c","system_id":"levelo_inurba_marseille","lat":43.273613,"lon":5.362705,"is_reserved":false,"is_disabled":false,"rental_uris":{"android":"levelo://app?vid=b642f080-e7f9-45a8-b52e-55092241970c","ios":"levelo://app?vid=b642f080-e7f9-45a8-b52e-55092241970c"},"vehicle_type_id":"4","last_reported":1687284450,"current_range_meters":31600,"station_id":"ce4bhbh2rcd13ifvqeo0","pricing_plan_id":"free"},{"bike_id":"6275aaca-a354-407f-be44-df40f2969d44","system_id":"levelo_inurba_marseille","lat":43.273613,"lon":5.362705,"is_reserved":false,"is_disabled":false,"rental_uris":{"android":"levelo://app?vid=6275aaca-a354-407f-be44-df40f2969d44","ios":"levelo://app?vid=6275aaca-a354-407f-be44-df40f2969d44"},"vehicle_type_id":"4","last_reported":1687284450,"current_range_meters":31600,"station_id":"ce4bhbh2rcd13ifvqeo0","pricing_plan_id":"free"},{"bike_id":"02758617-f658-415a-bc1f-7257cc54a3ba","system_id":"levelo_inurba_marseille","lat":43.273613,"lon":5.362705,"is_reserved":false,"is_disabled":false,"rental_uris":{"android":"levelo://app?vid=02758617-f658-415a-bc1f-7257cc54a3ba","ios":"levelo://app?vid=02758617-f658-415a-bc1f-7257cc54a3ba"},"vehicle_type_id":"4","last_reported":1687284450,"current_range_meters":27600,"station_id":"ce4bhbh2rcd13ifvqeo0","pricing_plan_id":"free"},{"bike_id":"5bec5eef-9239-4c02-a454-eaa0c0c240c2","system_id":"levelo_inurba_marseille","lat":43.27374,"lon":5.36253,"is_reserved":false,"is_disabled":false,"rental_uris":{"android":"levelo://app?vid=5bec5eef-9239-4c02-a454-eaa0c0c240c2","ios":"levelo://app?vid=5bec5eef-9239-4c02-a454-eaa0c0c240c2"},"vehicle_type_id":"4","last_reported":1687284450,"current_range_meters":11200,"station_id":"ce4bhbh2rcd13ifvqeo0","pricing_plan_id":"free"},{"bike_id":"d7852b8b-3947-40cd-a4e8-a2205331dae5","system_id":"levelo_inurba_marseille","lat":43.33612,"lon":5.410321,"is_reserved":false,"is_disabled":false,"rental_uris":{"android":"levelo://app?vid=d7852b8b-3947-40cd-a4e8-a2205331dae5","ios":"levelo://app?vid=d7852b8b-3947-40cd-a4e8-a2205331dae5"},"vehicle_type_id":"4","last_reported":1687284450,"current_range_meters":26000,"station_id":"ce4bhqh2rcd13ifvqhmg","pricing_plan_id":"free"},{"bike_id":"8a861e97-d4e0-4028-ad63-b92e5c8352a7","system_id":"levelo_inurba_marseille","lat":43.33612,"lon":5.410321,"is_reserved":false,"is_disabled":false,"rental_uris":{"android":"levelo://app?vid=8a861e97-d4e0-4028-ad63-b92e5c8352a7","ios":"levelo://app?vid=8a861e97-d4e0-4028-ad63-b92e5c8352a7"},