{"last_updated":1704182968,"ttl":30,"version":"2.2","data":{"bikes":[{"bike_id":"8e72b23e-828b-4675-953a-7a07bf4f8706","system_id":"levelo_inurba_marseille","lat":43.31341,"lon":5.367098,"is_reserved":false,"is_disabled":false,"rental_uris":{"android":"levelo://app?vid=8e72b23e-828b-4675-953a-7a07bf4f8706","ios":"levelo://app?vid=8e72b23e-828b-4675-953a-7a07bf4f8706"},"vehicle_type_id":"4","last_reported":1704182968,"current_range_meters":24800,"station_id":"ce4bgr92rcd13ifvqc6g","pricing_plan_id":"free"},{"bike_id":"94815bb6-a315-4397-9caa-22f1e5bd1b4d","system_id":"levelo_inurba_marseille","lat":43.31341,"lon":5.367098,"is_reserved":false,"is_disabled":false,"rental_uris":{"android":"levelo://app?vid=94815bb6-a315-4397-9caa-22f1e5bd1b4d","ios":"levelo://app?vid=94815bb6-a315-4397-9caa-22f1e5bd1b4d"},"vehicle_type_id":"4","last_reported":1704182968,"current_range_meters":26800,"station_id":"ce4bgr92rcd13ifvqc6g","pricing_plan_id":"free"},{"bike_id":"50ffb39d-c405-4192-ba10-8fe04060eef3","system_id":"levelo_inurba_marseille","lat":43.31341,"lon":5.367098,"is_reserved":false,"is_disabled":false,"rental_uris":{"android":"levelo://app?vid=50ffb39d-c405-4192-ba10-8fe04060eef3","ios":"levelo://app?vid=50ffb39d-c405-4192-ba10-8fe04060eef3"},"vehicle_type_id":"4","last_reported":1704182968,"current_range_meters":31600,"station_id":"ce4bgr92rcd13ifvqc6g","pricing_plan_id":"free"},{"bike_id":"3544ae93-e3f3-4447-9813-9dd1706656b8","system_id":"levelo_inurba_marseille","lat":43.31341,"lon":5.367098,"is_reserved":false,"is_disabled":false,"rental_uris":{"android":"levelo://app?vid=3544ae93-e3f3-4447-9813-9dd1706656b8","ios":"levelo://app?vid=3544ae93-e3f3-4447-9813-9dd1706656b8"},"vehicle_type_id":"4","last_reported":1704182968,"current_range_meters":29600,"station_id":"ce4bgr92rcd13ifvqc6g","pricing_plan_id":"free"},{"bike_id":"4ca3c03b-77c4-4cab-a5ac-9bdadef7281d","system_id":"levelo_inurba_marseille","lat":43.31341,"lon":5.367098,"is_reserved":false,"is_disabled":false,"rental_uris":{"android":"levelo://app?vid=4ca3c03b-77c4-4cab-a5ac-9bdadef7281d","ios":"levelo://app?vid=4ca3c03b-77c4-4cab-a5ac-9bdadef7281d"},"vehicle_type_id":"4","last_reported":1704182968,"current_range_meters":14400,"station_id":"ce4bgr92rcd13ifvqc6g","pricing_plan_id":"free"},{"bike_id":"0f9aea24-df7b-452e-9ec9-508a486be078","system_id":"levelo_inurba_marseille","lat":43.313391,"lon":5.36706,"is_reserved":false,"is_disabled":false,"rental_uris":{"android":"levelo://app?vid=0f9aea24-df7b-452e-9ec9-508a486be078","ios":"levelo://app?vid=0f9aea24-df7b-452e-9ec9-508a486be078"},"vehicle_type_id":"4","last_reported":1704182968,"current_range_meters":31200,"station_id":"ce4bgr92rcd13ifvqc6g","pricing_plan_id":"free"},{"bike_id":"70da60cf-d83d-4298-9e4b-ebb5942f7183","system_id":"levelo_inurba_marseille","lat":43.313391,"lon":5.36706,"is_reserved":false,"is_disabled":false,"rental_uris":{"android":"levelo://app?vid=70da60cf-d83d-4298-9e4b-ebb5942f7183","ios":"levelo://app?vid=70da60cf-d83d-4298-9e4b-ebb5942f7183"},"vehicle_type_id":"4","last_reported":1704182968,"current_range_meters":28000,"station_id":"ce4bgr92rcd13ifvqc6g","pricing_plan_id":"free"},{"bike_id":"a4b18785-2497-4cb8-80f8-53c5fd8b5a3a","system_id":"levelo_inurba_marseille","lat":43.313391,"lon":5.36706,"is_reserved":false,"is_disabled":false,"rental_uris":{"android":"levelo://app?vid=a4b18785-2497-4cb8-80f8-53c5fd8b5a3a","ios":"levelo://app?vid=a4b18785-2497-4cb8-80f8-53c5fd8b5a3a"},"vehicle_type_id":"4","last_reported":1704182968,"current_range_meters":23600,"station_id":"ce4bgr92rcd13ifvqc6g","pricing_plan_id":"free"},{"bike_id":"c1bb20c0-6380-4f3c-aed9-cff20efe3a85","system_id":"levelo_inurba_marseille","lat":43.313391,"lon":5.36706,"is_reserved":false,"is_disabled":false,"rental_uris":{"android":"levelo://app?vid=c1bb20c0-6380-4f3c-aed9-cff20efe3a85","ios":"levelo://app?vid=c1bb20c0-6380-4f3c-aed9-cff20efe3a85"},"vehicle_type_id":"4","last_reported":1704182968,"current_range_meters":24400,"station_id":"ce4bgr92rcd13ifvqc6g","pricing_plan_id":"free"},{"bike_id":"d84b4337-d35d-4290-a812-d91d2101cf7e","system_id":"levelo_inurba_marseille","lat":43.312239,"lon":5.368562,"is_reserved":false,"is_disabled":false,"rental_uris":{"android":"levelo://app?vid=d84b4337-d35d-4290-a812-d91d2101cf7e","ios":"levelo://app?vid=d84b4337-d35d-4290-a812-d91d2101cf7e"},"vehicle_type_id":"4","last_reported":1704182968,"current_range_meters":24400,"station_id":"ce4bgl92rcd13ifvqbq0","pricing_plan_id":"free"},{"bike_id":"35565607-172d-4dea-a0a2-86b98321545b","system_id":"levelo_inurba_marseille","lat":43.312239,"lon":5.368562,"is_reserved":false,"is_disabled":false,"rental_uris":{"android":"levelo://app?vid=35565607-172d-4dea-a0a2-86b98321545b","ios":"levelo://app?vid=35565607-172d-4dea-a0a2-86b98321545b"},"vehicle_type_id":"4","last_reported":1704182968,"current_range_meters":19200,"station_id":"ce4bgl92rcd13ifvqbq0","pricing_plan_id":"free"},{"bike_id":"ab65979a-b67f-4fcc-9ce8-e9b5f3c8c97e","system_id":"levelo_inurba_marseille","lat":43.312239,"lon":5.368562,"is_reserved":false,"is_disabled":false,"rental_uris":{"android":"levelo://app?vid=ab65979a-b67f-4fcc-9ce8-e9b5f3c8c97e","ios":"levelo://app?vid=ab65979a-b67f-4fcc-9ce8-e9b5f3c8c97e"},"vehicle_type_id":"4","last_reported":1704182968,"current_range_meters":31200,"station_id":"ce4bgl92rcd13ifvqbq0","pricing_plan_id":"free"},{"bike_id":"f8515c16-45ec-43ac-86e4-c20f8afafe4d","system_id":"levelo_inurba_marseille","lat":43.312239,"lon":5.368562,"is_reserved":false,"is_disabled":false,"rental_uris":{"android":"levelo://app?vid=f8515c16-45ec-43ac-86e4-c20f8afafe4d","ios":"levelo://app?vid=f8515c16-45ec-43ac-86e4-c20f8afafe4d"},"vehicle_type_id":"4","last_reported":1704182968,"current_range_meters":24000,"station_id":"ce4bgl92rcd13ifvqbq0","pricing_plan_id":"free"},{"bike_id":"16e2b7ca-bbc9-4f1f-8d8e-64f8e49944d9","system_id":"levelo_inurba_marseille","lat":43.312239,"lon":5.368562,"is_reserved":false,"is_disabled":false,"rental_uris":{"android":"levelo://app?vid=16e2b7ca-bbc9-4f1f-8d8e-64f8e49944d9","ios":"levelo://app?vid=16e2b7ca-bbc9-4f1f-8d8e-64f8e49944d9"},"vehicle_type_id":"4","last_reported":1704182968,"current_range_meters":31600,"station_id":"ce4bgl92rcd13ifvqbq0","pricing_plan_id":"free"},{"bike_id":"add2c172-a38d-4833-9b68-a4b3e1814900","system_id":"levelo_inurba_marseille","lat":43.312239,"lon":5.368562,"is_reserved":false,"is_disabled":false,"rental_uris":{"android":"levelo://app?vid=add2c172-a38d-4833-9b68-a4b3e1814900","ios":"levelo://app?vid=add2c172-a38d-4833-9b68-a4b3e1814900"},"vehicle_type_id":"4","last_reported":1704182968,"current_range_meters":24000,"station_id":"ce4bgl92rcd13ifvqbq0","pricing_plan_id":"free"},{"bike_id":"86081d52-e7a8-40db-b855-fc1f383a5960","system_id":"levelo_inurba_marseille","lat":43.309076,"lon":5.368465,"is_reserved":false,"is_disabled":false,"rental_uris":{"android":"levelo://app?vid=86081d52-e7a8-40db-b855-fc1f383a5960","ios":"levelo://app?vid=86081d52-e7a8-40db-b855-fc1f383a5960"},"vehicle_type_id":"4","last_reported":1704182968,"current_range_meters":3200,"station_id":"ce4bgn92rcd13ifvqbvg","pricing_plan_id":"free"},{"bike_id":"54c69c60-f4c6-4a48-8e97-a5548c5890d2","system_id":"levelo_inurba_marseille","lat":43.309076,"lon":5.368465,"is_reserved":false,"is_disabled":false,"rental_uris":{"android":"levelo://app?vid=54c69c60-f4c6-4a48-8e97-a5548c5890d2","ios":"levelo://app?vid=54c69c60-f4c6-4a48-8e97-a5548c5890d2"},"vehicle_type_id":"4","last_reported":1704182968,"current_range_meters":26800,"station_id":"ce4bgn92rcd13ifvqbvg","pricing_plan_id":"free"},{"bike_id":"1e91ba6c-8283-47ea-b797-a2e7408bd0aa","system_id":"levelo_inurba_marseille","lat":43.309076,"lon":5.368465,"is_reserved":false,"is_disabled":false,"rental_uris":{"android":"levelo://app?vid=1e91ba6c-8283-47ea-b797-a2e7408bd0aa","ios":"levelo://app?vid=1e91ba6c-8283-47ea-b797-a2e7408bd0aa"},"vehicle_type_id":"4","last_reported":1704182968,"current_range_meters":30800,"station_id":"ce4bgn92rcd13ifvqbvg","pricing_plan_id":"free"},{"bike_id":"03753275-7fdb-46fb-8df4-86eff7b6fe9f","system_id":"levelo_inurba_marseille","lat":43.309076,"lon":5.368465,"is_reserved":false,"is_disabled":false,"rental_uris":{"android":"levelo://app?vid=03753275-7fdb-46fb-8df4-86eff7b6fe9f","ios":"levelo://app?vid=03753275-7fdb-46fb-8df4-86eff7b6fe9f"},"vehicle_type_id":"4","last_reported":1704182968,"current_range_meters":22000,"station_id":"ce4bgn92rcd13ifvqbvg","pricing_plan_id":"free"},{"bike_id":"7a8c9c0a-cdd7-4e52-be8c-1aa8d39d6372","system_id":"levelo_inurba_marseille","lat":43.309076,"lon":5.368465,"is_reserved":false,"is_disabled":false,"rental_uris":{"android":"levelo://app?vid=7a8c9c0a-cdd7-4e52-be8c-1aa8d39d6372","ios":"levelo://app?vid=7a8c9c0a-cdd7-4e52-be8c-1aa8d39d6372"},"vehicle_type_id":"4","last_reported":1704182968,"current_range_meters":28400,"station_id":"ce4bgn92rcd13ifvqbvg","pricing_plan_id":"free"},{"bike_id":"8267dbea-2a54-4384-b91d-21cbc74b0c21","system_id":"levelo_inurba_marseille","lat":43.309076,"lon":5.368465,"is_reserved":false,"is_disabled":false,"rental_uris":{"android":"levelo://app?vid=8267dbea-2a54-4384-b91d-21cbc74b0c21","ios":"levelo://app?vid=8267dbea-2a54-4384-b91d-21cbc74b0c21"},"vehicle_type_id":"4","last_reported":1704182968,"current_range_meters":25200,"station_id":"ce4bgn92rcd13ifvqbvg","pricing_plan_id":"free"},{"bike_id":"6b6025a8-f47d-4b09-9d3b-24cf57033958","system_id":"levelo_inurba_marseille","lat":43.309076,"lon":5.368465,"is_reserved":false,"is_disabled":false,"rental_uris":{"android":"levelo://app?vid=6b6025a8-f47d-4b09-9d3b-24cf57033958","ios":"levelo://app?vid=6b6025a8-f47d-4b09-9d3b-24cf57033958"},"vehicle_type_id":"4","last_reported":1704182968,"current_range_meters":28000,"station_id":"ce4bgn92rcd13ifvqbvg","pricing_plan_id":"free"},{"bike_id":"e4ded75e-0c76-422e-a6d9-7bf57e0b6643","system_id":"levelo_inurba_marseille","lat":43.309076,"lon":5.368465,"is_reserved":false,"is_disabled":false,"rental_uris":{"android":"levelo://app?vid=e4ded75e-0c76-422e-a6d9-7bf57e0b6643","ios":"levelo://app?vid=e4ded75e-0c76-422e-a6d9-7bf57e0b6643"},"vehicle_type_id":"4","last_reported":1704182968,"current_range_meters":30800,"station_id":"ce4bgn92rcd13ifvqbvg","pricing_plan_id":"free"},{"bike_id":"961768d2-940f-4632-a8ac-3ad05e70bd80","system_id":"levelo_inurba_marseille","lat":43.309076,"lon":5.368465,"is_reserved":false,"is_disabled":false,"rental_uris":{"android":"levelo://app?vid=961768d2-940f-4632-a8ac-3ad05e70bd80","ios":"levelo://app?vid=961768d2-940f-4632-a8ac-3ad05e70bd80"},"vehicle_type_id":"4","last_reported":1704182968,"current_range_meters":13200,"station_id":"ce4bgn92rcd13ifvqbvg","pricing_plan_id":"free"},{"bike_id":"169fc797-5a0f-44a1-9c51-501bf889c536","system_id":"levelo_inurba_marseille","lat":43.314811,"lon":5.373103,"is_reserved":false,"is_disabled":false,"rental_uris":{"android":"levelo://app?vid=169fc797-5a0f-44a1-9c51-501bf889c536","ios":"levelo://app?vid=169fc797-5a0f-44a1-9c51-501bf889c536"},"vehicle_type_id":"4","last_reported":1704182968,"current_range_meters":14800,"station_id":"ce4bgt12rcd13ifvqcd0","pricing_plan_id":"free"},{"bike_id":"7d35c456-ba20-4ed5-8d7c-ac9aac4e3982","system_id":"levelo_inurba_marseille","lat":43.314811,"lon":5.373104,"is_reserved":false,"is_disabled":false,"rental_uris":{"android":"levelo://app?vid=7d35c456-ba20-4ed5-8d7c-ac9aac4e3982","ios":"levelo://app?vid=7d35c456-ba20-4ed5-8d7c-ac9aac4e3982"},"vehicle_type_id":"4","last_reported":1704182968,"current_range_meters":31200,"station_id":"ce4bgt12rcd13ifvqcd0","pricing_plan_id":"free"},{"bike_id":"7a678d73-c77f-4f62-a575-249788888530","system_id":"levelo_inurba_marseille","lat":43.314811,"lon":5.373104,"is_reserved":false,"is_disabled":false,"rental_uris":{"android":"levelo://app?vid=7a678d73-c77f-4f62-a575-249788888530","ios":"levelo://app?vid=7a678d73-c77f-4f62-a575-249788888530"},"vehicle_type_id":"4","last_reported":1704182968,"current_range_meters":29200,"station_id":"ce4bgt12rcd13ifvqcd0","pricing_plan_id":"free"},{"bike_id":"4fdb15cf-b2f1-466d-bd7b-98c3fdca7235","system_id":"levelo_inurba_marseille","lat":43.314811,"lon":5.373103,"is_reserved":false,"is_disabled":false,"rental_uris":{"android":"levelo://app?vid=4fdb15cf-b2f1-466d-bd7b-98c3fdca7235","ios":"levelo://app?vid=4fdb15cf-b2f1-466d-bd7b-98c3fdca7235"},"vehicle_type_id":"4","last_reported":1704182968,"current_range_meters":29200,"station_id":"ce4bgt12rcd13ifvqcd0","pricing_plan_id":"free"},{"bike_id":"d594af1c-7889-4ac3-af2e-4eab87d27777","system_id":"levelo_inurba_marseille","lat":43.314811,"lon":5.373103,"is_reserved":false,"is_disabled":false,"rental_uris":{"android":"levelo://app?vid=d594af1c-7889-4ac3-af2e-4eab87d27777","ios":"levelo://app?vid=d594af1c-7889-4ac3-af2e-4eab87d27777"},"vehicle_type_id":"4","last_reported":1704182968,"current_range_meters":22400,"station_id":"ce4bgt12rcd13ifvqcd0","pricing_plan_id":"free"},{"bike_id":"6661c5ae-7a6e-4662-9d66-6d7b7f915e6e","system_id":"levelo_inurba_marseille","lat":43.309039,"lon":5.371797,"is_reserved":false,"is_disabled":false,"rental_uris":{"android":"levelo://app?vid=6661c5ae-7a6e-4662-9d66-6d7b7f915e6e","ios":"levelo://app?vid=6661c5ae-7a6e-4662-9d66-6d7b7f915e6e"},"vehicle_type_id":"4","last_reported":1704182968,"current_range_meters":24000,"station_id":"ce4bguh2rcd13ifvqckg","pricing_plan_id":"free"},{"bike_id":"35564818-1174-41ac-bad3-b0320d7c6723","system_id":"levelo_inurba_marseille","lat":43.305368,"lon":5.367343,"is_reserved":false,"is_disabled":false,"rental_uris":{"android":"levelo://app?vid=35564818-1174-41ac-bad3-b0320d7c6723","ios":"levelo://app?vid=35564818-1174-41ac-bad3-b0320d7c6723"},"vehicle_type_id":"4","last_reported":1704182968,"current_range_meters":22400,"station_id":"ce4bgrp2rcd13ifvqc9g","pricing_plan_id":"free"},{"bike_id":"318db7e3-7eef-48e0-a879-113ecaf3a183","system_id":"levelo_inurba_marseille","lat":43.305368,"lon":5.367343,"is_reserved":false,"is_disabled":false,"rental_uris":{"android":"levelo://app?vid=318db7e3-7eef-48e0-a879-113ecaf3a183","ios":"levelo://app?vid=318db7e3-7eef-48e0-a879-113ecaf3a183"},"vehicle_type_id":"4","last_reported":1704182968,"current_range_meters":24400,"station_id":"ce4bgrp2rcd13ifvqc9g","pricing_plan_id":"free"},{"bike_id":"e373bf53-1f92-4564-ab58-bdea7c14c4ca","system_id":"levelo_inurba_marseille","lat":43.305712,"lon":5.365641,"is_reserved":false,"is_disabled":false,"rental_uris":{"android":"levelo://app?vid=e373bf53-1f92-4564-ab58-bdea7c14c4ca","ios":"levelo://app?vid=e373bf53-1f92-4564-ab58-bdea7c14c4ca"},"vehicle_type_id":"4","last_reported":1704182968,"current_range_meters":29200,"station_id":"ce4bgs12rcd13ifvqcag","pricing_plan_id":"free"},{"bike_id":"e4268eb1-0238-4c12-9b62-2f25366797bc","system_id":"levelo_inurba_marseille","lat":43.305706,"lon":5.365654,"is_reserved":false,"is_disabled":false,"rental_uris":{"android":"levelo://app?vid=e4268eb1-0238-4c12-9b62-2f25366797bc","ios":"levelo://app?vid=e4268eb1-0238-4c12-9b62-2f25366797bc"},"vehicle_type_id":"4","last_reported":1704182968,"current_range_meters":14000,"station_id":"ce4bgs12rcd13ifvqcag","pricing_plan_id":"free"},{"bike_id":"f8b48ca2-2eff-4ab7-8e3e-e5149d45e04a","system_id":"levelo_inurba_marseille","lat":43.305706,"lon":5.365654,"is_reserved":false,"is_disabled":false,"rental_uris":{"android":"levelo://app?vid=f8b48ca2-2eff-4ab7-8e3e-e5149d45e04a","ios":"levelo://app?vid=f8b48ca2-2eff-4ab7-8e3e-e5149d45e04a"},"vehicle_type_id":"4","last_reported":1704182968,"current_range_meters":18800,"station_id":"ce4bgs12rcd13ifvqcag","pricing_plan_id":"free"},{"bike_id":"f2c98b5a-ecea-4c01-9fae-6006e82e05e3","system_id":"levelo_inurba_marseille","lat":43.305712,"lon":5.365641,"is_reserved":false,"is_disabled":false,"rental_uris":{"android":"levelo://app?vid=f2c98b5a-ecea-4c01-9fae-6006e82e05e3","ios":"levelo://app?vid=f2c98b5a-ecea-4c01-9fae-6006e82e05e3"},"vehicle_type_id":"4","last_reported":1704182968,"current_range_meters":30800,"station_id":"ce4bgs12rcd13ifvqcag","pricing_plan_id":"free"},{"bike_id":"d3749e7f-2b10-4c2c-9515-38b5abb19c84","system_id":"levelo_inurba_marseille","lat":43.305368,"lon":5.367343,"is_reserved":false,"is_disabled":false,"rental_uris":{"android":"levelo://app?vid=d3749e7f-2b10-4c2c-9515-38b5abb19c84","ios":"levelo://app?vid=d3749e7f-2b10-4c2c-9515-38b5abb19c84"},"vehicle_type_id":"4","last_reported":1704182968,"current_range_meters":12800,"station_id":"ce4bgrp2rcd13ifvqc9g","pricing_plan_id":"free"},{"bike_id":"7fc322a2-aa0e-4551-addd-f49d495c32ca","system_id":"levelo_inurba_marseille","lat":43.305368,"lon":5.367343,"is_reserved":false,"is_disabled":false,"rental_uris":{"android":"levelo://app?vid=7fc322a2-aa0e-4551-addd-f49d495c32ca","ios":"levelo://app?vid=7fc322a2-aa0e-4551-addd-f49d495c32ca"},"vehicle_type_id":"4","last_reported":1704182968,"current_range_meters":18800,"station_id":"ce4bgrp2rcd13ifvqc9g","pricing_plan_id":"free"},{"bike_id":"ac25c690-f8be-438c-a426-5ca9bd06b85e","system_id":"levelo_inurba_marseille","lat":43.305706,"lon":5.365654,"is_reserved":false,"is_disabled":false,"rental_uris":{"android":"levelo://app?vid=ac25c690-f8be-438c-a426-5ca9bd06b85e","ios":"levelo://app?vid=ac25c690-f8be-438c-a426-5ca9bd06b85e"},"vehicle_type_id":"4","last_reported":1704182968,"current_range_meters":26800,"station_id":"ce4bgs12rcd13ifvqcag","pricing_plan_id":"free"},{"bike_id":"edd189bd-e63f-4880-b785-c1463635efa6","system_id":"levelo_inurba_marseille","lat":43.305706,"lon":5.365654,"is_reserved":false,"is_disabled":false,"rental_uris":{"android":"levelo://app?vid=edd189bd-e63f-4880-b785-c1463635efa6","ios":"levelo://app?vid=edd189bd-e63f-4880-b785-c1463635efa6"},"vehicle_type_id":"4","last_reported":1704182968,"current_range_meters":26400,"station_id":"ce4bgs12rcd13ifvqcag","pricing_plan_id":"free"},{"bike_id":"b30c0912-cae2-483b-a693-19578ecaab16","system_id":"levelo_inurba_marseille","lat":43.305706,"lon":5.365654,"is_reserved":false,"is_disabled":false,"rental_uris":{"android":"levelo://app?vid=b30c0912-cae2-483b-a693-19578ecaab16","ios":"levelo://app?vid=b30c0912-cae2-483b-a693-19578ecaab16"},"vehicle_type_id":"4","last_reported":1704182968,"current_range_meters":2400,"station_id":"ce4bgs12rcd13ifvqcag","pricing_plan_id":"free"},{"bike_id":"66606ac8-e12d-4a05-b5a5-b1f3b85138d5","system_id":"levelo_inurba_marseille","lat":43.305706,"lon":5.365654,"is_reserved":false,"is_disabled":false,"rental_uris":{"android":"levelo://app?vid=66606ac8-e12d-4a05-b5a5-b1f3b85138d5","ios":"levelo://app?vid=66606ac8-e12d-4a05-b5a5-b1f3b85138d5"},"vehicle_type_id":"4","last_reported":1704182968,"current_range_meters":29600,"station_id":"ce4bgs12rcd13ifvqcag","pricing_plan_id":"free"},{"bike_id":"25af9e1c-886c-4f64-92f2-5ca68e46ae4a","system_id":"levelo_inurba_marseille","lat":43.31722,"lon":5.37668,"is_reserved":false,"is_disabled":false,"rental_uris":{"android":"levelo://app?vid=25af9e1c-886c-4f64-92f2-5ca68e46ae4a","ios":"levelo://app?vid=25af9e1c-886c-4f64-92f2-5ca68e46ae4a"},"vehicle_type_id":"4","last_reported":1704182968,"current_range_meters":15200,"station_id":"","pricing_plan_id":"free"},{"bike_id":"60004f26-cd8f-48e5-90c1-64ce9239acb7","system_id":"levelo_inurba_marseille","lat":43.317075,"lon":5.377367,"is_reserved":false,"is_disabled":false,"rental_uris":{"android":"levelo://app?vid=60004f26-cd8f-48e5-90c1-64ce9239acb7","ios":"levelo://app?vid=60004f26-cd8f-48e5-90c1-64ce9239acb7"},"vehicle_type_id":"4","last_reported":1704182968,"current_range_meters":28400,"station_id":"ce4bgth2rcd13ifvqch0","pricing_plan_id":"free"},{"bike_id":"6cc10ba3-514e-4b87-b859-081a0f2df958","system_id":"levelo_inurba_marseille","lat":43.30304,"lon":5.368987,"is_reserved":false,"is_disabled":false,"rental_uris":{"android":"levelo://app?vid=6cc10ba3-514e-4b87-b859-081a0f2df958","ios":"levelo://app?vid=6cc10ba3-514e-4b87-b859-081a0f2df958"},"vehicle_type_id":"4","last_reported":1704182968,"current_range_meters":20000,"station_id":"ce4bgqh2rcd13ifvqc5g","pricing_plan_id":"free"},{"bike_id":"6e241f6f-0f36-4870-94a9-8943e5d7e0c3","system_id":"levelo_inurba_marseille","lat":43.303046,"lon":5.368981,"is_reserved":false,"is_disabled":false,"rental_uris":{"android":"levelo://app?vid=6e241f6f-0f36-4870-94a9-8943e5d7e0c3","ios":"levelo://app?vid=6e241f6f-0f36-4870-94a9-8943e5d7e0c3"},"vehicle_type_id":"4","last_reported":1704182968,"current_range_meters":31200,"station_id":"ce4bgqh2rcd13ifvqc5g","pricing_plan_id":"free"},{"bike_id":"7dd41134-4104-488d-8996-60cba8b15a80","system_id":"levelo_inurba_marseille","lat":43.303046,"lon":5.368981,"is_reserved":false,"is_disabled":false,"rental_uris":{"android":"levelo://app?vid=7dd41134-4104-488d-8996-60cba8b15a80","ios":"levelo://app?vid=7dd41134-4104-488d-8996-60cba8b15a80"},"vehicle_type_id":"4","last_reported":1704182968,"current_range_meters":23200,"station_id":"ce4bgqh2rcd13ifvqc5g","pricing_plan_id":"free"},{"bike_id":"cc0a4f16-a2bd-411f-9e8b-788dec9dc205","system_id":"levelo_inurba_marseille","lat":43.303046,"lon":5.368981,"is_reserved":false,"is_disabled":false,"rental_uris":{"android":"levelo://app?vid=cc0a4f16-a2bd-411f-9e8b-788dec9dc205","ios":"levelo://app?vid=cc0a4f16-a2bd-411f-9e8b-788dec9dc205"},"vehicle_type_id":"4","last_reported":1704182968,"current_range_meters":0,"station_id":"ce4bgqh2rcd13ifvqc5g","pricing_plan_id":"free"},{"bike_id":"22f18b11-4258-400b-8bf4-84c1aff5d32b","system_id":"levelo_inurba_marseille","lat":43.30304,"lon":5.368987,"is_reserved":false,"is_disabled":false,"rental_uris":{"android":"levelo://app?vid=22f18b11-4258-400b-8bf4-84c1aff5d32b","ios":"levelo://app?vid=22f18b11-4258-400b-8bf4-84c1aff5d32b"},"vehicle_type_id":"4","last_reported":1704182968,"current_range_meters":30800,"station_id":"ce4bgqh2rcd13ifvqc5g","pricing_plan_id":"free"},{"bike_id":"3f230ad9-99f8-4a60-baa9-8e04fdaa687f","system_id":"levelo_inurba_marseille","lat":43.301939,"lon":5.366286,"is_reserved":false,"is_disabled":false,"rental_uris":{"android":"levelo://app?vid=3f230ad9-99f8-4a60-baa9-8e04fdaa687f","ios":"levelo://app?vid=3f230ad9-99f8-4a60-baa9-8e04fdaa687f"},"vehicle_type_id":"4","last_reported":1704182968,"current_range_meters":31200,"station_id":"ce4bgrh2rcd13ifvqc8g","pricing_plan_id":"free"},{"bike_id":"775ba841-6c2c-4987-a0e0-19b829116fe1","system_id":"levelo_inurba_marseille","lat":43.301939,"lon":5.366286,"is_reserved":false,"is_disabled":false,"rental_uris":{"android":"levelo://app?vid=775ba841-6c2c-4987-a0e0-19b829116fe1","ios":"levelo://app?vid=775ba841-6c2c-4987-a0e0-19b829116fe1"},"vehicle_type_id":"4","last_reported":1704182968,"current_range_meters":27600,"station_id":"ce4bgrh2rcd13ifvqc8g","pricing_plan_id":"free"},{"bike_id":"9e7bb50a-b159-4d99-acda-27f18235944a","system_id":"levelo_inurba_marseille","lat":43.304606,"lon":5.379026,"is_reserved":false,"is_disabled":false,"rental_uris":{"android":"levelo://app?vid=9e7bb50a-b159-4d99-acda-27f18235944a","ios":"levelo://app?vid=9e7bb50a-b159-4d99-acda-27f18235944a"},"vehicle_type_id":"4","last_reported":1704182968,"current_range_meters":22800,"station_id":"ce4bgup2rcd13ifvqcn0","pricing_plan_id":"free"},{"bike_id":"5377074b-30e2-4d67-825b-9deb3b1dbed3","system_id":"levelo_inurba_marseille","lat":43.304708,"lon":5.379039,"is_reserved":false,"is_disabled":false,"rental_uris":{"android":"levelo://app?vid=5377074b-30e2-4d67-825b-9deb3b1dbed3","ios":"levelo://app?vid=5377074b-30e2-4d67-825b-9deb3b1dbed3"},"vehicle_type_id":"4","last_reported":1704182968,"current_range_meters":11600,"station_id":"","pricing_plan_id":"free"},{"bike_id":"9a240011-43f5-466c-97df-866e23f421ba","system_id":"levelo_inurba_marseille","lat":43.304606,"lon":5.379026,"is_reserved":false,"is_disabled":false,"rental_uris":{"android":"levelo://app?vid=9a240011-43f5-466c-97df-866e23f421ba","ios":"levelo://app?vid=9a240011-43f5-466c-97df-866e23f421ba"},"vehicle_type_id":"4","last_reported":1704182968,"current_range_meters":23600,"station_id":"ce4bgup2rcd13ifvqcn0","pricing_plan_id":"free"},{"bike_id":"38dd8af6-0575-4d5c-a818-21459df8f05c","system_id":"levelo_inurba_marseille","lat":43.304668,"lon":5.379014,"is_reserved":false,"is_disabled":false,"rental_uris":{"android":"levelo://app?vid=38dd8af6-0575-4d5c-a818-21459df8f05c","ios":"levelo://app?vid=38dd8af6-0575-4d5c-a818-21459df8f05c"},"vehicle_type_id":"4","last_reported":1704182968,"current_range_meters":21600,"station_id":"ce4bgup2rcd13ifvqcn0","pricing_plan_id":"free"},{"bike_id":"e8ed4a3b-4438-4018-b3d3-c3d64a945ab6","system_id":"levelo_inurba_marseille","lat":43.304606,"lon":5.379026,"is_reserved":false,"is_disabled":false,"rental_uris":{"android":"levelo://app?vid=e8ed4a3b-4438-4018-b3d3-c3d64a945ab6","ios":"levelo://app?vid=e8ed4a3b-4438-4018-b3d3-c3d64a945ab6"},"vehicle_type_id":"4","last_reported":1704182968,"current_range_meters":28800,"station_id":"ce4bgup2rcd13ifvqcn0","pricing_plan_id":"free"},{"bike_id":"8b7dd9ef-acff-4617-b0d9-0599fc91bf4c","system_id":"levelo_inurba_marseille","lat":43.304606,"lon":5.379026,"is_reserved":false,"is_disabled":false,"rental_uris":{"android":"levelo://app?vid=8b7dd9ef-acff-4617-b0d9-0599fc91bf4c","ios":"levelo://app?vid=8b7dd9ef-acff-4617-b0d9-0599fc91bf4c"},"vehicle_type_id":"4","last_reported":1704182968,"current_range_meters":21200,"station_id":"ce4bgup2rcd13ifvqcn0","pricing_plan_id":"free"},{"bike_id":"a762a5bd-1845-4c14-a8d3-5ef750b5e13e","system_id":"levelo_inurba_marseille","lat":43.304606,"lon":5.379026,"is_reserved":false,"is_disabled":false,"rental_uris":{"android":"levelo://app?vid=a762a5bd-1845-4c14-a8d3-5ef750b5e13e","ios":"levelo://app?vid=a762a5bd-1845-4c14-a8d3-5ef750b5e13e"},"vehicle_type_id":"4","last_reported":1704182968,"current_range_meters":30800,"station_id":"ce4bgup2rcd13ifvqcn0","pricing_plan_id":"free"},{"bike_id":"4049f81b-5a89-467c-8d7e-b8ff5257e932","system_id":"levelo_inurba_marseille","lat":43.304606,"lon":5.379026,"is_reserved":false,"is_disabled":false,"rental_uris":{"android":"levelo://app?vid=4049f81b-5a89-467c-8d7e-b8ff5257e932","ios":"levelo://app?vid=4049f81b-5a89-467c-8d7e-b8ff5257e932"},"vehicle_type_id":"4","last_reported":1704182968,"current_range_meters":31200,"station_id":"ce4bgup2rcd13ifvqcn0","pricing_plan_id":"free"},{"bike_id":"fa4bff1e-ca80-445c-ab1b-63c950161756","system_id":"levelo_inurba_marseille","lat":43.304606,"lon":5.379026,"is_reserved":false,"is_disabled":false,"rental_uris":{"android":"levelo://app?vid=fa4bff1e-ca80-445c-ab1b-63c950161756","ios":"levelo://app?vid=fa4bff1e-ca80-445c-ab1b-63c950161756"},"vehicle_type_id":"4","last_reported":1704182968,"current_range_meters":31200,"station_id":"ce4bgup2rcd13ifvqcn0","pricing_plan_id":"free"},{"bike_id":"2f622364-29f5-4920-95fa-b3d400dbd134","system_id":"levelo_inurba_marseille","lat":43.304606,"lon":5.379026,"is_reserved":false,"is_disabled":false,"rental_uris":{"android":"levelo://app?vid=2f622364-29f5-4920-95fa-b3d400dbd134","ios":"levelo://app?vid=2f622364-29f5-4920-95fa-b3d400dbd134"},"vehicle_type_id":"4","last_reported":1704182968,"current_range_meters":31200,"station_id":"ce4bgup2rcd13ifvqcn0","pricing_plan_id":"free"},{"bike_id":"dbc610c2-2d79-4579-9214-a147d6397e61","system_id":"levelo_inurba_marseille","lat":43.304606,"lon":5.379026,"is_reserved":false,"is_disabled":false,"rental_uris":{"android":"levelo://app?vid=dbc610c2-2d79-4579-9214-a147d6397e61","ios":"levelo://app?vid=dbc610c2-2d79-4579-9214-a147d6397e61"},"vehicle_type_id":"4","last_reported":1704182968,"current_range_meters":27200,"station_id":"ce4bgup2rcd13ifvqcn0","pricing_plan_id":"free"},{"bike_id":"14be6322-8325-40a9-b959-c3efb3137888","system_id":"levelo_inurba_marseille","lat":43.304621,"lon":5.379041,"is_reserved":false,"is_disabled":false,"rental_uris":{"android":"levelo://app?vid=14be6322-8325-40a9-b959-c3efb3137888","ios":"levelo://app?vid=14be6322-8325-40a9-b959-c3efb3137888"},"vehicle_type_id":"4","last_reported":1704182968,"current_range_meters":19600,"station_id":"ce4bgup2rcd13ifvqcn0","pricing_plan_id":"free"},{"bike_id":"3d684555-b3e4-4712-bff2-d28d7576d154","system_id":"levelo_inurba_marseille","lat":43.30461,"lon":5.37903,"is_reserved":false,"is_disabled":false,"rental_uris":{"android":"levelo://app?vid=3d684555-b3e4-4712-bff2-d28d7576d154","ios":"levelo://app?vid=3d684555-b3e4-4712-bff2-d28d7576d154"},"vehicle_type_id":"4","last_reported":1704182968,"current_range_meters":27200,"station_id":"ce4bgup2rcd13ifvqcn0","pricing_plan_id":"free"},{"bike_id":"f6a1a1e4-a2e2-4ea0-83fc-0c446d1b641a","system_id":"levelo_inurba_marseille","lat":43.304606,"lon":5.379026,"is_reserved":false,"is_disabled":false,"rental_uris":{"android":"levelo://app?vid=f6a1a1e4-a2e2-4ea0-83fc-0c446d1b641a","ios":"levelo://app?vid=f6a1a1e4-a2e2-4ea0-83fc-0c446d1b641a"},"vehicle_type_id":"4","last_reported":1704182968,"current_range_meters":27200,"station_id":"ce4bgup2rcd13ifvqcn0","pricing_plan_id":"free"},{"bike_id":"fc9585fc-5785-42a7-b75b-69823e1f0187","system_id":"levelo_inurba_marseille","lat":43.304606,"lon":5.379026,"is_reserved":false,"is_disabled":false,"rental_uris":{"android":"levelo://app?vid=fc9585fc-5785-42a7-b75b-69823e1f0187","ios":"levelo://app?vid=fc9585fc-5785-42a7-b75b-69823e1f0187"},"vehicle_type_id":"4","last_reported":1704182968,"current_range_meters":28800,"station_id":"ce4bgup2rcd13ifvqcn0","pricing_plan_id":"free"},{"bike_id":"e1b79c52-56f9-4aae-8eff-69b6fced51da","system_id":"levelo_inurba_marseille","lat":43.304606,"lon":5.379026,"is_reserved":false,"is_disabled":false,"rental_uris":{"android":"levelo://app?vid=e1b79c52-56f9-4aae-8eff-69b6fced51da","ios":"levelo://app?vid=e1b79c52-56f9-4aae-8eff-69b6fced51da"},"vehicle_type_id":"4","last_reported":1704182968,"current_range_meters":25200,"station_id":"ce4bgup2rcd13ifvqcn0","pricing_plan_id":"free"},{"bike_id":"f3711b36-45ef-4626-b0bc-41bcb797f83e","system_id":"levelo_inurba_marseille","lat":43.30459,"lon":5.37904,"is_reserved":false,"is_disabled":false,"rental_uris":{"android":"levelo://app?vid=f3711b36-45ef-4626-b0bc-41bcb797f83e","ios":"levelo://app?vid=f3711b36-45ef-4626-b0bc-41bcb797f83e"},"vehicle_type_id":"4","last_reported":1704182968,"current_range_meters":23200,"station_id":"ce4bgup2rcd13ifvqcn0","pricing_plan_id":"free"},{"bike_id":"4c4910a8-b87e-4c13-b856-37ef8615c163","system_id":"levelo_inurba_marseille","lat":43.324771,"lon":5.36557,"is_reserved":false,"is_disabled":false,"rental_uris":{"android":"levelo://app?vid=4c4910a8-b87e-4c13-b856-37ef8615c163","ios":"levelo://app?vid=4c4910a8-b87e-4c13-b856-37ef8615c163"},"vehicle_type_id":"4","last_reported":1704182968,"current_range_meters":20000,"station_id":"ce4bhs12rcd13ifvqhvg","pricing_plan_id":"free"},{"bike_id":"05601dd4-e4ca-4954-8c5f-8db273dfe266","system_id":"levelo_inurba_marseille","lat":43.302927,"lon":5.377033,"is_reserved":false,"is_disabled":false,"rental_uris":{"android":"levelo://app?vid=05601dd4-e4ca-4954-8c5f-8db273dfe266","ios":"levelo://app?vid=05601dd4-e4ca-4954-8c5f-8db273dfe266"},"vehicle_type_id":"4","last_reported":1704182968,"current_range_meters":24400,"station_id":"","pricing_plan_id":"free"},{"bike_id":"9a705069-6c98-4a01-844f-710a4b3afb2f","system_id":"levelo_inurba_marseille","lat":43.302919,"lon":5.377068,"is_reserved":false,"is_disabled":false,"rental_uris":{"android":"levelo://app?vid=9a705069-6c98-4a01-844f-710a4b3afb2f","ios":"levelo://app?vid=9a705069-6c98-4a01-844f-710a4b3afb2f"},"vehicle_type_id":"4","last_reported":1704182968,"current_range_meters":21200,"station_id":"","pricing_plan_id":"free"},{"bike_id":"0577d349-31f0-4ed7-bc44-03e0d7cd7cae","system_id":"levelo_inurba_marseille","lat":43.302919,"lon":5.377075,"is_reserved":false,"is_disabled":false,"rental_uris":{"android":"levelo://app?vid=0577d349-31f0-4ed7-bc44-03e0d7cd7cae","ios":"levelo://app?vid=0577d349-31f0-4ed7-bc44-03e0d7cd7cae"},"vehicle_type_id":"4","last_reported":1704182968,"current_range_meters":25600,"station_id":"","pricing_plan_id":"free"},{"bike_id":"d7510cdf-4fbe-4e76-a89f-2b4a590b8581","system_id":"levelo_inurba_marseille","lat":43.302917,"lon":5.377074,"is_reserved":false,"is_disabled":false,"rental_uris":{"android":"levelo://app?vid=d7510cdf-4fbe-4e76-a89f-2b4a590b8581","ios":"levelo://app?vid=d7510cdf-4fbe-4e76-a89f-2b4a590b8581"},"vehicle_type_id":"4","last_reported":1704182968,"current_range_meters":25600,"station_id":"","pricing_plan_id":"free"},{"bike_id":"6fae1fa6-f2a7-492f-9dea-e7c7c22ac1ca","system_id":"levelo_inurba_marseille","lat":43.3029,"lon":5.377088,"is_reserved":false,"is_disabled":false,"rental_uris":{"android":"levelo://app?vid=6fae1fa6-f2a7-492f-9dea-e7c7c22ac1ca","ios":"levelo://app?vid=6fae1fa6-f2a7-492f-9dea-e7c7c22ac1ca"},"vehicle_type_id":"4","last_reported":1704182968,"current_range_meters":25600,"station_id":"","pricing_plan_id":"free"},{"bike_id":"7453604d-53c8-42e5-bbf4-938e4d3f95c3","system_id":"levelo_inurba_marseille","lat":43.301429,"lon":5.37413,"is_reserved":false,"is_disabled":false,"rental_uris":{"android":"levelo://app?vid=7453604d-53c8-42e5-bbf4-938e4d3f95c3","ios":"levelo://app?vid=7453604d-53c8-42e5-bbf4-938e4d3f95c3"},"vehicle_type_id":"4","last_reported":1704182968,"current_range_meters":26000,"station_id":"ce4bgs92rcd13ifvqcc0","pricing_plan_id":"free"},{"bike_id":"0dac0acd-fc78-43f2-bef0-dca9a9876768","system_id":"levelo_inurba_marseille","lat":43.319935,"lon":5.381699,"is_reserved":false,"is_disabled":false,"rental_uris":{"android":"levelo://app?vid=0dac0acd-fc78-43f2-bef0-dca9a9876768","ios":"levelo://app?vid=0dac0acd-fc78-43f2-bef0-dca9a9876768"},"vehicle_type_id":"4","last_reported":1704182968,"current_range_meters":30000,"station_id":"ce4bhr12rcd13ifvqhpg","pricing_plan_id":"free"},{"bike_id":"9b434c4c-e352-45db-91f5-5551cc7ae7b3","system_id":"levelo_inurba_marseille","lat":43.313571,"lon":5.384829,"is_reserved":false,"is_disabled":false,"rental_uris":{"android":"levelo://app?vid=9b434c4c-e352-45db-91f5-5551cc7ae7b3","ios":"levelo://app?vid=9b434c4c-e352-45db-91f5-5551cc7ae7b3"},"vehicle_type_id":"4","last_reported":1704182968,"current_range_meters":12000,"station_id":"ce4bgt92rcd13ifvqcf0","pricing_plan_id":"free"},{"bike_id":"109d3ea5-fb2d-46bd-b776-83c8f9f706de","system_id":"levelo_inurba_marseille","lat":43.313571,"lon":5.384829,"is_reserved":false,"is_disabled":false,"rental_uris":{"android":"levelo://app?vid=109d3ea5-fb2d-46bd-b776-83c8f9f706de","ios":"levelo://app?vid=109d3ea5-fb2d-46bd-b776-83c8f9f706de"},"vehicle_type_id":"4","last_reported":1704182968,"current_range_meters":25200,"station_id":"ce4bgt92rcd13ifvqcf0","pricing_plan_id":"free"},{"bike_id":"4bd343ff-5a40-4153-abf8-0cf3af479e76","system_id":"levelo_inurba_marseille","lat":43.313827,"lon":5.385007,"is_reserved":false,"is_disabled":false,"rental_uris":{"android":"levelo://app?vid=4bd343ff-5a40-4153-abf8-0cf3af479e76","ios":"levelo://app?vid=4bd343ff-5a40-4153-abf8-0cf3af479e76"},"vehicle_type_id":"4","last_reported":1704182968,"current_range_meters":22000,"station_id":"ce4bgt92rcd13ifvqcf0","pricing_plan_id":"free"},{"bike_id":"afbbe443-4d32-4966-b6e9-48de9adf1d5f","system_id":"levelo_inurba_marseille","lat":43.299724,"lon":5.371829,"is_reserved":false,"is_disabled":false,"rental_uris":{"android":"levelo://app?vid=afbbe443-4d32-4966-b6e9-48de9adf1d5f","ios":"levelo://app?vid=afbbe443-4d32-4966-b6e9-48de9adf1d5f"},"vehicle_type_id":"4","last_reported":1704182968,"current_range_meters":31200,"station_id":"ce4bgr92rcd13ifvqc7g","pricing_plan_id":"free"},{"bike_id":"6e92dc53-3c7e-4826-8e9b-7d9a77447a1c","system_id":"levelo_inurba_marseille","lat":43.299222,"lon":5.365554,"is_reserved":false,"is_disabled":false,"rental_uris":{"android":"levelo://app?vid=6e92dc53-3c7e-4826-8e9b-7d9a77447a1c","ios":"levelo://app?vid=6e92dc53-3c7e-4826-8e9b-7d9a77447a1c"},"vehicle_type_id":"4","last_reported":1704182968,"current_range_meters":20000,"station_id":"ce4bgm92rcd13ifvqbr0","pricing_plan_id":"free"},{"bike_id":"218bb372-c46d-4ba4-aa93-a5df393ce036","system_id":"levelo_inurba_marseille","lat":43.299222,"lon":5.365554,"is_reserved":false,"is_disabled":false,"rental_uris":{"android":"levelo://app?vid=218bb372-c46d-4ba4-aa93-a5df393ce036","ios":"levelo://app?vid=218bb372-c46d-4ba4-aa93-a5df393ce036"},"vehicle_type_id":"4","last_reported":1704182968,"current_range_meters":12800,"station_id":"ce4bgm92rcd13ifvqbr0","pricing_plan_id":"free"},{"bike_id":"bdd270b4-0e56-44e2-a32d-3570453da513","system_id":"levelo_inurba_marseille","lat":43.299724,"lon":5.371829,"is_reserved":false,"is_disabled":false,"rental_uris":{"android":"levelo://app?vid=bdd270b4-0e56-44e2-a32d-3570453da513","ios":"levelo://app?vid=bdd270b4-0e56-44e2-a32d-3570453da513"},"vehicle_type_id":"4","last_reported":1704182968,"current_range_meters":30800,"station_id":"ce4bgr92rcd13ifvqc7g","pricing_plan_id":"free"},{"bike_id":"99ab6dea-2b11-478b-9951-a6211fb49936","system_id":"levelo_inurba_marseille","lat":43.299222,"lon":5.365554,"is_reserved":false,"is_disabled":false,"rental_uris":{"android":"levelo://app?vid=99ab6dea-2b11-478b-9951-a6211fb49936","ios":"levelo://app?vid=99ab6dea-2b11-478b-9951-a6211fb49936"},"vehicle_type_id":"4","last_reported":1704182968,"current_range_meters":13200,"station_id":"ce4bgm92rcd13ifvqbr0","pricing_plan_id":"free"},{"bike_id":"1ff74575-bd73-4e1d-ad23-70101bd40bd6","system_id":"levelo_inurba_marseille","lat":43.299724,"lon":5.371829,"is_reserved":false,"is_disabled":false,"rental_uris":{"android":"levelo://app?vid=1ff74575-bd73-4e1d-ad23-70101bd40bd6","ios":"levelo://app?vid=1ff74575-bd73-4e1d-ad23-70101bd40bd6"},"vehicle_type_id":"4","last_reported":1704182968,"current_range_meters":24000,"station_id":"ce4bgr92rcd13ifvqc7g","pricing_plan_id":"free"},{"bike_id":"749e7d89-4c10-49b1-8f83-b438caa2109a","system_id":"levelo_inurba_marseille","lat":43.299222,"lon":5.365554,"is_reserved":false,"is_disabled":false,"rental_uris":{"android":"levelo://app?vid=749e7d89-4c10-49b1-8f83-b438caa2109a","ios":"levelo://app?vid=749e7d89-4c10-49b1-8f83-b438caa2109a"},"vehicle_type_id":"4","last_reported":1704182968,"current_range_meters":27200,"station_id":"ce4bgm92rcd13ifvqbr0","pricing_plan_id":"free"},{"bike_id":"db142136-9b12-499d-a8b9-88b06aba4797","system_id":"levelo_inurba_marseille","lat":43.29965,"lon":5.37176,"is_reserved":false,"is_disabled":false,"rental_uris":{"android":"levelo://app?vid=db142136-9b12-499d-a8b9-88b06aba4797","ios":"levelo://app?vid=db142136-9b12-499d-a8b9-88b06aba4797"},"vehicle_type_id":"4","last_reported":1704182968,"current_range_meters":20000,"station_id":"ce4bgr92rcd13ifvqc7g","pricing_plan_id":"free"},{"bike_id":"a98722fa-2f15-4f62-a4be-f9a44ae18447","system_id":"levelo_inurba_marseille","lat":43.305706,"lon":5.365654,"is_reserved":false,"is_disabled":false,"rental_uris":{"android":"levelo://app?vid=a98722fa-2f15-4f62-a4be-f9a44ae18447","ios":"levelo://app?vid=a98722fa-2f15-4f62-a4be-f9a44ae18447"},"vehicle_type_id":"4","last_reported":1704182968,"current_range_meters":21600,"station_id":"ce4bgs12rcd13ifvqcag","pricing_plan_id":"free"},{"bike_id":"4d69cad8-89cd-4351-9675-0feb9355aeca","system_id":"levelo_inurba_marseille","lat":43.305364,"lon":5.384119,"is_reserved":false,"is_disabled":false,"rental_uris":{"android":"levelo://app?vid=4d69cad8-89cd-4351-9675-0feb9355aeca","ios":"levelo://app?vid=4d69cad8-89cd-4351-9675-0feb9355aeca"},"vehicle_type_id":"4","last_reported":1704182968,"current_range_meters":28000,"station_id":"ce4bgg92rcd13ifvqb30","pricing_plan_id":"free"},{"bike_id":"8eeaf8f3-28c2-4421-a11e-74f06c4246f9","system_id":"levelo_inurba_marseille","lat":43.305364,"lon":5.384119,"is_reserved":false,"is_disabled":false,"rental_uris":{"android":"levelo://app?vid=8eeaf8f3-28c2-4421-a11e-74f06c4246f9","ios":"levelo://app?vid=8eeaf8f3-28c2-4421-a11e-74f06c4246f9"},"vehicle_type_id":"4","last_reported":1704182968,"current_range_meters":12000,"station_id":"ce4bgg92rcd13ifvqb30","pricing_plan_id":"free"},{"bike_id":"86b7d4bc-91b1-4d2b-b8d2-16019266f457","system_id":"levelo_inurba_marseille","lat":43.298433,"lon":5.362774,"is_reserved":false,"is_disabled":false,"rental_uris":{"android":"levelo://app?vid=86b7d4bc-91b1-4d2b-b8d2-16019266f457","ios":"levelo://app?vid=86b7d4bc-91b1-4d2b-b8d2-16019266f457"},"vehicle_type_id":"4","last_reported":1704182968,"current_range_meters":29200,"station_id":"ce4bgpp2rcd13ifvqc3g","pricing_plan_id":"free"},{"bike_id":"9af6b982-2986-4bf3-98c8-f52179f86426","system_id":"levelo_inurba_marseille","lat":43.299243,"lon":5.374807,"is_reserved":false,"is_disabled":false,"rental_uris":{"android":"levelo://app?vid=9af6b982-2986-4bf3-98c8-f52179f86426","ios":"levelo://app?vid=9af6b982-2986-4bf3-98c8-f52179f86426"},"vehicle_type_id":"4","last_reported":1704182968,"current_range_meters":24000,"station_id":"ce4bgjh2rcd13ifvqbg0","pricing_plan_id":"free"},{"bike_id":"665b4d37-ba1b-471f-a9e3-bb28104299db","system_id":"levelo_inurba_marseille","lat":43.299243,"lon":5.374807,"is_reserved":false,"is_disabled":false,"rental_uris":{"android":"levelo://app?vid=665b4d37-ba1b-471f-a9e3-bb28104299db","ios":"levelo://app?vid=665b4d37-ba1b-471f-a9e3-bb28104299db"},"vehicle_type_id":"4","last_reported":1704182968,"current_range_meters":31200,"station_id":"ce4bgjh2rcd13ifvqbg0","pricing_plan_id":"free"},{"bike_id":"cc6264d7-a583-4b19-80de-52814ea9a65b","system_id":"levelo_inurba_marseille","lat":43.298433,"lon":5.362774,"is_reserved":false,"is_disabled":false,"rental_uris":{"android":"levelo://app?vid=cc6264d7-a583-4b19-80de-52814ea9a65b","ios":"levelo://app?vid=cc6264d7-a583-4b19-80de-52814ea9a65b"},"vehicle_type_id":"4","last_reported":1704182968,"current_range_meters":26800,"station_id":"ce4bgpp2rcd13ifvqc3g","pricing_plan_id":"free"},{"bike_id":"9ba290a9-0206-467d-ba38-02ea98d50735","system_id":"levelo_inurba_marseille","lat":43.299243,"lon":5.374807,"is_reserved":false,"is_disabled":false,"rental_uris":{"android":"levelo://app?vid=9ba290a9-0206-467d-ba38-02ea98d50735","ios":"levelo://app?vid=9ba290a9-0206-467d-ba38-02ea98d50735"},"vehicle_type_id":"4","last_reported":1704182968,"current_range_meters":24400,"station_id":"ce4bgjh2rcd13ifvqbg0","pricing_plan_id":"free"},{"bike_id":"651095fb-a66b-405e-a4b0-4653a05e0966","system_id":"levelo_inurba_marseille","lat":43.297794,"lon":5.370888,"is_reserved":false,"is_disabled":false,"rental_uris":{"android":"levelo://app?vid=651095fb-a66b-405e-a4b0-4653a05e0966","ios":"levelo://app?vid=651095fb-a66b-405e-a4b0-4653a05e0966"},"vehicle_type_id":"4","last_reported":1704182968,"current_range_meters":30800,"station_id":"ce4bgop2rcd13ifvqc1g","pricing_plan_id":"free"},{"bike_id":"6ba55cee-e7d2-4067-8ab5-70bbea2b5fa1","system_id":"levelo_inurba_marseille","lat":43.297774,"lon":5.370875,"is_reserved":false,"is_disabled":false,"rental_uris":{"android":"levelo://app?vid=6ba55cee-e7d2-4067-8ab5-70bbea2b5fa1","ios":"levelo://app?vid=6ba55cee-e7d2-4067-8ab5-70bbea2b5fa1"},"vehicle_type_id":"4","last_reported":1704182968,"current_range_meters":23600,"station_id":"ce4bgop2rcd13ifvqc1g","pricing_plan_id":"free"},{"bike_id":"881fe0ac-4a87-4653-9c80-a83989c2ce03","system_id":"levelo_inurba_marseille","lat":43.298433,"lon":5.362774,"is_reserved":false,"is_disabled":false,"rental_uris":{"android":"levelo://app?vid=881fe0ac-4a87-4653-9c80-a83989c2ce03","ios":"levelo://app?vid=881fe0ac-4a87-4653-9c80-a83989c2ce03"},"vehicle_type_id":"4","last_reported":1704182968,"current_range_meters":28400,"station_id":"ce4bgpp2rcd13ifvqc3g","pricing_plan_id":"free"},{"bike_id":"1b2d1de0-55de-4a36-95aa-2ebcd4db77b3","system_id":"levelo_inurba_marseille","lat":43.297163,"lon":5.365866,"is_reserved":false,"is_disabled":false,"rental_uris":{"android":"levelo://app?vid=1b2d1de0-55de-4a36-95aa-2ebcd4db77b3","ios":"levelo://app?vid=1b2d1de0-55de-4a36-95aa-2ebcd4db77b3"},"vehicle_type_id":"4","last_reported":1704182968,"current_range_meters":31200,"station_id":"ce4bgn12rcd13ifvqbt0","pricing_plan_id":"free"},{"bike_id":"370cccf7-c9ba-46c2-819b-c8e8cacc4c21","system_id":"levelo_inurba_marseille","lat":43.3277,"lon":5.37458,"is_reserved":false,"is_disabled":false,"rental_uris":{"android":"levelo://app?vid=370cccf7-c9ba-46c2-819b-c8e8cacc4c21","ios":"levelo://app?vid=370cccf7-c9ba-46c2-819b-c8e8cacc4c21"},"vehicle_type_id":"4","last_reported":1704182968,"current_range_meters":9600,"station_id":"","pricing_plan_id":"free"},{"bike_id":"aac63e02-c36b-44e8-a8da-7f575c9b32ae","system_id":"levelo_inurba_marseille","lat":43.2968,"lon":5.37291,"is_reserved":false,"is_disabled":false,"rental_uris":{"android":"levelo://app?vid=aac63e02-c36b-44e8-a8da-7f575c9b32ae","ios":"levelo://app?vid=aac63e02-c36b-44e8-a8da-7f575c9b32ae"},"vehicle_type_id":"4","last_reported":1704182968,"current_range_meters":27600,"station_id":"ce4bgk12rcd13ifvqbj0","pricing_plan_id":"free"},{"bike_id":"76c38e5c-6eb0-4862-a294-1007b4937961","system_id":"levelo_inurba_marseille","lat":43.296129,"lon":5.370777,"is_reserved":false,"is_disabled":false,"rental_uris":{"android":"levelo://app?vid=76c38e5c-6eb0-4862-a294-1007b4937961","ios":"levelo://app?vid=76c38e5c-6eb0-4862-a294-1007b4937961"},"vehicle_type_id":"4","last_reported":1704182968,"current_range_meters":30000,"station_id":"ce4bgnh2rcd13ifvqc0g","pricing_plan_id":"free"},{"bike_id":"848b4fd8-0eb2-4b32-ad2f-7527ef8eb6c6","system_id":"levelo_inurba_marseille","lat":43.296131,"lon":5.370773,"is_reserved":false,"is_disabled":false,"rental_uris":{"android":"levelo://app?vid=848b4fd8-0eb2-4b32-ad2f-7527ef8eb6c6","ios":"levelo://app?vid=848b4fd8-0eb2-4b32-ad2f-7527ef8eb6c6"},"vehicle_type_id":"4","last_reported":1704182968,"current_range_meters":30800,"station_id":"ce4bgnh2rcd13ifvqc0g","pricing_plan_id":"free"},{"bike_id":"8562c70f-5fb8-4caa-bb62-c506e55d61cf","system_id":"levelo_inurba_marseille","lat":43.29573,"lon":5.367355,"is_reserved":false,"is_disabled":false,"rental_uris":{"android":"levelo://app?vid=8562c70f-5fb8-4caa-bb62-c506e55d61cf","ios":"levelo://app?vid=8562c70f-5fb8-4caa-bb62-c506e55d61cf"},"vehicle_type_id":"4","last_reported":1704182968,"current_range_meters":22800,"station_id":"ce4bgph2rcd13ifvqc2g","pricing_plan_id":"free"},{"bike_id":"db905245-b24e-4598-8141-df6ad5833a28","system_id":"levelo_inurba_marseille","lat":43.29573,"lon":5.367355,"is_reserved":false,"is_disabled":false,"rental_uris":{"android":"levelo://app?vid=db905245-b24e-4598-8141-df6ad5833a28","ios":"levelo://app?vid=db905245-b24e-4598-8141-df6ad5833a28"},"vehicle_type_id":"4","last_reported":1704182968,"current_range_meters":29600,"station_id":"ce4bgph2rcd13ifvqc2g","pricing_plan_id":"free"},{"bike_id":"7b4f5263-c4df-4e40-afe3-fc2bfde43620","system_id":"levelo_inurba_marseille","lat":43.296935,"lon":5.376544,"is_reserved":false,"is_disabled":false,"rental_uris":{"android":"levelo://app?vid=7b4f5263-c4df-4e40-afe3-fc2bfde43620","ios":"levelo://app?vid=7b4f5263-c4df-4e40-afe3-fc2bfde43620"},"vehicle_type_id":"4","last_reported":1704182968,"current_range_meters":26800,"station_id":"ce4bgkh2rcd13ifvqbl0","pricing_plan_id":"free"},{"bike_id":"fc3c3294-b5df-4cf5-b75d-a9af58810781","system_id":"levelo_inurba_marseille","lat":43.296935,"lon":5.376544,"is_reserved":false,"is_disabled":false,"rental_uris":{"android":"levelo://app?vid=fc3c3294-b5df-4cf5-b75d-a9af58810781","ios":"levelo://app?vid=fc3c3294-b5df-4cf5-b75d-a9af58810781"},"vehicle_type_id":"4","last_reported":1704182968,"current_range_meters":26800,"station_id":"ce4bgkh2rcd13ifvqbl0","pricing_plan_id":"free"},{"bike_id":"1aa5daa1-6289-4d37-ab9a-9b964a05974a","system_id":"levelo_inurba_marseille","lat":43.299028,"lon":5.381509,"is_reserved":false,"is_disabled":false,"rental_uris":{"android":"levelo://app?vid=1aa5daa1-6289-4d37-ab9a-9b964a05974a","ios":"levelo://app?vid=1aa5daa1-6289-4d37-ab9a-9b964a05974a"},"vehicle_type_id":"4","last_reported":1704182968,"current_range_meters":30400,"station_id":"ce4bgj12rcd13ifvqbc0","pricing_plan_id":"free"},{"bike_id":"934df303-6780-4e74-997f-0f9cc28c8803","system_id":"levelo_inurba_marseille","lat":43.299028,"lon":5.381509,"is_reserved":false,"is_disabled":false,"rental_uris":{"android":"levelo://app?vid=934df303-6780-4e74-997f-0f9cc28c8803","ios":"levelo://app?vid=934df303-6780-4e74-997f-0f9cc28c8803"},"vehicle_type_id":"4","last_reported":1704182968,"current_range_meters":18400,"station_id":"ce4bgj12rcd13ifvqbc0","pricing_plan_id":"free"},{"bike_id":"535b59d2-4a44-4c9b-a3ce-4a79dbf2c1d9","system_id":"levelo_inurba_marseille","lat":43.296935,"lon":5.376544,"is_reserved":false,"is_disabled":false,"rental_uris":{"android":"levelo://app?vid=535b59d2-4a44-4c9b-a3ce-4a79dbf2c1d9","ios":"levelo://app?vid=535b59d2-4a44-4c9b-a3ce-4a79dbf2c1d9"},"vehicle_type_id":"4","last_reported":1704182968,"current_range_meters":20000,"station_id":"ce4bgkh2rcd13ifvqbl0","pricing_plan_id":"free"},{"bike_id":"956e83d8-43ff-4db4-8d69-7d2ad306f27f","system_id":"levelo_inurba_marseille","lat":43.309589,"lon":5.390258,"is_reserved":false,"is_disabled":false,"rental_uris":{"android":"levelo://app?vid=956e83d8-43ff-4db4-8d69-7d2ad306f27f","ios":"levelo://app?vid=956e83d8-43ff-4db4-8d69-7d2ad306f27f"},"vehicle_type_id":"4","last_reported":1704182968,"current_range_meters":13600,"station_id":"ce4bgup2rcd13ifvqco0","pricing_plan_id":"free"},{"bike_id":"eec0d902-48a8-4881-b84b-36d12b917052","system_id":"levelo_inurba_marseille","lat":43.29706,"lon":5.37706,"is_reserved":false,"is_disabled":false,"rental_uris":{"android":"levelo://app?vid=eec0d902-48a8-4881-b84b-36d12b917052","ios":"levelo://app?vid=eec0d902-48a8-4881-b84b-36d12b917052"},"vehicle_type_id":"4","last_reported":1704182968,"current_range_meters":25600,"station_id":"","pricing_plan_id":"free"},{"bike_id":"7d335ac7-f77d-4a5b-af31-691102a4999c","system_id":"levelo_inurba_marseille","lat":43.309589,"lon":5.390258,"is_reserved":false,"is_disabled":false,"rental_uris":{"android":"levelo://app?vid=7d335ac7-f77d-4a5b-af31-691102a4999c","ios":"levelo://app?vid=7d335ac7-f77d-4a5b-af31-691102a4999c"},"vehicle_type_id":"4","last_reported":1704182968,"current_range_meters":800,"station_id":"ce4bgup2rcd13ifvqco0","pricing_plan_id":"free"},{"bike_id":"6556ebf5-ea26-46c1-8d0d-1a1ce06e9728","system_id":"levelo_inurba_marseille","lat":43.29899,"lon":5.38143,"is_reserved":false,"is_disabled":false,"rental_uris":{"android":"levelo://app?vid=6556ebf5-ea26-46c1-8d0d-1a1ce06e9728","ios":"levelo://app?vid=6556ebf5-ea26-46c1-8d0d-1a1ce06e9728"},"vehicle_type_id":"4","last_reported":1704182968,"current_range_meters":26400,"station_id":"ce4bgj12rcd13ifvqbc0","pricing_plan_id":"free"},{"bike_id":"64eb3e5f-bbf4-4ab1-8f2a-34e5c64ea705","system_id":"levelo_inurba_marseille","lat":43.309589,"lon":5.390258,"is_reserved":false,"is_disabled":false,"rental_uris":{"android":"levelo://app?vid=64eb3e5f-bbf4-4ab1-8f2a-34e5c64ea705","ios":"levelo://app?vid=64eb3e5f-bbf4-4ab1-8f2a-34e5c64ea705"},"vehicle_type_id":"4","last_reported":1704182968,"current_range_meters":29200,"station_id":"ce4bgup2rcd13ifvqco0","pricing_plan_id":"free"},{"bike_id":"ac634f7e-92a7-44c6-80c4-4a3a9ec2992d","system_id":"levelo_inurba_marseille","lat":43.309589,"lon":5.390258,"is_reserved":false,"is_disabled":false,"rental_uris":{"android":"levelo://app?vid=ac634f7e-92a7-44c6-80c4-4a3a9ec2992d","ios":"levelo://app?vid=ac634f7e-92a7-44c6-80c4-4a3a9ec2992d"},"vehicle_type_id":"4","last_reported":1704182968,"current_range_meters":26400,"station_id":"ce4bgup2rcd13ifvqco0","pricing_plan_id":"free"},{"bike_id":"8b77cedb-b219-4ef4-b182-90b6901354b3","system_id":"levelo_inurba_marseille","lat":43.309589,"lon":5.390258,"is_reserved":false,"is_disabled":false,"rental_uris":{"android":"levelo://app?vid=8b77cedb-b219-4ef4-b182-90b6901354b3","ios":"levelo://app?vid=8b77cedb-b219-4ef4-b182-90b6901354b3"},"vehicle_type_id":"4","last_reported":1704182968,"current_range_meters":29200,"station_id":"ce4bgup2rcd13ifvqco0","pricing_plan_id":"free"},{"bike_id":"b46473a2-a736-44d5-ada0-a99f04660331","system_id":"levelo_inurba_marseille","lat":43.298037,"lon":5.381066,"is_reserved":false,"is_disabled":false,"rental_uris":{"android":"levelo://app?vid=b46473a2-a736-44d5-ada0-a99f04660331","ios":"levelo://app?vid=b46473a2-a736-44d5-ada0-a99f04660331"},"vehicle_type_id":"4","last_reported":1704182968,"current_range_meters":28800,"station_id":"ce4bgip2rcd13ifvqbb0","pricing_plan_id":"free"},{"bike_id":"3fd21f62-df52-40ea-9792-8aef1d0791e7","system_id":"levelo_inurba_marseille","lat":43.295748,"lon":5.37522,"is_reserved":false,"is_disabled":false,"rental_uris":{"android":"levelo://app?vid=3fd21f62-df52-40ea-9792-8aef1d0791e7","ios":"levelo://app?vid=3fd21f62-df52-40ea-9792-8aef1d0791e7"},"vehicle_type_id":"4","last_reported":1704182968,"current_range_meters":26000,"station_id":"ce4bgh92rcd13ifvqb50","pricing_plan_id":"free"},{"bike_id":"22add8b5-d9e6-41f0-a10b-aa72bca8152e","system_id":"levelo_inurba_marseille","lat":43.295748,"lon":5.37522,"is_reserved":false,"is_disabled":false,"rental_uris":{"android":"levelo://app?vid=22add8b5-d9e6-41f0-a10b-aa72bca8152e","ios":"levelo://app?vid=22add8b5-d9e6-41f0-a10b-aa72bca8152e"},"vehicle_type_id":"4","last_reported":1704182968,"current_range_meters":24800,"station_id":"ce4bgh92rcd13ifvqb50","pricing_plan_id":"free"},{"bike_id":"f96b2ac2-5174-4688-a555-8cc956f97da8","system_id":"levelo_inurba_marseille","lat":43.295748,"lon":5.37522,"is_reserved":false,"is_disabled":false,"rental_uris":{"android":"levelo://app?vid=f96b2ac2-5174-4688-a555-8cc956f97da8","ios":"levelo://app?vid=f96b2ac2-5174-4688-a555-8cc956f97da8"},"vehicle_type_id":"4","last_reported":1704182968,"current_range_meters":26400,"station_id":"ce4bgh92rcd13ifvqb50","pricing_plan_id":"free"},{"bike_id":"dbc436fa-6a08-4430-ac8f-ad33673b7a74","system_id":"levelo_inurba_marseille","lat":43.295748,"lon":5.37522,"is_reserved":false,"is_disabled":false,"rental_uris":{"android":"levelo://app?vid=dbc436fa-6a08-4430-ac8f-ad33673b7a74","ios":"levelo://app?vid=dbc436fa-6a08-4430-ac8f-ad33673b7a74"},"vehicle_type_id":"4","last_reported":1704182968,"current_range_meters":21600,"station_id":"ce4bgh92rcd13ifvqb50","pricing_plan_id":"free"},{"bike_id":"d60802d6-4f47-444a-b234-883690eec05b","system_id":"levelo_inurba_marseille","lat":43.33062,"lon":5.3627,"is_reserved":false,"is_disabled":false,"rental_uris":{"android":"levelo://app?vid=d60802d6-4f47-444a-b234-883690eec05b","ios":"levelo://app?vid=d60802d6-4f47-444a-b234-883690eec05b"},"vehicle_type_id":"4","last_reported":1704182968,"current_range_meters":16400,"station_id":"","pricing_plan_id":"free"},{"bike_id":"312f04c1-e7c4-43a8-81fa-dc6587f53f5b","system_id":"levelo_inurba_marseille","lat":43.295748,"lon":5.37522,"is_reserved":false,"is_disabled":false,"rental_uris":{"android":"levelo://app?vid=312f04c1-e7c4-43a8-81fa-dc6587f53f5b","ios":"levelo://app?vid=312f04c1-e7c4-43a8-81fa-dc6587f53f5b"},"vehicle_type_id":"4","last_reported":1704182968,"current_range_meters":27200,"station_id":"ce4bgh92rcd13ifvqb50","pricing_plan_id":"free"},{"bike_id":"90d2dff6-f0e3-47f5-8b56-2b2de485dec1","system_id":"levelo_inurba_marseille","lat":43.296277,"lon":5.377108,"is_reserved":false,"is_disabled":false,"rental_uris":{"android":"levelo://app?vid=90d2dff6-f0e3-47f5-8b56-2b2de485dec1","ios":"levelo://app?vid=90d2dff6-f0e3-47f5-8b56-2b2de485dec1"},"vehicle_type_id":"4","last_reported":1704182968,"current_range_meters":27200,"station_id":"ce4bgi92rcd13ifvqb90","pricing_plan_id":"free"},{"bike_id":"f67b4ce4-0c9c-4cd2-b119-b472dfee5204","system_id":"levelo_inurba_marseille","lat":43.29538,"lon":5.375,"is_reserved":false,"is_disabled":false,"rental_uris":{"android":"levelo://app?vid=f67b4ce4-0c9c-4cd2-b119-b472dfee5204","ios":"levelo://app?vid=f67b4ce4-0c9c-4cd2-b119-b472dfee5204"},"vehicle_type_id":"4","last_reported":1704182968,"current_range_meters":22800,"station_id":"ce4bgi92rcd13ifvqb90","pricing_plan_id":"free"},{"bike_id":"7119845d-00aa-4d9f-be8c-fc97d41f1380","system_id":"levelo_inurba_marseille","lat":43.297594,"lon":5.381134,"is_reserved":false,"is_disabled":false,"rental_uris":{"android":"levelo://app?vid=7119845d-00aa-4d9f-be8c-fc97d41f1380","ios":"levelo://app?vid=7119845d-00aa-4d9f-be8c-fc97d41f1380"},"vehicle_type_id":"4","last_reported":1704182968,"current_range_meters":4800,"station_id":"ce4bgip2rcd13ifvqbb0","pricing_plan_id":"free"},{"bike_id":"08730f6f-0dd8-4220-8907-d6364d8214b0","system_id":"levelo_inurba_marseille","lat":43.295279,"lon":5.375048,"is_reserved":false,"is_disabled":false,"rental_uris":{"android":"levelo://app?vid=08730f6f-0dd8-4220-8907-d6364d8214b0","ios":"levelo://app?vid=08730f6f-0dd8-4220-8907-d6364d8214b0"},"vehicle_type_id":"4","last_reported":1704182968,"current_range_meters":25600,"station_id":"ce4bgkp2rcd13ifvqbmg","pricing_plan_id":"free"},{"bike_id":"adc6cb98-8dcc-4ab3-855d-569c025a5ced","system_id":"levelo_inurba_marseille","lat":43.32367,"lon":5.388836,"is_reserved":false,"is_disabled":false,"rental_uris":{"android":"levelo://app?vid=adc6cb98-8dcc-4ab3-855d-569c025a5ced","ios":"levelo://app?vid=adc6cb98-8dcc-4ab3-855d-569c025a5ced"},"vehicle_type_id":"4","last_reported":1704182968,"current_range_meters":24400,"station_id":"ce4bhqp2rcd13ifvqhog","pricing_plan_id":"free"},{"bike_id":"06880a87-1d2f-452a-aea3-1c4b96cf9b3f","system_id":"levelo_inurba_marseille","lat":43.32367,"lon":5.388836,"is_reserved":false,"is_disabled":false,"rental_uris":{"android":"levelo://app?vid=06880a87-1d2f-452a-aea3-1c4b96cf9b3f","ios":"levelo://app?vid=06880a87-1d2f-452a-aea3-1c4b96cf9b3f"},"vehicle_type_id":"4","last_reported":1704182968,"current_range_meters":22400,"station_id":"ce4bhqp2rcd13ifvqhog","pricing_plan_id":"free"},{"bike_id":"d1ae36cc-3d77-4823-bbea-3ec1cd29b40d","system_id":"levelo_inurba_marseille","lat":43.32367,"lon":5.388836,"is_reserved":false,"is_disabled":false,"rental_uris":{"android":"levelo://app?vid=d1ae36cc-3d77-4823-bbea-3ec1cd29b40d","ios":"levelo://app?vid=d1ae36cc-3d77-4823-bbea-3ec1cd29b40d"},"vehicle_type_id":"4","last_reported":1704182968,"current_range_meters":21200,"station_id":"ce4bhqp2rcd13ifvqhog","pricing_plan_id":"free"},{"bike_id":"67eb8d03-50ce-4bf6-8e9f-3f91644e721e","system_id":"levelo_inurba_marseille","lat":43.29601,"lon":5.381084,"is_reserved":false,"is_disabled":false,"rental_uris":{"android":"levelo://app?vid=67eb8d03-50ce-4bf6-8e9f-3f91644e721e","ios":"levelo://app?vid=67eb8d03-50ce-4bf6-8e9f-3f91644e721e"},"vehicle_type_id":"4","last_reported":1704182968,"current_range_meters":31200,"station_id":"ce4bgl12rcd13ifvqbo0","pricing_plan_id":"free"},{"bike_id":"cac7e232-8165-44cd-91c0-2c39f381d8f7","system_id":"levelo_inurba_marseille","lat":43.292749,"lon":5.368402,"is_reserved":false,"is_disabled":false,"rental_uris":{"android":"levelo://app?vid=cac7e232-8165-44cd-91c0-2c39f381d8f7","ios":"levelo://app?vid=cac7e232-8165-44cd-91c0-2c39f381d8f7"},"vehicle_type_id":"4","last_reported":1704182968,"current_range_meters":8400,"station_id":"ce4bhbp2rcd13ifvqesg","pricing_plan_id":"free"},{"bike_id":"01e21808-f7c6-45a0-9c8c-3138bf2fbecb","system_id":"levelo_inurba_marseille","lat":43.293009,"lon":5.374584,"is_reserved":false,"is_disabled":false,"rental_uris":{"android":"levelo://app?vid=01e21808-f7c6-45a0-9c8c-3138bf2fbecb","ios":"levelo://app?vid=01e21808-f7c6-45a0-9c8c-3138bf2fbecb"},"vehicle_type_id":"4","last_reported":1704182968,"current_range_meters":26400,"station_id":"ce4bgi12rcd13ifvqb70","pricing_plan_id":"free"},{"bike_id":"8104ef42-e8eb-4a64-846c-d8cf375a1022","system_id":"levelo_inurba_marseille","lat":43.2936,"lon":5.37835,"is_reserved":false,"is_disabled":false,"rental_uris":{"android":"levelo://app?vid=8104ef42-e8eb-4a64-846c-d8cf375a1022","ios":"levelo://app?vid=8104ef42-e8eb-4a64-846c-d8cf375a1022"},"vehicle_type_id":"4","last_reported":1704182968,"current_range_meters":25600,"station_id":"ce4bgjh2rcd13ifvqbf0","pricing_plan_id":"free"},{"bike_id":"1a1481de-040b-486d-8984-45afdbe85ebb","system_id":"levelo_inurba_marseille","lat":43.29253,"lon":5.3739,"is_reserved":false,"is_disabled":false,"rental_uris":{"android":"levelo://app?vid=1a1481de-040b-486d-8984-45afdbe85ebb","ios":"levelo://app?vid=1a1481de-040b-486d-8984-45afdbe85ebb"},"vehicle_type_id":"4","last_reported":1704182968,"current_range_meters":17200,"station_id":"","pricing_plan_id":"free"},{"bike_id":"f4cec07f-16dd-4612-82b0-9b0b850dded3","system_id":"levelo_inurba_marseille","lat":43.29269,"lon":5.37623,"is_reserved":false,"is_disabled":false,"rental_uris":{"android":"levelo://app?vid=f4cec07f-16dd-4612-82b0-9b0b850dded3","ios":"levelo://app?vid=f4cec07f-16dd-4612-82b0-9b0b850dded3"},"vehicle_type_id":"4","last_reported":1704182968,"current_range_meters":22800,"station_id":"ce4bgi12rcd13ifvqb70","pricing_plan_id":"free"},{"bike_id":"aeceb4ee-23cf-4baa-9dac-58979dce0b17","system_id":"levelo_inurba_marseille","lat":43.29201,"lon":5.35804,"is_reserved":false,"is_disabled":false,"rental_uris":{"android":"levelo://app?vid=aeceb4ee-23cf-4baa-9dac-58979dce0b17","ios":"levelo://app?vid=aeceb4ee-23cf-4baa-9dac-58979dce0b17"},"vehicle_type_id":"4","last_reported":1704182968,"current_range_meters":1600,"station_id":"","pricing_plan_id":"free"},{"bike_id":"acfdf9f9-1a91-4bcc-9b7f-57624ba75b4e","system_id":"levelo_inurba_marseille","lat":43.29529,"lon":5.385581,"is_reserved":false,"is_disabled":false,"rental_uris":{"android":"levelo://app?vid=acfdf9f9-1a91-4bcc-9b7f-57624ba75b4e","ios":"levelo://app?vid=acfdf9f9-1a91-4bcc-9b7f-57624ba75b4e"},"vehicle_type_id":"4","last_reported":1704182968,"current_range_meters":25600,"station_id":"ce4bgih2rcd13ifvqba0","pricing_plan_id":"free"},{"bike_id":"640b54a7-24bf-4ef0-84af-c1a676995d09","system_id":"levelo_inurba_marseille","lat":43.290779,"lon":5.371482,"is_reserved":false,"is_disabled":false,"rental_uris":{"android":"levelo://app?vid=640b54a7-24bf-4ef0-84af-c1a676995d09","ios":"levelo://app?vid=640b54a7-24bf-4ef0-84af-c1a676995d09"},"vehicle_type_id":"4","last_reported":1704182968,"current_range_meters":30800,"station_id":"ce4bh5p2rcd13ifvqe4g","pricing_plan_id":"free"},{"bike_id":"095e09fc-8293-41fb-9301-b248e83192ea","system_id":"levelo_inurba_marseille","lat":43.302008,"lon":5.394694,"is_reserved":false,"is_disabled":false,"rental_uris":{"android":"levelo://app?vid=095e09fc-8293-41fb-9301-b248e83192ea","ios":"levelo://app?vid=095e09fc-8293-41fb-9301-b248e83192ea"},"vehicle_type_id":"4","last_reported":1704182968,"current_range_meters":29200,"station_id":"ce4bh0p2rcd13ifvqd70","pricing_plan_id":"free"},{"bike_id":"5ad87b38-e400-42c7-b8c9-5f5033833b36","system_id":"levelo_inurba_marseille","lat":43.290327,"lon":5.375711,"is_reserved":false,"is_disabled":false,"rental_uris":{"android":"levelo://app?vid=5ad87b38-e400-42c7-b8c9-5f5033833b36","ios":"levelo://app?vid=5ad87b38-e400-42c7-b8c9-5f5033833b36"},"vehicle_type_id":"4","last_reported":1704182968,"current_range_meters":19600,"station_id":"ce4bh692rcd13ifvqe90","pricing_plan_id":"free"},{"bike_id":"e3bd69cd-ad8c-4403-a834-b9535ac3355c","system_id":"levelo_inurba_marseille","lat":43.289468,"lon":5.363719,"is_reserved":false,"is_disabled":false,"rental_uris":{"android":"levelo://app?vid=e3bd69cd-ad8c-4403-a834-b9535ac3355c","ios":"levelo://app?vid=e3bd69cd-ad8c-4403-a834-b9535ac3355c"},"vehicle_type_id":"4","last_reported":1704182968,"current_range_meters":31200,"station_id":"ce4bhc92rcd13ifvqetg","pricing_plan_id":"free"},{"bike_id":"07b8958f-36fd-401c-b9d6-7c041cc9e815","system_id":"levelo_inurba_marseille","lat":43.304274,"lon":5.397513,"is_reserved":false,"is_disabled":false,"rental_uris":{"android":"levelo://app?vid=07b8958f-36fd-401c-b9d6-7c041cc9e815","ios":"levelo://app?vid=07b8958f-36fd-401c-b9d6-7c041cc9e815"},"vehicle_type_id":"4","last_reported":1704182968,"current_range_meters":20800,"station_id":"ce4bh092rcd13ifvqd20","pricing_plan_id":"free"},{"bike_id":"415bb52a-0e78-4075-826e-0e7b7313e6f5","system_id":"levelo_inurba_marseille","lat":43.330442,"lon":5.389148,"is_reserved":false,"is_disabled":false,"rental_uris":{"android":"levelo://app?vid=415bb52a-0e78-4075-826e-0e7b7313e6f5","ios":"levelo://app?vid=415bb52a-0e78-4075-826e-0e7b7313e6f5"},"vehicle_type_id":"4","last_reported":1704182968,"current_range_meters":20800,"station_id":"ce4bhr92rcd13ifvqhrg","pricing_plan_id":"free"},{"bike_id":"13d41c86-d361-4b17-ae49-6b5491dd4e85","system_id":"levelo_inurba_marseille","lat":43.330442,"lon":5.389148,"is_reserved":false,"is_disabled":false,"rental_uris":{"android":"levelo://app?vid=13d41c86-d361-4b17-ae49-6b5491dd4e85","ios":"levelo://app?vid=13d41c86-d361-4b17-ae49-6b5491dd4e85"},"vehicle_type_id":"4","last_reported":1704182968,"current_range_meters":25200,"station_id":"ce4bhr92rcd13ifvqhrg","pricing_plan_id":"free"},{"bike_id":"fe69479d-7d54-465e-81f5-20bff90a167f","system_id":"levelo_inurba_marseille","lat":43.289743,"lon":5.378304,"is_reserved":false,"is_disabled":false,"rental_uris":{"android":"levelo://app?vid=fe69479d-7d54-465e-81f5-20bff90a167f","ios":"levelo://app?vid=fe69479d-7d54-465e-81f5-20bff90a167f"},"vehicle_type_id":"4","last_reported":1704182968,"current_range_meters":20400,"station_id":"ce4bh9p2rcd13ifvqed0","pricing_plan_id":"free"},{"bike_id":"d3ce8f94-6db9-45cb-83d5-40f383d72081","system_id":"levelo_inurba_marseille","lat":43.290169,"lon":5.3813,"is_reserved":false,"is_disabled":false,"rental_uris":{"android":"levelo://app?vid=d3ce8f94-6db9-45cb-83d5-40f383d72081","ios":"levelo://app?vid=d3ce8f94-6db9-45cb-83d5-40f383d72081"},"vehicle_type_id":"4","last_reported":1704182968,"current_range_meters":26400,"station_id":"ce4bh4p2rcd13ifvqe1g","pricing_plan_id":"free"},{"bike_id":"9a042682-2b83-4773-ad48-23fbaf2d69da","system_id":"levelo_inurba_marseille","lat":43.312609,"lon":5.401662,"is_reserved":false,"is_disabled":false,"rental_uris":{"android":"levelo://app?vid=9a042682-2b83-4773-ad48-23fbaf2d69da","ios":"levelo://app?vid=9a042682-2b83-4773-ad48-23fbaf2d69da"},"vehicle_type_id":"4","last_reported":1704182968,"current_range_meters":11200,"station_id":"ce4bh092rcd13ifvqd30","pricing_plan_id":"free"},{"bike_id":"f182ad30-578d-439a-b895-037c49f93cbb","system_id":"levelo_inurba_marseille","lat":43.28039,"lon":5.369297,"is_reserved":false,"is_disabled":false,"rental_uris":{"android":"levelo://app?vid=f182ad30-578d-439a-b895-037c49f93cbb","ios":"levelo://app?vid=f182ad30-578d-439a-b895-037c49f93cbb"},"vehicle_type_id":"4","last_reported":1704182968,"current_range_meters":31200,"station_id":"ce4bha12rcd13ifvqef0","pricing_plan_id":"free"},{"bike_id":"668942d6-33c2-433a-a4c3-8da233302454","system_id":"levelo_inurba_marseille","lat":43.313291,"lon":5.396838,"is_reserved":false,"is_disabled":false,"rental_uris":{"android":"levelo://app?vid=668942d6-33c2-433a-a4c3-8da233302454","ios":"levelo://app?vid=668942d6-33c2-433a-a4c3-8da233302454"},"vehicle_type_id":"4","last_reported":1704182968,"current_range_meters":28400,"station_id":"ce4bgvp2rcd13ifvqcu0","pricing_plan_id":"free"},{"bike_id":"9da7227d-47de-4eb4-b462-00fbcf630aaf","system_id":"levelo_inurba_marseille","lat":43.289307,"lon":5.38406,"is_reserved":false,"is_disabled":false,"rental_uris":{"android":"levelo://app?vid=9da7227d-47de-4eb4-b462-00fbcf630aaf","ios":"levelo://app?vid=9da7227d-47de-4eb4-b462-00fbcf630aaf"},"vehicle_type_id":"4","last_reported":1704182968,"current_range_meters":30400,"station_id":"ce4bh612rcd13ifvqe6g","pricing_plan_id":"free"},{"bike_id":"35968ed6-1aec-4dbe-9b63-993f0cbc27ee","system_id":"levelo_inurba_marseille","lat":43.28657,"lon":5.374026,"is_reserved":false,"is_disabled":false,"rental_uris":{"android":"levelo://app?vid=35968ed6-1aec-4dbe-9b63-993f0cbc27ee","ios":"levelo://app?vid=35968ed6-1aec-4dbe-9b63-993f0cbc27ee"},"vehicle_type_id":"4","last_reported":1704182968,"current_range_meters":27600,"station_id":"","pricing_plan_id":"free"},{"bike_id":"f04c0197-8bb7-4d15-ac5b-e74e1042e935","system_id":"levelo_inurba_marseille","lat":43.286039,"lon":5.370679,"is_reserved":false,"is_disabled":false,"rental_uris":{"android":"levelo://app?vid=f04c0197-8bb7-4d15-ac5b-e74e1042e935","ios":"levelo://app?vid=f04c0197-8bb7-4d15-ac5b-e74e1042e935"},"vehicle_type_id":"4","last_reported":1704182968,"current_range_meters":25600,"station_id":"ce4bht12rcd13ifvqi60","pricing_plan_id":"free"},{"bike_id":"40579999-f28a-4f53-8fc1-32606a609e63","system_id":"levelo_inurba_marseille","lat":43.286039,"lon":5.370679,"is_reserved":false,"is_disabled":false,"rental_uris":{"android":"levelo://app?vid=40579999-f28a-4f53-8fc1-32606a609e63","ios":"levelo://app?vid=40579999-f28a-4f53-8fc1-32606a609e63"},"vehicle_type_id":"4","last_reported":1704182968,"current_range_meters":23600,"station_id":"ce4bht12rcd13ifvqi60","pricing_plan_id":"free"},{"bike_id":"102b8121-ee53-408e-8829-c9b9fc6aef90","system_id":"levelo_inurba_marseille","lat":43.286039,"lon":5.370679,"is_reserved":false,"is_disabled":false,"rental_uris":{"android":"levelo://app?vid=102b8121-ee53-408e-8829-c9b9fc6aef90","ios":"levelo://app?vid=102b8121-ee53-408e-8829-c9b9fc6aef90"},"vehicle_type_id":"4","last_reported":1704182968,"current_range_meters":15200,"station_id":"ce4bht12rcd13ifvqi60","pricing_plan_id":"free"},{"bike_id":"1e0f2880-e3cb-4c1a-bda3-07c0a89a1c22","system_id":"levelo_inurba_marseille","lat":43.287185,"lon":5.379373,"is_reserved":false,"is_disabled":false,"rental_uris":{"android":"levelo://app?vid=1e0f2880-e3cb-4c1a-bda3-07c0a89a1c22","ios":"levelo://app?vid=1e0f2880-e3cb-4c1a-bda3-07c0a89a1c22"},"vehicle_type_id":"4","last_reported":1704182968,"current_range_meters":11600,"station_id":"ce4bh9p2rcd13ifvqec0","pricing_plan_id":"free"},{"bike_id":"fe9d9231-9266-42cd-b245-ed8ea3c0bdbb","system_id":"levelo_inurba_marseille","lat":43.316883,"lon":5.40461,"is_reserved":false,"is_disabled":false,"rental_uris":{"android":"levelo://app?vid=fe9d9231-9266-42cd-b245-ed8ea3c0bdbb","ios":"levelo://app?vid=fe9d9231-9266-42cd-b245-ed8ea3c0bdbb"},"vehicle_type_id":"4","last_reported":1704182968,"current_range_meters":20800,"station_id":"ce4bh012rcd13ifvqd00","pricing_plan_id":"free"},{"bike_id":"9b0c9e9e-977c-43ca-8676-217c423ef706","system_id":"levelo_inurba_marseille","lat":43.316907,"lon":5.404611,"is_reserved":false,"is_disabled":false,"rental_uris":{"android":"levelo://app?vid=9b0c9e9e-977c-43ca-8676-217c423ef706","ios":"levelo://app?vid=9b0c9e9e-977c-43ca-8676-217c423ef706"},"vehicle_type_id":"4","last_reported":1704182968,"current_range_meters":29200,"station_id":"ce4bh012rcd13ifvqd00","pricing_plan_id":"free"},{"bike_id":"7be1fd96-9df7-4dc2-864e-e485fc92ec9f","system_id":"levelo_inurba_marseille","lat":43.28457,"lon":5.35896,"is_reserved":false,"is_disabled":false,"rental_uris":{"android":"levelo://app?vid=7be1fd96-9df7-4dc2-864e-e485fc92ec9f","ios":"levelo://app?vid=7be1fd96-9df7-4dc2-864e-e485fc92ec9f"},"vehicle_type_id":"4","last_reported":1704182968,"current_range_meters":22800,"station_id":"","pricing_plan_id":"free"},{"bike_id":"08a41e38-2652-45c2-b866-b3c46c04abd6","system_id":"levelo_inurba_marseille","lat":43.285848,"lon":5.350787,"is_reserved":false,"is_disabled":false,"rental_uris":{"android":"levelo://app?vid=08a41e38-2652-45c2-b866-b3c46c04abd6","ios":"levelo://app?vid=08a41e38-2652-45c2-b866-b3c46c04abd6"},"vehicle_type_id":"4","last_reported":1704182968,"current_range_meters":31200,"station_id":"ce4bhch2rcd13ifvqeug","pricing_plan_id":"free"},{"bike_id":"ebc7820e-a0b7-4906-bcb7-4929c1352f6e","system_id":"levelo_inurba_marseille","lat":43.285848,"lon":5.350787,"is_reserved":false,"is_disabled":false,"rental_uris":{"android":"levelo://app?vid=ebc7820e-a0b7-4906-bcb7-4929c1352f6e","ios":"levelo://app?vid=ebc7820e-a0b7-4906-bcb7-4929c1352f6e"},"vehicle_type_id":"4","last_reported":1704182968,"current_range_meters":31200,"station_id":"ce4bhch2rcd13ifvqeug","pricing_plan_id":"free"},{"bike_id":"b08aec6f-115b-485f-9076-6b6a15e351e9","system_id":"levelo_inurba_marseille","lat":43.285856,"lon":5.350771,"is_reserved":false,"is_disabled":false,"rental_uris":{"android":"levelo://app?vid=b08aec6f-115b-485f-9076-6b6a15e351e9","ios":"levelo://app?vid=b08aec6f-115b-485f-9076-6b6a15e351e9"},"vehicle_type_id":"4","last_reported":1704182968,"current_range_meters":25200,"station_id":"ce4bhch2rcd13ifvqeug","pricing_plan_id":"free"},{"bike_id":"e28ff541-eea7-4fb5-94ab-5f6b614b34e7","system_id":"levelo_inurba_marseille","lat":43.285848,"lon":5.350787,"is_reserved":false,"is_disabled":false,"rental_uris":{"android":"levelo://app?vid=e28ff541-eea7-4fb5-94ab-5f6b614b34e7","ios":"levelo://app?vid=e28ff541-eea7-4fb5-94ab-5f6b614b34e7"},"vehicle_type_id":"4","last_reported":1704182968,"current_range_meters":23600,"station_id":"ce4bhch2rcd13ifvqeug","pricing_plan_id":"free"},{"bike_id":"c0b150bd-0ec0-4a44-97e9-b0114dfef296","system_id":"levelo_inurba_marseille","lat":43.285856,"lon":5.350771,"is_reserved":false,"is_disabled":false,"rental_uris":{"android":"levelo://app?vid=c0b150bd-0ec0-4a44-97e9-b0114dfef296","ios":"levelo://app?vid=c0b150bd-0ec0-4a44-97e9-b0114dfef296"},"vehicle_type_id":"4","last_reported":1704182968,"current_range_meters":28000,"station_id":"ce4bhch2rcd13ifvqeug","pricing_plan_id":"free"},{"bike_id":"ed53f7ef-8bbf-4731-84ce-b412b717f147","system_id":"levelo_inurba_marseille","lat":43.285848,"lon":5.350787,"is_reserved":false,"is_disabled":false,"rental_uris":{"android":"levelo://app?vid=ed53f7ef-8bbf-4731-84ce-b412b717f147","ios":"levelo://app?vid=ed53f7ef-8bbf-4731-84ce-b412b717f147"},"vehicle_type_id":"4","last_reported":1704182968,"current_range_meters":30400,"station_id":"ce4bhch2rcd13ifvqeug","pricing_plan_id":"free"},{"bike_id":"27c56aac-08bf-428e-833d-39da8c612870","system_id":"levelo_inurba_marseille","lat":43.285856,"lon":5.350771,"is_reserved":false,"is_disabled":false,"rental_uris":{"android":"levelo://app?vid=27c56aac-08bf-428e-833d-39da8c612870","ios":"levelo://app?vid=27c56aac-08bf-428e-833d-39da8c612870"},"vehicle_type_id":"4","last_reported":1704182968,"current_range_meters":30400,"station_id":"ce4bhch2rcd13ifvqeug","pricing_plan_id":"free"},{"bike_id":"dc7a5cbf-5979-46ef-822f-2cfc84db524d","system_id":"levelo_inurba_marseille","lat":43.286138,"lon":5.351118,"is_reserved":false,"is_disabled":false,"rental_uris":{"android":"levelo://app?vid=dc7a5cbf-5979-46ef-822f-2cfc84db524d","ios":"levelo://app?vid=dc7a5cbf-5979-46ef-822f-2cfc84db524d"},"vehicle_type_id":"4","last_reported":1704182968,"current_range_meters":28400,"station_id":"","pricing_plan_id":"free"},{"bike_id":"5e297c2e-111c-4baa-aebc-d56fb57c52d5","system_id":"levelo_inurba_marseille","lat":43.285856,"lon":5.350771,"is_reserved":false,"is_disabled":false,"rental_uris":{"android":"levelo://app?vid=5e297c2e-111c-4baa-aebc-d56fb57c52d5","ios":"levelo://app?vid=5e297c2e-111c-4baa-aebc-d56fb57c52d5"},"vehicle_type_id":"4","last_reported":1704182968,"current_range_meters":22000,"station_id":"ce4bhch2rcd13ifvqeug","pricing_plan_id":"free"},{"bike_id":"641b9a2b-a07e-4d54-82fc-d82af691d185","system_id":"levelo_inurba_marseille","lat":43.28612,"lon":5.351064,"is_reserved":false,"is_disabled":false,"rental_uris":{"android":"levelo://app?vid=641b9a2b-a07e-4d54-82fc-d82af691d185","ios":"levelo://app?vid=641b9a2b-a07e-4d54-82fc-d82af691d185"},"vehicle_type_id":"4","last_reported":1704182968,"current_range_meters":28400,"station_id":"ce4rr2p2rcd13i802rgg","pricing_plan_id":"free"},{"bike_id":"08ec7859-00c1-4ca0-8ceb-f2f50be8e031","system_id":"levelo_inurba_marseille","lat":43.285848,"lon":5.350787,"is_reserved":false,"is_disabled":false,"rental_uris":{"android":"levelo://app?vid=08ec7859-00c1-4ca0-8ceb-f2f50be8e031","ios":"levelo://app?vid=08ec7859-00c1-4ca0-8ceb-f2f50be8e031"},"vehicle_type_id":"4","last_reported":1704182968,"current_range_meters":31200,"station_id":"ce4bhch2rcd13ifvqeug","pricing_plan_id":"free"},{"bike_id":"d9fd8dfe-c806-4fa6-a1aa-01731bb94f15","system_id":"levelo_inurba_marseille","lat":43.285848,"lon":5.350787,"is_reserved":false,"is_disabled":false,"rental_uris":{"android":"levelo://app?vid=d9fd8dfe-c806-4fa6-a1aa-01731bb94f15","ios":"levelo://app?vid=d9fd8dfe-c806-4fa6-a1aa-01731bb94f15"},"vehicle_type_id":"4","last_reported":1704182968,"current_range_meters":27200,"station_id":"ce4bhch2rcd13ifvqeug","pricing_plan_id":"free"},{"bike_id":"ac9ffd8a-fdd1-4e19-a68b-2f09517347c9","system_id":"levelo_inurba_marseille","lat":43.286103,"lon":5.351079,"is_reserved":false,"is_disabled":false,"rental_uris":{"android":"levelo://app?vid=ac9ffd8a-fdd1-4e19-a68b-2f09517347c9","ios":"levelo://app?vid=ac9ffd8a-fdd1-4e19-a68b-2f09517347c9"},"vehicle_type_id":"4","last_reported":1704182968,"current_range_meters":20800,"station_id":"ce4bhch2rcd13ifvqeug","pricing_plan_id":"free"},{"bike_id":"fa30bbcf-110f-40f7-8608-6251882ccc2e","system_id":"levelo_inurba_marseille","lat":43.286595,"lon":5.386795,"is_reserved":false,"is_disabled":false,"rental_uris":{"android":"levelo://app?vid=fa30bbcf-110f-40f7-8608-6251882ccc2e","ios":"levelo://app?vid=fa30bbcf-110f-40f7-8608-6251882ccc2e"},"vehicle_type_id":"4","last_reported":1704182968,"current_range_meters":18800,"station_id":"ce4bh492rcd13ifvqdug","pricing_plan_id":"free"},{"bike_id":"754390c3-6024-46a0-867c-05628b4ba38d","system_id":"levelo_inurba_marseille","lat":43.319179,"lon":5.407725,"is_reserved":false,"is_disabled":false,"rental_uris":{"android":"levelo://app?vid=754390c3-6024-46a0-867c-05628b4ba38d","ios":"levelo://app?vid=754390c3-6024-46a0-867c-05628b4ba38d"},"vehicle_type_id":"4","last_reported":1704182968,"current_range_meters":28800,"station_id":"ce4bhq12rcd13ifvqhig","pricing_plan_id":"free"},{"bike_id":"8af6642b-e526-4770-8a06-6b115e68c32b","system_id":"levelo_inurba_marseille","lat":43.337238,"lon":5.391755,"is_reserved":false,"is_disabled":false,"rental_uris":{"android":"levelo://app?vid=8af6642b-e526-4770-8a06-6b115e68c32b","ios":"levelo://app?vid=8af6642b-e526-4770-8a06-6b115e68c32b"},"vehicle_type_id":"4","last_reported":1704182968,"current_range_meters":21600,"station_id":"ce4bhr92rcd13ifvqhsg","pricing_plan_id":"free"},{"bike_id":"78bb1215-3373-4d3f-b7bd-f79703d6e8c0","system_id":"levelo_inurba_marseille","lat":43.323464,"lon":5.406297,"is_reserved":false,"is_disabled":false,"rental_uris":{"android":"levelo://app?vid=78bb1215-3373-4d3f-b7bd-f79703d6e8c0","ios":"levelo://app?vid=78bb1215-3373-4d3f-b7bd-f79703d6e8c0"},"vehicle_type_id":"4","last_reported":1704182968,"current_range_meters":27200,"station_id":"ce4bhq92rcd13ifvqhjg","pricing_plan_id":"free"},{"bike_id":"d3837f57-b992-4c84-a0a7-b545d2582111","system_id":"levelo_inurba_marseille","lat":43.323464,"lon":5.406297,"is_reserved":false,"is_disabled":false,"rental_uris":{"android":"levelo://app?vid=d3837f57-b992-4c84-a0a7-b545d2582111","ios":"levelo://app?vid=d3837f57-b992-4c84-a0a7-b545d2582111"},"vehicle_type_id":"4","last_reported":1704182968,"current_range_meters":30000,"station_id":"ce4bhq92rcd13ifvqhjg","pricing_plan_id":"free"},{"bike_id":"1860c054-e673-4084-804e-8832a59aeb53","system_id":"levelo_inurba_marseille","lat":43.337168,"lon":5.391825,"is_reserved":false,"is_disabled":false,"rental_uris":{"android":"levelo://app?vid=1860c054-e673-4084-804e-8832a59aeb53","ios":"levelo://app?vid=1860c054-e673-4084-804e-8832a59aeb53"},"vehicle_type_id":"4","last_reported":1704182968,"current_range_meters":24400,"station_id":"ce4bhr92rcd13ifvqhsg","pricing_plan_id":"free"},{"bike_id":"279c24e1-5891-4e70-a317-d0f5cce47927","system_id":"levelo_inurba_marseille","lat":43.323464,"lon":5.406297,"is_reserved":false,"is_disabled":false,"rental_uris":{"android":"levelo://app?vid=279c24e1-5891-4e70-a317-d0f5cce47927","ios":"levelo://app?vid=279c24e1-5891-4e70-a317-d0f5cce47927"},"vehicle_type_id":"4","last_reported":1704182968,"current_range_meters":28800,"station_id":"ce4bhq92rcd13ifvqhjg","pricing_plan_id":"free"},{"bike_id":"3a34192a-8b34-47a6-8d79-245a33690514","system_id":"levelo_inurba_marseille","lat":43.33717,"lon":5.391857,"is_reserved":false,"is_disabled":false,"rental_uris":{"android":"levelo://app?vid=3a34192a-8b34-47a6-8d79-245a33690514","ios":"levelo://app?vid=3a34192a-8b34-47a6-8d79-245a33690514"},"vehicle_type_id":"4","last_reported":1704182968,"current_range_meters":23600,"station_id":"ce4bhr92rcd13ifvqhsg","pricing_plan_id":"free"},{"bike_id":"13963b5c-6eb9-4703-9b41-8f47ef84533a","system_id":"levelo_inurba_marseille","lat":43.289363,"lon":5.396322,"is_reserved":false,"is_disabled":false,"rental_uris":{"android":"levelo://app?vid=13963b5c-6eb9-4703-9b41-8f47ef84533a","ios":"levelo://app?vid=13963b5c-6eb9-4703-9b41-8f47ef84533a"},"vehicle_type_id":"4","last_reported":1704182968,"current_range_meters":26800,"station_id":"ce4bh3h2rcd13ifvqdn0","pricing_plan_id":"free"},{"bike_id":"b301e2fd-cbc3-4fa0-828a-b7bb0536d00b","system_id":"levelo_inurba_marseille","lat":43.289363,"lon":5.396322,"is_reserved":false,"is_disabled":false,"rental_uris":{"android":"levelo://app?vid=b301e2fd-cbc3-4fa0-828a-b7bb0536d00b","ios":"levelo://app?vid=b301e2fd-cbc3-4fa0-828a-b7bb0536d00b"},"vehicle_type_id":"4","last_reported":1704182968,"current_range_meters":30000,"station_id":"ce4bh3h2rcd13ifvqdn0","pricing_plan_id":"free"},{"bike_id":"ba14a969-9907-4b0a-bcc6-386c9ce27015","system_id":"levelo_inurba_marseille","lat":43.303046,"lon":5.368981,"is_reserved":false,"is_disabled":false,"rental_uris":{"android":"levelo://app?vid=ba14a969-9907-4b0a-bcc6-386c9ce27015","ios":"levelo://app?vid=ba14a969-9907-4b0a-bcc6-386c9ce27015"},"vehicle_type_id":"4","last_reported":1704182968,"current_range_meters":6400,"station_id":"ce4bgqh2rcd13ifvqc5g","pricing_plan_id":"free"},{"bike_id":"3e52ba98-a074-4115-bfe1-6d6d2ca2f3a5","system_id":"levelo_inurba_marseille","lat":43.282695,"lon":5.350812,"is_reserved":false,"is_disabled":false,"rental_uris":{"android":"levelo://app?vid=3e52ba98-a074-4115-bfe1-6d6d2ca2f3a5","ios":"levelo://app?vid=3e52ba98-a074-4115-bfe1-6d6d2ca2f3a5"},"vehicle_type_id":"4","last_reported":1704182968,"current_range_meters":22000,"station_id":"ce4bhbp2rcd13ifvqerg","pricing_plan_id":"free"},{"bike_id":"c43aa574-a203-4e6f-b97e-125a5a276c8a","system_id":"levelo_inurba_marseille","lat":43.282629,"lon":5.350723,"is_reserved":false,"is_disabled":false,"rental_uris":{"android":"levelo://app?vid=c43aa574-a203-4e6f-b97e-125a5a276c8a","ios":"levelo://app?vid=c43aa574-a203-4e6f-b97e-125a5a276c8a"},"vehicle_type_id":"4","last_reported":1704182968,"current_range_meters":19600,"station_id":"","pricing_plan_id":"free"},{"bike_id":"71aa4866-bf61-436c-8d67-5503afe5dda5","system_id":"levelo_inurba_marseille","lat":43.280382,"lon":5.369291,"is_reserved":false,"is_disabled":false,"rental_uris":{"android":"levelo://app?vid=71aa4866-bf61-436c-8d67-5503afe5dda5","ios":"levelo://app?vid=71aa4866-bf61-436c-8d67-5503afe5dda5"},"vehicle_type_id":"4","last_reported":1704182968,"current_range_meters":31200,"station_id":"ce4bha12rcd13ifvqef0","pricing_plan_id":"free"},{"bike_id":"2b30b89d-9ea3-48cf-88d7-4f0ac9bdcd13","system_id":"levelo_inurba_marseille","lat":43.28039,"lon":5.369297,"is_reserved":false,"is_disabled":false,"rental_uris":{"android":"levelo://app?vid=2b30b89d-9ea3-48cf-88d7-4f0ac9bdcd13","ios":"levelo://app?vid=2b30b89d-9ea3-48cf-88d7-4f0ac9bdcd13"},"vehicle_type_id":"4","last_reported":1704182968,"current_range_meters":30800,"station_id":"ce4bha12rcd13ifvqef0","pricing_plan_id":"free"},{"bike_id":"df044df3-dc84-4895-9b9a-0c47d09763a4","system_id":"levelo_inurba_marseille","lat":43.28039,"lon":5.369297,"is_reserved":false,"is_disabled":false,"rental_uris":{"android":"levelo://app?vid=df044df3-dc84-4895-9b9a-0c47d09763a4","ios":"levelo://app?vid=df044df3-dc84-4895-9b9a-0c47d09763a4"},"vehicle_type_id":"4","last_reported":1704182968,"current_range_meters":30400,"station_id":"ce4bha12rcd13ifvqef0","pricing_plan_id":"free"},{"bike_id":"7a1beebc-52c8-47ad-9484-9d71ab7861e3","system_id":"levelo_inurba_marseille","lat":43.28039,"lon":5.369297,"is_reserved":false,"is_disabled":false,"rental_uris":{"android":"levelo://app?vid=7a1beebc-52c8-47ad-9484-9d71ab7861e3","ios":"levelo://app?vid=7a1beebc-52c8-47ad-9484-9d71ab7861e3"},"vehicle_type_id":"4","last_reported":1704182968,"current_range_meters":24000,"station_id":"ce4bha12rcd13ifvqef0","pricing_plan_id":"free"},{"bike_id":"71bfa987-0717-402c-90fc-719984464e12","system_id":"levelo_inurba_marseille","lat":43.280382,"lon":5.369291,"is_reserved":false,"is_disabled":false,"rental_uris":{"android":"levelo://app?vid=71bfa987-0717-402c-90fc-719984464e12","ios":"levelo://app?vid=71bfa987-0717-402c-90fc-719984464e12"},"vehicle_type_id":"4","last_reported":1704182968,"current_range_meters":31200,"station_id":"ce4bha12rcd13ifvqef0","pricing_plan_id":"free"},{"bike_id":"d76edd99-55f9-4d6c-8fd6-b4f40ca35714","system_id":"levelo_inurba_marseille","lat":43.29041,"lon":5.399634,"is_reserved":false,"is_disabled":false,"rental_uris":{"android":"levelo://app?vid=d76edd99-55f9-4d6c-8fd6-b4f40ca35714","ios":"levelo://app?vid=d76edd99-55f9-4d6c-8fd6-b4f40ca35714"},"vehicle_type_id":"4","last_reported":1704182968,"current_range_meters":20800,"station_id":"ce4bh392rcd13ifvqdm0","pricing_plan_id":"free"},{"bike_id":"012c0977-b67b-4a6e-9c02-a9108323d301","system_id":"levelo_inurba_marseille","lat":43.29041,"lon":5.399634,"is_reserved":false,"is_disabled":false,"rental_uris":{"android":"levelo://app?vid=012c0977-b67b-4a6e-9c02-a9108323d301","ios":"levelo://app?vid=012c0977-b67b-4a6e-9c02-a9108323d301"},"vehicle_type_id":"4","last_reported":1704182968,"current_range_meters":27200,"station_id":"ce4bh392rcd13ifvqdm0","pricing_plan_id":"free"},{"bike_id":"63ef493a-db4b-4496-ad1b-ba396f3c1336","system_id":"levelo_inurba_marseille","lat":43.336134,"lon":5.410341,"is_reserved":false,"is_disabled":false,"rental_uris":{"android":"levelo://app?vid=63ef493a-db4b-4496-ad1b-ba396f3c1336","ios":"levelo://app?vid=63ef493a-db4b-4496-ad1b-ba396f3c1336"},"vehicle_type_id":"4","last_reported":1704182968,"current_range_meters":27200,"station_id":"ce4bhqh2rcd13ifvqhmg","pricing_plan_id":"free"},{"bike_id":"ae7b963c-548e-4ed0-aa69-78dfa683e3ec","system_id":"levelo_inurba_marseille","lat":43.304188,"lon":5.412904,"is_reserved":false,"is_disabled":false,"rental_uris":{"android":"levelo://app?vid=ae7b963c-548e-4ed0-aa69-78dfa683e3ec","ios":"levelo://app?vid=ae7b963c-548e-4ed0-aa69-78dfa683e3ec"},"vehicle_type_id":"4","last_reported":1704182968,"current_range_meters":21200,"station_id":"ce4bhop2rcd13ifvqh8g","pricing_plan_id":"free"},{"bike_id":"8d99157a-021a-4dad-8a19-55df725fcd7f","system_id":"levelo_inurba_marseille","lat":43.28709,"lon":5.39972,"is_reserved":false,"is_disabled":false,"rental_uris":{"android":"levelo://app?vid=8d99157a-021a-4dad-8a19-55df725fcd7f","ios":"levelo://app?vid=8d99157a-021a-4dad-8a19-55df725fcd7f"},"vehicle_type_id":"4","last_reported":1704182968,"current_range_meters":1200,"station_id":"ce4bho92rcd13ifvqh3g","pricing_plan_id":"free"},{"bike_id":"8571ddf1-8157-46ba-b747-ea46713afd05","system_id":"levelo_inurba_marseille","lat":43.292817,"lon":5.406556,"is_reserved":false,"is_disabled":false,"rental_uris":{"android":"levelo://app?vid=8571ddf1-8157-46ba-b747-ea46713afd05","ios":"levelo://app?vid=8571ddf1-8157-46ba-b747-ea46713afd05"},"vehicle_type_id":"4","last_reported":1704182968,"current_range_meters":0,"station_id":"","pricing_plan_id":"free"},{"bike_id":"8ac5f70f-ef3b-47c3-81be-ad0eaf6a4eee","system_id":"levelo_inurba_marseille","lat":43.279087,"lon":5.380114,"is_reserved":false,"is_disabled":false,"rental_uris":{"android":"levelo://app?vid=8ac5f70f-ef3b-47c3-81be-ad0eaf6a4eee","ios":"levelo://app?vid=8ac5f70f-ef3b-47c3-81be-ad0eaf6a4eee"},"vehicle_type_id":"4","last_reported":1704182968,"current_range_meters":31200,"station_id":"ce4bhf92rcd13ifvqf50","pricing_plan_id":"free"},{"bike_id":"45120a21-f343-45ce-8fb6-e06904f75898","system_id":"levelo_inurba_marseille","lat":43.320045,"lon":5.415046,"is_reserved":false,"is_disabled":false,"rental_uris":{"android":"levelo://app?vid=45120a21-f343-45ce-8fb6-e06904f75898","ios":"levelo://app?vid=45120a21-f343-45ce-8fb6-e06904f75898"},"vehicle_type_id":"4","last_reported":1704182968,"current_range_meters":31200,"station_id":"ce4bhq92rcd13ifvqhkg","pricing_plan_id":"free"},{"bike_id":"615ddd57-fea9-4bbf-bf62-13fe65a025c6","system_id":"levelo_inurba_marseille","lat":43.320045,"lon":5.415048,"is_reserved":false,"is_disabled":false,"rental_uris":{"android":"levelo://app?vid=615ddd57-fea9-4bbf-bf62-13fe65a025c6","ios":"levelo://app?vid=615ddd57-fea9-4bbf-bf62-13fe65a025c6"},"vehicle_type_id":"4","last_reported":1704182968,"current_range_meters":29600,"station_id":"ce4bhq92rcd13ifvqhkg","pricing_plan_id":"free"},{"bike_id":"e9e342a5-71f4-448a-a0e1-6ff4791eca67","system_id":"levelo_inurba_marseille","lat":43.320045,"lon":5.415046,"is_reserved":false,"is_disabled":false,"rental_uris":{"android":"levelo://app?vid=e9e342a5-71f4-448a-a0e1-6ff4791eca67","ios":"levelo://app?vid=e9e342a5-71f4-448a-a0e1-6ff4791eca67"},"vehicle_type_id":"4","last_reported":1704182968,"current_range_meters":31200,"station_id":"ce4bhq92rcd13ifvqhkg","pricing_plan_id":"free"},{"bike_id":"8767afb3-dc37-4d3e-ba61-0cf61a7b9ca6","system_id":"levelo_inurba_marseille","lat":43.279742,"lon":5.38744,"is_reserved":false,"is_disabled":false,"rental_uris":{"android":"levelo://app?vid=8767afb3-dc37-4d3e-ba61-0cf61a7b9ca6","ios":"levelo://app?vid=8767afb3-dc37-4d3e-ba61-0cf61a7b9ca6"},"vehicle_type_id":"4","last_reported":1704182968,"current_range_meters":24800,"station_id":"ce4bhg12rcd13ifvqf80","pricing_plan_id":"free"},{"bike_id":"2f41f150-7bb5-4002-b38a-0ce76b98f154","system_id":"levelo_inurba_marseille","lat":43.279742,"lon":5.38744,"is_reserved":false,"is_disabled":false,"rental_uris":{"android":"levelo://app?vid=2f41f150-7bb5-4002-b38a-0ce76b98f154","ios":"levelo://app?vid=2f41f150-7bb5-4002-b38a-0ce76b98f154"},"vehicle_type_id":"4","last_reported":1704182968,"current_range_meters":11600,"station_id":"ce4bhg12rcd13ifvqf80","pricing_plan_id":"free"},{"bike_id":"493c529d-4816-4d54-82ca-cf1d3517820d","system_id":"levelo_inurba_marseille","lat":43.325233,"lon":5.414318,"is_reserved":false,"is_disabled":false,"rental_uris":{"android":"levelo://app?vid=493c529d-4816-4d54-82ca-cf1d3517820d","ios":"levelo://app?vid=493c529d-4816-4d54-82ca-cf1d3517820d"},"vehicle_type_id":"4","last_reported":1704182968,"current_range_meters":400,"station_id":"ce4bhq12rcd13ifvqhhg","pricing_plan_id":"free"},{"bike_id":"d3abb5f8-8a93-4a1e-982d-f1affaa007d8","system_id":"levelo_inurba_marseille","lat":43.29258,"lon":5.40911,"is_reserved":false,"is_disabled":false,"rental_uris":{"android":"levelo://app?vid=d3abb5f8-8a93-4a1e-982d-f1affaa007d8","ios":"levelo://app?vid=d3abb5f8-8a93-4a1e-982d-f1affaa007d8"},"vehicle_type_id":"4","last_reported":1704182968,"current_range_meters":17200,"station_id":"ce4bh192rcd13ifvqdc0","pricing_plan_id":"free"},{"bike_id":"ca4055b3-d008-4786-8332-bfadda048e8a","system_id":"levelo_inurba_marseille","lat":43.292569,"lon":5.409107,"is_reserved":false,"is_disabled":false,"rental_uris":{"android":"levelo://app?vid=ca4055b3-d008-4786-8332-bfadda048e8a","ios":"levelo://app?vid=ca4055b3-d008-4786-8332-bfadda048e8a"},"vehicle_type_id":"4","last_reported":1704182968,"current_range_meters":20400,"station_id":"ce4bh192rcd13ifvqdc0","pricing_plan_id":"free"},{"bike_id":"260996b3-629f-4165-8d4f-a2b7e8c47d75","system_id":"levelo_inurba_marseille","lat":43.325243,"lon":5.414326,"is_reserved":false,"is_disabled":false,"rental_uris":{"android":"levelo://app?vid=260996b3-629f-4165-8d4f-a2b7e8c47d75","ios":"levelo://app?vid=260996b3-629f-4165-8d4f-a2b7e8c47d75"},"vehicle_type_id":"4","last_reported":1704182968,"current_range_meters":29600,"station_id":"ce4bhq12rcd13ifvqhhg","pricing_plan_id":"free"},{"bike_id":"e157411b-327b-4c83-b832-f2246a553200","system_id":"levelo_inurba_marseille","lat":43.283169,"lon":5.401575,"is_reserved":false,"is_disabled":false,"rental_uris":{"android":"levelo://app?vid=e157411b-327b-4c83-b832-f2246a553200","ios":"levelo://app?vid=e157411b-327b-4c83-b832-f2246a553200"},"vehicle_type_id":"4","last_reported":1704182968,"current_range_meters":6400,"station_id":"","pricing_plan_id":"free"},{"bike_id":"abead95e-245f-4d7a-ab0e-8c4d4145d43e","system_id":"levelo_inurba_marseille","lat":43.2738,"lon":5.36253,"is_reserved":false,"is_disabled":false,"rental_uris":{"android":"levelo://app?vid=abead95e-245f-4d7a-ab0e-8c4d4145d43e","ios":"levelo://app?vid=abead95e-245f-4d7a-ab0e-8c4d4145d43e"},"vehicle_type_id":"4","last_reported":1704182968,"current_range_meters":25200,"station_id":"ce4bhbh2rcd13ifvqeo0","pricing_plan_id":"free"},{"bike_id":"621eb3fe-4e0f-46e0-bb2d-95d3bea6b00a","system_id":"levelo_inurba_marseille","lat":43.273613,"lon":5.362705,"is_reserved":false,"is_disabled":false,"rental_uris":{"android":"levelo://app?vid=621eb3fe-4e0f-46e0-bb2d-95d3bea6b00a","ios":"levelo://app?vid=621eb3fe-4e0f-46e0-bb2d-95d3bea6b00a"},"vehicle_type_id":"4","last_reported":1704182968,"current_range_meters":16400,"station_id":"ce4bhbh2rcd13ifvqeo0","pricing_plan_id":"free"},{"bike_id":"366bd621-cb93-4be6-8982-d8deb2c3a5b1","system_id":"levelo_inurba_marseille","lat":43.27557,"lon":5.38411,"is_reserved":false,"is_disabled":false,"rental_uris":{"android":"levelo://app?vid=366bd621-cb93-4be6-8982-d8deb2c3a5b1","ios":"levelo://app?vid=366bd621-cb93-4be6-8982-d8deb2c3a5b1"},"vehicle_type_id":"4","last_reported":1704182968,"current_range_meters":31200,"station_id":"ce4bhh92rcd13ifvqfi0","pricing_plan_id":"free"},{"bike_id":"a784471a-3816-4581-9e40-3d9018e15d1e","system_id":"levelo_inurba_marseille","lat":43.276771,"lon":5.388799,"is_reserved":false,"is_disabled":false,"rental_uris":{"android":"levelo://app?vid=a784471a-3816-4581-9e40-3d9018e15d1e","ios":"levelo://app?vid=a784471a-3816-4581-9e40-3d9018e15d1e"},"vehicle_type_id":"4","last_reported":1704182968,"current_range_meters":22000,"station_id":"ce4bhi12rcd13ifvqfo0","pricing_plan_id":"free"},{"bike_id":"cd61c856-4c6d-47b2-9b1f-fb847d06698a","system_id":"levelo_inurba_marseille","lat":43.276771,"lon":5.388799,"is_reserved":false,"is_disabled":false,"rental_uris":{"android":"levelo://app?vid=cd61c856-4c6d-47b2-9b1f-fb847d06698a","ios":"levelo://app?vid=cd61c856-4c6d-47b2-9b1f-fb847d06698a"},"vehicle_type_id":"4","last_reported":1704182968,"current_range_meters":22800,"station_id":"ce4bhi12rcd13ifvqfo0","pricing_plan_id":"free"},{"bike_id":"40a6490a-7a82-4760-aa4e-e343f1aa848b","system_id":"levelo_inurba_marseille","lat":43.279952,"lon":5.400085,"is_reserved":false,"is_disabled":false,"rental_uris":{"android":"levelo://app?vid=40a6490a-7a82-4760-aa4e-e343f1aa848b","ios":"levelo://app?vid=40a6490a-7a82-4760-aa4e-e343f1aa848b"},"vehicle_type_id":"4","last_reported":1704182968,"current_range_meters":8800,"station_id":"ce4bho92rcd13ifvqh4g","pricing_plan_id":"free"},{"bike_id":"b2e64161-bed0-442d-9e12-361d365ea82c","system_id":"levelo_inurba_marseille","lat":43.279952,"lon":5.400085,"is_reserved":false,"is_disabled":false,"rental_uris":{"android":"levelo://app?vid=b2e64161-bed0-442d-9e12-361d365ea82c","ios":"levelo://app?vid=b2e64161-bed0-442d-9e12-361d365ea82c"},"vehicle_type_id":"4","last_reported":1704182968,"current_range_meters":27600,"station_id":"ce4bho92rcd13ifvqh4g","pricing_plan_id":"free"},{"bike_id":"6beee4bc-9e90-4161-be63-15ce7dd5d717","system_id":"levelo_inurba_marseille","lat":43.26681,"lon":5.382694,"is_reserved":false,"is_disabled":false,"rental_uris":{"android":"levelo://app?vid=6beee4bc-9e90-4161-be63-15ce7dd5d717","ios":"levelo://app?vid=6beee4bc-9e90-4161-be63-15ce7dd5d717"},"vehicle_type_id":"4","last_reported":1704182968,"current_range_meters":26800,"station_id":"ce4bhg92rcd13ifvqf90","pricing_plan_id":"free"},{"bike_id":"5e3452d0-bbc8-463b-8852-ec98e809d5a0","system_id":"levelo_inurba_marseille","lat":43.317121,"lon":5.423936,"is_reserved":false,"is_disabled":false,"rental_uris":{"android":"levelo://app?vid=5e3452d0-bbc8-463b-8852-ec98e809d5a0","ios":"levelo://app?vid=5e3452d0-bbc8-463b-8852-ec98e809d5a0"},"vehicle_type_id":"4","last_reported":1704182968,"current_range_meters":31200,"station_id":"ce4bhp92rcd13ifvqhbg","pricing_plan_id":"free"},{"bike_id":"4760841b-4fd7-4b7d-aef3-782de75b0909","system_id":"levelo_inurba_marseille","lat":43.317121,"lon":5.423936,"is_reserved":false,"is_disabled":false,"rental_uris":{"android":"levelo://app?vid=4760841b-4fd7-4b7d-aef3-782de75b0909","ios":"levelo://app?vid=4760841b-4fd7-4b7d-aef3-782de75b0909"},"vehicle_type_id":"4","last_reported":1704182968,"current_range_meters":22800,"station_id":"ce4bhp92rcd13ifvqhbg","pricing_plan_id":"free"},{"bike_id":"e2340435-a767-4a07-9db0-637fd4bce462","system_id":"levelo_inurba_marseille","lat":43.317121,"lon":5.423936,"is_reserved":false,"is_disabled":false,"rental_uris":{"android":"levelo://app?vid=e2340435-a767-4a07-9db0-637fd4bce462","ios":"levelo://app?vid=e2340435-a767-4a07-9db0-637fd4bce462"},"vehicle_type_id":"4","last_reported":1704182968,"current_range_meters":10800,"station_id":"ce4bhp92rcd13ifvqhbg","pricing_plan_id":"free"},{"bike_id":"f3e351f0-7ca3-497e-a450-69da3118abd7","system_id":"levelo_inurba_marseille","lat":43.317228,"lon":5.424065,"is_reserved":false,"is_disabled":false,"rental_uris":{"android":"levelo://app?vid=f3e351f0-7ca3-497e-a450-69da3118abd7","ios":"levelo://app?vid=f3e351f0-7ca3-497e-a450-69da3118abd7"},"vehicle_type_id":"4","last_reported":1704182968,"current_range_meters":25600,"station_id":"ce4bhp92rcd13ifvqhbg","pricing_plan_id":"free"},{"bike_id":"0b58813f-f92e-40a9-9622-0bc5db8ae6da","system_id":"levelo_inurba_marseille","lat":43.340804,"lon":5.410219,"is_reserved":false,"is_disabled":false,"rental_uris":{"android":"levelo://app?vid=0b58813f-f92e-40a9-9622-0bc5db8ae6da","ios":"levelo://app?vid=0b58813f-f92e-40a9-9622-0bc5db8ae6da"},"vehicle_type_id":"4","last_reported":1704182968,"current_range_meters":28000,"station_id":"ce4bhqh2rcd13ifvqhlg","pricing_plan_id":"free"},{"bike_id":"d7a0f436-4a10-430d-9dfa-fb613b9a9e9c","system_id":"levelo_inurba_marseille","lat":43.340804,"lon":5.410219,"is_reserved":false,"is_disabled":false,"rental_uris":{"android":"levelo://app?vid=d7a0f436-4a10-430d-9dfa-fb613b9a9e9c","ios":"levelo://app?vid=d7a0f436-4a10-430d-9dfa-fb613b9a9e9c"},"vehicle_type_id":"4","last_reported":1704182968,"current_range_meters":19600,"station_id":"ce4bhqh2rcd13ifvqhlg","pricing_plan_id":"free"},{"bike_id":"47f8cb60-186e-4e83-96aa-050d47af2974","system_id":"levelo_inurba_marseille","lat":43.34143,"lon":5.409073,"is_reserved":false,"is_disabled":false,"rental_uris":{"android":"levelo://app?vid=47f8cb60-186e-4e83-96aa-050d47af2974","ios":"levelo://app?vid=47f8cb60-186e-4e83-96aa-050d47af2974"},"vehicle_type_id":"4","last_reported":1704182968,"current_range_meters":13200,"station_id":"ce4bhqh2rcd13ifvqhlg","pricing_plan_id":"free"},{"bike_id":"47955a28-7025-4edc-8a9d-29af4a4ede15","system_id":"levelo_inurba_marseille","lat":43.273125,"lon":5.390731,"is_reserved":false,"is_disabled":false,"rental_uris":{"android":"levelo://app?vid=47955a28-7025-4edc-8a9d-29af4a4ede15","ios":"levelo://app?vid=47955a28-7025-4edc-8a9d-29af4a4ede15"},"vehicle_type_id":"4","last_reported":1704182968,"current_range_meters":16400,"station_id":"ce4bhgp2rcd13ifvqfe0","pricing_plan_id":"free"},{"bike_id":"6748dca9-dc18-476d-8b56-2af5261ccb7b","system_id":"levelo_inurba_marseille","lat":43.273129,"lon":5.390725,"is_reserved":false,"is_disabled":false,"rental_uris":{"android":"levelo://app?vid=6748dca9-dc18-476d-8b56-2af5261ccb7b","ios":"levelo://app?vid=6748dca9-dc18-476d-8b56-2af5261ccb7b"},"vehicle_type_id":"4","last_reported":1704182968,"current_range_meters":25200,"station_id":"ce4bhgp2rcd13ifvqfe0","pricing_plan_id":"free"},{"bike_id":"980bdf55-36c0-4193-95f3-df17d04022eb","system_id":"levelo_inurba_marseille","lat":43.273129,"lon":5.390725,"is_reserved":false,"is_disabled":false,"rental_uris":{"android":"levelo://app?vid=980bdf55-36c0-4193-95f3-df17d04022eb","ios":"levelo://app?vid=980bdf55-36c0-4193-95f3-df17d04022eb"},"vehicle_type_id":"4","last_reported":1704182968,"current_range_meters":24000,"station_id":"ce4bhgp2rcd13ifvqfe0","pricing_plan_id":"free"},