{"last_updated":1773893497,"ttl":60,"version":"2.2","data":{"bikes":[{"bike_id":"05fd0230-60dc-4569-9eab-e456bb9eec1a","system_id":"levelo_inurba_marseille","lat":43.30192,"lon":5.3661,"is_reserved":false,"is_disabled":false,"rental_uris":{"android":"levelo://app?vid=05fd0230-60dc-4569-9eab-e456bb9eec1a","ios":"levelo://app?vid=05fd0230-60dc-4569-9eab-e456bb9eec1a"},"vehicle_type_id":"4","last_reported":1773893498,"current_range_meters":2800,"station_id":"ce4bgrh2rcd13ifvqc8g","pricing_plan_id":"cebpf4jnsgd1na2vs0mg"},{"bike_id":"962cf687-1766-4156-9249-f2a9c2642346","system_id":"levelo_inurba_marseille","lat":43.28462,"lon":5.35877,"is_reserved":false,"is_disabled":false,"rental_uris":{"android":"levelo://app?vid=962cf687-1766-4156-9249-f2a9c2642346","ios":"levelo://app?vid=962cf687-1766-4156-9249-f2a9c2642346"},"vehicle_type_id":"4","last_reported":1773893498,"current_range_meters":2800,"station_id":"ce4bhah2rcd13ifvqei0","pricing_plan_id":"cebpf4jnsgd1na2vs0mg"},{"bike_id":"d9d3c79f-84fe-4e44-831f-c2b99f31301b","system_id":"levelo_inurba_marseille","lat":43.28694,"lon":5.39974,"is_reserved":false,"is_disabled":false,"rental_uris":{"android":"levelo://app?vid=d9d3c79f-84fe-4e44-831f-c2b99f31301b","ios":"levelo://app?vid=d9d3c79f-84fe-4e44-831f-c2b99f31301b"},"vehicle_type_id":"4","last_reported":1773893498,"current_range_meters":2800,"station_id":"ce4bho92rcd13ifvqh3g","pricing_plan_id":"cebpf4jnsgd1na2vs0mg"},{"bike_id":"b703c509-0a53-4f14-907b-c60fb0017c10","system_id":"levelo_inurba_marseille","lat":43.31113,"lon":5.37225,"is_reserved":false,"is_disabled":false,"rental_uris":{"android":"levelo://app?vid=b703c509-0a53-4f14-907b-c60fb0017c10","ios":"levelo://app?vid=b703c509-0a53-4f14-907b-c60fb0017c10"},"vehicle_type_id":"4","last_reported":1773893498,"current_range_meters":2800,"station_id":"","pricing_plan_id":"cebpf4jnsgd1na2vs0mg"},{"bike_id":"6fcbd6f2-b10e-41dd-89c8-b9dc240b5610","system_id":"levelo_inurba_marseille","lat":43.24624,"lon":5.43139,"is_reserved":false,"is_disabled":false,"rental_uris":{"android":"levelo://app?vid=6fcbd6f2-b10e-41dd-89c8-b9dc240b5610","ios":"levelo://app?vid=6fcbd6f2-b10e-41dd-89c8-b9dc240b5610"},"vehicle_type_id":"4","last_reported":1773893498,"current_range_meters":2800,"station_id":"","pricing_plan_id":"cebpf4jnsgd1na2vs0mg"},{"bike_id":"953941a9-3563-489d-aba9-d6cd35a24b9e","system_id":"levelo_inurba_marseille","lat":43.29111,"lon":5.38158,"is_reserved":false,"is_disabled":false,"rental_uris":{"android":"levelo://app?vid=953941a9-3563-489d-aba9-d6cd35a24b9e","ios":"levelo://app?vid=953941a9-3563-489d-aba9-d6cd35a24b9e"},"vehicle_type_id":"4","last_reported":1773893498,"current_range_meters":2800,"station_id":"ce4bh512rcd13ifvqe2g","pricing_plan_id":"cebpf4jnsgd1na2vs0mg"},{"bike_id":"7e372e61-a4a4-4320-b78e-0115edf72ed5","system_id":"levelo_inurba_marseille","lat":43.24168,"lon":5.36411,"is_reserved":false,"is_disabled":true,"rental_uris":{"android":"levelo://app?vid=7e372e61-a4a4-4320-b78e-0115edf72ed5","ios":"levelo://app?vid=7e372e61-a4a4-4320-b78e-0115edf72ed5"},"vehicle_type_id":"4","last_reported":1773893498,"current_range_meters":2800,"station_id":"cpo36qri1sfpv3e86is0","pricing_plan_id":"cebpf4jnsgd1na2vs0mg"},{"bike_id":"1adf8c04-7580-426e-b716-1d11bde4d9a1","system_id":"levelo_inurba_marseille","lat":43.2953,"lon":5.40095,"is_reserved":false,"is_disabled":false,"rental_uris":{"android":"levelo://app?vid=1adf8c04-7580-426e-b716-1d11bde4d9a1","ios":"levelo://app?vid=1adf8c04-7580-426e-b716-1d11bde4d9a1"},"vehicle_type_id":"4","last_reported":1773893498,"current_range_meters":2800,"station_id":"","pricing_plan_id":"cebpf4jnsgd1na2vs0mg"},{"bike_id":"79ed368d-bb42-4990-9180-c743e278b183","system_id":"levelo_inurba_marseille","lat":43.29575,"lon":5.39979,"is_reserved":false,"is_disabled":false,"rental_uris":{"android":"levelo://app?vid=79ed368d-bb42-4990-9180-c743e278b183","ios":"levelo://app?vid=79ed368d-bb42-4990-9180-c743e278b183"},"vehicle_type_id":"4","last_reported":1773893498,"current_range_meters":2800,"station_id":"ce4bh312rcd13ifvqdj0","pricing_plan_id":"cebpf4jnsgd1na2vs0mg"},{"bike_id":"09d43caa-a3b5-4d9f-b2fc-53bcc0d772da","system_id":"levelo_inurba_marseille","lat":43.30894,"lon":5.38679,"is_reserved":false,"is_disabled":false,"rental_uris":{"android":"levelo://app?vid=09d43caa-a3b5-4d9f-b2fc-53bcc0d772da","ios":"levelo://app?vid=09d43caa-a3b5-4d9f-b2fc-53bcc0d772da"},"vehicle_type_id":"4","last_reported":1773893498,"current_range_meters":2800,"station_id":"","pricing_plan_id":"cebpf4jnsgd1na2vs0mg"},{"bike_id":"a2211e71-206f-4e87-a705-3139361a1dca","system_id":"levelo_inurba_marseille","lat":43.29565,"lon":5.37505,"is_reserved":false,"is_disabled":false,"rental_uris":{"android":"levelo://app?vid=a2211e71-206f-4e87-a705-3139361a1dca","ios":"levelo://app?vid=a2211e71-206f-4e87-a705-3139361a1dca"},"vehicle_type_id":"4","last_reported":1773893498,"current_range_meters":2800,"station_id":"ce4bgh92rcd13ifvqb50","pricing_plan_id":"cebpf4jnsgd1na2vs0mg"},{"bike_id":"efa56788-fd95-4d6e-84ce-b31b80bc3dea","system_id":"levelo_inurba_marseille","lat":43.29265,"lon":5.37453,"is_reserved":false,"is_disabled":true,"rental_uris":{"android":"levelo://app?vid=efa56788-fd95-4d6e-84ce-b31b80bc3dea","ios":"levelo://app?vid=efa56788-fd95-4d6e-84ce-b31b80bc3dea"},"vehicle_type_id":"4","last_reported":1773893498,"current_range_meters":2800,"station_id":"ce4bgi12rcd13ifvqb70","pricing_plan_id":"cebpf4jnsgd1na2vs0mg"},{"bike_id":"383333ab-900a-4d8e-9e5f-5f8443133843","system_id":"levelo_inurba_marseille","lat":43.23973,"lon":5.36615,"is_reserved":false,"is_disabled":true,"rental_uris":{"android":"levelo://app?vid=383333ab-900a-4d8e-9e5f-5f8443133843","ios":"levelo://app?vid=383333ab-900a-4d8e-9e5f-5f8443133843"},"vehicle_type_id":"4","last_reported":1773893498,"current_range_meters":2800,"station_id":"ce4bhi12rcd13ifvqfp0","pricing_plan_id":"cebpf4jnsgd1na2vs0mg"},{"bike_id":"2874775b-146e-45de-9a13-98bbe699d55d","system_id":"levelo_inurba_marseille","lat":43.24597,"lon":5.43126,"is_reserved":false,"is_disabled":true,"rental_uris":{"android":"levelo://app?vid=2874775b-146e-45de-9a13-98bbe699d55d","ios":"levelo://app?vid=2874775b-146e-45de-9a13-98bbe699d55d"},"vehicle_type_id":"4","last_reported":1773893498,"current_range_meters":2800,"station_id":"","pricing_plan_id":"cebpf4jnsgd1na2vs0mg"},{"bike_id":"40b4c9a9-7a66-4906-8741-41c41b4ee56b","system_id":"levelo_inurba_marseille","lat":43.27077,"lon":5.42301,"is_reserved":false,"is_disabled":true,"rental_uris":{"android":"levelo://app?vid=40b4c9a9-7a66-4906-8741-41c41b4ee56b","ios":"levelo://app?vid=40b4c9a9-7a66-4906-8741-41c41b4ee56b"},"vehicle_type_id":"4","last_reported":1773893498,"current_range_meters":2800,"station_id":"ce4bhk92rcd13ifvqgb0","pricing_plan_id":"cebpf4jnsgd1na2vs0mg"},{"bike_id":"7e30f697-dc1a-4ce2-8b28-f08ce689358f","system_id":"levelo_inurba_marseille","lat":43.28667,"lon":5.38682,"is_reserved":false,"is_disabled":false,"rental_uris":{"android":"levelo://app?vid=7e30f697-dc1a-4ce2-8b28-f08ce689358f","ios":"levelo://app?vid=7e30f697-dc1a-4ce2-8b28-f08ce689358f"},"vehicle_type_id":"4","last_reported":1773893498,"current_range_meters":3200,"station_id":"ce4bh492rcd13ifvqdug","pricing_plan_id":"cebpf4jnsgd1na2vs0mg"},{"bike_id":"cb2c175e-fc1a-43c7-8316-e12b1c668a27","system_id":"levelo_inurba_marseille","lat":43.30536,"lon":5.36694,"is_reserved":false,"is_disabled":true,"rental_uris":{"android":"levelo://app?vid=cb2c175e-fc1a-43c7-8316-e12b1c668a27","ios":"levelo://app?vid=cb2c175e-fc1a-43c7-8316-e12b1c668a27"},"vehicle_type_id":"4","last_reported":1773893498,"current_range_meters":3200,"station_id":"ce4bgrp2rcd13ifvqc9g","pricing_plan_id":"cebpf4jnsgd1na2vs0mg"},{"bike_id":"7625077c-395e-489c-ba8d-b5a7ca86a10b","system_id":"levelo_inurba_marseille","lat":43.28947,"lon":5.36661,"is_reserved":false,"is_disabled":false,"rental_uris":{"android":"levelo://app?vid=7625077c-395e-489c-ba8d-b5a7ca86a10b","ios":"levelo://app?vid=7625077c-395e-489c-ba8d-b5a7ca86a10b"},"vehicle_type_id":"4","last_reported":1773893498,"current_range_meters":3200,"station_id":"ce4bhap2rcd13ifvqek0","pricing_plan_id":"cebpf4jnsgd1na2vs0mg"},{"bike_id":"3303be7d-5391-4c20-9032-2de127dfdf4f","system_id":"levelo_inurba_marseille","lat":43.25326,"lon":5.42182,"is_reserved":false,"is_disabled":false,"rental_uris":{"android":"levelo://app?vid=3303be7d-5391-4c20-9032-2de127dfdf4f","ios":"levelo://app?vid=3303be7d-5391-4c20-9032-2de127dfdf4f"},"vehicle_type_id":"4","last_reported":1773893498,"current_range_meters":3200,"station_id":"st_d2m65c5bi1j21697t3ng","pricing_plan_id":"cebpf4jnsgd1na2vs0mg"},{"bike_id":"e19bbcec-af9d-483d-ac29-18df3b9c0ab9","system_id":"levelo_inurba_marseille","lat":43.28481,"lon":5.48397,"is_reserved":false,"is_disabled":false,"rental_uris":{"android":"levelo://app?vid=e19bbcec-af9d-483d-ac29-18df3b9c0ab9","ios":"levelo://app?vid=e19bbcec-af9d-483d-ac29-18df3b9c0ab9"},"vehicle_type_id":"4","last_reported":1773893498,"current_range_meters":3200,"station_id":"st_d3svhcjqgbts73a3dn0g","pricing_plan_id":"cebpf4jnsgd1na2vs0mg"},{"bike_id":"e1282d04-f7b7-4606-b775-ed192685a5f4","system_id":"levelo_inurba_marseille","lat":43.24169,"lon":5.39669,"is_reserved":false,"is_disabled":true,"rental_uris":{"android":"levelo://app?vid=e1282d04-f7b7-4606-b775-ed192685a5f4","ios":"levelo://app?vid=e1282d04-f7b7-4606-b775-ed192685a5f4"},"vehicle_type_id":"4","last_reported":1773893498,"current_range_meters":3200,"station_id":"ce4bhn12rcd13ifvqgpg","pricing_plan_id":"cebpf4jnsgd1na2vs0mg"},{"bike_id":"f7cad0dd-4929-454b-8848-7575c69435e1","system_id":"levelo_inurba_marseille","lat":43.25851,"lon":5.39968,"is_reserved":false,"is_disabled":true,"rental_uris":{"android":"levelo://app?vid=f7cad0dd-4929-454b-8848-7575c69435e1","ios":"levelo://app?vid=f7cad0dd-4929-454b-8848-7575c69435e1"},"vehicle_type_id":"4","last_reported":1773893498,"current_range_meters":3200,"station_id":"ce4bhl92rcd13ifvqghg","pricing_plan_id":"cebpf4jnsgd1na2vs0mg"},{"bike_id":"7c27bbc1-43c8-4af1-8a34-48b79713d044","system_id":"levelo_inurba_marseille","lat":43.21188,"lon":5.35101,"is_reserved":false,"is_disabled":false,"rental_uris":{"android":"levelo://app?vid=7c27bbc1-43c8-4af1-8a34-48b79713d044","ios":"levelo://app?vid=7c27bbc1-43c8-4af1-8a34-48b79713d044"},"vehicle_type_id":"4","last_reported":1773893498,"current_range_meters":3200,"station_id":"st_cvj6sg6p6f1abm77japg","pricing_plan_id":"cebpf4jnsgd1na2vs0mg"},{"bike_id":"b6f89c1d-9d87-487c-842f-47d7637847b1","system_id":"levelo_inurba_marseille","lat":43.2757,"lon":5.38427,"is_reserved":false,"is_disabled":false,"rental_uris":{"android":"levelo://app?vid=b6f89c1d-9d87-487c-842f-47d7637847b1","ios":"levelo://app?vid=b6f89c1d-9d87-487c-842f-47d7637847b1"},"vehicle_type_id":"4","last_reported":1773893498,"current_range_meters":3200,"station_id":"ce4bhh92rcd13ifvqfi0","pricing_plan_id":"cebpf4jnsgd1na2vs0mg"},{"bike_id":"998452df-0edc-4d34-89de-6fb63967106a","system_id":"levelo_inurba_marseille","lat":43.28727,"lon":5.36093,"is_reserved":false,"is_disabled":false,"rental_uris":{"android":"levelo://app?vid=998452df-0edc-4d34-89de-6fb63967106a","ios":"levelo://app?vid=998452df-0edc-4d34-89de-6fb63967106a"},"vehicle_type_id":"4","last_reported":1773893498,"current_range_meters":3200,"station_id":"cki0cbj6b192h4jlfktg","pricing_plan_id":"cebpf4jnsgd1na2vs0mg"},{"bike_id":"e0d66154-72b7-4bdd-980a-af9bf9fd7239","system_id":"levelo_inurba_marseille","lat":43.315,"lon":5.37971,"is_reserved":false,"is_disabled":false,"rental_uris":{"android":"levelo://app?vid=e0d66154-72b7-4bdd-980a-af9bf9fd7239","ios":"levelo://app?vid=e0d66154-72b7-4bdd-980a-af9bf9fd7239"},"vehicle_type_id":"4","last_reported":1773893498,"current_range_meters":3200,"station_id":"ce4bhsp2rcd13ifvqi50","pricing_plan_id":"cebpf4jnsgd1na2vs0mg"},{"bike_id":"34055039-8545-4d43-80d6-26e8f4a0761a","system_id":"levelo_inurba_marseille","lat":43.301,"lon":5.39084,"is_reserved":false,"is_disabled":false,"rental_uris":{"android":"levelo://app?vid=34055039-8545-4d43-80d6-26e8f4a0761a","ios":"levelo://app?vid=34055039-8545-4d43-80d6-26e8f4a0761a"},"vehicle_type_id":"4","last_reported":1773893498,"current_range_meters":3200,"station_id":"ce4bh192rcd13ifvqdb0","pricing_plan_id":"cebpf4jnsgd1na2vs0mg"},{"bike_id":"56dcd5b8-7d88-4ae7-bf9a-0c90a40ff724","system_id":"levelo_inurba_marseille","lat":43.31196,"lon":5.38711,"is_reserved":false,"is_disabled":true,"rental_uris":{"android":"levelo://app?vid=56dcd5b8-7d88-4ae7-bf9a-0c90a40ff724","ios":"levelo://app?vid=56dcd5b8-7d88-4ae7-bf9a-0c90a40ff724"},"vehicle_type_id":"4","last_reported":1773893498,"current_range_meters":3200,"station_id":"ce4bgv12rcd13ifvqcp0","pricing_plan_id":"cebpf4jnsgd1na2vs0mg"},{"bike_id":"b9f2e5d5-d6ac-4c0d-86f2-4fe1a54ef3b3","system_id":"levelo_inurba_marseille","lat":43.32109,"lon":5.3677,"is_reserved":false,"is_disabled":false,"rental_uris":{"android":"levelo://app?vid=b9f2e5d5-d6ac-4c0d-86f2-4fe1a54ef3b3","ios":"levelo://app?vid=b9f2e5d5-d6ac-4c0d-86f2-4fe1a54ef3b3"},"vehicle_type_id":"4","last_reported":1773893498,"current_range_meters":3200,"station_id":"ce4bhrh2rcd13ifvqhug","pricing_plan_id":"cebpf4jnsgd1na2vs0mg"},{"bike_id":"bc779277-83d8-4018-8e28-f5b81cfcbde4","system_id":"levelo_inurba_marseille","lat":43.25484,"lon":5.37669,"is_reserved":false,"is_disabled":false,"rental_uris":{"android":"levelo://app?vid=bc779277-83d8-4018-8e28-f5b81cfcbde4","ios":"levelo://app?vid=bc779277-83d8-4018-8e28-f5b81cfcbde4"},"vehicle_type_id":"4","last_reported":1773893498,"current_range_meters":3600,"station_id":"ce4bhh12rcd13ifvqff0","pricing_plan_id":"cebpf4jnsgd1na2vs0mg"},{"bike_id":"b372e9b7-cab4-4a52-a098-286e2f1a8b02","system_id":"levelo_inurba_marseille","lat":43.2996,"lon":5.36514,"is_reserved":false,"is_disabled":false,"rental_uris":{"android":"levelo://app?vid=b372e9b7-cab4-4a52-a098-286e2f1a8b02","ios":"levelo://app?vid=b372e9b7-cab4-4a52-a098-286e2f1a8b02"},"vehicle_type_id":"4","last_reported":1773893498,"current_range_meters":3600,"station_id":"ce4bgm92rcd13ifvqbr0","pricing_plan_id":"cebpf4jnsgd1na2vs0mg"},{"bike_id":"e563383a-8a89-4304-b11f-18268886193e","system_id":"levelo_inurba_marseille","lat":43.25572,"lon":5.38234,"is_reserved":false,"is_disabled":false,"rental_uris":{"android":"levelo://app?vid=e563383a-8a89-4304-b11f-18268886193e","ios":"levelo://app?vid=e563383a-8a89-4304-b11f-18268886193e"},"vehicle_type_id":"4","last_reported":1773893498,"current_range_meters":3600,"station_id":"ce4bhih2rcd13ifvqfs0","pricing_plan_id":"cebpf4jnsgd1na2vs0mg"},{"bike_id":"daa4d2c5-b151-4bf6-bf3d-4d2c43839aea","system_id":"levelo_inurba_marseille","lat":43.27559,"lon":5.38405,"is_reserved":false,"is_disabled":false,"rental_uris":{"android":"levelo://app?vid=daa4d2c5-b151-4bf6-bf3d-4d2c43839aea","ios":"levelo://app?vid=daa4d2c5-b151-4bf6-bf3d-4d2c43839aea"},"vehicle_type_id":"4","last_reported":1773893498,"current_range_meters":3600,"station_id":"ce4bhh92rcd13ifvqfi0","pricing_plan_id":"cebpf4jnsgd1na2vs0mg"},{"bike_id":"032692c2-e8ca-40e7-9c05-3713e043006b","system_id":"levelo_inurba_marseille","lat":43.23899,"lon":5.37489,"is_reserved":false,"is_disabled":false,"rental_uris":{"android":"levelo://app?vid=032692c2-e8ca-40e7-9c05-3713e043006b","ios":"levelo://app?vid=032692c2-e8ca-40e7-9c05-3713e043006b"},"vehicle_type_id":"4","last_reported":1773893498,"current_range_meters":3600,"station_id":"st_d6sm7csbq4hs73f8fpjg","pricing_plan_id":"cebpf4jnsgd1na2vs0mg"},{"bike_id":"d7e8d77f-bad8-482f-b62c-ab7a3f141468","system_id":"levelo_inurba_marseille","lat":43.28564,"lon":5.39473,"is_reserved":false,"is_disabled":false,"rental_uris":{"android":"levelo://app?vid=d7e8d77f-bad8-482f-b62c-ab7a3f141468","ios":"levelo://app?vid=d7e8d77f-bad8-482f-b62c-ab7a3f141468"},"vehicle_type_id":"4","last_reported":1773893498,"current_range_meters":3600,"station_id":"ce4bh292rcd13ifvqdg0","pricing_plan_id":"cebpf4jnsgd1na2vs0mg"},{"bike_id":"8695b302-cbfc-4867-9340-7774313ba4ee","system_id":"levelo_inurba_marseille","lat":43.28284,"lon":5.38084,"is_reserved":false,"is_disabled":false,"rental_uris":{"android":"levelo://app?vid=8695b302-cbfc-4867-9340-7774313ba4ee","ios":"levelo://app?vid=8695b302-cbfc-4867-9340-7774313ba4ee"},"vehicle_type_id":"4","last_reported":1773893498,"current_range_meters":3600,"station_id":"","pricing_plan_id":"cebpf4jnsgd1na2vs0mg"},{"bike_id":"3feb4c73-6e63-47f9-927f-446525b49f72","system_id":"levelo_inurba_marseille","lat":43.31886,"lon":5.3682,"is_reserved":false,"is_disabled":false,"rental_uris":{"android":"levelo://app?vid=3feb4c73-6e63-47f9-927f-446525b49f72","ios":"levelo://app?vid=3feb4c73-6e63-47f9-927f-446525b49f72"},"vehicle_type_id":"4","last_reported":1773893498,"current_range_meters":3600,"station_id":"st_d6o2h0d0559c73evc1b0","pricing_plan_id":"cebpf4jnsgd1na2vs0mg"},{"bike_id":"f7315d1e-73c8-4876-9e17-aedad5ed61d7","system_id":"levelo_inurba_marseille","lat":43.31126,"lon":5.38657,"is_reserved":false,"is_disabled":false,"rental_uris":{"android":"levelo://app?vid=f7315d1e-73c8-4876-9e17-aedad5ed61d7","ios":"levelo://app?vid=f7315d1e-73c8-4876-9e17-aedad5ed61d7"},"vehicle_type_id":"4","last_reported":1773893498,"current_range_meters":3600,"station_id":"","pricing_plan_id":"cebpf4jnsgd1na2vs0mg"},{"bike_id":"3d4c5258-e18d-4027-afc0-bcb76ed8fc87","system_id":"levelo_inurba_marseille","lat":43.26582,"lon":5.39037,"is_reserved":false,"is_disabled":false,"rental_uris":{"android":"levelo://app?vid=3d4c5258-e18d-4027-afc0-bcb76ed8fc87","ios":"levelo://app?vid=3d4c5258-e18d-4027-afc0-bcb76ed8fc87"},"vehicle_type_id":"4","last_reported":1773893498,"current_range_meters":3600,"station_id":"ce4bhe12rcd13ifvqf30","pricing_plan_id":"cebpf4jnsgd1na2vs0mg"},{"bike_id":"88697e8b-01fd-4696-bab5-73747ef3d57e","system_id":"levelo_inurba_marseille","lat":43.21769,"lon":5.34603,"is_reserved":false,"is_disabled":false,"rental_uris":{"android":"levelo://app?vid=88697e8b-01fd-4696-bab5-73747ef3d57e","ios":"levelo://app?vid=88697e8b-01fd-4696-bab5-73747ef3d57e"},"vehicle_type_id":"4","last_reported":1773893498,"current_range_meters":4000,"station_id":"st_cvj6r9ubvosntc0bgbag","pricing_plan_id":"cebpf4jnsgd1na2vs0mg"},{"bike_id":"b479353b-fe14-4392-b2d7-5de9d2a8735a","system_id":"levelo_inurba_marseille","lat":43.322375,"lon":5.438227,"is_reserved":false,"is_disabled":false,"rental_uris":{"android":"levelo://app?vid=b479353b-fe14-4392-b2d7-5de9d2a8735a","ios":"levelo://app?vid=b479353b-fe14-4392-b2d7-5de9d2a8735a"},"vehicle_type_id":"4","last_reported":1773893498,"current_range_meters":4000,"station_id":"","pricing_plan_id":"cebpf4jnsgd1na2vs0mg"},{"bike_id":"04a672df-c3bb-4c7f-bb76-8e3d4b80c3af","system_id":"levelo_inurba_marseille","lat":43.284064,"lon":5.37511,"is_reserved":false,"is_disabled":false,"rental_uris":{"android":"levelo://app?vid=04a672df-c3bb-4c7f-bb76-8e3d4b80c3af","ios":"levelo://app?vid=04a672df-c3bb-4c7f-bb76-8e3d4b80c3af"},"vehicle_type_id":"4","last_reported":1773893498,"current_range_meters":4000,"station_id":"ce4bh412rcd13ifvqds0","pricing_plan_id":"cebpf4jnsgd1na2vs0mg"},{"bike_id":"9b403a02-0994-46a6-8c61-c39cc7306449","system_id":"levelo_inurba_marseille","lat":43.30249,"lon":5.40067,"is_reserved":false,"is_disabled":false,"rental_uris":{"android":"levelo://app?vid=9b403a02-0994-46a6-8c61-c39cc7306449","ios":"levelo://app?vid=9b403a02-0994-46a6-8c61-c39cc7306449"},"vehicle_type_id":"4","last_reported":1773893498,"current_range_meters":4000,"station_id":"ce4bgvh2rcd13ifvqcs0","pricing_plan_id":"cebpf4jnsgd1na2vs0mg"},{"bike_id":"48bcb3d3-0279-4623-aebe-ac9aa7899b74","system_id":"levelo_inurba_marseille","lat":43.28412,"lon":5.37562,"is_reserved":false,"is_disabled":false,"rental_uris":{"android":"levelo://app?vid=48bcb3d3-0279-4623-aebe-ac9aa7899b74","ios":"levelo://app?vid=48bcb3d3-0279-4623-aebe-ac9aa7899b74"},"vehicle_type_id":"4","last_reported":1773893498,"current_range_meters":4000,"station_id":"ce4bh412rcd13ifvqds0","pricing_plan_id":"cebpf4jnsgd1na2vs0mg"},{"bike_id":"7c245f6b-63fb-4c36-8493-afb8fd5288f8","system_id":"levelo_inurba_marseille","lat":43.31192,"lon":5.39044,"is_reserved":false,"is_disabled":false,"rental_uris":{"android":"levelo://app?vid=7c245f6b-63fb-4c36-8493-afb8fd5288f8","ios":"levelo://app?vid=7c245f6b-63fb-4c36-8493-afb8fd5288f8"},"vehicle_type_id":"4","last_reported":1773893498,"current_range_meters":4000,"station_id":"","pricing_plan_id":"cebpf4jnsgd1na2vs0mg"},{"bike_id":"ea1ff522-32b1-4d6f-a249-f7f11498a7ea","system_id":"levelo_inurba_marseille","lat":43.303,"lon":5.36897,"is_reserved":false,"is_disabled":false,"rental_uris":{"android":"levelo://app?vid=ea1ff522-32b1-4d6f-a249-f7f11498a7ea","ios":"levelo://app?vid=ea1ff522-32b1-4d6f-a249-f7f11498a7ea"},"vehicle_type_id":"4","last_reported":1773893498,"current_range_meters":4000,"station_id":"ce4bgqh2rcd13ifvqc5g","pricing_plan_id":"cebpf4jnsgd1na2vs0mg"},{"bike_id":"50e0584e-4dc0-49b6-950a-79953725031f","system_id":"levelo_inurba_marseille","lat":43.23092,"lon":5.355,"is_reserved":false,"is_disabled":false,"rental_uris":{"android":"levelo://app?vid=50e0584e-4dc0-49b6-950a-79953725031f","ios":"levelo://app?vid=50e0584e-4dc0-49b6-950a-79953725031f"},"vehicle_type_id":"4","last_reported":1773893498,"current_range_meters":4000,"station_id":"cpo3342slgdg3j2ifvpg","pricing_plan_id":"cebpf4jnsgd1na2vs0mg"},{"bike_id":"2706db3b-3f01-4b6b-a1e9-42e6bda22571","system_id":"levelo_inurba_marseille","lat":43.26168,"lon":5.37291,"is_reserved":false,"is_disabled":false,"rental_uris":{"android":"levelo://app?vid=2706db3b-3f01-4b6b-a1e9-42e6bda22571","ios":"levelo://app?vid=2706db3b-3f01-4b6b-a1e9-42e6bda22571"},"vehicle_type_id":"4","last_reported":1773893498,"current_range_meters":4000,"station_id":"","pricing_plan_id":"cebpf4jnsgd1na2vs0mg"},{"bike_id":"396f7005-3108-4347-91d0-1df6f53cf7ed","system_id":"levelo_inurba_marseille","lat":43.299,"lon":5.39786,"is_reserved":false,"is_disabled":false,"rental_uris":{"android":"levelo://app?vid=396f7005-3108-4347-91d0-1df6f53cf7ed","ios":"levelo://app?vid=396f7005-3108-4347-91d0-1df6f53cf7ed"},"vehicle_type_id":"4","last_reported":1773893498,"current_range_meters":4000,"station_id":"","pricing_plan_id":"cebpf4jnsgd1na2vs0mg"},{"bike_id":"5032ee4c-643b-4fa7-8a5c-8d5e764831f6","system_id":"levelo_inurba_marseille","lat":43.21745,"lon":5.34615,"is_reserved":false,"is_disabled":false,"rental_uris":{"android":"levelo://app?vid=5032ee4c-643b-4fa7-8a5c-8d5e764831f6","ios":"levelo://app?vid=5032ee4c-643b-4fa7-8a5c-8d5e764831f6"},"vehicle_type_id":"4","last_reported":1773893498,"current_range_meters":4400,"station_id":"st_cvj6r9ubvosntc0bgbag","pricing_plan_id":"cebpf4jnsgd1na2vs0mg"},{"bike_id":"e47c61e8-e4ac-4e55-a50a-32dc73b27f32","system_id":"levelo_inurba_marseille","lat":43.25318,"lon":5.42171,"is_reserved":false,"is_disabled":false,"rental_uris":{"android":"levelo://app?vid=e47c61e8-e4ac-4e55-a50a-32dc73b27f32","ios":"levelo://app?vid=e47c61e8-e4ac-4e55-a50a-32dc73b27f32"},"vehicle_type_id":"4","last_reported":1773893498,"current_range_meters":4400,"station_id":"st_d2m65c5bi1j21697t3ng","pricing_plan_id":"cebpf4jnsgd1na2vs0mg"},{"bike_id":"7e3617ba-17ca-4431-a82f-f6d8ccebd397","system_id":"levelo_inurba_marseille","lat":43.30785,"lon":5.38136,"is_reserved":false,"is_disabled":false,"rental_uris":{"android":"levelo://app?vid=7e3617ba-17ca-4431-a82f-f6d8ccebd397","ios":"levelo://app?vid=7e3617ba-17ca-4431-a82f-f6d8ccebd397"},"vehicle_type_id":"4","last_reported":1773893498,"current_range_meters":4400,"station_id":"ce4bgt12rcd13ifvqce0","pricing_plan_id":"cebpf4jnsgd1na2vs0mg"},{"bike_id":"b1678298-3f5b-4e9b-bb34-63fa7c9d9c9c","system_id":"levelo_inurba_marseille","lat":43.28478,"lon":5.48388,"is_reserved":false,"is_disabled":false,"rental_uris":{"android":"levelo://app?vid=b1678298-3f5b-4e9b-bb34-63fa7c9d9c9c","ios":"levelo://app?vid=b1678298-3f5b-4e9b-bb34-63fa7c9d9c9c"},"vehicle_type_id":"4","last_reported":1773893498,"current_range_meters":4400,"station_id":"","pricing_plan_id":"cebpf4jnsgd1na2vs0mg"},{"bike_id":"d86f7f17-c40c-40d2-9445-70d30fa0ef64","system_id":"levelo_inurba_marseille","lat":43.21751,"lon":5.34612,"is_reserved":false,"is_disabled":true,"rental_uris":{"android":"levelo://app?vid=d86f7f17-c40c-40d2-9445-70d30fa0ef64","ios":"levelo://app?vid=d86f7f17-c40c-40d2-9445-70d30fa0ef64"},"vehicle_type_id":"4","last_reported":1773893498,"current_range_meters":4400,"station_id":"st_cvj6r9ubvosntc0bgbag","pricing_plan_id":"cebpf4jnsgd1na2vs0mg"},{"bike_id":"314a79eb-3b85-4ad3-93cb-d44c45467ba8","system_id":"levelo_inurba_marseille","lat":43.24803,"lon":5.37481,"is_reserved":false,"is_disabled":false,"rental_uris":{"android":"levelo://app?vid=314a79eb-3b85-4ad3-93cb-d44c45467ba8","ios":"levelo://app?vid=314a79eb-3b85-4ad3-93cb-d44c45467ba8"},"vehicle_type_id":"4","last_reported":1773893498,"current_range_meters":4400,"station_id":"ce4bhgh2rcd13ifvqfb0","pricing_plan_id":"cebpf4jnsgd1na2vs0mg"},{"bike_id":"9d99e656-43f9-4521-b575-035a903587ec","system_id":"levelo_inurba_marseille","lat":43.28558,"lon":5.3949,"is_reserved":false,"is_disabled":true,"rental_uris":{"android":"levelo://app?vid=9d99e656-43f9-4521-b575-035a903587ec","ios":"levelo://app?vid=9d99e656-43f9-4521-b575-035a903587ec"},"vehicle_type_id":"4","last_reported":1773893498,"current_range_meters":4400,"station_id":"ce4bh292rcd13ifvqdg0","pricing_plan_id":"cebpf4jnsgd1na2vs0mg"},{"bike_id":"2bdf7ed1-22c0-42ec-957d-ca55b578ba3c","system_id":"levelo_inurba_marseille","lat":43.27838,"lon":5.40729,"is_reserved":false,"is_disabled":false,"rental_uris":{"android":"levelo://app?vid=2bdf7ed1-22c0-42ec-957d-ca55b578ba3c","ios":"levelo://app?vid=2bdf7ed1-22c0-42ec-957d-ca55b578ba3c"},"vehicle_type_id":"4","last_reported":1773893498,"current_range_meters":4400,"station_id":"ce4bhnh2rcd13ifvqgtg","pricing_plan_id":"cebpf4jnsgd1na2vs0mg"},{"bike_id":"15d16198-178f-4581-9c99-d0f097b847d4","system_id":"levelo_inurba_marseille","lat":43.28678,"lon":5.4424,"is_reserved":false,"is_disabled":false,"rental_uris":{"android":"levelo://app?vid=15d16198-178f-4581-9c99-d0f097b847d4","ios":"levelo://app?vid=15d16198-178f-4581-9c99-d0f097b847d4"},"vehicle_type_id":"4","last_reported":1773893498,"current_range_meters":4400,"station_id":"","pricing_plan_id":"cebpf4jnsgd1na2vs0mg"},{"bike_id":"2c972513-e459-4da9-8372-9be54811adba","system_id":"levelo_inurba_marseille","lat":43.30319,"lon":5.40472,"is_reserved":false,"is_disabled":false,"rental_uris":{"android":"levelo://app?vid=2c972513-e459-4da9-8372-9be54811adba","ios":"levelo://app?vid=2c972513-e459-4da9-8372-9be54811adba"},"vehicle_type_id":"4","last_reported":1773893498,"current_range_meters":4400,"station_id":"ce4bh012rcd13ifvqd10","pricing_plan_id":"cebpf4jnsgd1na2vs0mg"},{"bike_id":"7ee62ae5-1c9f-40f1-af63-7af5b27eef3d","system_id":"levelo_inurba_marseille","lat":43.28397,"lon":5.37508,"is_reserved":false,"is_disabled":false,"rental_uris":{"android":"levelo://app?vid=7ee62ae5-1c9f-40f1-af63-7af5b27eef3d","ios":"levelo://app?vid=7ee62ae5-1c9f-40f1-af63-7af5b27eef3d"},"vehicle_type_id":"4","last_reported":1773893498,"current_range_meters":4800,"station_id":"ce4bh412rcd13ifvqds0","pricing_plan_id":"cebpf4jnsgd1na2vs0mg"},{"bike_id":"e964becb-6d98-4cbf-8cde-41d442d32f65","system_id":"levelo_inurba_marseille","lat":43.29008,"lon":5.38149,"is_reserved":false,"is_disabled":false,"rental_uris":{"android":"levelo://app?vid=e964becb-6d98-4cbf-8cde-41d442d32f65","ios":"levelo://app?vid=e964becb-6d98-4cbf-8cde-41d442d32f65"},"vehicle_type_id":"4","last_reported":1773893498,"current_range_meters":4800,"station_id":"ce4bh4p2rcd13ifvqe1g","pricing_plan_id":"cebpf4jnsgd1na2vs0mg"},{"bike_id":"ccf4cbaf-a48e-4a3a-bd43-50421be7ff22","system_id":"levelo_inurba_marseille","lat":43.273315,"lon":5.390669,"is_reserved":false,"is_disabled":true,"rental_uris":{"android":"levelo://app?vid=ccf4cbaf-a48e-4a3a-bd43-50421be7ff22","ios":"levelo://app?vid=ccf4cbaf-a48e-4a3a-bd43-50421be7ff22"},"vehicle_type_id":"4","last_reported":1773893498,"current_range_meters":4800,"station_id":"ce4bhgp2rcd13ifvqfe0","pricing_plan_id":"cebpf4jnsgd1na2vs0mg"},{"bike_id":"4e968e52-3d61-422a-ae95-1e77e5c0ca5c","system_id":"levelo_inurba_marseille","lat":43.30779,"lon":5.37645,"is_reserved":false,"is_disabled":false,"rental_uris":{"android":"levelo://app?vid=4e968e52-3d61-422a-ae95-1e77e5c0ca5c","ios":"levelo://app?vid=4e968e52-3d61-422a-ae95-1e77e5c0ca5c"},"vehicle_type_id":"4","last_reported":1773893498,"current_range_meters":4800,"station_id":"ce4bgv92rcd13ifvqcq0","pricing_plan_id":"cebpf4jnsgd1na2vs0mg"},{"bike_id":"a80484af-7039-4468-8c38-d7c6085c83b9","system_id":"levelo_inurba_marseille","lat":43.28462,"lon":5.35914,"is_reserved":false,"is_disabled":false,"rental_uris":{"android":"levelo://app?vid=a80484af-7039-4468-8c38-d7c6085c83b9","ios":"levelo://app?vid=a80484af-7039-4468-8c38-d7c6085c83b9"},"vehicle_type_id":"4","last_reported":1773893498,"current_range_meters":4800,"station_id":"ce4bhah2rcd13ifvqei0","pricing_plan_id":"cebpf4jnsgd1na2vs0mg"},{"bike_id":"eaa9d3c5-f89d-4396-8235-4030217e81cb","system_id":"levelo_inurba_marseille","lat":43.25485,"lon":5.37653,"is_reserved":false,"is_disabled":false,"rental_uris":{"android":"levelo://app?vid=eaa9d3c5-f89d-4396-8235-4030217e81cb","ios":"levelo://app?vid=eaa9d3c5-f89d-4396-8235-4030217e81cb"},"vehicle_type_id":"4","last_reported":1773893498,"current_range_meters":4800,"station_id":"ce4bhh12rcd13ifvqff0","pricing_plan_id":"cebpf4jnsgd1na2vs0mg"},{"bike_id":"3064287c-8ed3-41e8-93b5-31fa274eed05","system_id":"levelo_inurba_marseille","lat":43.29516,"lon":5.40127,"is_reserved":false,"is_disabled":false,"rental_uris":{"android":"levelo://app?vid=3064287c-8ed3-41e8-93b5-31fa274eed05","ios":"levelo://app?vid=3064287c-8ed3-41e8-93b5-31fa274eed05"},"vehicle_type_id":"4","last_reported":1773893498,"current_range_meters":4800,"station_id":"","pricing_plan_id":"cebpf4jnsgd1na2vs0mg"},{"bike_id":"7f141dcd-887a-4746-a44a-688e104041f4","system_id":"levelo_inurba_marseille","lat":43.24182,"lon":5.3639,"is_reserved":false,"is_disabled":false,"rental_uris":{"android":"levelo://app?vid=7f141dcd-887a-4746-a44a-688e104041f4","ios":"levelo://app?vid=7f141dcd-887a-4746-a44a-688e104041f4"},"vehicle_type_id":"4","last_reported":1773893498,"current_range_meters":4800,"station_id":"cpo36qri1sfpv3e86is0","pricing_plan_id":"cebpf4jnsgd1na2vs0mg"},{"bike_id":"8eae30fa-cb6c-4f22-a643-10cbbaf45032","system_id":"levelo_inurba_marseille","lat":43.30783,"lon":5.37662,"is_reserved":false,"is_disabled":false,"rental_uris":{"android":"levelo://app?vid=8eae30fa-cb6c-4f22-a643-10cbbaf45032","ios":"levelo://app?vid=8eae30fa-cb6c-4f22-a643-10cbbaf45032"},"vehicle_type_id":"4","last_reported":1773893498,"current_range_meters":4800,"station_id":"ce4bgv92rcd13ifvqcq0","pricing_plan_id":"cebpf4jnsgd1na2vs0mg"},{"bike_id":"a39c2269-c1be-4679-b7ec-7b13e4b25bad","system_id":"levelo_inurba_marseille","lat":43.32506,"lon":5.38779,"is_reserved":false,"is_disabled":true,"rental_uris":{"android":"levelo://app?vid=a39c2269-c1be-4679-b7ec-7b13e4b25bad","ios":"levelo://app?vid=a39c2269-c1be-4679-b7ec-7b13e4b25bad"},"vehicle_type_id":"4","last_reported":1773893498,"current_range_meters":4800,"station_id":"","pricing_plan_id":"cebpf4jnsgd1na2vs0mg"},{"bike_id":"e2a98eaa-25b8-4479-b80e-51461339885e","system_id":"levelo_inurba_marseille","lat":43.23773,"lon":5.36643,"is_reserved":false,"is_disabled":false,"rental_uris":{"android":"levelo://app?vid=e2a98eaa-25b8-4479-b80e-51461339885e","ios":"levelo://app?vid=e2a98eaa-25b8-4479-b80e-51461339885e"},"vehicle_type_id":"4","last_reported":1773893498,"current_range_meters":4800,"station_id":"st_d3nk18o9ro0c73en2l3g","pricing_plan_id":"cebpf4jnsgd1na2vs0mg"},{"bike_id":"779b8a3c-1846-46b5-9cab-bf0ec2b1118f","system_id":"levelo_inurba_marseille","lat":43.28484,"lon":5.48377,"is_reserved":false,"is_disabled":false,"rental_uris":{"android":"levelo://app?vid=779b8a3c-1846-46b5-9cab-bf0ec2b1118f","ios":"levelo://app?vid=779b8a3c-1846-46b5-9cab-bf0ec2b1118f"},"vehicle_type_id":"4","last_reported":1773893498,"current_range_meters":4800,"station_id":"st_d3svhcjqgbts73a3dn0g","pricing_plan_id":"cebpf4jnsgd1na2vs0mg"},{"bike_id":"b4e54967-4eb4-45f5-a80e-01baddc6b232","system_id":"levelo_inurba_marseille","lat":43.2927,"lon":5.40149,"is_reserved":false,"is_disabled":true,"rental_uris":{"android":"levelo://app?vid=b4e54967-4eb4-45f5-a80e-01baddc6b232","ios":"levelo://app?vid=b4e54967-4eb4-45f5-a80e-01baddc6b232"},"vehicle_type_id":"4","last_reported":1773893498,"current_range_meters":5600,"station_id":"ce4bh312rcd13ifvqdk0","pricing_plan_id":"cebpf4jnsgd1na2vs0mg"},{"bike_id":"9ef9fd3b-08e1-41bf-bbd1-087477917b48","system_id":"levelo_inurba_marseille","lat":43.31205,"lon":5.36904,"is_reserved":false,"is_disabled":false,"rental_uris":{"android":"levelo://app?vid=9ef9fd3b-08e1-41bf-bbd1-087477917b48","ios":"levelo://app?vid=9ef9fd3b-08e1-41bf-bbd1-087477917b48"},"vehicle_type_id":"4","last_reported":1773893498,"current_range_meters":5600,"station_id":"ce4bgl92rcd13ifvqbq0","pricing_plan_id":"cebpf4jnsgd1na2vs0mg"},{"bike_id":"4b654275-e04e-4228-a9dd-69243394004c","system_id":"levelo_inurba_marseille","lat":43.28951,"lon":5.39669,"is_reserved":false,"is_disabled":false,"rental_uris":{"android":"levelo://app?vid=4b654275-e04e-4228-a9dd-69243394004c","ios":"levelo://app?vid=4b654275-e04e-4228-a9dd-69243394004c"},"vehicle_type_id":"4","last_reported":1773893498,"current_range_meters":5600,"station_id":"ce4bh3h2rcd13ifvqdn0","pricing_plan_id":"cebpf4jnsgd1na2vs0mg"},{"bike_id":"3f54ac4c-64e7-4153-bb19-fb9dac5b907d","system_id":"levelo_inurba_marseille","lat":43.28939,"lon":5.36437,"is_reserved":false,"is_disabled":false,"rental_uris":{"android":"levelo://app?vid=3f54ac4c-64e7-4153-bb19-fb9dac5b907d","ios":"levelo://app?vid=3f54ac4c-64e7-4153-bb19-fb9dac5b907d"},"vehicle_type_id":"4","last_reported":1773893498,"current_range_meters":5600,"station_id":"","pricing_plan_id":"cebpf4jnsgd1na2vs0mg"},{"bike_id":"3224daa3-173c-4836-8af9-46b463d20aca","system_id":"levelo_inurba_marseille","lat":43.30445,"lon":5.38909,"is_reserved":false,"is_disabled":false,"rental_uris":{"android":"levelo://app?vid=3224daa3-173c-4836-8af9-46b463d20aca","ios":"levelo://app?vid=3224daa3-173c-4836-8af9-46b463d20aca"},"vehicle_type_id":"4","last_reported":1773893498,"current_range_meters":5600,"station_id":"ce4bgk12rcd13ifvqbi0","pricing_plan_id":"cebpf4jnsgd1na2vs0mg"},{"bike_id":"a9d31829-7e0d-482f-af05-97ddd320ae16","system_id":"levelo_inurba_marseille","lat":43.29766,"lon":5.42777,"is_reserved":false,"is_disabled":true,"rental_uris":{"android":"levelo://app?vid=a9d31829-7e0d-482f-af05-97ddd320ae16","ios":"levelo://app?vid=a9d31829-7e0d-482f-af05-97ddd320ae16"},"vehicle_type_id":"4","last_reported":1773893498,"current_range_meters":5600,"station_id":"st_d3md5207bmas73dh9klg","pricing_plan_id":"cebpf4jnsgd1na2vs0mg"},{"bike_id":"e1e33af2-054d-4b23-a787-81d252a740a0","system_id":"levelo_inurba_marseille","lat":43.30225,"lon":5.40064,"is_reserved":false,"is_disabled":false,"rental_uris":{"android":"levelo://app?vid=e1e33af2-054d-4b23-a787-81d252a740a0","ios":"levelo://app?vid=e1e33af2-054d-4b23-a787-81d252a740a0"},"vehicle_type_id":"4","last_reported":1773893498,"current_range_meters":5600,"station_id":"","pricing_plan_id":"cebpf4jnsgd1na2vs0mg"},{"bike_id":"cf7d1234-f536-4df0-af0d-988a5d6a055a","system_id":"levelo_inurba_marseille","lat":43.30935,"lon":5.40149,"is_reserved":false,"is_disabled":false,"rental_uris":{"android":"levelo://app?vid=cf7d1234-f536-4df0-af0d-988a5d6a055a","ios":"levelo://app?vid=cf7d1234-f536-4df0-af0d-988a5d6a055a"},"vehicle_type_id":"4","last_reported":1773893498,"current_range_meters":5600,"station_id":"ce4bgvp2rcd13ifvqct0","pricing_plan_id":"cebpf4jnsgd1na2vs0mg"},{"bike_id":"ed84b58c-3b82-4011-b909-1c2364917a81","system_id":"levelo_inurba_marseille","lat":43.31355,"lon":5.39774,"is_reserved":false,"is_disabled":false,"rental_uris":{"android":"levelo://app?vid=ed84b58c-3b82-4011-b909-1c2364917a81","ios":"levelo://app?vid=ed84b58c-3b82-4011-b909-1c2364917a81"},"vehicle_type_id":"4","last_reported":1773893498,"current_range_meters":5600,"station_id":"","pricing_plan_id":"cebpf4jnsgd1na2vs0mg"},{"bike_id":"e107cb22-a13d-4c03-93ce-8114e06b9a0f","system_id":"levelo_inurba_marseille","lat":43.28484,"lon":5.484,"is_reserved":false,"is_disabled":false,"rental_uris":{"android":"levelo://app?vid=e107cb22-a13d-4c03-93ce-8114e06b9a0f","ios":"levelo://app?vid=e107cb22-a13d-4c03-93ce-8114e06b9a0f"},"vehicle_type_id":"4","last_reported":1773893498,"current_range_meters":5600,"station_id":"","pricing_plan_id":"cebpf4jnsgd1na2vs0mg"},{"bike_id":"447b11a1-21b5-4523-80dc-ebe593853403","system_id":"levelo_inurba_marseille","lat":43.29206,"lon":5.4267,"is_reserved":false,"is_disabled":false,"rental_uris":{"android":"levelo://app?vid=447b11a1-21b5-4523-80dc-ebe593853403","ios":"levelo://app?vid=447b11a1-21b5-4523-80dc-ebe593853403"},"vehicle_type_id":"4","last_reported":1773893498,"current_range_meters":5600,"station_id":"","pricing_plan_id":"cebpf4jnsgd1na2vs0mg"},{"bike_id":"4c459ca1-0cc3-437b-9b6c-21b951ed2779","system_id":"levelo_inurba_marseille","lat":43.28098,"lon":5.37844,"is_reserved":false,"is_disabled":false,"rental_uris":{"android":"levelo://app?vid=4c459ca1-0cc3-437b-9b6c-21b951ed2779","ios":"levelo://app?vid=4c459ca1-0cc3-437b-9b6c-21b951ed2779"},"vehicle_type_id":"4","last_reported":1773893498,"current_range_meters":5600,"station_id":"ce4bha12rcd13ifvqee0","pricing_plan_id":"cebpf4jnsgd1na2vs0mg"},{"bike_id":"768a8c01-41df-42a9-9687-055ac84fde99","system_id":"levelo_inurba_marseille","lat":43.24646,"lon":5.38899,"is_reserved":false,"is_disabled":false,"rental_uris":{"android":"levelo://app?vid=768a8c01-41df-42a9-9687-055ac84fde99","ios":"levelo://app?vid=768a8c01-41df-42a9-9687-055ac84fde99"},"vehicle_type_id":"4","last_reported":1773893498,"current_range_meters":5600,"station_id":"ce4bhg12rcd13ifvqf60","pricing_plan_id":"cebpf4jnsgd1na2vs0mg"},{"bike_id":"ad261fab-7885-4780-a277-e4835ccf8740","system_id":"levelo_inurba_marseille","lat":43.291229,"lon":5.386764,"is_reserved":false,"is_disabled":false,"rental_uris":{"android":"levelo://app?vid=ad261fab-7885-4780-a277-e4835ccf8740","ios":"levelo://app?vid=ad261fab-7885-4780-a277-e4835ccf8740"},"vehicle_type_id":"4","last_reported":1773893498,"current_range_meters":5600,"station_id":"cjm6bp8fraef2m0cb0m0","pricing_plan_id":"cebpf4jnsgd1na2vs0mg"},{"bike_id":"31e5fe70-8cb7-4014-8225-8ae6146674ce","system_id":"levelo_inurba_marseille","lat":43.27566,"lon":5.38409,"is_reserved":false,"is_disabled":false,"rental_uris":{"android":"levelo://app?vid=31e5fe70-8cb7-4014-8225-8ae6146674ce","ios":"levelo://app?vid=31e5fe70-8cb7-4014-8225-8ae6146674ce"},"vehicle_type_id":"4","last_reported":1773893498,"current_range_meters":6000,"station_id":"ce4bhh92rcd13ifvqfi0","pricing_plan_id":"cebpf4jnsgd1na2vs0mg"},{"bike_id":"5fcac257-91b3-4396-9a56-b73d24ce161c","system_id":"levelo_inurba_marseille","lat":43.29184,"lon":5.39311,"is_reserved":false,"is_disabled":true,"rental_uris":{"android":"levelo://app?vid=5fcac257-91b3-4396-9a56-b73d24ce161c","ios":"levelo://app?vid=5fcac257-91b3-4396-9a56-b73d24ce161c"},"vehicle_type_id":"4","last_reported":1773893498,"current_range_meters":6000,"station_id":"ce4bh192rcd13ifvqdd0","pricing_plan_id":"cebpf4jnsgd1na2vs0mg"},{"bike_id":"83098885-b487-4985-afa4-0747ca745ac7","system_id":"levelo_inurba_marseille","lat":43.231913,"lon":5.400088,"is_reserved":false,"is_disabled":false,"rental_uris":{"android":"levelo://app?vid=83098885-b487-4985-afa4-0747ca745ac7","ios":"levelo://app?vid=83098885-b487-4985-afa4-0747ca745ac7"},"vehicle_type_id":"4","last_reported":1773893498,"current_range_meters":6000,"station_id":"ce4bhn12rcd13ifvqgqg","pricing_plan_id":"cebpf4jnsgd1na2vs0mg"},{"bike_id":"2cd6d2c4-9839-4b08-8d75-805c4c2214dc","system_id":"levelo_inurba_marseille","lat":43.23047,"lon":5.35497,"is_reserved":false,"is_disabled":false,"rental_uris":{"android":"levelo://app?vid=2cd6d2c4-9839-4b08-8d75-805c4c2214dc","ios":"levelo://app?vid=2cd6d2c4-9839-4b08-8d75-805c4c2214dc"},"vehicle_type_id":"4","last_reported":1773893498,"current_range_meters":6000,"station_id":"cpo3342slgdg3j2ifvpg","pricing_plan_id":"cebpf4jnsgd1na2vs0mg"},{"bike_id":"0d16c67b-9d4c-4c41-aeb6-84a24cd365e1","system_id":"levelo_inurba_marseille","lat":43.31272,"lon":5.40159,"is_reserved":false,"is_disabled":false,"rental_uris":{"android":"levelo://app?vid=0d16c67b-9d4c-4c41-aeb6-84a24cd365e1","ios":"levelo://app?vid=0d16c67b-9d4c-4c41-aeb6-84a24cd365e1"},"vehicle_type_id":"4","last_reported":1773893498,"current_range_meters":6000,"station_id":"ce4bh092rcd13ifvqd30","pricing_plan_id":"cebpf4jnsgd1na2vs0mg"},{"bike_id":"f992aeeb-d813-4a07-b667-bac32cecf243","system_id":"levelo_inurba_marseille","lat":43.2813,"lon":5.42615,"is_reserved":false,"is_disabled":false,"rental_uris":{"android":"levelo://app?vid=f992aeeb-d813-4a07-b667-bac32cecf243","ios":"levelo://app?vid=f992aeeb-d813-4a07-b667-bac32cecf243"},"vehicle_type_id":"4","last_reported":1773893498,"current_range_meters":6000,"station_id":"ce4bhnh2rcd13ifvqgug","pricing_plan_id":"cebpf4jnsgd1na2vs0mg"},{"bike_id":"0ccd480b-88e0-4d41-b24c-60e3cd09573c","system_id":"levelo_inurba_marseille","lat":43.287,"lon":5.36416,"is_reserved":false,"is_disabled":false,"rental_uris":{"android":"levelo://app?vid=0ccd480b-88e0-4d41-b24c-60e3cd09573c","ios":"levelo://app?vid=0ccd480b-88e0-4d41-b24c-60e3cd09573c"},"vehicle_type_id":"4","last_reported":1773893498,"current_range_meters":6000,"station_id":"","pricing_plan_id":"cebpf4jnsgd1na2vs0mg"},{"bike_id":"d0b1f448-6af4-4ef1-a755-e03baf4488aa","system_id":"levelo_inurba_marseille","lat":43.29258,"lon":5.35761,"is_reserved":false,"is_disabled":false,"rental_uris":{"android":"levelo://app?vid=d0b1f448-6af4-4ef1-a755-e03baf4488aa","ios":"levelo://app?vid=d0b1f448-6af4-4ef1-a755-e03baf4488aa"},"vehicle_type_id":"4","last_reported":1773893498,"current_range_meters":6000,"station_id":"","pricing_plan_id":"cebpf4jnsgd1na2vs0mg"},{"bike_id":"fe5c801f-68be-46bc-a966-92199c3574ea","system_id":"levelo_inurba_marseille","lat":43.28143,"lon":5.42643,"is_reserved":false,"is_disabled":false,"rental_uris":{"android":"levelo://app?vid=fe5c801f-68be-46bc-a966-92199c3574ea","ios":"levelo://app?vid=fe5c801f-68be-46bc-a966-92199c3574ea"},"vehicle_type_id":"4","last_reported":1773893498,"current_range_meters":6000,"station_id":"ce4bhnh2rcd13ifvqgug","pricing_plan_id":"cebpf4jnsgd1na2vs0mg"},{"bike_id":"d921a034-91f6-444c-9a4f-31bbc308387e","system_id":"levelo_inurba_marseille","lat":43.28397,"lon":5.37523,"is_reserved":false,"is_disabled":false,"rental_uris":{"android":"levelo://app?vid=d921a034-91f6-444c-9a4f-31bbc308387e","ios":"levelo://app?vid=d921a034-91f6-444c-9a4f-31bbc308387e"},"vehicle_type_id":"4","last_reported":1773893498,"current_range_meters":6000,"station_id":"ce4bh412rcd13ifvqds0","pricing_plan_id":"cebpf4jnsgd1na2vs0mg"},{"bike_id":"f84b01ca-a305-48c8-abb1-5fe4887deffc","system_id":"levelo_inurba_marseille","lat":43.23163,"lon":5.43724,"is_reserved":false,"is_disabled":false,"rental_uris":{"android":"levelo://app?vid=f84b01ca-a305-48c8-abb1-5fe4887deffc","ios":"levelo://app?vid=f84b01ca-a305-48c8-abb1-5fe4887deffc"},"vehicle_type_id":"4","last_reported":1773893498,"current_range_meters":6000,"station_id":"ce4bhmp2rcd13ifvqgog","pricing_plan_id":"cebpf4jnsgd1na2vs0mg"},{"bike_id":"07d60567-2528-4e84-9148-74d1d4501456","system_id":"levelo_inurba_marseille","lat":43.32052,"lon":5.41614,"is_reserved":false,"is_disabled":false,"rental_uris":{"android":"levelo://app?vid=07d60567-2528-4e84-9148-74d1d4501456","ios":"levelo://app?vid=07d60567-2528-4e84-9148-74d1d4501456"},"vehicle_type_id":"4","last_reported":1773893498,"current_range_meters":6000,"station_id":"ce4bhq92rcd13ifvqhkg","pricing_plan_id":"cebpf4jnsgd1na2vs0mg"},{"bike_id":"64f8e5fa-4ab6-4e22-8721-6a21ffbc83a2","system_id":"levelo_inurba_marseille","lat":43.30805,"lon":5.38152,"is_reserved":false,"is_disabled":false,"rental_uris":{"android":"levelo://app?vid=64f8e5fa-4ab6-4e22-8721-6a21ffbc83a2","ios":"levelo://app?vid=64f8e5fa-4ab6-4e22-8721-6a21ffbc83a2"},"vehicle_type_id":"4","last_reported":1773893498,"current_range_meters":6000,"station_id":"ce4bgt12rcd13ifvqce0","pricing_plan_id":"cebpf4jnsgd1na2vs0mg"},{"bike_id":"468fb610-ba08-4f8d-a7a9-de72d13055af","system_id":"levelo_inurba_marseille","lat":43.30348,"lon":5.41876,"is_reserved":false,"is_disabled":false,"rental_uris":{"android":"levelo://app?vid=468fb610-ba08-4f8d-a7a9-de72d13055af","ios":"levelo://app?vid=468fb610-ba08-4f8d-a7a9-de72d13055af"},"vehicle_type_id":"4","last_reported":1773893498,"current_range_meters":6000,"station_id":"ce4bhop2rcd13ifvqh7g","pricing_plan_id":"cebpf4jnsgd1na2vs0mg"},{"bike_id":"0a4cc8cc-8561-4700-9b0b-2de2bc0ea4f0","system_id":"levelo_inurba_marseille","lat":43.29509,"lon":5.38557,"is_reserved":false,"is_disabled":false,"rental_uris":{"android":"levelo://app?vid=0a4cc8cc-8561-4700-9b0b-2de2bc0ea4f0","ios":"levelo://app?vid=0a4cc8cc-8561-4700-9b0b-2de2bc0ea4f0"},"vehicle_type_id":"4","last_reported":1773893498,"current_range_meters":6000,"station_id":"ce4bgih2rcd13ifvqba0","pricing_plan_id":"cebpf4jnsgd1na2vs0mg"},{"bike_id":"a9430763-7b40-489c-99d2-1136f7fabb44","system_id":"levelo_inurba_marseille","lat":43.24652,"lon":5.38166,"is_reserved":false,"is_disabled":false,"rental_uris":{"android":"levelo://app?vid=a9430763-7b40-489c-99d2-1136f7fabb44","ios":"levelo://app?vid=a9430763-7b40-489c-99d2-1136f7fabb44"},"vehicle_type_id":"4","last_reported":1773893498,"current_range_meters":6000,"station_id":"ce4bhih2rcd13ifvqfr0","pricing_plan_id":"cebpf4jnsgd1na2vs0mg"},{"bike_id":"85b71d28-9c79-44cf-be34-d8cb9b4cf5ba","system_id":"levelo_inurba_marseille","lat":43.28933,"lon":5.39641,"is_reserved":false,"is_disabled":false,"rental_uris":{"android":"levelo://app?vid=85b71d28-9c79-44cf-be34-d8cb9b4cf5ba","ios":"levelo://app?vid=85b71d28-9c79-44cf-be34-d8cb9b4cf5ba"},"vehicle_type_id":"4","last_reported":1773893498,"current_range_meters":6000,"station_id":"ce4bh3h2rcd13ifvqdn0","pricing_plan_id":"cebpf4jnsgd1na2vs0mg"},{"bike_id":"761d37d3-db89-4d13-9748-49c3d92df949","system_id":"levelo_inurba_marseille","lat":43.24775,"lon":5.37466,"is_reserved":false,"is_disabled":false,"rental_uris":{"android":"levelo://app?vid=761d37d3-db89-4d13-9748-49c3d92df949","ios":"levelo://app?vid=761d37d3-db89-4d13-9748-49c3d92df949"},"vehicle_type_id":"4","last_reported":1773893498,"current_range_meters":6400,"station_id":"ce4bhgh2rcd13ifvqfb0","pricing_plan_id":"cebpf4jnsgd1na2vs0mg"},{"bike_id":"6b4c7c94-85db-4650-b07f-11e6e023d6bf","system_id":"levelo_inurba_marseille","lat":43.29687,"lon":5.36623,"is_reserved":false,"is_disabled":false,"rental_uris":{"android":"levelo://app?vid=6b4c7c94-85db-4650-b07f-11e6e023d6bf","ios":"levelo://app?vid=6b4c7c94-85db-4650-b07f-11e6e023d6bf"},"vehicle_type_id":"4","last_reported":1773893498,"current_range_meters":6400,"station_id":"ce4bgn12rcd13ifvqbt0","pricing_plan_id":"cebpf4jnsgd1na2vs0mg"},{"bike_id":"0c568fbf-621d-4cc8-ade7-4b24ab6705de","system_id":"levelo_inurba_marseille","lat":43.21742,"lon":5.34609,"is_reserved":false,"is_disabled":false,"rental_uris":{"android":"levelo://app?vid=0c568fbf-621d-4cc8-ade7-4b24ab6705de","ios":"levelo://app?vid=0c568fbf-621d-4cc8-ade7-4b24ab6705de"},"vehicle_type_id":"4","last_reported":1773893498,"current_range_meters":6400,"station_id":"st_cvj6r9ubvosntc0bgbag","pricing_plan_id":"cebpf4jnsgd1na2vs0mg"},{"bike_id":"76e1706c-e873-4d04-a022-af8d8cbc8ad4","system_id":"levelo_inurba_marseille","lat":43.29042,"lon":5.39955,"is_reserved":false,"is_disabled":false,"rental_uris":{"android":"levelo://app?vid=76e1706c-e873-4d04-a022-af8d8cbc8ad4","ios":"levelo://app?vid=76e1706c-e873-4d04-a022-af8d8cbc8ad4"},"vehicle_type_id":"4","last_reported":1773893498,"current_range_meters":6400,"station_id":"ce4bh392rcd13ifvqdm0","pricing_plan_id":"cebpf4jnsgd1na2vs0mg"},{"bike_id":"591c0d75-dd2c-4abc-8e75-7ed086672e0c","system_id":"levelo_inurba_marseille","lat":43.28204,"lon":5.39094,"is_reserved":false,"is_disabled":false,"rental_uris":{"android":"levelo://app?vid=591c0d75-dd2c-4abc-8e75-7ed086672e0c","ios":"levelo://app?vid=591c0d75-dd2c-4abc-8e75-7ed086672e0c"},"vehicle_type_id":"4","last_reported":1773893498,"current_range_meters":6400,"station_id":"ce4bhn92rcd13ifvqgsg","pricing_plan_id":"cebpf4jnsgd1na2vs0mg"},{"bike_id":"229dd96a-b45c-4a5a-874b-0eab785f2351","system_id":"levelo_inurba_marseille","lat":43.24679,"lon":5.3818,"is_reserved":false,"is_disabled":false,"rental_uris":{"android":"levelo://app?vid=229dd96a-b45c-4a5a-874b-0eab785f2351","ios":"levelo://app?vid=229dd96a-b45c-4a5a-874b-0eab785f2351"},"vehicle_type_id":"4","last_reported":1773893498,"current_range_meters":6400,"station_id":"ce4bhih2rcd13ifvqfr0","pricing_plan_id":"cebpf4jnsgd1na2vs0mg"},{"bike_id":"8aeba5db-197f-49b1-a261-21478d093086","system_id":"levelo_inurba_marseille","lat":43.28618,"lon":5.3986,"is_reserved":false,"is_disabled":false,"rental_uris":{"android":"levelo://app?vid=8aeba5db-197f-49b1-a261-21478d093086","ios":"levelo://app?vid=8aeba5db-197f-49b1-a261-21478d093086"},"vehicle_type_id":"4","last_reported":1773893498,"current_range_meters":6400,"station_id":"st_d4a7ka997mjs738ck50g","pricing_plan_id":"cebpf4jnsgd1na2vs0mg"},{"bike_id":"ab3cac62-79b2-440e-b0cf-d0c485cf97a8","system_id":"levelo_inurba_marseille","lat":43.25107,"lon":5.40327,"is_reserved":false,"is_disabled":false,"rental_uris":{"android":"levelo://app?vid=ab3cac62-79b2-440e-b0cf-d0c485cf97a8","ios":"levelo://app?vid=ab3cac62-79b2-440e-b0cf-d0c485cf97a8"},"vehicle_type_id":"4","last_reported":1773893498,"current_range_meters":6400,"station_id":"ce4bhlh2rcd13ifvqgig","pricing_plan_id":"cebpf4jnsgd1na2vs0mg"},{"bike_id":"00134890-8bfe-407b-a93e-dbda02d74615","system_id":"levelo_inurba_marseille","lat":43.28938,"lon":5.39635,"is_reserved":false,"is_disabled":false,"rental_uris":{"android":"levelo://app?vid=00134890-8bfe-407b-a93e-dbda02d74615","ios":"levelo://app?vid=00134890-8bfe-407b-a93e-dbda02d74615"},"vehicle_type_id":"4","last_reported":1773893498,"current_range_meters":6400,"station_id":"ce4bh3h2rcd13ifvqdn0","pricing_plan_id":"cebpf4jnsgd1na2vs0mg"},{"bike_id":"fad8e96d-acb2-4874-9608-7180f6b034b8","system_id":"levelo_inurba_marseille","lat":43.2914,"lon":5.40836,"is_reserved":false,"is_disabled":false,"rental_uris":{"android":"levelo://app?vid=fad8e96d-acb2-4874-9608-7180f6b034b8","ios":"levelo://app?vid=fad8e96d-acb2-4874-9608-7180f6b034b8"},"vehicle_type_id":"4","last_reported":1773893498,"current_range_meters":6400,"station_id":"","pricing_plan_id":"cebpf4jnsgd1na2vs0mg"},{"bike_id":"374e86a8-de2a-4cb2-86ef-d4458405b73e","system_id":"levelo_inurba_marseille","lat":43.28204,"lon":5.39095,"is_reserved":false,"is_disabled":false,"rental_uris":{"android":"levelo://app?vid=374e86a8-de2a-4cb2-86ef-d4458405b73e","ios":"levelo://app?vid=374e86a8-de2a-4cb2-86ef-d4458405b73e"},"vehicle_type_id":"4","last_reported":1773893498,"current_range_meters":6400,"station_id":"ce4bhn92rcd13ifvqgsg","pricing_plan_id":"cebpf4jnsgd1na2vs0mg"},{"bike_id":"a5d7a922-fa93-4b5a-85d5-d874d92b0a20","system_id":"levelo_inurba_marseille","lat":43.30639,"lon":5.39876,"is_reserved":false,"is_disabled":false,"rental_uris":{"android":"levelo://app?vid=a5d7a922-fa93-4b5a-85d5-d874d92b0a20","ios":"levelo://app?vid=a5d7a922-fa93-4b5a-85d5-d874d92b0a20"},"vehicle_type_id":"4","last_reported":1773893498,"current_range_meters":6400,"station_id":"","pricing_plan_id":"cebpf4jnsgd1na2vs0mg"},{"bike_id":"1c51670a-46e5-4a0c-9d9c-3c2806d077a8","system_id":"levelo_inurba_marseille","lat":43.29019,"lon":5.38107,"is_reserved":false,"is_disabled":true,"rental_uris":{"android":"levelo://app?vid=1c51670a-46e5-4a0c-9d9c-3c2806d077a8","ios":"levelo://app?vid=1c51670a-46e5-4a0c-9d9c-3c2806d077a8"},"vehicle_type_id":"4","last_reported":1773893498,"current_range_meters":6800,"station_id":"ce4bh4p2rcd13ifvqe1g","pricing_plan_id":"cebpf4jnsgd1na2vs0mg"},{"bike_id":"bf26da59-cb72-4e4e-b621-6bfffa8b5fe0","system_id":"levelo_inurba_marseille","lat":43.28098,"lon":5.37833,"is_reserved":false,"is_disabled":false,"rental_uris":{"android":"levelo://app?vid=bf26da59-cb72-4e4e-b621-6bfffa8b5fe0","ios":"levelo://app?vid=bf26da59-cb72-4e4e-b621-6bfffa8b5fe0"},"vehicle_type_id":"4","last_reported":1773893498,"current_range_meters":6800,"station_id":"ce4bha12rcd13ifvqee0","pricing_plan_id":"cebpf4jnsgd1na2vs0mg"},{"bike_id":"df9adaef-5509-4871-bf78-1814d256e6d4","system_id":"levelo_inurba_marseille","lat":43.28211,"lon":5.39044,"is_reserved":false,"is_disabled":false,"rental_uris":{"android":"levelo://app?vid=df9adaef-5509-4871-bf78-1814d256e6d4","ios":"levelo://app?vid=df9adaef-5509-4871-bf78-1814d256e6d4"},"vehicle_type_id":"4","last_reported":1773893498,"current_range_meters":6800,"station_id":"ce4bhn92rcd13ifvqgsg","pricing_plan_id":"cebpf4jnsgd1na2vs0mg"},{"bike_id":"35654e12-233a-4410-9b0d-c7a68cd6bff0","system_id":"levelo_inurba_marseille","lat":43.25088,"lon":5.39511,"is_reserved":false,"is_disabled":false,"rental_uris":{"android":"levelo://app?vid=35654e12-233a-4410-9b0d-c7a68cd6bff0","ios":"levelo://app?vid=35654e12-233a-4410-9b0d-c7a68cd6bff0"},"vehicle_type_id":"4","last_reported":1773893498,"current_range_meters":6800,"station_id":"ce4bhm12rcd13ifvqgkg","pricing_plan_id":"cebpf4jnsgd1na2vs0mg"},{"bike_id":"3fba1b49-30ec-4c3f-9ccd-7058b7f461b0","system_id":"levelo_inurba_marseille","lat":43.30107,"lon":5.3987,"is_reserved":false,"is_disabled":false,"rental_uris":{"android":"levelo://app?vid=3fba1b49-30ec-4c3f-9ccd-7058b7f461b0","ios":"levelo://app?vid=3fba1b49-30ec-4c3f-9ccd-7058b7f461b0"},"vehicle_type_id":"4","last_reported":1773893498,"current_range_meters":6800,"station_id":"ce4bh0h2rcd13ifvqd40","pricing_plan_id":"cebpf4jnsgd1na2vs0mg"},{"bike_id":"90e06dc1-4034-4aa0-b2a4-e14e93cda8f6","system_id":"levelo_inurba_marseille","lat":43.28466,"lon":5.35894,"is_reserved":false,"is_disabled":false,"rental_uris":{"android":"levelo://app?vid=90e06dc1-4034-4aa0-b2a4-e14e93cda8f6","ios":"levelo://app?vid=90e06dc1-4034-4aa0-b2a4-e14e93cda8f6"},"vehicle_type_id":"4","last_reported":1773893498,"current_range_meters":6800,"station_id":"ce4bhah2rcd13ifvqei0","pricing_plan_id":"cebpf4jnsgd1na2vs0mg"},{"bike_id":"ed694dc7-1d27-4b2c-aa18-f5cfb41e8483","system_id":"levelo_inurba_marseille","lat":43.30183,"lon":5.36615,"is_reserved":false,"is_disabled":false,"rental_uris":{"android":"levelo://app?vid=ed694dc7-1d27-4b2c-aa18-f5cfb41e8483","ios":"levelo://app?vid=ed694dc7-1d27-4b2c-aa18-f5cfb41e8483"},"vehicle_type_id":"4","last_reported":1773893498,"current_range_meters":6800,"station_id":"ce4bgrh2rcd13ifvqc8g","pricing_plan_id":"cebpf4jnsgd1na2vs0mg"},{"bike_id":"23e67bc3-c6df-471a-b481-46b83c355ff4","system_id":"levelo_inurba_marseille","lat":43.28412,"lon":5.37519,"is_reserved":false,"is_disabled":false,"rental_uris":{"android":"levelo://app?vid=23e67bc3-c6df-471a-b481-46b83c355ff4","ios":"levelo://app?vid=23e67bc3-c6df-471a-b481-46b83c355ff4"},"vehicle_type_id":"4","last_reported":1773893498,"current_range_meters":6800,"station_id":"ce4bh412rcd13ifvqds0","pricing_plan_id":"cebpf4jnsgd1na2vs0mg"},{"bike_id":"88db41f5-96f3-4155-a4d0-ecc56f594edb","system_id":"levelo_inurba_marseille","lat":43.22932,"lon":5.35377,"is_reserved":false,"is_disabled":false,"rental_uris":{"android":"levelo://app?vid=88db41f5-96f3-4155-a4d0-ecc56f594edb","ios":"levelo://app?vid=88db41f5-96f3-4155-a4d0-ecc56f594edb"},"vehicle_type_id":"4","last_reported":1773893498,"current_range_meters":6800,"station_id":"cpo3532slgdg3j2ikp40","pricing_plan_id":"cebpf4jnsgd1na2vs0mg"},{"bike_id":"df328e25-1611-43bf-a2a1-3abfc13c8928","system_id":"levelo_inurba_marseille","lat":43.24808,"lon":5.3747,"is_reserved":false,"is_disabled":false,"rental_uris":{"android":"levelo://app?vid=df328e25-1611-43bf-a2a1-3abfc13c8928","ios":"levelo://app?vid=df328e25-1611-43bf-a2a1-3abfc13c8928"},"vehicle_type_id":"4","last_reported":1773893498,"current_range_meters":6800,"station_id":"ce4bhgh2rcd13ifvqfb0","pricing_plan_id":"cebpf4jnsgd1na2vs0mg"},{"bike_id":"a238f644-6f8b-49ee-b43a-03a0fb52824a","system_id":"levelo_inurba_marseille","lat":43.28601,"lon":5.37054,"is_reserved":false,"is_disabled":false,"rental_uris":{"android":"levelo://app?vid=a238f644-6f8b-49ee-b43a-03a0fb52824a","ios":"levelo://app?vid=a238f644-6f8b-49ee-b43a-03a0fb52824a"},"vehicle_type_id":"4","last_reported":1773893498,"current_range_meters":6800,"station_id":"ce4bht12rcd13ifvqi60","pricing_plan_id":"cebpf4jnsgd1na2vs0mg"},{"bike_id":"d532de73-31b0-408e-96ce-6676e6435a22","system_id":"levelo_inurba_marseille","lat":43.21182,"lon":5.35076,"is_reserved":false,"is_disabled":false,"rental_uris":{"android":"levelo://app?vid=d532de73-31b0-408e-96ce-6676e6435a22","ios":"levelo://app?vid=d532de73-31b0-408e-96ce-6676e6435a22"},"vehicle_type_id":"4","last_reported":1773893498,"current_range_meters":7200,"station_id":"st_cvj6sg6p6f1abm77japg","pricing_plan_id":"cebpf4jnsgd1na2vs0mg"},{"bike_id":"a918d57a-c48c-4085-ac42-61882623bc55","system_id":"levelo_inurba_marseille","lat":43.2449,"lon":5.42535,"is_reserved":false,"is_disabled":false,"rental_uris":{"android":"levelo://app?vid=a918d57a-c48c-4085-ac42-61882623bc55","ios":"levelo://app?vid=a918d57a-c48c-4085-ac42-61882623bc55"},"vehicle_type_id":"4","last_reported":1773893498,"current_range_meters":7200,"station_id":"st_d4a3vfp97mjs738cd8kg","pricing_plan_id":"cebpf4jnsgd1na2vs0mg"},{"bike_id":"9596adc9-0a00-4fd5-8f7a-4107ab6390ef","system_id":"levelo_inurba_marseille","lat":43.29277,"lon":5.36847,"is_reserved":false,"is_disabled":false,"rental_uris":{"android":"levelo://app?vid=9596adc9-0a00-4fd5-8f7a-4107ab6390ef","ios":"levelo://app?vid=9596adc9-0a00-4fd5-8f7a-4107ab6390ef"},"vehicle_type_id":"4","last_reported":1773893498,"current_range_meters":7200,"station_id":"ce4bhbp2rcd13ifvqesg","pricing_plan_id":"cebpf4jnsgd1na2vs0mg"},{"bike_id":"3903529a-97cf-43f8-9c3a-f35f9c9bbdf2","system_id":"levelo_inurba_marseille","lat":43.3134,"lon":5.36751,"is_reserved":false,"is_disabled":true,"rental_uris":{"android":"levelo://app?vid=3903529a-97cf-43f8-9c3a-f35f9c9bbdf2","ios":"levelo://app?vid=3903529a-97cf-43f8-9c3a-f35f9c9bbdf2"},"vehicle_type_id":"4","last_reported":1773893498,"current_range_meters":7200,"station_id":"ce4bgr92rcd13ifvqc6g","pricing_plan_id":"cebpf4jnsgd1na2vs0mg"},{"bike_id":"1fdbd032-af28-4158-a02e-01bb107fd2a7","system_id":"levelo_inurba_marseille","lat":43.337444,"lon":5.374475,"is_reserved":false,"is_disabled":false,"rental_uris":{"android":"levelo://app?vid=1fdbd032-af28-4158-a02e-01bb107fd2a7","ios":"levelo://app?vid=1fdbd032-af28-4158-a02e-01bb107fd2a7"},"vehicle_type_id":"4","last_reported":1773893498,"current_range_meters":7200,"station_id":"","pricing_plan_id":"cebpf4jnsgd1na2vs0mg"},{"bike_id":"9e4d5daa-d3be-4fe6-8572-6c6fbbe8cce4","system_id":"levelo_inurba_marseille","lat":43.30528,"lon":5.39308,"is_reserved":false,"is_disabled":false,"rental_uris":{"android":"levelo://app?vid=9e4d5daa-d3be-4fe6-8572-6c6fbbe8cce4","ios":"levelo://app?vid=9e4d5daa-d3be-4fe6-8572-6c6fbbe8cce4"},"vehicle_type_id":"4","last_reported":1773893498,"current_range_meters":7200,"station_id":"","pricing_plan_id":"cebpf4jnsgd1na2vs0mg"},{"bike_id":"719e9861-af82-4022-a2ea-bd7d6f00ff5f","system_id":"levelo_inurba_marseille","lat":43.28729,"lon":5.42531,"is_reserved":false,"is_disabled":false,"rental_uris":{"android":"levelo://app?vid=719e9861-af82-4022-a2ea-bd7d6f00ff5f","ios":"levelo://app?vid=719e9861-af82-4022-a2ea-bd7d6f00ff5f"},"vehicle_type_id":"4","last_reported":1773893498,"current_range_meters":7200,"station_id":"","pricing_plan_id":"cebpf4jnsgd1na2vs0mg"},{"bike_id":"13ad50bf-7f2f-4ad1-a82f-209db682ff58","system_id":"levelo_inurba_marseille","lat":43.26569,"lon":5.39029,"is_reserved":false,"is_disabled":true,"rental_uris":{"android":"levelo://app?vid=13ad50bf-7f2f-4ad1-a82f-209db682ff58","ios":"levelo://app?vid=13ad50bf-7f2f-4ad1-a82f-209db682ff58"},"vehicle_type_id":"4","last_reported":1773893498,"current_range_meters":7200,"station_id":"ce4bhe12rcd13ifvqf30","pricing_plan_id":"cebpf4jnsgd1na2vs0mg"},{"bike_id":"c0ce446a-9085-4968-895d-00725cc652ae","system_id":"levelo_inurba_marseille","lat":43.29553,"lon":5.42314,"is_reserved":false,"is_disabled":false,"rental_uris":{"android":"levelo://app?vid=c0ce446a-9085-4968-895d-00725cc652ae","ios":"levelo://app?vid=c0ce446a-9085-4968-895d-00725cc652ae"},"vehicle_type_id":"4","last_reported":1773893498,"current_range_meters":7200,"station_id":"ce4bhph2rcd13ifvqhdg","pricing_plan_id":"cebpf4jnsgd1na2vs0mg"},{"bike_id":"db8208d8-7471-4d51-bb93-62ac819aca03","system_id":"levelo_inurba_marseille","lat":43.30056,"lon":5.38613,"is_reserved":false,"is_disabled":false,"rental_uris":{"android":"levelo://app?vid=db8208d8-7471-4d51-bb93-62ac819aca03","ios":"levelo://app?vid=db8208d8-7471-4d51-bb93-62ac819aca03"},"vehicle_type_id":"4","last_reported":1773893498,"current_range_meters":7200,"station_id":"","pricing_plan_id":"cebpf4jnsgd1na2vs0mg"},{"bike_id":"d9f8cdf3-4098-434d-8f89-edd8182a95e6","system_id":"levelo_inurba_marseille","lat":43.28442,"lon":5.3589,"is_reserved":false,"is_disabled":false,"rental_uris":{"android":"levelo://app?vid=d9f8cdf3-4098-434d-8f89-edd8182a95e6","ios":"levelo://app?vid=d9f8cdf3-4098-434d-8f89-edd8182a95e6"},"vehicle_type_id":"4","last_reported":1773893498,"current_range_meters":7200,"station_id":"ce4bhah2rcd13ifvqei0","pricing_plan_id":"cebpf4jnsgd1na2vs0mg"},{"bike_id":"95d31319-d36d-403e-adf6-0b51cdaa5b1b","system_id":"levelo_inurba_marseille","lat":43.31421,"lon":5.39258,"is_reserved":false,"is_disabled":true,"rental_uris":{"android":"levelo://app?vid=95d31319-d36d-403e-adf6-0b51cdaa5b1b","ios":"levelo://app?vid=95d31319-d36d-403e-adf6-0b51cdaa5b1b"},"vehicle_type_id":"4","last_reported":1773893498,"current_range_meters":7200,"station_id":"","pricing_plan_id":"cebpf4jnsgd1na2vs0mg"},{"bike_id":"35683867-cb85-4d1f-8925-8164f427b032","system_id":"levelo_inurba_marseille","lat":43.25329,"lon":5.42191,"is_reserved":false,"is_disabled":false,"rental_uris":{"android":"levelo://app?vid=35683867-cb85-4d1f-8925-8164f427b032","ios":"levelo://app?vid=35683867-cb85-4d1f-8925-8164f427b032"},"vehicle_type_id":"4","last_reported":1773893498,"current_range_meters":7200,"station_id":"st_d2m65c5bi1j21697t3ng","pricing_plan_id":"cebpf4jnsgd1na2vs0mg"},{"bike_id":"506661fa-d7d4-473c-8038-c16d45410fe8","system_id":"levelo_inurba_marseille","lat":43.28878,"lon":5.42527,"is_reserved":false,"is_disabled":false,"rental_uris":{"android":"levelo://app?vid=506661fa-d7d4-473c-8038-c16d45410fe8","ios":"levelo://app?vid=506661fa-d7d4-473c-8038-c16d45410fe8"},"vehicle_type_id":"4","last_reported":1773893498,"current_range_meters":7200,"station_id":"","pricing_plan_id":"cebpf4jnsgd1na2vs0mg"},{"bike_id":"237f593a-1dcd-48e0-99af-3a7cdcea79ad","system_id":"levelo_inurba_marseille","lat":43.29564,"lon":5.39968,"is_reserved":false,"is_disabled":false,"rental_uris":{"android":"levelo://app?vid=237f593a-1dcd-48e0-99af-3a7cdcea79ad","ios":"levelo://app?vid=237f593a-1dcd-48e0-99af-3a7cdcea79ad"},"vehicle_type_id":"4","last_reported":1773893498,"current_range_meters":7200,"station_id":"ce4bh312rcd13ifvqdj0","pricing_plan_id":"cebpf4jnsgd1na2vs0mg"},{"bike_id":"0ee4ce16-829f-49ee-9a2a-4b4670dfbc6f","system_id":"levelo_inurba_marseille","lat":43.28475,"lon":5.48394,"is_reserved":false,"is_disabled":false,"rental_uris":{"android":"levelo://app?vid=0ee4ce16-829f-49ee-9a2a-4b4670dfbc6f","ios":"levelo://app?vid=0ee4ce16-829f-49ee-9a2a-4b4670dfbc6f"},"vehicle_type_id":"4","last_reported":1773893498,"current_range_meters":7200,"station_id":"st_d3svhcjqgbts73a3dn0g","pricing_plan_id":"cebpf4jnsgd1na2vs0mg"},{"bike_id":"caf5e45c-f3f2-43eb-99a6-b11ec33451e8","system_id":"levelo_inurba_marseille","lat":43.23998,"lon":5.36569,"is_reserved":false,"is_disabled":false,"rental_uris":{"android":"levelo://app?vid=caf5e45c-f3f2-43eb-99a6-b11ec33451e8","ios":"levelo://app?vid=caf5e45c-f3f2-43eb-99a6-b11ec33451e8"},"vehicle_type_id":"4","last_reported":1773893498,"current_range_meters":7200,"station_id":"","pricing_plan_id":"cebpf4jnsgd1na2vs0mg"},{"bike_id":"c630e9fc-07eb-44fb-b665-baf3e779b83f","system_id":"levelo_inurba_marseille","lat":43.2854,"lon":5.44128,"is_reserved":false,"is_disabled":false,"rental_uris":{"android":"levelo://app?vid=c630e9fc-07eb-44fb-b665-baf3e779b83f","ios":"levelo://app?vid=c630e9fc-07eb-44fb-b665-baf3e779b83f"},"vehicle_type_id":"4","last_reported":1773893498,"current_range_meters":7200,"station_id":"st_d3j3df2ikq2c7380ej80","pricing_plan_id":"cebpf4jnsgd1na2vs0mg"},{"bike_id":"04f85f0d-af46-4c30-9b6b-f58095b3a515","system_id":"levelo_inurba_marseille","lat":43.27202,"lon":5.39182,"is_reserved":false,"is_disabled":false,"rental_uris":{"android":"levelo://app?vid=04f85f0d-af46-4c30-9b6b-f58095b3a515","ios":"levelo://app?vid=04f85f0d-af46-4c30-9b6b-f58095b3a515"},"vehicle_type_id":"4","last_reported":1773893498,"current_range_meters":7200,"station_id":"ce4bhhp2rcd13ifvqfm0","pricing_plan_id":"cebpf4jnsgd1na2vs0mg"},{"bike_id":"6fea97c1-d456-4b21-8bd5-a1c9cce26929","system_id":"levelo_inurba_marseille","lat":43.28436,"lon":5.35913,"is_reserved":false,"is_disabled":false,"rental_uris":{"android":"levelo://app?vid=6fea97c1-d456-4b21-8bd5-a1c9cce26929","ios":"levelo://app?vid=6fea97c1-d456-4b21-8bd5-a1c9cce26929"},"vehicle_type_id":"4","last_reported":1773893498,"current_range_meters":7200,"station_id":"ce4bhah2rcd13ifvqei0","pricing_plan_id":"cebpf4jnsgd1na2vs0mg"},{"bike_id":"72a1402b-d8db-44a2-83e4-6c2a4e4e7c1e","system_id":"levelo_inurba_marseille","lat":43.2798,"lon":5.41655,"is_reserved":false,"is_disabled":false,"rental_uris":{"android":"levelo://app?vid=72a1402b-d8db-44a2-83e4-6c2a4e4e7c1e","ios":"levelo://app?vid=72a1402b-d8db-44a2-83e4-6c2a4e4e7c1e"},"vehicle_type_id":"4","last_reported":1773893498,"current_range_meters":7200,"station_id":"ce4bho12rcd13ifvqh1g","pricing_plan_id":"cebpf4jnsgd1na2vs0mg"},{"bike_id":"c5b4f8a5-5a6c-40ba-9197-52b134bfa2c4","system_id":"levelo_inurba_marseille","lat":43.30433,"lon":5.38972,"is_reserved":false,"is_disabled":false,"rental_uris":{"android":"levelo://app?vid=c5b4f8a5-5a6c-40ba-9197-52b134bfa2c4","ios":"levelo://app?vid=c5b4f8a5-5a6c-40ba-9197-52b134bfa2c4"},"vehicle_type_id":"4","last_reported":1773893498,"current_range_meters":7200,"station_id":"","pricing_plan_id":"cebpf4jnsgd1na2vs0mg"},{"bike_id":"c71d653d-969c-445e-97ca-3dcef61e7ad4","system_id":"levelo_inurba_marseille","lat":43.29201,"lon":5.39334,"is_reserved":false,"is_disabled":false,"rental_uris":{"android":"levelo://app?vid=c71d653d-969c-445e-97ca-3dcef61e7ad4","ios":"levelo://app?vid=c71d653d-969c-445e-97ca-3dcef61e7ad4"},"vehicle_type_id":"4","last_reported":1773893498,"current_range_meters":7200,"station_id":"ce4bh192rcd13ifvqdd0","pricing_plan_id":"cebpf4jnsgd1na2vs0mg"},{"bike_id":"73e44213-1cd8-4593-a09e-a9c4a914a5d2","system_id":"levelo_inurba_marseille","lat":43.2848,"lon":5.48391,"is_reserved":false,"is_disabled":false,"rental_uris":{"android":"levelo://app?vid=73e44213-1cd8-4593-a09e-a9c4a914a5d2","ios":"levelo://app?vid=73e44213-1cd8-4593-a09e-a9c4a914a5d2"},"vehicle_type_id":"4","last_reported":1773893498,"current_range_meters":7200,"station_id":"","pricing_plan_id":"cebpf4jnsgd1na2vs0mg"},{"bike_id":"0f0f3f3e-0b16-46b6-a723-9cf6c82a3bfc","system_id":"levelo_inurba_marseille","lat":43.27503,"lon":5.41576,"is_reserved":false,"is_disabled":false,"rental_uris":{"android":"levelo://app?vid=0f0f3f3e-0b16-46b6-a723-9cf6c82a3bfc","ios":"levelo://app?vid=0f0f3f3e-0b16-46b6-a723-9cf6c82a3bfc"},"vehicle_type_id":"4","last_reported":1773893498,"current_range_meters":7200,"station_id":"st_d6im8g6chgec73a5pndg","pricing_plan_id":"cebpf4jnsgd1na2vs0mg"},{"bike_id":"dd8390c9-eed9-4b5d-95df-1b40250bc11f","system_id":"levelo_inurba_marseille","lat":43.21594,"lon":5.34533,"is_reserved":false,"is_disabled":false,"rental_uris":{"android":"levelo://app?vid=dd8390c9-eed9-4b5d-95df-1b40250bc11f","ios":"levelo://app?vid=dd8390c9-eed9-4b5d-95df-1b40250bc11f"},"vehicle_type_id":"4","last_reported":1773893498,"current_range_meters":7200,"station_id":"","pricing_plan_id":"cebpf4jnsgd1na2vs0mg"},{"bike_id":"0c506fac-9822-4d55-93b9-ec283cf22639","system_id":"levelo_inurba_marseille","lat":43.2689,"lon":5.40511,"is_reserved":false,"is_disabled":false,"rental_uris":{"android":"levelo://app?vid=0c506fac-9822-4d55-93b9-ec283cf22639","ios":"levelo://app?vid=0c506fac-9822-4d55-93b9-ec283cf22639"},"vehicle_type_id":"4","last_reported":1773893498,"current_range_meters":7200,"station_id":"","pricing_plan_id":"cebpf4jnsgd1na2vs0mg"},{"bike_id":"e48e6d48-d180-4130-952c-74c2f53a8488","system_id":"levelo_inurba_marseille","lat":43.28928,"lon":5.36408,"is_reserved":false,"is_disabled":false,"rental_uris":{"android":"levelo://app?vid=e48e6d48-d180-4130-952c-74c2f53a8488","ios":"levelo://app?vid=e48e6d48-d180-4130-952c-74c2f53a8488"},"vehicle_type_id":"4","last_reported":1773893498,"current_range_meters":8000,"station_id":"ce4bhc92rcd13ifvqetg","pricing_plan_id":"cebpf4jnsgd1na2vs0mg"},{"bike_id":"f3fd11ec-6a83-4fbf-b4de-caf200bc9083","system_id":"levelo_inurba_marseille","lat":43.31175,"lon":5.38559,"is_reserved":false,"is_disabled":false,"rental_uris":{"android":"levelo://app?vid=f3fd11ec-6a83-4fbf-b4de-caf200bc9083","ios":"levelo://app?vid=f3fd11ec-6a83-4fbf-b4de-caf200bc9083"},"vehicle_type_id":"4","last_reported":1773893498,"current_range_meters":8000,"station_id":"","pricing_plan_id":"cebpf4jnsgd1na2vs0mg"},{"bike_id":"4603d8e6-1bdb-4e77-a999-dd174df795dd","system_id":"levelo_inurba_marseille","lat":43.21741,"lon":5.34609,"is_reserved":false,"is_disabled":false,"rental_uris":{"android":"levelo://app?vid=4603d8e6-1bdb-4e77-a999-dd174df795dd","ios":"levelo://app?vid=4603d8e6-1bdb-4e77-a999-dd174df795dd"},"vehicle_type_id":"4","last_reported":1773893498,"current_range_meters":8000,"station_id":"st_cvj6r9ubvosntc0bgbag","pricing_plan_id":"cebpf4jnsgd1na2vs0mg"},{"bike_id":"94f8f466-8e71-4f87-978f-df55f1bc6e54","system_id":"levelo_inurba_marseille","lat":43.21174,"lon":5.35077,"is_reserved":false,"is_disabled":false,"rental_uris":{"android":"levelo://app?vid=94f8f466-8e71-4f87-978f-df55f1bc6e54","ios":"levelo://app?vid=94f8f466-8e71-4f87-978f-df55f1bc6e54"},"vehicle_type_id":"4","last_reported":1773893498,"current_range_meters":8000,"station_id":"st_cvj6sg6p6f1abm77japg","pricing_plan_id":"cebpf4jnsgd1na2vs0mg"},{"bike_id":"69eb8448-c0e0-496f-831c-8ada77fd31e2","system_id":"levelo_inurba_marseille","lat":43.2306,"lon":5.35487,"is_reserved":false,"is_disabled":false,"rental_uris":{"android":"levelo://app?vid=69eb8448-c0e0-496f-831c-8ada77fd31e2","ios":"levelo://app?vid=69eb8448-c0e0-496f-831c-8ada77fd31e2"},"vehicle_type_id":"4","last_reported":1773893498,"current_range_meters":8000,"station_id":"cpo3342slgdg3j2ifvpg","pricing_plan_id":"cebpf4jnsgd1na2vs0mg"},{"bike_id":"d7a795fb-5111-470c-9656-6fc028dd6f7f","system_id":"levelo_inurba_marseille","lat":43.26234,"lon":5.37473,"is_reserved":false,"is_disabled":false,"rental_uris":{"android":"levelo://app?vid=d7a795fb-5111-470c-9656-6fc028dd6f7f","ios":"levelo://app?vid=d7a795fb-5111-470c-9656-6fc028dd6f7f"},"vehicle_type_id":"4","last_reported":1773893498,"current_range_meters":8000,"station_id":"","pricing_plan_id":"cebpf4jnsgd1na2vs0mg"},{"bike_id":"bd60a6ec-18d4-4476-ab1b-f354043c4b72","system_id":"levelo_inurba_marseille","lat":43.29806,"lon":5.42659,"is_reserved":false,"is_disabled":false,"rental_uris":{"android":"levelo://app?vid=bd60a6ec-18d4-4476-ab1b-f354043c4b72","ios":"levelo://app?vid=bd60a6ec-18d4-4476-ab1b-f354043c4b72"},"vehicle_type_id":"4","last_reported":1773893498,"current_range_meters":8000,"station_id":"","pricing_plan_id":"cebpf4jnsgd1na2vs0mg"},{"bike_id":"8c29270d-5d11-446e-a3f0-f5c56ae9c816","system_id":"levelo_inurba_marseille","lat":43.27531,"lon":5.43323,"is_reserved":false,"is_disabled":false,"rental_uris":{"android":"levelo://app?vid=8c29270d-5d11-446e-a3f0-f5c56ae9c816","ios":"levelo://app?vid=8c29270d-5d11-446e-a3f0-f5c56ae9c816"},"vehicle_type_id":"4","last_reported":1773893498,"current_range_meters":8000,"station_id":"","pricing_plan_id":"cebpf4jnsgd1na2vs0mg"},{"bike_id":"fe84594a-cdc2-4e5f-83a2-4d80f9f5966d","system_id":"levelo_inurba_marseille","lat":43.29005,"lon":5.35629,"is_reserved":false,"is_disabled":true,"rental_uris":{"android":"levelo://app?vid=fe84594a-cdc2-4e5f-83a2-4d80f9f5966d","ios":"levelo://app?vid=fe84594a-cdc2-4e5f-83a2-4d80f9f5966d"},"vehicle_type_id":"4","last_reported":1773893498,"current_range_meters":8000,"station_id":"ce4bhb92rcd13ifvqen0","pricing_plan_id":"cebpf4jnsgd1na2vs0mg"},{"bike_id":"1eeb8fd8-3c0c-40ec-bab7-6b173acf9405","system_id":"levelo_inurba_marseille","lat":43.22937,"lon":5.35366,"is_reserved":false,"is_disabled":false,"rental_uris":{"android":"levelo://app?vid=1eeb8fd8-3c0c-40ec-bab7-6b173acf9405","ios":"levelo://app?vid=1eeb8fd8-3c0c-40ec-bab7-6b173acf9405"},"vehicle_type_id":"4","last_reported":1773893498,"current_range_meters":8000,"station_id":"cpo3532slgdg3j2ikp40","pricing_plan_id":"cebpf4jnsgd1na2vs0mg"},{"bike_id":"28c98944-88ea-4ede-bcc6-7ffd113be00f","system_id":"levelo_inurba_marseille","lat":43.29558,"lon":5.37553,"is_reserved":false,"is_disabled":false,"rental_uris":{"android":"levelo://app?vid=28c98944-88ea-4ede-bcc6-7ffd113be00f","ios":"levelo://app?vid=28c98944-88ea-4ede-bcc6-7ffd113be00f"},"vehicle_type_id":"4","last_reported":1773893498,"current_range_meters":8000,"station_id":"ce4bgh92rcd13ifvqb50","pricing_plan_id":"cebpf4jnsgd1na2vs0mg"},{"bike_id":"f9cbb5c0-15f3-4ddf-b4f4-fe1b0d0a2d4c","system_id":"levelo_inurba_marseille","lat":43.31204,"lon":5.38757,"is_reserved":false,"is_disabled":true,"rental_uris":{"android":"levelo://app?vid=f9cbb5c0-15f3-4ddf-b4f4-fe1b0d0a2d4c","ios":"levelo://app?vid=f9cbb5c0-15f3-4ddf-b4f4-fe1b0d0a2d4c"},"vehicle_type_id":"4","last_reported":1773893498,"current_range_meters":8000,"station_id":"ce4bgv12rcd13ifvqcp0","pricing_plan_id":"cebpf4jnsgd1na2vs0mg"},{"bike_id":"f1157430-cc99-47be-b36c-b2ae02678b63","system_id":"levelo_inurba_marseille","lat":43.29798,"lon":5.40413,"is_reserved":false,"is_disabled":false,"rental_uris":{"android":"levelo://app?vid=f1157430-cc99-47be-b36c-b2ae02678b63","ios":"levelo://app?vid=f1157430-cc99-47be-b36c-b2ae02678b63"},"vehicle_type_id":"4","last_reported":1773893498,"current_range_meters":8000,"station_id":"ce4bh112rcd13ifvqd90","pricing_plan_id":"cebpf4jnsgd1na2vs0mg"},{"bike_id":"5d426646-1dfd-423a-8357-cbae22705137","system_id":"levelo_inurba_marseille","lat":43.28935,"lon":5.39639,"is_reserved":false,"is_disabled":false,"rental_uris":{"android":"levelo://app?vid=5d426646-1dfd-423a-8357-cbae22705137","ios":"levelo://app?vid=5d426646-1dfd-423a-8357-cbae22705137"},"vehicle_type_id":"4","last_reported":1773893498,"current_range_meters":8000,"station_id":"ce4bh3h2rcd13ifvqdn0","pricing_plan_id":"cebpf4jnsgd1na2vs0mg"},{"bike_id":"09c6bd8c-631e-428d-95ab-99a2c53a3ed5","system_id":"levelo_inurba_marseille","lat":43.27509,"lon":5.41615,"is_reserved":false,"is_disabled":false,"rental_uris":{"android":"levelo://app?vid=09c6bd8c-631e-428d-95ab-99a2c53a3ed5","ios":"levelo://app?vid=09c6bd8c-631e-428d-95ab-99a2c53a3ed5"},"vehicle_type_id":"4","last_reported":1773893498,"current_range_meters":8000,"station_id":"st_d6im8g6chgec73a5pndg","pricing_plan_id":"cebpf4jnsgd1na2vs0mg"},{"bike_id":"e6afcb70-34a3-4bcb-a416-6d416a51631e","system_id":"levelo_inurba_marseille","lat":43.24951,"lon":5.40499,"is_reserved":false,"is_disabled":false,"rental_uris":{"android":"levelo://app?vid=e6afcb70-34a3-4bcb-a416-6d416a51631e","ios":"levelo://app?vid=e6afcb70-34a3-4bcb-a416-6d416a51631e"},"vehicle_type_id":"4","last_reported":1773893498,"current_range_meters":8000,"station_id":"st_d2ngiaodas8pm72gd1h0","pricing_plan_id":"cebpf4jnsgd1na2vs0mg"},{"bike_id":"7dde3dd0-3874-4b64-b6e5-6092e4aea18b","system_id":"levelo_inurba_marseille","lat":43.30006,"lon":5.37218,"is_reserved":false,"is_disabled":false,"rental_uris":{"android":"levelo://app?vid=7dde3dd0-3874-4b64-b6e5-6092e4aea18b","ios":"levelo://app?vid=7dde3dd0-3874-4b64-b6e5-6092e4aea18b"},"vehicle_type_id":"4","last_reported":1773893498,"current_range_meters":8000,"station_id":"ce4bgr92rcd13ifvqc7g","pricing_plan_id":"cebpf4jnsgd1na2vs0mg"},{"bike_id":"242e0753-12d5-492e-a5c0-5df875cc0675","system_id":"levelo_inurba_marseille","lat":43.31321,"lon":5.39688,"is_reserved":false,"is_disabled":false,"rental_uris":{"android":"levelo://app?vid=242e0753-12d5-492e-a5c0-5df875cc0675","ios":"levelo://app?vid=242e0753-12d5-492e-a5c0-5df875cc0675"},"vehicle_type_id":"4","last_reported":1773893498,"current_range_meters":8000,"station_id":"ce4bgvp2rcd13ifvqcu0","pricing_plan_id":"cebpf4jnsgd1na2vs0mg"},{"bike_id":"88b741cf-9e79-45ce-bd0e-3e7237093c90","system_id":"levelo_inurba_marseille","lat":43.28613,"lon":5.39885,"is_reserved":false,"is_disabled":false,"rental_uris":{"android":"levelo://app?vid=88b741cf-9e79-45ce-bd0e-3e7237093c90","ios":"levelo://app?vid=88b741cf-9e79-45ce-bd0e-3e7237093c90"},"vehicle_type_id":"4","last_reported":1773893498,"current_range_meters":8000,"station_id":"st_d4a7ka997mjs738ck50g","pricing_plan_id":"cebpf4jnsgd1na2vs0mg"},{"bike_id":"35d66403-7684-403f-be32-0cfb926a4ac4","system_id":"levelo_inurba_marseille","lat":43.31499,"lon":5.3729,"is_reserved":false,"is_disabled":false,"rental_uris":{"android":"levelo://app?vid=35d66403-7684-403f-be32-0cfb926a4ac4","ios":"levelo://app?vid=35d66403-7684-403f-be32-0cfb926a4ac4"},"vehicle_type_id":"4","last_reported":1773893498,"current_range_meters":8000,"station_id":"ce4bgt12rcd13ifvqcd0","pricing_plan_id":"cebpf4jnsgd1na2vs0mg"},{"bike_id":"78c86868-a79f-4f2a-bb9a-961b0f22d36b","system_id":"levelo_inurba_marseille","lat":43.29979,"lon":5.38642,"is_reserved":false,"is_disabled":false,"rental_uris":{"android":"levelo://app?vid=78c86868-a79f-4f2a-bb9a-961b0f22d36b","ios":"levelo://app?vid=78c86868-a79f-4f2a-bb9a-961b0f22d36b"},"vehicle_type_id":"4","last_reported":1773893498,"current_range_meters":8000,"station_id":"","pricing_plan_id":"cebpf4jnsgd1na2vs0mg"},{"bike_id":"5671440c-19fc-480b-8cdb-b024a111e462","system_id":"levelo_inurba_marseille","lat":43.23795,"lon":5.41441,"is_reserved":false,"is_disabled":false,"rental_uris":{"android":"levelo://app?vid=5671440c-19fc-480b-8cdb-b024a111e462","ios":"levelo://app?vid=5671440c-19fc-480b-8cdb-b024a111e462"},"vehicle_type_id":"4","last_reported":1773893498,"current_range_meters":8000,"station_id":"","pricing_plan_id":"cebpf4jnsgd1na2vs0mg"},{"bike_id":"24dc1ce5-2db6-421b-869a-69d6f082b300","system_id":"levelo_inurba_marseille","lat":43.29813,"lon":5.36255,"is_reserved":false,"is_disabled":false,"rental_uris":{"android":"levelo://app?vid=24dc1ce5-2db6-421b-869a-69d6f082b300","ios":"levelo://app?vid=24dc1ce5-2db6-421b-869a-69d6f082b300"},"vehicle_type_id":"4","last_reported":1773893498,"current_range_meters":8400,"station_id":"ce4bgpp2rcd13ifvqc3g","pricing_plan_id":"cebpf4jnsgd1na2vs0mg"},{"bike_id":"f1a924eb-dba3-4a70-837d-f478e7e4a111","system_id":"levelo_inurba_marseille","lat":43.28269,"lon":5.3505,"is_reserved":false,"is_disabled":false,"rental_uris":{"android":"levelo://app?vid=f1a924eb-dba3-4a70-837d-f478e7e4a111","ios":"levelo://app?vid=f1a924eb-dba3-4a70-837d-f478e7e4a111"},"vehicle_type_id":"4","last_reported":1773893498,"current_range_meters":8400,"station_id":"ce4bhbp2rcd13ifvqerg","pricing_plan_id":"cebpf4jnsgd1na2vs0mg"},{"bike_id":"2518bae7-c776-42cd-b319-3c6b0327da59","system_id":"levelo_inurba_marseille","lat":43.28448,"lon":5.35925,"is_reserved":false,"is_disabled":false,"rental_uris":{"android":"levelo://app?vid=2518bae7-c776-42cd-b319-3c6b0327da59","ios":"levelo://app?vid=2518bae7-c776-42cd-b319-3c6b0327da59"},"vehicle_type_id":"4","last_reported":1773893498,"current_range_meters":8400,"station_id":"ce4bhah2rcd13ifvqei0","pricing_plan_id":"cebpf4jnsgd1na2vs0mg"},{"bike_id":"f7e79517-161a-451a-8a95-bb710b1b4d21","system_id":"levelo_inurba_marseille","lat":43.29843,"lon":5.37897,"is_reserved":false,"is_disabled":false,"rental_uris":{"android":"levelo://app?vid=f7e79517-161a-451a-8a95-bb710b1b4d21","ios":"levelo://app?vid=f7e79517-161a-451a-8a95-bb710b1b4d21"},"vehicle_type_id":"4","last_reported":1773893498,"current_range_meters":8400,"station_id":"","pricing_plan_id":"cebpf4jnsgd1na2vs0mg"},{"bike_id":"e96aa17b-a380-4269-aa15-f0a6d9e3febf","system_id":"levelo_inurba_marseille","lat":43.21754,"lon":5.34605,"is_reserved":false,"is_disabled":false,"rental_uris":{"android":"levelo://app?vid=e96aa17b-a380-4269-aa15-f0a6d9e3febf","ios":"levelo://app?vid=e96aa17b-a380-4269-aa15-f0a6d9e3febf"},"vehicle_type_id":"4","last_reported":1773893498,"current_range_meters":8400,"station_id":"st_cvj6r9ubvosntc0bgbag","pricing_plan_id":"cebpf4jnsgd1na2vs0mg"},{"bike_id":"25bcabe1-92ae-44f5-a77b-c38e78e1736d","system_id":"levelo_inurba_marseille","lat":43.301612,"lon":5.380689,"is_reserved":false,"is_disabled":false,"rental_uris":{"android":"levelo://app?vid=25bcabe1-92ae-44f5-a77b-c38e78e1736d","ios":"levelo://app?vid=25bcabe1-92ae-44f5-a77b-c38e78e1736d"},"vehicle_type_id":"4","last_reported":1773893498,"current_range_meters":8400,"station_id":"ce4bgjp2rcd13ifvqbh0","pricing_plan_id":"cebpf4jnsgd1na2vs0mg"},{"bike_id":"081a0881-89b6-4aec-8d87-38fd39de8439","system_id":"levelo_inurba_marseille","lat":43.28518,"lon":5.44104,"is_reserved":false,"is_disabled":false,"rental_uris":{"android":"levelo://app?vid=081a0881-89b6-4aec-8d87-38fd39de8439","ios":"levelo://app?vid=081a0881-89b6-4aec-8d87-38fd39de8439"},"vehicle_type_id":"4","last_reported":1773893498,"current_range_meters":8400,"station_id":"st_d3j3df2ikq2c7380ej80","pricing_plan_id":"cebpf4jnsgd1na2vs0mg"},{"bike_id":"6b218720-7d53-4c1e-b1c9-5dbfa513b086","system_id":"levelo_inurba_marseille","lat":43.23965,"lon":5.36627,"is_reserved":false,"is_disabled":false,"rental_uris":{"android":"levelo://app?vid=6b218720-7d53-4c1e-b1c9-5dbfa513b086","ios":"levelo://app?vid=6b218720-7d53-4c1e-b1c9-5dbfa513b086"},"vehicle_type_id":"4","last_reported":1773893498,"current_range_meters":8400,"station_id":"ce4bhi12rcd13ifvqfp0","pricing_plan_id":"cebpf4jnsgd1na2vs0mg"},{"bike_id":"7f576143-d504-4322-ab64-510745c9e514","system_id":"levelo_inurba_marseille","lat":43.28126,"lon":5.42642,"is_reserved":false,"is_disabled":false,"rental_uris":{"android":"levelo://app?vid=7f576143-d504-4322-ab64-510745c9e514","ios":"levelo://app?vid=7f576143-d504-4322-ab64-510745c9e514"},"vehicle_type_id":"4","last_reported":1773893498,"current_range_meters":8400,"station_id":"ce4bhnh2rcd13ifvqgug","pricing_plan_id":"cebpf4jnsgd1na2vs0mg"},{"bike_id":"623306fd-5411-42ac-b7b9-0776b8a65ddf","system_id":"levelo_inurba_marseille","lat":43.24827,"lon":5.3749,"is_reserved":false,"is_disabled":false,"rental_uris":{"android":"levelo://app?vid=623306fd-5411-42ac-b7b9-0776b8a65ddf","ios":"levelo://app?vid=623306fd-5411-42ac-b7b9-0776b8a65ddf"},"vehicle_type_id":"4","last_reported":1773893498,"current_range_meters":8400,"station_id":"","pricing_plan_id":"cebpf4jnsgd1na2vs0mg"},{"bike_id":"84e4f143-390f-4259-aeab-8e03ce3223a5","system_id":"levelo_inurba_marseille","lat":43.28212,"lon":5.40552,"is_reserved":false,"is_disabled":false,"rental_uris":{"android":"levelo://app?vid=84e4f143-390f-4259-aeab-8e03ce3223a5","ios":"levelo://app?vid=84e4f143-390f-4259-aeab-8e03ce3223a5"},"vehicle_type_id":"4","last_reported":1773893498,"current_range_meters":8400,"station_id":"","pricing_plan_id":"cebpf4jnsgd1na2vs0mg"},{"bike_id":"a7589a93-7e92-46e3-9adb-33c382fc7b2d","system_id":"levelo_inurba_marseille","lat":43.23966,"lon":5.36618,"is_reserved":false,"is_disabled":false,"rental_uris":{"android":"levelo://app?vid=a7589a93-7e92-46e3-9adb-33c382fc7b2d","ios":"levelo://app?vid=a7589a93-7e92-46e3-9adb-33c382fc7b2d"},"vehicle_type_id":"4","last_reported":1773893498,"current_range_meters":8400,"station_id":"ce4bhi12rcd13ifvqfp0","pricing_plan_id":"cebpf4jnsgd1na2vs0mg"},{"bike_id":"d326b34d-753e-4c47-ac30-b7e84de532c1","system_id":"levelo_inurba_marseille","lat":43.28614,"lon":5.39876,"is_reserved":false,"is_disabled":false,"rental_uris":{"android":"levelo://app?vid=d326b34d-753e-4c47-ac30-b7e84de532c1","ios":"levelo://app?vid=d326b34d-753e-4c47-ac30-b7e84de532c1"},"vehicle_type_id":"4","last_reported":1773893498,"current_range_meters":8400,"station_id":"st_d4a7ka997mjs738ck50g","pricing_plan_id":"cebpf4jnsgd1na2vs0mg"},{"bike_id":"87345cb3-d88b-4a32-95d9-43e85017845b","system_id":"levelo_inurba_marseille","lat":43.30153,"lon":5.37402,"is_reserved":false,"is_disabled":false,"rental_uris":{"android":"levelo://app?vid=87345cb3-d88b-4a32-95d9-43e85017845b","ios":"levelo://app?vid=87345cb3-d88b-4a32-95d9-43e85017845b"},"vehicle_type_id":"4","last_reported":1773893498,"current_range_meters":8400,"station_id":"ce4bgs92rcd13ifvqcc0","pricing_plan_id":"cebpf4jnsgd1na2vs0mg"},{"bike_id":"ed830c80-d296-4e18-a609-6c3b5811fd50","system_id":"levelo_inurba_marseille","lat":43.29795,"lon":5.39353,"is_reserved":false,"is_disabled":false,"rental_uris":{"android":"levelo://app?vid=ed830c80-d296-4e18-a609-6c3b5811fd50","ios":"levelo://app?vid=ed830c80-d296-4e18-a609-6c3b5811fd50"},"vehicle_type_id":"4","last_reported":1773893498,"current_range_meters":8400,"station_id":"chh1huq6cuj3fo74tm60","pricing_plan_id":"cebpf4jnsgd1na2vs0mg"},{"bike_id":"b7e87515-c3ea-478e-bf01-a70f86b2f092","system_id":"levelo_inurba_marseille","lat":43.24171,"lon":5.36387,"is_reserved":false,"is_disabled":false,"rental_uris":{"android":"levelo://app?vid=b7e87515-c3ea-478e-bf01-a70f86b2f092","ios":"levelo://app?vid=b7e87515-c3ea-478e-bf01-a70f86b2f092"},"vehicle_type_id":"4","last_reported":1773893498,"current_range_meters":8400,"station_id":"cpo36qri1sfpv3e86is0","pricing_plan_id":"cebpf4jnsgd1na2vs0mg"},{"bike_id":"591637eb-a256-445f-b11a-47e07652d095","system_id":"levelo_inurba_marseille","lat":43.28155,"lon":5.42644,"is_reserved":false,"is_disabled":false,"rental_uris":{"android":"levelo://app?vid=591637eb-a256-445f-b11a-47e07652d095","ios":"levelo://app?vid=591637eb-a256-445f-b11a-47e07652d095"},"vehicle_type_id":"4","last_reported":1773893498,"current_range_meters":8400,"station_id":"ce4bhnh2rcd13ifvqgug","pricing_plan_id":"cebpf4jnsgd1na2vs0mg"},{"bike_id":"0f988d7c-199c-45b5-ba6e-7ba5bd7d524c","system_id":"levelo_inurba_marseille","lat":43.30762,"lon":5.37664,"is_reserved":false,"is_disabled":false,"rental_uris":{"android":"levelo://app?vid=0f988d7c-199c-45b5-ba6e-7ba5bd7d524c","ios":"levelo://app?vid=0f988d7c-199c-45b5-ba6e-7ba5bd7d524c"},"vehicle_type_id":"4","last_reported":1773893498,"current_range_meters":8400,"station_id":"ce4bgv92rcd13ifvqcq0","pricing_plan_id":"cebpf4jnsgd1na2vs0mg"},{"bike_id":"970fef3c-d7c7-49b2-b1e6-7f030f95a7f4","system_id":"levelo_inurba_marseille","lat":43.28222,"lon":5.3907,"is_reserved":false,"is_disabled":false,"rental_uris":{"android":"levelo://app?vid=970fef3c-d7c7-49b2-b1e6-7f030f95a7f4","ios":"levelo://app?vid=970fef3c-d7c7-49b2-b1e6-7f030f95a7f4"},"vehicle_type_id":"4","last_reported":1773893498,"current_range_meters":8400,"station_id":"ce4bhn92rcd13ifvqgsg","pricing_plan_id":"cebpf4jnsgd1na2vs0mg"},{"bike_id":"20ce6d6f-614d-4ae4-b6ca-fa36c7e59be3","system_id":"levelo_inurba_marseille","lat":43.27985,"lon":5.4167,"is_reserved":false,"is_disabled":false,"rental_uris":{"android":"levelo://app?vid=20ce6d6f-614d-4ae4-b6ca-fa36c7e59be3","ios":"levelo://app?vid=20ce6d6f-614d-4ae4-b6ca-fa36c7e59be3"},"vehicle_type_id":"4","last_reported":1773893498,"current_range_meters":8400,"station_id":"ce4bho12rcd13ifvqh1g","pricing_plan_id":"cebpf4jnsgd1na2vs0mg"},{"bike_id":"aa9b316b-b536-429b-8d00-4e891d36e141","system_id":"levelo_inurba_marseille","lat":43.29035,"lon":5.38663,"is_reserved":false,"is_disabled":false,"rental_uris":{"android":"levelo://app?vid=aa9b316b-b536-429b-8d00-4e891d36e141","ios":"levelo://app?vid=aa9b316b-b536-429b-8d00-4e891d36e141"},"vehicle_type_id":"4","last_reported":1773893498,"current_range_meters":8400,"station_id":"ce4bh4p2rcd13ifvqe0g","pricing_plan_id":"cebpf4jnsgd1na2vs0mg"},{"bike_id":"ab5ec513-ee99-4671-ae67-83a9f94f8972","system_id":"levelo_inurba_marseille","lat":43.2173,"lon":5.34625,"is_reserved":false,"is_disabled":false,"rental_uris":{"android":"levelo://app?vid=ab5ec513-ee99-4671-ae67-83a9f94f8972","ios":"levelo://app?vid=ab5ec513-ee99-4671-ae67-83a9f94f8972"},"vehicle_type_id":"4","last_reported":1773893498,"current_range_meters":8400,"station_id":"st_cvj6r9ubvosntc0bgbag","pricing_plan_id":"cebpf4jnsgd1na2vs0mg"},{"bike_id":"9d5aeae1-6d84-48cc-93b5-7ceddd666fd2","system_id":"levelo_inurba_marseille","lat":43.30765,"lon":5.42441,"is_reserved":false,"is_disabled":false,"rental_uris":{"android":"levelo://app?vid=9d5aeae1-6d84-48cc-93b5-7ceddd666fd2","ios":"levelo://app?vid=9d5aeae1-6d84-48cc-93b5-7ceddd666fd2"},"vehicle_type_id":"4","last_reported":1773893498,"current_range_meters":8800,"station_id":"st_cvj6ca6bvosntc0bfgr0","pricing_plan_id":"cebpf4jnsgd1na2vs0mg"},{"bike_id":"5b7a4f99-47a8-4cd1-b8e7-d148139de64c","system_id":"levelo_inurba_marseille","lat":43.24997,"lon":5.40495,"is_reserved":false,"is_disabled":false,"rental_uris":{"android":"levelo://app?vid=5b7a4f99-47a8-4cd1-b8e7-d148139de64c","ios":"levelo://app?vid=5b7a4f99-47a8-4cd1-b8e7-d148139de64c"},"vehicle_type_id":"4","last_reported":1773893498,"current_range_meters":8800,"station_id":"st_d2ngiaodas8pm72gd1h0","pricing_plan_id":"cebpf4jnsgd1na2vs0mg"},{"bike_id":"a11c8cfa-453a-4892-a974-6a22bafa8290","system_id":"levelo_inurba_marseille","lat":43.23191,"lon":5.35553,"is_reserved":false,"is_disabled":false,"rental_uris":{"android":"levelo://app?vid=a11c8cfa-453a-4892-a974-6a22bafa8290","ios":"levelo://app?vid=a11c8cfa-453a-4892-a974-6a22bafa8290"},"vehicle_type_id":"4","last_reported":1773893498,"current_range_meters":8800,"station_id":"ce4bhu92rcd13ifvqi70","pricing_plan_id":"cebpf4jnsgd1na2vs0mg"},{"bike_id":"a8c701a2-bed9-4be5-9b59-edb8e73c793c","system_id":"levelo_inurba_marseille","lat":43.26056,"lon":5.39389,"is_reserved":false,"is_disabled":false,"rental_uris":{"android":"levelo://app?vid=a8c701a2-bed9-4be5-9b59-edb8e73c793c","ios":"levelo://app?vid=a8c701a2-bed9-4be5-9b59-edb8e73c793c"},"vehicle_type_id":"4","last_reported":1773893498,"current_range_meters":8800,"station_id":"ce4bhh92rcd13ifvqfj0","pricing_plan_id":"cebpf4jnsgd1na2vs0mg"},{"bike_id":"5b43f348-3bc6-40a9-a9c0-ff6d20b532a0","system_id":"levelo_inurba_marseille","lat":43.31325,"lon":5.39699,"is_reserved":false,"is_disabled":false,"rental_uris":{"android":"levelo://app?vid=5b43f348-3bc6-40a9-a9c0-ff6d20b532a0","ios":"levelo://app?vid=5b43f348-3bc6-40a9-a9c0-ff6d20b532a0"},"vehicle_type_id":"4","last_reported":1773893498,"current_range_meters":8800,"station_id":"ce4bgvp2rcd13ifvqcu0","pricing_plan_id":"cebpf4jnsgd1na2vs0mg"},{"bike_id":"13ece891-29b9-4ae9-a4c4-ae3da55ec954","system_id":"levelo_inurba_marseille","lat":43.23208,"lon":5.35591,"is_reserved":false,"is_disabled":false,"rental_uris":{"android":"levelo://app?vid=13ece891-29b9-4ae9-a4c4-ae3da55ec954","ios":"levelo://app?vid=13ece891-29b9-4ae9-a4c4-ae3da55ec954"},"vehicle_type_id":"4","last_reported":1773893498,"current_range_meters":8800,"station_id":"ce4bhu92rcd13ifvqi70","pricing_plan_id":"cebpf4jnsgd1na2vs0mg"},{"bike_id":"7603f9a5-a91f-4dd4-884d-ad1569e71bd2","system_id":"levelo_inurba_marseille","lat":43.31068,"lon":5.37195,"is_reserved":false,"is_disabled":false,"rental_uris":{"android":"levelo://app?vid=7603f9a5-a91f-4dd4-884d-ad1569e71bd2","ios":"levelo://app?vid=7603f9a5-a91f-4dd4-884d-ad1569e71bd2"},"vehicle_type_id":"4","last_reported":1773893498,"current_range_meters":8800,"station_id":"st_d4kl2rp97mjs73e7tdfg","pricing_plan_id":"cebpf4jnsgd1na2vs0mg"},{"bike_id":"b0aae7c9-1bd6-4f1c-a33d-9d6ff662c2a9","system_id":"levelo_inurba_marseille","lat":43.24804,"lon":5.37478,"is_reserved":false,"is_disabled":false,"rental_uris":{"android":"levelo://app?vid=b0aae7c9-1bd6-4f1c-a33d-9d6ff662c2a9","ios":"levelo://app?vid=b0aae7c9-1bd6-4f1c-a33d-9d6ff662c2a9"},"vehicle_type_id":"4","last_reported":1773893498,"current_range_meters":8800,"station_id":"ce4bhgh2rcd13ifvqfb0","pricing_plan_id":"cebpf4jnsgd1na2vs0mg"},{"bike_id":"3f800dca-0c97-4264-b119-84b721c4d832","system_id":"levelo_inurba_marseille","lat":43.30239,"lon":5.40069,"is_reserved":false,"is_disabled":false,"rental_uris":{"android":"levelo://app?vid=3f800dca-0c97-4264-b119-84b721c4d832","ios":"levelo://app?vid=3f800dca-0c97-4264-b119-84b721c4d832"},"vehicle_type_id":"4","last_reported":1773893498,"current_range_meters":8800,"station_id":"ce4bgvh2rcd13ifvqcs0","pricing_plan_id":"cebpf4jnsgd1na2vs0mg"},{"bike_id":"52f6a6b9-7af9-4956-b458-baf5061e66bf","system_id":"levelo_inurba_marseille","lat":43.23316,"lon":5.44472,"is_reserved":false,"is_disabled":false,"rental_uris":{"android":"levelo://app?vid=52f6a6b9-7af9-4956-b458-baf5061e66bf","ios":"levelo://app?vid=52f6a6b9-7af9-4956-b458-baf5061e66bf"},"vehicle_type_id":"4","last_reported":1773893498,"current_range_meters":8800,"station_id":"","pricing_plan_id":"cebpf4jnsgd1na2vs0mg"},{"bike_id":"d0f50a6b-aa0d-4c35-bde4-ea58ce38721b","system_id":"levelo_inurba_marseille","lat":43.29963,"lon":5.37148,"is_reserved":false,"is_disabled":false,"rental_uris":{"android":"levelo://app?vid=d0f50a6b-aa0d-4c35-bde4-ea58ce38721b","ios":"levelo://app?vid=d0f50a6b-aa0d-4c35-bde4-ea58ce38721b"},"vehicle_type_id":"4","last_reported":1773893498,"current_range_meters":8800,"station_id":"ce4bgr92rcd13ifvqc7g","pricing_plan_id":"cebpf4jnsgd1na2vs0mg"},{"bike_id":"347a0133-45d3-4213-ae48-606f4453bbf3","system_id":"levelo_inurba_marseille","lat":43.23056,"lon":5.35492,"is_reserved":false,"is_disabled":false,"rental_uris":{"android":"levelo://app?vid=347a0133-45d3-4213-ae48-606f4453bbf3","ios":"levelo://app?vid=347a0133-45d3-4213-ae48-606f4453bbf3"},"vehicle_type_id":"4","last_reported":1773893498,"current_range_meters":8800,"station_id":"cpo3342slgdg3j2ifvpg","pricing_plan_id":"cebpf4jnsgd1na2vs0mg"},{"bike_id":"ef4d97a8-b27e-4ee9-b1dd-4c9b85711d4a","system_id":"levelo_inurba_marseille","lat":43.24398,"lon":5.37065,"is_reserved":false,"is_disabled":false,"rental_uris":{"android":"levelo://app?vid=ef4d97a8-b27e-4ee9-b1dd-4c9b85711d4a","ios":"levelo://app?vid=ef4d97a8-b27e-4ee9-b1dd-4c9b85711d4a"},"vehicle_type_id":"4","last_reported":1773893498,"current_range_meters":8800,"station_id":"ce4bhhh2rcd13ifvqfk0","pricing_plan_id":"cebpf4jnsgd1na2vs0mg"},{"bike_id":"08fc3c5d-1001-4b26-87a3-2f0e44438f4d","system_id":"levelo_inurba_marseille","lat":43.24669,"lon":5.38191,"is_reserved":false,"is_disabled":false,"rental_uris":{"android":"levelo://app?vid=08fc3c5d-1001-4b26-87a3-2f0e44438f4d","ios":"levelo://app?vid=08fc3c5d-1001-4b26-87a3-2f0e44438f4d"},"vehicle_type_id":"4","last_reported":1773893498,"current_range_meters":8800,"station_id":"ce4bhih2rcd13ifvqfr0","pricing_plan_id":"cebpf4jnsgd1na2vs0mg"},{"bike_id":"baaeb2b2-9b00-4409-aebf-97133f4e4792","system_id":"levelo_inurba_marseille","lat":43.27936,"lon":5.41035,"is_reserved":false,"is_disabled":false,"rental_uris":{"android":"levelo://app?vid=baaeb2b2-9b00-4409-aebf-97133f4e4792","ios":"levelo://app?vid=baaeb2b2-9b00-4409-aebf-97133f4e4792"},"vehicle_type_id":"4","last_reported":1773893498,"current_range_meters":8800,"station_id":"ce4bhnp2rcd13ifvqh0g","pricing_plan_id":"cebpf4jnsgd1na2vs0mg"},{"bike_id":"6b0fc56b-6967-4ac8-8e47-4eb3d094b002","system_id":"levelo_inurba_marseille","lat":43.29052,"lon":5.35932,"is_reserved":false,"is_disabled":true,"rental_uris":{"android":"levelo://app?vid=6b0fc56b-6967-4ac8-8e47-4eb3d094b002","ios":"levelo://app?vid=6b0fc56b-6967-4ac8-8e47-4eb3d094b002"},"vehicle_type_id":"4","last_reported":1773893498,"current_range_meters":8800,"station_id":"ce4bha92rcd13ifvqeg0","pricing_plan_id":"cebpf4jnsgd1na2vs0mg"},{"bike_id":"dd10efc5-28b9-436a-be78-8011941e89fc","system_id":"levelo_inurba_marseille","lat":43.28473,"lon":5.48404,"is_reserved":false,"is_disabled":false,"rental_uris":{"android":"levelo://app?vid=dd10efc5-28b9-436a-be78-8011941e89fc","ios":"levelo://app?vid=dd10efc5-28b9-436a-be78-8011941e89fc"},"vehicle_type_id":"4","last_reported":1773893498,"current_range_meters":8800,"station_id":"st_d3svhcjqgbts73a3dn0g","pricing_plan_id":"cebpf4jnsgd1na2vs0mg"},{"bike_id":"efcebe33-2e1b-4769-a856-07e237ac22e4","system_id":"levelo_inurba_marseille","lat":43.24818,"lon":5.37464,"is_reserved":false,"is_disabled":false,"rental_uris":{"android":"levelo://app?vid=efcebe33-2e1b-4769-a856-07e237ac22e4","ios":"levelo://app?vid=efcebe33-2e1b-4769-a856-07e237ac22e4"},"vehicle_type_id":"4","last_reported":1773893498,"current_range_meters":8800,"station_id":"ce4bhgh2rcd13ifvqfb0","pricing_plan_id":"cebpf4jnsgd1na2vs0mg"},{"bike_id":"d51fe815-5335-4e1f-8e42-efe91c7e85aa","system_id":"levelo_inurba_marseille","lat":43.22933,"lon":5.35391,"is_reserved":false,"is_disabled":false,"rental_uris":{"android":"levelo://app?vid=d51fe815-5335-4e1f-8e42-efe91c7e85aa","ios":"levelo://app?vid=d51fe815-5335-4e1f-8e42-efe91c7e85aa"},"vehicle_type_id":"4","last_reported":1773893498,"current_range_meters":8800,"station_id":"cpo3532slgdg3j2ikp40","pricing_plan_id":"cebpf4jnsgd1na2vs0mg"},{"bike_id":"e84409cd-ab11-47ab-92ac-0bad50daf5c3","system_id":"levelo_inurba_marseille","lat":43.319,"lon":5.36822,"is_reserved":false,"is_disabled":false,"rental_uris":{"android":"levelo://app?vid=e84409cd-ab11-47ab-92ac-0bad50daf5c3","ios":"levelo://app?vid=e84409cd-ab11-47ab-92ac-0bad50daf5c3"},"vehicle_type_id":"4","last_reported":1773893498,"current_range_meters":8800,"station_id":"st_d6o2h0d0559c73evc1b0","pricing_plan_id":"cebpf4jnsgd1na2vs0mg"},{"bike_id":"fe1ed63e-d7bb-40c3-a983-3af6ef4522cf","system_id":"levelo_inurba_marseille","lat":43.30435,"lon":5.38892,"is_reserved":false,"is_disabled":false,"rental_uris":{"android":"levelo://app?vid=fe1ed63e-d7bb-40c3-a983-3af6ef4522cf","ios":"levelo://app?vid=fe1ed63e-d7bb-40c3-a983-3af6ef4522cf"},"vehicle_type_id":"4","last_reported":1773893498,"current_range_meters":8800,"station_id":"ce4bgk12rcd13ifvqbi0","pricing_plan_id":"cebpf4jnsgd1na2vs0mg"},{"bike_id":"6e6ce6c1-e071-4276-ab11-874f62b383a8","system_id":"levelo_inurba_marseille","lat":43.30103,"lon":5.39078,"is_reserved":false,"is_disabled":false,"rental_uris":{"android":"levelo://app?vid=6e6ce6c1-e071-4276-ab11-874f62b383a8","ios":"levelo://app?vid=6e6ce6c1-e071-4276-ab11-874f62b383a8"},"vehicle_type_id":"4","last_reported":1773893498,"current_range_meters":8800,"station_id":"ce4bh192rcd13ifvqdb0","pricing_plan_id":"cebpf4jnsgd1na2vs0mg"},{"bike_id":"1da057a6-7f5f-4ac2-969c-cb81ad5a7b1a","system_id":"levelo_inurba_marseille","lat":43.33171,"lon":5.37678,"is_reserved":false,"is_disabled":false,"rental_uris":{"android":"levelo://app?vid=1da057a6-7f5f-4ac2-969c-cb81ad5a7b1a","ios":"levelo://app?vid=1da057a6-7f5f-4ac2-969c-cb81ad5a7b1a"},"vehicle_type_id":"4","last_reported":1773893498,"current_range_meters":8800,"station_id":"st_d46cu089ee8s73dldbu0","pricing_plan_id":"cebpf4jnsgd1na2vs0mg"},{"bike_id":"554d3bf8-efa0-4b8a-83c8-cd30e589af31","system_id":"levelo_inurba_marseille","lat":43.29504,"lon":5.39031,"is_reserved":false,"is_disabled":false,"rental_uris":{"android":"levelo://app?vid=554d3bf8-efa0-4b8a-83c8-cd30e589af31","ios":"levelo://app?vid=554d3bf8-efa0-4b8a-83c8-cd30e589af31"},"vehicle_type_id":"4","last_reported":1773893498,"current_range_meters":8800,"station_id":"ce4bh3p2rcd13ifvqdp0","pricing_plan_id":"cebpf4jnsgd1na2vs0mg"},{"bike_id":"59ddfc68-0581-4673-9200-12475a694c0f","system_id":"levelo_inurba_marseille","lat":43.29026,"lon":5.3865,"is_reserved":false,"is_disabled":false,"rental_uris":{"android":"levelo://app?vid=59ddfc68-0581-4673-9200-12475a694c0f","ios":"levelo://app?vid=59ddfc68-0581-4673-9200-12475a694c0f"},"vehicle_type_id":"4","last_reported":1773893498,"current_range_meters":8800,"station_id":"ce4bh4p2rcd13ifvqe0g","pricing_plan_id":"cebpf4jnsgd1na2vs0mg"},