{"last_updated":1690308468,"ttl":30,"version":"2.2","data":{"bikes":[{"bike_id":"7d1b7cfb-6b07-4d4c-ae4c-7525c8849a8a","system_id":"levelo_inurba_marseille","lat":43.312239,"lon":5.368562,"is_reserved":false,"is_disabled":false,"rental_uris":{"android":"levelo://app?vid=7d1b7cfb-6b07-4d4c-ae4c-7525c8849a8a","ios":"levelo://app?vid=7d1b7cfb-6b07-4d4c-ae4c-7525c8849a8a"},"vehicle_type_id":"4","last_reported":1690308468,"current_range_meters":5600,"station_id":"ce4bgl92rcd13ifvqbq0","pricing_plan_id":"free"},{"bike_id":"558d5648-4b6e-44f2-9df1-2b5f7a752880","system_id":"levelo_inurba_marseille","lat":43.31215,"lon":5.36836,"is_reserved":false,"is_disabled":false,"rental_uris":{"android":"levelo://app?vid=558d5648-4b6e-44f2-9df1-2b5f7a752880","ios":"levelo://app?vid=558d5648-4b6e-44f2-9df1-2b5f7a752880"},"vehicle_type_id":"4","last_reported":1690308468,"current_range_meters":22000,"station_id":"ce4bgl92rcd13ifvqbq0","pricing_plan_id":"free"},{"bike_id":"07a06af9-96a6-4443-b441-de37bc350bc3","system_id":"levelo_inurba_marseille","lat":43.312239,"lon":5.368562,"is_reserved":false,"is_disabled":false,"rental_uris":{"android":"levelo://app?vid=07a06af9-96a6-4443-b441-de37bc350bc3","ios":"levelo://app?vid=07a06af9-96a6-4443-b441-de37bc350bc3"},"vehicle_type_id":"4","last_reported":1690308468,"current_range_meters":31600,"station_id":"ce4bgl92rcd13ifvqbq0","pricing_plan_id":"free"},{"bike_id":"91dcacee-12d9-4339-905c-98fa2243943d","system_id":"levelo_inurba_marseille","lat":43.309076,"lon":5.368465,"is_reserved":false,"is_disabled":false,"rental_uris":{"android":"levelo://app?vid=91dcacee-12d9-4339-905c-98fa2243943d","ios":"levelo://app?vid=91dcacee-12d9-4339-905c-98fa2243943d"},"vehicle_type_id":"4","last_reported":1690308468,"current_range_meters":28000,"station_id":"ce4bgn92rcd13ifvqbvg","pricing_plan_id":"free"},{"bike_id":"6e281ec9-af03-4357-bc49-d7aed22a3928","system_id":"levelo_inurba_marseille","lat":43.30896,"lon":5.3712,"is_reserved":false,"is_disabled":false,"rental_uris":{"android":"levelo://app?vid=6e281ec9-af03-4357-bc49-d7aed22a3928","ios":"levelo://app?vid=6e281ec9-af03-4357-bc49-d7aed22a3928"},"vehicle_type_id":"4","last_reported":1690308468,"current_range_meters":4400,"station_id":"","pricing_plan_id":"free"},{"bike_id":"6d4ce2dc-4dbc-4d13-924d-68e6c6b4fe28","system_id":"levelo_inurba_marseille","lat":43.314811,"lon":5.373104,"is_reserved":false,"is_disabled":false,"rental_uris":{"android":"levelo://app?vid=6d4ce2dc-4dbc-4d13-924d-68e6c6b4fe28","ios":"levelo://app?vid=6d4ce2dc-4dbc-4d13-924d-68e6c6b4fe28"},"vehicle_type_id":"4","last_reported":1690308468,"current_range_meters":4800,"station_id":"ce4bgt12rcd13ifvqcd0","pricing_plan_id":"free"},{"bike_id":"f4a78ee3-d2f6-438f-a34f-f62cbac84bd6","system_id":"levelo_inurba_marseille","lat":43.314811,"lon":5.373103,"is_reserved":false,"is_disabled":false,"rental_uris":{"android":"levelo://app?vid=f4a78ee3-d2f6-438f-a34f-f62cbac84bd6","ios":"levelo://app?vid=f4a78ee3-d2f6-438f-a34f-f62cbac84bd6"},"vehicle_type_id":"4","last_reported":1690308468,"current_range_meters":30800,"station_id":"ce4bgt12rcd13ifvqcd0","pricing_plan_id":"free"},{"bike_id":"1b2bfd6a-80b7-4ff4-b4c2-b23dd8597703","system_id":"levelo_inurba_marseille","lat":43.30534,"lon":5.36719,"is_reserved":false,"is_disabled":false,"rental_uris":{"android":"levelo://app?vid=1b2bfd6a-80b7-4ff4-b4c2-b23dd8597703","ios":"levelo://app?vid=1b2bfd6a-80b7-4ff4-b4c2-b23dd8597703"},"vehicle_type_id":"4","last_reported":1690308468,"current_range_meters":2000,"station_id":"ce4bgrp2rcd13ifvqc9g","pricing_plan_id":"free"},{"bike_id":"1143259a-0a56-4e4c-9d2e-ccfd51c3da72","system_id":"levelo_inurba_marseille","lat":43.30528,"lon":5.36704,"is_reserved":false,"is_disabled":false,"rental_uris":{"android":"levelo://app?vid=1143259a-0a56-4e4c-9d2e-ccfd51c3da72","ios":"levelo://app?vid=1143259a-0a56-4e4c-9d2e-ccfd51c3da72"},"vehicle_type_id":"4","last_reported":1690308468,"current_range_meters":13200,"station_id":"ce4bgrp2rcd13ifvqc9g","pricing_plan_id":"free"},{"bike_id":"92ad9af8-10ac-49c9-b996-475ea6002018","system_id":"levelo_inurba_marseille","lat":43.31117,"lon":5.37773,"is_reserved":false,"is_disabled":false,"rental_uris":{"android":"levelo://app?vid=92ad9af8-10ac-49c9-b996-475ea6002018","ios":"levelo://app?vid=92ad9af8-10ac-49c9-b996-475ea6002018"},"vehicle_type_id":"4","last_reported":1690308468,"current_range_meters":4800,"station_id":"ce4bgt92rcd13ifvqcg0","pricing_plan_id":"free"},{"bike_id":"6b926e33-66b3-4013-b123-4872cd3b9629","system_id":"levelo_inurba_marseille","lat":43.32017,"lon":5.37108,"is_reserved":false,"is_disabled":false,"rental_uris":{"android":"levelo://app?vid=6b926e33-66b3-4013-b123-4872cd3b9629","ios":"levelo://app?vid=6b926e33-66b3-4013-b123-4872cd3b9629"},"vehicle_type_id":"4","last_reported":1690308468,"current_range_meters":24800,"station_id":"","pricing_plan_id":"free"},{"bike_id":"4daf477b-32bc-4cb1-939f-1c97c9c5d002","system_id":"levelo_inurba_marseille","lat":43.307945,"lon":5.376487,"is_reserved":false,"is_disabled":false,"rental_uris":{"android":"levelo://app?vid=4daf477b-32bc-4cb1-939f-1c97c9c5d002","ios":"levelo://app?vid=4daf477b-32bc-4cb1-939f-1c97c9c5d002"},"vehicle_type_id":"4","last_reported":1690308468,"current_range_meters":7200,"station_id":"ce4bgv92rcd13ifvqcq0","pricing_plan_id":"free"},{"bike_id":"33f43664-a318-40a7-9e2f-53bce24311a2","system_id":"levelo_inurba_marseille","lat":43.307945,"lon":5.376487,"is_reserved":false,"is_disabled":false,"rental_uris":{"android":"levelo://app?vid=33f43664-a318-40a7-9e2f-53bce24311a2","ios":"levelo://app?vid=33f43664-a318-40a7-9e2f-53bce24311a2"},"vehicle_type_id":"4","last_reported":1690308468,"current_range_meters":18400,"station_id":"ce4bgv92rcd13ifvqcq0","pricing_plan_id":"free"},{"bike_id":"089a9f37-f4f7-4672-9aec-5117c14a9106","system_id":"levelo_inurba_marseille","lat":43.3032,"lon":5.36888,"is_reserved":false,"is_disabled":false,"rental_uris":{"android":"levelo://app?vid=089a9f37-f4f7-4672-9aec-5117c14a9106","ios":"levelo://app?vid=089a9f37-f4f7-4672-9aec-5117c14a9106"},"vehicle_type_id":"4","last_reported":1690308468,"current_range_meters":4400,"station_id":"ce4bgqh2rcd13ifvqc5g","pricing_plan_id":"free"},{"bike_id":"0dd51e2f-20e1-418a-a735-a789412d358d","system_id":"levelo_inurba_marseille","lat":43.30313,"lon":5.36893,"is_reserved":false,"is_disabled":false,"rental_uris":{"android":"levelo://app?vid=0dd51e2f-20e1-418a-a735-a789412d358d","ios":"levelo://app?vid=0dd51e2f-20e1-418a-a735-a789412d358d"},"vehicle_type_id":"4","last_reported":1690308468,"current_range_meters":800,"station_id":"ce4bgqh2rcd13ifvqc5g","pricing_plan_id":"free"},{"bike_id":"b92d6050-6feb-4ddf-815c-281599b75985","system_id":"levelo_inurba_marseille","lat":43.30804,"lon":5.38148,"is_reserved":false,"is_disabled":false,"rental_uris":{"android":"levelo://app?vid=b92d6050-6feb-4ddf-815c-281599b75985","ios":"levelo://app?vid=b92d6050-6feb-4ddf-815c-281599b75985"},"vehicle_type_id":"4","last_reported":1690308468,"current_range_meters":1600,"station_id":"ce4bgt12rcd13ifvqce0","pricing_plan_id":"free"},{"bike_id":"8669c382-3b0d-4c21-9183-284980224c30","system_id":"levelo_inurba_marseille","lat":43.30796,"lon":5.38168,"is_reserved":false,"is_disabled":false,"rental_uris":{"android":"levelo://app?vid=8669c382-3b0d-4c21-9183-284980224c30","ios":"levelo://app?vid=8669c382-3b0d-4c21-9183-284980224c30"},"vehicle_type_id":"4","last_reported":1690308468,"current_range_meters":400,"station_id":"ce4bgt12rcd13ifvqce0","pricing_plan_id":"free"},{"bike_id":"d7e42b2e-33e9-4917-b56a-b73669e171d8","system_id":"levelo_inurba_marseille","lat":43.304606,"lon":5.379026,"is_reserved":false,"is_disabled":false,"rental_uris":{"android":"levelo://app?vid=d7e42b2e-33e9-4917-b56a-b73669e171d8","ios":"levelo://app?vid=d7e42b2e-33e9-4917-b56a-b73669e171d8"},"vehicle_type_id":"4","last_reported":1690308468,"current_range_meters":11600,"station_id":"ce4bgup2rcd13ifvqcn0","pricing_plan_id":"free"},{"bike_id":"ade14132-4e96-41ef-86f0-24236eb20bd6","system_id":"levelo_inurba_marseille","lat":43.302784,"lon":5.377158,"is_reserved":false,"is_disabled":false,"rental_uris":{"android":"levelo://app?vid=ade14132-4e96-41ef-86f0-24236eb20bd6","ios":"levelo://app?vid=ade14132-4e96-41ef-86f0-24236eb20bd6"},"vehicle_type_id":"4","last_reported":1690308468,"current_range_meters":5200,"station_id":"ce4bguh2rcd13ifvqcj0","pricing_plan_id":"free"},{"bike_id":"2283b58d-d047-4f9f-92d7-32928554a04e","system_id":"levelo_inurba_marseille","lat":43.319935,"lon":5.381699,"is_reserved":false,"is_disabled":false,"rental_uris":{"android":"levelo://app?vid=2283b58d-d047-4f9f-92d7-32928554a04e","ios":"levelo://app?vid=2283b58d-d047-4f9f-92d7-32928554a04e"},"vehicle_type_id":"4","last_reported":1690308468,"current_range_meters":6400,"station_id":"ce4bhr12rcd13ifvqhpg","pricing_plan_id":"free"},{"bike_id":"61f7ee70-4942-48df-a40c-5fa02dfb3a3f","system_id":"levelo_inurba_marseille","lat":43.313571,"lon":5.384829,"is_reserved":false,"is_disabled":false,"rental_uris":{"android":"levelo://app?vid=61f7ee70-4942-48df-a40c-5fa02dfb3a3f","ios":"levelo://app?vid=61f7ee70-4942-48df-a40c-5fa02dfb3a3f"},"vehicle_type_id":"4","last_reported":1690308468,"current_range_meters":29600,"station_id":"ce4bgt92rcd13ifvqcf0","pricing_plan_id":"free"},{"bike_id":"7af53a04-9a9e-4f20-870f-6c314de62025","system_id":"levelo_inurba_marseille","lat":43.313571,"lon":5.384829,"is_reserved":false,"is_disabled":false,"rental_uris":{"android":"levelo://app?vid=7af53a04-9a9e-4f20-870f-6c314de62025","ios":"levelo://app?vid=7af53a04-9a9e-4f20-870f-6c314de62025"},"vehicle_type_id":"4","last_reported":1690308468,"current_range_meters":30000,"station_id":"ce4bgt92rcd13ifvqcf0","pricing_plan_id":"free"},{"bike_id":"2f4308f2-1a29-4d65-9478-a50271f39018","system_id":"levelo_inurba_marseille","lat":43.313571,"lon":5.384829,"is_reserved":false,"is_disabled":false,"rental_uris":{"android":"levelo://app?vid=2f4308f2-1a29-4d65-9478-a50271f39018","ios":"levelo://app?vid=2f4308f2-1a29-4d65-9478-a50271f39018"},"vehicle_type_id":"4","last_reported":1690308468,"current_range_meters":14400,"station_id":"ce4bgt92rcd13ifvqcf0","pricing_plan_id":"free"},{"bike_id":"0c9fbaef-c8c1-4f0b-a3d5-cac1114d0391","system_id":"levelo_inurba_marseille","lat":43.29929,"lon":5.37491,"is_reserved":false,"is_disabled":false,"rental_uris":{"android":"levelo://app?vid=0c9fbaef-c8c1-4f0b-a3d5-cac1114d0391","ios":"levelo://app?vid=0c9fbaef-c8c1-4f0b-a3d5-cac1114d0391"},"vehicle_type_id":"4","last_reported":1690308468,"current_range_meters":31200,"station_id":"ce4bgjh2rcd13ifvqbg0","pricing_plan_id":"free"},{"bike_id":"fd3aa1a5-561d-472a-8d40-f87f4c1f66da","system_id":"levelo_inurba_marseille","lat":43.299243,"lon":5.374807,"is_reserved":false,"is_disabled":false,"rental_uris":{"android":"levelo://app?vid=fd3aa1a5-561d-472a-8d40-f87f4c1f66da","ios":"levelo://app?vid=fd3aa1a5-561d-472a-8d40-f87f4c1f66da"},"vehicle_type_id":"4","last_reported":1690308468,"current_range_meters":26000,"station_id":"ce4bgjh2rcd13ifvqbg0","pricing_plan_id":"free"},{"bike_id":"2e465ba9-5ee3-461b-bce3-d52b76543688","system_id":"levelo_inurba_marseille","lat":43.297794,"lon":5.370888,"is_reserved":false,"is_disabled":false,"rental_uris":{"android":"levelo://app?vid=2e465ba9-5ee3-461b-bce3-d52b76543688","ios":"levelo://app?vid=2e465ba9-5ee3-461b-bce3-d52b76543688"},"vehicle_type_id":"4","last_reported":1690308468,"current_range_meters":26400,"station_id":"ce4bgop2rcd13ifvqc1g","pricing_plan_id":"free"},{"bike_id":"d2548640-04e1-47a6-9ab8-a7aef8cddaf6","system_id":"levelo_inurba_marseille","lat":43.297794,"lon":5.370888,"is_reserved":false,"is_disabled":false,"rental_uris":{"android":"levelo://app?vid=d2548640-04e1-47a6-9ab8-a7aef8cddaf6","ios":"levelo://app?vid=d2548640-04e1-47a6-9ab8-a7aef8cddaf6"},"vehicle_type_id":"4","last_reported":1690308468,"current_range_meters":12000,"station_id":"ce4bgop2rcd13ifvqc1g","pricing_plan_id":"free"},{"bike_id":"7cc3baf1-c805-4032-aebc-d576eeda97fe","system_id":"levelo_inurba_marseille","lat":43.32292,"lon":5.3826,"is_reserved":false,"is_disabled":false,"rental_uris":{"android":"levelo://app?vid=7cc3baf1-c805-4032-aebc-d576eeda97fe","ios":"levelo://app?vid=7cc3baf1-c805-4032-aebc-d576eeda97fe"},"vehicle_type_id":"4","last_reported":1690308468,"current_range_meters":11600,"station_id":"ce4bhr12rcd13ifvqhqg","pricing_plan_id":"free"},{"bike_id":"d5e19152-5958-44ec-bce8-e631869ba045","system_id":"levelo_inurba_marseille","lat":43.322872,"lon":5.382756,"is_reserved":false,"is_disabled":false,"rental_uris":{"android":"levelo://app?vid=d5e19152-5958-44ec-bce8-e631869ba045","ios":"levelo://app?vid=d5e19152-5958-44ec-bce8-e631869ba045"},"vehicle_type_id":"4","last_reported":1690308468,"current_range_meters":18000,"station_id":"ce4bhr12rcd13ifvqhqg","pricing_plan_id":"free"},{"bike_id":"14018838-15d4-47d3-b92b-afe97d69edca","system_id":"levelo_inurba_marseille","lat":43.328371,"lon":5.366909,"is_reserved":false,"is_disabled":false,"rental_uris":{"android":"levelo://app?vid=14018838-15d4-47d3-b92b-afe97d69edca","ios":"levelo://app?vid=14018838-15d4-47d3-b92b-afe97d69edca"},"vehicle_type_id":"4","last_reported":1690308468,"current_range_meters":13200,"station_id":"ce4bhs92rcd13ifvqi0g","pricing_plan_id":"free"},{"bike_id":"42e7e2ea-edb2-4143-b36a-ec328e76506c","system_id":"levelo_inurba_marseille","lat":43.328371,"lon":5.366909,"is_reserved":false,"is_disabled":false,"rental_uris":{"android":"levelo://app?vid=42e7e2ea-edb2-4143-b36a-ec328e76506c","ios":"levelo://app?vid=42e7e2ea-edb2-4143-b36a-ec328e76506c"},"vehicle_type_id":"4","last_reported":1690308468,"current_range_meters":22800,"station_id":"ce4bhs92rcd13ifvqi0g","pricing_plan_id":"free"},{"bike_id":"72ca7208-45f8-437b-8356-4e83c77eebbc","system_id":"levelo_inurba_marseille","lat":43.328371,"lon":5.366909,"is_reserved":false,"is_disabled":false,"rental_uris":{"android":"levelo://app?vid=72ca7208-45f8-437b-8356-4e83c77eebbc","ios":"levelo://app?vid=72ca7208-45f8-437b-8356-4e83c77eebbc"},"vehicle_type_id":"4","last_reported":1690308468,"current_range_meters":1200,"station_id":"ce4bhs92rcd13ifvqi0g","pricing_plan_id":"free"},{"bike_id":"cfdae39a-73fc-4708-bfd3-1db42eb43230","system_id":"levelo_inurba_marseille","lat":43.32833,"lon":5.36681,"is_reserved":false,"is_disabled":false,"rental_uris":{"android":"levelo://app?vid=cfdae39a-73fc-4708-bfd3-1db42eb43230","ios":"levelo://app?vid=cfdae39a-73fc-4708-bfd3-1db42eb43230"},"vehicle_type_id":"4","last_reported":1690308468,"current_range_meters":22400,"station_id":"ce4bhs92rcd13ifvqi0g","pricing_plan_id":"free"},{"bike_id":"c13d062c-7f0b-42f9-876b-2a1fc88a77c4","system_id":"levelo_inurba_marseille","lat":43.32834,"lon":5.36691,"is_reserved":false,"is_disabled":false,"rental_uris":{"android":"levelo://app?vid=c13d062c-7f0b-42f9-876b-2a1fc88a77c4","ios":"levelo://app?vid=c13d062c-7f0b-42f9-876b-2a1fc88a77c4"},"vehicle_type_id":"4","last_reported":1690308468,"current_range_meters":0,"station_id":"ce4bhs92rcd13ifvqi0g","pricing_plan_id":"free"},{"bike_id":"f376f06a-3cdf-4388-ade3-9cb3ea05c059","system_id":"levelo_inurba_marseille","lat":43.297163,"lon":5.365866,"is_reserved":false,"is_disabled":false,"rental_uris":{"android":"levelo://app?vid=f376f06a-3cdf-4388-ade3-9cb3ea05c059","ios":"levelo://app?vid=f376f06a-3cdf-4388-ade3-9cb3ea05c059"},"vehicle_type_id":"4","last_reported":1690308468,"current_range_meters":31200,"station_id":"ce4bgn12rcd13ifvqbt0","pricing_plan_id":"free"},{"bike_id":"2d63cd4d-abcb-48a4-b621-707c028f556c","system_id":"levelo_inurba_marseille","lat":43.2968,"lon":5.37291,"is_reserved":false,"is_disabled":false,"rental_uris":{"android":"levelo://app?vid=2d63cd4d-abcb-48a4-b621-707c028f556c","ios":"levelo://app?vid=2d63cd4d-abcb-48a4-b621-707c028f556c"},"vehicle_type_id":"4","last_reported":1690308468,"current_range_meters":23200,"station_id":"ce4bgk12rcd13ifvqbj0","pricing_plan_id":"free"},{"bike_id":"b005b88e-47df-4d2d-aebf-23629c9aaeba","system_id":"levelo_inurba_marseille","lat":43.294153,"lon":5.386305,"is_reserved":false,"is_disabled":false,"rental_uris":{"android":"levelo://app?vid=b005b88e-47df-4d2d-aebf-23629c9aaeba","ios":"levelo://app?vid=b005b88e-47df-4d2d-aebf-23629c9aaeba"},"vehicle_type_id":"4","last_reported":1690308468,"current_range_meters":800,"station_id":"ce4bh2h2rcd13ifvqdh0","pricing_plan_id":"free"},{"bike_id":"f4666395-a131-4937-b0fa-e77fb9e24729","system_id":"levelo_inurba_marseille","lat":43.309589,"lon":5.390258,"is_reserved":false,"is_disabled":false,"rental_uris":{"android":"levelo://app?vid=f4666395-a131-4937-b0fa-e77fb9e24729","ios":"levelo://app?vid=f4666395-a131-4937-b0fa-e77fb9e24729"},"vehicle_type_id":"4","last_reported":1690308468,"current_range_meters":7200,"station_id":"ce4bgup2rcd13ifvqco0","pricing_plan_id":"free"},{"bike_id":"ab94e145-d0fd-488c-b05c-4dfd6cb1ccad","system_id":"levelo_inurba_marseille","lat":43.29678,"lon":5.37659,"is_reserved":false,"is_disabled":false,"rental_uris":{"android":"levelo://app?vid=ab94e145-d0fd-488c-b05c-4dfd6cb1ccad","ios":"levelo://app?vid=ab94e145-d0fd-488c-b05c-4dfd6cb1ccad"},"vehicle_type_id":"4","last_reported":1690308468,"current_range_meters":16400,"station_id":"ce4bgkh2rcd13ifvqbl0","pricing_plan_id":"free"},{"bike_id":"edd9c18a-6126-42c1-bf8f-1f46592aa7d8","system_id":"levelo_inurba_marseille","lat":43.30957,"lon":5.39051,"is_reserved":false,"is_disabled":false,"rental_uris":{"android":"levelo://app?vid=edd9c18a-6126-42c1-bf8f-1f46592aa7d8","ios":"levelo://app?vid=edd9c18a-6126-42c1-bf8f-1f46592aa7d8"},"vehicle_type_id":"4","last_reported":1690308468,"current_range_meters":21600,"station_id":"ce4bgup2rcd13ifvqco0","pricing_plan_id":"free"},{"bike_id":"6d655131-56c4-4b2c-a516-08e20e25b707","system_id":"levelo_inurba_marseille","lat":43.317557,"lon":5.390173,"is_reserved":false,"is_disabled":false,"rental_uris":{"android":"levelo://app?vid=6d655131-56c4-4b2c-a516-08e20e25b707","ios":"levelo://app?vid=6d655131-56c4-4b2c-a516-08e20e25b707"},"vehicle_type_id":"4","last_reported":1690308468,"current_range_meters":30000,"station_id":"ce4bhqp2rcd13ifvqhng","pricing_plan_id":"free"},{"bike_id":"f0d0d4b9-c9d5-4616-aed3-54da424c8aee","system_id":"levelo_inurba_marseille","lat":43.317557,"lon":5.390173,"is_reserved":false,"is_disabled":false,"rental_uris":{"android":"levelo://app?vid=f0d0d4b9-c9d5-4616-aed3-54da424c8aee","ios":"levelo://app?vid=f0d0d4b9-c9d5-4616-aed3-54da424c8aee"},"vehicle_type_id":"4","last_reported":1690308468,"current_range_meters":13200,"station_id":"ce4bhqp2rcd13ifvqhng","pricing_plan_id":"free"},{"bike_id":"50a6ef4f-52c9-4747-9223-407bc1883781","system_id":"levelo_inurba_marseille","lat":43.317557,"lon":5.390173,"is_reserved":false,"is_disabled":false,"rental_uris":{"android":"levelo://app?vid=50a6ef4f-52c9-4747-9223-407bc1883781","ios":"levelo://app?vid=50a6ef4f-52c9-4747-9223-407bc1883781"},"vehicle_type_id":"4","last_reported":1690308468,"current_range_meters":25600,"station_id":"ce4bhqp2rcd13ifvqhng","pricing_plan_id":"free"},{"bike_id":"71175b0b-e749-4bcd-a633-cf2b51c50110","system_id":"levelo_inurba_marseille","lat":43.29577,"lon":5.37517,"is_reserved":false,"is_disabled":false,"rental_uris":{"android":"levelo://app?vid=71175b0b-e749-4bcd-a633-cf2b51c50110","ios":"levelo://app?vid=71175b0b-e749-4bcd-a633-cf2b51c50110"},"vehicle_type_id":"4","last_reported":1690308468,"current_range_meters":16400,"station_id":"ce4bgh92rcd13ifvqb50","pricing_plan_id":"free"},{"bike_id":"fb2576f5-9bd8-4648-bacc-c8772e699153","system_id":"levelo_inurba_marseille","lat":43.2979,"lon":5.38105,"is_reserved":false,"is_disabled":false,"rental_uris":{"android":"levelo://app?vid=fb2576f5-9bd8-4648-bacc-c8772e699153","ios":"levelo://app?vid=fb2576f5-9bd8-4648-bacc-c8772e699153"},"vehicle_type_id":"4","last_reported":1690308468,"current_range_meters":30000,"station_id":"","pricing_plan_id":"free"},{"bike_id":"b8599974-6e60-40a2-9ce2-8afcadd9e540","system_id":"levelo_inurba_marseille","lat":43.30427,"lon":5.38884,"is_reserved":false,"is_disabled":false,"rental_uris":{"android":"levelo://app?vid=b8599974-6e60-40a2-9ce2-8afcadd9e540","ios":"levelo://app?vid=b8599974-6e60-40a2-9ce2-8afcadd9e540"},"vehicle_type_id":"4","last_reported":1690308468,"current_range_meters":14400,"station_id":"ce4bgk12rcd13ifvqbi0","pricing_plan_id":"free"},{"bike_id":"bd01187f-3a3a-4d7e-b9cc-e5ed1acce1e5","system_id":"levelo_inurba_marseille","lat":43.304278,"lon":5.388868,"is_reserved":false,"is_disabled":false,"rental_uris":{"android":"levelo://app?vid=bd01187f-3a3a-4d7e-b9cc-e5ed1acce1e5","ios":"levelo://app?vid=bd01187f-3a3a-4d7e-b9cc-e5ed1acce1e5"},"vehicle_type_id":"4","last_reported":1690308468,"current_range_meters":19600,"station_id":"ce4bgk12rcd13ifvqbi0","pricing_plan_id":"free"},{"bike_id":"366d5f5f-6063-4774-afb0-1ee07a32e92a","system_id":"levelo_inurba_marseille","lat":43.30437,"lon":5.38898,"is_reserved":false,"is_disabled":false,"rental_uris":{"android":"levelo://app?vid=366d5f5f-6063-4774-afb0-1ee07a32e92a","ios":"levelo://app?vid=366d5f5f-6063-4774-afb0-1ee07a32e92a"},"vehicle_type_id":"4","last_reported":1690308468,"current_range_meters":10800,"station_id":"ce4bgk12rcd13ifvqbi0","pricing_plan_id":"free"},{"bike_id":"3c3d4bf7-fbbf-45e5-92d2-72569b01e165","system_id":"levelo_inurba_marseille","lat":43.295279,"lon":5.375048,"is_reserved":false,"is_disabled":false,"rental_uris":{"android":"levelo://app?vid=3c3d4bf7-fbbf-45e5-92d2-72569b01e165","ios":"levelo://app?vid=3c3d4bf7-fbbf-45e5-92d2-72569b01e165"},"vehicle_type_id":"4","last_reported":1690308468,"current_range_meters":22000,"station_id":"ce4bgkp2rcd13ifvqbmg","pricing_plan_id":"free"},{"bike_id":"434c18c6-ce93-4bd0-a991-3a4bb4589c9a","system_id":"levelo_inurba_marseille","lat":43.29966,"lon":5.38492,"is_reserved":false,"is_disabled":false,"rental_uris":{"android":"levelo://app?vid=434c18c6-ce93-4bd0-a991-3a4bb4589c9a","ios":"levelo://app?vid=434c18c6-ce93-4bd0-a991-3a4bb4589c9a"},"vehicle_type_id":"4","last_reported":1690308468,"current_range_meters":20800,"station_id":"","pricing_plan_id":"free"},{"bike_id":"074032a4-8b49-49ba-9aec-ff3fbfeeffe0","system_id":"levelo_inurba_marseille","lat":43.299724,"lon":5.384848,"is_reserved":false,"is_disabled":false,"rental_uris":{"android":"levelo://app?vid=074032a4-8b49-49ba-9aec-ff3fbfeeffe0","ios":"levelo://app?vid=074032a4-8b49-49ba-9aec-ff3fbfeeffe0"},"vehicle_type_id":"4","last_reported":1690308468,"current_range_meters":23200,"station_id":"ce4bgj92rcd13ifvqbd0","pricing_plan_id":"free"},{"bike_id":"e3c59db1-acd6-44c6-97f3-35c7602ef342","system_id":"levelo_inurba_marseille","lat":43.32371,"lon":5.38869,"is_reserved":false,"is_disabled":false,"rental_uris":{"android":"levelo://app?vid=e3c59db1-acd6-44c6-97f3-35c7602ef342","ios":"levelo://app?vid=e3c59db1-acd6-44c6-97f3-35c7602ef342"},"vehicle_type_id":"4","last_reported":1690308468,"current_range_meters":2000,"station_id":"ce4bhqp2rcd13ifvqhog","pricing_plan_id":"free"},{"bike_id":"f7599574-7f97-4c07-8aea-8ae5a8e05a97","system_id":"levelo_inurba_marseille","lat":43.32364,"lon":5.38877,"is_reserved":false,"is_disabled":false,"rental_uris":{"android":"levelo://app?vid=f7599574-7f97-4c07-8aea-8ae5a8e05a97","ios":"levelo://app?vid=f7599574-7f97-4c07-8aea-8ae5a8e05a97"},"vehicle_type_id":"4","last_reported":1690308468,"current_range_meters":28400,"station_id":"ce4bhqp2rcd13ifvqhog","pricing_plan_id":"free"},{"bike_id":"ce759cea-e736-4a87-9753-90840d785e7a","system_id":"levelo_inurba_marseille","lat":43.32367,"lon":5.388836,"is_reserved":false,"is_disabled":false,"rental_uris":{"android":"levelo://app?vid=ce759cea-e736-4a87-9753-90840d785e7a","ios":"levelo://app?vid=ce759cea-e736-4a87-9753-90840d785e7a"},"vehicle_type_id":"4","last_reported":1690308468,"current_range_meters":16400,"station_id":"ce4bhqp2rcd13ifvqhog","pricing_plan_id":"free"},{"bike_id":"623ee19b-d81c-428b-a26d-fd40de9e9286","system_id":"levelo_inurba_marseille","lat":43.310785,"lon":5.424305,"is_reserved":false,"is_disabled":false,"rental_uris":{"android":"levelo://app?vid=623ee19b-d81c-428b-a26d-fd40de9e9286","ios":"levelo://app?vid=623ee19b-d81c-428b-a26d-fd40de9e9286"},"vehicle_type_id":"4","last_reported":1690308468,"current_range_meters":10800,"station_id":"ce4bhp92rcd13ifvqhag","pricing_plan_id":"free"},{"bike_id":"0e53740d-2bdd-4fc1-9e1a-23ab0b4def97","system_id":"levelo_inurba_marseille","lat":43.29602,"lon":5.381084,"is_reserved":false,"is_disabled":false,"rental_uris":{"android":"levelo://app?vid=0e53740d-2bdd-4fc1-9e1a-23ab0b4def97","ios":"levelo://app?vid=0e53740d-2bdd-4fc1-9e1a-23ab0b4def97"},"vehicle_type_id":"4","last_reported":1690308468,"current_range_meters":15200,"station_id":"ce4bgl12rcd13ifvqbo0","pricing_plan_id":"free"},{"bike_id":"7fbd7160-6deb-4b13-b029-7caea476b401","system_id":"levelo_inurba_marseille","lat":43.29602,"lon":5.381084,"is_reserved":false,"is_disabled":false,"rental_uris":{"android":"levelo://app?vid=7fbd7160-6deb-4b13-b029-7caea476b401","ios":"levelo://app?vid=7fbd7160-6deb-4b13-b029-7caea476b401"},"vehicle_type_id":"4","last_reported":1690308468,"current_range_meters":20800,"station_id":"ce4bgl12rcd13ifvqbo0","pricing_plan_id":"free"},{"bike_id":"33940085-04d4-45f5-a331-e80c671e2de8","system_id":"levelo_inurba_marseille","lat":43.29308,"lon":5.3747,"is_reserved":false,"is_disabled":false,"rental_uris":{"android":"levelo://app?vid=33940085-04d4-45f5-a331-e80c671e2de8","ios":"levelo://app?vid=33940085-04d4-45f5-a331-e80c671e2de8"},"vehicle_type_id":"4","last_reported":1690308468,"current_range_meters":3600,"station_id":"ce4bgi12rcd13ifvqb70","pricing_plan_id":"free"},{"bike_id":"a638f371-ce9c-4e4e-852b-aebe5bb46f03","system_id":"levelo_inurba_marseille","lat":43.293009,"lon":5.374584,"is_reserved":false,"is_disabled":false,"rental_uris":{"android":"levelo://app?vid=a638f371-ce9c-4e4e-852b-aebe5bb46f03","ios":"levelo://app?vid=a638f371-ce9c-4e4e-852b-aebe5bb46f03"},"vehicle_type_id":"4","last_reported":1690308468,"current_range_meters":19200,"station_id":"ce4bgi12rcd13ifvqb70","pricing_plan_id":"free"},{"bike_id":"5d8471c3-ac74-4383-b26c-2ed9fbdf6fe3","system_id":"levelo_inurba_marseille","lat":43.30599,"lon":5.39353,"is_reserved":false,"is_disabled":false,"rental_uris":{"android":"levelo://app?vid=5d8471c3-ac74-4383-b26c-2ed9fbdf6fe3","ios":"levelo://app?vid=5d8471c3-ac74-4383-b26c-2ed9fbdf6fe3"},"vehicle_type_id":"4","last_reported":1690308468,"current_range_meters":14800,"station_id":"ce4bh0p2rcd13ifvqd80","pricing_plan_id":"free"},{"bike_id":"257492d5-5244-4ead-ae53-0819d60bcd7f","system_id":"levelo_inurba_marseille","lat":43.305994,"lon":5.393687,"is_reserved":false,"is_disabled":false,"rental_uris":{"android":"levelo://app?vid=257492d5-5244-4ead-ae53-0819d60bcd7f","ios":"levelo://app?vid=257492d5-5244-4ead-ae53-0819d60bcd7f"},"vehicle_type_id":"4","last_reported":1690308468,"current_range_meters":4800,"station_id":"ce4bh0p2rcd13ifvqd80","pricing_plan_id":"free"},{"bike_id":"84d984f2-8ed5-44e0-bfa2-1d9d9362bdb6","system_id":"levelo_inurba_marseille","lat":43.30305,"lon":5.39193,"is_reserved":false,"is_disabled":false,"rental_uris":{"android":"levelo://app?vid=84d984f2-8ed5-44e0-bfa2-1d9d9362bdb6","ios":"levelo://app?vid=84d984f2-8ed5-44e0-bfa2-1d9d9362bdb6"},"vehicle_type_id":"4","last_reported":1690308468,"current_range_meters":12400,"station_id":"ce4bgkh2rcd13ifvqbk0","pricing_plan_id":"free"},{"bike_id":"096a1400-e0f9-4ce3-ae4e-1e8a7b5b0245","system_id":"levelo_inurba_marseille","lat":43.302992,"lon":5.392136,"is_reserved":false,"is_disabled":false,"rental_uris":{"android":"levelo://app?vid=096a1400-e0f9-4ce3-ae4e-1e8a7b5b0245","ios":"levelo://app?vid=096a1400-e0f9-4ce3-ae4e-1e8a7b5b0245"},"vehicle_type_id":"4","last_reported":1690308468,"current_range_meters":22000,"station_id":"ce4bgkh2rcd13ifvqbk0","pricing_plan_id":"free"},{"bike_id":"9c1bc506-d52f-4091-abde-1429924286a7","system_id":"levelo_inurba_marseille","lat":43.302992,"lon":5.392136,"is_reserved":false,"is_disabled":false,"rental_uris":{"android":"levelo://app?vid=9c1bc506-d52f-4091-abde-1429924286a7","ios":"levelo://app?vid=9c1bc506-d52f-4091-abde-1429924286a7"},"vehicle_type_id":"4","last_reported":1690308468,"current_range_meters":17600,"station_id":"ce4bgkh2rcd13ifvqbk0","pricing_plan_id":"free"},{"bike_id":"da8c93a5-ef6f-4017-8dd1-8236f5a3ab31","system_id":"levelo_inurba_marseille","lat":43.30314,"lon":5.39209,"is_reserved":false,"is_disabled":false,"rental_uris":{"android":"levelo://app?vid=da8c93a5-ef6f-4017-8dd1-8236f5a3ab31","ios":"levelo://app?vid=da8c93a5-ef6f-4017-8dd1-8236f5a3ab31"},"vehicle_type_id":"4","last_reported":1690308468,"current_range_meters":19200,"station_id":"ce4bgkh2rcd13ifvqbk0","pricing_plan_id":"free"},{"bike_id":"ec980412-be36-4c35-aeda-ed8103877041","system_id":"levelo_inurba_marseille","lat":43.302992,"lon":5.392136,"is_reserved":false,"is_disabled":false,"rental_uris":{"android":"levelo://app?vid=ec980412-be36-4c35-aeda-ed8103877041","ios":"levelo://app?vid=ec980412-be36-4c35-aeda-ed8103877041"},"vehicle_type_id":"4","last_reported":1690308468,"current_range_meters":3200,"station_id":"ce4bgkh2rcd13ifvqbk0","pricing_plan_id":"free"},{"bike_id":"3839f196-4bd4-43f6-9201-a80e18f79366","system_id":"levelo_inurba_marseille","lat":43.302992,"lon":5.392136,"is_reserved":false,"is_disabled":false,"rental_uris":{"android":"levelo://app?vid=3839f196-4bd4-43f6-9201-a80e18f79366","ios":"levelo://app?vid=3839f196-4bd4-43f6-9201-a80e18f79366"},"vehicle_type_id":"4","last_reported":1690308468,"current_range_meters":0,"station_id":"ce4bgkh2rcd13ifvqbk0","pricing_plan_id":"free"},{"bike_id":"22419187-425c-4a46-b1d7-08dcc655ba12","system_id":"levelo_inurba_marseille","lat":43.29264,"lon":5.35957,"is_reserved":false,"is_disabled":false,"rental_uris":{"android":"levelo://app?vid=22419187-425c-4a46-b1d7-08dcc655ba12","ios":"levelo://app?vid=22419187-425c-4a46-b1d7-08dcc655ba12"},"vehicle_type_id":"4","last_reported":1690308468,"current_range_meters":20000,"station_id":"","pricing_plan_id":"free"},{"bike_id":"94d6b0f4-60dc-4d2d-82d3-684369f40944","system_id":"levelo_inurba_marseille","lat":43.292311,"lon":5.360731,"is_reserved":false,"is_disabled":false,"rental_uris":{"android":"levelo://app?vid=94d6b0f4-60dc-4d2d-82d3-684369f40944","ios":"levelo://app?vid=94d6b0f4-60dc-4d2d-82d3-684369f40944"},"vehicle_type_id":"4","last_reported":1690308468,"current_range_meters":13200,"station_id":"ce4bhbh2rcd13ifvqeqg","pricing_plan_id":"free"},{"bike_id":"259d7f21-4ec9-46f0-9b1a-e7fdff9e96d2","system_id":"levelo_inurba_marseille","lat":43.30085,"lon":5.390856,"is_reserved":false,"is_disabled":false,"rental_uris":{"android":"levelo://app?vid=259d7f21-4ec9-46f0-9b1a-e7fdff9e96d2","ios":"levelo://app?vid=259d7f21-4ec9-46f0-9b1a-e7fdff9e96d2"},"vehicle_type_id":"4","last_reported":1690308468,"current_range_meters":18400,"station_id":"ce4bh192rcd13ifvqdb0","pricing_plan_id":"free"},{"bike_id":"2cee505a-dc2f-4c5f-a617-66cfd38cd767","system_id":"levelo_inurba_marseille","lat":43.30085,"lon":5.390856,"is_reserved":false,"is_disabled":false,"rental_uris":{"android":"levelo://app?vid=2cee505a-dc2f-4c5f-a617-66cfd38cd767","ios":"levelo://app?vid=2cee505a-dc2f-4c5f-a617-66cfd38cd767"},"vehicle_type_id":"4","last_reported":1690308468,"current_range_meters":27200,"station_id":"ce4bh192rcd13ifvqdb0","pricing_plan_id":"free"},{"bike_id":"98e28a03-07c9-4e73-8f81-318c1ae9cb50","system_id":"levelo_inurba_marseille","lat":43.300852,"lon":5.390859,"is_reserved":false,"is_disabled":false,"rental_uris":{"android":"levelo://app?vid=98e28a03-07c9-4e73-8f81-318c1ae9cb50","ios":"levelo://app?vid=98e28a03-07c9-4e73-8f81-318c1ae9cb50"},"vehicle_type_id":"4","last_reported":1690308468,"current_range_meters":2000,"station_id":"ce4bh192rcd13ifvqdb0","pricing_plan_id":"free"},{"bike_id":"3d0d636a-5f05-4242-bcf5-2c8efd87301e","system_id":"levelo_inurba_marseille","lat":43.29272,"lon":5.3763,"is_reserved":false,"is_disabled":false,"rental_uris":{"android":"levelo://app?vid=3d0d636a-5f05-4242-bcf5-2c8efd87301e","ios":"levelo://app?vid=3d0d636a-5f05-4242-bcf5-2c8efd87301e"},"vehicle_type_id":"4","last_reported":1690308468,"current_range_meters":12400,"station_id":"","pricing_plan_id":"free"},{"bike_id":"0a3ab710-0029-4778-b7b2-ec799365a84e","system_id":"levelo_inurba_marseille","lat":43.29886,"lon":5.38908,"is_reserved":false,"is_disabled":false,"rental_uris":{"android":"levelo://app?vid=0a3ab710-0029-4778-b7b2-ec799365a84e","ios":"levelo://app?vid=0a3ab710-0029-4778-b7b2-ec799365a84e"},"vehicle_type_id":"4","last_reported":1690308468,"current_range_meters":20800,"station_id":"ce4bh392rcd13ifvqdl0","pricing_plan_id":"free"},{"bike_id":"666fa269-e406-4712-be37-2ecd1af9e3c1","system_id":"levelo_inurba_marseille","lat":43.298764,"lon":5.388973,"is_reserved":false,"is_disabled":false,"rental_uris":{"android":"levelo://app?vid=666fa269-e406-4712-be37-2ecd1af9e3c1","ios":"levelo://app?vid=666fa269-e406-4712-be37-2ecd1af9e3c1"},"vehicle_type_id":"4","last_reported":1690308468,"current_range_meters":7200,"station_id":"ce4bh392rcd13ifvqdl0","pricing_plan_id":"free"},{"bike_id":"2f1a340a-3799-4650-aa46-0cc5a2fe36db","system_id":"levelo_inurba_marseille","lat":43.298764,"lon":5.388973,"is_reserved":false,"is_disabled":false,"rental_uris":{"android":"levelo://app?vid=2f1a340a-3799-4650-aa46-0cc5a2fe36db","ios":"levelo://app?vid=2f1a340a-3799-4650-aa46-0cc5a2fe36db"},"vehicle_type_id":"4","last_reported":1690308468,"current_range_meters":22800,"station_id":"ce4bh392rcd13ifvqdl0","pricing_plan_id":"free"},{"bike_id":"f24b4a05-e76b-4d6d-acf3-471b3e95e07d","system_id":"levelo_inurba_marseille","lat":43.298764,"lon":5.388973,"is_reserved":false,"is_disabled":false,"rental_uris":{"android":"levelo://app?vid=f24b4a05-e76b-4d6d-acf3-471b3e95e07d","ios":"levelo://app?vid=f24b4a05-e76b-4d6d-acf3-471b3e95e07d"},"vehicle_type_id":"4","last_reported":1690308468,"current_range_meters":19200,"station_id":"ce4bh392rcd13ifvqdl0","pricing_plan_id":"free"},{"bike_id":"859ca16d-e5b1-4ceb-aa0d-287f95bd38ad","system_id":"levelo_inurba_marseille","lat":43.291675,"lon":5.371583,"is_reserved":false,"is_disabled":false,"rental_uris":{"android":"levelo://app?vid=859ca16d-e5b1-4ceb-aa0d-287f95bd38ad","ios":"levelo://app?vid=859ca16d-e5b1-4ceb-aa0d-287f95bd38ad"},"vehicle_type_id":"4","last_reported":1690308468,"current_range_meters":2400,"station_id":"ce4bha92rcd13ifvqeh0","pricing_plan_id":"free"},{"bike_id":"0f207b24-7b3e-4e4b-bcf7-46fc585ee918","system_id":"levelo_inurba_marseille","lat":43.298764,"lon":5.388973,"is_reserved":false,"is_disabled":false,"rental_uris":{"android":"levelo://app?vid=0f207b24-7b3e-4e4b-bcf7-46fc585ee918","ios":"levelo://app?vid=0f207b24-7b3e-4e4b-bcf7-46fc585ee918"},"vehicle_type_id":"4","last_reported":1690308468,"current_range_meters":13600,"station_id":"ce4bh392rcd13ifvqdl0","pricing_plan_id":"free"},{"bike_id":"97496f18-7d80-4d22-bb3f-2088f6cee5a1","system_id":"levelo_inurba_marseille","lat":43.32338,"lon":5.39293,"is_reserved":false,"is_disabled":false,"rental_uris":{"android":"levelo://app?vid=97496f18-7d80-4d22-bb3f-2088f6cee5a1","ios":"levelo://app?vid=97496f18-7d80-4d22-bb3f-2088f6cee5a1"},"vehicle_type_id":"4","last_reported":1690308468,"current_range_meters":30400,"station_id":"","pricing_plan_id":"free"},{"bike_id":"348bc27f-a269-4445-afe5-a7e1a47c1d15","system_id":"levelo_inurba_marseille","lat":43.29198,"lon":5.35801,"is_reserved":false,"is_disabled":false,"rental_uris":{"android":"levelo://app?vid=348bc27f-a269-4445-afe5-a7e1a47c1d15","ios":"levelo://app?vid=348bc27f-a269-4445-afe5-a7e1a47c1d15"},"vehicle_type_id":"4","last_reported":1690308468,"current_range_meters":18400,"station_id":"ce4bhb12rcd13ifvqel0","pricing_plan_id":"free"},{"bike_id":"c7a8e9c7-c5bb-4968-a067-ea3a749ea4cb","system_id":"levelo_inurba_marseille","lat":43.31327,"lon":5.39686,"is_reserved":false,"is_disabled":false,"rental_uris":{"android":"levelo://app?vid=c7a8e9c7-c5bb-4968-a067-ea3a749ea4cb","ios":"levelo://app?vid=c7a8e9c7-c5bb-4968-a067-ea3a749ea4cb"},"vehicle_type_id":"4","last_reported":1690308468,"current_range_meters":9200,"station_id":"ce4bgvp2rcd13ifvqcu0","pricing_plan_id":"free"},{"bike_id":"2912b22e-536f-4783-8f96-437532733cdd","system_id":"levelo_inurba_marseille","lat":43.31329,"lon":5.39686,"is_reserved":false,"is_disabled":false,"rental_uris":{"android":"levelo://app?vid=2912b22e-536f-4783-8f96-437532733cdd","ios":"levelo://app?vid=2912b22e-536f-4783-8f96-437532733cdd"},"vehicle_type_id":"4","last_reported":1690308468,"current_range_meters":10000,"station_id":"ce4bgvp2rcd13ifvqcu0","pricing_plan_id":"free"},{"bike_id":"6e23e691-d583-4462-bd1c-33549ccec997","system_id":"levelo_inurba_marseille","lat":43.231562,"lon":5.436933,"is_reserved":false,"is_disabled":false,"rental_uris":{"android":"levelo://app?vid=6e23e691-d583-4462-bd1c-33549ccec997","ios":"levelo://app?vid=6e23e691-d583-4462-bd1c-33549ccec997"},"vehicle_type_id":"4","last_reported":1690308468,"current_range_meters":18800,"station_id":"ce4bhmp2rcd13ifvqgog","pricing_plan_id":"free"},{"bike_id":"c8fd73b3-b013-48b3-ac0c-7cabff80b4f0","system_id":"levelo_inurba_marseille","lat":43.313291,"lon":5.396838,"is_reserved":false,"is_disabled":false,"rental_uris":{"android":"levelo://app?vid=c8fd73b3-b013-48b3-ac0c-7cabff80b4f0","ios":"levelo://app?vid=c8fd73b3-b013-48b3-ac0c-7cabff80b4f0"},"vehicle_type_id":"4","last_reported":1690308468,"current_range_meters":10800,"station_id":"ce4bgvp2rcd13ifvqcu0","pricing_plan_id":"free"},{"bike_id":"21ee9228-2cce-446a-a8b8-a7c43cfefddf","system_id":"levelo_inurba_marseille","lat":43.313291,"lon":5.396838,"is_reserved":false,"is_disabled":false,"rental_uris":{"android":"levelo://app?vid=21ee9228-2cce-446a-a8b8-a7c43cfefddf","ios":"levelo://app?vid=21ee9228-2cce-446a-a8b8-a7c43cfefddf"},"vehicle_type_id":"4","last_reported":1690308468,"current_range_meters":21200,"station_id":"ce4bgvp2rcd13ifvqcu0","pricing_plan_id":"free"},{"bike_id":"9cb278b3-b39e-4081-86c2-7be2caa45573","system_id":"levelo_inurba_marseille","lat":43.3133,"lon":5.39691,"is_reserved":false,"is_disabled":false,"rental_uris":{"android":"levelo://app?vid=9cb278b3-b39e-4081-86c2-7be2caa45573","ios":"levelo://app?vid=9cb278b3-b39e-4081-86c2-7be2caa45573"},"vehicle_type_id":"4","last_reported":1690308468,"current_range_meters":26400,"station_id":"ce4bgvp2rcd13ifvqcu0","pricing_plan_id":"free"},{"bike_id":"80e0cf5e-1685-4094-84f1-6c6fc5bffeed","system_id":"levelo_inurba_marseille","lat":43.31329,"lon":5.39699,"is_reserved":false,"is_disabled":false,"rental_uris":{"android":"levelo://app?vid=80e0cf5e-1685-4094-84f1-6c6fc5bffeed","ios":"levelo://app?vid=80e0cf5e-1685-4094-84f1-6c6fc5bffeed"},"vehicle_type_id":"4","last_reported":1690308468,"current_range_meters":17600,"station_id":"ce4bgvp2rcd13ifvqcu0","pricing_plan_id":"free"},{"bike_id":"3ba7e858-df48-468e-b979-0544e8f145f1","system_id":"levelo_inurba_marseille","lat":43.31325,"lon":5.39702,"is_reserved":false,"is_disabled":false,"rental_uris":{"android":"levelo://app?vid=3ba7e858-df48-468e-b979-0544e8f145f1","ios":"levelo://app?vid=3ba7e858-df48-468e-b979-0544e8f145f1"},"vehicle_type_id":"4","last_reported":1690308468,"current_range_meters":22400,"station_id":"ce4bgvp2rcd13ifvqcu0","pricing_plan_id":"free"},{"bike_id":"b93f8d90-d587-41f4-996d-d66aef4227ee","system_id":"levelo_inurba_marseille","lat":43.29529,"lon":5.385581,"is_reserved":false,"is_disabled":false,"rental_uris":{"android":"levelo://app?vid=b93f8d90-d587-41f4-996d-d66aef4227ee","ios":"levelo://app?vid=b93f8d90-d587-41f4-996d-d66aef4227ee"},"vehicle_type_id":"4","last_reported":1690308468,"current_range_meters":22000,"station_id":"ce4bgih2rcd13ifvqba0","pricing_plan_id":"free"},{"bike_id":"5905f410-e54c-43f5-bb59-e9aa7d03cd74","system_id":"levelo_inurba_marseille","lat":43.302008,"lon":5.394694,"is_reserved":false,"is_disabled":false,"rental_uris":{"android":"levelo://app?vid=5905f410-e54c-43f5-bb59-e9aa7d03cd74","ios":"levelo://app?vid=5905f410-e54c-43f5-bb59-e9aa7d03cd74"},"vehicle_type_id":"4","last_reported":1690308468,"current_range_meters":27600,"station_id":"ce4bh0p2rcd13ifvqd70","pricing_plan_id":"free"},{"bike_id":"9f7473a4-a787-4b2c-9ca6-fd2afd348f06","system_id":"levelo_inurba_marseille","lat":43.290624,"lon":5.359245,"is_reserved":false,"is_disabled":false,"rental_uris":{"android":"levelo://app?vid=9f7473a4-a787-4b2c-9ca6-fd2afd348f06","ios":"levelo://app?vid=9f7473a4-a787-4b2c-9ca6-fd2afd348f06"},"vehicle_type_id":"4","last_reported":1690308468,"current_range_meters":10000,"station_id":"ce4bha92rcd13ifvqeg0","pricing_plan_id":"free"},{"bike_id":"89339d2b-c79b-4a24-a9ca-6a5402ef762f","system_id":"levelo_inurba_marseille","lat":43.290624,"lon":5.359245,"is_reserved":false,"is_disabled":false,"rental_uris":{"android":"levelo://app?vid=89339d2b-c79b-4a24-a9ca-6a5402ef762f","ios":"levelo://app?vid=89339d2b-c79b-4a24-a9ca-6a5402ef762f"},"vehicle_type_id":"4","last_reported":1690308468,"current_range_meters":31600,"station_id":"ce4bha92rcd13ifvqeg0","pricing_plan_id":"free"},{"bike_id":"618a91cf-9d88-4f6a-b3b8-6b6b1a14e976","system_id":"levelo_inurba_marseille","lat":43.292642,"lon":5.384254,"is_reserved":false,"is_disabled":false,"rental_uris":{"android":"levelo://app?vid=618a91cf-9d88-4f6a-b3b8-6b6b1a14e976","ios":"levelo://app?vid=618a91cf-9d88-4f6a-b3b8-6b6b1a14e976"},"vehicle_type_id":"4","last_reported":1690308468,"current_range_meters":25600,"station_id":"ce4bh692rcd13ifvqea0","pricing_plan_id":"free"},{"bike_id":"c8c9c149-ed61-4921-998f-8c2ee5190ec3","system_id":"levelo_inurba_marseille","lat":43.290624,"lon":5.359245,"is_reserved":false,"is_disabled":false,"rental_uris":{"android":"levelo://app?vid=c8c9c149-ed61-4921-998f-8c2ee5190ec3","ios":"levelo://app?vid=c8c9c149-ed61-4921-998f-8c2ee5190ec3"},"vehicle_type_id":"4","last_reported":1690308468,"current_range_meters":26000,"station_id":"ce4bha92rcd13ifvqeg0","pricing_plan_id":"free"},{"bike_id":"b12e48b5-1156-48fc-8d05-9347ac207974","system_id":"levelo_inurba_marseille","lat":43.290631,"lon":5.359244,"is_reserved":false,"is_disabled":false,"rental_uris":{"android":"levelo://app?vid=b12e48b5-1156-48fc-8d05-9347ac207974","ios":"levelo://app?vid=b12e48b5-1156-48fc-8d05-9347ac207974"},"vehicle_type_id":"4","last_reported":1690308468,"current_range_meters":14800,"station_id":"ce4bha92rcd13ifvqeg0","pricing_plan_id":"free"},{"bike_id":"144d7c2d-de31-415d-8ad7-8cd381e030d1","system_id":"levelo_inurba_marseille","lat":43.290631,"lon":5.359244,"is_reserved":false,"is_disabled":false,"rental_uris":{"android":"levelo://app?vid=144d7c2d-de31-415d-8ad7-8cd381e030d1","ios":"levelo://app?vid=144d7c2d-de31-415d-8ad7-8cd381e030d1"},"vehicle_type_id":"4","last_reported":1690308468,"current_range_meters":30400,"station_id":"ce4bha92rcd13ifvqeg0","pricing_plan_id":"free"},{"bike_id":"f20d2ace-e6e8-43aa-9f6d-7dfb0168dfa8","system_id":"levelo_inurba_marseille","lat":43.290624,"lon":5.359245,"is_reserved":false,"is_disabled":false,"rental_uris":{"android":"levelo://app?vid=f20d2ace-e6e8-43aa-9f6d-7dfb0168dfa8","ios":"levelo://app?vid=f20d2ace-e6e8-43aa-9f6d-7dfb0168dfa8"},"vehicle_type_id":"4","last_reported":1690308468,"current_range_meters":4800,"station_id":"ce4bha92rcd13ifvqeg0","pricing_plan_id":"free"},{"bike_id":"3f4f97bb-343a-4734-9bcb-6e7990399f3e","system_id":"levelo_inurba_marseille","lat":43.289184,"lon":5.366408,"is_reserved":false,"is_disabled":false,"rental_uris":{"android":"levelo://app?vid=3f4f97bb-343a-4734-9bcb-6e7990399f3e","ios":"levelo://app?vid=3f4f97bb-343a-4734-9bcb-6e7990399f3e"},"vehicle_type_id":"4","last_reported":1690308468,"current_range_meters":17600,"station_id":"ce4bhap2rcd13ifvqek0","pricing_plan_id":"free"},{"bike_id":"eda231ce-60b4-46f2-b29f-b42ad2ee66af","system_id":"levelo_inurba_marseille","lat":43.294239,"lon":5.386189,"is_reserved":false,"is_disabled":false,"rental_uris":{"android":"levelo://app?vid=eda231ce-60b4-46f2-b29f-b42ad2ee66af","ios":"levelo://app?vid=eda231ce-60b4-46f2-b29f-b42ad2ee66af"},"vehicle_type_id":"4","last_reported":1690308468,"current_range_meters":5600,"station_id":"ce4bh2h2rcd13ifvqdh0","pricing_plan_id":"free"},{"bike_id":"dfe373e0-48d5-4b77-8e76-d51f1d48401d","system_id":"levelo_inurba_marseille","lat":43.29421,"lon":5.38614,"is_reserved":false,"is_disabled":false,"rental_uris":{"android":"levelo://app?vid=dfe373e0-48d5-4b77-8e76-d51f1d48401d","ios":"levelo://app?vid=dfe373e0-48d5-4b77-8e76-d51f1d48401d"},"vehicle_type_id":"4","last_reported":1690308468,"current_range_meters":29600,"station_id":"ce4bh2h2rcd13ifvqdh0","pricing_plan_id":"free"},{"bike_id":"72b99875-4db5-4e03-8d05-627c25037b37","system_id":"levelo_inurba_marseille","lat":43.29419,"lon":5.38619,"is_reserved":false,"is_disabled":false,"rental_uris":{"android":"levelo://app?vid=72b99875-4db5-4e03-8d05-627c25037b37","ios":"levelo://app?vid=72b99875-4db5-4e03-8d05-627c25037b37"},"vehicle_type_id":"4","last_reported":1690308468,"current_range_meters":23600,"station_id":"ce4bh2h2rcd13ifvqdh0","pricing_plan_id":"free"},{"bike_id":"fd2b2004-69fb-4e80-b695-71e468a389c9","system_id":"levelo_inurba_marseille","lat":43.2942,"lon":5.38621,"is_reserved":false,"is_disabled":false,"rental_uris":{"android":"levelo://app?vid=fd2b2004-69fb-4e80-b695-71e468a389c9","ios":"levelo://app?vid=fd2b2004-69fb-4e80-b695-71e468a389c9"},"vehicle_type_id":"4","last_reported":1690308468,"current_range_meters":0,"station_id":"ce4bh2h2rcd13ifvqdh0","pricing_plan_id":"free"},{"bike_id":"4976f8c6-1583-4243-9b71-69498b38d73b","system_id":"levelo_inurba_marseille","lat":43.294162,"lon":5.386292,"is_reserved":false,"is_disabled":false,"rental_uris":{"android":"levelo://app?vid=4976f8c6-1583-4243-9b71-69498b38d73b","ios":"levelo://app?vid=4976f8c6-1583-4243-9b71-69498b38d73b"},"vehicle_type_id":"4","last_reported":1690308468,"current_range_meters":31200,"station_id":"ce4bh2h2rcd13ifvqdh0","pricing_plan_id":"free"},{"bike_id":"37a658a5-5b9f-4da1-bd32-d4e73b417e43","system_id":"levelo_inurba_marseille","lat":43.289184,"lon":5.366408,"is_reserved":false,"is_disabled":false,"rental_uris":{"android":"levelo://app?vid=37a658a5-5b9f-4da1-bd32-d4e73b417e43","ios":"levelo://app?vid=37a658a5-5b9f-4da1-bd32-d4e73b417e43"},"vehicle_type_id":"4","last_reported":1690308468,"current_range_meters":6000,"station_id":"ce4bhap2rcd13ifvqek0","pricing_plan_id":"free"},{"bike_id":"47eb4a88-404f-4620-bc3a-c88f4b259576","system_id":"levelo_inurba_marseille","lat":43.29413,"lon":5.38626,"is_reserved":false,"is_disabled":false,"rental_uris":{"android":"levelo://app?vid=47eb4a88-404f-4620-bc3a-c88f4b259576","ios":"levelo://app?vid=47eb4a88-404f-4620-bc3a-c88f4b259576"},"vehicle_type_id":"4","last_reported":1690308468,"current_range_meters":15200,"station_id":"ce4bh2h2rcd13ifvqdh0","pricing_plan_id":"free"},{"bike_id":"fbc2af4d-8386-44d7-a360-587327c88261","system_id":"levelo_inurba_marseille","lat":43.289184,"lon":5.366408,"is_reserved":false,"is_disabled":false,"rental_uris":{"android":"levelo://app?vid=fbc2af4d-8386-44d7-a360-587327c88261","ios":"levelo://app?vid=fbc2af4d-8386-44d7-a360-587327c88261"},"vehicle_type_id":"4","last_reported":1690308468,"current_range_meters":15200,"station_id":"ce4bhap2rcd13ifvqek0","pricing_plan_id":"free"},{"bike_id":"bb19bf92-fbd4-4000-bbf6-2336ff3e2f21","system_id":"levelo_inurba_marseille","lat":43.292642,"lon":5.384254,"is_reserved":false,"is_disabled":false,"rental_uris":{"android":"levelo://app?vid=bb19bf92-fbd4-4000-bbf6-2336ff3e2f21","ios":"levelo://app?vid=bb19bf92-fbd4-4000-bbf6-2336ff3e2f21"},"vehicle_type_id":"4","last_reported":1690308468,"current_range_meters":0,"station_id":"ce4bh692rcd13ifvqea0","pricing_plan_id":"free"},{"bike_id":"0dce84cf-c672-4477-b699-bc92b639a262","system_id":"levelo_inurba_marseille","lat":43.304296,"lon":5.397513,"is_reserved":false,"is_disabled":false,"rental_uris":{"android":"levelo://app?vid=0dce84cf-c672-4477-b699-bc92b639a262","ios":"levelo://app?vid=0dce84cf-c672-4477-b699-bc92b639a262"},"vehicle_type_id":"4","last_reported":1690308468,"current_range_meters":8800,"station_id":"ce4bh092rcd13ifvqd20","pricing_plan_id":"free"},{"bike_id":"714f2382-d603-4036-a5e8-3c8f81059395","system_id":"levelo_inurba_marseille","lat":43.304296,"lon":5.397513,"is_reserved":false,"is_disabled":false,"rental_uris":{"android":"levelo://app?vid=714f2382-d603-4036-a5e8-3c8f81059395","ios":"levelo://app?vid=714f2382-d603-4036-a5e8-3c8f81059395"},"vehicle_type_id":"4","last_reported":1690308468,"current_range_meters":19200,"station_id":"ce4bh092rcd13ifvqd20","pricing_plan_id":"free"},{"bike_id":"d1b69411-f97f-474b-81c1-fb1bdaef2248","system_id":"levelo_inurba_marseille","lat":43.30436,"lon":5.39749,"is_reserved":false,"is_disabled":false,"rental_uris":{"android":"levelo://app?vid=d1b69411-f97f-474b-81c1-fb1bdaef2248","ios":"levelo://app?vid=d1b69411-f97f-474b-81c1-fb1bdaef2248"},"vehicle_type_id":"4","last_reported":1690308468,"current_range_meters":6000,"station_id":"ce4bh092rcd13ifvqd20","pricing_plan_id":"free"},{"bike_id":"3daae1ee-a135-4d3f-9419-8e6b56a95bad","system_id":"levelo_inurba_marseille","lat":43.292644,"lon":5.384257,"is_reserved":false,"is_disabled":false,"rental_uris":{"android":"levelo://app?vid=3daae1ee-a135-4d3f-9419-8e6b56a95bad","ios":"levelo://app?vid=3daae1ee-a135-4d3f-9419-8e6b56a95bad"},"vehicle_type_id":"4","last_reported":1690308468,"current_range_meters":23600,"station_id":"ce4bh692rcd13ifvqea0","pricing_plan_id":"free"},{"bike_id":"e4547b30-f99e-4878-811e-a95c818f163a","system_id":"levelo_inurba_marseille","lat":43.292642,"lon":5.384254,"is_reserved":false,"is_disabled":false,"rental_uris":{"android":"levelo://app?vid=e4547b30-f99e-4878-811e-a95c818f163a","ios":"levelo://app?vid=e4547b30-f99e-4878-811e-a95c818f163a"},"vehicle_type_id":"4","last_reported":1690308468,"current_range_meters":12800,"station_id":"ce4bh692rcd13ifvqea0","pricing_plan_id":"free"},{"bike_id":"44078cb7-22d3-430b-9b09-ac0a4789adf2","system_id":"levelo_inurba_marseille","lat":43.292642,"lon":5.384254,"is_reserved":false,"is_disabled":false,"rental_uris":{"android":"levelo://app?vid=44078cb7-22d3-430b-9b09-ac0a4789adf2","ios":"levelo://app?vid=44078cb7-22d3-430b-9b09-ac0a4789adf2"},"vehicle_type_id":"4","last_reported":1690308468,"current_range_meters":20000,"station_id":"ce4bh692rcd13ifvqea0","pricing_plan_id":"free"},{"bike_id":"78e83545-a8b7-4faa-a638-65a619a7075b","system_id":"levelo_inurba_marseille","lat":43.304296,"lon":5.397513,"is_reserved":false,"is_disabled":false,"rental_uris":{"android":"levelo://app?vid=78e83545-a8b7-4faa-a638-65a619a7075b","ios":"levelo://app?vid=78e83545-a8b7-4faa-a638-65a619a7075b"},"vehicle_type_id":"4","last_reported":1690308468,"current_range_meters":12000,"station_id":"ce4bh092rcd13ifvqd20","pricing_plan_id":"free"},{"bike_id":"0efb9f28-bf7f-4dd9-a68f-c5848c158889","system_id":"levelo_inurba_marseille","lat":43.292644,"lon":5.384257,"is_reserved":false,"is_disabled":false,"rental_uris":{"android":"levelo://app?vid=0efb9f28-bf7f-4dd9-a68f-c5848c158889","ios":"levelo://app?vid=0efb9f28-bf7f-4dd9-a68f-c5848c158889"},"vehicle_type_id":"4","last_reported":1690308468,"current_range_meters":12400,"station_id":"ce4bh692rcd13ifvqea0","pricing_plan_id":"free"},{"bike_id":"9014e574-1b33-4c7a-ba44-01747735ce29","system_id":"levelo_inurba_marseille","lat":43.304274,"lon":5.397513,"is_reserved":false,"is_disabled":false,"rental_uris":{"android":"levelo://app?vid=9014e574-1b33-4c7a-ba44-01747735ce29","ios":"levelo://app?vid=9014e574-1b33-4c7a-ba44-01747735ce29"},"vehicle_type_id":"4","last_reported":1690308468,"current_range_meters":31200,"station_id":"ce4bh092rcd13ifvqd20","pricing_plan_id":"free"},{"bike_id":"c2f231a1-a185-46ed-a091-d617c671d810","system_id":"levelo_inurba_marseille","lat":43.292644,"lon":5.384257,"is_reserved":false,"is_disabled":false,"rental_uris":{"android":"levelo://app?vid=c2f231a1-a185-46ed-a091-d617c671d810","ios":"levelo://app?vid=c2f231a1-a185-46ed-a091-d617c671d810"},"vehicle_type_id":"4","last_reported":1690308468,"current_range_meters":26000,"station_id":"ce4bh692rcd13ifvqea0","pricing_plan_id":"free"},{"bike_id":"4246a506-28cb-43ef-811c-16d8bd754c74","system_id":"levelo_inurba_marseille","lat":43.33041,"lon":5.38916,"is_reserved":false,"is_disabled":false,"rental_uris":{"android":"levelo://app?vid=4246a506-28cb-43ef-811c-16d8bd754c74","ios":"levelo://app?vid=4246a506-28cb-43ef-811c-16d8bd754c74"},"vehicle_type_id":"4","last_reported":1690308468,"current_range_meters":28800,"station_id":"ce4bhr92rcd13ifvqhrg","pricing_plan_id":"free"},{"bike_id":"8fdf7c56-0a0a-48f3-8c5d-53434843cd34","system_id":"levelo_inurba_marseille","lat":43.33041,"lon":5.38916,"is_reserved":false,"is_disabled":false,"rental_uris":{"android":"levelo://app?vid=8fdf7c56-0a0a-48f3-8c5d-53434843cd34","ios":"levelo://app?vid=8fdf7c56-0a0a-48f3-8c5d-53434843cd34"},"vehicle_type_id":"4","last_reported":1690308468,"current_range_meters":24400,"station_id":"ce4bhr92rcd13ifvqhrg","pricing_plan_id":"free"},{"bike_id":"2b614b85-75a6-46d1-8fb2-f8b4324cdce9","system_id":"levelo_inurba_marseille","lat":43.33042,"lon":5.38917,"is_reserved":false,"is_disabled":false,"rental_uris":{"android":"levelo://app?vid=2b614b85-75a6-46d1-8fb2-f8b4324cdce9","ios":"levelo://app?vid=2b614b85-75a6-46d1-8fb2-f8b4324cdce9"},"vehicle_type_id":"4","last_reported":1690308468,"current_range_meters":23600,"station_id":"ce4bhr92rcd13ifvqhrg","pricing_plan_id":"free"},{"bike_id":"1e5adbc3-f47c-43a1-9cd1-6383bb43f658","system_id":"levelo_inurba_marseille","lat":43.29008,"lon":5.35618,"is_reserved":false,"is_disabled":false,"rental_uris":{"android":"levelo://app?vid=1e5adbc3-f47c-43a1-9cd1-6383bb43f658","ios":"levelo://app?vid=1e5adbc3-f47c-43a1-9cd1-6383bb43f658"},"vehicle_type_id":"4","last_reported":1690308468,"current_range_meters":31200,"station_id":"ce4bhb92rcd13ifvqen0","pricing_plan_id":"free"},{"bike_id":"06780769-6c49-42ba-9882-693b562c3a7c","system_id":"levelo_inurba_marseille","lat":43.33042,"lon":5.38919,"is_reserved":false,"is_disabled":false,"rental_uris":{"android":"levelo://app?vid=06780769-6c49-42ba-9882-693b562c3a7c","ios":"levelo://app?vid=06780769-6c49-42ba-9882-693b562c3a7c"},"vehicle_type_id":"4","last_reported":1690308468,"current_range_meters":19200,"station_id":"ce4bhr92rcd13ifvqhrg","pricing_plan_id":"free"},{"bike_id":"e0e41acf-4489-42f8-b133-7935c80c0842","system_id":"levelo_inurba_marseille","lat":43.33045,"lon":5.38917,"is_reserved":false,"is_disabled":false,"rental_uris":{"android":"levelo://app?vid=e0e41acf-4489-42f8-b133-7935c80c0842","ios":"levelo://app?vid=e0e41acf-4489-42f8-b133-7935c80c0842"},"vehicle_type_id":"4","last_reported":1690308468,"current_range_meters":12800,"station_id":"ce4bhr92rcd13ifvqhrg","pricing_plan_id":"free"},{"bike_id":"159d8e32-29dc-41e9-9762-9329c4493891","system_id":"levelo_inurba_marseille","lat":43.330434,"lon":5.389208,"is_reserved":false,"is_disabled":false,"rental_uris":{"android":"levelo://app?vid=159d8e32-29dc-41e9-9762-9329c4493891","ios":"levelo://app?vid=159d8e32-29dc-41e9-9762-9329c4493891"},"vehicle_type_id":"4","last_reported":1690308468,"current_range_meters":29600,"station_id":"ce4bhr92rcd13ifvqhrg","pricing_plan_id":"free"},{"bike_id":"469ba2ff-4d90-40f8-b86d-83b522cc581a","system_id":"levelo_inurba_marseille","lat":43.290103,"lon":5.356114,"is_reserved":false,"is_disabled":false,"rental_uris":{"android":"levelo://app?vid=469ba2ff-4d90-40f8-b86d-83b522cc581a","ios":"levelo://app?vid=469ba2ff-4d90-40f8-b86d-83b522cc581a"},"vehicle_type_id":"4","last_reported":1690308468,"current_range_meters":16800,"station_id":"ce4bhb92rcd13ifvqen0","pricing_plan_id":"free"},{"bike_id":"e4bb7ca1-e25d-4278-8062-624aad874a33","system_id":"levelo_inurba_marseille","lat":43.30325,"lon":5.39739,"is_reserved":false,"is_disabled":false,"rental_uris":{"android":"levelo://app?vid=e4bb7ca1-e25d-4278-8062-624aad874a33","ios":"levelo://app?vid=e4bb7ca1-e25d-4278-8062-624aad874a33"},"vehicle_type_id":"4","last_reported":1690308468,"current_range_meters":30400,"station_id":"","pricing_plan_id":"free"},{"bike_id":"25255c71-a991-4a03-aad5-0239ef62ce14","system_id":"levelo_inurba_marseille","lat":43.290995,"lon":5.381361,"is_reserved":false,"is_disabled":false,"rental_uris":{"android":"levelo://app?vid=25255c71-a991-4a03-aad5-0239ef62ce14","ios":"levelo://app?vid=25255c71-a991-4a03-aad5-0239ef62ce14"},"vehicle_type_id":"4","last_reported":1690308468,"current_range_meters":1200,"station_id":"ce4bh512rcd13ifvqe2g","pricing_plan_id":"free"},{"bike_id":"e4948f2a-8190-4a1d-9464-68b5d98e0f85","system_id":"levelo_inurba_marseille","lat":43.290336,"lon":5.386425,"is_reserved":false,"is_disabled":false,"rental_uris":{"android":"levelo://app?vid=e4948f2a-8190-4a1d-9464-68b5d98e0f85","ios":"levelo://app?vid=e4948f2a-8190-4a1d-9464-68b5d98e0f85"},"vehicle_type_id":"4","last_reported":1690308468,"current_range_meters":23600,"station_id":"ce4bh4p2rcd13ifvqe0g","pricing_plan_id":"free"},{"bike_id":"5bff5e1b-d138-4a0b-8b39-116968ac4437","system_id":"levelo_inurba_marseille","lat":43.295169,"lon":5.390426,"is_reserved":false,"is_disabled":false,"rental_uris":{"android":"levelo://app?vid=5bff5e1b-d138-4a0b-8b39-116968ac4437","ios":"levelo://app?vid=5bff5e1b-d138-4a0b-8b39-116968ac4437"},"vehicle_type_id":"4","last_reported":1690308468,"current_range_meters":13600,"station_id":"ce4bh3p2rcd13ifvqdp0","pricing_plan_id":"free"},{"bike_id":"b8d184d4-2bc5-4001-bf71-740c8107c0f8","system_id":"levelo_inurba_marseille","lat":43.295169,"lon":5.390426,"is_reserved":false,"is_disabled":false,"rental_uris":{"android":"levelo://app?vid=b8d184d4-2bc5-4001-bf71-740c8107c0f8","ios":"levelo://app?vid=b8d184d4-2bc5-4001-bf71-740c8107c0f8"},"vehicle_type_id":"4","last_reported":1690308468,"current_range_meters":4000,"station_id":"ce4bh3p2rcd13ifvqdp0","pricing_plan_id":"free"},{"bike_id":"7a588e71-1ee0-42e8-9847-acf219cf2e0e","system_id":"levelo_inurba_marseille","lat":43.289741,"lon":5.378306,"is_reserved":false,"is_disabled":false,"rental_uris":{"android":"levelo://app?vid=7a588e71-1ee0-42e8-9847-acf219cf2e0e","ios":"levelo://app?vid=7a588e71-1ee0-42e8-9847-acf219cf2e0e"},"vehicle_type_id":"4","last_reported":1690308468,"current_range_meters":0,"station_id":"ce4bh9p2rcd13ifvqed0","pricing_plan_id":"free"},{"bike_id":"383c61db-45d8-4daf-a17c-d37379f6c8d8","system_id":"levelo_inurba_marseille","lat":43.28856,"lon":5.358371,"is_reserved":false,"is_disabled":false,"rental_uris":{"android":"levelo://app?vid=383c61db-45d8-4daf-a17c-d37379f6c8d8","ios":"levelo://app?vid=383c61db-45d8-4daf-a17c-d37379f6c8d8"},"vehicle_type_id":"4","last_reported":1690308468,"current_range_meters":0,"station_id":"ce4bhb12rcd13ifvqem0","pricing_plan_id":"free"},{"bike_id":"e59c1002-46eb-4fd9-8bf6-dfb6575e538f","system_id":"levelo_inurba_marseille","lat":43.28856,"lon":5.358371,"is_reserved":false,"is_disabled":false,"rental_uris":{"android":"levelo://app?vid=e59c1002-46eb-4fd9-8bf6-dfb6575e538f","ios":"levelo://app?vid=e59c1002-46eb-4fd9-8bf6-dfb6575e538f"},"vehicle_type_id":"4","last_reported":1690308468,"current_range_meters":14800,"station_id":"ce4bhb12rcd13ifvqem0","pricing_plan_id":"free"},{"bike_id":"f4832a7d-a08c-4c4c-a7c7-6a8e3914171a","system_id":"levelo_inurba_marseille","lat":43.33741,"lon":5.37439,"is_reserved":false,"is_disabled":false,"rental_uris":{"android":"levelo://app?vid=f4832a7d-a08c-4c4c-a7c7-6a8e3914171a","ios":"levelo://app?vid=f4832a7d-a08c-4c4c-a7c7-6a8e3914171a"},"vehicle_type_id":"4","last_reported":1690308468,"current_range_meters":29200,"station_id":"","pricing_plan_id":"free"},{"bike_id":"60be450e-fd30-46de-8515-e5614ce6e36b","system_id":"levelo_inurba_marseille","lat":43.31278,"lon":5.40165,"is_reserved":false,"is_disabled":false,"rental_uris":{"android":"levelo://app?vid=60be450e-fd30-46de-8515-e5614ce6e36b","ios":"levelo://app?vid=60be450e-fd30-46de-8515-e5614ce6e36b"},"vehicle_type_id":"4","last_reported":1690308468,"current_range_meters":18800,"station_id":"ce4bh092rcd13ifvqd30","pricing_plan_id":"free"},{"bike_id":"ca9d201a-71a1-475c-8693-9ecfe47864ad","system_id":"levelo_inurba_marseille","lat":43.312609,"lon":5.401662,"is_reserved":false,"is_disabled":false,"rental_uris":{"android":"levelo://app?vid=ca9d201a-71a1-475c-8693-9ecfe47864ad","ios":"levelo://app?vid=ca9d201a-71a1-475c-8693-9ecfe47864ad"},"vehicle_type_id":"4","last_reported":1690308468,"current_range_meters":19600,"station_id":"ce4bh092rcd13ifvqd30","pricing_plan_id":"free"},{"bike_id":"323f9806-5f79-4c9e-be2e-0635055ea0e8","system_id":"levelo_inurba_marseille","lat":43.309371,"lon":5.401449,"is_reserved":false,"is_disabled":false,"rental_uris":{"android":"levelo://app?vid=323f9806-5f79-4c9e-be2e-0635055ea0e8","ios":"levelo://app?vid=323f9806-5f79-4c9e-be2e-0635055ea0e8"},"vehicle_type_id":"4","last_reported":1690308468,"current_range_meters":800,"station_id":"ce4bgvp2rcd13ifvqct0","pricing_plan_id":"free"},{"bike_id":"417f3cd8-86e7-4f94-bf48-3b7ed2d5d1d2","system_id":"levelo_inurba_marseille","lat":43.33741,"lon":5.37472,"is_reserved":false,"is_disabled":false,"rental_uris":{"android":"levelo://app?vid=417f3cd8-86e7-4f94-bf48-3b7ed2d5d1d2","ios":"levelo://app?vid=417f3cd8-86e7-4f94-bf48-3b7ed2d5d1d2"},"vehicle_type_id":"4","last_reported":1690308468,"current_range_meters":6800,"station_id":"","pricing_plan_id":"free"},{"bike_id":"130840a5-e40d-401b-b733-9a7931bc0133","system_id":"levelo_inurba_marseille","lat":43.33744,"lon":5.37465,"is_reserved":false,"is_disabled":false,"rental_uris":{"android":"levelo://app?vid=130840a5-e40d-401b-b733-9a7931bc0133","ios":"levelo://app?vid=130840a5-e40d-401b-b733-9a7931bc0133"},"vehicle_type_id":"4","last_reported":1690308468,"current_range_meters":24800,"station_id":"","pricing_plan_id":"free"},{"bike_id":"f2538e92-b853-4637-87b9-30dd9d9a08b9","system_id":"levelo_inurba_marseille","lat":43.30645,"lon":5.40065,"is_reserved":false,"is_disabled":false,"rental_uris":{"android":"levelo://app?vid=f2538e92-b853-4637-87b9-30dd9d9a08b9","ios":"levelo://app?vid=f2538e92-b853-4637-87b9-30dd9d9a08b9"},"vehicle_type_id":"4","last_reported":1690308468,"current_range_meters":31200,"station_id":"ce4bh112rcd13ifvqda0","pricing_plan_id":"free"},{"bike_id":"e9138402-fc15-4896-bb4f-c3a40ba5299c","system_id":"levelo_inurba_marseille","lat":43.33742,"lon":5.37487,"is_reserved":false,"is_disabled":false,"rental_uris":{"android":"levelo://app?vid=e9138402-fc15-4896-bb4f-c3a40ba5299c","ios":"levelo://app?vid=e9138402-fc15-4896-bb4f-c3a40ba5299c"},"vehicle_type_id":"4","last_reported":1690308468,"current_range_meters":14000,"station_id":"","pricing_plan_id":"free"},{"bike_id":"84426c72-a45e-42ce-89a9-a207a6c14653","system_id":"levelo_inurba_marseille","lat":43.33749,"lon":5.37446,"is_reserved":false,"is_disabled":false,"rental_uris":{"android":"levelo://app?vid=84426c72-a45e-42ce-89a9-a207a6c14653","ios":"levelo://app?vid=84426c72-a45e-42ce-89a9-a207a6c14653"},"vehicle_type_id":"4","last_reported":1690308468,"current_range_meters":23200,"station_id":"","pricing_plan_id":"free"},{"bike_id":"e1b81148-5445-4a37-b8ba-64ec9e162893","system_id":"levelo_inurba_marseille","lat":43.33753,"lon":5.37452,"is_reserved":false,"is_disabled":false,"rental_uris":{"android":"levelo://app?vid=e1b81148-5445-4a37-b8ba-64ec9e162893","ios":"levelo://app?vid=e1b81148-5445-4a37-b8ba-64ec9e162893"},"vehicle_type_id":"4","last_reported":1690308468,"current_range_meters":24800,"station_id":"","pricing_plan_id":"free"},{"bike_id":"31d77afd-f17c-45af-b4fb-e1f10649f2ac","system_id":"levelo_inurba_marseille","lat":43.33749,"lon":5.37483,"is_reserved":false,"is_disabled":false,"rental_uris":{"android":"levelo://app?vid=31d77afd-f17c-45af-b4fb-e1f10649f2ac","ios":"levelo://app?vid=31d77afd-f17c-45af-b4fb-e1f10649f2ac"},"vehicle_type_id":"4","last_reported":1690308468,"current_range_meters":29600,"station_id":"","pricing_plan_id":"free"},{"bike_id":"91c5d3f3-de55-416e-ba96-83c70618ab44","system_id":"levelo_inurba_marseille","lat":43.337474,"lon":5.374932,"is_reserved":false,"is_disabled":false,"rental_uris":{"android":"levelo://app?vid=91c5d3f3-de55-416e-ba96-83c70618ab44","ios":"levelo://app?vid=91c5d3f3-de55-416e-ba96-83c70618ab44"},"vehicle_type_id":"4","last_reported":1690308468,"current_range_meters":0,"station_id":"","pricing_plan_id":"free"},{"bike_id":"34746990-9af6-409b-bcba-2bfa3785fb72","system_id":"levelo_inurba_marseille","lat":43.33755,"lon":5.37473,"is_reserved":false,"is_disabled":false,"rental_uris":{"android":"levelo://app?vid=34746990-9af6-409b-bcba-2bfa3785fb72","ios":"levelo://app?vid=34746990-9af6-409b-bcba-2bfa3785fb72"},"vehicle_type_id":"4","last_reported":1690308468,"current_range_meters":0,"station_id":"","pricing_plan_id":"free"},{"bike_id":"153ffbbf-1bcb-4450-b505-39d94b305ddc","system_id":"levelo_inurba_marseille","lat":43.33757,"lon":5.37475,"is_reserved":false,"is_disabled":false,"rental_uris":{"android":"levelo://app?vid=153ffbbf-1bcb-4450-b505-39d94b305ddc","ios":"levelo://app?vid=153ffbbf-1bcb-4450-b505-39d94b305ddc"},"vehicle_type_id":"4","last_reported":1690308468,"current_range_meters":12400,"station_id":"","pricing_plan_id":"free"},{"bike_id":"023f9f64-74be-4021-b4df-bf84b4d9242b","system_id":"levelo_inurba_marseille","lat":43.33757,"lon":5.37475,"is_reserved":false,"is_disabled":false,"rental_uris":{"android":"levelo://app?vid=023f9f64-74be-4021-b4df-bf84b4d9242b","ios":"levelo://app?vid=023f9f64-74be-4021-b4df-bf84b4d9242b"},"vehicle_type_id":"4","last_reported":1690308468,"current_range_meters":24400,"station_id":"","pricing_plan_id":"free"},{"bike_id":"e5f66319-449c-4163-b4e2-5f51e6fef08d","system_id":"levelo_inurba_marseille","lat":43.33758,"lon":5.37469,"is_reserved":false,"is_disabled":false,"rental_uris":{"android":"levelo://app?vid=e5f66319-449c-4163-b4e2-5f51e6fef08d","ios":"levelo://app?vid=e5f66319-449c-4163-b4e2-5f51e6fef08d"},"vehicle_type_id":"4","last_reported":1690308468,"current_range_meters":30400,"station_id":"","pricing_plan_id":"free"},{"bike_id":"bbba9b56-f3f5-4c64-bc8b-118bf35453d0","system_id":"levelo_inurba_marseille","lat":43.33757,"lon":5.3748,"is_reserved":false,"is_disabled":false,"rental_uris":{"android":"levelo://app?vid=bbba9b56-f3f5-4c64-bc8b-118bf35453d0","ios":"levelo://app?vid=bbba9b56-f3f5-4c64-bc8b-118bf35453d0"},"vehicle_type_id":"4","last_reported":1690308468,"current_range_meters":13600,"station_id":"","pricing_plan_id":"free"},{"bike_id":"fe1f78d2-f246-48a1-8047-b5480ca67db4","system_id":"levelo_inurba_marseille","lat":43.33758,"lon":5.37475,"is_reserved":false,"is_disabled":false,"rental_uris":{"android":"levelo://app?vid=fe1f78d2-f246-48a1-8047-b5480ca67db4","ios":"levelo://app?vid=fe1f78d2-f246-48a1-8047-b5480ca67db4"},"vehicle_type_id":"4","last_reported":1690308468,"current_range_meters":0,"station_id":"","pricing_plan_id":"free"},{"bike_id":"76a3d743-1fe2-4c1f-bf61-b5a18f92b0dd","system_id":"levelo_inurba_marseille","lat":43.3376,"lon":5.37475,"is_reserved":false,"is_disabled":false,"rental_uris":{"android":"levelo://app?vid=76a3d743-1fe2-4c1f-bf61-b5a18f92b0dd","ios":"levelo://app?vid=76a3d743-1fe2-4c1f-bf61-b5a18f92b0dd"},"vehicle_type_id":"4","last_reported":1690308468,"current_range_meters":0,"station_id":"","pricing_plan_id":"free"},{"bike_id":"3746530a-4639-4ddb-88b5-06f2f5c2fbfd","system_id":"levelo_inurba_marseille","lat":43.33764,"lon":5.37456,"is_reserved":false,"is_disabled":false,"rental_uris":{"android":"levelo://app?vid=3746530a-4639-4ddb-88b5-06f2f5c2fbfd","ios":"levelo://app?vid=3746530a-4639-4ddb-88b5-06f2f5c2fbfd"},"vehicle_type_id":"4","last_reported":1690308468,"current_range_meters":30800,"station_id":"","pricing_plan_id":"free"},{"bike_id":"d65dfde0-9794-40f8-8bd4-b6f51281b670","system_id":"levelo_inurba_marseille","lat":43.33762,"lon":5.37474,"is_reserved":false,"is_disabled":false,"rental_uris":{"android":"levelo://app?vid=d65dfde0-9794-40f8-8bd4-b6f51281b670","ios":"levelo://app?vid=d65dfde0-9794-40f8-8bd4-b6f51281b670"},"vehicle_type_id":"4","last_reported":1690308468,"current_range_meters":0,"station_id":"","pricing_plan_id":"free"},{"bike_id":"bbcc5fd3-1f7e-44f2-8650-49392451c59c","system_id":"levelo_inurba_marseille","lat":43.30641,"lon":5.40091,"is_reserved":false,"is_disabled":false,"rental_uris":{"android":"levelo://app?vid=bbcc5fd3-1f7e-44f2-8650-49392451c59c","ios":"levelo://app?vid=bbcc5fd3-1f7e-44f2-8650-49392451c59c"},"vehicle_type_id":"4","last_reported":1690308468,"current_range_meters":26000,"station_id":"ce4bh112rcd13ifvqda0","pricing_plan_id":"free"},{"bike_id":"545292b9-fb1a-4a5c-8728-2af68895307a","system_id":"levelo_inurba_marseille","lat":43.33762,"lon":5.37479,"is_reserved":false,"is_disabled":false,"rental_uris":{"android":"levelo://app?vid=545292b9-fb1a-4a5c-8728-2af68895307a","ios":"levelo://app?vid=545292b9-fb1a-4a5c-8728-2af68895307a"},"vehicle_type_id":"4","last_reported":1690308468,"current_range_meters":0,"station_id":"","pricing_plan_id":"free"},{"bike_id":"fa49868f-edc9-4393-9ec3-44ab001d23d0","system_id":"levelo_inurba_marseille","lat":43.33765,"lon":5.37475,"is_reserved":false,"is_disabled":false,"rental_uris":{"android":"levelo://app?vid=fa49868f-edc9-4393-9ec3-44ab001d23d0","ios":"levelo://app?vid=fa49868f-edc9-4393-9ec3-44ab001d23d0"},"vehicle_type_id":"4","last_reported":1690308468,"current_range_meters":25600,"station_id":"","pricing_plan_id":"free"},{"bike_id":"eda0a4fa-7fe5-4809-90b8-7f16999e7308","system_id":"levelo_inurba_marseille","lat":43.33762,"lon":5.37497,"is_reserved":false,"is_disabled":false,"rental_uris":{"android":"levelo://app?vid=eda0a4fa-7fe5-4809-90b8-7f16999e7308","ios":"levelo://app?vid=eda0a4fa-7fe5-4809-90b8-7f16999e7308"},"vehicle_type_id":"4","last_reported":1690308468,"current_range_meters":18000,"station_id":"","pricing_plan_id":"free"},{"bike_id":"8a763e71-889a-4f6d-9d12-cc0925af9551","system_id":"levelo_inurba_marseille","lat":43.33768,"lon":5.37465,"is_reserved":false,"is_disabled":false,"rental_uris":{"android":"levelo://app?vid=8a763e71-889a-4f6d-9d12-cc0925af9551","ios":"levelo://app?vid=8a763e71-889a-4f6d-9d12-cc0925af9551"},"vehicle_type_id":"4","last_reported":1690308468,"current_range_meters":29200,"station_id":"","pricing_plan_id":"free"},{"bike_id":"503b8454-49e4-4ea8-92d1-7490b98d7024","system_id":"levelo_inurba_marseille","lat":43.33762,"lon":5.375039,"is_reserved":false,"is_disabled":false,"rental_uris":{"android":"levelo://app?vid=503b8454-49e4-4ea8-92d1-7490b98d7024","ios":"levelo://app?vid=503b8454-49e4-4ea8-92d1-7490b98d7024"},"vehicle_type_id":"4","last_reported":1690308468,"current_range_meters":28400,"station_id":"","pricing_plan_id":"free"},{"bike_id":"22f0da66-1641-40bc-8526-ffd60a6da71d","system_id":"levelo_inurba_marseille","lat":43.33774,"lon":5.37471,"is_reserved":false,"is_disabled":false,"rental_uris":{"android":"levelo://app?vid=22f0da66-1641-40bc-8526-ffd60a6da71d","ios":"levelo://app?vid=22f0da66-1641-40bc-8526-ffd60a6da71d"},"vehicle_type_id":"4","last_reported":1690308468,"current_range_meters":26400,"station_id":"","pricing_plan_id":"free"},{"bike_id":"da24eb2b-19ce-49ab-ab4e-cb4fff198495","system_id":"levelo_inurba_marseille","lat":43.301117,"lon":5.398795,"is_reserved":false,"is_disabled":false,"rental_uris":{"android":"levelo://app?vid=da24eb2b-19ce-49ab-ab4e-cb4fff198495","ios":"levelo://app?vid=da24eb2b-19ce-49ab-ab4e-cb4fff198495"},"vehicle_type_id":"4","last_reported":1690308468,"current_range_meters":20000,"station_id":"ce4bh0h2rcd13ifvqd40","pricing_plan_id":"free"},{"bike_id":"092d40c9-6852-401e-a561-6fecc2814da1","system_id":"levelo_inurba_marseille","lat":43.301117,"lon":5.398795,"is_reserved":false,"is_disabled":false,"rental_uris":{"android":"levelo://app?vid=092d40c9-6852-401e-a561-6fecc2814da1","ios":"levelo://app?vid=092d40c9-6852-401e-a561-6fecc2814da1"},"vehicle_type_id":"4","last_reported":1690308468,"current_range_meters":31600,"station_id":"ce4bh0h2rcd13ifvqd40","pricing_plan_id":"free"},{"bike_id":"039401de-4eab-4ee3-b5f4-c0a9d75d0d8c","system_id":"levelo_inurba_marseille","lat":43.301117,"lon":5.398795,"is_reserved":false,"is_disabled":false,"rental_uris":{"android":"levelo://app?vid=039401de-4eab-4ee3-b5f4-c0a9d75d0d8c","ios":"levelo://app?vid=039401de-4eab-4ee3-b5f4-c0a9d75d0d8c"},"vehicle_type_id":"4","last_reported":1690308468,"current_range_meters":14800,"station_id":"ce4bh0h2rcd13ifvqd40","pricing_plan_id":"free"},{"bike_id":"f69a8f9e-d6fe-452c-b375-a6ddeb39579e","system_id":"levelo_inurba_marseille","lat":43.298681,"lon":5.397225,"is_reserved":false,"is_disabled":false,"rental_uris":{"android":"levelo://app?vid=f69a8f9e-d6fe-452c-b375-a6ddeb39579e","ios":"levelo://app?vid=f69a8f9e-d6fe-452c-b375-a6ddeb39579e"},"vehicle_type_id":"4","last_reported":1690308468,"current_range_meters":10000,"station_id":"ce4bh0h2rcd13ifvqd50","pricing_plan_id":"free"},{"bike_id":"94ed0b93-a57c-4b9e-89bd-923911cf0043","system_id":"levelo_inurba_marseille","lat":43.298681,"lon":5.397225,"is_reserved":false,"is_disabled":false,"rental_uris":{"android":"levelo://app?vid=94ed0b93-a57c-4b9e-89bd-923911cf0043","ios":"levelo://app?vid=94ed0b93-a57c-4b9e-89bd-923911cf0043"},"vehicle_type_id":"4","last_reported":1690308468,"current_range_meters":5600,"station_id":"ce4bh0h2rcd13ifvqd50","pricing_plan_id":"free"},{"bike_id":"8b97db89-8dfc-4639-ab9d-13fc58b342a5","system_id":"levelo_inurba_marseille","lat":43.286591,"lon":5.363346,"is_reserved":false,"is_disabled":false,"rental_uris":{"android":"levelo://app?vid=8b97db89-8dfc-4639-ab9d-13fc58b342a5","ios":"levelo://app?vid=8b97db89-8dfc-4639-ab9d-13fc58b342a5"},"vehicle_type_id":"4","last_reported":1690308468,"current_range_meters":31200,"station_id":"ce4bhah2rcd13ifvqej0","pricing_plan_id":"free"},{"bike_id":"6272cc87-84e5-4ba3-8cb9-7ba14df91727","system_id":"levelo_inurba_marseille","lat":43.298681,"lon":5.397225,"is_reserved":false,"is_disabled":false,"rental_uris":{"android":"levelo://app?vid=6272cc87-84e5-4ba3-8cb9-7ba14df91727","ios":"levelo://app?vid=6272cc87-84e5-4ba3-8cb9-7ba14df91727"},"vehicle_type_id":"4","last_reported":1690308468,"current_range_meters":17600,"station_id":"ce4bh0h2rcd13ifvqd50","pricing_plan_id":"free"},{"bike_id":"cd677a92-2b1f-43d1-bdca-388b86fefacf","system_id":"levelo_inurba_marseille","lat":43.286593,"lon":5.363346,"is_reserved":false,"is_disabled":false,"rental_uris":{"android":"levelo://app?vid=cd677a92-2b1f-43d1-bdca-388b86fefacf","ios":"levelo://app?vid=cd677a92-2b1f-43d1-bdca-388b86fefacf"},"vehicle_type_id":"4","last_reported":1690308468,"current_range_meters":12000,"station_id":"ce4bhah2rcd13ifvqej0","pricing_plan_id":"free"},{"bike_id":"4d745ad0-8234-4951-8f46-958a79853159","system_id":"levelo_inurba_marseille","lat":43.286593,"lon":5.363346,"is_reserved":false,"is_disabled":false,"rental_uris":{"android":"levelo://app?vid=4d745ad0-8234-4951-8f46-958a79853159","ios":"levelo://app?vid=4d745ad0-8234-4951-8f46-958a79853159"},"vehicle_type_id":"4","last_reported":1690308468,"current_range_meters":8800,"station_id":"ce4bhah2rcd13ifvqej0","pricing_plan_id":"free"},{"bike_id":"575c996c-0276-46af-958c-1d5cb356b435","system_id":"levelo_inurba_marseille","lat":43.286593,"lon":5.363346,"is_reserved":false,"is_disabled":false,"rental_uris":{"android":"levelo://app?vid=575c996c-0276-46af-958c-1d5cb356b435","ios":"levelo://app?vid=575c996c-0276-46af-958c-1d5cb356b435"},"vehicle_type_id":"4","last_reported":1690308468,"current_range_meters":5600,"station_id":"ce4bhah2rcd13ifvqej0","pricing_plan_id":"free"},{"bike_id":"fd6fa216-8769-4310-bce4-1918599ff60c","system_id":"levelo_inurba_marseille","lat":43.286591,"lon":5.363346,"is_reserved":false,"is_disabled":false,"rental_uris":{"android":"levelo://app?vid=fd6fa216-8769-4310-bce4-1918599ff60c","ios":"levelo://app?vid=fd6fa216-8769-4310-bce4-1918599ff60c"},"vehicle_type_id":"4","last_reported":1690308468,"current_range_meters":13200,"station_id":"ce4bhah2rcd13ifvqej0","pricing_plan_id":"free"},{"bike_id":"bcc7588f-f7cb-4a00-b648-f6d827fe9974","system_id":"levelo_inurba_marseille","lat":43.286591,"lon":5.363346,"is_reserved":false,"is_disabled":false,"rental_uris":{"android":"levelo://app?vid=bcc7588f-f7cb-4a00-b648-f6d827fe9974","ios":"levelo://app?vid=bcc7588f-f7cb-4a00-b648-f6d827fe9974"},"vehicle_type_id":"4","last_reported":1690308468,"current_range_meters":400,"station_id":"ce4bhah2rcd13ifvqej0","pricing_plan_id":"free"},{"bike_id":"db686dfb-473c-4fd1-8caf-9f14ec111785","system_id":"levelo_inurba_marseille","lat":43.295196,"lon":5.39397,"is_reserved":false,"is_disabled":false,"rental_uris":{"android":"levelo://app?vid=db686dfb-473c-4fd1-8caf-9f14ec111785","ios":"levelo://app?vid=db686dfb-473c-4fd1-8caf-9f14ec111785"},"vehicle_type_id":"4","last_reported":1690308468,"current_range_meters":0,"station_id":"ce4bh292rcd13ifvqdf0","pricing_plan_id":"free"},{"bike_id":"256833ed-58b5-40ac-977a-60baf98d4d65","system_id":"levelo_inurba_marseille","lat":43.295196,"lon":5.39397,"is_reserved":false,"is_disabled":false,"rental_uris":{"android":"levelo://app?vid=256833ed-58b5-40ac-977a-60baf98d4d65","ios":"levelo://app?vid=256833ed-58b5-40ac-977a-60baf98d4d65"},"vehicle_type_id":"4","last_reported":1690308468,"current_range_meters":12400,"station_id":"ce4bh292rcd13ifvqdf0","pricing_plan_id":"free"},{"bike_id":"23eca4e3-72c1-4bc2-a372-b4d410c44335","system_id":"levelo_inurba_marseille","lat":43.295196,"lon":5.39397,"is_reserved":false,"is_disabled":false,"rental_uris":{"android":"levelo://app?vid=23eca4e3-72c1-4bc2-a372-b4d410c44335","ios":"levelo://app?vid=23eca4e3-72c1-4bc2-a372-b4d410c44335"},"vehicle_type_id":"4","last_reported":1690308468,"current_range_meters":31200,"station_id":"ce4bh292rcd13ifvqdf0","pricing_plan_id":"free"},{"bike_id":"2aa863a0-d1b3-49c7-a547-13ffa459fa2c","system_id":"levelo_inurba_marseille","lat":43.28868,"lon":5.38212,"is_reserved":false,"is_disabled":false,"rental_uris":{"android":"levelo://app?vid=2aa863a0-d1b3-49c7-a547-13ffa459fa2c","ios":"levelo://app?vid=2aa863a0-d1b3-49c7-a547-13ffa459fa2c"},"vehicle_type_id":"4","last_reported":1690308468,"current_range_meters":0,"station_id":"","pricing_plan_id":"free"},{"bike_id":"51b527f7-3f03-41d2-a333-ad21862d6bc0","system_id":"levelo_inurba_marseille","lat":43.290336,"lon":5.386425,"is_reserved":false,"is_disabled":false,"rental_uris":{"android":"levelo://app?vid=51b527f7-3f03-41d2-a333-ad21862d6bc0","ios":"levelo://app?vid=51b527f7-3f03-41d2-a333-ad21862d6bc0"},"vehicle_type_id":"4","last_reported":1690308468,"current_range_meters":2800,"station_id":"ce4bh4p2rcd13ifvqe0g","pricing_plan_id":"free"},{"bike_id":"14a1dd57-7221-4f0f-a5ef-fac861537cb5","system_id":"levelo_inurba_marseille","lat":43.302759,"lon":5.400793,"is_reserved":false,"is_disabled":false,"rental_uris":{"android":"levelo://app?vid=14a1dd57-7221-4f0f-a5ef-fac861537cb5","ios":"levelo://app?vid=14a1dd57-7221-4f0f-a5ef-fac861537cb5"},"vehicle_type_id":"4","last_reported":1690308468,"current_range_meters":30000,"station_id":"ce4bgvh2rcd13ifvqcs0","pricing_plan_id":"free"},{"bike_id":"40f81c85-1ed7-4c31-895f-931e7a9233f9","system_id":"levelo_inurba_marseille","lat":43.30243,"lon":5.40072,"is_reserved":false,"is_disabled":false,"rental_uris":{"android":"levelo://app?vid=40f81c85-1ed7-4c31-895f-931e7a9233f9","ios":"levelo://app?vid=40f81c85-1ed7-4c31-895f-931e7a9233f9"},"vehicle_type_id":"4","last_reported":1690308468,"current_range_meters":9600,"station_id":"ce4bgvh2rcd13ifvqcs0","pricing_plan_id":"free"},{"bike_id":"9f38e612-53d0-4c65-920e-347972869e54","system_id":"levelo_inurba_marseille","lat":43.28873,"lon":5.38296,"is_reserved":false,"is_disabled":false,"rental_uris":{"android":"levelo://app?vid=9f38e612-53d0-4c65-920e-347972869e54","ios":"levelo://app?vid=9f38e612-53d0-4c65-920e-347972869e54"},"vehicle_type_id":"4","last_reported":1690308468,"current_range_meters":21200,"station_id":"","pricing_plan_id":"free"},{"bike_id":"d20c883b-a8f4-4ba0-800a-c0cf33e0b3d6","system_id":"levelo_inurba_marseille","lat":43.28614,"lon":5.3706,"is_reserved":false,"is_disabled":false,"rental_uris":{"android":"levelo://app?vid=d20c883b-a8f4-4ba0-800a-c0cf33e0b3d6","ios":"levelo://app?vid=d20c883b-a8f4-4ba0-800a-c0cf33e0b3d6"},"vehicle_type_id":"4","last_reported":1690308468,"current_range_meters":16000,"station_id":"ce4bht12rcd13ifvqi60","pricing_plan_id":"free"},{"bike_id":"e42ab4aa-cfe0-4194-8971-5ca44852632a","system_id":"levelo_inurba_marseille","lat":43.286143,"lon":5.370677,"is_reserved":false,"is_disabled":false,"rental_uris":{"android":"levelo://app?vid=e42ab4aa-cfe0-4194-8971-5ca44852632a","ios":"levelo://app?vid=e42ab4aa-cfe0-4194-8971-5ca44852632a"},"vehicle_type_id":"4","last_reported":1690308468,"current_range_meters":4000,"station_id":"ce4bht12rcd13ifvqi60","pricing_plan_id":"free"},{"bike_id":"3acf92d9-764f-4a8e-8825-13f3e6b6300c","system_id":"levelo_inurba_marseille","lat":43.286039,"lon":5.370681,"is_reserved":false,"is_disabled":false,"rental_uris":{"android":"levelo://app?vid=3acf92d9-764f-4a8e-8825-13f3e6b6300c","ios":"levelo://app?vid=3acf92d9-764f-4a8e-8825-13f3e6b6300c"},"vehicle_type_id":"4","last_reported":1690308468,"current_range_meters":5600,"station_id":"ce4bht12rcd13ifvqi60","pricing_plan_id":"free"},{"bike_id":"77b790d1-74e5-4d04-a939-51842c4384ce","system_id":"levelo_inurba_marseille","lat":43.28604,"lon":5.37068,"is_reserved":false,"is_disabled":false,"rental_uris":{"android":"levelo://app?vid=77b790d1-74e5-4d04-a939-51842c4384ce","ios":"levelo://app?vid=77b790d1-74e5-4d04-a939-51842c4384ce"},"vehicle_type_id":"4","last_reported":1690308468,"current_range_meters":20800,"station_id":"ce4bht12rcd13ifvqi60","pricing_plan_id":"free"},{"bike_id":"97b7d14a-4551-4408-8914-eecc686b41cb","system_id":"levelo_inurba_marseille","lat":43.287185,"lon":5.379373,"is_reserved":false,"is_disabled":false,"rental_uris":{"android":"levelo://app?vid=97b7d14a-4551-4408-8914-eecc686b41cb","ios":"levelo://app?vid=97b7d14a-4551-4408-8914-eecc686b41cb"},"vehicle_type_id":"4","last_reported":1690308468,"current_range_meters":4000,"station_id":"ce4bh9p2rcd13ifvqec0","pricing_plan_id":"free"},{"bike_id":"36ab57fa-8bcf-4980-b9d8-9d5c43a38e16","system_id":"levelo_inurba_marseille","lat":43.287185,"lon":5.379373,"is_reserved":false,"is_disabled":false,"rental_uris":{"android":"levelo://app?vid=36ab57fa-8bcf-4980-b9d8-9d5c43a38e16","ios":"levelo://app?vid=36ab57fa-8bcf-4980-b9d8-9d5c43a38e16"},"vehicle_type_id":"4","last_reported":1690308468,"current_range_meters":12800,"station_id":"ce4bh9p2rcd13ifvqec0","pricing_plan_id":"free"},{"bike_id":"6333ac8f-5267-4011-9505-dca053d177b5","system_id":"levelo_inurba_marseille","lat":43.305994,"lon":5.393687,"is_reserved":false,"is_disabled":false,"rental_uris":{"android":"levelo://app?vid=6333ac8f-5267-4011-9505-dca053d177b5","ios":"levelo://app?vid=6333ac8f-5267-4011-9505-dca053d177b5"},"vehicle_type_id":"4","last_reported":1690308468,"current_range_meters":800,"station_id":"ce4bh0p2rcd13ifvqd80","pricing_plan_id":"free"},{"bike_id":"fe2f4e16-f9e2-482a-aec8-2b6a4a6838b6","system_id":"levelo_inurba_marseille","lat":43.316523,"lon":5.404367,"is_reserved":false,"is_disabled":false,"rental_uris":{"android":"levelo://app?vid=fe2f4e16-f9e2-482a-aec8-2b6a4a6838b6","ios":"levelo://app?vid=fe2f4e16-f9e2-482a-aec8-2b6a4a6838b6"},"vehicle_type_id":"4","last_reported":1690308468,"current_range_meters":12800,"station_id":"ce4bh012rcd13ifvqd00","pricing_plan_id":"free"},{"bike_id":"6459a7b8-db35-4d3f-8ee9-5266dd13f9aa","system_id":"levelo_inurba_marseille","lat":43.291994,"lon":5.392907,"is_reserved":false,"is_disabled":false,"rental_uris":{"android":"levelo://app?vid=6459a7b8-db35-4d3f-8ee9-5266dd13f9aa","ios":"levelo://app?vid=6459a7b8-db35-4d3f-8ee9-5266dd13f9aa"},"vehicle_type_id":"4","last_reported":1690308468,"current_range_meters":2800,"station_id":"ce4bh192rcd13ifvqdd0","pricing_plan_id":"free"},{"bike_id":"946616ea-9e3b-490c-b7f9-c5068763ba3a","system_id":"levelo_inurba_marseille","lat":43.291994,"lon":5.392907,"is_reserved":false,"is_disabled":false,"rental_uris":{"android":"levelo://app?vid=946616ea-9e3b-490c-b7f9-c5068763ba3a","ios":"levelo://app?vid=946616ea-9e3b-490c-b7f9-c5068763ba3a"},"vehicle_type_id":"4","last_reported":1690308468,"current_range_meters":25600,"station_id":"ce4bh192rcd13ifvqdd0","pricing_plan_id":"free"},{"bike_id":"e70fd72f-6a57-45d8-ae38-4a4274a495e5","system_id":"levelo_inurba_marseille","lat":43.284534,"lon":5.358662,"is_reserved":false,"is_disabled":false,"rental_uris":{"android":"levelo://app?vid=e70fd72f-6a57-45d8-ae38-4a4274a495e5","ios":"levelo://app?vid=e70fd72f-6a57-45d8-ae38-4a4274a495e5"},"vehicle_type_id":"4","last_reported":1690308468,"current_range_meters":19200,"station_id":"ce4bhah2rcd13ifvqei0","pricing_plan_id":"free"},{"bike_id":"1559b458-265f-443b-8d77-182000bb61df","system_id":"levelo_inurba_marseille","lat":43.294314,"lon":5.397498,"is_reserved":false,"is_disabled":false,"rental_uris":{"android":"levelo://app?vid=1559b458-265f-443b-8d77-182000bb61df","ios":"levelo://app?vid=1559b458-265f-443b-8d77-182000bb61df"},"vehicle_type_id":"4","last_reported":1690308468,"current_range_meters":21200,"station_id":"ce4bh3h2rcd13ifvqdo0","pricing_plan_id":"free"},{"bike_id":"01a814ce-4779-4549-b9f0-b8f376c594ab","system_id":"levelo_inurba_marseille","lat":43.294314,"lon":5.397498,"is_reserved":false,"is_disabled":false,"rental_uris":{"android":"levelo://app?vid=01a814ce-4779-4549-b9f0-b8f376c594ab","ios":"levelo://app?vid=01a814ce-4779-4549-b9f0-b8f376c594ab"},"vehicle_type_id":"4","last_reported":1690308468,"current_range_meters":31200,"station_id":"ce4bh3h2rcd13ifvqdo0","pricing_plan_id":"free"},{"bike_id":"6c54d3bb-42fb-414d-a86f-2ba91ba0832b","system_id":"levelo_inurba_marseille","lat":43.294314,"lon":5.397498,"is_reserved":false,"is_disabled":false,"rental_uris":{"android":"levelo://app?vid=6c54d3bb-42fb-414d-a86f-2ba91ba0832b","ios":"levelo://app?vid=6c54d3bb-42fb-414d-a86f-2ba91ba0832b"},"vehicle_type_id":"4","last_reported":1690308468,"current_range_meters":23200,"station_id":"ce4bh3h2rcd13ifvqdo0","pricing_plan_id":"free"},{"bike_id":"7c549df0-9909-40fd-aac6-0a9dc036751b","system_id":"levelo_inurba_marseille","lat":43.28621,"lon":5.3511,"is_reserved":false,"is_disabled":false,"rental_uris":{"android":"levelo://app?vid=7c549df0-9909-40fd-aac6-0a9dc036751b","ios":"levelo://app?vid=7c549df0-9909-40fd-aac6-0a9dc036751b"},"vehicle_type_id":"4","last_reported":1690308468,"current_range_meters":2000,"station_id":"ce4bhch2rcd13ifvqeug","pricing_plan_id":"free"},{"bike_id":"b1d92cd3-cab0-42bd-85df-3cb62e656187","system_id":"levelo_inurba_marseille","lat":43.28621,"lon":5.35107,"is_reserved":false,"is_disabled":false,"rental_uris":{"android":"levelo://app?vid=b1d92cd3-cab0-42bd-85df-3cb62e656187","ios":"levelo://app?vid=b1d92cd3-cab0-42bd-85df-3cb62e656187"},"vehicle_type_id":"4","last_reported":1690308468,"current_range_meters":10000,"station_id":"ce4bhch2rcd13ifvqeug","pricing_plan_id":"free"},{"bike_id":"c109e075-848a-47de-bd1b-3baae7c56079","system_id":"levelo_inurba_marseille","lat":43.2862,"lon":5.3511,"is_reserved":false,"is_disabled":false,"rental_uris":{"android":"levelo://app?vid=c109e075-848a-47de-bd1b-3baae7c56079","ios":"levelo://app?vid=c109e075-848a-47de-bd1b-3baae7c56079"},"vehicle_type_id":"4","last_reported":1690308468,"current_range_meters":23600,"station_id":"ce4bhch2rcd13ifvqeug","pricing_plan_id":"free"},{"bike_id":"560fd91d-390d-4bc2-83d1-c2c734ce3774","system_id":"levelo_inurba_marseille","lat":43.28621,"lon":5.35104,"is_reserved":false,"is_disabled":false,"rental_uris":{"android":"levelo://app?vid=560fd91d-390d-4bc2-83d1-c2c734ce3774","ios":"levelo://app?vid=560fd91d-390d-4bc2-83d1-c2c734ce3774"},"vehicle_type_id":"4","last_reported":1690308468,"current_range_meters":31200,"station_id":"ce4bhch2rcd13ifvqeug","pricing_plan_id":"free"},{"bike_id":"9f7824c8-d556-495e-b0f9-55f22c72986c","system_id":"levelo_inurba_marseille","lat":43.2862,"lon":5.35106,"is_reserved":false,"is_disabled":false,"rental_uris":{"android":"levelo://app?vid=9f7824c8-d556-495e-b0f9-55f22c72986c","ios":"levelo://app?vid=9f7824c8-d556-495e-b0f9-55f22c72986c"},"vehicle_type_id":"4","last_reported":1690308468,"current_range_meters":4400,"station_id":"ce4bhch2rcd13ifvqeug","pricing_plan_id":"free"},{"bike_id":"4d90b72e-d6b5-4da1-8919-6d166ae252eb","system_id":"levelo_inurba_marseille","lat":43.28619,"lon":5.35105,"is_reserved":false,"is_disabled":false,"rental_uris":{"android":"levelo://app?vid=4d90b72e-d6b5-4da1-8919-6d166ae252eb","ios":"levelo://app?vid=4d90b72e-d6b5-4da1-8919-6d166ae252eb"},"vehicle_type_id":"4","last_reported":1690308468,"current_range_meters":10400,"station_id":"ce4bhch2rcd13ifvqeug","pricing_plan_id":"free"},{"bike_id":"78d08600-306a-4af8-9053-cf1d27c820c0","system_id":"levelo_inurba_marseille","lat":43.28619,"lon":5.35105,"is_reserved":false,"is_disabled":false,"rental_uris":{"android":"levelo://app?vid=78d08600-306a-4af8-9053-cf1d27c820c0","ios":"levelo://app?vid=78d08600-306a-4af8-9053-cf1d27c820c0"},"vehicle_type_id":"4","last_reported":1690308468,"current_range_meters":23600,"station_id":"ce4bhch2rcd13ifvqeug","pricing_plan_id":"free"},{"bike_id":"c032b636-710d-45d1-a499-30817194cda3","system_id":"levelo_inurba_marseille","lat":43.28619,"lon":5.35104,"is_reserved":false,"is_disabled":false,"rental_uris":{"android":"levelo://app?vid=c032b636-710d-45d1-a499-30817194cda3","ios":"levelo://app?vid=c032b636-710d-45d1-a499-30817194cda3"},"vehicle_type_id":"4","last_reported":1690308468,"current_range_meters":27200,"station_id":"ce4bhch2rcd13ifvqeug","pricing_plan_id":"free"},{"bike_id":"8b4f4a9e-ec65-4c46-bd75-d838f12d4e2f","system_id":"levelo_inurba_marseille","lat":43.28619,"lon":5.35103,"is_reserved":false,"is_disabled":false,"rental_uris":{"android":"levelo://app?vid=8b4f4a9e-ec65-4c46-bd75-d838f12d4e2f","ios":"levelo://app?vid=8b4f4a9e-ec65-4c46-bd75-d838f12d4e2f"},"vehicle_type_id":"4","last_reported":1690308468,"current_range_meters":23600,"station_id":"ce4bhch2rcd13ifvqeug","pricing_plan_id":"free"},{"bike_id":"e9719bab-c039-46f5-b455-fccbc3b1a860","system_id":"levelo_inurba_marseille","lat":43.28618,"lon":5.35106,"is_reserved":false,"is_disabled":false,"rental_uris":{"android":"levelo://app?vid=e9719bab-c039-46f5-b455-fccbc3b1a860","ios":"levelo://app?vid=e9719bab-c039-46f5-b455-fccbc3b1a860"},"vehicle_type_id":"4","last_reported":1690308468,"current_range_meters":12000,"station_id":"ce4bhch2rcd13ifvqeug","pricing_plan_id":"free"},{"bike_id":"0aad1b8f-d736-498a-ad9d-cc5aaede964c","system_id":"levelo_inurba_marseille","lat":43.286188,"lon":5.351023,"is_reserved":false,"is_disabled":false,"rental_uris":{"android":"levelo://app?vid=0aad1b8f-d736-498a-ad9d-cc5aaede964c","ios":"levelo://app?vid=0aad1b8f-d736-498a-ad9d-cc5aaede964c"},"vehicle_type_id":"4","last_reported":1690308468,"current_range_meters":31200,"station_id":"ce4bhch2rcd13ifvqeug","pricing_plan_id":"free"},{"bike_id":"14e39580-c324-4509-b3d4-2bb162c3e817","system_id":"levelo_inurba_marseille","lat":43.286178,"lon":5.351,"is_reserved":false,"is_disabled":false,"rental_uris":{"android":"levelo://app?vid=14e39580-c324-4509-b3d4-2bb162c3e817","ios":"levelo://app?vid=14e39580-c324-4509-b3d4-2bb162c3e817"},"vehicle_type_id":"4","last_reported":1690308468,"current_range_meters":18800,"station_id":"ce4bhch2rcd13ifvqeug","pricing_plan_id":"free"},{"bike_id":"bb9064bd-5ac1-4719-aaab-35903d85ea9e","system_id":"levelo_inurba_marseille","lat":43.28617,"lon":5.35101,"is_reserved":false,"is_disabled":false,"rental_uris":{"android":"levelo://app?vid=bb9064bd-5ac1-4719-aaab-35903d85ea9e","ios":"levelo://app?vid=bb9064bd-5ac1-4719-aaab-35903d85ea9e"},"vehicle_type_id":"4","last_reported":1690308468,"current_range_meters":23600,"station_id":"ce4bhch2rcd13ifvqeug","pricing_plan_id":"free"},{"bike_id":"1160ea46-9602-4411-a8d5-5eeccb8bac97","system_id":"levelo_inurba_marseille","lat":43.28615,"lon":5.35104,"is_reserved":false,"is_disabled":false,"rental_uris":{"android":"levelo://app?vid=1160ea46-9602-4411-a8d5-5eeccb8bac97","ios":"levelo://app?vid=1160ea46-9602-4411-a8d5-5eeccb8bac97"},"vehicle_type_id":"4","last_reported":1690308468,"current_range_meters":18800,"station_id":"ce4bhch2rcd13ifvqeug","pricing_plan_id":"free"},{"bike_id":"b903ac5a-4e79-413e-914f-a1f8b89f8747","system_id":"levelo_inurba_marseille","lat":43.28618,"lon":5.35094,"is_reserved":false,"is_disabled":false,"rental_uris":{"android":"levelo://app?vid=b903ac5a-4e79-413e-914f-a1f8b89f8747","ios":"levelo://app?vid=b903ac5a-4e79-413e-914f-a1f8b89f8747"},"vehicle_type_id":"4","last_reported":1690308468,"current_range_meters":26400,"station_id":"ce4bhch2rcd13ifvqeug","pricing_plan_id":"free"},{"bike_id":"a9b6eea2-a159-4df3-b8f0-93081d839718","system_id":"levelo_inurba_marseille","lat":43.285856,"lon":5.350771,"is_reserved":false,"is_disabled":false,"rental_uris":{"android":"levelo://app?vid=a9b6eea2-a159-4df3-b8f0-93081d839718","ios":"levelo://app?vid=a9b6eea2-a159-4df3-b8f0-93081d839718"},"vehicle_type_id":"4","last_reported":1690308468,"current_range_meters":24400,"station_id":"ce4bhch2rcd13ifvqeug","pricing_plan_id":"free"},{"bike_id":"2e68b335-4348-4821-98f1-2a08876ee0e2","system_id":"levelo_inurba_marseille","lat":43.28614,"lon":5.35105,"is_reserved":false,"is_disabled":false,"rental_uris":{"android":"levelo://app?vid=2e68b335-4348-4821-98f1-2a08876ee0e2","ios":"levelo://app?vid=2e68b335-4348-4821-98f1-2a08876ee0e2"},"vehicle_type_id":"4","last_reported":1690308468,"current_range_meters":12400,"station_id":"ce4bhch2rcd13ifvqeug","pricing_plan_id":"free"},{"bike_id":"048b46e4-0887-4195-b385-5d5041e45a24","system_id":"levelo_inurba_marseille","lat":43.28615,"lon":5.351,"is_reserved":false,"is_disabled":false,"rental_uris":{"android":"levelo://app?vid=048b46e4-0887-4195-b385-5d5041e45a24","ios":"levelo://app?vid=048b46e4-0887-4195-b385-5d5041e45a24"},"vehicle_type_id":"4","last_reported":1690308468,"current_range_meters":31200,"station_id":"ce4bhch2rcd13ifvqeug","pricing_plan_id":"free"},{"bike_id":"a898d3c9-b861-48be-a36d-aded1079f576","system_id":"levelo_inurba_marseille","lat":43.28616,"lon":5.35096,"is_reserved":false,"is_disabled":false,"rental_uris":{"android":"levelo://app?vid=a898d3c9-b861-48be-a36d-aded1079f576","ios":"levelo://app?vid=a898d3c9-b861-48be-a36d-aded1079f576"},"vehicle_type_id":"4","last_reported":1690308468,"current_range_meters":20800,"station_id":"ce4bhch2rcd13ifvqeug","pricing_plan_id":"free"},{"bike_id":"85311821-6433-4f4b-9f7e-26210fb02c39","system_id":"levelo_inurba_marseille","lat":43.28613,"lon":5.35104,"is_reserved":false,"is_disabled":false,"rental_uris":{"android":"levelo://app?vid=85311821-6433-4f4b-9f7e-26210fb02c39","ios":"levelo://app?vid=85311821-6433-4f4b-9f7e-26210fb02c39"},"vehicle_type_id":"4","last_reported":1690308468,"current_range_meters":19200,"station_id":"ce4bhch2rcd13ifvqeug","pricing_plan_id":"free"},{"bike_id":"3aa7b043-7462-41d7-aada-e58fc2dc6c54","system_id":"levelo_inurba_marseille","lat":43.28614,"lon":5.35098,"is_reserved":false,"is_disabled":false,"rental_uris":{"android":"levelo://app?vid=3aa7b043-7462-41d7-aada-e58fc2dc6c54","ios":"levelo://app?vid=3aa7b043-7462-41d7-aada-e58fc2dc6c54"},"vehicle_type_id":"4","last_reported":1690308468,"current_range_meters":2400,"station_id":"ce4bhch2rcd13ifvqeug","pricing_plan_id":"free"},{"bike_id":"a451d5a0-83b8-4073-8cb7-32098157c069","system_id":"levelo_inurba_marseille","lat":43.28612,"lon":5.35103,"is_reserved":false,"is_disabled":false,"rental_uris":{"android":"levelo://app?vid=a451d5a0-83b8-4073-8cb7-32098157c069","ios":"levelo://app?vid=a451d5a0-83b8-4073-8cb7-32098157c069"},"vehicle_type_id":"4","last_reported":1690308468,"current_range_meters":21600,"station_id":"ce4bhch2rcd13ifvqeug","pricing_plan_id":"free"},{"bike_id":"b7ddee0c-8925-485e-8577-ce0a35d165a4","system_id":"levelo_inurba_marseille","lat":43.283998,"lon":5.375062,"is_reserved":false,"is_disabled":false,"rental_uris":{"android":"levelo://app?vid=b7ddee0c-8925-485e-8577-ce0a35d165a4","ios":"levelo://app?vid=b7ddee0c-8925-485e-8577-ce0a35d165a4"},"vehicle_type_id":"4","last_reported":1690308468,"current_range_meters":28800,"station_id":"ce4bh412rcd13ifvqds0","pricing_plan_id":"free"},{"bike_id":"4415a37e-715a-440b-bc21-0ebee2c31275","system_id":"levelo_inurba_marseille","lat":43.283998,"lon":5.375062,"is_reserved":false,"is_disabled":false,"rental_uris":{"android":"levelo://app?vid=4415a37e-715a-440b-bc21-0ebee2c31275","ios":"levelo://app?vid=4415a37e-715a-440b-bc21-0ebee2c31275"},"vehicle_type_id":"4","last_reported":1690308468,"current_range_meters":8000,"station_id":"ce4bh412rcd13ifvqds0","pricing_plan_id":"free"},{"bike_id":"cd8938ff-529e-4a0c-9272-47f2521a2982","system_id":"levelo_inurba_marseille","lat":43.295713,"lon":5.399639,"is_reserved":false,"is_disabled":false,"rental_uris":{"android":"levelo://app?vid=cd8938ff-529e-4a0c-9272-47f2521a2982","ios":"levelo://app?vid=cd8938ff-529e-4a0c-9272-47f2521a2982"},"vehicle_type_id":"4","last_reported":1690308468,"current_range_meters":4800,"station_id":"ce4bh312rcd13ifvqdj0","pricing_plan_id":"free"},{"bike_id":"20c8417d-713a-486d-8794-f9db4ebefdf4","system_id":"levelo_inurba_marseille","lat":43.28408,"lon":5.37515,"is_reserved":false,"is_disabled":false,"rental_uris":{"android":"levelo://app?vid=20c8417d-713a-486d-8794-f9db4ebefdf4","ios":"levelo://app?vid=20c8417d-713a-486d-8794-f9db4ebefdf4"},"vehicle_type_id":"4","last_reported":1690308468,"current_range_meters":0,"station_id":"ce4bh412rcd13ifvqds0","pricing_plan_id":"free"},{"bike_id":"50b5447b-d263-4553-9824-bf4c62392270","system_id":"levelo_inurba_marseille","lat":43.295713,"lon":5.399639,"is_reserved":false,"is_disabled":false,"rental_uris":{"android":"levelo://app?vid=50b5447b-d263-4553-9824-bf4c62392270","ios":"levelo://app?vid=50b5447b-d263-4553-9824-bf4c62392270"},"vehicle_type_id":"4","last_reported":1690308468,"current_range_meters":6400,"station_id":"ce4bh312rcd13ifvqdj0","pricing_plan_id":"free"},{"bike_id":"f6069b95-b7b4-4009-9345-f9973edbcfb0","system_id":"levelo_inurba_marseille","lat":43.295713,"lon":5.399639,"is_reserved":false,"is_disabled":false,"rental_uris":{"android":"levelo://app?vid=f6069b95-b7b4-4009-9345-f9973edbcfb0","ios":"levelo://app?vid=f6069b95-b7b4-4009-9345-f9973edbcfb0"},"vehicle_type_id":"4","last_reported":1690308468,"current_range_meters":28800,"station_id":"ce4bh312rcd13ifvqdj0","pricing_plan_id":"free"},{"bike_id":"f4e7fa9b-d9dd-4603-a392-43de1efc9883","system_id":"levelo_inurba_marseille","lat":43.284,"lon":5.37518,"is_reserved":false,"is_disabled":false,"rental_uris":{"android":"levelo://app?vid=f4e7fa9b-d9dd-4603-a392-43de1efc9883","ios":"levelo://app?vid=f4e7fa9b-d9dd-4603-a392-43de1efc9883"},"vehicle_type_id":"4","last_reported":1690308468,"current_range_meters":0,"station_id":"ce4bh412rcd13ifvqds0","pricing_plan_id":"free"},{"bike_id":"66eb1a8a-d095-47b8-a642-4468cea8b829","system_id":"levelo_inurba_marseille","lat":43.286595,"lon":5.386795,"is_reserved":false,"is_disabled":false,"rental_uris":{"android":"levelo://app?vid=66eb1a8a-d095-47b8-a642-4468cea8b829","ios":"levelo://app?vid=66eb1a8a-d095-47b8-a642-4468cea8b829"},"vehicle_type_id":"4","last_reported":1690308468,"current_range_meters":2400,"station_id":"ce4bh492rcd13ifvqdug","pricing_plan_id":"free"},{"bike_id":"aefeacdc-04d5-4552-9ba0-0ec9613cf79f","system_id":"levelo_inurba_marseille","lat":43.33726,"lon":5.39177,"is_reserved":false,"is_disabled":false,"rental_uris":{"android":"levelo://app?vid=aefeacdc-04d5-4552-9ba0-0ec9613cf79f","ios":"levelo://app?vid=aefeacdc-04d5-4552-9ba0-0ec9613cf79f"},"vehicle_type_id":"4","last_reported":1690308468,"current_range_meters":6800,"station_id":"ce4bhr92rcd13ifvqhsg","pricing_plan_id":"free"},{"bike_id":"f1e6e778-7db0-4332-9498-8a9c0fcfa7b8","system_id":"levelo_inurba_marseille","lat":43.337168,"lon":5.391825,"is_reserved":false,"is_disabled":false,"rental_uris":{"android":"levelo://app?vid=f1e6e778-7db0-4332-9498-8a9c0fcfa7b8","ios":"levelo://app?vid=f1e6e778-7db0-4332-9498-8a9c0fcfa7b8"},