{"last_updated":1734289589,"ttl":60,"version":"2.2","data":{"bikes":[{"bike_id":"6cb06d5b-b9ac-4325-ba0a-17357eb9ec74","system_id":"levelo_inurba_marseille","lat":43.28266,"lon":5.3504,"is_reserved":false,"is_disabled":true,"rental_uris":{"android":"levelo://app?vid=6cb06d5b-b9ac-4325-ba0a-17357eb9ec74","ios":"levelo://app?vid=6cb06d5b-b9ac-4325-ba0a-17357eb9ec74"},"vehicle_type_id":"4","last_reported":1734289589,"current_range_meters":400,"station_id":"ce4bhbp2rcd13ifvqerg","pricing_plan_id":"cebpf4jnsgd1na2vs0mg"},{"bike_id":"61d772b3-e172-4f5d-8778-5fb43be913c2","system_id":"levelo_inurba_marseille","lat":43.27068,"lon":5.42275,"is_reserved":false,"is_disabled":false,"rental_uris":{"android":"levelo://app?vid=61d772b3-e172-4f5d-8778-5fb43be913c2","ios":"levelo://app?vid=61d772b3-e172-4f5d-8778-5fb43be913c2"},"vehicle_type_id":"4","last_reported":1734289589,"current_range_meters":7200,"station_id":"ce4bhk92rcd13ifvqgb0","pricing_plan_id":"cebpf4jnsgd1na2vs0mg"},{"bike_id":"a3146b77-a0ce-4152-8631-d1fc0d7ee01f","system_id":"levelo_inurba_marseille","lat":43.29869,"lon":5.39743,"is_reserved":false,"is_disabled":false,"rental_uris":{"android":"levelo://app?vid=a3146b77-a0ce-4152-8631-d1fc0d7ee01f","ios":"levelo://app?vid=a3146b77-a0ce-4152-8631-d1fc0d7ee01f"},"vehicle_type_id":"4","last_reported":1734289589,"current_range_meters":6800,"station_id":"ce4bh0h2rcd13ifvqd50","pricing_plan_id":"cebpf4jnsgd1na2vs0mg"},{"bike_id":"eef11aa9-0fb9-407b-9198-dc68d9d1da2e","system_id":"levelo_inurba_marseille","lat":43.2977,"lon":5.37107,"is_reserved":false,"is_disabled":false,"rental_uris":{"android":"levelo://app?vid=eef11aa9-0fb9-407b-9198-dc68d9d1da2e","ios":"levelo://app?vid=eef11aa9-0fb9-407b-9198-dc68d9d1da2e"},"vehicle_type_id":"4","last_reported":1734289589,"current_range_meters":11600,"station_id":"ce4bgop2rcd13ifvqc1g","pricing_plan_id":"cebpf4jnsgd1na2vs0mg"},{"bike_id":"5f635d16-e074-4c70-affe-ae87530c2e70","system_id":"levelo_inurba_marseille","lat":43.26201,"lon":5.3793,"is_reserved":false,"is_disabled":false,"rental_uris":{"android":"levelo://app?vid=5f635d16-e074-4c70-affe-ae87530c2e70","ios":"levelo://app?vid=5f635d16-e074-4c70-affe-ae87530c2e70"},"vehicle_type_id":"4","last_reported":1734289589,"current_range_meters":24400,"station_id":"ce4bhjp2rcd13ifvqg90","pricing_plan_id":"cebpf4jnsgd1na2vs0mg"},{"bike_id":"49735576-98af-4537-b127-26ad7906beaf","system_id":"levelo_inurba_marseille","lat":43.26052,"lon":5.3939,"is_reserved":false,"is_disabled":false,"rental_uris":{"android":"levelo://app?vid=49735576-98af-4537-b127-26ad7906beaf","ios":"levelo://app?vid=49735576-98af-4537-b127-26ad7906beaf"},"vehicle_type_id":"4","last_reported":1734289589,"current_range_meters":28800,"station_id":"ce4bhh92rcd13ifvqfj0","pricing_plan_id":"cebpf4jnsgd1na2vs0mg"},{"bike_id":"ed9edba7-d3f1-4e95-8555-1252dbf70dce","system_id":"levelo_inurba_marseille","lat":43.27569,"lon":5.38409,"is_reserved":false,"is_disabled":true,"rental_uris":{"android":"levelo://app?vid=ed9edba7-d3f1-4e95-8555-1252dbf70dce","ios":"levelo://app?vid=ed9edba7-d3f1-4e95-8555-1252dbf70dce"},"vehicle_type_id":"4","last_reported":1734289589,"current_range_meters":34800,"station_id":"ce4bhh92rcd13ifvqfi0","pricing_plan_id":"cebpf4jnsgd1na2vs0mg"},{"bike_id":"09590482-ee53-4c82-9a6c-5f587e82ad8b","system_id":"levelo_inurba_marseille","lat":43.25492,"lon":5.37641,"is_reserved":false,"is_disabled":false,"rental_uris":{"android":"levelo://app?vid=09590482-ee53-4c82-9a6c-5f587e82ad8b","ios":"levelo://app?vid=09590482-ee53-4c82-9a6c-5f587e82ad8b"},"vehicle_type_id":"4","last_reported":1734289589,"current_range_meters":39200,"station_id":"ce4bhh12rcd13ifvqff0","pricing_plan_id":"cebpf4jnsgd1na2vs0mg"},{"bike_id":"624384fc-6cf0-437a-8fd5-9a2ab7c2e3be","system_id":"levelo_inurba_marseille","lat":43.27374,"lon":5.3625,"is_reserved":false,"is_disabled":false,"rental_uris":{"android":"levelo://app?vid=624384fc-6cf0-437a-8fd5-9a2ab7c2e3be","ios":"levelo://app?vid=624384fc-6cf0-437a-8fd5-9a2ab7c2e3be"},"vehicle_type_id":"4","last_reported":1734289589,"current_range_meters":16800,"station_id":"ce4bhbh2rcd13ifvqeo0","pricing_plan_id":"cebpf4jnsgd1na2vs0mg"},{"bike_id":"b9909b1b-7dc0-43e0-9eac-af3c1c280ed0","system_id":"levelo_inurba_marseille","lat":43.29078,"lon":5.35759,"is_reserved":false,"is_disabled":false,"rental_uris":{"android":"levelo://app?vid=b9909b1b-7dc0-43e0-9eac-af3c1c280ed0","ios":"levelo://app?vid=b9909b1b-7dc0-43e0-9eac-af3c1c280ed0"},"vehicle_type_id":"4","last_reported":1734289589,"current_range_meters":7200,"station_id":"","pricing_plan_id":"cebpf4jnsgd1na2vs0mg"},{"bike_id":"ab2a1209-6b8d-454f-940d-50c5a333046f","system_id":"levelo_inurba_marseille","lat":43.29794,"lon":5.38047,"is_reserved":false,"is_disabled":false,"rental_uris":{"android":"levelo://app?vid=ab2a1209-6b8d-454f-940d-50c5a333046f","ios":"levelo://app?vid=ab2a1209-6b8d-454f-940d-50c5a333046f"},"vehicle_type_id":"4","last_reported":1734289589,"current_range_meters":37600,"station_id":"ce4bgip2rcd13ifvqbb0","pricing_plan_id":"cebpf4jnsgd1na2vs0mg"},{"bike_id":"df89a3cb-003f-4017-997e-dcb4e4ec18e7","system_id":"levelo_inurba_marseille","lat":43.25111,"lon":5.4032,"is_reserved":false,"is_disabled":false,"rental_uris":{"android":"levelo://app?vid=df89a3cb-003f-4017-997e-dcb4e4ec18e7","ios":"levelo://app?vid=df89a3cb-003f-4017-997e-dcb4e4ec18e7"},"vehicle_type_id":"4","last_reported":1734289589,"current_range_meters":33200,"station_id":"ce4bhlh2rcd13ifvqgig","pricing_plan_id":"cebpf4jnsgd1na2vs0mg"},{"bike_id":"68318da2-404d-4277-bcad-71c1cc0f38c8","system_id":"levelo_inurba_marseille","lat":43.27178,"lon":5.39238,"is_reserved":false,"is_disabled":true,"rental_uris":{"android":"levelo://app?vid=68318da2-404d-4277-bcad-71c1cc0f38c8","ios":"levelo://app?vid=68318da2-404d-4277-bcad-71c1cc0f38c8"},"vehicle_type_id":"4","last_reported":1734289589,"current_range_meters":20400,"station_id":"ce4bhhp2rcd13ifvqfm0","pricing_plan_id":"cebpf4jnsgd1na2vs0mg"},{"bike_id":"8f7a3f58-eef8-4e73-a99b-ef3ce02fbff3","system_id":"levelo_inurba_marseille","lat":43.29062,"lon":5.35914,"is_reserved":false,"is_disabled":false,"rental_uris":{"android":"levelo://app?vid=8f7a3f58-eef8-4e73-a99b-ef3ce02fbff3","ios":"levelo://app?vid=8f7a3f58-eef8-4e73-a99b-ef3ce02fbff3"},"vehicle_type_id":"4","last_reported":1734289589,"current_range_meters":36800,"station_id":"ce4bha92rcd13ifvqeg0","pricing_plan_id":"cebpf4jnsgd1na2vs0mg"},{"bike_id":"2aabb9e3-ae45-4b17-b10d-af50e235d80a","system_id":"levelo_inurba_marseille","lat":43.26788,"lon":5.39924,"is_reserved":false,"is_disabled":true,"rental_uris":{"android":"levelo://app?vid=2aabb9e3-ae45-4b17-b10d-af50e235d80a","ios":"levelo://app?vid=2aabb9e3-ae45-4b17-b10d-af50e235d80a"},"vehicle_type_id":"4","last_reported":1734289589,"current_range_meters":0,"station_id":"","pricing_plan_id":"cebpf4jnsgd1na2vs0mg"},{"bike_id":"c49625de-344b-4be9-8b3d-0859c7ffc91f","system_id":"levelo_inurba_marseille","lat":43.29531,"lon":5.38538,"is_reserved":false,"is_disabled":false,"rental_uris":{"android":"levelo://app?vid=c49625de-344b-4be9-8b3d-0859c7ffc91f","ios":"levelo://app?vid=c49625de-344b-4be9-8b3d-0859c7ffc91f"},"vehicle_type_id":"4","last_reported":1734289589,"current_range_meters":11200,"station_id":"ce4bgih2rcd13ifvqba0","pricing_plan_id":"cebpf4jnsgd1na2vs0mg"},{"bike_id":"3595e955-9243-4ebf-a4ff-5df2907e8d74","system_id":"levelo_inurba_marseille","lat":43.32287,"lon":5.38265,"is_reserved":false,"is_disabled":false,"rental_uris":{"android":"levelo://app?vid=3595e955-9243-4ebf-a4ff-5df2907e8d74","ios":"levelo://app?vid=3595e955-9243-4ebf-a4ff-5df2907e8d74"},"vehicle_type_id":"4","last_reported":1734289589,"current_range_meters":38800,"station_id":"ce4bhr12rcd13ifvqhqg","pricing_plan_id":"cebpf4jnsgd1na2vs0mg"},{"bike_id":"a4726acd-3812-4029-bf64-7b823a4875a0","system_id":"levelo_inurba_marseille","lat":43.30323,"lon":5.4043,"is_reserved":false,"is_disabled":false,"rental_uris":{"android":"levelo://app?vid=a4726acd-3812-4029-bf64-7b823a4875a0","ios":"levelo://app?vid=a4726acd-3812-4029-bf64-7b823a4875a0"},"vehicle_type_id":"4","last_reported":1734289589,"current_range_meters":14000,"station_id":"ce4bh012rcd13ifvqd10","pricing_plan_id":"cebpf4jnsgd1na2vs0mg"},{"bike_id":"7a40c7c1-8a20-4e16-b3cc-eed59d07be05","system_id":"levelo_inurba_marseille","lat":43.29904,"lon":5.38131,"is_reserved":false,"is_disabled":true,"rental_uris":{"android":"levelo://app?vid=7a40c7c1-8a20-4e16-b3cc-eed59d07be05","ios":"levelo://app?vid=7a40c7c1-8a20-4e16-b3cc-eed59d07be05"},"vehicle_type_id":"4","last_reported":1734289589,"current_range_meters":9200,"station_id":"ce4bgj12rcd13ifvqbc0","pricing_plan_id":"cebpf4jnsgd1na2vs0mg"},{"bike_id":"52fca07e-b937-4f38-90f2-bc9a9e89a392","system_id":"levelo_inurba_marseille","lat":43.29005,"lon":5.35615,"is_reserved":false,"is_disabled":false,"rental_uris":{"android":"levelo://app?vid=52fca07e-b937-4f38-90f2-bc9a9e89a392","ios":"levelo://app?vid=52fca07e-b937-4f38-90f2-bc9a9e89a392"},"vehicle_type_id":"4","last_reported":1734289589,"current_range_meters":30000,"station_id":"ce4bhb92rcd13ifvqen0","pricing_plan_id":"cebpf4jnsgd1na2vs0mg"},{"bike_id":"55e98356-0b05-47d0-bfff-3300eedaa455","system_id":"levelo_inurba_marseille","lat":43.280003,"lon":5.400083,"is_reserved":false,"is_disabled":false,"rental_uris":{"android":"levelo://app?vid=55e98356-0b05-47d0-bfff-3300eedaa455","ios":"levelo://app?vid=55e98356-0b05-47d0-bfff-3300eedaa455"},"vehicle_type_id":"4","last_reported":1734289589,"current_range_meters":6000,"station_id":"ce4bho92rcd13ifvqh4g","pricing_plan_id":"cebpf4jnsgd1na2vs0mg"},{"bike_id":"cad7719d-6bdb-48ae-8920-e62428891cbb","system_id":"levelo_inurba_marseille","lat":43.28017,"lon":5.44115,"is_reserved":false,"is_disabled":true,"rental_uris":{"android":"levelo://app?vid=cad7719d-6bdb-48ae-8920-e62428891cbb","ios":"levelo://app?vid=cad7719d-6bdb-48ae-8920-e62428891cbb"},"vehicle_type_id":"4","last_reported":1734289589,"current_range_meters":1200,"station_id":"","pricing_plan_id":"cebpf4jnsgd1na2vs0mg"},{"bike_id":"72a71e6c-0bb6-4c5e-b8a0-566eef096324","system_id":"levelo_inurba_marseille","lat":43.28674,"lon":5.38665,"is_reserved":false,"is_disabled":false,"rental_uris":{"android":"levelo://app?vid=72a71e6c-0bb6-4c5e-b8a0-566eef096324","ios":"levelo://app?vid=72a71e6c-0bb6-4c5e-b8a0-566eef096324"},"vehicle_type_id":"4","last_reported":1734289589,"current_range_meters":28000,"station_id":"ce4bh492rcd13ifvqdug","pricing_plan_id":"cebpf4jnsgd1na2vs0mg"},{"bike_id":"756759df-30bb-4fc0-b7b8-d22004f554c8","system_id":"levelo_inurba_marseille","lat":43.32392,"lon":5.40658,"is_reserved":false,"is_disabled":false,"rental_uris":{"android":"levelo://app?vid=756759df-30bb-4fc0-b7b8-d22004f554c8","ios":"levelo://app?vid=756759df-30bb-4fc0-b7b8-d22004f554c8"},"vehicle_type_id":"4","last_reported":1734289589,"current_range_meters":38000,"station_id":"","pricing_plan_id":"cebpf4jnsgd1na2vs0mg"},{"bike_id":"39578123-bd30-4c2c-aa85-718d4f8cb27d","system_id":"levelo_inurba_marseille","lat":43.308,"lon":5.42574,"is_reserved":false,"is_disabled":false,"rental_uris":{"android":"levelo://app?vid=39578123-bd30-4c2c-aa85-718d4f8cb27d","ios":"levelo://app?vid=39578123-bd30-4c2c-aa85-718d4f8cb27d"},"vehicle_type_id":"4","last_reported":1734289589,"current_range_meters":5600,"station_id":"ce4bhph2rcd13ifvqheg","pricing_plan_id":"cebpf4jnsgd1na2vs0mg"},{"bike_id":"0cad1e55-df50-4042-8d99-03e92db54e72","system_id":"levelo_inurba_marseille","lat":43.26956,"lon":5.38632,"is_reserved":false,"is_disabled":true,"rental_uris":{"android":"levelo://app?vid=0cad1e55-df50-4042-8d99-03e92db54e72","ios":"levelo://app?vid=0cad1e55-df50-4042-8d99-03e92db54e72"},"vehicle_type_id":"4","last_reported":1734289589,"current_range_meters":10000,"station_id":"ce4bhh92rcd13ifvqfh0","pricing_plan_id":"cebpf4jnsgd1na2vs0mg"},{"bike_id":"4deb15ef-079e-44d5-9289-1d9084b509a7","system_id":"levelo_inurba_marseille","lat":43.31306,"lon":5.36942,"is_reserved":false,"is_disabled":false,"rental_uris":{"android":"levelo://app?vid=4deb15ef-079e-44d5-9289-1d9084b509a7","ios":"levelo://app?vid=4deb15ef-079e-44d5-9289-1d9084b509a7"},"vehicle_type_id":"4","last_reported":1734289589,"current_range_meters":38800,"station_id":"","pricing_plan_id":"cebpf4jnsgd1na2vs0mg"},{"bike_id":"d5c89c1f-3bad-4af2-9449-e04c277a4696","system_id":"levelo_inurba_marseille","lat":43.29957,"lon":5.41309,"is_reserved":false,"is_disabled":true,"rental_uris":{"android":"levelo://app?vid=d5c89c1f-3bad-4af2-9449-e04c277a4696","ios":"levelo://app?vid=d5c89c1f-3bad-4af2-9449-e04c277a4696"},"vehicle_type_id":"4","last_reported":1734289589,"current_range_meters":37600,"station_id":"ce4bhp12rcd13ifvqh9g","pricing_plan_id":"cebpf4jnsgd1na2vs0mg"},{"bike_id":"f94dd0c9-d136-4108-8e8e-032cd881feb2","system_id":"levelo_inurba_marseille","lat":43.30303,"lon":5.39204,"is_reserved":false,"is_disabled":true,"rental_uris":{"android":"levelo://app?vid=f94dd0c9-d136-4108-8e8e-032cd881feb2","ios":"levelo://app?vid=f94dd0c9-d136-4108-8e8e-032cd881feb2"},"vehicle_type_id":"4","last_reported":1734289589,"current_range_meters":2000,"station_id":"ce4bgkh2rcd13ifvqbk0","pricing_plan_id":"cebpf4jnsgd1na2vs0mg"},{"bike_id":"96e85abf-87ef-4ab7-8ed8-87d70165fd76","system_id":"levelo_inurba_marseille","lat":43.30418,"lon":5.39747,"is_reserved":false,"is_disabled":false,"rental_uris":{"android":"levelo://app?vid=96e85abf-87ef-4ab7-8ed8-87d70165fd76","ios":"levelo://app?vid=96e85abf-87ef-4ab7-8ed8-87d70165fd76"},"vehicle_type_id":"4","last_reported":1734289589,"current_range_meters":37600,"station_id":"ce4bh092rcd13ifvqd20","pricing_plan_id":"cebpf4jnsgd1na2vs0mg"},{"bike_id":"00470025-0594-4fc8-bb13-03b023b393ad","system_id":"levelo_inurba_marseille","lat":43.2306,"lon":5.35491,"is_reserved":false,"is_disabled":false,"rental_uris":{"android":"levelo://app?vid=00470025-0594-4fc8-bb13-03b023b393ad","ios":"levelo://app?vid=00470025-0594-4fc8-bb13-03b023b393ad"},"vehicle_type_id":"4","last_reported":1734289589,"current_range_meters":31200,"station_id":"cpo3342slgdg3j2ifvpg","pricing_plan_id":"cebpf4jnsgd1na2vs0mg"},{"bike_id":"89b571e9-01bc-474e-8675-185e0ba905ba","system_id":"levelo_inurba_marseille","lat":43.2418,"lon":5.39728,"is_reserved":false,"is_disabled":false,"rental_uris":{"android":"levelo://app?vid=89b571e9-01bc-474e-8675-185e0ba905ba","ios":"levelo://app?vid=89b571e9-01bc-474e-8675-185e0ba905ba"},"vehicle_type_id":"4","last_reported":1734289589,"current_range_meters":20400,"station_id":"ce4bhn12rcd13ifvqgpg","pricing_plan_id":"cebpf4jnsgd1na2vs0mg"},{"bike_id":"be15b9e1-574c-45f1-b914-fc0b9a33b109","system_id":"levelo_inurba_marseille","lat":43.25036,"lon":5.41679,"is_reserved":false,"is_disabled":false,"rental_uris":{"android":"levelo://app?vid=be15b9e1-574c-45f1-b914-fc0b9a33b109","ios":"levelo://app?vid=be15b9e1-574c-45f1-b914-fc0b9a33b109"},"vehicle_type_id":"4","last_reported":1734289589,"current_range_meters":11200,"station_id":"","pricing_plan_id":"cebpf4jnsgd1na2vs0mg"},{"bike_id":"faeeed3d-e1ea-42b2-8154-c03c65ca9361","system_id":"levelo_inurba_marseille","lat":43.26221,"lon":5.37222,"is_reserved":false,"is_disabled":true,"rental_uris":{"android":"levelo://app?vid=faeeed3d-e1ea-42b2-8154-c03c65ca9361","ios":"levelo://app?vid=faeeed3d-e1ea-42b2-8154-c03c65ca9361"},"vehicle_type_id":"4","last_reported":1734289589,"current_range_meters":0,"station_id":"","pricing_plan_id":"cebpf4jnsgd1na2vs0mg"},{"bike_id":"4b241c9d-5589-45b9-b6c0-48b4eab39e73","system_id":"levelo_inurba_marseille","lat":43.26861,"lon":5.40946,"is_reserved":false,"is_disabled":false,"rental_uris":{"android":"levelo://app?vid=4b241c9d-5589-45b9-b6c0-48b4eab39e73","ios":"levelo://app?vid=4b241c9d-5589-45b9-b6c0-48b4eab39e73"},"vehicle_type_id":"4","last_reported":1734289589,"current_range_meters":17200,"station_id":"","pricing_plan_id":"cebpf4jnsgd1na2vs0mg"},{"bike_id":"18734168-a386-4b34-8748-824f01780ef3","system_id":"levelo_inurba_marseille","lat":43.25094,"lon":5.3953,"is_reserved":false,"is_disabled":false,"rental_uris":{"android":"levelo://app?vid=18734168-a386-4b34-8748-824f01780ef3","ios":"levelo://app?vid=18734168-a386-4b34-8748-824f01780ef3"},"vehicle_type_id":"4","last_reported":1734289589,"current_range_meters":38800,"station_id":"ce4bhm12rcd13ifvqgkg","pricing_plan_id":"cebpf4jnsgd1na2vs0mg"},{"bike_id":"6d5b3284-e98d-49e9-8d13-b4de924073e0","system_id":"levelo_inurba_marseille","lat":43.24811,"lon":5.37444,"is_reserved":false,"is_disabled":false,"rental_uris":{"android":"levelo://app?vid=6d5b3284-e98d-49e9-8d13-b4de924073e0","ios":"levelo://app?vid=6d5b3284-e98d-49e9-8d13-b4de924073e0"},"vehicle_type_id":"4","last_reported":1734289589,"current_range_meters":38800,"station_id":"ce4bhgh2rcd13ifvqfb0","pricing_plan_id":"cebpf4jnsgd1na2vs0mg"},{"bike_id":"5744c5bb-5613-4b1d-86cf-ebce1248867b","system_id":"levelo_inurba_marseille","lat":43.25115,"lon":5.40318,"is_reserved":false,"is_disabled":false,"rental_uris":{"android":"levelo://app?vid=5744c5bb-5613-4b1d-86cf-ebce1248867b","ios":"levelo://app?vid=5744c5bb-5613-4b1d-86cf-ebce1248867b"},"vehicle_type_id":"4","last_reported":1734289589,"current_range_meters":38400,"station_id":"ce4bhlh2rcd13ifvqgig","pricing_plan_id":"cebpf4jnsgd1na2vs0mg"},{"bike_id":"0913bafb-dd81-4778-93c4-53b74b5a27f4","system_id":"levelo_inurba_marseille","lat":43.29259,"lon":5.40906,"is_reserved":false,"is_disabled":false,"rental_uris":{"android":"levelo://app?vid=0913bafb-dd81-4778-93c4-53b74b5a27f4","ios":"levelo://app?vid=0913bafb-dd81-4778-93c4-53b74b5a27f4"},"vehicle_type_id":"4","last_reported":1734289589,"current_range_meters":18800,"station_id":"ce4bh192rcd13ifvqdc0","pricing_plan_id":"cebpf4jnsgd1na2vs0mg"},{"bike_id":"e3ce1f04-3f88-431a-ab9f-947d6e2f270c","system_id":"levelo_inurba_marseille","lat":43.3373,"lon":5.39174,"is_reserved":false,"is_disabled":false,"rental_uris":{"android":"levelo://app?vid=e3ce1f04-3f88-431a-ab9f-947d6e2f270c","ios":"levelo://app?vid=e3ce1f04-3f88-431a-ab9f-947d6e2f270c"},"vehicle_type_id":"4","last_reported":1734289589,"current_range_meters":38800,"station_id":"ce4bhr92rcd13ifvqhsg","pricing_plan_id":"cebpf4jnsgd1na2vs0mg"},{"bike_id":"d6a19e7d-5ce7-42bd-8925-b63bd17e64b5","system_id":"levelo_inurba_marseille","lat":43.31996,"lon":5.38149,"is_reserved":false,"is_disabled":false,"rental_uris":{"android":"levelo://app?vid=d6a19e7d-5ce7-42bd-8925-b63bd17e64b5","ios":"levelo://app?vid=d6a19e7d-5ce7-42bd-8925-b63bd17e64b5"},"vehicle_type_id":"4","last_reported":1734289589,"current_range_meters":34800,"station_id":"ce4bhr12rcd13ifvqhpg","pricing_plan_id":"cebpf4jnsgd1na2vs0mg"},{"bike_id":"4da79ffa-de4e-41b2-b724-5a5b9f020ea3","system_id":"levelo_inurba_marseille","lat":43.30878,"lon":5.3719,"is_reserved":false,"is_disabled":false,"rental_uris":{"android":"levelo://app?vid=4da79ffa-de4e-41b2-b724-5a5b9f020ea3","ios":"levelo://app?vid=4da79ffa-de4e-41b2-b724-5a5b9f020ea3"},"vehicle_type_id":"4","last_reported":1734289589,"current_range_meters":32000,"station_id":"ce4bguh2rcd13ifvqckg","pricing_plan_id":"cebpf4jnsgd1na2vs0mg"},{"bike_id":"e1f14668-b3cd-4486-857f-047dd0525de8","system_id":"levelo_inurba_marseille","lat":43.28933,"lon":5.36632,"is_reserved":false,"is_disabled":true,"rental_uris":{"android":"levelo://app?vid=e1f14668-b3cd-4486-857f-047dd0525de8","ios":"levelo://app?vid=e1f14668-b3cd-4486-857f-047dd0525de8"},"vehicle_type_id":"4","last_reported":1734289589,"current_range_meters":24800,"station_id":"ce4bhap2rcd13ifvqek0","pricing_plan_id":"cebpf4jnsgd1na2vs0mg"},{"bike_id":"2256d0c9-fd6c-49ff-b42c-53026216c040","system_id":"levelo_inurba_marseille","lat":43.29876,"lon":5.38358,"is_reserved":false,"is_disabled":true,"rental_uris":{"android":"levelo://app?vid=2256d0c9-fd6c-49ff-b42c-53026216c040","ios":"levelo://app?vid=2256d0c9-fd6c-49ff-b42c-53026216c040"},"vehicle_type_id":"4","last_reported":1734289589,"current_range_meters":25600,"station_id":"","pricing_plan_id":"cebpf4jnsgd1na2vs0mg"},{"bike_id":"edaea664-24e0-4d6c-aa7a-497f5c5f88f6","system_id":"levelo_inurba_marseille","lat":43.27017,"lon":5.39142,"is_reserved":false,"is_disabled":true,"rental_uris":{"android":"levelo://app?vid=edaea664-24e0-4d6c-aa7a-497f5c5f88f6","ios":"levelo://app?vid=edaea664-24e0-4d6c-aa7a-497f5c5f88f6"},"vehicle_type_id":"4","last_reported":1734289589,"current_range_meters":0,"station_id":"","pricing_plan_id":"cebpf4jnsgd1na2vs0mg"},{"bike_id":"9f52696d-600b-40ab-b947-0c5325fde06a","system_id":"levelo_inurba_marseille","lat":43.2835,"lon":5.38099,"is_reserved":false,"is_disabled":false,"rental_uris":{"android":"levelo://app?vid=9f52696d-600b-40ab-b947-0c5325fde06a","ios":"levelo://app?vid=9f52696d-600b-40ab-b947-0c5325fde06a"},"vehicle_type_id":"4","last_reported":1734289589,"current_range_meters":36400,"station_id":"ce4bh412rcd13ifvqdr0","pricing_plan_id":"cebpf4jnsgd1na2vs0mg"},{"bike_id":"71b49d2b-6576-454b-abe7-cf945c8b1bcc","system_id":"levelo_inurba_marseille","lat":43.29792,"lon":5.39345,"is_reserved":false,"is_disabled":false,"rental_uris":{"android":"levelo://app?vid=71b49d2b-6576-454b-abe7-cf945c8b1bcc","ios":"levelo://app?vid=71b49d2b-6576-454b-abe7-cf945c8b1bcc"},"vehicle_type_id":"4","last_reported":1734289589,"current_range_meters":25200,"station_id":"chh1huq6cuj3fo74tm60","pricing_plan_id":"cebpf4jnsgd1na2vs0mg"},{"bike_id":"f43b6496-4452-46ac-b24c-881509735e85","system_id":"levelo_inurba_marseille","lat":43.24809,"lon":5.37437,"is_reserved":false,"is_disabled":false,"rental_uris":{"android":"levelo://app?vid=f43b6496-4452-46ac-b24c-881509735e85","ios":"levelo://app?vid=f43b6496-4452-46ac-b24c-881509735e85"},"vehicle_type_id":"4","last_reported":1734289589,"current_range_meters":20800,"station_id":"ce4bhgh2rcd13ifvqfb0","pricing_plan_id":"cebpf4jnsgd1na2vs0mg"},{"bike_id":"cfa3fba7-2259-4de0-90ba-a2b072f12d02","system_id":"levelo_inurba_marseille","lat":43.30204,"lon":5.39461,"is_reserved":false,"is_disabled":false,"rental_uris":{"android":"levelo://app?vid=cfa3fba7-2259-4de0-90ba-a2b072f12d02","ios":"levelo://app?vid=cfa3fba7-2259-4de0-90ba-a2b072f12d02"},"vehicle_type_id":"4","last_reported":1734289589,"current_range_meters":24000,"station_id":"ce4bh0p2rcd13ifvqd70","pricing_plan_id":"cebpf4jnsgd1na2vs0mg"},{"bike_id":"c1a5e3ad-f7e0-44ef-a404-15c717fc1ebc","system_id":"levelo_inurba_marseille","lat":43.30212,"lon":5.39469,"is_reserved":false,"is_disabled":false,"rental_uris":{"android":"levelo://app?vid=c1a5e3ad-f7e0-44ef-a404-15c717fc1ebc","ios":"levelo://app?vid=c1a5e3ad-f7e0-44ef-a404-15c717fc1ebc"},"vehicle_type_id":"4","last_reported":1734289589,"current_range_meters":39200,"station_id":"ce4bh0p2rcd13ifvqd70","pricing_plan_id":"cebpf4jnsgd1na2vs0mg"},{"bike_id":"699ad19d-1780-4c00-9754-eb0737b27b7c","system_id":"levelo_inurba_marseille","lat":43.29553,"lon":5.42288,"is_reserved":false,"is_disabled":false,"rental_uris":{"android":"levelo://app?vid=699ad19d-1780-4c00-9754-eb0737b27b7c","ios":"levelo://app?vid=699ad19d-1780-4c00-9754-eb0737b27b7c"},"vehicle_type_id":"4","last_reported":1734289589,"current_range_meters":35600,"station_id":"ce4bhph2rcd13ifvqhdg","pricing_plan_id":"cebpf4jnsgd1na2vs0mg"},{"bike_id":"3e398289-24a7-4248-bf96-a9ff656548ef","system_id":"levelo_inurba_marseille","lat":43.29071,"lon":5.37156,"is_reserved":false,"is_disabled":false,"rental_uris":{"android":"levelo://app?vid=3e398289-24a7-4248-bf96-a9ff656548ef","ios":"levelo://app?vid=3e398289-24a7-4248-bf96-a9ff656548ef"},"vehicle_type_id":"4","last_reported":1734289589,"current_range_meters":36000,"station_id":"ce4bh5p2rcd13ifvqe4g","pricing_plan_id":"cebpf4jnsgd1na2vs0mg"},{"bike_id":"f971c5e7-f161-4f2e-82ac-6e36588b9cfb","system_id":"levelo_inurba_marseille","lat":43.26591,"lon":5.39031,"is_reserved":false,"is_disabled":false,"rental_uris":{"android":"levelo://app?vid=f971c5e7-f161-4f2e-82ac-6e36588b9cfb","ios":"levelo://app?vid=f971c5e7-f161-4f2e-82ac-6e36588b9cfb"},"vehicle_type_id":"4","last_reported":1734289589,"current_range_meters":31200,"station_id":"ce4bhe12rcd13ifvqf30","pricing_plan_id":"cebpf4jnsgd1na2vs0mg"},{"bike_id":"4141f219-f928-4558-b79a-2e709dc21751","system_id":"levelo_inurba_marseille","lat":43.25,"lon":5.38925,"is_reserved":false,"is_disabled":false,"rental_uris":{"android":"levelo://app?vid=4141f219-f928-4558-b79a-2e709dc21751","ios":"levelo://app?vid=4141f219-f928-4558-b79a-2e709dc21751"},"vehicle_type_id":"4","last_reported":1734289589,"current_range_meters":37600,"station_id":"ce4bhgp2rcd13ifvqfd0","pricing_plan_id":"cebpf4jnsgd1na2vs0mg"},{"bike_id":"2482e94c-6a4d-4f8f-850c-45bee6d60fd7","system_id":"levelo_inurba_marseille","lat":43.31094,"lon":5.42405,"is_reserved":false,"is_disabled":false,"rental_uris":{"android":"levelo://app?vid=2482e94c-6a4d-4f8f-850c-45bee6d60fd7","ios":"levelo://app?vid=2482e94c-6a4d-4f8f-850c-45bee6d60fd7"},"vehicle_type_id":"4","last_reported":1734289589,"current_range_meters":35600,"station_id":"ce4bhp92rcd13ifvqhag","pricing_plan_id":"cebpf4jnsgd1na2vs0mg"},{"bike_id":"5be78cc2-d386-42ea-a601-8ec47460ad21","system_id":"levelo_inurba_marseille","lat":43.24082,"lon":5.37734,"is_reserved":false,"is_disabled":false,"rental_uris":{"android":"levelo://app?vid=5be78cc2-d386-42ea-a601-8ec47460ad21","ios":"levelo://app?vid=5be78cc2-d386-42ea-a601-8ec47460ad21"},"vehicle_type_id":"4","last_reported":1734289589,"current_range_meters":36400,"station_id":"ce4bhnp2rcd13ifvqgvg","pricing_plan_id":"cebpf4jnsgd1na2vs0mg"},{"bike_id":"8872e771-87f7-4daf-9c2b-2bfd7197e847","system_id":"levelo_inurba_marseille","lat":43.27068,"lon":5.42271,"is_reserved":false,"is_disabled":false,"rental_uris":{"android":"levelo://app?vid=8872e771-87f7-4daf-9c2b-2bfd7197e847","ios":"levelo://app?vid=8872e771-87f7-4daf-9c2b-2bfd7197e847"},"vehicle_type_id":"4","last_reported":1734289589,"current_range_meters":23200,"station_id":"ce4bhk92rcd13ifvqgb0","pricing_plan_id":"cebpf4jnsgd1na2vs0mg"},{"bike_id":"9dc21ddc-0285-43c5-8978-a8e583faecac","system_id":"levelo_inurba_marseille","lat":43.29791,"lon":5.381,"is_reserved":false,"is_disabled":false,"rental_uris":{"android":"levelo://app?vid=9dc21ddc-0285-43c5-8978-a8e583faecac","ios":"levelo://app?vid=9dc21ddc-0285-43c5-8978-a8e583faecac"},"vehicle_type_id":"4","last_reported":1734289589,"current_range_meters":24800,"station_id":"ce4bgip2rcd13ifvqbb0","pricing_plan_id":"cebpf4jnsgd1na2vs0mg"},{"bike_id":"acbcde12-a713-467d-b7cd-6fb02320f61f","system_id":"levelo_inurba_marseille","lat":43.28493,"lon":5.38433,"is_reserved":false,"is_disabled":true,"rental_uris":{"android":"levelo://app?vid=acbcde12-a713-467d-b7cd-6fb02320f61f","ios":"levelo://app?vid=acbcde12-a713-467d-b7cd-6fb02320f61f"},"vehicle_type_id":"4","last_reported":1734289589,"current_range_meters":38800,"station_id":"ce4bh512rcd13ifvqe3g","pricing_plan_id":"cebpf4jnsgd1na2vs0mg"},{"bike_id":"6d8fccea-6a81-46a5-9710-130776032170","system_id":"levelo_inurba_marseille","lat":43.25833,"lon":5.39429,"is_reserved":false,"is_disabled":false,"rental_uris":{"android":"levelo://app?vid=6d8fccea-6a81-46a5-9710-130776032170","ios":"levelo://app?vid=6d8fccea-6a81-46a5-9710-130776032170"},"vehicle_type_id":"4","last_reported":1734289589,"current_range_meters":38800,"station_id":"ce4bhip2rcd13ifvqft0","pricing_plan_id":"cebpf4jnsgd1na2vs0mg"},{"bike_id":"fde4b007-1d19-419c-8594-15481ba26c74","system_id":"levelo_inurba_marseille","lat":43.25111,"lon":5.40323,"is_reserved":false,"is_disabled":false,"rental_uris":{"android":"levelo://app?vid=fde4b007-1d19-419c-8594-15481ba26c74","ios":"levelo://app?vid=fde4b007-1d19-419c-8594-15481ba26c74"},"vehicle_type_id":"4","last_reported":1734289589,"current_range_meters":39200,"station_id":"ce4bhlh2rcd13ifvqgig","pricing_plan_id":"cebpf4jnsgd1na2vs0mg"},{"bike_id":"9fa91064-6960-44b1-94d5-ffa2fe475c42","system_id":"levelo_inurba_marseille","lat":43.3009,"lon":5.39066,"is_reserved":false,"is_disabled":false,"rental_uris":{"android":"levelo://app?vid=9fa91064-6960-44b1-94d5-ffa2fe475c42","ios":"levelo://app?vid=9fa91064-6960-44b1-94d5-ffa2fe475c42"},"vehicle_type_id":"4","last_reported":1734289589,"current_range_meters":36800,"station_id":"ce4bh192rcd13ifvqdb0","pricing_plan_id":"cebpf4jnsgd1na2vs0mg"},{"bike_id":"7482f887-7952-4f02-a5dc-546e954acfc6","system_id":"levelo_inurba_marseille","lat":43.29417,"lon":5.38638,"is_reserved":false,"is_disabled":true,"rental_uris":{"android":"levelo://app?vid=7482f887-7952-4f02-a5dc-546e954acfc6","ios":"levelo://app?vid=7482f887-7952-4f02-a5dc-546e954acfc6"},"vehicle_type_id":"4","last_reported":1734289589,"current_range_meters":3600,"station_id":"ce4bh2h2rcd13ifvqdh0","pricing_plan_id":"cebpf4jnsgd1na2vs0mg"},{"bike_id":"0113e9d0-f1d2-4ff0-968c-b321979364b3","system_id":"levelo_inurba_marseille","lat":43.28684,"lon":5.38664,"is_reserved":false,"is_disabled":false,"rental_uris":{"android":"levelo://app?vid=0113e9d0-f1d2-4ff0-968c-b321979364b3","ios":"levelo://app?vid=0113e9d0-f1d2-4ff0-968c-b321979364b3"},"vehicle_type_id":"4","last_reported":1734289589,"current_range_meters":36800,"station_id":"ce4bh492rcd13ifvqdug","pricing_plan_id":"cebpf4jnsgd1na2vs0mg"},{"bike_id":"e819ae6a-d2ca-4fed-a607-5b91827a0819","system_id":"levelo_inurba_marseille","lat":43.23191,"lon":5.35542,"is_reserved":false,"is_disabled":false,"rental_uris":{"android":"levelo://app?vid=e819ae6a-d2ca-4fed-a607-5b91827a0819","ios":"levelo://app?vid=e819ae6a-d2ca-4fed-a607-5b91827a0819"},"vehicle_type_id":"4","last_reported":1734289589,"current_range_meters":30000,"station_id":"ce4bhu92rcd13ifvqi70","pricing_plan_id":"cebpf4jnsgd1na2vs0mg"},{"bike_id":"83563778-57a6-42aa-8551-5a60974aeefb","system_id":"levelo_inurba_marseille","lat":43.24652,"lon":5.38891,"is_reserved":false,"is_disabled":false,"rental_uris":{"android":"levelo://app?vid=83563778-57a6-42aa-8551-5a60974aeefb","ios":"levelo://app?vid=83563778-57a6-42aa-8551-5a60974aeefb"},"vehicle_type_id":"4","last_reported":1734289589,"current_range_meters":11600,"station_id":"ce4bhg12rcd13ifvqf60","pricing_plan_id":"cebpf4jnsgd1na2vs0mg"},{"bike_id":"c3bfecdf-9615-4d7f-833b-6813e072b57c","system_id":"levelo_inurba_marseille","lat":43.26203,"lon":5.37932,"is_reserved":false,"is_disabled":false,"rental_uris":{"android":"levelo://app?vid=c3bfecdf-9615-4d7f-833b-6813e072b57c","ios":"levelo://app?vid=c3bfecdf-9615-4d7f-833b-6813e072b57c"},"vehicle_type_id":"4","last_reported":1734289589,"current_range_meters":26800,"station_id":"ce4bhjp2rcd13ifvqg90","pricing_plan_id":"cebpf4jnsgd1na2vs0mg"},{"bike_id":"81fc7ef2-09fd-414c-a467-687759091c37","system_id":"levelo_inurba_marseille","lat":43.31266,"lon":5.40166,"is_reserved":false,"is_disabled":false,"rental_uris":{"android":"levelo://app?vid=81fc7ef2-09fd-414c-a467-687759091c37","ios":"levelo://app?vid=81fc7ef2-09fd-414c-a467-687759091c37"},"vehicle_type_id":"4","last_reported":1734289589,"current_range_meters":39200,"station_id":"ce4bh092rcd13ifvqd30","pricing_plan_id":"cebpf4jnsgd1na2vs0mg"},{"bike_id":"9f2df41e-ff3f-43e8-a2d7-014b68a85aca","system_id":"levelo_inurba_marseille","lat":43.24071,"lon":5.37766,"is_reserved":false,"is_disabled":false,"rental_uris":{"android":"levelo://app?vid=9f2df41e-ff3f-43e8-a2d7-014b68a85aca","ios":"levelo://app?vid=9f2df41e-ff3f-43e8-a2d7-014b68a85aca"},"vehicle_type_id":"4","last_reported":1734289589,"current_range_meters":34000,"station_id":"ce4bhnp2rcd13ifvqgvg","pricing_plan_id":"cebpf4jnsgd1na2vs0mg"},{"bike_id":"9f49ce60-492b-4e36-a2dc-10194a1a94ea","system_id":"levelo_inurba_marseille","lat":43.29428,"lon":5.38621,"is_reserved":false,"is_disabled":false,"rental_uris":{"android":"levelo://app?vid=9f49ce60-492b-4e36-a2dc-10194a1a94ea","ios":"levelo://app?vid=9f49ce60-492b-4e36-a2dc-10194a1a94ea"},"vehicle_type_id":"4","last_reported":1734289589,"current_range_meters":34000,"station_id":"ce4bh2h2rcd13ifvqdh0","pricing_plan_id":"cebpf4jnsgd1na2vs0mg"},{"bike_id":"301cc64c-62f2-4031-99ec-d953244efe82","system_id":"levelo_inurba_marseille","lat":43.30455,"lon":5.37912,"is_reserved":false,"is_disabled":false,"rental_uris":{"android":"levelo://app?vid=301cc64c-62f2-4031-99ec-d953244efe82","ios":"levelo://app?vid=301cc64c-62f2-4031-99ec-d953244efe82"},"vehicle_type_id":"4","last_reported":1734289589,"current_range_meters":30000,"station_id":"ce4bgup2rcd13ifvqcn0","pricing_plan_id":"cebpf4jnsgd1na2vs0mg"},{"bike_id":"994bbbdd-28a3-4783-933e-04628d6b9262","system_id":"levelo_inurba_marseille","lat":43.28855,"lon":5.39314,"is_reserved":false,"is_disabled":true,"rental_uris":{"android":"levelo://app?vid=994bbbdd-28a3-4783-933e-04628d6b9262","ios":"levelo://app?vid=994bbbdd-28a3-4783-933e-04628d6b9262"},"vehicle_type_id":"4","last_reported":1734289589,"current_range_meters":33600,"station_id":"ce4bh2p2rcd13ifvqdi0","pricing_plan_id":"cebpf4jnsgd1na2vs0mg"},{"bike_id":"ae0bdd7b-187c-409c-b2b3-37aac32d4db3","system_id":"levelo_inurba_marseille","lat":43.32362,"lon":5.36757,"is_reserved":false,"is_disabled":false,"rental_uris":{"android":"levelo://app?vid=ae0bdd7b-187c-409c-b2b3-37aac32d4db3","ios":"levelo://app?vid=ae0bdd7b-187c-409c-b2b3-37aac32d4db3"},"vehicle_type_id":"4","last_reported":1734289589,"current_range_meters":35200,"station_id":"ce4bhsh2rcd13ifvqi2g","pricing_plan_id":"cebpf4jnsgd1na2vs0mg"},{"bike_id":"1c4ed50e-494d-4d11-8fab-5e0d05818a9a","system_id":"levelo_inurba_marseille","lat":43.29535,"lon":5.39026,"is_reserved":false,"is_disabled":false,"rental_uris":{"android":"levelo://app?vid=1c4ed50e-494d-4d11-8fab-5e0d05818a9a","ios":"levelo://app?vid=1c4ed50e-494d-4d11-8fab-5e0d05818a9a"},"vehicle_type_id":"4","last_reported":1734289589,"current_range_meters":38800,"station_id":"ce4bh3p2rcd13ifvqdp0","pricing_plan_id":"cebpf4jnsgd1na2vs0mg"},{"bike_id":"db819ac5-a44f-439e-90cd-8dd1f2937bdc","system_id":"levelo_inurba_marseille","lat":43.30934,"lon":5.40147,"is_reserved":false,"is_disabled":false,"rental_uris":{"android":"levelo://app?vid=db819ac5-a44f-439e-90cd-8dd1f2937bdc","ios":"levelo://app?vid=db819ac5-a44f-439e-90cd-8dd1f2937bdc"},"vehicle_type_id":"4","last_reported":1734289589,"current_range_meters":38400,"station_id":"ce4bgvp2rcd13ifvqct0","pricing_plan_id":"cebpf4jnsgd1na2vs0mg"},{"bike_id":"9ad311dd-c450-4f09-933a-ef53d4559dc3","system_id":"levelo_inurba_marseille","lat":43.26979,"lon":5.39874,"is_reserved":false,"is_disabled":false,"rental_uris":{"android":"levelo://app?vid=9ad311dd-c450-4f09-933a-ef53d4559dc3","ios":"levelo://app?vid=9ad311dd-c450-4f09-933a-ef53d4559dc3"},"vehicle_type_id":"4","last_reported":1734289589,"current_range_meters":21600,"station_id":"","pricing_plan_id":"cebpf4jnsgd1na2vs0mg"},{"bike_id":"d6ea7094-5940-41fa-8ef1-ef65716ca750","system_id":"levelo_inurba_marseille","lat":43.29447,"lon":5.3974,"is_reserved":false,"is_disabled":false,"rental_uris":{"android":"levelo://app?vid=d6ea7094-5940-41fa-8ef1-ef65716ca750","ios":"levelo://app?vid=d6ea7094-5940-41fa-8ef1-ef65716ca750"},"vehicle_type_id":"4","last_reported":1734289589,"current_range_meters":38000,"station_id":"ce4bh3h2rcd13ifvqdo0","pricing_plan_id":"cebpf4jnsgd1na2vs0mg"},{"bike_id":"3b25d107-763f-452c-bff7-9c41a7a92142","system_id":"levelo_inurba_marseille","lat":43.29895,"lon":5.43666,"is_reserved":false,"is_disabled":false,"rental_uris":{"android":"levelo://app?vid=3b25d107-763f-452c-bff7-9c41a7a92142","ios":"levelo://app?vid=3b25d107-763f-452c-bff7-9c41a7a92142"},"vehicle_type_id":"4","last_reported":1734289589,"current_range_meters":13600,"station_id":"ce4bhpp2rcd13ifvqhfg","pricing_plan_id":"cebpf4jnsgd1na2vs0mg"},{"bike_id":"d15e7fb6-2a8e-4529-87f3-d2e94526cd2e","system_id":"levelo_inurba_marseille","lat":43.29072,"lon":5.35898,"is_reserved":false,"is_disabled":false,"rental_uris":{"android":"levelo://app?vid=d15e7fb6-2a8e-4529-87f3-d2e94526cd2e","ios":"levelo://app?vid=d15e7fb6-2a8e-4529-87f3-d2e94526cd2e"},"vehicle_type_id":"4","last_reported":1734289589,"current_range_meters":38000,"station_id":"ce4bha92rcd13ifvqeg0","pricing_plan_id":"cebpf4jnsgd1na2vs0mg"},{"bike_id":"4e65a034-df43-445b-b411-96d0c9702f35","system_id":"levelo_inurba_marseille","lat":43.25578,"lon":5.38232,"is_reserved":false,"is_disabled":false,"rental_uris":{"android":"levelo://app?vid=4e65a034-df43-445b-b411-96d0c9702f35","ios":"levelo://app?vid=4e65a034-df43-445b-b411-96d0c9702f35"},"vehicle_type_id":"4","last_reported":1734289589,"current_range_meters":38800,"station_id":"ce4bhih2rcd13ifvqfs0","pricing_plan_id":"cebpf4jnsgd1na2vs0mg"},{"bike_id":"af67ac53-ba21-4ff0-8334-95679e9ff2cc","system_id":"levelo_inurba_marseille","lat":43.278805,"lon":5.388003,"is_reserved":false,"is_disabled":true,"rental_uris":{"android":"levelo://app?vid=af67ac53-ba21-4ff0-8334-95679e9ff2cc","ios":"levelo://app?vid=af67ac53-ba21-4ff0-8334-95679e9ff2cc"},"vehicle_type_id":"4","last_reported":1734289589,"current_range_meters":0,"station_id":"","pricing_plan_id":"cebpf4jnsgd1na2vs0mg"},{"bike_id":"b06ba60e-8ae5-4afa-9596-3b4b008791ef","system_id":"levelo_inurba_marseille","lat":43.26501,"lon":5.39543,"is_reserved":false,"is_disabled":false,"rental_uris":{"android":"levelo://app?vid=b06ba60e-8ae5-4afa-9596-3b4b008791ef","ios":"levelo://app?vid=b06ba60e-8ae5-4afa-9596-3b4b008791ef"},"vehicle_type_id":"4","last_reported":1734289589,"current_range_meters":39200,"station_id":"ce4bhi12rcd13ifvqfq0","pricing_plan_id":"cebpf4jnsgd1na2vs0mg"},{"bike_id":"6684acfa-e9cc-4c0a-9a12-73b71e50c42c","system_id":"levelo_inurba_marseille","lat":43.29445,"lon":5.39744,"is_reserved":false,"is_disabled":false,"rental_uris":{"android":"levelo://app?vid=6684acfa-e9cc-4c0a-9a12-73b71e50c42c","ios":"levelo://app?vid=6684acfa-e9cc-4c0a-9a12-73b71e50c42c"},"vehicle_type_id":"4","last_reported":1734289589,"current_range_meters":15200,"station_id":"ce4bh3h2rcd13ifvqdo0","pricing_plan_id":"cebpf4jnsgd1na2vs0mg"},{"bike_id":"2ee47aba-edd0-4d53-a17e-e6f65b10c35f","system_id":"levelo_inurba_marseille","lat":43.30098,"lon":5.39072,"is_reserved":false,"is_disabled":true,"rental_uris":{"android":"levelo://app?vid=2ee47aba-edd0-4d53-a17e-e6f65b10c35f","ios":"levelo://app?vid=2ee47aba-edd0-4d53-a17e-e6f65b10c35f"},"vehicle_type_id":"4","last_reported":1734289589,"current_range_meters":16800,"station_id":"ce4bh192rcd13ifvqdb0","pricing_plan_id":"cebpf4jnsgd1na2vs0mg"},{"bike_id":"02e50d42-11a3-4e5a-bc6e-1852795dcae6","system_id":"levelo_inurba_marseille","lat":43.29442,"lon":5.39741,"is_reserved":false,"is_disabled":false,"rental_uris":{"android":"levelo://app?vid=02e50d42-11a3-4e5a-bc6e-1852795dcae6","ios":"levelo://app?vid=02e50d42-11a3-4e5a-bc6e-1852795dcae6"},"vehicle_type_id":"4","last_reported":1734289589,"current_range_meters":22800,"station_id":"ce4bh3h2rcd13ifvqdo0","pricing_plan_id":"cebpf4jnsgd1na2vs0mg"},{"bike_id":"111a649a-1147-4cdb-9d34-06833dc56aaa","system_id":"levelo_inurba_marseille","lat":43.2847,"lon":5.38532,"is_reserved":false,"is_disabled":false,"rental_uris":{"android":"levelo://app?vid=111a649a-1147-4cdb-9d34-06833dc56aaa","ios":"levelo://app?vid=111a649a-1147-4cdb-9d34-06833dc56aaa"},"vehicle_type_id":"4","last_reported":1734289589,"current_range_meters":38000,"station_id":"ce4bh8p2rcd13ifvqeb0","pricing_plan_id":"cebpf4jnsgd1na2vs0mg"},{"bike_id":"d6116bff-8a2c-49d7-a777-dadf8af52d81","system_id":"levelo_inurba_marseille","lat":43.23968,"lon":5.36635,"is_reserved":false,"is_disabled":false,"rental_uris":{"android":"levelo://app?vid=d6116bff-8a2c-49d7-a777-dadf8af52d81","ios":"levelo://app?vid=d6116bff-8a2c-49d7-a777-dadf8af52d81"},"vehicle_type_id":"4","last_reported":1734289589,"current_range_meters":38800,"station_id":"ce4bhi12rcd13ifvqfp0","pricing_plan_id":"cebpf4jnsgd1na2vs0mg"},{"bike_id":"b9b3604f-8c05-4f36-b45c-ad47a9085f1f","system_id":"levelo_inurba_marseille","lat":43.27074,"lon":5.42279,"is_reserved":false,"is_disabled":false,"rental_uris":{"android":"levelo://app?vid=b9b3604f-8c05-4f36-b45c-ad47a9085f1f","ios":"levelo://app?vid=b9b3604f-8c05-4f36-b45c-ad47a9085f1f"},"vehicle_type_id":"4","last_reported":1734289589,"current_range_meters":32000,"station_id":"ce4bhk92rcd13ifvqgb0","pricing_plan_id":"cebpf4jnsgd1na2vs0mg"},{"bike_id":"ad9e0e56-b232-4761-8766-3140462fc53b","system_id":"levelo_inurba_marseille","lat":43.26546,"lon":5.37295,"is_reserved":false,"is_disabled":true,"rental_uris":{"android":"levelo://app?vid=ad9e0e56-b232-4761-8766-3140462fc53b","ios":"levelo://app?vid=ad9e0e56-b232-4761-8766-3140462fc53b"},"vehicle_type_id":"4","last_reported":1734289589,"current_range_meters":26000,"station_id":"ce4bhg12rcd13ifvqf70","pricing_plan_id":"cebpf4jnsgd1na2vs0mg"},{"bike_id":"d65fcea9-51ba-41f0-86fd-e798dfdd6f09","system_id":"levelo_inurba_marseille","lat":43.28726,"lon":5.38285,"is_reserved":false,"is_disabled":true,"rental_uris":{"android":"levelo://app?vid=d65fcea9-51ba-41f0-86fd-e798dfdd6f09","ios":"levelo://app?vid=d65fcea9-51ba-41f0-86fd-e798dfdd6f09"},"vehicle_type_id":"4","last_reported":1734289589,"current_range_meters":0,"station_id":"","pricing_plan_id":"cebpf4jnsgd1na2vs0mg"},{"bike_id":"656d8740-9b85-4a93-86ce-9d32a0e761f7","system_id":"levelo_inurba_marseille","lat":43.3107,"lon":5.3834,"is_reserved":false,"is_disabled":true,"rental_uris":{"android":"levelo://app?vid=656d8740-9b85-4a93-86ce-9d32a0e761f7","ios":"levelo://app?vid=656d8740-9b85-4a93-86ce-9d32a0e761f7"},"vehicle_type_id":"4","last_reported":1734289589,"current_range_meters":1600,"station_id":"ce4bgv92rcd13ifvqcr0","pricing_plan_id":"cebpf4jnsgd1na2vs0mg"},{"bike_id":"30b09c14-5db6-4bdd-8ec0-8d8fd355bef3","system_id":"levelo_inurba_marseille","lat":43.29893,"lon":5.39752,"is_reserved":false,"is_disabled":true,"rental_uris":{"android":"levelo://app?vid=30b09c14-5db6-4bdd-8ec0-8d8fd355bef3","ios":"levelo://app?vid=30b09c14-5db6-4bdd-8ec0-8d8fd355bef3"},"vehicle_type_id":"4","last_reported":1734289589,"current_range_meters":38800,"station_id":"ce4bh0h2rcd13ifvqd50","pricing_plan_id":"cebpf4jnsgd1na2vs0mg"},{"bike_id":"f08c808c-af08-40b8-81c3-97739c995b77","system_id":"levelo_inurba_marseille","lat":43.30132,"lon":5.39877,"is_reserved":false,"is_disabled":true,"rental_uris":{"android":"levelo://app?vid=f08c808c-af08-40b8-81c3-97739c995b77","ios":"levelo://app?vid=f08c808c-af08-40b8-81c3-97739c995b77"},"vehicle_type_id":"4","last_reported":1734289589,"current_range_meters":28000,"station_id":"ce4bh0h2rcd13ifvqd40","pricing_plan_id":"cebpf4jnsgd1na2vs0mg"},{"bike_id":"86970bbe-b814-43c9-89a2-85f507f309fa","system_id":"levelo_inurba_marseille","lat":43.30526,"lon":5.38428,"is_reserved":false,"is_disabled":true,"rental_uris":{"android":"levelo://app?vid=86970bbe-b814-43c9-89a2-85f507f309fa","ios":"levelo://app?vid=86970bbe-b814-43c9-89a2-85f507f309fa"},"vehicle_type_id":"4","last_reported":1734289589,"current_range_meters":3200,"station_id":"ce4bgg92rcd13ifvqb30","pricing_plan_id":"cebpf4jnsgd1na2vs0mg"},{"bike_id":"d65cdb8e-ba87-4f3b-97d2-118d16c9779c","system_id":"levelo_inurba_marseille","lat":43.29445,"lon":5.39752,"is_reserved":false,"is_disabled":false,"rental_uris":{"android":"levelo://app?vid=d65cdb8e-ba87-4f3b-97d2-118d16c9779c","ios":"levelo://app?vid=d65cdb8e-ba87-4f3b-97d2-118d16c9779c"},"vehicle_type_id":"4","last_reported":1734289589,"current_range_meters":39200,"station_id":"ce4bh3h2rcd13ifvqdo0","pricing_plan_id":"cebpf4jnsgd1na2vs0mg"},{"bike_id":"96969163-05be-4d1c-a728-67794615bdfc","system_id":"levelo_inurba_marseille","lat":43.29002,"lon":5.390043,"is_reserved":false,"is_disabled":false,"rental_uris":{"android":"levelo://app?vid=96969163-05be-4d1c-a728-67794615bdfc","ios":"levelo://app?vid=96969163-05be-4d1c-a728-67794615bdfc"},"vehicle_type_id":"4","last_reported":1734289589,"current_range_meters":14800,"station_id":"","pricing_plan_id":"cebpf4jnsgd1na2vs0mg"},{"bike_id":"64203de9-e72b-4d66-9a84-7a315c7ed37f","system_id":"levelo_inurba_marseille","lat":43.29455,"lon":5.3743,"is_reserved":false,"is_disabled":true,"rental_uris":{"android":"levelo://app?vid=64203de9-e72b-4d66-9a84-7a315c7ed37f","ios":"levelo://app?vid=64203de9-e72b-4d66-9a84-7a315c7ed37f"},"vehicle_type_id":"4","last_reported":1734289589,"current_range_meters":0,"station_id":"","pricing_plan_id":"cebpf4jnsgd1na2vs0mg"},{"bike_id":"43a2fa1d-314c-4a4d-b7c9-aa2f198eb73b","system_id":"levelo_inurba_marseille","lat":43.301355,"lon":5.38779,"is_reserved":false,"is_disabled":true,"rental_uris":{"android":"levelo://app?vid=43a2fa1d-314c-4a4d-b7c9-aa2f198eb73b","ios":"levelo://app?vid=43a2fa1d-314c-4a4d-b7c9-aa2f198eb73b"},"vehicle_type_id":"4","last_reported":1734289589,"current_range_meters":29600,"station_id":"ce4bghh2rcd13ifvqb60","pricing_plan_id":"cebpf4jnsgd1na2vs0mg"},{"bike_id":"515c04cd-8708-4283-8c15-7d6f7e4a4290","system_id":"levelo_inurba_marseille","lat":43.28671,"lon":5.38664,"is_reserved":false,"is_disabled":true,"rental_uris":{"android":"levelo://app?vid=515c04cd-8708-4283-8c15-7d6f7e4a4290","ios":"levelo://app?vid=515c04cd-8708-4283-8c15-7d6f7e4a4290"},"vehicle_type_id":"4","last_reported":1734289589,"current_range_meters":36800,"station_id":"ce4bh492rcd13ifvqdug","pricing_plan_id":"cebpf4jnsgd1na2vs0mg"},{"bike_id":"8712fc28-e40a-456d-a154-5674f675d510","system_id":"levelo_inurba_marseille","lat":43.30617,"lon":5.39327,"is_reserved":false,"is_disabled":false,"rental_uris":{"android":"levelo://app?vid=8712fc28-e40a-456d-a154-5674f675d510","ios":"levelo://app?vid=8712fc28-e40a-456d-a154-5674f675d510"},"vehicle_type_id":"4","last_reported":1734289589,"current_range_meters":30800,"station_id":"ce4bh0p2rcd13ifvqd80","pricing_plan_id":"cebpf4jnsgd1na2vs0mg"},{"bike_id":"d87ed566-b815-42ef-afb2-b4761a8b419d","system_id":"levelo_inurba_marseille","lat":43.28564,"lon":5.39489,"is_reserved":false,"is_disabled":true,"rental_uris":{"android":"levelo://app?vid=d87ed566-b815-42ef-afb2-b4761a8b419d","ios":"levelo://app?vid=d87ed566-b815-42ef-afb2-b4761a8b419d"},"vehicle_type_id":"4","last_reported":1734289589,"current_range_meters":34000,"station_id":"ce4bh292rcd13ifvqdg0","pricing_plan_id":"cebpf4jnsgd1na2vs0mg"},{"bike_id":"e4a48f14-aae0-40d6-a315-aa41558ad040","system_id":"levelo_inurba_marseille","lat":43.29601,"lon":5.37698,"is_reserved":false,"is_disabled":false,"rental_uris":{"android":"levelo://app?vid=e4a48f14-aae0-40d6-a315-aa41558ad040","ios":"levelo://app?vid=e4a48f14-aae0-40d6-a315-aa41558ad040"},"vehicle_type_id":"4","last_reported":1734289589,"current_range_meters":6800,"station_id":"ce4bgi92rcd13ifvqb90","pricing_plan_id":"cebpf4jnsgd1na2vs0mg"},{"bike_id":"70c673d5-6066-4faf-b215-c0e7165e8d28","system_id":"levelo_inurba_marseille","lat":43.260578,"lon":5.39386,"is_reserved":false,"is_disabled":false,"rental_uris":{"android":"levelo://app?vid=70c673d5-6066-4faf-b215-c0e7165e8d28","ios":"levelo://app?vid=70c673d5-6066-4faf-b215-c0e7165e8d28"},"vehicle_type_id":"4","last_reported":1734289589,"current_range_meters":38800,"station_id":"ce4bhh92rcd13ifvqfj0","pricing_plan_id":"cebpf4jnsgd1na2vs0mg"},{"bike_id":"d6902179-7ba3-4568-9c3d-4b1f4d2634f7","system_id":"levelo_inurba_marseille","lat":43.29672,"lon":5.3729,"is_reserved":false,"is_disabled":false,"rental_uris":{"android":"levelo://app?vid=d6902179-7ba3-4568-9c3d-4b1f4d2634f7","ios":"levelo://app?vid=d6902179-7ba3-4568-9c3d-4b1f4d2634f7"},"vehicle_type_id":"4","last_reported":1734289589,"current_range_meters":30400,"station_id":"ce4bgk12rcd13ifvqbj0","pricing_plan_id":"cebpf4jnsgd1na2vs0mg"},{"bike_id":"0810675e-0ec1-421a-b95a-82de5ccce9b2","system_id":"levelo_inurba_marseille","lat":43.24179,"lon":5.39711,"is_reserved":false,"is_disabled":true,"rental_uris":{"android":"levelo://app?vid=0810675e-0ec1-421a-b95a-82de5ccce9b2","ios":"levelo://app?vid=0810675e-0ec1-421a-b95a-82de5ccce9b2"},"vehicle_type_id":"4","last_reported":1734289589,"current_range_meters":22400,"station_id":"ce4bhn12rcd13ifvqgpg","pricing_plan_id":"cebpf4jnsgd1na2vs0mg"},{"bike_id":"658b701e-1546-4ee7-a5a3-c849cfed5179","system_id":"levelo_inurba_marseille","lat":43.29629,"lon":5.37714,"is_reserved":false,"is_disabled":true,"rental_uris":{"android":"levelo://app?vid=658b701e-1546-4ee7-a5a3-c849cfed5179","ios":"levelo://app?vid=658b701e-1546-4ee7-a5a3-c849cfed5179"},"vehicle_type_id":"4","last_reported":1734289589,"current_range_meters":0,"station_id":"ce4bgi92rcd13ifvqb90","pricing_plan_id":"cebpf4jnsgd1na2vs0mg"},{"bike_id":"8fb4367b-0159-4e3e-a4ea-173377a1521e","system_id":"levelo_inurba_marseille","lat":43.29924,"lon":5.37457,"is_reserved":false,"is_disabled":false,"rental_uris":{"android":"levelo://app?vid=8fb4367b-0159-4e3e-a4ea-173377a1521e","ios":"levelo://app?vid=8fb4367b-0159-4e3e-a4ea-173377a1521e"},"vehicle_type_id":"4","last_reported":1734289589,"current_range_meters":28000,"station_id":"ce4bgjh2rcd13ifvqbg0","pricing_plan_id":"cebpf4jnsgd1na2vs0mg"},{"bike_id":"a2554ed6-8b42-4938-a58c-2f7a6998af04","system_id":"levelo_inurba_marseille","lat":43.25586,"lon":5.38237,"is_reserved":false,"is_disabled":false,"rental_uris":{"android":"levelo://app?vid=a2554ed6-8b42-4938-a58c-2f7a6998af04","ios":"levelo://app?vid=a2554ed6-8b42-4938-a58c-2f7a6998af04"},"vehicle_type_id":"4","last_reported":1734289589,"current_range_meters":38800,"station_id":"ce4bhih2rcd13ifvqfs0","pricing_plan_id":"cebpf4jnsgd1na2vs0mg"},{"bike_id":"c9169d90-4952-4442-b216-225cffd88fbb","system_id":"levelo_inurba_marseille","lat":43.28715,"lon":5.39996,"is_reserved":false,"is_disabled":true,"rental_uris":{"android":"levelo://app?vid=c9169d90-4952-4442-b216-225cffd88fbb","ios":"levelo://app?vid=c9169d90-4952-4442-b216-225cffd88fbb"},"vehicle_type_id":"4","last_reported":1734289589,"current_range_meters":0,"station_id":"ce4bho92rcd13ifvqh3g","pricing_plan_id":"cebpf4jnsgd1na2vs0mg"},{"bike_id":"dfc48967-0e75-46cb-b088-e686423d10bf","system_id":"levelo_inurba_marseille","lat":43.28414,"lon":5.3751,"is_reserved":false,"is_disabled":false,"rental_uris":{"android":"levelo://app?vid=dfc48967-0e75-46cb-b088-e686423d10bf","ios":"levelo://app?vid=dfc48967-0e75-46cb-b088-e686423d10bf"},"vehicle_type_id":"4","last_reported":1734289589,"current_range_meters":39200,"station_id":"ce4bh412rcd13ifvqds0","pricing_plan_id":"cebpf4jnsgd1na2vs0mg"},{"bike_id":"02f133f3-8d7e-4335-91d4-58629ff49800","system_id":"levelo_inurba_marseille","lat":43.28459,"lon":5.3588,"is_reserved":false,"is_disabled":false,"rental_uris":{"android":"levelo://app?vid=02f133f3-8d7e-4335-91d4-58629ff49800","ios":"levelo://app?vid=02f133f3-8d7e-4335-91d4-58629ff49800"},"vehicle_type_id":"4","last_reported":1734289589,"current_range_meters":33600,"station_id":"ce4bhah2rcd13ifvqei0","pricing_plan_id":"cebpf4jnsgd1na2vs0mg"},{"bike_id":"99126e21-4bac-4ecd-b501-8bf8a9ea34b5","system_id":"levelo_inurba_marseille","lat":43.30798,"lon":5.38135,"is_reserved":false,"is_disabled":false,"rental_uris":{"android":"levelo://app?vid=99126e21-4bac-4ecd-b501-8bf8a9ea34b5","ios":"levelo://app?vid=99126e21-4bac-4ecd-b501-8bf8a9ea34b5"},"vehicle_type_id":"4","last_reported":1734289589,"current_range_meters":38400,"station_id":"ce4bgt12rcd13ifvqce0","pricing_plan_id":"cebpf4jnsgd1na2vs0mg"},{"bike_id":"aee3b8fe-dc5e-4efc-ab09-1b41e0b007e2","system_id":"levelo_inurba_marseille","lat":43.26558,"lon":5.37281,"is_reserved":false,"is_disabled":false,"rental_uris":{"android":"levelo://app?vid=aee3b8fe-dc5e-4efc-ab09-1b41e0b007e2","ios":"levelo://app?vid=aee3b8fe-dc5e-4efc-ab09-1b41e0b007e2"},"vehicle_type_id":"4","last_reported":1734289589,"current_range_meters":32400,"station_id":"ce4bhg12rcd13ifvqf70","pricing_plan_id":"cebpf4jnsgd1na2vs0mg"},{"bike_id":"97480b16-e8f7-4115-ab93-408d9fcdea43","system_id":"levelo_inurba_marseille","lat":43.30097,"lon":5.39076,"is_reserved":false,"is_disabled":false,"rental_uris":{"android":"levelo://app?vid=97480b16-e8f7-4115-ab93-408d9fcdea43","ios":"levelo://app?vid=97480b16-e8f7-4115-ab93-408d9fcdea43"},"vehicle_type_id":"4","last_reported":1734289589,"current_range_meters":34000,"station_id":"ce4bh192rcd13ifvqdb0","pricing_plan_id":"cebpf4jnsgd1na2vs0mg"},{"bike_id":"37b36342-e045-4f12-a155-b73a9fc23ece","system_id":"levelo_inurba_marseille","lat":43.28407,"lon":5.37522,"is_reserved":false,"is_disabled":false,"rental_uris":{"android":"levelo://app?vid=37b36342-e045-4f12-a155-b73a9fc23ece","ios":"levelo://app?vid=37b36342-e045-4f12-a155-b73a9fc23ece"},"vehicle_type_id":"4","last_reported":1734289589,"current_range_meters":38400,"station_id":"ce4bh412rcd13ifvqds0","pricing_plan_id":"cebpf4jnsgd1na2vs0mg"},{"bike_id":"42d80248-c72f-4eeb-9ea0-969813445791","system_id":"levelo_inurba_marseille","lat":43.25087,"lon":5.39528,"is_reserved":false,"is_disabled":false,"rental_uris":{"android":"levelo://app?vid=42d80248-c72f-4eeb-9ea0-969813445791","ios":"levelo://app?vid=42d80248-c72f-4eeb-9ea0-969813445791"},"vehicle_type_id":"4","last_reported":1734289589,"current_range_meters":33600,"station_id":"ce4bhm12rcd13ifvqgkg","pricing_plan_id":"cebpf4jnsgd1na2vs0mg"},{"bike_id":"22b68899-8b56-4d5b-a525-250826f94187","system_id":"levelo_inurba_marseille","lat":43.30544,"lon":5.3668,"is_reserved":false,"is_disabled":true,"rental_uris":{"android":"levelo://app?vid=22b68899-8b56-4d5b-a525-250826f94187","ios":"levelo://app?vid=22b68899-8b56-4d5b-a525-250826f94187"},"vehicle_type_id":"4","last_reported":1734289589,"current_range_meters":27600,"station_id":"ce4bgrp2rcd13ifvqc9g","pricing_plan_id":"cebpf4jnsgd1na2vs0mg"},{"bike_id":"67c1c6cd-c912-4b7f-84ea-55625e0b14f6","system_id":"levelo_inurba_marseille","lat":43.2571,"lon":5.41096,"is_reserved":false,"is_disabled":false,"rental_uris":{"android":"levelo://app?vid=67c1c6cd-c912-4b7f-84ea-55625e0b14f6","ios":"levelo://app?vid=67c1c6cd-c912-4b7f-84ea-55625e0b14f6"},"vehicle_type_id":"4","last_reported":1734289589,"current_range_meters":4400,"station_id":"ce4bhkp2rcd13ifvqgd0","pricing_plan_id":"cebpf4jnsgd1na2vs0mg"},{"bike_id":"83e5b1f9-e512-4755-8dfd-f85222a054ac","system_id":"levelo_inurba_marseille","lat":43.2683,"lon":5.39632,"is_reserved":false,"is_disabled":false,"rental_uris":{"android":"levelo://app?vid=83e5b1f9-e512-4755-8dfd-f85222a054ac","ios":"levelo://app?vid=83e5b1f9-e512-4755-8dfd-f85222a054ac"},"vehicle_type_id":"4","last_reported":1734289589,"current_range_meters":16400,"station_id":"","pricing_plan_id":"cebpf4jnsgd1na2vs0mg"},{"bike_id":"483537f0-0a97-4bc9-b6b9-3700316f5817","system_id":"levelo_inurba_marseille","lat":43.29532,"lon":5.38544,"is_reserved":false,"is_disabled":true,"rental_uris":{"android":"levelo://app?vid=483537f0-0a97-4bc9-b6b9-3700316f5817","ios":"levelo://app?vid=483537f0-0a97-4bc9-b6b9-3700316f5817"},"vehicle_type_id":"4","last_reported":1734289589,"current_range_meters":6400,"station_id":"ce4bgih2rcd13ifvqba0","pricing_plan_id":"cebpf4jnsgd1na2vs0mg"},{"bike_id":"55593a68-0f34-42ce-8387-2278c2b49aa3","system_id":"levelo_inurba_marseille","lat":43.27681,"lon":5.38907,"is_reserved":false,"is_disabled":false,"rental_uris":{"android":"levelo://app?vid=55593a68-0f34-42ce-8387-2278c2b49aa3","ios":"levelo://app?vid=55593a68-0f34-42ce-8387-2278c2b49aa3"},"vehicle_type_id":"4","last_reported":1734289589,"current_range_meters":38000,"station_id":"ce4bhi12rcd13ifvqfo0","pricing_plan_id":"cebpf4jnsgd1na2vs0mg"},{"bike_id":"1f9f2344-774c-4681-a39f-5ccd15c769b1","system_id":"levelo_inurba_marseille","lat":43.28613,"lon":5.351,"is_reserved":false,"is_disabled":true,"rental_uris":{"android":"levelo://app?vid=1f9f2344-774c-4681-a39f-5ccd15c769b1","ios":"levelo://app?vid=1f9f2344-774c-4681-a39f-5ccd15c769b1"},"vehicle_type_id":"4","last_reported":1734289589,"current_range_meters":29600,"station_id":"ce4bhch2rcd13ifvqeug","pricing_plan_id":"cebpf4jnsgd1na2vs0mg"},{"bike_id":"a1e87f39-a169-437c-996c-14d84743b37e","system_id":"levelo_inurba_marseille","lat":43.23067,"lon":5.35479,"is_reserved":false,"is_disabled":false,"rental_uris":{"android":"levelo://app?vid=a1e87f39-a169-437c-996c-14d84743b37e","ios":"levelo://app?vid=a1e87f39-a169-437c-996c-14d84743b37e"},"vehicle_type_id":"4","last_reported":1734289589,"current_range_meters":38800,"station_id":"cpo3342slgdg3j2ifvpg","pricing_plan_id":"cebpf4jnsgd1na2vs0mg"},{"bike_id":"961cc290-4e97-401d-88be-28fbb20f2f17","system_id":"levelo_inurba_marseille","lat":43.28703,"lon":5.37392,"is_reserved":false,"is_disabled":false,"rental_uris":{"android":"levelo://app?vid=961cc290-4e97-401d-88be-28fbb20f2f17","ios":"levelo://app?vid=961cc290-4e97-401d-88be-28fbb20f2f17"},"vehicle_type_id":"4","last_reported":1734289589,"current_range_meters":38800,"station_id":"ce4bh3p2rcd13ifvqdq0","pricing_plan_id":"cebpf4jnsgd1na2vs0mg"},{"bike_id":"c976cc60-0ee0-42e8-9f75-425d602f30ed","system_id":"levelo_inurba_marseille","lat":43.29731,"lon":5.39382,"is_reserved":false,"is_disabled":false,"rental_uris":{"android":"levelo://app?vid=c976cc60-0ee0-42e8-9f75-425d602f30ed","ios":"levelo://app?vid=c976cc60-0ee0-42e8-9f75-425d602f30ed"},"vehicle_type_id":"4","last_reported":1734289589,"current_range_meters":31200,"station_id":"","pricing_plan_id":"cebpf4jnsgd1na2vs0mg"},{"bike_id":"a34223f5-c6be-48ba-acdb-c689c88a699e","system_id":"levelo_inurba_marseille","lat":43.26202,"lon":5.37432,"is_reserved":false,"is_disabled":true,"rental_uris":{"android":"levelo://app?vid=a34223f5-c6be-48ba-acdb-c689c88a699e","ios":"levelo://app?vid=a34223f5-c6be-48ba-acdb-c689c88a699e"},"vehicle_type_id":"4","last_reported":1734289589,"current_range_meters":12000,"station_id":"ce4bhgp2rcd13ifvqfc0","pricing_plan_id":"cebpf4jnsgd1na2vs0mg"},{"bike_id":"9b41f386-2e51-48b1-a2e0-d5018ff12c37","system_id":"levelo_inurba_marseille","lat":43.29783,"lon":5.38102,"is_reserved":false,"is_disabled":false,"rental_uris":{"android":"levelo://app?vid=9b41f386-2e51-48b1-a2e0-d5018ff12c37","ios":"levelo://app?vid=9b41f386-2e51-48b1-a2e0-d5018ff12c37"},"vehicle_type_id":"4","last_reported":1734289589,"current_range_meters":36400,"station_id":"ce4bgip2rcd13ifvqbb0","pricing_plan_id":"cebpf4jnsgd1na2vs0mg"},{"bike_id":"fb75c4ba-469f-42b4-9241-bb8348b4b4dd","system_id":"levelo_inurba_marseille","lat":43.26204,"lon":5.37924,"is_reserved":false,"is_disabled":false,"rental_uris":{"android":"levelo://app?vid=fb75c4ba-469f-42b4-9241-bb8348b4b4dd","ios":"levelo://app?vid=fb75c4ba-469f-42b4-9241-bb8348b4b4dd"},"vehicle_type_id":"4","last_reported":1734289589,"current_range_meters":15200,"station_id":"ce4bhjp2rcd13ifvqg90","pricing_plan_id":"cebpf4jnsgd1na2vs0mg"},{"bike_id":"18c5ffff-a7e1-4ce3-9849-7af4d85b49a4","system_id":"levelo_inurba_marseille","lat":43.30144,"lon":5.38805,"is_reserved":false,"is_disabled":false,"rental_uris":{"android":"levelo://app?vid=18c5ffff-a7e1-4ce3-9849-7af4d85b49a4","ios":"levelo://app?vid=18c5ffff-a7e1-4ce3-9849-7af4d85b49a4"},"vehicle_type_id":"4","last_reported":1734289589,"current_range_meters":24400,"station_id":"ce4bghh2rcd13ifvqb60","pricing_plan_id":"cebpf4jnsgd1na2vs0mg"},{"bike_id":"418176fc-9612-4956-8ca9-9916bd2da767","system_id":"levelo_inurba_marseille","lat":43.33025,"lon":5.39035,"is_reserved":false,"is_disabled":false,"rental_uris":{"android":"levelo://app?vid=418176fc-9612-4956-8ca9-9916bd2da767","ios":"levelo://app?vid=418176fc-9612-4956-8ca9-9916bd2da767"},"vehicle_type_id":"4","last_reported":1734289589,"current_range_meters":19200,"station_id":"ce4bhr92rcd13ifvqhrg","pricing_plan_id":"cebpf4jnsgd1na2vs0mg"},{"bike_id":"b4f28572-e9c3-4d89-a9c6-b22627fb6aff","system_id":"levelo_inurba_marseille","lat":43.325401,"lon":5.414573,"is_reserved":false,"is_disabled":false,"rental_uris":{"android":"levelo://app?vid=b4f28572-e9c3-4d89-a9c6-b22627fb6aff","ios":"levelo://app?vid=b4f28572-e9c3-4d89-a9c6-b22627fb6aff"},"vehicle_type_id":"4","last_reported":1734289589,"current_range_meters":17600,"station_id":"ce4bhq12rcd13ifvqhhg","pricing_plan_id":"cebpf4jnsgd1na2vs0mg"},{"bike_id":"fbbba54f-c894-4c4f-a34c-17fa354571c1","system_id":"levelo_inurba_marseille","lat":43.26562,"lon":5.39035,"is_reserved":false,"is_disabled":false,"rental_uris":{"android":"levelo://app?vid=fbbba54f-c894-4c4f-a34c-17fa354571c1","ios":"levelo://app?vid=fbbba54f-c894-4c4f-a34c-17fa354571c1"},"vehicle_type_id":"4","last_reported":1734289589,"current_range_meters":36400,"station_id":"ce4bhe12rcd13ifvqf30","pricing_plan_id":"cebpf4jnsgd1na2vs0mg"},{"bike_id":"d4e5d77a-27d1-4c8d-8280-dbf389e80711","system_id":"levelo_inurba_marseille","lat":43.301539,"lon":5.369767,"is_reserved":false,"is_disabled":false,"rental_uris":{"android":"levelo://app?vid=d4e5d77a-27d1-4c8d-8280-dbf389e80711","ios":"levelo://app?vid=d4e5d77a-27d1-4c8d-8280-dbf389e80711"},"vehicle_type_id":"4","last_reported":1734289589,"current_range_meters":38400,"station_id":"ce4bgqh2rcd13ifvqc5g","pricing_plan_id":"cebpf4jnsgd1na2vs0mg"},{"bike_id":"e76f2873-e6fb-47c1-a122-e676819dd4bf","system_id":"levelo_inurba_marseille","lat":43.24172,"lon":5.39736,"is_reserved":false,"is_disabled":true,"rental_uris":{"android":"levelo://app?vid=e76f2873-e6fb-47c1-a122-e676819dd4bf","ios":"levelo://app?vid=e76f2873-e6fb-47c1-a122-e676819dd4bf"},"vehicle_type_id":"4","last_reported":1734289589,"current_range_meters":0,"station_id":"ce4bhn12rcd13ifvqgpg","pricing_plan_id":"cebpf4jnsgd1na2vs0mg"},{"bike_id":"3ceb8620-8a84-4dff-8047-301dc3087867","system_id":"levelo_inurba_marseille","lat":43.27683,"lon":5.38899,"is_reserved":false,"is_disabled":true,"rental_uris":{"android":"levelo://app?vid=3ceb8620-8a84-4dff-8047-301dc3087867","ios":"levelo://app?vid=3ceb8620-8a84-4dff-8047-301dc3087867"},"vehicle_type_id":"4","last_reported":1734289589,"current_range_meters":38000,"station_id":"ce4bhi12rcd13ifvqfo0","pricing_plan_id":"cebpf4jnsgd1na2vs0mg"},{"bike_id":"69dd01d6-7009-4d0d-a6b7-d582b618281f","system_id":"levelo_inurba_marseille","lat":43.30097,"lon":5.39072,"is_reserved":false,"is_disabled":false,"rental_uris":{"android":"levelo://app?vid=69dd01d6-7009-4d0d-a6b7-d582b618281f","ios":"levelo://app?vid=69dd01d6-7009-4d0d-a6b7-d582b618281f"},"vehicle_type_id":"4","last_reported":1734289589,"current_range_meters":6400,"station_id":"ce4bh192rcd13ifvqdb0","pricing_plan_id":"cebpf4jnsgd1na2vs0mg"},{"bike_id":"4e3eebec-f009-4887-809b-5f30495d5092","system_id":"levelo_inurba_marseille","lat":43.2869,"lon":5.374,"is_reserved":false,"is_disabled":true,"rental_uris":{"android":"levelo://app?vid=4e3eebec-f009-4887-809b-5f30495d5092","ios":"levelo://app?vid=4e3eebec-f009-4887-809b-5f30495d5092"},"vehicle_type_id":"4","last_reported":1734289589,"current_range_meters":17600,"station_id":"ce4bh3p2rcd13ifvqdq0","pricing_plan_id":"cebpf4jnsgd1na2vs0mg"},{"bike_id":"eb1496f4-67ed-47fd-8660-60023378367f","system_id":"levelo_inurba_marseille","lat":43.294212,"lon":5.374322,"is_reserved":false,"is_disabled":true,"rental_uris":{"android":"levelo://app?vid=eb1496f4-67ed-47fd-8660-60023378367f","ios":"levelo://app?vid=eb1496f4-67ed-47fd-8660-60023378367f"},"vehicle_type_id":"4","last_reported":1734289589,"current_range_meters":0,"station_id":"","pricing_plan_id":"cebpf4jnsgd1na2vs0mg"},{"bike_id":"71adf873-8534-4b4c-88ad-a35b28cb9554","system_id":"levelo_inurba_marseille","lat":43.24743,"lon":5.41159,"is_reserved":false,"is_disabled":false,"rental_uris":{"android":"levelo://app?vid=71adf873-8534-4b4c-88ad-a35b28cb9554","ios":"levelo://app?vid=71adf873-8534-4b4c-88ad-a35b28cb9554"},"vehicle_type_id":"4","last_reported":1734289589,"current_range_meters":20800,"station_id":"","pricing_plan_id":"cebpf4jnsgd1na2vs0mg"},{"bike_id":"c0c3fc51-3be3-4932-a397-78224f09cbb8","system_id":"levelo_inurba_marseille","lat":43.3143,"lon":5.37582,"is_reserved":false,"is_disabled":false,"rental_uris":{"android":"levelo://app?vid=c0c3fc51-3be3-4932-a397-78224f09cbb8","ios":"levelo://app?vid=c0c3fc51-3be3-4932-a397-78224f09cbb8"},"vehicle_type_id":"4","last_reported":1734289589,"current_range_meters":20000,"station_id":"","pricing_plan_id":"cebpf4jnsgd1na2vs0mg"},{"bike_id":"38d28dbc-a7e6-47f9-b13f-6d5624f96b16","system_id":"levelo_inurba_marseille","lat":43.33037,"lon":5.39035,"is_reserved":false,"is_disabled":false,"rental_uris":{"android":"levelo://app?vid=38d28dbc-a7e6-47f9-b13f-6d5624f96b16","ios":"levelo://app?vid=38d28dbc-a7e6-47f9-b13f-6d5624f96b16"},"vehicle_type_id":"4","last_reported":1734289589,"current_range_meters":38800,"station_id":"ce4bhr92rcd13ifvqhrg","pricing_plan_id":"cebpf4jnsgd1na2vs0mg"},{"bike_id":"930810fc-705b-48f4-878d-61455430efc6","system_id":"levelo_inurba_marseille","lat":43.25579,"lon":5.38219,"is_reserved":false,"is_disabled":false,"rental_uris":{"android":"levelo://app?vid=930810fc-705b-48f4-878d-61455430efc6","ios":"levelo://app?vid=930810fc-705b-48f4-878d-61455430efc6"},"vehicle_type_id":"4","last_reported":1734289589,"current_range_meters":18800,"station_id":"ce4bhih2rcd13ifvqfs0","pricing_plan_id":"cebpf4jnsgd1na2vs0mg"},{"bike_id":"e417af0d-29ea-459e-9bdd-15daa8ff17e0","system_id":"levelo_inurba_marseille","lat":43.29536,"lon":5.38535,"is_reserved":false,"is_disabled":true,"rental_uris":{"android":"levelo://app?vid=e417af0d-29ea-459e-9bdd-15daa8ff17e0","ios":"levelo://app?vid=e417af0d-29ea-459e-9bdd-15daa8ff17e0"},"vehicle_type_id":"4","last_reported":1734289589,"current_range_meters":36800,"station_id":"ce4bgih2rcd13ifvqba0","pricing_plan_id":"cebpf4jnsgd1na2vs0mg"},{"bike_id":"60e686f6-cac0-45e2-be21-108f7ad078d8","system_id":"levelo_inurba_marseille","lat":43.27068,"lon":5.42278,"is_reserved":false,"is_disabled":false,"rental_uris":{"android":"levelo://app?vid=60e686f6-cac0-45e2-be21-108f7ad078d8","ios":"levelo://app?vid=60e686f6-cac0-45e2-be21-108f7ad078d8"},"vehicle_type_id":"4","last_reported":1734289589,"current_range_meters":9600,"station_id":"ce4bhk92rcd13ifvqgb0","pricing_plan_id":"cebpf4jnsgd1na2vs0mg"},{"bike_id":"0df249be-7d40-48ad-8915-752593b717dd","system_id":"levelo_inurba_marseille","lat":43.23186,"lon":5.35564,"is_reserved":false,"is_disabled":false,"rental_uris":{"android":"levelo://app?vid=0df249be-7d40-48ad-8915-752593b717dd","ios":"levelo://app?vid=0df249be-7d40-48ad-8915-752593b717dd"},"vehicle_type_id":"4","last_reported":1734289589,"current_range_meters":28400,"station_id":"ce4bhu92rcd13ifvqi70","pricing_plan_id":"cebpf4jnsgd1na2vs0mg"},{"bike_id":"009cda00-634d-4a78-b435-5aeb9fb20831","system_id":"levelo_inurba_marseille","lat":43.27826,"lon":5.40731,"is_reserved":false,"is_disabled":false,"rental_uris":{"android":"levelo://app?vid=009cda00-634d-4a78-b435-5aeb9fb20831","ios":"levelo://app?vid=009cda00-634d-4a78-b435-5aeb9fb20831"},"vehicle_type_id":"4","last_reported":1734289589,"current_range_meters":19200,"station_id":"ce4bhnh2rcd13ifvqgtg","pricing_plan_id":"cebpf4jnsgd1na2vs0mg"},{"bike_id":"abdf81ec-e98d-4dee-9e25-ca8f28442f23","system_id":"levelo_inurba_marseille","lat":43.29729,"lon":5.40711,"is_reserved":false,"is_disabled":true,"rental_uris":{"android":"levelo://app?vid=abdf81ec-e98d-4dee-9e25-ca8f28442f23","ios":"levelo://app?vid=abdf81ec-e98d-4dee-9e25-ca8f28442f23"},"vehicle_type_id":"4","last_reported":1734289589,"current_range_meters":0,"station_id":"","pricing_plan_id":"cebpf4jnsgd1na2vs0mg"},{"bike_id":"c68db57d-783a-4064-a144-068182cc62b5","system_id":"levelo_inurba_marseille","lat":43.30274,"lon":5.37698,"is_reserved":false,"is_disabled":false,"rental_uris":{"android":"levelo://app?vid=c68db57d-783a-4064-a144-068182cc62b5","ios":"levelo://app?vid=c68db57d-783a-4064-a144-068182cc62b5"},"vehicle_type_id":"4","last_reported":1734289589,"current_range_meters":11200,"station_id":"ce4bguh2rcd13ifvqcj0","pricing_plan_id":"cebpf4jnsgd1na2vs0mg"},{"bike_id":"4a1bc0db-6a2c-4623-8864-d2d18510681f","system_id":"levelo_inurba_marseille","lat":43.23198,"lon":5.35536,"is_reserved":false,"is_disabled":false,"rental_uris":{"android":"levelo://app?vid=4a1bc0db-6a2c-4623-8864-d2d18510681f","ios":"levelo://app?vid=4a1bc0db-6a2c-4623-8864-d2d18510681f"},"vehicle_type_id":"4","last_reported":1734289589,"current_range_meters":16000,"station_id":"ce4bhu92rcd13ifvqi70","pricing_plan_id":"cebpf4jnsgd1na2vs0mg"},{"bike_id":"b5fddb80-bae7-4a57-84aa-2a2cb33635e1","system_id":"levelo_inurba_marseille","lat":43.2896,"lon":5.36626,"is_reserved":false,"is_disabled":false,"rental_uris":{"android":"levelo://app?vid=b5fddb80-bae7-4a57-84aa-2a2cb33635e1","ios":"levelo://app?vid=b5fddb80-bae7-4a57-84aa-2a2cb33635e1"},"vehicle_type_id":"4","last_reported":1734289589,"current_range_meters":39200,"station_id":"ce4bhap2rcd13ifvqek0","pricing_plan_id":"cebpf4jnsgd1na2vs0mg"},{"bike_id":"e10adb71-039c-44e9-a2fc-a197b756d210","system_id":"levelo_inurba_marseille","lat":43.25102,"lon":5.40326,"is_reserved":false,"is_disabled":false,"rental_uris":{"android":"levelo://app?vid=e10adb71-039c-44e9-a2fc-a197b756d210","ios":"levelo://app?vid=e10adb71-039c-44e9-a2fc-a197b756d210"},"vehicle_type_id":"4","last_reported":1734289589,"current_range_meters":24000,"station_id":"ce4bhlh2rcd13ifvqgig","pricing_plan_id":"cebpf4jnsgd1na2vs0mg"},{"bike_id":"93716f1c-bdfa-41f3-87fa-554caf5359e2","system_id":"levelo_inurba_marseille","lat":43.317,"lon":5.40466,"is_reserved":false,"is_disabled":false,"rental_uris":{"android":"levelo://app?vid=93716f1c-bdfa-41f3-87fa-554caf5359e2","ios":"levelo://app?vid=93716f1c-bdfa-41f3-87fa-554caf5359e2"},"vehicle_type_id":"4","last_reported":1734289589,"current_range_meters":38800,"station_id":"ce4bh012rcd13ifvqd00","pricing_plan_id":"cebpf4jnsgd1na2vs0mg"},{"bike_id":"4aa000e7-c00b-41c8-b339-9084eb4ad113","system_id":"levelo_inurba_marseille","lat":43.30536,"lon":5.36531,"is_reserved":false,"is_disabled":false,"rental_uris":{"android":"levelo://app?vid=4aa000e7-c00b-41c8-b339-9084eb4ad113","ios":"levelo://app?vid=4aa000e7-c00b-41c8-b339-9084eb4ad113"},"vehicle_type_id":"4","last_reported":1734289589,"current_range_meters":38800,"station_id":"ce4bgs12rcd13ifvqcag","pricing_plan_id":"cebpf4jnsgd1na2vs0mg"},{"bike_id":"ecbfcd56-e2e9-411a-916b-327a5fa7e43b","system_id":"levelo_inurba_marseille","lat":43.30002,"lon":5.37342,"is_reserved":false,"is_disabled":false,"rental_uris":{"android":"levelo://app?vid=ecbfcd56-e2e9-411a-916b-327a5fa7e43b","ios":"levelo://app?vid=ecbfcd56-e2e9-411a-916b-327a5fa7e43b"},"vehicle_type_id":"4","last_reported":1734289589,"current_range_meters":24000,"station_id":"","pricing_plan_id":"cebpf4jnsgd1na2vs0mg"},{"bike_id":"086fcdd6-d86f-47f4-9b94-e2bf788456a6","system_id":"levelo_inurba_marseille","lat":43.29789,"lon":5.38125,"is_reserved":false,"is_disabled":false,"rental_uris":{"android":"levelo://app?vid=086fcdd6-d86f-47f4-9b94-e2bf788456a6","ios":"levelo://app?vid=086fcdd6-d86f-47f4-9b94-e2bf788456a6"},"vehicle_type_id":"4","last_reported":1734289589,"current_range_meters":28000,"station_id":"ce4bgip2rcd13ifvqbb0","pricing_plan_id":"cebpf4jnsgd1na2vs0mg"},{"bike_id":"dfcf7c85-958c-4ebc-a2b3-b6365ac3bc48","system_id":"levelo_inurba_marseille","lat":43.27178,"lon":5.40961,"is_reserved":false,"is_disabled":false,"rental_uris":{"android":"levelo://app?vid=dfcf7c85-958c-4ebc-a2b3-b6365ac3bc48","ios":"levelo://app?vid=dfcf7c85-958c-4ebc-a2b3-b6365ac3bc48"},"vehicle_type_id":"4","last_reported":1734289589,"current_range_meters":38000,"station_id":"ce4bhl12rcd13ifvqgf0","pricing_plan_id":"cebpf4jnsgd1na2vs0mg"},{"bike_id":"ef36a686-91e9-4bce-855d-0e15673170ab","system_id":"levelo_inurba_marseille","lat":43.29303,"lon":5.37452,"is_reserved":false,"is_disabled":false,"rental_uris":{"android":"levelo://app?vid=ef36a686-91e9-4bce-855d-0e15673170ab","ios":"levelo://app?vid=ef36a686-91e9-4bce-855d-0e15673170ab"},"vehicle_type_id":"4","last_reported":1734289589,"current_range_meters":38800,"station_id":"ce4bgi12rcd13ifvqb70","pricing_plan_id":"cebpf4jnsgd1na2vs0mg"},{"bike_id":"a170ba40-17b7-4bf6-90f8-c07a5cf55709","system_id":"levelo_inurba_marseille","lat":43.24644,"lon":5.389,"is_reserved":false,"is_disabled":true,"rental_uris":{"android":"levelo://app?vid=a170ba40-17b7-4bf6-90f8-c07a5cf55709","ios":"levelo://app?vid=a170ba40-17b7-4bf6-90f8-c07a5cf55709"},"vehicle_type_id":"4","last_reported":1734289589,"current_range_meters":37600,"station_id":"ce4bhg12rcd13ifvqf60","pricing_plan_id":"cebpf4jnsgd1na2vs0mg"},{"bike_id":"0f045a53-c201-4d55-a664-c6f1cfd3e472","system_id":"levelo_inurba_marseille","lat":43.3056,"lon":5.36524,"is_reserved":false,"is_disabled":false,"rental_uris":{"android":"levelo://app?vid=0f045a53-c201-4d55-a664-c6f1cfd3e472","ios":"levelo://app?vid=0f045a53-c201-4d55-a664-c6f1cfd3e472"},"vehicle_type_id":"4","last_reported":1734289589,"current_range_meters":34000,"station_id":"ce4bgs12rcd13ifvqcag","pricing_plan_id":"cebpf4jnsgd1na2vs0mg"},{"bike_id":"27b317b7-ef3e-4fab-a731-0cb4771be0aa","system_id":"levelo_inurba_marseille","lat":43.23199,"lon":5.35547,"is_reserved":false,"is_disabled":false,"rental_uris":{"android":"levelo://app?vid=27b317b7-ef3e-4fab-a731-0cb4771be0aa","ios":"levelo://app?vid=27b317b7-ef3e-4fab-a731-0cb4771be0aa"},"vehicle_type_id":"4","last_reported":1734289589,"current_range_meters":28000,"station_id":"ce4bhu92rcd13ifvqi70","pricing_plan_id":"cebpf4jnsgd1na2vs0mg"},{"bike_id":"d9977418-8393-49f5-a40b-c871898e58ed","system_id":"levelo_inurba_marseille","lat":43.32489,"lon":5.36558,"is_reserved":false,"is_disabled":false,"rental_uris":{"android":"levelo://app?vid=d9977418-8393-49f5-a40b-c871898e58ed","ios":"levelo://app?vid=d9977418-8393-49f5-a40b-c871898e58ed"},"vehicle_type_id":"4","last_reported":1734289589,"current_range_meters":24400,"station_id":"ce4bhs12rcd13ifvqhvg","pricing_plan_id":"cebpf4jnsgd1na2vs0mg"},{"bike_id":"1160c9b6-c207-4aee-b715-53a968ecbd5d","system_id":"levelo_inurba_marseille","lat":43.28413,"lon":5.34976,"is_reserved":false,"is_disabled":false,"rental_uris":{"android":"levelo://app?vid=1160c9b6-c207-4aee-b715-53a968ecbd5d","ios":"levelo://app?vid=1160c9b6-c207-4aee-b715-53a968ecbd5d"},"vehicle_type_id":"4","last_reported":1734289589,"current_range_meters":20800,"station_id":"ce4bhbh2rcd13ifvqepg","pricing_plan_id":"cebpf4jnsgd1na2vs0mg"},{"bike_id":"aea35cb5-36a3-48f8-a7ed-6dd686133651","system_id":"levelo_inurba_marseille","lat":43.24803,"lon":5.37451,"is_reserved":false,"is_disabled":false,"rental_uris":{"android":"levelo://app?vid=aea35cb5-36a3-48f8-a7ed-6dd686133651","ios":"levelo://app?vid=aea35cb5-36a3-48f8-a7ed-6dd686133651"},"vehicle_type_id":"4","last_reported":1734289589,"current_range_meters":36000,"station_id":"ce4bhgh2rcd13ifvqfb0","pricing_plan_id":"cebpf4jnsgd1na2vs0mg"},{"bike_id":"de334b05-31f9-4a73-9b24-31c51d007c85","system_id":"levelo_inurba_marseille","lat":43.3043,"lon":5.39746,"is_reserved":false,"is_disabled":false,"rental_uris":{"android":"levelo://app?vid=de334b05-31f9-4a73-9b24-31c51d007c85","ios":"levelo://app?vid=de334b05-31f9-4a73-9b24-31c51d007c85"},"vehicle_type_id":"4","last_reported":1734289589,"current_range_meters":38800,"station_id":"ce4bh092rcd13ifvqd20","pricing_plan_id":"cebpf4jnsgd1na2vs0mg"},{"bike_id":"cbf3fa96-3d20-4add-824b-b9dd4f19c7f3","system_id":"levelo_inurba_marseille","lat":43.28929,"lon":5.38416,"is_reserved":false,"is_disabled":false,"rental_uris":{"android":"levelo://app?vid=cbf3fa96-3d20-4add-824b-b9dd4f19c7f3","ios":"levelo://app?vid=cbf3fa96-3d20-4add-824b-b9dd4f19c7f3"},"vehicle_type_id":"4","last_reported":1734289589,"current_range_meters":38800,"station_id":"ce4bh612rcd13ifvqe6g","pricing_plan_id":"cebpf4jnsgd1na2vs0mg"},{"bike_id":"27e1eb20-a0b1-4778-bb78-198547226622","system_id":"levelo_inurba_marseille","lat":43.27989,"lon":5.41654,"is_reserved":false,"is_disabled":false,"rental_uris":{"android":"levelo://app?vid=27e1eb20-a0b1-4778-bb78-198547226622","ios":"levelo://app?vid=27e1eb20-a0b1-4778-bb78-198547226622"},"vehicle_type_id":"4","last_reported":1734289589,"current_range_meters":36000,"station_id":"ce4bho12rcd13ifvqh1g","pricing_plan_id":"cebpf4jnsgd1na2vs0mg"},{"bike_id":"dfba629e-2760-4712-9cb4-feb79dec7c75","system_id":"levelo_inurba_marseille","lat":43.25818,"lon":5.39432,"is_reserved":false,"is_disabled":false,"rental_uris":{"android":"levelo://app?vid=dfba629e-2760-4712-9cb4-feb79dec7c75","ios":"levelo://app?vid=dfba629e-2760-4712-9cb4-feb79dec7c75"},"vehicle_type_id":"4","last_reported":1734289589,"current_range_meters":39200,"station_id":"ce4bhip2rcd13ifvqft0","pricing_plan_id":"cebpf4jnsgd1na2vs0mg"},{"bike_id":"2add9805-6fe1-496b-95ec-c3450a7c4a57","system_id":"levelo_inurba_marseille","lat":43.30039,"lon":5.37427,"is_reserved":false,"is_disabled":true,"rental_uris":{"android":"levelo://app?vid=2add9805-6fe1-496b-95ec-c3450a7c4a57","ios":"levelo://app?vid=2add9805-6fe1-496b-95ec-c3450a7c4a57"},"vehicle_type_id":"4","last_reported":1734289589,"current_range_meters":0,"station_id":"","pricing_plan_id":"cebpf4jnsgd1na2vs0mg"},{"bike_id":"c8baf73b-28e0-4b98-9cea-179934d5e407","system_id":"levelo_inurba_marseille","lat":43.31173,"lon":5.38702,"is_reserved":false,"is_disabled":false,"rental_uris":{"android":"levelo://app?vid=c8baf73b-28e0-4b98-9cea-179934d5e407","ios":"levelo://app?vid=c8baf73b-28e0-4b98-9cea-179934d5e407"},"vehicle_type_id":"4","last_reported":1734289589,"current_range_meters":34800,"station_id":"ce4bgv12rcd13ifvqcp0","pricing_plan_id":"cebpf4jnsgd1na2vs0mg"},{"bike_id":"c58821f9-7843-4f2b-8e11-dffb0b46d8fe","system_id":"levelo_inurba_marseille","lat":43.29765,"lon":5.37088,"is_reserved":false,"is_disabled":false,"rental_uris":{"android":"levelo://app?vid=c58821f9-7843-4f2b-8e11-dffb0b46d8fe","ios":"levelo://app?vid=c58821f9-7843-4f2b-8e11-dffb0b46d8fe"},"vehicle_type_id":"4","last_reported":1734289589,"current_range_meters":31200,"station_id":"ce4bgop2rcd13ifvqc1g","pricing_plan_id":"cebpf4jnsgd1na2vs0mg"},{"bike_id":"c9479a05-3697-40a1-808b-271dba411884","system_id":"levelo_inurba_marseille","lat":43.27897,"lon":5.38016,"is_reserved":false,"is_disabled":false,"rental_uris":{"android":"levelo://app?vid=c9479a05-3697-40a1-808b-271dba411884","ios":"levelo://app?vid=c9479a05-3697-40a1-808b-271dba411884"},"vehicle_type_id":"4","last_reported":1734289589,"current_range_meters":26800,"station_id":"ce4bhf92rcd13ifvqf50","pricing_plan_id":"cebpf4jnsgd1na2vs0mg"},{"bike_id":"74a8107e-1c02-49de-a8b0-3ecef49751cf","system_id":"levelo_inurba_marseille","lat":43.26581,"lon":5.3901,"is_reserved":false,"is_disabled":false,"rental_uris":{"android":"levelo://app?vid=74a8107e-1c02-49de-a8b0-3ecef49751cf","ios":"levelo://app?vid=74a8107e-1c02-49de-a8b0-3ecef49751cf"},"vehicle_type_id":"4","last_reported":1734289589,"current_range_meters":8800,"station_id":"ce4bhe12rcd13ifvqf30","pricing_plan_id":"cebpf4jnsgd1na2vs0mg"},{"bike_id":"fe09b4f2-e69c-4010-8f4d-948ab8176526","system_id":"levelo_inurba_marseille","lat":43.28358,"lon":5.38107,"is_reserved":false,"is_disabled":false,"rental_uris":{"android":"levelo://app?vid=fe09b4f2-e69c-4010-8f4d-948ab8176526","ios":"levelo://app?vid=fe09b4f2-e69c-4010-8f4d-948ab8176526"},"vehicle_type_id":"4","last_reported":1734289589,"current_range_meters":38800,"station_id":"ce4bh412rcd13ifvqdr0","pricing_plan_id":"cebpf4jnsgd1na2vs0mg"},{"bike_id":"92dd8d3d-cfd2-4397-b62a-2aba546f4a8a","system_id":"levelo_inurba_marseille","lat":43.31547,"lon":5.38792,"is_reserved":false,"is_disabled":false,"rental_uris":{"android":"levelo://app?vid=92dd8d3d-cfd2-4397-b62a-2aba546f4a8a","ios":"levelo://app?vid=92dd8d3d-cfd2-4397-b62a-2aba546f4a8a"},"vehicle_type_id":"4","last_reported":1734289589,"current_range_meters":38400,"station_id":"","pricing_plan_id":"cebpf4jnsgd1na2vs0mg"},{"bike_id":"63eaffe0-9361-4ff6-ab19-8007100ee7ae","system_id":"levelo_inurba_marseille","lat":43.24163,"lon":5.39706,"is_reserved":false,"is_disabled":false,"rental_uris":{"android":"levelo://app?vid=63eaffe0-9361-4ff6-ab19-8007100ee7ae","ios":"levelo://app?vid=63eaffe0-9361-4ff6-ab19-8007100ee7ae"},"vehicle_type_id":"4","last_reported":1734289589,"current_range_meters":36000,"station_id":"ce4bhn12rcd13ifvqgpg","pricing_plan_id":"cebpf4jnsgd1na2vs0mg"},{"bike_id":"604f4c53-7126-4c38-a496-1deeabae457e","system_id":"levelo_inurba_marseille","lat":43.24064,"lon":5.37765,"is_reserved":false,"is_disabled":false,"rental_uris":{"android":"levelo://app?vid=604f4c53-7126-4c38-a496-1deeabae457e","ios":"levelo://app?vid=604f4c53-7126-4c38-a496-1deeabae457e"},"vehicle_type_id":"4","last_reported":1734289589,"current_range_meters":36800,"station_id":"ce4bhnp2rcd13ifvqgvg","pricing_plan_id":"cebpf4jnsgd1na2vs0mg"},{"bike_id":"9134430e-f002-4d84-96cb-0e93ff2cf3ee","system_id":"levelo_inurba_marseille","lat":43.27565,"lon":5.38418,"is_reserved":false,"is_disabled":false,"rental_uris":{"android":"levelo://app?vid=9134430e-f002-4d84-96cb-0e93ff2cf3ee","ios":"levelo://app?vid=9134430e-f002-4d84-96cb-0e93ff2cf3ee"},"vehicle_type_id":"4","last_reported":1734289589,"current_range_meters":34000,"station_id":"ce4bhh92rcd13ifvqfi0","pricing_plan_id":"cebpf4jnsgd1na2vs0mg"},{"bike_id":"a76f5d3f-8939-4229-b1b7-26c765389f2f","system_id":"levelo_inurba_marseille","lat":43.29775,"lon":5.38119,"is_reserved":false,"is_disabled":false,"rental_uris":{"android":"levelo://app?vid=a76f5d3f-8939-4229-b1b7-26c765389f2f","ios":"levelo://app?vid=a76f5d3f-8939-4229-b1b7-26c765389f2f"},"vehicle_type_id":"4","last_reported":1734289589,"current_range_meters":38800,"station_id":"ce4bgip2rcd13ifvqbb0","pricing_plan_id":"cebpf4jnsgd1na2vs0mg"},{"bike_id":"af5005fc-d058-4152-a2f0-a599ec2fe143","system_id":"levelo_inurba_marseille","lat":43.32289,"lon":5.38278,"is_reserved":false,"is_disabled":false,"rental_uris":{"android":"levelo://app?vid=af5005fc-d058-4152-a2f0-a599ec2fe143","ios":"levelo://app?vid=af5005fc-d058-4152-a2f0-a599ec2fe143"},"vehicle_type_id":"4","last_reported":1734289589,"current_range_meters":38800,"station_id":"ce4bhr12rcd13ifvqhqg","pricing_plan_id":"cebpf4jnsgd1na2vs0mg"},{"bike_id":"3650d84c-d2fd-4728-abeb-b9accdfa7210","system_id":"levelo_inurba_marseille","lat":43.30236,"lon":5.40057,"is_reserved":false,"is_disabled":true,"rental_uris":{"android":"levelo://app?vid=3650d84c-d2fd-4728-abeb-b9accdfa7210","ios":"levelo://app?vid=3650d84c-d2fd-4728-abeb-b9accdfa7210"},"vehicle_type_id":"4","last_reported":1734289589,"current_range_meters":20000,"station_id":"ce4bgvh2rcd13ifvqcs0","pricing_plan_id":"cebpf4jnsgd1na2vs0mg"},{"bike_id":"a439a4b3-a28c-4ed5-a18f-0df99657d08a","system_id":"levelo_inurba_marseille","lat":43.30806,"lon":5.38158,"is_reserved":false,"is_disabled":false,"rental_uris":{"android":"levelo://app?vid=a439a4b3-a28c-4ed5-a18f-0df99657d08a","ios":"levelo://app?vid=a439a4b3-a28c-4ed5-a18f-0df99657d08a"},"vehicle_type_id":"4","last_reported":1734289589,"current_range_meters":38800,"station_id":"ce4bgt12rcd13ifvqce0","pricing_plan_id":"cebpf4jnsgd1na2vs0mg"},{"bike_id":"b78abdd0-5f07-43ee-acb2-0dd6a958058f","system_id":"levelo_inurba_marseille","lat":43.29971,"lon":5.37188,"is_reserved":false,"is_disabled":true,"rental_uris":{"android":"levelo://app?vid=b78abdd0-5f07-43ee-acb2-0dd6a958058f","ios":"levelo://app?vid=b78abdd0-5f07-43ee-acb2-0dd6a958058f"},"vehicle_type_id":"4","last_reported":1734289589,"current_range_meters":20400,"station_id":"ce4bgr92rcd13ifvqc7g","pricing_plan_id":"cebpf4jnsgd1na2vs0mg"},{"bike_id":"0a941950-f8c5-43d2-a84e-e293f08c1694","system_id":"levelo_inurba_marseille","lat":43.30638,"lon":5.40075,"is_reserved":false,"is_disabled":false,"rental_uris":{"android":"levelo://app?vid=0a941950-f8c5-43d2-a84e-e293f08c1694","ios":"levelo://app?vid=0a941950-f8c5-43d2-a84e-e293f08c1694"},"vehicle_type_id":"4","last_reported":1734289589,"current_range_meters":30800,"station_id":"ce4bh112rcd13ifvqda0","pricing_plan_id":"cebpf4jnsgd1na2vs0mg"},{"bike_id":"a4226c82-b5d7-4427-ad3f-ae4266437df8","system_id":"levelo_inurba_marseille","lat":43.31358,"lon":5.385,"is_reserved":false,"is_disabled":false,"rental_uris":{"android":"levelo://app?vid=a4226c82-b5d7-4427-ad3f-ae4266437df8","ios":"levelo://app?vid=a4226c82-b5d7-4427-ad3f-ae4266437df8"},"vehicle_type_id":"4","last_reported":1734289589,"current_range_meters":17200,"station_id":"ce4bgt92rcd13ifvqcf0","pricing_plan_id":"cebpf4jnsgd1na2vs0mg"},{"bike_id":"d6dcc031-1b82-4e8f-8ed9-31ddefadd389","system_id":"levelo_inurba_marseille","lat":43.27212,"lon":5.39185,"is_reserved":false,"is_disabled":false,"rental_uris":{"android":"levelo://app?vid=d6dcc031-1b82-4e8f-8ed9-31ddefadd389","ios":"levelo://app?vid=d6dcc031-1b82-4e8f-8ed9-31ddefadd389"},"vehicle_type_id":"4","last_reported":1734289589,"current_range_meters":35600,"station_id":"ce4bhhp2rcd13ifvqfm0","pricing_plan_id":"cebpf4jnsgd1na2vs0mg"},{"bike_id":"76805181-b86b-42c5-9eb1-0613fe81a89e","system_id":"levelo_inurba_marseille","lat":43.23194,"lon":5.35551,"is_reserved":false,"is_disabled":false,"rental_uris":{"android":"levelo://app?vid=76805181-b86b-42c5-9eb1-0613fe81a89e","ios":"levelo://app?vid=76805181-b86b-42c5-9eb1-0613fe81a89e"},"vehicle_type_id":"4","last_reported":1734289589,"current_range_meters":38800,"station_id":"ce4bhu92rcd13ifvqi70","pricing_plan_id":"cebpf4jnsgd1na2vs0mg"},{"bike_id":"5273ad23-cdf8-4d39-b5a0-7792c50980c3","system_id":"levelo_inurba_marseille","lat":43.30553,"lon":5.36549,"is_reserved":false,"is_disabled":false,"rental_uris":{"android":"levelo://app?vid=5273ad23-cdf8-4d39-b5a0-7792c50980c3","ios":"levelo://app?vid=5273ad23-cdf8-4d39-b5a0-7792c50980c3"},"vehicle_type_id":"4","last_reported":1734289589,"current_range_meters":38400,"station_id":"ce4bgs12rcd13ifvqcag","pricing_plan_id":"cebpf4jnsgd1na2vs0mg"},{"bike_id":"6069fe6f-3d12-436c-ba1a-a6e9607abbd3","system_id":"levelo_inurba_marseille","lat":43.325453,"lon":5.414423,"is_reserved":false,"is_disabled":false,"rental_uris":{"android":"levelo://app?vid=6069fe6f-3d12-436c-ba1a-a6e9607abbd3","ios":"levelo://app?vid=6069fe6f-3d12-436c-ba1a-a6e9607abbd3"},"vehicle_type_id":"4","last_reported":1734289589,"current_range_meters":26800,"station_id":"ce4bhq12rcd13ifvqhhg","pricing_plan_id":"cebpf4jnsgd1na2vs0mg"},{"bike_id":"5e60823c-bf16-4feb-9e16-a57dfc48fba5","system_id":"levelo_inurba_marseille","lat":43.28932,"lon":5.36638,"is_reserved":false,"is_disabled":false,"rental_uris":{"android":"levelo://app?vid=5e60823c-bf16-4feb-9e16-a57dfc48fba5","ios":"levelo://app?vid=5e60823c-bf16-4feb-9e16-a57dfc48fba5"},"vehicle_type_id":"4","last_reported":1734289589,"current_range_meters":32400,"station_id":"ce4bhap2rcd13ifvqek0","pricing_plan_id":"cebpf4jnsgd1na2vs0mg"},{"bike_id":"2055e66d-9e07-42eb-a643-e7f7c5adc259","system_id":"levelo_inurba_marseille","lat":43.27946,"lon":5.41025,"is_reserved":false,"is_disabled":false,"rental_uris":{"android":"levelo://app?vid=2055e66d-9e07-42eb-a643-e7f7c5adc259","ios":"levelo://app?vid=2055e66d-9e07-42eb-a643-e7f7c5adc259"},"vehicle_type_id":"4","last_reported":1734289589,"current_range_meters":30400,"station_id":"ce4bhnp2rcd13ifvqh0g","pricing_plan_id":"cebpf4jnsgd1na2vs0mg"},{"bike_id":"6cb5f94f-eade-4b7c-b995-84c805be74f9","system_id":"levelo_inurba_marseille","lat":43.33779,"lon":5.37414,"is_reserved":false,"is_disabled":false,"rental_uris":{"android":"levelo://app?vid=6cb5f94f-eade-4b7c-b995-84c805be74f9","ios":"levelo://app?vid=6cb5f94f-eade-4b7c-b995-84c805be74f9"},"vehicle_type_id":"4","last_reported":1734289589,"current_range_meters":33600,"station_id":"","pricing_plan_id":"cebpf4jnsgd1na2vs0mg"},{"bike_id":"5cded315-570b-4c0b-b015-bac53bb71581","system_id":"levelo_inurba_marseille","lat":43.285413,"lon":5.389893,"is_reserved":false,"is_disabled":true,"rental_uris":{"android":"levelo://app?vid=5cded315-570b-4c0b-b015-bac53bb71581","ios":"levelo://app?vid=5cded315-570b-4c0b-b015-bac53bb71581"},"vehicle_type_id":"4","last_reported":1734289589,"current_range_meters":0,"station_id":"","pricing_plan_id":"cebpf4jnsgd1na2vs0mg"},{"bike_id":"c21a5a53-a433-4bb5-8ec6-5269f62fa0a0","system_id":"levelo_inurba_marseille","lat":43.28702,"lon":5.37377,"is_reserved":false,"is_disabled":false,"rental_uris":{"android":"levelo://app?vid=c21a5a53-a433-4bb5-8ec6-5269f62fa0a0","ios":"levelo://app?vid=c21a5a53-a433-4bb5-8ec6-5269f62fa0a0"},"vehicle_type_id":"4","last_reported":1734289589,"current_range_meters":34000,"station_id":"ce4bh3p2rcd13ifvqdq0","pricing_plan_id":"cebpf4jnsgd1na2vs0mg"},{"bike_id":"4a699e76-a616-4bff-b099-c5b629cc0796","system_id":"levelo_inurba_marseille","lat":43.26684,"lon":5.38271,"is_reserved":false,"is_disabled":false,"rental_uris":{"android":"levelo://app?vid=4a699e76-a616-4bff-b099-c5b629cc0796","ios":"levelo://app?vid=4a699e76-a616-4bff-b099-c5b629cc0796"},"vehicle_type_id":"4","last_reported":1734289589,"current_range_meters":37600,"station_id":"ce4bhg92rcd13ifvqf90","pricing_plan_id":"cebpf4jnsgd1na2vs0mg"},{"bike_id":"33d6b26f-b350-4b88-ac17-5390f156160b","system_id":"levelo_inurba_marseille","lat":43.27589,"lon":5.38414,"is_reserved":false,"is_disabled":false,"rental_uris":{"android":"levelo://app?vid=33d6b26f-b350-4b88-ac17-5390f156160b","ios":"levelo://app?vid=33d6b26f-b350-4b88-ac17-5390f156160b"},"vehicle_type_id":"4","last_reported":1734289589,"current_range_meters":29600,"station_id":"ce4bhh92rcd13ifvqfi0","pricing_plan_id":"cebpf4jnsgd1na2vs0mg"},{"bike_id":"61059a51-39d7-4f0a-a098-bfd36e6d1bf2","system_id":"levelo_inurba_marseille","lat":43.31744,"lon":5.39016,"is_reserved":false,"is_disabled":false,"rental_uris":{"android":"levelo://app?vid=61059a51-39d7-4f0a-a098-bfd36e6d1bf2","ios":"levelo://app?vid=61059a51-39d7-4f0a-a098-bfd36e6d1bf2"},"vehicle_type_id":"4","last_reported":1734289589,"current_range_meters":36000,"station_id":"ce4bhqp2rcd13ifvqhng","pricing_plan_id":"cebpf4jnsgd1na2vs0mg"},{"bike_id":"e508d9a0-a558-4738-94ea-bd1fdc4a7adf","system_id":"levelo_inurba_marseille","lat":43.27561,"lon":5.38421,"is_reserved":false,"is_disabled":false,"rental_uris":{"android":"levelo://app?vid=e508d9a0-a558-4738-94ea-bd1fdc4a7adf","ios":"levelo://app?vid=e508d9a0-a558-4738-94ea-bd1fdc4a7adf"},"vehicle_type_id":"4","last_reported":1734289589,"current_range_meters":11200,"station_id":"ce4bhh92rcd13ifvqfi0","pricing_plan_id":"cebpf4jnsgd1na2vs0mg"},{"bike_id":"dfb4e38e-d197-42fa-9bc4-b3de4bb45d69","system_id":"levelo_inurba_marseille","lat":43.26064,"lon":5.39395,"is_reserved":false,"is_disabled":false,"rental_uris":{"android":"levelo://app?vid=dfb4e38e-d197-42fa-9bc4-b3de4bb45d69","ios":"levelo://app?vid=dfb4e38e-d197-42fa-9bc4-b3de4bb45d69"},"vehicle_type_id":"4","last_reported":1734289589,"current_range_meters":33200,"station_id":"ce4bhh92rcd13ifvqfj0","pricing_plan_id":"cebpf4jnsgd1na2vs0mg"},{"bike_id":"ca59d865-1951-4846-a717-a349b9e50e7c","system_id":"levelo_inurba_marseille","lat":43.27614,"lon":5.36115,"is_reserved":false,"is_disabled":true,"rental_uris":{"android":"levelo://app?vid=ca59d865-1951-4846-a717-a349b9e50e7c","ios":"levelo://app?vid=ca59d865-1951-4846-a717-a349b9e50e7c"},"vehicle_type_id":"4","last_reported":1734289589,"current_range_meters":30400,"station_id":"ce4bgj92rcd13ifvqbe0","pricing_plan_id":"cebpf4jnsgd1na2vs0mg"},{"bike_id":"b9fd1ec1-c8e7-4f0e-affb-f503d2a58475","system_id":"levelo_inurba_marseille","lat":43.27378,"lon":5.36242,"is_reserved":false,"is_disabled":false,"rental_uris":{"android":"levelo://app?vid=b9fd1ec1-c8e7-4f0e-affb-f503d2a58475","ios":"levelo://app?vid=b9fd1ec1-c8e7-4f0e-affb-f503d2a58475"},"vehicle_type_id":"4","last_reported":1734289589,"current_range_meters":38800,"station_id":"ce4bhbh2rcd13ifvqeo0","pricing_plan_id":"cebpf4jnsgd1na2vs0mg"},{"bike_id":"283ec910-2b59-4ffd-bbff-9867d116f826","system_id":"levelo_inurba_marseille","lat":43.337444,"lon":5.374475,"is_reserved":false,"is_disabled":true,"rental_uris":{"android":"levelo://app?vid=283ec910-2b59-4ffd-bbff-9867d116f826","ios":"levelo://app?vid=283ec910-2b59-4ffd-bbff-9867d116f826"},"vehicle_type_id":"4","last_reported":1734289589,"current_range_meters":0,"station_id":"","pricing_plan_id":"cebpf4jnsgd1na2vs0mg"},{"bike_id":"44bb1ee1-6608-426b-ad9e-5efdc1a7eac0","system_id":"levelo_inurba_marseille","lat":43.33765,"lon":5.37393,"is_reserved":false,"is_disabled":false,"rental_uris":{"android":"levelo://app?vid=44bb1ee1-6608-426b-ad9e-5efdc1a7eac0","ios":"levelo://app?vid=44bb1ee1-6608-426b-ad9e-5efdc1a7eac0"},"vehicle_type_id":"4","last_reported":1734289589,"current_range_meters":20000,"station_id":"","pricing_plan_id":"cebpf4jnsgd1na2vs0mg"},{"bike_id":"08e0054b-6d8c-4ff9-903b-b2080ffed636","system_id":"levelo_inurba_marseille","lat":43.30803,"lon":5.37634,"is_reserved":false,"is_disabled":false,"rental_uris":{"android":"levelo://app?vid=08e0054b-6d8c-4ff9-903b-b2080ffed636","ios":"levelo://app?vid=08e0054b-6d8c-4ff9-903b-b2080ffed636"},"vehicle_type_id":"4","last_reported":1734289589,"current_range_meters":35600,"station_id":"ce4bgv92rcd13ifvqcq0","pricing_plan_id":"cebpf4jnsgd1na2vs0mg"},{"bike_id":"bbffd889-750b-4762-ae94-78458d50ea91","system_id":"levelo_inurba_marseille","lat":43.3372,"lon":5.39184,"is_reserved":false,"is_disabled":false,"rental_uris":{"android":"levelo://app?vid=bbffd889-750b-4762-ae94-78458d50ea91","ios":"levelo://app?vid=bbffd889-750b-4762-ae94-78458d50ea91"},"vehicle_type_id":"4","last_reported":1734289589,"current_range_meters":38800,"station_id":"ce4bhr92rcd13ifvqhsg","pricing_plan_id":"cebpf4jnsgd1na2vs0mg"},{"bike_id":"6af93c5c-2369-4249-9874-540f27f0edd3","system_id":"levelo_inurba_marseille","lat":43.33717,"lon":5.39176,"is_reserved":false,"is_disabled":false,"rental_uris":{"android":"levelo://app?vid=6af93c5c-2369-4249-9874-540f27f0edd3","ios":"levelo://app?vid=6af93c5c-2369-4249-9874-540f27f0edd3"},"vehicle_type_id":"4","last_reported":1734289589,"current_range_meters":38800,"station_id":"ce4bhr92rcd13ifvqhsg","pricing_plan_id":"cebpf4jnsgd1na2vs0mg"},{"bike_id":"4e99bf0b-18b5-4848-80f1-0b0419a2900d","system_id":"levelo_inurba_marseille","lat":43.24183,"lon":5.39702,"is_reserved":false,"is_disabled":false,"rental_uris":{"android":"levelo://app?vid=4e99bf0b-18b5-4848-80f1-0b0419a2900d","ios":"levelo://app?vid=4e99bf0b-18b5-4848-80f1-0b0419a2900d"},"vehicle_type_id":"4","last_reported":1734289589,"current_range_meters":19600,"station_id":"ce4bhn12rcd13ifvqgpg","pricing_plan_id":"cebpf4jnsgd1na2vs0mg"},{"bike_id":"7a6fbafa-c405-41ec-babd-da89473cb281","system_id":"levelo_inurba_marseille","lat":43.27515,"lon":5.42458,"is_reserved":false,"is_disabled":false,"rental_uris":{"android":"levelo://app?vid=7a6fbafa-c405-41ec-babd-da89473cb281","ios":"levelo://app?vid=7a6fbafa-c405-41ec-babd-da89473cb281"},"vehicle_type_id":"4","last_reported":1734289589,"current_range_meters":38800,"station_id":"ce4bhn92rcd13ifvqgrg","pricing_plan_id":"cebpf4jnsgd1na2vs0mg"},{"bike_id":"6e6a004b-462d-4b03-aeaa-2611256f0d89","system_id":"levelo_inurba_marseille","lat":43.28123,"lon":5.38934,"is_reserved":false,"is_disabled":true,"rental_uris":{"android":"levelo://app?vid=6e6a004b-462d-4b03-aeaa-2611256f0d89","ios":"levelo://app?vid=6e6a004b-462d-4b03-aeaa-2611256f0d89"},"vehicle_type_id":"4","last_reported":1734289589,"current_range_meters":0,"station_id":"","pricing_plan_id":"cebpf4jnsgd1na2vs0mg"},{"bike_id":"7213f72e-c7cd-48f2-80d6-cfd2cf9871b6","system_id":"levelo_inurba_marseille","lat":43.33028,"lon":5.39029,"is_reserved":false,"is_disabled":false,"rental_uris":{"android":"levelo://app?vid=7213f72e-c7cd-48f2-80d6-cfd2cf9871b6","ios":"levelo://app?vid=7213f72e-c7cd-48f2-80d6-cfd2cf9871b6"},"vehicle_type_id":"4","last_reported":1734289589,"current_range_meters":36800,"station_id":"ce4bhr92rcd13ifvqhrg","pricing_plan_id":"cebpf4jnsgd1na2vs0mg"},{"bike_id":"188d243c-71fc-4dde-99f6-e63166352cef","system_id":"levelo_inurba_marseille","lat":43.25865,"lon":5.39894,"is_reserved":false,"is_disabled":true,"rental_uris":{"android":"levelo://app?vid=188d243c-71fc-4dde-99f6-e63166352cef","ios":"levelo://app?vid=188d243c-71fc-4dde-99f6-e63166352cef"},"vehicle_type_id":"4","last_reported":1734289589,"current_range_meters":0,"station_id":"ce4bhl92rcd13ifvqghg","pricing_plan_id":"cebpf4jnsgd1na2vs0mg"},{"bike_id":"f755ce6b-5f66-4efa-8929-49659f734e2f","system_id":"levelo_inurba_marseille","lat":43.28719,"lon":5.36084,"is_reserved":false,"is_disabled":false,"rental_uris":{"android":"levelo://app?vid=f755ce6b-5f66-4efa-8929-49659f734e2f","ios":"levelo://app?vid=f755ce6b-5f66-4efa-8929-49659f734e2f"},"vehicle_type_id":"4","last_reported":1734289589,"current_range_meters":10800,"station_id":"cki0cbj6b192h4jlfktg","pricing_plan_id":"cebpf4jnsgd1na2vs0mg"},{"bike_id":"6011c616-b2da-4542-8172-f135e3f29a75","system_id":"levelo_inurba_marseille","lat":43.28003,"lon":5.39979,"is_reserved":false,"is_disabled":false,"rental_uris":{"android":"levelo://app?vid=6011c616-b2da-4542-8172-f135e3f29a75","ios":"levelo://app?vid=6011c616-b2da-4542-8172-f135e3f29a75"},"vehicle_type_id":"4","last_reported":1734289589,"current_range_meters":37600,"station_id":"ce4bho92rcd13ifvqh4g","pricing_plan_id":"cebpf4jnsgd1na2vs0mg"},{"bike_id":"4c35cfc3-06ed-4e22-b9e5-14a7e91f5ce9","system_id":"levelo_inurba_marseille","lat":43.3089,"lon":5.3719,"is_reserved":false,"is_disabled":false,"rental_uris":{"android":"levelo://app?vid=4c35cfc3-06ed-4e22-b9e5-14a7e91f5ce9","ios":"levelo://app?vid=4c35cfc3-06ed-4e22-b9e5-14a7e91f5ce9"},"vehicle_type_id":"4","last_reported":1734289589,"current_range_meters":30000,"station_id":"ce4bguh2rcd13ifvqckg","pricing_plan_id":"cebpf4jnsgd1na2vs0mg"},{"bike_id":"1104516b-9499-4fe0-acb4-f2582d658e5d","system_id":"levelo_inurba_marseille","lat":43.32083,"lon":5.41545,"is_reserved":false,"is_disabled":false,"rental_uris":{"android":"levelo://app?vid=1104516b-9499-4fe0-acb4-f2582d658e5d","ios":"levelo://app?vid=1104516b-9499-4fe0-acb4-f2582d658e5d"},"vehicle_type_id":"4","last_reported":1734289589,"current_range_meters":38000,"station_id":"ce4bhq92rcd13ifvqhkg","pricing_plan_id":"cebpf4jnsgd1na2vs0mg"},{"bike_id":"64ada842-a804-4c74-8175-763c6716c405","system_id":"levelo_inurba_marseille","lat":43.25084,"lon":5.39527,"is_reserved":false,"is_disabled":false,"rental_uris":{"android":"levelo://app?vid=64ada842-a804-4c74-8175-763c6716c405","ios":"levelo://app?vid=64ada842-a804-4c74-8175-763c6716c405"},"vehicle_type_id":"4","last_reported":1734289589,"current_range_meters":33600,"station_id":"ce4bhm12rcd13ifvqgkg","pricing_plan_id":"cebpf4jnsgd1na2vs0mg"},{"bike_id":"f3ac5eb0-0494-4557-a8df-7561c313d069","system_id":"levelo_inurba_marseille","lat":43.25112,"lon":5.40318,"is_reserved":false,"is_disabled":false,"rental_uris":{"android":"levelo://app?vid=f3ac5eb0-0494-4557-a8df-7561c313d069","ios":"levelo://app?vid=f3ac5eb0-0494-4557-a8df-7561c313d069"},"vehicle_type_id":"4","last_reported":1734289589,"current_range_meters":32400,"station_id":"ce4bhlh2rcd13ifvqgig","pricing_plan_id":"cebpf4jnsgd1na2vs0mg"},{"bike_id":"b702a21c-f678-4385-b220-8531e5e77391","system_id":"levelo_inurba_marseille","lat":43.32553,"lon":5.41422,"is_reserved":false,"is_disabled":false,"rental_uris":{"android":"levelo://app?vid=b702a21c-f678-4385-b220-8531e5e77391","ios":"levelo://app?vid=b702a21c-f678-4385-b220-8531e5e77391"},"vehicle_type_id":"4","last_reported":1734289589,"current_range_meters":19200,"station_id":"ce4bhq12rcd13ifvqhhg","pricing_plan_id":"cebpf4jnsgd1na2vs0mg"},{"bike_id":"887a1248-94d4-4608-b6e7-05d4f49b5ad7","system_id":"levelo_inurba_marseille","lat":43.29528,"lon":5.38531,"is_reserved":false,"is_disabled":false,"rental_uris":{"android":"levelo://app?vid=887a1248-94d4-4608-b6e7-05d4f49b5ad7","ios":"levelo://app?vid=887a1248-94d4-4608-b6e7-05d4f49b5ad7"},"vehicle_type_id":"4","last_reported":1734289589,"current_range_meters":20400,"station_id":"ce4bgih2rcd13ifvqba0","pricing_plan_id":"cebpf4jnsgd1na2vs0mg"},{"bike_id":"94433003-bab5-464c-a24c-2394a816c555","system_id":"levelo_inurba_marseille","lat":43.23959,"lon":5.36631,"is_reserved":false,"is_disabled":false,"rental_uris":{"android":"levelo://app?vid=94433003-bab5-464c-a24c-2394a816c555","ios":"levelo://app?vid=94433003-bab5-464c-a24c-2394a816c555"},"vehicle_type_id":"4","last_reported":1734289589,"current_range_meters":28400,"station_id":"ce4bhi12rcd13ifvqfp0","pricing_plan_id":"cebpf4jnsgd1na2vs0mg"},{"bike_id":"fb2e4c77-1d13-4c3b-8f76-1774a110898d","system_id":"levelo_inurba_marseille","lat":43.24803,"lon":5.37458,"is_reserved":false,"is_disabled":false,"rental_uris":{"android":"levelo://app?vid=fb2e4c77-1d13-4c3b-8f76-1774a110898d","ios":"levelo://app?vid=fb2e4c77-1d13-4c3b-8f76-1774a110898d"},"vehicle_type_id":"4","last_reported":1734289589,"current_range_meters":37600,"station_id":"ce4bhgh2rcd13ifvqfb0","pricing_plan_id":"cebpf4jnsgd1na2vs0mg"},