{"last_updated":1777565860,"ttl":60,"version":"2.2","data":{"bikes":[{"bike_id":"c632e86a-3947-4787-a362-e62cbb474323","system_id":"levelo_inurba_marseille","lat":43.31884,"lon":5.40733,"is_reserved":false,"is_disabled":false,"rental_uris":{"android":"levelo://app?vid=c632e86a-3947-4787-a362-e62cbb474323","ios":"levelo://app?vid=c632e86a-3947-4787-a362-e62cbb474323"},"vehicle_type_id":"4","last_reported":1777565861,"current_range_meters":2800,"station_id":"ce4bhq12rcd13ifvqhig","pricing_plan_id":"cebpf4jnsgd1na2vs0mg"},{"bike_id":"d67b6f5c-a535-49e9-92db-cada281e0c36","system_id":"levelo_inurba_marseille","lat":43.28645,"lon":5.36346,"is_reserved":false,"is_disabled":false,"rental_uris":{"android":"levelo://app?vid=d67b6f5c-a535-49e9-92db-cada281e0c36","ios":"levelo://app?vid=d67b6f5c-a535-49e9-92db-cada281e0c36"},"vehicle_type_id":"4","last_reported":1777565861,"current_range_meters":2800,"station_id":"ce4bhah2rcd13ifvqej0","pricing_plan_id":"cebpf4jnsgd1na2vs0mg"},{"bike_id":"af3ac470-7cbc-42ca-9669-0fb5156b2b5b","system_id":"levelo_inurba_marseille","lat":43.27816,"lon":5.40697,"is_reserved":false,"is_disabled":false,"rental_uris":{"android":"levelo://app?vid=af3ac470-7cbc-42ca-9669-0fb5156b2b5b","ios":"levelo://app?vid=af3ac470-7cbc-42ca-9669-0fb5156b2b5b"},"vehicle_type_id":"4","last_reported":1777565861,"current_range_meters":2800,"station_id":"ce4bhnh2rcd13ifvqgtg","pricing_plan_id":"cebpf4jnsgd1na2vs0mg"},{"bike_id":"a145c2c5-2646-49ce-9cbf-a2c105974ef9","system_id":"levelo_inurba_marseille","lat":43.24951,"lon":5.4048,"is_reserved":false,"is_disabled":false,"rental_uris":{"android":"levelo://app?vid=a145c2c5-2646-49ce-9cbf-a2c105974ef9","ios":"levelo://app?vid=a145c2c5-2646-49ce-9cbf-a2c105974ef9"},"vehicle_type_id":"4","last_reported":1777565861,"current_range_meters":2800,"station_id":"st_d2ngiaodas8pm72gd1h0","pricing_plan_id":"cebpf4jnsgd1na2vs0mg"},{"bike_id":"b9209d37-c2bd-4051-9359-2e047fbf521c","system_id":"levelo_inurba_marseille","lat":43.29796,"lon":5.38113,"is_reserved":false,"is_disabled":false,"rental_uris":{"android":"levelo://app?vid=b9209d37-c2bd-4051-9359-2e047fbf521c","ios":"levelo://app?vid=b9209d37-c2bd-4051-9359-2e047fbf521c"},"vehicle_type_id":"4","last_reported":1777565861,"current_range_meters":2800,"station_id":"ce4bgip2rcd13ifvqbb0","pricing_plan_id":"cebpf4jnsgd1na2vs0mg"},{"bike_id":"b1b4dbd6-2510-43b9-bc81-a56894bf1213","system_id":"levelo_inurba_marseille","lat":43.29796,"lon":5.38093,"is_reserved":false,"is_disabled":false,"rental_uris":{"android":"levelo://app?vid=b1b4dbd6-2510-43b9-bc81-a56894bf1213","ios":"levelo://app?vid=b1b4dbd6-2510-43b9-bc81-a56894bf1213"},"vehicle_type_id":"4","last_reported":1777565861,"current_range_meters":2800,"station_id":"ce4bgip2rcd13ifvqbb0","pricing_plan_id":"cebpf4jnsgd1na2vs0mg"},{"bike_id":"0397d355-e57e-46e7-97e4-52cb4f07ef47","system_id":"levelo_inurba_marseille","lat":43.29841,"lon":5.36285,"is_reserved":false,"is_disabled":true,"rental_uris":{"android":"levelo://app?vid=0397d355-e57e-46e7-97e4-52cb4f07ef47","ios":"levelo://app?vid=0397d355-e57e-46e7-97e4-52cb4f07ef47"},"vehicle_type_id":"4","last_reported":1777565861,"current_range_meters":2800,"station_id":"ce4bgpp2rcd13ifvqc3g","pricing_plan_id":"cebpf4jnsgd1na2vs0mg"},{"bike_id":"575c5de0-0ae1-4cea-960a-245ba133a026","system_id":"levelo_inurba_marseille","lat":43.23893,"lon":5.37457,"is_reserved":false,"is_disabled":false,"rental_uris":{"android":"levelo://app?vid=575c5de0-0ae1-4cea-960a-245ba133a026","ios":"levelo://app?vid=575c5de0-0ae1-4cea-960a-245ba133a026"},"vehicle_type_id":"4","last_reported":1777565861,"current_range_meters":3200,"station_id":"st_d6sm7csbq4hs73f8fpjg","pricing_plan_id":"cebpf4jnsgd1na2vs0mg"},{"bike_id":"d1b0cfb9-74d2-4ee1-ab25-6099cdfdd0f2","system_id":"levelo_inurba_marseille","lat":43.2837,"lon":5.40101,"is_reserved":false,"is_disabled":false,"rental_uris":{"android":"levelo://app?vid=d1b0cfb9-74d2-4ee1-ab25-6099cdfdd0f2","ios":"levelo://app?vid=d1b0cfb9-74d2-4ee1-ab25-6099cdfdd0f2"},"vehicle_type_id":"4","last_reported":1777565861,"current_range_meters":3200,"station_id":"","pricing_plan_id":"cebpf4jnsgd1na2vs0mg"},{"bike_id":"9d936f0e-f60e-478e-bdb5-54a0edac0623","system_id":"levelo_inurba_marseille","lat":43.24545,"lon":5.39524,"is_reserved":false,"is_disabled":false,"rental_uris":{"android":"levelo://app?vid=9d936f0e-f60e-478e-bdb5-54a0edac0623","ios":"levelo://app?vid=9d936f0e-f60e-478e-bdb5-54a0edac0623"},"vehicle_type_id":"4","last_reported":1777565861,"current_range_meters":3200,"station_id":"ce4bhlp2rcd13ifvqgjg","pricing_plan_id":"cebpf4jnsgd1na2vs0mg"},{"bike_id":"2c514eca-0c7c-4c54-8544-da1a555049b6","system_id":"levelo_inurba_marseille","lat":43.26505,"lon":5.36951,"is_reserved":false,"is_disabled":false,"rental_uris":{"android":"levelo://app?vid=2c514eca-0c7c-4c54-8544-da1a555049b6","ios":"levelo://app?vid=2c514eca-0c7c-4c54-8544-da1a555049b6"},"vehicle_type_id":"4","last_reported":1777565861,"current_range_meters":3200,"station_id":"","pricing_plan_id":"cebpf4jnsgd1na2vs0mg"},{"bike_id":"ae38aa61-64ab-4fbb-bf8a-22ffe29f954e","system_id":"levelo_inurba_marseille","lat":43.27417,"lon":5.39434,"is_reserved":false,"is_disabled":false,"rental_uris":{"android":"levelo://app?vid=ae38aa61-64ab-4fbb-bf8a-22ffe29f954e","ios":"levelo://app?vid=ae38aa61-64ab-4fbb-bf8a-22ffe29f954e"},"vehicle_type_id":"4","last_reported":1777565861,"current_range_meters":3200,"station_id":"ce4bhdp2rcd13ifvqf20","pricing_plan_id":"cebpf4jnsgd1na2vs0mg"},{"bike_id":"4d608b6a-75fe-47dc-949f-fbdbf43334bc","system_id":"levelo_inurba_marseille","lat":43.28943,"lon":5.39634,"is_reserved":false,"is_disabled":false,"rental_uris":{"android":"levelo://app?vid=4d608b6a-75fe-47dc-949f-fbdbf43334bc","ios":"levelo://app?vid=4d608b6a-75fe-47dc-949f-fbdbf43334bc"},"vehicle_type_id":"4","last_reported":1777565861,"current_range_meters":3200,"station_id":"ce4bh3h2rcd13ifvqdn0","pricing_plan_id":"cebpf4jnsgd1na2vs0mg"},{"bike_id":"cd735691-a8cf-469c-b880-28ec2dcf0dc2","system_id":"levelo_inurba_marseille","lat":43.3356,"lon":5.37427,"is_reserved":false,"is_disabled":false,"rental_uris":{"android":"levelo://app?vid=cd735691-a8cf-469c-b880-28ec2dcf0dc2","ios":"levelo://app?vid=cd735691-a8cf-469c-b880-28ec2dcf0dc2"},"vehicle_type_id":"4","last_reported":1777565861,"current_range_meters":3200,"station_id":"st_d46tts09ee8s73dlu43g","pricing_plan_id":"cebpf4jnsgd1na2vs0mg"},{"bike_id":"d8de0a64-e3bb-4f89-8f07-313cae5af722","system_id":"levelo_inurba_marseille","lat":43.22556,"lon":5.41631,"is_reserved":false,"is_disabled":false,"rental_uris":{"android":"levelo://app?vid=d8de0a64-e3bb-4f89-8f07-313cae5af722","ios":"levelo://app?vid=d8de0a64-e3bb-4f89-8f07-313cae5af722"},"vehicle_type_id":"4","last_reported":1777565861,"current_range_meters":3600,"station_id":"st_d2o4gvlbi1j2169b742g","pricing_plan_id":"cebpf4jnsgd1na2vs0mg"},{"bike_id":"0438d68d-b4c6-4b23-a7e1-82657231ebe9","system_id":"levelo_inurba_marseille","lat":43.28479,"lon":5.48417,"is_reserved":false,"is_disabled":false,"rental_uris":{"android":"levelo://app?vid=0438d68d-b4c6-4b23-a7e1-82657231ebe9","ios":"levelo://app?vid=0438d68d-b4c6-4b23-a7e1-82657231ebe9"},"vehicle_type_id":"4","last_reported":1777565861,"current_range_meters":3600,"station_id":"","pricing_plan_id":"cebpf4jnsgd1na2vs0mg"},{"bike_id":"b7746803-f5d7-41fd-8b3d-d05d0775de9d","system_id":"levelo_inurba_marseille","lat":43.21755,"lon":5.3461,"is_reserved":false,"is_disabled":false,"rental_uris":{"android":"levelo://app?vid=b7746803-f5d7-41fd-8b3d-d05d0775de9d","ios":"levelo://app?vid=b7746803-f5d7-41fd-8b3d-d05d0775de9d"},"vehicle_type_id":"4","last_reported":1777565861,"current_range_meters":3600,"station_id":"st_cvj6r9ubvosntc0bgbag","pricing_plan_id":"cebpf4jnsgd1na2vs0mg"},{"bike_id":"fc5f424f-d395-4e45-876c-75f6acd942c2","system_id":"levelo_inurba_marseille","lat":43.24811,"lon":5.37462,"is_reserved":false,"is_disabled":false,"rental_uris":{"android":"levelo://app?vid=fc5f424f-d395-4e45-876c-75f6acd942c2","ios":"levelo://app?vid=fc5f424f-d395-4e45-876c-75f6acd942c2"},"vehicle_type_id":"4","last_reported":1777565861,"current_range_meters":3600,"station_id":"ce4bhgh2rcd13ifvqfb0","pricing_plan_id":"cebpf4jnsgd1na2vs0mg"},{"bike_id":"e080abe4-9619-4521-916a-654bb75c3cbb","system_id":"levelo_inurba_marseille","lat":43.28566,"lon":5.39507,"is_reserved":false,"is_disabled":false,"rental_uris":{"android":"levelo://app?vid=e080abe4-9619-4521-916a-654bb75c3cbb","ios":"levelo://app?vid=e080abe4-9619-4521-916a-654bb75c3cbb"},"vehicle_type_id":"4","last_reported":1777565861,"current_range_meters":3600,"station_id":"ce4bh292rcd13ifvqdg0","pricing_plan_id":"cebpf4jnsgd1na2vs0mg"},{"bike_id":"b91f4f99-7987-40ea-afbb-1e1af65ec675","system_id":"levelo_inurba_marseille","lat":43.29437,"lon":5.40924,"is_reserved":false,"is_disabled":false,"rental_uris":{"android":"levelo://app?vid=b91f4f99-7987-40ea-afbb-1e1af65ec675","ios":"levelo://app?vid=b91f4f99-7987-40ea-afbb-1e1af65ec675"},"vehicle_type_id":"4","last_reported":1777565861,"current_range_meters":3600,"station_id":"","pricing_plan_id":"cebpf4jnsgd1na2vs0mg"},{"bike_id":"970db306-dc88-47f1-b9f6-476ff952f460","system_id":"levelo_inurba_marseille","lat":43.26219,"lon":5.38755,"is_reserved":false,"is_disabled":false,"rental_uris":{"android":"levelo://app?vid=970db306-dc88-47f1-b9f6-476ff952f460","ios":"levelo://app?vid=970db306-dc88-47f1-b9f6-476ff952f460"},"vehicle_type_id":"4","last_reported":1777565861,"current_range_meters":3600,"station_id":"","pricing_plan_id":"cebpf4jnsgd1na2vs0mg"},{"bike_id":"74bc7cb7-b8c4-4331-a3b1-e7b0da2eaf0a","system_id":"levelo_inurba_marseille","lat":43.310564,"lon":5.371766,"is_reserved":false,"is_disabled":false,"rental_uris":{"android":"levelo://app?vid=74bc7cb7-b8c4-4331-a3b1-e7b0da2eaf0a","ios":"levelo://app?vid=74bc7cb7-b8c4-4331-a3b1-e7b0da2eaf0a"},"vehicle_type_id":"4","last_reported":1777565861,"current_range_meters":3600,"station_id":"ce4bgup2rcd13ifvqcn0","pricing_plan_id":"cebpf4jnsgd1na2vs0mg"},{"bike_id":"e320d209-48e5-49ee-991c-c980b3f43088","system_id":"levelo_inurba_marseille","lat":43.25337,"lon":5.42169,"is_reserved":false,"is_disabled":false,"rental_uris":{"android":"levelo://app?vid=e320d209-48e5-49ee-991c-c980b3f43088","ios":"levelo://app?vid=e320d209-48e5-49ee-991c-c980b3f43088"},"vehicle_type_id":"4","last_reported":1777565861,"current_range_meters":3600,"station_id":"st_d2m65c5bi1j21697t3ng","pricing_plan_id":"cebpf4jnsgd1na2vs0mg"},{"bike_id":"f22a6c01-2eed-4292-a8e4-1cc41ad77b27","system_id":"levelo_inurba_marseille","lat":43.29263,"lon":5.3845,"is_reserved":false,"is_disabled":false,"rental_uris":{"android":"levelo://app?vid=f22a6c01-2eed-4292-a8e4-1cc41ad77b27","ios":"levelo://app?vid=f22a6c01-2eed-4292-a8e4-1cc41ad77b27"},"vehicle_type_id":"4","last_reported":1777565861,"current_range_meters":3600,"station_id":"ce4bh692rcd13ifvqea0","pricing_plan_id":"cebpf4jnsgd1na2vs0mg"},{"bike_id":"9cb4bf66-27d5-4d75-ace7-7c423100e206","system_id":"levelo_inurba_marseille","lat":43.29686,"lon":5.37281,"is_reserved":false,"is_disabled":false,"rental_uris":{"android":"levelo://app?vid=9cb4bf66-27d5-4d75-ace7-7c423100e206","ios":"levelo://app?vid=9cb4bf66-27d5-4d75-ace7-7c423100e206"},"vehicle_type_id":"4","last_reported":1777565861,"current_range_meters":3600,"station_id":"ce4bgk12rcd13ifvqbj0","pricing_plan_id":"cebpf4jnsgd1na2vs0mg"},{"bike_id":"b5592bc3-7c5d-4ba9-b1ae-b173928aef8c","system_id":"levelo_inurba_marseille","lat":43.28468,"lon":5.48383,"is_reserved":false,"is_disabled":false,"rental_uris":{"android":"levelo://app?vid=b5592bc3-7c5d-4ba9-b1ae-b173928aef8c","ios":"levelo://app?vid=b5592bc3-7c5d-4ba9-b1ae-b173928aef8c"},"vehicle_type_id":"4","last_reported":1777565861,"current_range_meters":4000,"station_id":"","pricing_plan_id":"cebpf4jnsgd1na2vs0mg"},{"bike_id":"c4038235-4414-445b-9740-82412a3bc762","system_id":"levelo_inurba_marseille","lat":43.30582,"lon":5.40029,"is_reserved":false,"is_disabled":false,"rental_uris":{"android":"levelo://app?vid=c4038235-4414-445b-9740-82412a3bc762","ios":"levelo://app?vid=c4038235-4414-445b-9740-82412a3bc762"},"vehicle_type_id":"4","last_reported":1777565861,"current_range_meters":4000,"station_id":"","pricing_plan_id":"cebpf4jnsgd1na2vs0mg"},{"bike_id":"dde9cb7a-d2cd-49d4-9390-db18f4c0f172","system_id":"levelo_inurba_marseille","lat":43.337444,"lon":5.374475,"is_reserved":false,"is_disabled":false,"rental_uris":{"android":"levelo://app?vid=dde9cb7a-d2cd-49d4-9390-db18f4c0f172","ios":"levelo://app?vid=dde9cb7a-d2cd-49d4-9390-db18f4c0f172"},"vehicle_type_id":"4","last_reported":1777565861,"current_range_meters":4000,"station_id":"ce4bgj12rcd13ifvqbc0","pricing_plan_id":"cebpf4jnsgd1na2vs0mg"},{"bike_id":"7c0e6c04-1a8b-4cb5-a99d-4f869acd395a","system_id":"levelo_inurba_marseille","lat":43.286632,"lon":5.386637,"is_reserved":false,"is_disabled":false,"rental_uris":{"android":"levelo://app?vid=7c0e6c04-1a8b-4cb5-a99d-4f869acd395a","ios":"levelo://app?vid=7c0e6c04-1a8b-4cb5-a99d-4f869acd395a"},"vehicle_type_id":"4","last_reported":1777565861,"current_range_meters":4000,"station_id":"ce4bh492rcd13ifvqdug","pricing_plan_id":"cebpf4jnsgd1na2vs0mg"},{"bike_id":"4a0b395d-f8d6-4813-b92c-6f76020e1cb0","system_id":"levelo_inurba_marseille","lat":43.26223,"lon":5.40466,"is_reserved":false,"is_disabled":false,"rental_uris":{"android":"levelo://app?vid=4a0b395d-f8d6-4813-b92c-6f76020e1cb0","ios":"levelo://app?vid=4a0b395d-f8d6-4813-b92c-6f76020e1cb0"},"vehicle_type_id":"4","last_reported":1777565861,"current_range_meters":4000,"station_id":"ce4bhmh2rcd13ifvqgmg","pricing_plan_id":"cebpf4jnsgd1na2vs0mg"},{"bike_id":"e8c45a74-740f-4fc5-b008-5dd3be21b931","system_id":"levelo_inurba_marseille","lat":43.31132,"lon":5.38031,"is_reserved":false,"is_disabled":false,"rental_uris":{"android":"levelo://app?vid=e8c45a74-740f-4fc5-b008-5dd3be21b931","ios":"levelo://app?vid=e8c45a74-740f-4fc5-b008-5dd3be21b931"},"vehicle_type_id":"4","last_reported":1777565861,"current_range_meters":4000,"station_id":"","pricing_plan_id":"cebpf4jnsgd1na2vs0mg"},{"bike_id":"acc57406-75de-43a2-a6ec-d941193f0be0","system_id":"levelo_inurba_marseille","lat":43.32363,"lon":5.36755,"is_reserved":false,"is_disabled":false,"rental_uris":{"android":"levelo://app?vid=acc57406-75de-43a2-a6ec-d941193f0be0","ios":"levelo://app?vid=acc57406-75de-43a2-a6ec-d941193f0be0"},"vehicle_type_id":"4","last_reported":1777565861,"current_range_meters":4000,"station_id":"ce4bhsh2rcd13ifvqi2g","pricing_plan_id":"cebpf4jnsgd1na2vs0mg"},{"bike_id":"4b04508f-dd7d-40f4-aa04-e897b83a481b","system_id":"levelo_inurba_marseille","lat":43.30181,"lon":5.36612,"is_reserved":false,"is_disabled":true,"rental_uris":{"android":"levelo://app?vid=4b04508f-dd7d-40f4-aa04-e897b83a481b","ios":"levelo://app?vid=4b04508f-dd7d-40f4-aa04-e897b83a481b"},"vehicle_type_id":"4","last_reported":1777565861,"current_range_meters":4000,"station_id":"ce4bgrh2rcd13ifvqc8g","pricing_plan_id":"cebpf4jnsgd1na2vs0mg"},{"bike_id":"f126df62-0e32-4422-ad2d-794326ca816d","system_id":"levelo_inurba_marseille","lat":43.27657,"lon":5.38913,"is_reserved":false,"is_disabled":true,"rental_uris":{"android":"levelo://app?vid=f126df62-0e32-4422-ad2d-794326ca816d","ios":"levelo://app?vid=f126df62-0e32-4422-ad2d-794326ca816d"},"vehicle_type_id":"4","last_reported":1777565861,"current_range_meters":4000,"station_id":"ce4bhi12rcd13ifvqfo0","pricing_plan_id":"cebpf4jnsgd1na2vs0mg"},{"bike_id":"f11cc162-ef2e-4215-b4e4-73a8f48a43ce","system_id":"levelo_inurba_marseille","lat":43.31857,"lon":5.36815,"is_reserved":false,"is_disabled":false,"rental_uris":{"android":"levelo://app?vid=f11cc162-ef2e-4215-b4e4-73a8f48a43ce","ios":"levelo://app?vid=f11cc162-ef2e-4215-b4e4-73a8f48a43ce"},"vehicle_type_id":"4","last_reported":1777565861,"current_range_meters":4000,"station_id":"st_d6o2h0d0559c73evc1b0","pricing_plan_id":"cebpf4jnsgd1na2vs0mg"},{"bike_id":"b20babf4-d825-4dd8-97bc-ac17bb35e4eb","system_id":"levelo_inurba_marseille","lat":43.262064,"lon":5.374459,"is_reserved":false,"is_disabled":true,"rental_uris":{"android":"levelo://app?vid=b20babf4-d825-4dd8-97bc-ac17bb35e4eb","ios":"levelo://app?vid=b20babf4-d825-4dd8-97bc-ac17bb35e4eb"},"vehicle_type_id":"4","last_reported":1777565861,"current_range_meters":4000,"station_id":"ce4bhgp2rcd13ifvqfc0","pricing_plan_id":"cebpf4jnsgd1na2vs0mg"},{"bike_id":"5165c1e0-5413-4f9b-87c8-1fcf446b8da4","system_id":"levelo_inurba_marseille","lat":43.29527,"lon":5.38539,"is_reserved":false,"is_disabled":false,"rental_uris":{"android":"levelo://app?vid=5165c1e0-5413-4f9b-87c8-1fcf446b8da4","ios":"levelo://app?vid=5165c1e0-5413-4f9b-87c8-1fcf446b8da4"},"vehicle_type_id":"4","last_reported":1777565861,"current_range_meters":4000,"station_id":"ce4bgih2rcd13ifvqba0","pricing_plan_id":"cebpf4jnsgd1na2vs0mg"},{"bike_id":"bf7745d2-31ca-45fe-a5a7-eaf8f4b7d65c","system_id":"levelo_inurba_marseille","lat":43.28452,"lon":5.3591,"is_reserved":false,"is_disabled":false,"rental_uris":{"android":"levelo://app?vid=bf7745d2-31ca-45fe-a5a7-eaf8f4b7d65c","ios":"levelo://app?vid=bf7745d2-31ca-45fe-a5a7-eaf8f4b7d65c"},"vehicle_type_id":"4","last_reported":1777565861,"current_range_meters":4000,"station_id":"ce4bhah2rcd13ifvqei0","pricing_plan_id":"cebpf4jnsgd1na2vs0mg"},{"bike_id":"6bf4a326-e2a3-4466-a1af-7b697717d427","system_id":"levelo_inurba_marseille","lat":43.28462,"lon":5.35898,"is_reserved":false,"is_disabled":false,"rental_uris":{"android":"levelo://app?vid=6bf4a326-e2a3-4466-a1af-7b697717d427","ios":"levelo://app?vid=6bf4a326-e2a3-4466-a1af-7b697717d427"},"vehicle_type_id":"4","last_reported":1777565861,"current_range_meters":4000,"station_id":"ce4bhah2rcd13ifvqei0","pricing_plan_id":"cebpf4jnsgd1na2vs0mg"},{"bike_id":"8829f460-aa5f-4233-9846-cd6731fc4acd","system_id":"levelo_inurba_marseille","lat":43.26983,"lon":5.40434,"is_reserved":false,"is_disabled":false,"rental_uris":{"android":"levelo://app?vid=8829f460-aa5f-4233-9846-cd6731fc4acd","ios":"levelo://app?vid=8829f460-aa5f-4233-9846-cd6731fc4acd"},"vehicle_type_id":"4","last_reported":1777565861,"current_range_meters":4400,"station_id":"","pricing_plan_id":"cebpf4jnsgd1na2vs0mg"},{"bike_id":"bcc43550-16ad-4fd8-ba52-0354d34eaedf","system_id":"levelo_inurba_marseille","lat":43.29566,"lon":5.38558,"is_reserved":false,"is_disabled":false,"rental_uris":{"android":"levelo://app?vid=bcc43550-16ad-4fd8-ba52-0354d34eaedf","ios":"levelo://app?vid=bcc43550-16ad-4fd8-ba52-0354d34eaedf"},"vehicle_type_id":"4","last_reported":1777565861,"current_range_meters":4400,"station_id":"ce4bgih2rcd13ifvqba0","pricing_plan_id":"cebpf4jnsgd1na2vs0mg"},{"bike_id":"86e54579-4d19-4715-9800-2ca47c0c169f","system_id":"levelo_inurba_marseille","lat":43.25571,"lon":5.38243,"is_reserved":false,"is_disabled":false,"rental_uris":{"android":"levelo://app?vid=86e54579-4d19-4715-9800-2ca47c0c169f","ios":"levelo://app?vid=86e54579-4d19-4715-9800-2ca47c0c169f"},"vehicle_type_id":"4","last_reported":1777565861,"current_range_meters":4400,"station_id":"ce4bhih2rcd13ifvqfs0","pricing_plan_id":"cebpf4jnsgd1na2vs0mg"},{"bike_id":"57ad44d7-3784-4ec4-88d6-1a95741d93a6","system_id":"levelo_inurba_marseille","lat":43.27716,"lon":5.38926,"is_reserved":false,"is_disabled":false,"rental_uris":{"android":"levelo://app?vid=57ad44d7-3784-4ec4-88d6-1a95741d93a6","ios":"levelo://app?vid=57ad44d7-3784-4ec4-88d6-1a95741d93a6"},"vehicle_type_id":"4","last_reported":1777565861,"current_range_meters":4400,"station_id":"","pricing_plan_id":"cebpf4jnsgd1na2vs0mg"},{"bike_id":"9af3884e-198a-42a0-aca7-5d3b9718fefa","system_id":"levelo_inurba_marseille","lat":43.29525,"lon":5.38546,"is_reserved":false,"is_disabled":false,"rental_uris":{"android":"levelo://app?vid=9af3884e-198a-42a0-aca7-5d3b9718fefa","ios":"levelo://app?vid=9af3884e-198a-42a0-aca7-5d3b9718fefa"},"vehicle_type_id":"4","last_reported":1777565861,"current_range_meters":4400,"station_id":"ce4bgih2rcd13ifvqba0","pricing_plan_id":"cebpf4jnsgd1na2vs0mg"},{"bike_id":"193cdf93-42e1-4f1f-9f35-3fcd3d27aed0","system_id":"levelo_inurba_marseille","lat":43.25894,"lon":5.39907,"is_reserved":false,"is_disabled":false,"rental_uris":{"android":"levelo://app?vid=193cdf93-42e1-4f1f-9f35-3fcd3d27aed0","ios":"levelo://app?vid=193cdf93-42e1-4f1f-9f35-3fcd3d27aed0"},"vehicle_type_id":"4","last_reported":1777565861,"current_range_meters":4400,"station_id":"ce4bhl92rcd13ifvqghg","pricing_plan_id":"cebpf4jnsgd1na2vs0mg"},{"bike_id":"3c0a2253-82a9-4636-bb3c-ec6688b87cc8","system_id":"levelo_inurba_marseille","lat":43.26894,"lon":5.40223,"is_reserved":false,"is_disabled":false,"rental_uris":{"android":"levelo://app?vid=3c0a2253-82a9-4636-bb3c-ec6688b87cc8","ios":"levelo://app?vid=3c0a2253-82a9-4636-bb3c-ec6688b87cc8"},"vehicle_type_id":"4","last_reported":1777565861,"current_range_meters":4400,"station_id":"cjm6bp8fraef2m0cb0m0","pricing_plan_id":"cebpf4jnsgd1na2vs0mg"},{"bike_id":"61fa7dc2-655e-485a-9de3-6c935349efed","system_id":"levelo_inurba_marseille","lat":43.21196,"lon":5.35073,"is_reserved":false,"is_disabled":false,"rental_uris":{"android":"levelo://app?vid=61fa7dc2-655e-485a-9de3-6c935349efed","ios":"levelo://app?vid=61fa7dc2-655e-485a-9de3-6c935349efed"},"vehicle_type_id":"4","last_reported":1777565861,"current_range_meters":4400,"station_id":"st_cvj6sg6p6f1abm77japg","pricing_plan_id":"cebpf4jnsgd1na2vs0mg"},{"bike_id":"4c4fd5bf-edd1-4e64-bbba-8e4e3d30b47b","system_id":"levelo_inurba_marseille","lat":43.28928,"lon":5.4305,"is_reserved":false,"is_disabled":false,"rental_uris":{"android":"levelo://app?vid=4c4fd5bf-edd1-4e64-bbba-8e4e3d30b47b","ios":"levelo://app?vid=4c4fd5bf-edd1-4e64-bbba-8e4e3d30b47b"},"vehicle_type_id":"4","last_reported":1777565861,"current_range_meters":4400,"station_id":"","pricing_plan_id":"cebpf4jnsgd1na2vs0mg"},{"bike_id":"0ece5237-d0b7-46ff-ae1a-f219860d2053","system_id":"levelo_inurba_marseille","lat":43.303,"lon":5.39199,"is_reserved":false,"is_disabled":false,"rental_uris":{"android":"levelo://app?vid=0ece5237-d0b7-46ff-ae1a-f219860d2053","ios":"levelo://app?vid=0ece5237-d0b7-46ff-ae1a-f219860d2053"},"vehicle_type_id":"4","last_reported":1777565861,"current_range_meters":4800,"station_id":"ce4bgkh2rcd13ifvqbk0","pricing_plan_id":"cebpf4jnsgd1na2vs0mg"},{"bike_id":"7a4f9c5b-0770-4973-b065-ff441b4f0ec4","system_id":"levelo_inurba_marseille","lat":43.28903,"lon":5.42541,"is_reserved":false,"is_disabled":false,"rental_uris":{"android":"levelo://app?vid=7a4f9c5b-0770-4973-b065-ff441b4f0ec4","ios":"levelo://app?vid=7a4f9c5b-0770-4973-b065-ff441b4f0ec4"},"vehicle_type_id":"4","last_reported":1777565861,"current_range_meters":4800,"station_id":"st_d3b462108ojc7389ooeg","pricing_plan_id":"cebpf4jnsgd1na2vs0mg"},{"bike_id":"262fc285-b6eb-4eda-9ac1-639b6caaacc5","system_id":"levelo_inurba_marseille","lat":43.32371,"lon":5.36736,"is_reserved":false,"is_disabled":false,"rental_uris":{"android":"levelo://app?vid=262fc285-b6eb-4eda-9ac1-639b6caaacc5","ios":"levelo://app?vid=262fc285-b6eb-4eda-9ac1-639b6caaacc5"},"vehicle_type_id":"4","last_reported":1777565861,"current_range_meters":4800,"station_id":"ce4bhsh2rcd13ifvqi2g","pricing_plan_id":"cebpf4jnsgd1na2vs0mg"},{"bike_id":"d07790a6-1177-4853-b13a-00f44d831418","system_id":"levelo_inurba_marseille","lat":43.284815,"lon":5.38581,"is_reserved":false,"is_disabled":false,"rental_uris":{"android":"levelo://app?vid=d07790a6-1177-4853-b13a-00f44d831418","ios":"levelo://app?vid=d07790a6-1177-4853-b13a-00f44d831418"},"vehicle_type_id":"4","last_reported":1777565861,"current_range_meters":4800,"station_id":"ce4bh8p2rcd13ifvqeb0","pricing_plan_id":"cebpf4jnsgd1na2vs0mg"},{"bike_id":"8b10ce4e-94a1-493f-970e-8ffc96babf75","system_id":"levelo_inurba_marseille","lat":43.31232,"lon":5.3689,"is_reserved":false,"is_disabled":false,"rental_uris":{"android":"levelo://app?vid=8b10ce4e-94a1-493f-970e-8ffc96babf75","ios":"levelo://app?vid=8b10ce4e-94a1-493f-970e-8ffc96babf75"},"vehicle_type_id":"4","last_reported":1777565861,"current_range_meters":4800,"station_id":"ce4bgl92rcd13ifvqbq0","pricing_plan_id":"cebpf4jnsgd1na2vs0mg"},{"bike_id":"c1995dfc-3d7a-44a7-990d-b8343c1a3752","system_id":"levelo_inurba_marseille","lat":43.27378,"lon":5.36268,"is_reserved":false,"is_disabled":false,"rental_uris":{"android":"levelo://app?vid=c1995dfc-3d7a-44a7-990d-b8343c1a3752","ios":"levelo://app?vid=c1995dfc-3d7a-44a7-990d-b8343c1a3752"},"vehicle_type_id":"4","last_reported":1777565861,"current_range_meters":4800,"station_id":"ce4bhbh2rcd13ifvqeo0","pricing_plan_id":"cebpf4jnsgd1na2vs0mg"},{"bike_id":"cefbb474-553e-4985-a534-8b89b5df6fc8","system_id":"levelo_inurba_marseille","lat":43.27186,"lon":5.40992,"is_reserved":false,"is_disabled":true,"rental_uris":{"android":"levelo://app?vid=cefbb474-553e-4985-a534-8b89b5df6fc8","ios":"levelo://app?vid=cefbb474-553e-4985-a534-8b89b5df6fc8"},"vehicle_type_id":"4","last_reported":1777565861,"current_range_meters":4800,"station_id":"ce4bhl12rcd13ifvqgf0","pricing_plan_id":"cebpf4jnsgd1na2vs0mg"},{"bike_id":"5848fcf1-3e28-46d7-9218-d4dc6ebc4868","system_id":"levelo_inurba_marseille","lat":43.29534,"lon":5.38552,"is_reserved":false,"is_disabled":false,"rental_uris":{"android":"levelo://app?vid=5848fcf1-3e28-46d7-9218-d4dc6ebc4868","ios":"levelo://app?vid=5848fcf1-3e28-46d7-9218-d4dc6ebc4868"},"vehicle_type_id":"4","last_reported":1777565861,"current_range_meters":4800,"station_id":"ce4bgih2rcd13ifvqba0","pricing_plan_id":"cebpf4jnsgd1na2vs0mg"},{"bike_id":"68d834f3-724b-4808-b798-16cebea4203c","system_id":"levelo_inurba_marseille","lat":43.28705,"lon":5.39993,"is_reserved":false,"is_disabled":false,"rental_uris":{"android":"levelo://app?vid=68d834f3-724b-4808-b798-16cebea4203c","ios":"levelo://app?vid=68d834f3-724b-4808-b798-16cebea4203c"},"vehicle_type_id":"4","last_reported":1777565861,"current_range_meters":4800,"station_id":"ce4bho92rcd13ifvqh3g","pricing_plan_id":"cebpf4jnsgd1na2vs0mg"},{"bike_id":"26335112-9b2a-4a27-9ec1-b93b9cc755ad","system_id":"levelo_inurba_marseille","lat":43.30869,"lon":5.41888,"is_reserved":false,"is_disabled":false,"rental_uris":{"android":"levelo://app?vid=26335112-9b2a-4a27-9ec1-b93b9cc755ad","ios":"levelo://app?vid=26335112-9b2a-4a27-9ec1-b93b9cc755ad"},"vehicle_type_id":"4","last_reported":1777565861,"current_range_meters":4800,"station_id":"","pricing_plan_id":"cebpf4jnsgd1na2vs0mg"},{"bike_id":"c2113cdb-7bc5-496b-ae16-d7d758fadeb5","system_id":"levelo_inurba_marseille","lat":43.3315,"lon":5.37759,"is_reserved":false,"is_disabled":false,"rental_uris":{"android":"levelo://app?vid=c2113cdb-7bc5-496b-ae16-d7d758fadeb5","ios":"levelo://app?vid=c2113cdb-7bc5-496b-ae16-d7d758fadeb5"},"vehicle_type_id":"4","last_reported":1777565861,"current_range_meters":4800,"station_id":"st_d46cu089ee8s73dldbu0","pricing_plan_id":"cebpf4jnsgd1na2vs0mg"},{"bike_id":"972bc264-c347-4e9b-8ee2-b11155a1a3e5","system_id":"levelo_inurba_marseille","lat":43.28938,"lon":5.39626,"is_reserved":false,"is_disabled":false,"rental_uris":{"android":"levelo://app?vid=972bc264-c347-4e9b-8ee2-b11155a1a3e5","ios":"levelo://app?vid=972bc264-c347-4e9b-8ee2-b11155a1a3e5"},"vehicle_type_id":"4","last_reported":1777565861,"current_range_meters":4800,"station_id":"ce4bh3h2rcd13ifvqdn0","pricing_plan_id":"cebpf4jnsgd1na2vs0mg"},{"bike_id":"60d77da4-6419-429b-9e7a-b2cf161a2f69","system_id":"levelo_inurba_marseille","lat":43.32642,"lon":5.39497,"is_reserved":false,"is_disabled":false,"rental_uris":{"android":"levelo://app?vid=60d77da4-6419-429b-9e7a-b2cf161a2f69","ios":"levelo://app?vid=60d77da4-6419-429b-9e7a-b2cf161a2f69"},"vehicle_type_id":"4","last_reported":1777565861,"current_range_meters":4800,"station_id":"","pricing_plan_id":"cebpf4jnsgd1na2vs0mg"},{"bike_id":"c836b09f-a666-4145-8191-473bc44c6a36","system_id":"levelo_inurba_marseille","lat":43.255772,"lon":5.382272,"is_reserved":false,"is_disabled":true,"rental_uris":{"android":"levelo://app?vid=c836b09f-a666-4145-8191-473bc44c6a36","ios":"levelo://app?vid=c836b09f-a666-4145-8191-473bc44c6a36"},"vehicle_type_id":"4","last_reported":1777565861,"current_range_meters":4800,"station_id":"ce4bhih2rcd13ifvqfs0","pricing_plan_id":"cebpf4jnsgd1na2vs0mg"},{"bike_id":"42a74b8f-b415-4c60-9814-d86941596430","system_id":"levelo_inurba_marseille","lat":43.29796,"lon":5.38102,"is_reserved":false,"is_disabled":false,"rental_uris":{"android":"levelo://app?vid=42a74b8f-b415-4c60-9814-d86941596430","ios":"levelo://app?vid=42a74b8f-b415-4c60-9814-d86941596430"},"vehicle_type_id":"4","last_reported":1777565861,"current_range_meters":4800,"station_id":"ce4bgip2rcd13ifvqbb0","pricing_plan_id":"cebpf4jnsgd1na2vs0mg"},{"bike_id":"7e94e704-5b14-47f5-83e7-8a9cb2783bf8","system_id":"levelo_inurba_marseille","lat":43.302995,"lon":5.392127,"is_reserved":false,"is_disabled":false,"rental_uris":{"android":"levelo://app?vid=7e94e704-5b14-47f5-83e7-8a9cb2783bf8","ios":"levelo://app?vid=7e94e704-5b14-47f5-83e7-8a9cb2783bf8"},"vehicle_type_id":"4","last_reported":1777565861,"current_range_meters":5600,"station_id":"ce4bgkh2rcd13ifvqbk0","pricing_plan_id":"cebpf4jnsgd1na2vs0mg"},{"bike_id":"6b640085-9c70-4148-8b30-9776604c60ea","system_id":"levelo_inurba_marseille","lat":43.269197,"lon":5.389127,"is_reserved":false,"is_disabled":false,"rental_uris":{"android":"levelo://app?vid=6b640085-9c70-4148-8b30-9776604c60ea","ios":"levelo://app?vid=6b640085-9c70-4148-8b30-9776604c60ea"},"vehicle_type_id":"4","last_reported":1777565861,"current_range_meters":5600,"station_id":"ce4bhhh2rcd13ifvqfl0","pricing_plan_id":"cebpf4jnsgd1na2vs0mg"},{"bike_id":"d97ed6ed-9254-4b2c-9752-a3aaf3378900","system_id":"levelo_inurba_marseille","lat":43.33562,"lon":5.37582,"is_reserved":false,"is_disabled":false,"rental_uris":{"android":"levelo://app?vid=d97ed6ed-9254-4b2c-9752-a3aaf3378900","ios":"levelo://app?vid=d97ed6ed-9254-4b2c-9752-a3aaf3378900"},"vehicle_type_id":"4","last_reported":1777565861,"current_range_meters":5600,"station_id":"","pricing_plan_id":"cebpf4jnsgd1na2vs0mg"},{"bike_id":"6002189b-17d9-496e-9468-3e28ba4c5775","system_id":"levelo_inurba_marseille","lat":43.29513,"lon":5.37511,"is_reserved":false,"is_disabled":true,"rental_uris":{"android":"levelo://app?vid=6002189b-17d9-496e-9468-3e28ba4c5775","ios":"levelo://app?vid=6002189b-17d9-496e-9468-3e28ba4c5775"},"vehicle_type_id":"4","last_reported":1777565861,"current_range_meters":5600,"station_id":"ce4bgkp2rcd13ifvqbmg","pricing_plan_id":"cebpf4jnsgd1na2vs0mg"},{"bike_id":"4a7572ac-2b6a-45c9-8f12-be26e558e7ad","system_id":"levelo_inurba_marseille","lat":43.25494,"lon":5.37651,"is_reserved":false,"is_disabled":false,"rental_uris":{"android":"levelo://app?vid=4a7572ac-2b6a-45c9-8f12-be26e558e7ad","ios":"levelo://app?vid=4a7572ac-2b6a-45c9-8f12-be26e558e7ad"},"vehicle_type_id":"4","last_reported":1777565861,"current_range_meters":5600,"station_id":"ce4bhh12rcd13ifvqff0","pricing_plan_id":"cebpf4jnsgd1na2vs0mg"},{"bike_id":"a5e5bbea-77e0-425d-a8c5-4686975466ed","system_id":"levelo_inurba_marseille","lat":43.24806,"lon":5.37463,"is_reserved":false,"is_disabled":false,"rental_uris":{"android":"levelo://app?vid=a5e5bbea-77e0-425d-a8c5-4686975466ed","ios":"levelo://app?vid=a5e5bbea-77e0-425d-a8c5-4686975466ed"},"vehicle_type_id":"4","last_reported":1777565861,"current_range_meters":5600,"station_id":"ce4bhgh2rcd13ifvqfb0","pricing_plan_id":"cebpf4jnsgd1na2vs0mg"},{"bike_id":"9898404d-c6a6-4666-a5f6-862413216f6f","system_id":"levelo_inurba_marseille","lat":43.28672,"lon":5.38657,"is_reserved":false,"is_disabled":false,"rental_uris":{"android":"levelo://app?vid=9898404d-c6a6-4666-a5f6-862413216f6f","ios":"levelo://app?vid=9898404d-c6a6-4666-a5f6-862413216f6f"},"vehicle_type_id":"4","last_reported":1777565861,"current_range_meters":5600,"station_id":"ce4bh492rcd13ifvqdug","pricing_plan_id":"cebpf4jnsgd1na2vs0mg"},{"bike_id":"d7a173d2-c770-46fa-b675-3b8f2b153df0","system_id":"levelo_inurba_marseille","lat":43.233989,"lon":5.412472,"is_reserved":false,"is_disabled":false,"rental_uris":{"android":"levelo://app?vid=d7a173d2-c770-46fa-b675-3b8f2b153df0","ios":"levelo://app?vid=d7a173d2-c770-46fa-b675-3b8f2b153df0"},"vehicle_type_id":"4","last_reported":1777565861,"current_range_meters":5600,"station_id":"st_d75pvndhf9lc73cqq3eg","pricing_plan_id":"cebpf4jnsgd1na2vs0mg"},{"bike_id":"a0a9d254-b031-4207-86f6-6444db13bc7b","system_id":"levelo_inurba_marseille","lat":43.29254,"lon":5.38435,"is_reserved":false,"is_disabled":false,"rental_uris":{"android":"levelo://app?vid=a0a9d254-b031-4207-86f6-6444db13bc7b","ios":"levelo://app?vid=a0a9d254-b031-4207-86f6-6444db13bc7b"},"vehicle_type_id":"4","last_reported":1777565861,"current_range_meters":6000,"station_id":"ce4bh692rcd13ifvqea0","pricing_plan_id":"cebpf4jnsgd1na2vs0mg"},{"bike_id":"46523cb2-6b8e-455f-9277-3808cf80d4d2","system_id":"levelo_inurba_marseille","lat":43.337444,"lon":5.374475,"is_reserved":false,"is_disabled":true,"rental_uris":{"android":"levelo://app?vid=46523cb2-6b8e-455f-9277-3808cf80d4d2","ios":"levelo://app?vid=46523cb2-6b8e-455f-9277-3808cf80d4d2"},"vehicle_type_id":"4","last_reported":1777565861,"current_range_meters":6000,"station_id":"","pricing_plan_id":"cebpf4jnsgd1na2vs0mg"},{"bike_id":"44eeb51c-3de4-4b78-b371-fc2157b2d51f","system_id":"levelo_inurba_marseille","lat":43.23387,"lon":5.41258,"is_reserved":false,"is_disabled":false,"rental_uris":{"android":"levelo://app?vid=44eeb51c-3de4-4b78-b371-fc2157b2d51f","ios":"levelo://app?vid=44eeb51c-3de4-4b78-b371-fc2157b2d51f"},"vehicle_type_id":"4","last_reported":1777565861,"current_range_meters":6000,"station_id":"st_d75pvndhf9lc73cqq3eg","pricing_plan_id":"cebpf4jnsgd1na2vs0mg"},{"bike_id":"c10e9ddb-36f4-40a9-a01e-246729b8793e","system_id":"levelo_inurba_marseille","lat":43.23387,"lon":5.41242,"is_reserved":false,"is_disabled":false,"rental_uris":{"android":"levelo://app?vid=c10e9ddb-36f4-40a9-a01e-246729b8793e","ios":"levelo://app?vid=c10e9ddb-36f4-40a9-a01e-246729b8793e"},"vehicle_type_id":"4","last_reported":1777565861,"current_range_meters":6000,"station_id":"st_d75pvndhf9lc73cqq3eg","pricing_plan_id":"cebpf4jnsgd1na2vs0mg"},{"bike_id":"64f90d89-068d-427f-82d4-a317d806642f","system_id":"levelo_inurba_marseille","lat":43.29528,"lon":5.39047,"is_reserved":false,"is_disabled":false,"rental_uris":{"android":"levelo://app?vid=64f90d89-068d-427f-82d4-a317d806642f","ios":"levelo://app?vid=64f90d89-068d-427f-82d4-a317d806642f"},"vehicle_type_id":"4","last_reported":1777565861,"current_range_meters":6000,"station_id":"ce4bh3p2rcd13ifvqdp0","pricing_plan_id":"cebpf4jnsgd1na2vs0mg"},{"bike_id":"efeb5fc7-7c46-495a-9675-41fa180a9d3a","system_id":"levelo_inurba_marseille","lat":43.24659,"lon":5.38933,"is_reserved":false,"is_disabled":false,"rental_uris":{"android":"levelo://app?vid=efeb5fc7-7c46-495a-9675-41fa180a9d3a","ios":"levelo://app?vid=efeb5fc7-7c46-495a-9675-41fa180a9d3a"},"vehicle_type_id":"4","last_reported":1777565861,"current_range_meters":6000,"station_id":"ce4bhg12rcd13ifvqf60","pricing_plan_id":"cebpf4jnsgd1na2vs0mg"},{"bike_id":"1779c4c0-f603-47b9-af0e-89fb3b794de1","system_id":"levelo_inurba_marseille","lat":43.23184,"lon":5.40017,"is_reserved":false,"is_disabled":false,"rental_uris":{"android":"levelo://app?vid=1779c4c0-f603-47b9-af0e-89fb3b794de1","ios":"levelo://app?vid=1779c4c0-f603-47b9-af0e-89fb3b794de1"},"vehicle_type_id":"4","last_reported":1777565861,"current_range_meters":6000,"station_id":"ce4bhn12rcd13ifvqgqg","pricing_plan_id":"cebpf4jnsgd1na2vs0mg"},{"bike_id":"a1aedc96-cb1a-422f-9edd-0baad6a92cb5","system_id":"levelo_inurba_marseille","lat":43.30287,"lon":5.37707,"is_reserved":false,"is_disabled":false,"rental_uris":{"android":"levelo://app?vid=a1aedc96-cb1a-422f-9edd-0baad6a92cb5","ios":"levelo://app?vid=a1aedc96-cb1a-422f-9edd-0baad6a92cb5"},"vehicle_type_id":"4","last_reported":1777565861,"current_range_meters":6000,"station_id":"ce4bguh2rcd13ifvqcj0","pricing_plan_id":"cebpf4jnsgd1na2vs0mg"},{"bike_id":"33623f3a-0ea5-4d0b-9764-e10da8b1fa99","system_id":"levelo_inurba_marseille","lat":43.3129,"lon":5.36919,"is_reserved":false,"is_disabled":false,"rental_uris":{"android":"levelo://app?vid=33623f3a-0ea5-4d0b-9764-e10da8b1fa99","ios":"levelo://app?vid=33623f3a-0ea5-4d0b-9764-e10da8b1fa99"},"vehicle_type_id":"4","last_reported":1777565861,"current_range_meters":6000,"station_id":"","pricing_plan_id":"cebpf4jnsgd1na2vs0mg"},{"bike_id":"6dd67634-0c70-44fa-a24d-07b97de6d848","system_id":"levelo_inurba_marseille","lat":43.29526,"lon":5.37505,"is_reserved":false,"is_disabled":false,"rental_uris":{"android":"levelo://app?vid=6dd67634-0c70-44fa-a24d-07b97de6d848","ios":"levelo://app?vid=6dd67634-0c70-44fa-a24d-07b97de6d848"},"vehicle_type_id":"4","last_reported":1777565861,"current_range_meters":6000,"station_id":"ce4bgkp2rcd13ifvqbmg","pricing_plan_id":"cebpf4jnsgd1na2vs0mg"},{"bike_id":"dbc66b17-9be3-42d4-8f7c-4fc3a0ecbafc","system_id":"levelo_inurba_marseille","lat":43.302518,"lon":5.400492,"is_reserved":false,"is_disabled":false,"rental_uris":{"android":"levelo://app?vid=dbc66b17-9be3-42d4-8f7c-4fc3a0ecbafc","ios":"levelo://app?vid=dbc66b17-9be3-42d4-8f7c-4fc3a0ecbafc"},"vehicle_type_id":"4","last_reported":1777565861,"current_range_meters":6000,"station_id":"ce4bgvh2rcd13ifvqcs0","pricing_plan_id":"cebpf4jnsgd1na2vs0mg"},{"bike_id":"dd649e74-ed5e-4ce6-b6fc-191746436a7b","system_id":"levelo_inurba_marseille","lat":43.2508,"lon":5.42489,"is_reserved":false,"is_disabled":false,"rental_uris":{"android":"levelo://app?vid=dd649e74-ed5e-4ce6-b6fc-191746436a7b","ios":"levelo://app?vid=dd649e74-ed5e-4ce6-b6fc-191746436a7b"},"vehicle_type_id":"4","last_reported":1777565861,"current_range_meters":6000,"station_id":"","pricing_plan_id":"cebpf4jnsgd1na2vs0mg"},{"bike_id":"410f772c-58c8-4d8c-93c3-1f7b985a21ff","system_id":"levelo_inurba_marseille","lat":43.28844,"lon":5.39336,"is_reserved":false,"is_disabled":false,"rental_uris":{"android":"levelo://app?vid=410f772c-58c8-4d8c-93c3-1f7b985a21ff","ios":"levelo://app?vid=410f772c-58c8-4d8c-93c3-1f7b985a21ff"},"vehicle_type_id":"4","last_reported":1777565861,"current_range_meters":6000,"station_id":"ce4bh2p2rcd13ifvqdi0","pricing_plan_id":"cebpf4jnsgd1na2vs0mg"},{"bike_id":"9b171422-a10e-441a-8d08-0b74298acb49","system_id":"levelo_inurba_marseille","lat":43.28606,"lon":5.37081,"is_reserved":false,"is_disabled":false,"rental_uris":{"android":"levelo://app?vid=9b171422-a10e-441a-8d08-0b74298acb49","ios":"levelo://app?vid=9b171422-a10e-441a-8d08-0b74298acb49"},"vehicle_type_id":"4","last_reported":1777565861,"current_range_meters":6000,"station_id":"ce4bht12rcd13ifvqi60","pricing_plan_id":"cebpf4jnsgd1na2vs0mg"},{"bike_id":"79ae65ea-eb1d-49f2-b168-b7f1f753b15d","system_id":"levelo_inurba_marseille","lat":43.284859,"lon":5.385598,"is_reserved":false,"is_disabled":false,"rental_uris":{"android":"levelo://app?vid=79ae65ea-eb1d-49f2-b168-b7f1f753b15d","ios":"levelo://app?vid=79ae65ea-eb1d-49f2-b168-b7f1f753b15d"},"vehicle_type_id":"4","last_reported":1777565861,"current_range_meters":6000,"station_id":"ce4bh8p2rcd13ifvqeb0","pricing_plan_id":"cebpf4jnsgd1na2vs0mg"},{"bike_id":"aa1066a2-52ee-4b5e-9ea8-f5bfb38bf0a4","system_id":"levelo_inurba_marseille","lat":43.3234,"lon":5.36743,"is_reserved":false,"is_disabled":false,"rental_uris":{"android":"levelo://app?vid=aa1066a2-52ee-4b5e-9ea8-f5bfb38bf0a4","ios":"levelo://app?vid=aa1066a2-52ee-4b5e-9ea8-f5bfb38bf0a4"},"vehicle_type_id":"4","last_reported":1777565861,"current_range_meters":6400,"station_id":"ce4bhsh2rcd13ifvqi2g","pricing_plan_id":"cebpf4jnsgd1na2vs0mg"},{"bike_id":"c2d3c152-eef5-44bd-9f72-ff670f052999","system_id":"levelo_inurba_marseille","lat":43.25573,"lon":5.38227,"is_reserved":false,"is_disabled":false,"rental_uris":{"android":"levelo://app?vid=c2d3c152-eef5-44bd-9f72-ff670f052999","ios":"levelo://app?vid=c2d3c152-eef5-44bd-9f72-ff670f052999"},"vehicle_type_id":"4","last_reported":1777565861,"current_range_meters":6400,"station_id":"ce4bhih2rcd13ifvqfs0","pricing_plan_id":"cebpf4jnsgd1na2vs0mg"},{"bike_id":"548fdd17-60a3-461c-85b6-1f80e7bb6f07","system_id":"levelo_inurba_marseille","lat":43.29633,"lon":5.39475,"is_reserved":false,"is_disabled":false,"rental_uris":{"android":"levelo://app?vid=548fdd17-60a3-461c-85b6-1f80e7bb6f07","ios":"levelo://app?vid=548fdd17-60a3-461c-85b6-1f80e7bb6f07"},"vehicle_type_id":"4","last_reported":1777565861,"current_range_meters":6400,"station_id":"","pricing_plan_id":"cebpf4jnsgd1na2vs0mg"},{"bike_id":"85a4486b-b0cc-4853-986a-fd219467d809","system_id":"levelo_inurba_marseille","lat":43.28703,"lon":5.37398,"is_reserved":false,"is_disabled":false,"rental_uris":{"android":"levelo://app?vid=85a4486b-b0cc-4853-986a-fd219467d809","ios":"levelo://app?vid=85a4486b-b0cc-4853-986a-fd219467d809"},"vehicle_type_id":"4","last_reported":1777565861,"current_range_meters":6400,"station_id":"ce4bh3p2rcd13ifvqdq0","pricing_plan_id":"cebpf4jnsgd1na2vs0mg"},{"bike_id":"1e8beb3a-0176-445f-8748-2136888f67b2","system_id":"levelo_inurba_marseille","lat":43.29806,"lon":5.38094,"is_reserved":false,"is_disabled":false,"rental_uris":{"android":"levelo://app?vid=1e8beb3a-0176-445f-8748-2136888f67b2","ios":"levelo://app?vid=1e8beb3a-0176-445f-8748-2136888f67b2"},"vehicle_type_id":"4","last_reported":1777565861,"current_range_meters":6400,"station_id":"ce4bgip2rcd13ifvqbb0","pricing_plan_id":"cebpf4jnsgd1na2vs0mg"},{"bike_id":"2d488803-0d02-4aaa-aeb5-98fb547075a3","system_id":"levelo_inurba_marseille","lat":43.31727,"lon":5.42398,"is_reserved":false,"is_disabled":false,"rental_uris":{"android":"levelo://app?vid=2d488803-0d02-4aaa-aeb5-98fb547075a3","ios":"levelo://app?vid=2d488803-0d02-4aaa-aeb5-98fb547075a3"},"vehicle_type_id":"4","last_reported":1777565861,"current_range_meters":6400,"station_id":"ce4bhp92rcd13ifvqhbg","pricing_plan_id":"cebpf4jnsgd1na2vs0mg"},{"bike_id":"76b76a5a-e9c0-44f3-94af-8de1a567c89d","system_id":"levelo_inurba_marseille","lat":43.22535,"lon":5.34839,"is_reserved":false,"is_disabled":false,"rental_uris":{"android":"levelo://app?vid=76b76a5a-e9c0-44f3-94af-8de1a567c89d","ios":"levelo://app?vid=76b76a5a-e9c0-44f3-94af-8de1a567c89d"},"vehicle_type_id":"4","last_reported":1777565861,"current_range_meters":6400,"station_id":"st_cvj5dfep6f1abm77gieg","pricing_plan_id":"cebpf4jnsgd1na2vs0mg"},{"bike_id":"be9d4d52-de73-4a91-8a55-25555f9de1f2","system_id":"levelo_inurba_marseille","lat":43.29912,"lon":5.37489,"is_reserved":false,"is_disabled":false,"rental_uris":{"android":"levelo://app?vid=be9d4d52-de73-4a91-8a55-25555f9de1f2","ios":"levelo://app?vid=be9d4d52-de73-4a91-8a55-25555f9de1f2"},"vehicle_type_id":"4","last_reported":1777565861,"current_range_meters":6800,"station_id":"ce4bgjh2rcd13ifvqbg0","pricing_plan_id":"cebpf4jnsgd1na2vs0mg"},{"bike_id":"9ac79960-6ea7-499d-96a2-8173e74749ce","system_id":"levelo_inurba_marseille","lat":43.32486,"lon":5.36569,"is_reserved":false,"is_disabled":false,"rental_uris":{"android":"levelo://app?vid=9ac79960-6ea7-499d-96a2-8173e74749ce","ios":"levelo://app?vid=9ac79960-6ea7-499d-96a2-8173e74749ce"},"vehicle_type_id":"4","last_reported":1777565861,"current_range_meters":6800,"station_id":"ce4bhs12rcd13ifvqhvg","pricing_plan_id":"cebpf4jnsgd1na2vs0mg"},{"bike_id":"b99d6fe4-b8e7-4ae2-a227-dc144b9f45f9","system_id":"levelo_inurba_marseille","lat":43.29169,"lon":5.38595,"is_reserved":false,"is_disabled":false,"rental_uris":{"android":"levelo://app?vid=b99d6fe4-b8e7-4ae2-a227-dc144b9f45f9","ios":"levelo://app?vid=b99d6fe4-b8e7-4ae2-a227-dc144b9f45f9"},"vehicle_type_id":"4","last_reported":1777565861,"current_range_meters":6800,"station_id":"","pricing_plan_id":"cebpf4jnsgd1na2vs0mg"},{"bike_id":"b04a4ab1-ad02-4ba9-8c98-bd93ea2b5a7b","system_id":"levelo_inurba_marseille","lat":43.32087,"lon":5.43407,"is_reserved":false,"is_disabled":false,"rental_uris":{"android":"levelo://app?vid=b04a4ab1-ad02-4ba9-8c98-bd93ea2b5a7b","ios":"levelo://app?vid=b04a4ab1-ad02-4ba9-8c98-bd93ea2b5a7b"},"vehicle_type_id":"4","last_reported":1777565861,"current_range_meters":6800,"station_id":"","pricing_plan_id":"cebpf4jnsgd1na2vs0mg"},{"bike_id":"36c8547f-95b1-4380-b750-6eecdebe636e","system_id":"levelo_inurba_marseille","lat":43.29503,"lon":5.39384,"is_reserved":false,"is_disabled":false,"rental_uris":{"android":"levelo://app?vid=36c8547f-95b1-4380-b750-6eecdebe636e","ios":"levelo://app?vid=36c8547f-95b1-4380-b750-6eecdebe636e"},"vehicle_type_id":"4","last_reported":1777565861,"current_range_meters":6800,"station_id":"ce4bh292rcd13ifvqdf0","pricing_plan_id":"cebpf4jnsgd1na2vs0mg"},{"bike_id":"91678251-0dc2-4a32-950d-1cd81af8140a","system_id":"levelo_inurba_marseille","lat":43.30189,"lon":5.36613,"is_reserved":false,"is_disabled":false,"rental_uris":{"android":"levelo://app?vid=91678251-0dc2-4a32-950d-1cd81af8140a","ios":"levelo://app?vid=91678251-0dc2-4a32-950d-1cd81af8140a"},"vehicle_type_id":"4","last_reported":1777565861,"current_range_meters":6800,"station_id":"ce4bgrh2rcd13ifvqc8g","pricing_plan_id":"cebpf4jnsgd1na2vs0mg"},{"bike_id":"a2a694ab-bd57-45a8-a651-048e4cefae01","system_id":"levelo_inurba_marseille","lat":43.28706,"lon":5.46674,"is_reserved":false,"is_disabled":false,"rental_uris":{"android":"levelo://app?vid=a2a694ab-bd57-45a8-a651-048e4cefae01","ios":"levelo://app?vid=a2a694ab-bd57-45a8-a651-048e4cefae01"},"vehicle_type_id":"4","last_reported":1777565861,"current_range_meters":6800,"station_id":"st_d6tc3vkotcvc738tfjhg","pricing_plan_id":"cebpf4jnsgd1na2vs0mg"},{"bike_id":"924e35bf-3135-43ec-895e-fea5a261cccc","system_id":"levelo_inurba_marseille","lat":43.26791,"lon":5.39414,"is_reserved":false,"is_disabled":false,"rental_uris":{"android":"levelo://app?vid=924e35bf-3135-43ec-895e-fea5a261cccc","ios":"levelo://app?vid=924e35bf-3135-43ec-895e-fea5a261cccc"},"vehicle_type_id":"4","last_reported":1777565861,"current_range_meters":6800,"station_id":"ce4bhh12rcd13ifvqfg0","pricing_plan_id":"cebpf4jnsgd1na2vs0mg"},{"bike_id":"6df53965-3cb8-4b0e-a03e-9df96f1f392b","system_id":"levelo_inurba_marseille","lat":43.28667,"lon":5.36353,"is_reserved":false,"is_disabled":false,"rental_uris":{"android":"levelo://app?vid=6df53965-3cb8-4b0e-a03e-9df96f1f392b","ios":"levelo://app?vid=6df53965-3cb8-4b0e-a03e-9df96f1f392b"},"vehicle_type_id":"4","last_reported":1777565861,"current_range_meters":6800,"station_id":"ce4bhah2rcd13ifvqej0","pricing_plan_id":"cebpf4jnsgd1na2vs0mg"},{"bike_id":"96c1677c-ba34-44c4-b8f0-676f4f85c27f","system_id":"levelo_inurba_marseille","lat":43.29462,"lon":5.38813,"is_reserved":false,"is_disabled":false,"rental_uris":{"android":"levelo://app?vid=96c1677c-ba34-44c4-b8f0-676f4f85c27f","ios":"levelo://app?vid=96c1677c-ba34-44c4-b8f0-676f4f85c27f"},"vehicle_type_id":"4","last_reported":1777565861,"current_range_meters":6800,"station_id":"","pricing_plan_id":"cebpf4jnsgd1na2vs0mg"},{"bike_id":"021651d2-4c60-4088-a359-b9197bac101e","system_id":"levelo_inurba_marseille","lat":43.29755,"lon":5.37941,"is_reserved":false,"is_disabled":false,"rental_uris":{"android":"levelo://app?vid=021651d2-4c60-4088-a359-b9197bac101e","ios":"levelo://app?vid=021651d2-4c60-4088-a359-b9197bac101e"},"vehicle_type_id":"4","last_reported":1777565861,"current_range_meters":6800,"station_id":"","pricing_plan_id":"cebpf4jnsgd1na2vs0mg"},{"bike_id":"69af4d4b-f37e-4054-8bc6-9fcd27e0423b","system_id":"levelo_inurba_marseille","lat":43.23205,"lon":5.3555,"is_reserved":false,"is_disabled":false,"rental_uris":{"android":"levelo://app?vid=69af4d4b-f37e-4054-8bc6-9fcd27e0423b","ios":"levelo://app?vid=69af4d4b-f37e-4054-8bc6-9fcd27e0423b"},"vehicle_type_id":"4","last_reported":1777565861,"current_range_meters":6800,"station_id":"ce4bhu92rcd13ifvqi70","pricing_plan_id":"cebpf4jnsgd1na2vs0mg"},{"bike_id":"87cc1efb-599b-469b-aeb5-213a2bf0fd55","system_id":"levelo_inurba_marseille","lat":43.287,"lon":5.3999,"is_reserved":false,"is_disabled":false,"rental_uris":{"android":"levelo://app?vid=87cc1efb-599b-469b-aeb5-213a2bf0fd55","ios":"levelo://app?vid=87cc1efb-599b-469b-aeb5-213a2bf0fd55"},"vehicle_type_id":"4","last_reported":1777565861,"current_range_meters":6800,"station_id":"ce4bho92rcd13ifvqh3g","pricing_plan_id":"cebpf4jnsgd1na2vs0mg"},{"bike_id":"2db651d7-7b81-464a-bb48-581bf1e0c30d","system_id":"levelo_inurba_marseille","lat":43.24059,"lon":5.37791,"is_reserved":false,"is_disabled":false,"rental_uris":{"android":"levelo://app?vid=2db651d7-7b81-464a-bb48-581bf1e0c30d","ios":"levelo://app?vid=2db651d7-7b81-464a-bb48-581bf1e0c30d"},"vehicle_type_id":"4","last_reported":1777565861,"current_range_meters":7200,"station_id":"ce4bhnp2rcd13ifvqgvg","pricing_plan_id":"cebpf4jnsgd1na2vs0mg"},{"bike_id":"9699bc52-c51a-4b7e-a7f4-0bb3622146c2","system_id":"levelo_inurba_marseille","lat":43.25106,"lon":5.40324,"is_reserved":false,"is_disabled":false,"rental_uris":{"android":"levelo://app?vid=9699bc52-c51a-4b7e-a7f4-0bb3622146c2","ios":"levelo://app?vid=9699bc52-c51a-4b7e-a7f4-0bb3622146c2"},"vehicle_type_id":"4","last_reported":1777565861,"current_range_meters":7200,"station_id":"ce4bhlh2rcd13ifvqgig","pricing_plan_id":"cebpf4jnsgd1na2vs0mg"},{"bike_id":"302b4e6a-eba9-41f9-8571-6961b95f12e7","system_id":"levelo_inurba_marseille","lat":43.24947,"lon":5.40493,"is_reserved":false,"is_disabled":false,"rental_uris":{"android":"levelo://app?vid=302b4e6a-eba9-41f9-8571-6961b95f12e7","ios":"levelo://app?vid=302b4e6a-eba9-41f9-8571-6961b95f12e7"},"vehicle_type_id":"4","last_reported":1777565861,"current_range_meters":7200,"station_id":"st_d2ngiaodas8pm72gd1h0","pricing_plan_id":"cebpf4jnsgd1na2vs0mg"},{"bike_id":"9c85ea94-e0db-4d3e-baca-fa152ee440d3","system_id":"levelo_inurba_marseille","lat":43.25595,"lon":5.38247,"is_reserved":false,"is_disabled":false,"rental_uris":{"android":"levelo://app?vid=9c85ea94-e0db-4d3e-baca-fa152ee440d3","ios":"levelo://app?vid=9c85ea94-e0db-4d3e-baca-fa152ee440d3"},"vehicle_type_id":"4","last_reported":1777565861,"current_range_meters":7200,"station_id":"ce4bhih2rcd13ifvqfs0","pricing_plan_id":"cebpf4jnsgd1na2vs0mg"},{"bike_id":"95f47514-1d7f-4013-95fe-a0916f7cc45a","system_id":"levelo_inurba_marseille","lat":43.33506,"lon":5.3741,"is_reserved":false,"is_disabled":false,"rental_uris":{"android":"levelo://app?vid=95f47514-1d7f-4013-95fe-a0916f7cc45a","ios":"levelo://app?vid=95f47514-1d7f-4013-95fe-a0916f7cc45a"},"vehicle_type_id":"4","last_reported":1777565861,"current_range_meters":7200,"station_id":"","pricing_plan_id":"cebpf4jnsgd1na2vs0mg"},{"bike_id":"a5169939-c7ae-4b36-a3b7-8f3251554934","system_id":"levelo_inurba_marseille","lat":43.308245,"lon":5.394667,"is_reserved":false,"is_disabled":false,"rental_uris":{"android":"levelo://app?vid=a5169939-c7ae-4b36-a3b7-8f3251554934","ios":"levelo://app?vid=a5169939-c7ae-4b36-a3b7-8f3251554934"},"vehicle_type_id":"4","last_reported":1777565861,"current_range_meters":7200,"station_id":"ce4bgt12rcd13ifvqce0","pricing_plan_id":"cebpf4jnsgd1na2vs0mg"},{"bike_id":"95a0172e-a738-48a1-986c-02f194457eab","system_id":"levelo_inurba_marseille","lat":43.25499,"lon":5.3765,"is_reserved":false,"is_disabled":false,"rental_uris":{"android":"levelo://app?vid=95a0172e-a738-48a1-986c-02f194457eab","ios":"levelo://app?vid=95a0172e-a738-48a1-986c-02f194457eab"},"vehicle_type_id":"4","last_reported":1777565861,"current_range_meters":7200,"station_id":"ce4bhh12rcd13ifvqff0","pricing_plan_id":"cebpf4jnsgd1na2vs0mg"},{"bike_id":"c76a4b5d-7caf-4e63-804a-3df554f9e335","system_id":"levelo_inurba_marseille","lat":43.30122,"lon":5.3988,"is_reserved":false,"is_disabled":true,"rental_uris":{"android":"levelo://app?vid=c76a4b5d-7caf-4e63-804a-3df554f9e335","ios":"levelo://app?vid=c76a4b5d-7caf-4e63-804a-3df554f9e335"},"vehicle_type_id":"4","last_reported":1777565861,"current_range_meters":7200,"station_id":"ce4bh0h2rcd13ifvqd40","pricing_plan_id":"cebpf4jnsgd1na2vs0mg"},{"bike_id":"0195b3a7-f19f-4649-864a-4c54bdc7ef80","system_id":"levelo_inurba_marseille","lat":43.337444,"lon":5.374475,"is_reserved":false,"is_disabled":false,"rental_uris":{"android":"levelo://app?vid=0195b3a7-f19f-4649-864a-4c54bdc7ef80","ios":"levelo://app?vid=0195b3a7-f19f-4649-864a-4c54bdc7ef80"},"vehicle_type_id":"4","last_reported":1777565861,"current_range_meters":7200,"station_id":"","pricing_plan_id":"cebpf4jnsgd1na2vs0mg"},{"bike_id":"7a633e62-8e2a-4255-8042-08f8509f447c","system_id":"levelo_inurba_marseille","lat":43.29506,"lon":5.39038,"is_reserved":false,"is_disabled":false,"rental_uris":{"android":"levelo://app?vid=7a633e62-8e2a-4255-8042-08f8509f447c","ios":"levelo://app?vid=7a633e62-8e2a-4255-8042-08f8509f447c"},"vehicle_type_id":"4","last_reported":1777565861,"current_range_meters":7200,"station_id":"ce4bh3p2rcd13ifvqdp0","pricing_plan_id":"cebpf4jnsgd1na2vs0mg"},{"bike_id":"447271ea-0128-4338-a23b-3521afd49ff4","system_id":"levelo_inurba_marseille","lat":43.265046,"lon":5.395374,"is_reserved":false,"is_disabled":false,"rental_uris":{"android":"levelo://app?vid=447271ea-0128-4338-a23b-3521afd49ff4","ios":"levelo://app?vid=447271ea-0128-4338-a23b-3521afd49ff4"},"vehicle_type_id":"4","last_reported":1777565861,"current_range_meters":7200,"station_id":"ce4bhi12rcd13ifvqfq0","pricing_plan_id":"cebpf4jnsgd1na2vs0mg"},{"bike_id":"e03574b8-8c95-4306-8f72-5067424c8039","system_id":"levelo_inurba_marseille","lat":43.30415,"lon":5.41281,"is_reserved":false,"is_disabled":false,"rental_uris":{"android":"levelo://app?vid=e03574b8-8c95-4306-8f72-5067424c8039","ios":"levelo://app?vid=e03574b8-8c95-4306-8f72-5067424c8039"},"vehicle_type_id":"4","last_reported":1777565861,"current_range_meters":7200,"station_id":"ce4bhop2rcd13ifvqh8g","pricing_plan_id":"cebpf4jnsgd1na2vs0mg"},{"bike_id":"2851870c-6d41-4ec1-a058-19bf7a519cdf","system_id":"levelo_inurba_marseille","lat":43.29301,"lon":5.37467,"is_reserved":false,"is_disabled":false,"rental_uris":{"android":"levelo://app?vid=2851870c-6d41-4ec1-a058-19bf7a519cdf","ios":"levelo://app?vid=2851870c-6d41-4ec1-a058-19bf7a519cdf"},"vehicle_type_id":"4","last_reported":1777565861,"current_range_meters":7200,"station_id":"ce4bgi12rcd13ifvqb70","pricing_plan_id":"cebpf4jnsgd1na2vs0mg"},{"bike_id":"55d0e824-b384-41e5-b23b-a8d2f621d541","system_id":"levelo_inurba_marseille","lat":43.33022,"lon":5.39043,"is_reserved":false,"is_disabled":false,"rental_uris":{"android":"levelo://app?vid=55d0e824-b384-41e5-b23b-a8d2f621d541","ios":"levelo://app?vid=55d0e824-b384-41e5-b23b-a8d2f621d541"},"vehicle_type_id":"4","last_reported":1777565861,"current_range_meters":7200,"station_id":"ce4bhr92rcd13ifvqhrg","pricing_plan_id":"cebpf4jnsgd1na2vs0mg"},{"bike_id":"d2d2e7f5-75cd-42b3-8b6f-6203421c9e06","system_id":"levelo_inurba_marseille","lat":43.29211,"lon":5.36056,"is_reserved":false,"is_disabled":true,"rental_uris":{"android":"levelo://app?vid=d2d2e7f5-75cd-42b3-8b6f-6203421c9e06","ios":"levelo://app?vid=d2d2e7f5-75cd-42b3-8b6f-6203421c9e06"},"vehicle_type_id":"4","last_reported":1777565861,"current_range_meters":7200,"station_id":"ce4bhbh2rcd13ifvqeqg","pricing_plan_id":"cebpf4jnsgd1na2vs0mg"},{"bike_id":"308c86a7-b52f-479d-a596-0ebd1bb15853","system_id":"levelo_inurba_marseille","lat":43.2719,"lon":5.41003,"is_reserved":false,"is_disabled":false,"rental_uris":{"android":"levelo://app?vid=308c86a7-b52f-479d-a596-0ebd1bb15853","ios":"levelo://app?vid=308c86a7-b52f-479d-a596-0ebd1bb15853"},"vehicle_type_id":"4","last_reported":1777565861,"current_range_meters":7200,"station_id":"ce4bhl12rcd13ifvqgf0","pricing_plan_id":"cebpf4jnsgd1na2vs0mg"},{"bike_id":"7fd13eb4-6b4b-4218-8b5c-4bdd260be35d","system_id":"levelo_inurba_marseille","lat":43.29759,"lon":5.37715,"is_reserved":false,"is_disabled":false,"rental_uris":{"android":"levelo://app?vid=7fd13eb4-6b4b-4218-8b5c-4bdd260be35d","ios":"levelo://app?vid=7fd13eb4-6b4b-4218-8b5c-4bdd260be35d"},"vehicle_type_id":"4","last_reported":1777565861,"current_range_meters":7200,"station_id":"","pricing_plan_id":"cebpf4jnsgd1na2vs0mg"},{"bike_id":"50cc6683-a4a6-490d-87fd-8c2be5eaa529","system_id":"levelo_inurba_marseille","lat":43.27805,"lon":5.41525,"is_reserved":false,"is_disabled":false,"rental_uris":{"android":"levelo://app?vid=50cc6683-a4a6-490d-87fd-8c2be5eaa529","ios":"levelo://app?vid=50cc6683-a4a6-490d-87fd-8c2be5eaa529"},"vehicle_type_id":"4","last_reported":1777565861,"current_range_meters":7200,"station_id":"","pricing_plan_id":"cebpf4jnsgd1na2vs0mg"},{"bike_id":"d5cda9f5-de5e-48fd-b8fa-56c4fdce3a61","system_id":"levelo_inurba_marseille","lat":43.30474,"lon":5.36517,"is_reserved":false,"is_disabled":false,"rental_uris":{"android":"levelo://app?vid=d5cda9f5-de5e-48fd-b8fa-56c4fdce3a61","ios":"levelo://app?vid=d5cda9f5-de5e-48fd-b8fa-56c4fdce3a61"},"vehicle_type_id":"4","last_reported":1777565861,"current_range_meters":7200,"station_id":"","pricing_plan_id":"cebpf4jnsgd1na2vs0mg"},{"bike_id":"5db12ff0-f9b8-4efe-9262-61dc27561008","system_id":"levelo_inurba_marseille","lat":43.28472,"lon":5.38418,"is_reserved":false,"is_disabled":false,"rental_uris":{"android":"levelo://app?vid=5db12ff0-f9b8-4efe-9262-61dc27561008","ios":"levelo://app?vid=5db12ff0-f9b8-4efe-9262-61dc27561008"},"vehicle_type_id":"4","last_reported":1777565861,"current_range_meters":8000,"station_id":"ce4bh512rcd13ifvqe3g","pricing_plan_id":"cebpf4jnsgd1na2vs0mg"},{"bike_id":"fd48847e-8e33-4edb-89cd-7fc9cf95a563","system_id":"levelo_inurba_marseille","lat":43.29599,"lon":5.36758,"is_reserved":false,"is_disabled":false,"rental_uris":{"android":"levelo://app?vid=fd48847e-8e33-4edb-89cd-7fc9cf95a563","ios":"levelo://app?vid=fd48847e-8e33-4edb-89cd-7fc9cf95a563"},"vehicle_type_id":"4","last_reported":1777565861,"current_range_meters":8000,"station_id":"ce4bgph2rcd13ifvqc2g","pricing_plan_id":"cebpf4jnsgd1na2vs0mg"},{"bike_id":"40ba10b0-e205-4f2a-89a0-79edf2cbbc24","system_id":"levelo_inurba_marseille","lat":43.29505,"lon":5.38525,"is_reserved":false,"is_disabled":false,"rental_uris":{"android":"levelo://app?vid=40ba10b0-e205-4f2a-89a0-79edf2cbbc24","ios":"levelo://app?vid=40ba10b0-e205-4f2a-89a0-79edf2cbbc24"},"vehicle_type_id":"4","last_reported":1777565861,"current_range_meters":8000,"station_id":"ce4bgih2rcd13ifvqba0","pricing_plan_id":"cebpf4jnsgd1na2vs0mg"},{"bike_id":"d754a57a-bb28-4aad-8721-5e9b379ab6a9","system_id":"levelo_inurba_marseille","lat":43.28999,"lon":5.35601,"is_reserved":false,"is_disabled":false,"rental_uris":{"android":"levelo://app?vid=d754a57a-bb28-4aad-8721-5e9b379ab6a9","ios":"levelo://app?vid=d754a57a-bb28-4aad-8721-5e9b379ab6a9"},"vehicle_type_id":"4","last_reported":1777565861,"current_range_meters":8000,"station_id":"ce4bhb92rcd13ifvqen0","pricing_plan_id":"cebpf4jnsgd1na2vs0mg"},{"bike_id":"5b80e16c-1f87-44b0-bb58-ad90cb094a37","system_id":"levelo_inurba_marseille","lat":43.29877,"lon":5.42102,"is_reserved":false,"is_disabled":false,"rental_uris":{"android":"levelo://app?vid=5b80e16c-1f87-44b0-bb58-ad90cb094a37","ios":"levelo://app?vid=5b80e16c-1f87-44b0-bb58-ad90cb094a37"},"vehicle_type_id":"4","last_reported":1777565861,"current_range_meters":8000,"station_id":"st_d6tc004otcvc738tfe70","pricing_plan_id":"cebpf4jnsgd1na2vs0mg"},{"bike_id":"2ee1db26-54a9-4a38-974b-0eb0bbac894f","system_id":"levelo_inurba_marseille","lat":43.29599,"lon":5.381,"is_reserved":false,"is_disabled":true,"rental_uris":{"android":"levelo://app?vid=2ee1db26-54a9-4a38-974b-0eb0bbac894f","ios":"levelo://app?vid=2ee1db26-54a9-4a38-974b-0eb0bbac894f"},"vehicle_type_id":"4","last_reported":1777565861,"current_range_meters":8000,"station_id":"ce4bgl12rcd13ifvqbo0","pricing_plan_id":"cebpf4jnsgd1na2vs0mg"},{"bike_id":"2be240e9-4665-4ee2-a492-001c149e7b7d","system_id":"levelo_inurba_marseille","lat":43.27683,"lon":5.38898,"is_reserved":false,"is_disabled":false,"rental_uris":{"android":"levelo://app?vid=2be240e9-4665-4ee2-a492-001c149e7b7d","ios":"levelo://app?vid=2be240e9-4665-4ee2-a492-001c149e7b7d"},"vehicle_type_id":"4","last_reported":1777565861,"current_range_meters":8000,"station_id":"ce4bhi12rcd13ifvqfo0","pricing_plan_id":"cebpf4jnsgd1na2vs0mg"},{"bike_id":"ddd52344-1495-4596-92df-f6dd26b4534f","system_id":"levelo_inurba_marseille","lat":43.29789,"lon":5.37108,"is_reserved":false,"is_disabled":false,"rental_uris":{"android":"levelo://app?vid=ddd52344-1495-4596-92df-f6dd26b4534f","ios":"levelo://app?vid=ddd52344-1495-4596-92df-f6dd26b4534f"},"vehicle_type_id":"4","last_reported":1777565861,"current_range_meters":8000,"station_id":"ce4bgop2rcd13ifvqc1g","pricing_plan_id":"cebpf4jnsgd1na2vs0mg"},{"bike_id":"370e62ca-1bd5-4030-9bd7-6bf92ac3f77e","system_id":"levelo_inurba_marseille","lat":43.29624,"lon":5.37735,"is_reserved":false,"is_disabled":false,"rental_uris":{"android":"levelo://app?vid=370e62ca-1bd5-4030-9bd7-6bf92ac3f77e","ios":"levelo://app?vid=370e62ca-1bd5-4030-9bd7-6bf92ac3f77e"},"vehicle_type_id":"4","last_reported":1777565861,"current_range_meters":8000,"station_id":"ce4bgi92rcd13ifvqb90","pricing_plan_id":"cebpf4jnsgd1na2vs0mg"},{"bike_id":"5c8a254d-c206-45b2-be59-3316b240922d","system_id":"levelo_inurba_marseille","lat":43.30245,"lon":5.40028,"is_reserved":false,"is_disabled":false,"rental_uris":{"android":"levelo://app?vid=5c8a254d-c206-45b2-be59-3316b240922d","ios":"levelo://app?vid=5c8a254d-c206-45b2-be59-3316b240922d"},"vehicle_type_id":"4","last_reported":1777565861,"current_range_meters":8000,"station_id":"ce4bgvh2rcd13ifvqcs0","pricing_plan_id":"cebpf4jnsgd1na2vs0mg"},{"bike_id":"112a60e6-54bd-4322-b8fc-6abe9422ee3e","system_id":"levelo_inurba_marseille","lat":43.28863,"lon":5.39331,"is_reserved":false,"is_disabled":false,"rental_uris":{"android":"levelo://app?vid=112a60e6-54bd-4322-b8fc-6abe9422ee3e","ios":"levelo://app?vid=112a60e6-54bd-4322-b8fc-6abe9422ee3e"},"vehicle_type_id":"4","last_reported":1777565861,"current_range_meters":8000,"station_id":"ce4bh2p2rcd13ifvqdi0","pricing_plan_id":"cebpf4jnsgd1na2vs0mg"},{"bike_id":"bd381285-9688-4b86-bb58-500e4f0f2544","system_id":"levelo_inurba_marseille","lat":43.23324,"lon":5.39952,"is_reserved":false,"is_disabled":false,"rental_uris":{"android":"levelo://app?vid=bd381285-9688-4b86-bb58-500e4f0f2544","ios":"levelo://app?vid=bd381285-9688-4b86-bb58-500e4f0f2544"},"vehicle_type_id":"4","last_reported":1777565861,"current_range_meters":8000,"station_id":"","pricing_plan_id":"cebpf4jnsgd1na2vs0mg"},{"bike_id":"c7217e04-22e1-453c-a8e6-b3e617503565","system_id":"levelo_inurba_marseille","lat":43.30904,"lon":5.4164,"is_reserved":false,"is_disabled":false,"rental_uris":{"android":"levelo://app?vid=c7217e04-22e1-453c-a8e6-b3e617503565","ios":"levelo://app?vid=c7217e04-22e1-453c-a8e6-b3e617503565"},"vehicle_type_id":"4","last_reported":1777565861,"current_range_meters":8000,"station_id":"","pricing_plan_id":"cebpf4jnsgd1na2vs0mg"},{"bike_id":"8bc117da-0356-428e-bc05-aafd9e51b96a","system_id":"levelo_inurba_marseille","lat":43.28154,"lon":5.42656,"is_reserved":false,"is_disabled":false,"rental_uris":{"android":"levelo://app?vid=8bc117da-0356-428e-bc05-aafd9e51b96a","ios":"levelo://app?vid=8bc117da-0356-428e-bc05-aafd9e51b96a"},"vehicle_type_id":"4","last_reported":1777565861,"current_range_meters":8000,"station_id":"ce4bhnh2rcd13ifvqgug","pricing_plan_id":"cebpf4jnsgd1na2vs0mg"},{"bike_id":"35d52814-ee3c-4be4-acb1-0eb11971a1c7","system_id":"levelo_inurba_marseille","lat":43.29525,"lon":5.37491,"is_reserved":false,"is_disabled":false,"rental_uris":{"android":"levelo://app?vid=35d52814-ee3c-4be4-acb1-0eb11971a1c7","ios":"levelo://app?vid=35d52814-ee3c-4be4-acb1-0eb11971a1c7"},"vehicle_type_id":"4","last_reported":1777565861,"current_range_meters":8000,"station_id":"ce4bgkp2rcd13ifvqbmg","pricing_plan_id":"cebpf4jnsgd1na2vs0mg"},{"bike_id":"368d5396-dafa-493e-b98d-6e2ef22688af","system_id":"levelo_inurba_marseille","lat":43.29282,"lon":5.38448,"is_reserved":false,"is_disabled":false,"rental_uris":{"android":"levelo://app?vid=368d5396-dafa-493e-b98d-6e2ef22688af","ios":"levelo://app?vid=368d5396-dafa-493e-b98d-6e2ef22688af"},"vehicle_type_id":"4","last_reported":1777565861,"current_range_meters":8000,"station_id":"ce4bh692rcd13ifvqea0","pricing_plan_id":"cebpf4jnsgd1na2vs0mg"},{"bike_id":"8d264307-0460-4023-84fb-907a8402b42a","system_id":"levelo_inurba_marseille","lat":43.29518,"lon":5.39049,"is_reserved":false,"is_disabled":false,"rental_uris":{"android":"levelo://app?vid=8d264307-0460-4023-84fb-907a8402b42a","ios":"levelo://app?vid=8d264307-0460-4023-84fb-907a8402b42a"},"vehicle_type_id":"4","last_reported":1777565861,"current_range_meters":8400,"station_id":"ce4bh3p2rcd13ifvqdp0","pricing_plan_id":"cebpf4jnsgd1na2vs0mg"},{"bike_id":"335fc8dc-ad2f-4253-b0e2-b10d3d2d0173","system_id":"levelo_inurba_marseille","lat":43.28509,"lon":5.3855,"is_reserved":false,"is_disabled":true,"rental_uris":{"android":"levelo://app?vid=335fc8dc-ad2f-4253-b0e2-b10d3d2d0173","ios":"levelo://app?vid=335fc8dc-ad2f-4253-b0e2-b10d3d2d0173"},"vehicle_type_id":"4","last_reported":1777565861,"current_range_meters":8400,"station_id":"ce4bh8p2rcd13ifvqeb0","pricing_plan_id":"cebpf4jnsgd1na2vs0mg"},{"bike_id":"37728412-9808-4848-87a6-e43dab59174b","system_id":"levelo_inurba_marseille","lat":43.27201,"lon":5.40989,"is_reserved":false,"is_disabled":false,"rental_uris":{"android":"levelo://app?vid=37728412-9808-4848-87a6-e43dab59174b","ios":"levelo://app?vid=37728412-9808-4848-87a6-e43dab59174b"},"vehicle_type_id":"4","last_reported":1777565861,"current_range_meters":8400,"station_id":"ce4bhl12rcd13ifvqgf0","pricing_plan_id":"cebpf4jnsgd1na2vs0mg"},{"bike_id":"275f0e36-65c4-489f-bd62-ec5e03923f09","system_id":"levelo_inurba_marseille","lat":43.22569,"lon":5.41658,"is_reserved":false,"is_disabled":false,"rental_uris":{"android":"levelo://app?vid=275f0e36-65c4-489f-bd62-ec5e03923f09","ios":"levelo://app?vid=275f0e36-65c4-489f-bd62-ec5e03923f09"},"vehicle_type_id":"4","last_reported":1777565861,"current_range_meters":8400,"station_id":"st_d2o4gvlbi1j2169b742g","pricing_plan_id":"cebpf4jnsgd1na2vs0mg"},{"bike_id":"da675fd8-17e5-4c83-94c2-009e87728db4","system_id":"levelo_inurba_marseille","lat":43.2988,"lon":5.38902,"is_reserved":false,"is_disabled":false,"rental_uris":{"android":"levelo://app?vid=da675fd8-17e5-4c83-94c2-009e87728db4","ios":"levelo://app?vid=da675fd8-17e5-4c83-94c2-009e87728db4"},"vehicle_type_id":"4","last_reported":1777565861,"current_range_meters":8400,"station_id":"ce4bh392rcd13ifvqdl0","pricing_plan_id":"cebpf4jnsgd1na2vs0mg"},{"bike_id":"15ccd033-9a9c-47d6-a972-ff6689c29eee","system_id":"levelo_inurba_marseille","lat":43.32354,"lon":5.36774,"is_reserved":false,"is_disabled":false,"rental_uris":{"android":"levelo://app?vid=15ccd033-9a9c-47d6-a972-ff6689c29eee","ios":"levelo://app?vid=15ccd033-9a9c-47d6-a972-ff6689c29eee"},"vehicle_type_id":"4","last_reported":1777565861,"current_range_meters":8400,"station_id":"ce4bhsh2rcd13ifvqi2g","pricing_plan_id":"cebpf4jnsgd1na2vs0mg"},{"bike_id":"e0bbee11-0fca-47fd-9944-db11ca6713fb","system_id":"levelo_inurba_marseille","lat":43.29812,"lon":5.44068,"is_reserved":false,"is_disabled":false,"rental_uris":{"android":"levelo://app?vid=e0bbee11-0fca-47fd-9944-db11ca6713fb","ios":"levelo://app?vid=e0bbee11-0fca-47fd-9944-db11ca6713fb"},"vehicle_type_id":"4","last_reported":1777565861,"current_range_meters":8400,"station_id":"st_d3jp68qikq2c7381ktn0","pricing_plan_id":"cebpf4jnsgd1na2vs0mg"},{"bike_id":"65dcd980-6fe9-4c7d-822c-075ad32b715a","system_id":"levelo_inurba_marseille","lat":43.23799,"lon":5.36636,"is_reserved":false,"is_disabled":false,"rental_uris":{"android":"levelo://app?vid=65dcd980-6fe9-4c7d-822c-075ad32b715a","ios":"levelo://app?vid=65dcd980-6fe9-4c7d-822c-075ad32b715a"},"vehicle_type_id":"4","last_reported":1777565861,"current_range_meters":8400,"station_id":"st_d3nk18o9ro0c73en2l3g","pricing_plan_id":"cebpf4jnsgd1na2vs0mg"},{"bike_id":"41caa364-25fc-475f-9c53-97a6cb892a35","system_id":"levelo_inurba_marseille","lat":43.29975,"lon":5.38501,"is_reserved":false,"is_disabled":true,"rental_uris":{"android":"levelo://app?vid=41caa364-25fc-475f-9c53-97a6cb892a35","ios":"levelo://app?vid=41caa364-25fc-475f-9c53-97a6cb892a35"},"vehicle_type_id":"4","last_reported":1777565861,"current_range_meters":8400,"station_id":"ce4bgj92rcd13ifvqbd0","pricing_plan_id":"cebpf4jnsgd1na2vs0mg"},{"bike_id":"6986cfae-72ce-4817-8542-9bda78f43332","system_id":"levelo_inurba_marseille","lat":43.30888,"lon":5.39633,"is_reserved":false,"is_disabled":false,"rental_uris":{"android":"levelo://app?vid=6986cfae-72ce-4817-8542-9bda78f43332","ios":"levelo://app?vid=6986cfae-72ce-4817-8542-9bda78f43332"},"vehicle_type_id":"4","last_reported":1777565861,"current_range_meters":8400,"station_id":"ce4bh012rcd13ifvqcv0","pricing_plan_id":"cebpf4jnsgd1na2vs0mg"},{"bike_id":"b2b5924c-ae57-4d04-8872-ff1b2babdda2","system_id":"levelo_inurba_marseille","lat":43.29791,"lon":5.38067,"is_reserved":false,"is_disabled":false,"rental_uris":{"android":"levelo://app?vid=b2b5924c-ae57-4d04-8872-ff1b2babdda2","ios":"levelo://app?vid=b2b5924c-ae57-4d04-8872-ff1b2babdda2"},"vehicle_type_id":"4","last_reported":1777565861,"current_range_meters":8400,"station_id":"ce4bgip2rcd13ifvqbb0","pricing_plan_id":"cebpf4jnsgd1na2vs0mg"},{"bike_id":"f0c5a700-363f-4dfe-99b3-e6c87c7f3004","system_id":"levelo_inurba_marseille","lat":43.28607,"lon":5.39874,"is_reserved":false,"is_disabled":false,"rental_uris":{"android":"levelo://app?vid=f0c5a700-363f-4dfe-99b3-e6c87c7f3004","ios":"levelo://app?vid=f0c5a700-363f-4dfe-99b3-e6c87c7f3004"},"vehicle_type_id":"4","last_reported":1777565861,"current_range_meters":8400,"station_id":"st_d4a7ka997mjs738ck50g","pricing_plan_id":"cebpf4jnsgd1na2vs0mg"},{"bike_id":"5f2a60cf-05eb-435b-8b79-b6a4335c329d","system_id":"levelo_inurba_marseille","lat":43.30241,"lon":5.400376,"is_reserved":false,"is_disabled":false,"rental_uris":{"android":"levelo://app?vid=5f2a60cf-05eb-435b-8b79-b6a4335c329d","ios":"levelo://app?vid=5f2a60cf-05eb-435b-8b79-b6a4335c329d"},"vehicle_type_id":"4","last_reported":1777565861,"current_range_meters":8400,"station_id":"ce4bgvh2rcd13ifvqcs0","pricing_plan_id":"cebpf4jnsgd1na2vs0mg"},{"bike_id":"d5555d2c-756d-4594-84c9-7a47e33dbe78","system_id":"levelo_inurba_marseille","lat":43.27606,"lon":5.36158,"is_reserved":false,"is_disabled":false,"rental_uris":{"android":"levelo://app?vid=d5555d2c-756d-4594-84c9-7a47e33dbe78","ios":"levelo://app?vid=d5555d2c-756d-4594-84c9-7a47e33dbe78"},"vehicle_type_id":"4","last_reported":1777565861,"current_range_meters":8400,"station_id":"ce4bgj92rcd13ifvqbe0","pricing_plan_id":"cebpf4jnsgd1na2vs0mg"},{"bike_id":"4d26e890-9e5c-410e-98e4-5bf91a618030","system_id":"levelo_inurba_marseille","lat":43.25572,"lon":5.38242,"is_reserved":false,"is_disabled":false,"rental_uris":{"android":"levelo://app?vid=4d26e890-9e5c-410e-98e4-5bf91a618030","ios":"levelo://app?vid=4d26e890-9e5c-410e-98e4-5bf91a618030"},"vehicle_type_id":"4","last_reported":1777565861,"current_range_meters":8800,"station_id":"ce4bhih2rcd13ifvqfs0","pricing_plan_id":"cebpf4jnsgd1na2vs0mg"},{"bike_id":"be79beba-819c-44d6-94a4-9bfa2684e9fc","system_id":"levelo_inurba_marseille","lat":43.28278,"lon":5.35074,"is_reserved":false,"is_disabled":false,"rental_uris":{"android":"levelo://app?vid=be79beba-819c-44d6-94a4-9bfa2684e9fc","ios":"levelo://app?vid=be79beba-819c-44d6-94a4-9bfa2684e9fc"},"vehicle_type_id":"4","last_reported":1777565861,"current_range_meters":8800,"station_id":"ce4bhbp2rcd13ifvqerg","pricing_plan_id":"cebpf4jnsgd1na2vs0mg"},{"bike_id":"6d232a0e-f116-4caa-b7d8-4f9d4fab4a0b","system_id":"levelo_inurba_marseille","lat":43.3056,"lon":5.3654,"is_reserved":false,"is_disabled":true,"rental_uris":{"android":"levelo://app?vid=6d232a0e-f116-4caa-b7d8-4f9d4fab4a0b","ios":"levelo://app?vid=6d232a0e-f116-4caa-b7d8-4f9d4fab4a0b"},"vehicle_type_id":"4","last_reported":1777565861,"current_range_meters":8800,"station_id":"ce4bgs12rcd13ifvqcag","pricing_plan_id":"cebpf4jnsgd1na2vs0mg"},{"bike_id":"9730be44-8b9b-4ee9-82ea-bbc7cc1f457d","system_id":"levelo_inurba_marseille","lat":43.29538,"lon":5.38552,"is_reserved":false,"is_disabled":false,"rental_uris":{"android":"levelo://app?vid=9730be44-8b9b-4ee9-82ea-bbc7cc1f457d","ios":"levelo://app?vid=9730be44-8b9b-4ee9-82ea-bbc7cc1f457d"},"vehicle_type_id":"4","last_reported":1777565861,"current_range_meters":8800,"station_id":"ce4bgih2rcd13ifvqba0","pricing_plan_id":"cebpf4jnsgd1na2vs0mg"},{"bike_id":"1dc803a7-ca06-4b19-a122-1835a508b670","system_id":"levelo_inurba_marseille","lat":43.24166,"lon":5.364,"is_reserved":false,"is_disabled":false,"rental_uris":{"android":"levelo://app?vid=1dc803a7-ca06-4b19-a122-1835a508b670","ios":"levelo://app?vid=1dc803a7-ca06-4b19-a122-1835a508b670"},"vehicle_type_id":"4","last_reported":1777565861,"current_range_meters":8800,"station_id":"cpo36qri1sfpv3e86is0","pricing_plan_id":"cebpf4jnsgd1na2vs0mg"},{"bike_id":"e3d0e9d9-cbeb-4e7b-aa61-dfc4941f4180","system_id":"levelo_inurba_marseille","lat":43.32104,"lon":5.36778,"is_reserved":false,"is_disabled":false,"rental_uris":{"android":"levelo://app?vid=e3d0e9d9-cbeb-4e7b-aa61-dfc4941f4180","ios":"levelo://app?vid=e3d0e9d9-cbeb-4e7b-aa61-dfc4941f4180"},"vehicle_type_id":"4","last_reported":1777565861,"current_range_meters":8800,"station_id":"ce4bhrh2rcd13ifvqhug","pricing_plan_id":"cebpf4jnsgd1na2vs0mg"},{"bike_id":"55c062cb-7615-4a33-8fe1-e52517cd6d1e","system_id":"levelo_inurba_marseille","lat":43.30897,"lon":5.37197,"is_reserved":false,"is_disabled":false,"rental_uris":{"android":"levelo://app?vid=55c062cb-7615-4a33-8fe1-e52517cd6d1e","ios":"levelo://app?vid=55c062cb-7615-4a33-8fe1-e52517cd6d1e"},"vehicle_type_id":"4","last_reported":1777565861,"current_range_meters":8800,"station_id":"ce4bguh2rcd13ifvqckg","pricing_plan_id":"cebpf4jnsgd1na2vs0mg"},{"bike_id":"5719672b-6e96-43f1-891e-407b602a15ad","system_id":"levelo_inurba_marseille","lat":43.30916,"lon":5.40137,"is_reserved":false,"is_disabled":false,"rental_uris":{"android":"levelo://app?vid=5719672b-6e96-43f1-891e-407b602a15ad","ios":"levelo://app?vid=5719672b-6e96-43f1-891e-407b602a15ad"},"vehicle_type_id":"4","last_reported":1777565861,"current_range_meters":8800,"station_id":"ce4bgvp2rcd13ifvqct0","pricing_plan_id":"cebpf4jnsgd1na2vs0mg"},{"bike_id":"a5e387fa-49b5-4a17-a925-09d5f690af8f","system_id":"levelo_inurba_marseille","lat":43.32112,"lon":5.36776,"is_reserved":false,"is_disabled":false,"rental_uris":{"android":"levelo://app?vid=a5e387fa-49b5-4a17-a925-09d5f690af8f","ios":"levelo://app?vid=a5e387fa-49b5-4a17-a925-09d5f690af8f"},"vehicle_type_id":"4","last_reported":1777565861,"current_range_meters":8800,"station_id":"ce4bhrh2rcd13ifvqhug","pricing_plan_id":"cebpf4jnsgd1na2vs0mg"},{"bike_id":"dad5258d-6b08-4aa2-9c4b-46c686f357bc","system_id":"levelo_inurba_marseille","lat":43.25511,"lon":5.37659,"is_reserved":false,"is_disabled":false,"rental_uris":{"android":"levelo://app?vid=dad5258d-6b08-4aa2-9c4b-46c686f357bc","ios":"levelo://app?vid=dad5258d-6b08-4aa2-9c4b-46c686f357bc"},"vehicle_type_id":"4","last_reported":1777565861,"current_range_meters":8800,"station_id":"ce4bhh12rcd13ifvqff0","pricing_plan_id":"cebpf4jnsgd1na2vs0mg"},{"bike_id":"46611baa-2233-47d3-a307-4123f065b079","system_id":"levelo_inurba_marseille","lat":43.28482,"lon":5.48461,"is_reserved":false,"is_disabled":false,"rental_uris":{"android":"levelo://app?vid=46611baa-2233-47d3-a307-4123f065b079","ios":"levelo://app?vid=46611baa-2233-47d3-a307-4123f065b079"},"vehicle_type_id":"4","last_reported":1777565861,"current_range_meters":8800,"station_id":"st_d3svhcjqgbts73a3dn0g","pricing_plan_id":"cebpf4jnsgd1na2vs0mg"},{"bike_id":"e45fed4e-958e-4a0e-ad78-fec829a5e7b7","system_id":"levelo_inurba_marseille","lat":43.30912,"lon":5.40133,"is_reserved":false,"is_disabled":false,"rental_uris":{"android":"levelo://app?vid=e45fed4e-958e-4a0e-ad78-fec829a5e7b7","ios":"levelo://app?vid=e45fed4e-958e-4a0e-ad78-fec829a5e7b7"},"vehicle_type_id":"4","last_reported":1777565861,"current_range_meters":8800,"station_id":"ce4bgvp2rcd13ifvqct0","pricing_plan_id":"cebpf4jnsgd1na2vs0mg"},{"bike_id":"e018f895-5771-4f44-b64f-db1b733c0c56","system_id":"levelo_inurba_marseille","lat":43.23747,"lon":5.43066,"is_reserved":false,"is_disabled":false,"rental_uris":{"android":"levelo://app?vid=e018f895-5771-4f44-b64f-db1b733c0c56","ios":"levelo://app?vid=e018f895-5771-4f44-b64f-db1b733c0c56"},"vehicle_type_id":"4","last_reported":1777565861,"current_range_meters":8800,"station_id":"","pricing_plan_id":"cebpf4jnsgd1na2vs0mg"},{"bike_id":"d193cfeb-a038-436f-91b9-4221c91e3d89","system_id":"levelo_inurba_marseille","lat":43.27496,"lon":5.41578,"is_reserved":false,"is_disabled":true,"rental_uris":{"android":"levelo://app?vid=d193cfeb-a038-436f-91b9-4221c91e3d89","ios":"levelo://app?vid=d193cfeb-a038-436f-91b9-4221c91e3d89"},"vehicle_type_id":"4","last_reported":1777565861,"current_range_meters":8800,"station_id":"st_d6im8g6chgec73a5pndg","pricing_plan_id":"cebpf4jnsgd1na2vs0mg"},{"bike_id":"0114097f-635c-4b35-a17e-1cca641282e0","system_id":"levelo_inurba_marseille","lat":43.23192,"lon":5.35557,"is_reserved":false,"is_disabled":false,"rental_uris":{"android":"levelo://app?vid=0114097f-635c-4b35-a17e-1cca641282e0","ios":"levelo://app?vid=0114097f-635c-4b35-a17e-1cca641282e0"},"vehicle_type_id":"4","last_reported":1777565861,"current_range_meters":8800,"station_id":"ce4bhu92rcd13ifvqi70","pricing_plan_id":"cebpf4jnsgd1na2vs0mg"},{"bike_id":"cfbf3059-fd7e-4626-bbb7-f76607be3dd8","system_id":"levelo_inurba_marseille","lat":43.3053,"lon":5.36662,"is_reserved":false,"is_disabled":true,"rental_uris":{"android":"levelo://app?vid=cfbf3059-fd7e-4626-bbb7-f76607be3dd8","ios":"levelo://app?vid=cfbf3059-fd7e-4626-bbb7-f76607be3dd8"},"vehicle_type_id":"4","last_reported":1777565861,"current_range_meters":8800,"station_id":"","pricing_plan_id":"cebpf4jnsgd1na2vs0mg"},{"bike_id":"553f1b33-6356-4f8d-b5e4-de5fd5214ea5","system_id":"levelo_inurba_marseille","lat":43.29621,"lon":5.3773,"is_reserved":false,"is_disabled":false,"rental_uris":{"android":"levelo://app?vid=553f1b33-6356-4f8d-b5e4-de5fd5214ea5","ios":"levelo://app?vid=553f1b33-6356-4f8d-b5e4-de5fd5214ea5"},"vehicle_type_id":"4","last_reported":1777565861,"current_range_meters":8800,"station_id":"ce4bgi92rcd13ifvqb90","pricing_plan_id":"cebpf4jnsgd1na2vs0mg"},{"bike_id":"d67abcb3-a28d-460e-a9b7-9aabdef1bd19","system_id":"levelo_inurba_marseille","lat":43.23192,"lon":5.39982,"is_reserved":false,"is_disabled":false,"rental_uris":{"android":"levelo://app?vid=d67abcb3-a28d-460e-a9b7-9aabdef1bd19","ios":"levelo://app?vid=d67abcb3-a28d-460e-a9b7-9aabdef1bd19"},"vehicle_type_id":"4","last_reported":1777565861,"current_range_meters":8800,"station_id":"ce4bhn12rcd13ifvqgqg","pricing_plan_id":"cebpf4jnsgd1na2vs0mg"},{"bike_id":"f02875f2-0e36-4b26-84dd-35850bfee85b","system_id":"levelo_inurba_marseille","lat":43.287,"lon":5.37378,"is_reserved":false,"is_disabled":false,"rental_uris":{"android":"levelo://app?vid=f02875f2-0e36-4b26-84dd-35850bfee85b","ios":"levelo://app?vid=f02875f2-0e36-4b26-84dd-35850bfee85b"},"vehicle_type_id":"4","last_reported":1777565861,"current_range_meters":8800,"station_id":"ce4bh3p2rcd13ifvqdq0","pricing_plan_id":"cebpf4jnsgd1na2vs0mg"},{"bike_id":"b90c1d01-6a44-4d47-adc9-f51f5ae2109b","system_id":"levelo_inurba_marseille","lat":43.22546,"lon":5.41605,"is_reserved":false,"is_disabled":false,"rental_uris":{"android":"levelo://app?vid=b90c1d01-6a44-4d47-adc9-f51f5ae2109b","ios":"levelo://app?vid=b90c1d01-6a44-4d47-adc9-f51f5ae2109b"},"vehicle_type_id":"4","last_reported":1777565861,"current_range_meters":8800,"station_id":"st_d2o4gvlbi1j2169b742g","pricing_plan_id":"cebpf4jnsgd1na2vs0mg"},{"bike_id":"af1b1885-3ec2-4c50-81d6-6de81ba4119f","system_id":"levelo_inurba_marseille","lat":43.29409,"lon":5.36243,"is_reserved":false,"is_disabled":false,"rental_uris":{"android":"levelo://app?vid=af1b1885-3ec2-4c50-81d6-6de81ba4119f","ios":"levelo://app?vid=af1b1885-3ec2-4c50-81d6-6de81ba4119f"},"vehicle_type_id":"4","last_reported":1777565861,"current_range_meters":8800,"station_id":"","pricing_plan_id":"cebpf4jnsgd1na2vs0mg"},{"bike_id":"cf756aed-771f-48de-b6e4-695766cf71a3","system_id":"levelo_inurba_marseille","lat":43.30964,"lon":5.39707,"is_reserved":false,"is_disabled":false,"rental_uris":{"android":"levelo://app?vid=cf756aed-771f-48de-b6e4-695766cf71a3","ios":"levelo://app?vid=cf756aed-771f-48de-b6e4-695766cf71a3"},"vehicle_type_id":"4","last_reported":1777565861,"current_range_meters":8800,"station_id":"","pricing_plan_id":"cebpf4jnsgd1na2vs0mg"},{"bike_id":"1ab6dca0-6e33-40ef-b36b-66b5927a2338","system_id":"levelo_inurba_marseille","lat":43.28863,"lon":5.35862,"is_reserved":false,"is_disabled":false,"rental_uris":{"android":"levelo://app?vid=1ab6dca0-6e33-40ef-b36b-66b5927a2338","ios":"levelo://app?vid=1ab6dca0-6e33-40ef-b36b-66b5927a2338"},"vehicle_type_id":"4","last_reported":1777565861,"current_range_meters":8800,"station_id":"ce4bhb12rcd13ifvqem0","pricing_plan_id":"cebpf4jnsgd1na2vs0mg"},{"bike_id":"5f2724e9-7e48-4b47-9726-98549cbe71ea","system_id":"levelo_inurba_marseille","lat":43.26787,"lon":5.39419,"is_reserved":false,"is_disabled":false,"rental_uris":{"android":"levelo://app?vid=5f2724e9-7e48-4b47-9726-98549cbe71ea","ios":"levelo://app?vid=5f2724e9-7e48-4b47-9726-98549cbe71ea"},"vehicle_type_id":"4","last_reported":1777565861,"current_range_meters":8800,"station_id":"ce4bhh12rcd13ifvqfg0","pricing_plan_id":"cebpf4jnsgd1na2vs0mg"},{"bike_id":"777b5b2a-7d7d-4308-8581-4b69e8a2d556","system_id":"levelo_inurba_marseille","lat":43.32346,"lon":5.36744,"is_reserved":false,"is_disabled":false,"rental_uris":{"android":"levelo://app?vid=777b5b2a-7d7d-4308-8581-4b69e8a2d556","ios":"levelo://app?vid=777b5b2a-7d7d-4308-8581-4b69e8a2d556"},"vehicle_type_id":"4","last_reported":1777565861,"current_range_meters":9200,"station_id":"ce4bhsh2rcd13ifvqi2g","pricing_plan_id":"cebpf4jnsgd1na2vs0mg"},{"bike_id":"3ae19c8d-7993-4bce-8a56-bc8493cb10a6","system_id":"levelo_inurba_marseille","lat":43.22561,"lon":5.41631,"is_reserved":false,"is_disabled":false,"rental_uris":{"android":"levelo://app?vid=3ae19c8d-7993-4bce-8a56-bc8493cb10a6","ios":"levelo://app?vid=3ae19c8d-7993-4bce-8a56-bc8493cb10a6"},"vehicle_type_id":"4","last_reported":1777565861,"current_range_meters":9200,"station_id":"st_d2o4gvlbi1j2169b742g","pricing_plan_id":"cebpf4jnsgd1na2vs0mg"},{"bike_id":"17ef4954-fa82-40c6-9724-cdd11cfa0348","system_id":"levelo_inurba_marseille","lat":43.29059,"lon":5.40597,"is_reserved":false,"is_disabled":false,"rental_uris":{"android":"levelo://app?vid=17ef4954-fa82-40c6-9724-cdd11cfa0348","ios":"levelo://app?vid=17ef4954-fa82-40c6-9724-cdd11cfa0348"},"vehicle_type_id":"4","last_reported":1777565861,"current_range_meters":9200,"station_id":"","pricing_plan_id":"cebpf4jnsgd1na2vs0mg"},{"bike_id":"662d3ade-7838-42e9-9b62-a1e5749bd144","system_id":"levelo_inurba_marseille","lat":43.2868,"lon":5.46748,"is_reserved":false,"is_disabled":false,"rental_uris":{"android":"levelo://app?vid=662d3ade-7838-42e9-9b62-a1e5749bd144","ios":"levelo://app?vid=662d3ade-7838-42e9-9b62-a1e5749bd144"},"vehicle_type_id":"4","last_reported":1777565861,"current_range_meters":9200,"station_id":"st_d6tc3vkotcvc738tfjhg","pricing_plan_id":"cebpf4jnsgd1na2vs0mg"},{"bike_id":"3e37a766-0224-460c-ab40-46eb5e15117f","system_id":"levelo_inurba_marseille","lat":43.25575,"lon":5.3821,"is_reserved":false,"is_disabled":false,"rental_uris":{"android":"levelo://app?vid=3e37a766-0224-460c-ab40-46eb5e15117f","ios":"levelo://app?vid=3e37a766-0224-460c-ab40-46eb5e15117f"},"vehicle_type_id":"4","last_reported":1777565861,"current_range_meters":9200,"station_id":"ce4bhih2rcd13ifvqfs0","pricing_plan_id":"cebpf4jnsgd1na2vs0mg"},{"bike_id":"1cc061d6-9ad3-495d-bb2a-3af6337e4ecf","system_id":"levelo_inurba_marseille","lat":43.24812,"lon":5.37452,"is_reserved":false,"is_disabled":false,"rental_uris":{"android":"levelo://app?vid=1cc061d6-9ad3-495d-bb2a-3af6337e4ecf","ios":"levelo://app?vid=1cc061d6-9ad3-495d-bb2a-3af6337e4ecf"},"vehicle_type_id":"4","last_reported":1777565861,"current_range_meters":9200,"station_id":"ce4bhgh2rcd13ifvqfb0","pricing_plan_id":"cebpf4jnsgd1na2vs0mg"},{"bike_id":"c7969dbe-1082-4f6f-bca8-de46a1b07950","system_id":"levelo_inurba_marseille","lat":43.31345,"lon":5.36705,"is_reserved":false,"is_disabled":false,"rental_uris":{"android":"levelo://app?vid=c7969dbe-1082-4f6f-bca8-de46a1b07950","ios":"levelo://app?vid=c7969dbe-1082-4f6f-bca8-de46a1b07950"},"vehicle_type_id":"4","last_reported":1777565861,"current_range_meters":9200,"station_id":"ce4bgr92rcd13ifvqc6g","pricing_plan_id":"cebpf4jnsgd1na2vs0mg"},{"bike_id":"73b4ac51-6d12-43bc-b829-a81e0a897ec1","system_id":"levelo_inurba_marseille","lat":43.28835,"lon":5.39245,"is_reserved":false,"is_disabled":false,"rental_uris":{"android":"levelo://app?vid=73b4ac51-6d12-43bc-b829-a81e0a897ec1","ios":"levelo://app?vid=73b4ac51-6d12-43bc-b829-a81e0a897ec1"},"vehicle_type_id":"4","last_reported":1777565861,"current_range_meters":9200,"station_id":"","pricing_plan_id":"cebpf4jnsgd1na2vs0mg"},{"bike_id":"6c33eaec-7524-4765-a3b4-3421cf14e6ae","system_id":"levelo_inurba_marseille","lat":43.28479,"lon":5.48393,"is_reserved":false,"is_disabled":false,"rental_uris":{"android":"levelo://app?vid=6c33eaec-7524-4765-a3b4-3421cf14e6ae","ios":"levelo://app?vid=6c33eaec-7524-4765-a3b4-3421cf14e6ae"},"vehicle_type_id":"4","last_reported":1777565861,"current_range_meters":9200,"station_id":"","pricing_plan_id":"cebpf4jnsgd1na2vs0mg"},{"bike_id":"a2e7ecd5-df1f-430f-9c93-90f55336ee1f","system_id":"levelo_inurba_marseille","lat":43.30262,"lon":5.37703,"is_reserved":false,"is_disabled":false,"rental_uris":{"android":"levelo://app?vid=a2e7ecd5-df1f-430f-9c93-90f55336ee1f","ios":"levelo://app?vid=a2e7ecd5-df1f-430f-9c93-90f55336ee1f"},"vehicle_type_id":"4","last_reported":1777565861,"current_range_meters":9200,"station_id":"ce4bguh2rcd13ifvqcj0","pricing_plan_id":"cebpf4jnsgd1na2vs0mg"},{"bike_id":"db7994d5-2ac7-4db1-9146-4c39ed1478c1","system_id":"levelo_inurba_marseille","lat":43.29614,"lon":5.38091,"is_reserved":false,"is_disabled":false,"rental_uris":{"android":"levelo://app?vid=db7994d5-2ac7-4db1-9146-4c39ed1478c1","ios":"levelo://app?vid=db7994d5-2ac7-4db1-9146-4c39ed1478c1"},"vehicle_type_id":"4","last_reported":1777565861,"current_range_meters":9200,"station_id":"ce4bgl12rcd13ifvqbo0","pricing_plan_id":"cebpf4jnsgd1na2vs0mg"},{"bike_id":"9af80983-7303-4488-a030-6e14bff4a386","system_id":"levelo_inurba_marseille","lat":43.27565,"lon":5.38397,"is_reserved":false,"is_disabled":false,"rental_uris":{"android":"levelo://app?vid=9af80983-7303-4488-a030-6e14bff4a386","ios":"levelo://app?vid=9af80983-7303-4488-a030-6e14bff4a386"},"vehicle_type_id":"4","last_reported":1777565861,"current_range_meters":9200,"station_id":"ce4bhh92rcd13ifvqfi0","pricing_plan_id":"cebpf4jnsgd1na2vs0mg"},{"bike_id":"12db932e-a058-4af8-b0da-d76c0831a431","system_id":"levelo_inurba_marseille","lat":43.31208,"lon":5.36867,"is_reserved":false,"is_disabled":false,"rental_uris":{"android":"levelo://app?vid=12db932e-a058-4af8-b0da-d76c0831a431","ios":"levelo://app?vid=12db932e-a058-4af8-b0da-d76c0831a431"},"vehicle_type_id":"4","last_reported":1777565861,"current_range_meters":9200,"station_id":"ce4bgl92rcd13ifvqbq0","pricing_plan_id":"cebpf4jnsgd1na2vs0mg"},{"bike_id":"b523adde-c1af-44da-98e3-23f5e04a208c","system_id":"levelo_inurba_marseille","lat":43.32098,"lon":5.36764,"is_reserved":false,"is_disabled":false,"rental_uris":{"android":"levelo://app?vid=b523adde-c1af-44da-98e3-23f5e04a208c","ios":"levelo://app?vid=b523adde-c1af-44da-98e3-23f5e04a208c"},"vehicle_type_id":"4","last_reported":1777565861,"current_range_meters":9200,"station_id":"ce4bhrh2rcd13ifvqhug","pricing_plan_id":"cebpf4jnsgd1na2vs0mg"},{"bike_id":"a844376f-c1df-4fda-85d7-08848a70bf3c","system_id":"levelo_inurba_marseille","lat":43.33551,"lon":5.37465,"is_reserved":false,"is_disabled":false,"rental_uris":{"android":"levelo://app?vid=a844376f-c1df-4fda-85d7-08848a70bf3c","ios":"levelo://app?vid=a844376f-c1df-4fda-85d7-08848a70bf3c"},"vehicle_type_id":"4","last_reported":1777565861,"current_range_meters":9200,"station_id":"st_d46tts09ee8s73dlu43g","pricing_plan_id":"cebpf4jnsgd1na2vs0mg"},{"bike_id":"4bad1cf2-8fc8-44f6-97c7-1fba9e672fa1","system_id":"levelo_inurba_marseille","lat":43.29724,"lon":5.3768,"is_reserved":false,"is_disabled":false,"rental_uris":{"android":"levelo://app?vid=4bad1cf2-8fc8-44f6-97c7-1fba9e672fa1","ios":"levelo://app?vid=4bad1cf2-8fc8-44f6-97c7-1fba9e672fa1"},"vehicle_type_id":"4","last_reported":1777565861,"current_range_meters":9200,"station_id":"ce4bgkh2rcd13ifvqbl0","pricing_plan_id":"cebpf4jnsgd1na2vs0mg"},{"bike_id":"6a515d24-1d9b-4fac-82a3-abc574093f73","system_id":"levelo_inurba_marseille","lat":43.2846,"lon":5.35913,"is_reserved":false,"is_disabled":false,"rental_uris":{"android":"levelo://app?vid=6a515d24-1d9b-4fac-82a3-abc574093f73","ios":"levelo://app?vid=6a515d24-1d9b-4fac-82a3-abc574093f73"},"vehicle_type_id":"4","last_reported":1777565861,"current_range_meters":9200,"station_id":"ce4bhah2rcd13ifvqei0","pricing_plan_id":"cebpf4jnsgd1na2vs0mg"},{"bike_id":"3ceb6300-22b7-4a3d-b518-b0309fdfb59a","system_id":"levelo_inurba_marseille","lat":43.28623,"lon":5.399,"is_reserved":false,"is_disabled":false,"rental_uris":{"android":"levelo://app?vid=3ceb6300-22b7-4a3d-b518-b0309fdfb59a","ios":"levelo://app?vid=3ceb6300-22b7-4a3d-b518-b0309fdfb59a"},"vehicle_type_id":"4","last_reported":1777565861,"current_range_meters":9600,"station_id":"st_d4a7ka997mjs738ck50g","pricing_plan_id":"cebpf4jnsgd1na2vs0mg"},{"bike_id":"4fc29649-cc9e-49a7-a919-1a9c8a512428","system_id":"levelo_inurba_marseille","lat":43.30932,"lon":5.40136,"is_reserved":false,"is_disabled":false,"rental_uris":{"android":"levelo://app?vid=4fc29649-cc9e-49a7-a919-1a9c8a512428","ios":"levelo://app?vid=4fc29649-cc9e-49a7-a919-1a9c8a512428"},"vehicle_type_id":"4","last_reported":1777565861,"current_range_meters":9600,"station_id":"ce4bgvp2rcd13ifvqct0","pricing_plan_id":"cebpf4jnsgd1na2vs0mg"},{"bike_id":"f9b52c2e-eac8-43b2-acc5-5fc3d2981121","system_id":"levelo_inurba_marseille","lat":43.29595,"lon":5.37527,"is_reserved":false,"is_disabled":false,"rental_uris":{"android":"levelo://app?vid=f9b52c2e-eac8-43b2-acc5-5fc3d2981121","ios":"levelo://app?vid=f9b52c2e-eac8-43b2-acc5-5fc3d2981121"},"vehicle_type_id":"4","last_reported":1777565861,"current_range_meters":9600,"station_id":"ce4bgh92rcd13ifvqb50","pricing_plan_id":"cebpf4jnsgd1na2vs0mg"},{"bike_id":"b41353e0-ddd2-4461-be04-0f5e9b40ab92","system_id":"levelo_inurba_marseille","lat":43.28476,"lon":5.48407,"is_reserved":false,"is_disabled":false,"rental_uris":{"android":"levelo://app?vid=b41353e0-ddd2-4461-be04-0f5e9b40ab92","ios":"levelo://app?vid=b41353e0-ddd2-4461-be04-0f5e9b40ab92"},"vehicle_type_id":"4","last_reported":1777565861,"current_range_meters":9600,"station_id":"st_d3svhcjqgbts73a3dn0g","pricing_plan_id":"cebpf4jnsgd1na2vs0mg"},{"bike_id":"395aaf3f-de90-4df0-8220-40f14556b207","system_id":"levelo_inurba_marseille","lat":43.2991,"lon":5.37449,"is_reserved":false,"is_disabled":true,"rental_uris":{"android":"levelo://app?vid=395aaf3f-de90-4df0-8220-40f14556b207","ios":"levelo://app?vid=395aaf3f-de90-4df0-8220-40f14556b207"},"vehicle_type_id":"4","last_reported":1777565861,"current_range_meters":9600,"station_id":"ce4bgjh2rcd13ifvqbg0","pricing_plan_id":"cebpf4jnsgd1na2vs0mg"},{"bike_id":"2447f289-f31f-42ac-960c-0df77fa0f0e7","system_id":"levelo_inurba_marseille","lat":43.27438,"lon":5.41147,"is_reserved":false,"is_disabled":false,"rental_uris":{"android":"levelo://app?vid=2447f289-f31f-42ac-960c-0df77fa0f0e7","ios":"levelo://app?vid=2447f289-f31f-42ac-960c-0df77fa0f0e7"},"vehicle_type_id":"4","last_reported":1777565861,"current_range_meters":9600,"station_id":"","pricing_plan_id":"cebpf4jnsgd1na2vs0mg"},{"bike_id":"98384694-a8f4-4ca7-9d4b-cb51e91823c2","system_id":"levelo_inurba_marseille","lat":43.30627,"lon":5.43645,"is_reserved":false,"is_disabled":false,"rental_uris":{"android":"levelo://app?vid=98384694-a8f4-4ca7-9d4b-cb51e91823c2","ios":"levelo://app?vid=98384694-a8f4-4ca7-9d4b-cb51e91823c2"},"vehicle_type_id":"4","last_reported":1777565861,"current_range_meters":9600,"station_id":"","pricing_plan_id":"cebpf4jnsgd1na2vs0mg"},{"bike_id":"396e5093-3e9d-4b50-8bf6-9cb22084d93b","system_id":"levelo_inurba_marseille","lat":43.29446,"lon":5.38245,"is_reserved":false,"is_disabled":false,"rental_uris":{"android":"levelo://app?vid=396e5093-3e9d-4b50-8bf6-9cb22084d93b","ios":"levelo://app?vid=396e5093-3e9d-4b50-8bf6-9cb22084d93b"},"vehicle_type_id":"4","last_reported":1777565861,"current_range_meters":9600,"station_id":"","pricing_plan_id":"cebpf4jnsgd1na2vs0mg"},{"bike_id":"16b2e788-5f74-4c0f-86e4-42adb04a8a89","system_id":"levelo_inurba_marseille","lat":43.26944,"lon":5.386443,"is_reserved":false,"is_disabled":false,"rental_uris":{"android":"levelo://app?vid=16b2e788-5f74-4c0f-86e4-42adb04a8a89","ios":"levelo://app?vid=16b2e788-5f74-4c0f-86e4-42adb04a8a89"},"vehicle_type_id":"4","last_reported":1777565861,"current_range_meters":9600,"station_id":"ce4bhh92rcd13ifvqfh0","pricing_plan_id":"cebpf4jnsgd1na2vs0mg"},{"bike_id":"b92b2849-c515-4055-b18a-b8ebf5764fba","system_id":"levelo_inurba_marseille","lat":43.32296,"lon":5.38285,"is_reserved":false,"is_disabled":false,"rental_uris":{"android":"levelo://app?vid=b92b2849-c515-4055-b18a-b8ebf5764fba","ios":"levelo://app?vid=b92b2849-c515-4055-b18a-b8ebf5764fba"},"vehicle_type_id":"4","last_reported":1777565861,"current_range_meters":9600,"station_id":"ce4bhr12rcd13ifvqhqg","pricing_plan_id":"cebpf4jnsgd1na2vs0mg"},{"bike_id":"158111d2-748c-4194-ac59-e2f15fa170c4","system_id":"levelo_inurba_marseille","lat":43.31283,"lon":5.39437,"is_reserved":false,"is_disabled":false,"rental_uris":{"android":"levelo://app?vid=158111d2-748c-4194-ac59-e2f15fa170c4","ios":"levelo://app?vid=158111d2-748c-4194-ac59-e2f15fa170c4"},"vehicle_type_id":"4","last_reported":1777565861,"current_range_meters":9600,"station_id":"","pricing_plan_id":"cebpf4jnsgd1na2vs0mg"},{"bike_id":"d8d9220f-a3dc-4db0-8407-3badb9585aea","system_id":"levelo_inurba_marseille","lat":43.25575,"lon":5.41636,"is_reserved":false,"is_disabled":false,"rental_uris":{"android":"levelo://app?vid=d8d9220f-a3dc-4db0-8407-3badb9585aea","ios":"levelo://app?vid=d8d9220f-a3dc-4db0-8407-3badb9585aea"},"vehicle_type_id":"4","last_reported":1777565861,"current_range_meters":9600,"station_id":"","pricing_plan_id":"cebpf4jnsgd1na2vs0mg"},{"bike_id":"24eabd38-01f1-49e3-9b96-d24bb03f2e53","system_id":"levelo_inurba_marseille","lat":43.24813,"lon":5.3745,"is_reserved":false,"is_disabled":false,"rental_uris":{"android":"levelo://app?vid=24eabd38-01f1-49e3-9b96-d24bb03f2e53","ios":"levelo://app?vid=24eabd38-01f1-49e3-9b96-d24bb03f2e53"},"vehicle_type_id":"4","last_reported":1777565861,"current_range_meters":9600,"station_id":"ce4bhgh2rcd13ifvqfb0","pricing_plan_id":"cebpf4jnsgd1na2vs0mg"},{"bike_id":"3bab5da5-8f04-429e-a8cc-b94afa4e8e70","system_id":"levelo_inurba_marseille","lat":43.22562,"lon":5.41611,"is_reserved":false,"is_disabled":false,"rental_uris":{"android":"levelo://app?vid=3bab5da5-8f04-429e-a8cc-b94afa4e8e70","ios":"levelo://app?vid=3bab5da5-8f04-429e-a8cc-b94afa4e8e70"},"vehicle_type_id":"4","last_reported":1777565861,"current_range_meters":9600,"station_id":"st_d2o4gvlbi1j2169b742g","pricing_plan_id":"cebpf4jnsgd1na2vs0mg"},{"bike_id":"63cf4435-6895-46c9-96b0-447e33f9e9f9","system_id":"levelo_inurba_marseille","lat":43.31706,"lon":5.37749,"is_reserved":false,"is_disabled":false,"rental_uris":{"android":"levelo://app?vid=63cf4435-6895-46c9-96b0-447e33f9e9f9","ios":"levelo://app?vid=63cf4435-6895-46c9-96b0-447e33f9e9f9"},"vehicle_type_id":"4","last_reported":1777565861,"current_range_meters":9600,"station_id":"ce4bgth2rcd13ifvqch0","pricing_plan_id":"cebpf4jnsgd1na2vs0mg"},{"bike_id":"cf1ee482-2f8a-49e3-ad72-ce5f8bfb0826","system_id":"levelo_inurba_marseille","lat":43.31728,"lon":5.42399,"is_reserved":false,"is_disabled":false,"rental_uris":{"android":"levelo://app?vid=cf1ee482-2f8a-49e3-ad72-ce5f8bfb0826","ios":"levelo://app?vid=cf1ee482-2f8a-49e3-ad72-ce5f8bfb0826"},"vehicle_type_id":"4","last_reported":1777565861,"current_range_meters":9600,"station_id":"ce4bhp92rcd13ifvqhbg","pricing_plan_id":"cebpf4jnsgd1na2vs0mg"},{"bike_id":"269e547c-707c-4f34-9586-bd4dcbeed6ee","system_id":"levelo_inurba_marseille","lat":43.28141,"lon":5.382,"is_reserved":false,"is_disabled":false,"rental_uris":{"android":"levelo://app?vid=269e547c-707c-4f34-9586-bd4dcbeed6ee","ios":"levelo://app?vid=269e547c-707c-4f34-9586-bd4dcbeed6ee"},"vehicle_type_id":"4","last_reported":1777565861,"current_range_meters":9600,"station_id":"","pricing_plan_id":"cebpf4jnsgd1na2vs0mg"},{"bike_id":"e8c128f6-1a45-4472-8267-e62ac8257b4a","system_id":"levelo_inurba_marseille","lat":43.25114,"lon":5.40311,"is_reserved":false,"is_disabled":false,"rental_uris":{"android":"levelo://app?vid=e8c128f6-1a45-4472-8267-e62ac8257b4a","ios":"levelo://app?vid=e8c128f6-1a45-4472-8267-e62ac8257b4a"},"vehicle_type_id":"4","last_reported":1777565861,"current_range_meters":9600,"station_id":"ce4bhlh2rcd13ifvqgig","pricing_plan_id":"cebpf4jnsgd1na2vs0mg"},{"bike_id":"f96767f9-d6ba-4175-98d6-607944f63188","system_id":"levelo_inurba_marseille","lat":43.30919,"lon":5.40161,"is_reserved":false,"is_disabled":false,"rental_uris":{"android":"levelo://app?vid=f96767f9-d6ba-4175-98d6-607944f63188","ios":"levelo://app?vid=f96767f9-d6ba-4175-98d6-607944f63188"},"vehicle_type_id":"4","last_reported":1777565861,"current_range_meters":9600,"station_id":"ce4bgvp2rcd13ifvqct0","pricing_plan_id":"cebpf4jnsgd1na2vs0mg"},{"bike_id":"e992959d-a856-4103-b127-9b597b91a45a","system_id":"levelo_inurba_marseille","lat":43.24465,"lon":5.42538,"is_reserved":false,"is_disabled":false,"rental_uris":{"android":"levelo://app?vid=e992959d-a856-4103-b127-9b597b91a45a","ios":"levelo://app?vid=e992959d-a856-4103-b127-9b597b91a45a"},"vehicle_type_id":"4","last_reported":1777565861,"current_range_meters":9600,"station_id":"st_d4a3vfp97mjs738cd8kg","pricing_plan_id":"cebpf4jnsgd1na2vs0mg"},{"bike_id":"c12385b6-d673-4982-bd4f-f7be2413ea34","system_id":"levelo_inurba_marseille","lat":43.29035,"lon":5.35652,"is_reserved":false,"is_disabled":false,"rental_uris":{"android":"levelo://app?vid=c12385b6-d673-4982-bd4f-f7be2413ea34","ios":"levelo://app?vid=c12385b6-d673-4982-bd4f-f7be2413ea34"},"vehicle_type_id":"4","last_reported":1777565861,"current_range_meters":9600,"station_id":"ce4bhb92rcd13ifvqen0","pricing_plan_id":"cebpf4jnsgd1na2vs0mg"},{"bike_id":"d063cc8c-302f-4e4e-ab66-a03ec159c273","system_id":"levelo_inurba_marseille","lat":43.25011,"lon":5.38944,"is_reserved":false,"is_disabled":false,"rental_uris":{"android":"levelo://app?vid=d063cc8c-302f-4e4e-ab66-a03ec159c273","ios":"levelo://app?vid=d063cc8c-302f-4e4e-ab66-a03ec159c273"},"vehicle_type_id":"4","last_reported":1777565861,"current_range_meters":9600,"station_id":"ce4bhgp2rcd13ifvqfd0","pricing_plan_id":"cebpf4jnsgd1na2vs0mg"},{"bike_id":"1ddea849-88ac-454c-9e84-5043fdde5dda","system_id":"levelo_inurba_marseille","lat":43.25574,"lon":5.38264,"is_reserved":false,"is_disabled":false,"rental_uris":{"android":"levelo://app?vid=1ddea849-88ac-454c-9e84-5043fdde5dda","ios":"levelo://app?vid=1ddea849-88ac-454c-9e84-5043fdde5dda"},"vehicle_type_id":"4","last_reported":1777565861,"current_range_meters":9600,"station_id":"ce4bhih2rcd13ifvqfs0","pricing_plan_id":"cebpf4jnsgd1na2vs0mg"},{"bike_id":"9810c688-dd4d-4380-adc9-9557450d055b","system_id":"levelo_inurba_marseille","lat":43.28485,"lon":5.48402,"is_reserved":false,"is_disabled":false,"rental_uris":{"android":"levelo://app?vid=9810c688-dd4d-4380-adc9-9557450d055b","ios":"levelo://app?vid=9810c688-dd4d-4380-adc9-9557450d055b"},"vehicle_type_id":"4","last_reported":1777565861,"current_range_meters":9600,"station_id":"st_d3svhcjqgbts73a3dn0g","pricing_plan_id":"cebpf4jnsgd1na2vs0mg"},{"bike_id":"2a9940c3-5a3c-47f0-ad86-8c37ebf08ebc","system_id":"levelo_inurba_marseille","lat":43.28419,"lon":5.35002,"is_reserved":false,"is_disabled":false,"rental_uris":{"android":"levelo://app?vid=2a9940c3-5a3c-47f0-ad86-8c37ebf08ebc","ios":"levelo://app?vid=2a9940c3-5a3c-47f0-ad86-8c37ebf08ebc"},