{"last_updated":1778348414,"ttl":60,"version":"2.2","data":{"bikes":[{"bike_id":"adbdae24-1b6d-4e05-9f3d-b7d760c284d0","system_id":"levelo_inurba_marseille","lat":43.29041,"lon":5.38125,"is_reserved":false,"is_disabled":true,"rental_uris":{"android":"levelo://app?vid=adbdae24-1b6d-4e05-9f3d-b7d760c284d0","ios":"levelo://app?vid=adbdae24-1b6d-4e05-9f3d-b7d760c284d0"},"vehicle_type_id":"4","last_reported":1778348415,"current_range_meters":2800,"station_id":"ce4bh4p2rcd13ifvqe1g","pricing_plan_id":"cebpf4jnsgd1na2vs0mg"},{"bike_id":"77f489b5-b872-474e-a526-73ff0da2b77c","system_id":"levelo_inurba_marseille","lat":43.26216,"lon":5.40453,"is_reserved":false,"is_disabled":false,"rental_uris":{"android":"levelo://app?vid=77f489b5-b872-474e-a526-73ff0da2b77c","ios":"levelo://app?vid=77f489b5-b872-474e-a526-73ff0da2b77c"},"vehicle_type_id":"4","last_reported":1778348415,"current_range_meters":2800,"station_id":"ce4bhmh2rcd13ifvqgmg","pricing_plan_id":"cebpf4jnsgd1na2vs0mg"},{"bike_id":"1d981626-3199-46a5-b8bc-3328517365c9","system_id":"levelo_inurba_marseille","lat":43.28481,"lon":5.48387,"is_reserved":false,"is_disabled":false,"rental_uris":{"android":"levelo://app?vid=1d981626-3199-46a5-b8bc-3328517365c9","ios":"levelo://app?vid=1d981626-3199-46a5-b8bc-3328517365c9"},"vehicle_type_id":"4","last_reported":1778348415,"current_range_meters":2800,"station_id":"","pricing_plan_id":"cebpf4jnsgd1na2vs0mg"},{"bike_id":"06ab7e03-6cc1-4519-8625-3652421fe315","system_id":"levelo_inurba_marseille","lat":43.33171,"lon":5.37682,"is_reserved":false,"is_disabled":false,"rental_uris":{"android":"levelo://app?vid=06ab7e03-6cc1-4519-8625-3652421fe315","ios":"levelo://app?vid=06ab7e03-6cc1-4519-8625-3652421fe315"},"vehicle_type_id":"4","last_reported":1778348415,"current_range_meters":2800,"station_id":"st_d46cu089ee8s73dldbu0","pricing_plan_id":"cebpf4jnsgd1na2vs0mg"},{"bike_id":"e4fb821e-f28f-4a7f-b43c-77356d787a74","system_id":"levelo_inurba_marseille","lat":43.298725,"lon":5.389118,"is_reserved":false,"is_disabled":true,"rental_uris":{"android":"levelo://app?vid=e4fb821e-f28f-4a7f-b43c-77356d787a74","ios":"levelo://app?vid=e4fb821e-f28f-4a7f-b43c-77356d787a74"},"vehicle_type_id":"4","last_reported":1778348415,"current_range_meters":2800,"station_id":"ce4bh392rcd13ifvqdl0","pricing_plan_id":"cebpf4jnsgd1na2vs0mg"},{"bike_id":"a74d6855-e1b4-4246-99f1-6d838501d849","system_id":"levelo_inurba_marseille","lat":43.28438,"lon":5.39105,"is_reserved":false,"is_disabled":false,"rental_uris":{"android":"levelo://app?vid=a74d6855-e1b4-4246-99f1-6d838501d849","ios":"levelo://app?vid=a74d6855-e1b4-4246-99f1-6d838501d849"},"vehicle_type_id":"4","last_reported":1778348415,"current_range_meters":2800,"station_id":"","pricing_plan_id":"cebpf4jnsgd1na2vs0mg"},{"bike_id":"d8216b3c-1ac2-4ea8-a9de-46c256e786e6","system_id":"levelo_inurba_marseille","lat":43.29121,"lon":5.38114,"is_reserved":false,"is_disabled":false,"rental_uris":{"android":"levelo://app?vid=d8216b3c-1ac2-4ea8-a9de-46c256e786e6","ios":"levelo://app?vid=d8216b3c-1ac2-4ea8-a9de-46c256e786e6"},"vehicle_type_id":"4","last_reported":1778348415,"current_range_meters":2800,"station_id":"ce4bh512rcd13ifvqe2g","pricing_plan_id":"cebpf4jnsgd1na2vs0mg"},{"bike_id":"cadbd3d8-c80f-4050-9090-d284c6f0f0d6","system_id":"levelo_inurba_marseille","lat":43.30144,"lon":5.3878,"is_reserved":false,"is_disabled":false,"rental_uris":{"android":"levelo://app?vid=cadbd3d8-c80f-4050-9090-d284c6f0f0d6","ios":"levelo://app?vid=cadbd3d8-c80f-4050-9090-d284c6f0f0d6"},"vehicle_type_id":"4","last_reported":1778348415,"current_range_meters":2800,"station_id":"ce4bghh2rcd13ifvqb60","pricing_plan_id":"cebpf4jnsgd1na2vs0mg"},{"bike_id":"a9e9bdd1-241a-4197-b28b-c545ea37f2b2","system_id":"levelo_inurba_marseille","lat":43.27815,"lon":5.4068,"is_reserved":false,"is_disabled":false,"rental_uris":{"android":"levelo://app?vid=a9e9bdd1-241a-4197-b28b-c545ea37f2b2","ios":"levelo://app?vid=a9e9bdd1-241a-4197-b28b-c545ea37f2b2"},"vehicle_type_id":"4","last_reported":1778348415,"current_range_meters":2800,"station_id":"ce4bhnh2rcd13ifvqgtg","pricing_plan_id":"cebpf4jnsgd1na2vs0mg"},{"bike_id":"660a334b-21fb-4010-85d7-2d3eb0dc30ac","system_id":"levelo_inurba_marseille","lat":43.27186,"lon":5.39138,"is_reserved":false,"is_disabled":false,"rental_uris":{"android":"levelo://app?vid=660a334b-21fb-4010-85d7-2d3eb0dc30ac","ios":"levelo://app?vid=660a334b-21fb-4010-85d7-2d3eb0dc30ac"},"vehicle_type_id":"4","last_reported":1778348415,"current_range_meters":3200,"station_id":"ce4bhhp2rcd13ifvqfm0","pricing_plan_id":"cebpf4jnsgd1na2vs0mg"},{"bike_id":"607e92ec-e826-49b0-8391-9c65abaaa0b9","system_id":"levelo_inurba_marseille","lat":43.28466,"lon":5.35892,"is_reserved":false,"is_disabled":false,"rental_uris":{"android":"levelo://app?vid=607e92ec-e826-49b0-8391-9c65abaaa0b9","ios":"levelo://app?vid=607e92ec-e826-49b0-8391-9c65abaaa0b9"},"vehicle_type_id":"4","last_reported":1778348415,"current_range_meters":3200,"station_id":"ce4bhah2rcd13ifvqei0","pricing_plan_id":"cebpf4jnsgd1na2vs0mg"},{"bike_id":"f03e9416-653d-45fd-aba7-c2ee459eb1bb","system_id":"levelo_inurba_marseille","lat":43.33553,"lon":5.37478,"is_reserved":false,"is_disabled":false,"rental_uris":{"android":"levelo://app?vid=f03e9416-653d-45fd-aba7-c2ee459eb1bb","ios":"levelo://app?vid=f03e9416-653d-45fd-aba7-c2ee459eb1bb"},"vehicle_type_id":"4","last_reported":1778348415,"current_range_meters":3200,"station_id":"st_d46tts09ee8s73dlu43g","pricing_plan_id":"cebpf4jnsgd1na2vs0mg"},{"bike_id":"84065672-3aeb-401d-abe1-19cb0117eae1","system_id":"levelo_inurba_marseille","lat":43.29011,"lon":5.35629,"is_reserved":false,"is_disabled":false,"rental_uris":{"android":"levelo://app?vid=84065672-3aeb-401d-abe1-19cb0117eae1","ios":"levelo://app?vid=84065672-3aeb-401d-abe1-19cb0117eae1"},"vehicle_type_id":"4","last_reported":1778348415,"current_range_meters":3200,"station_id":"ce4bhb92rcd13ifvqen0","pricing_plan_id":"cebpf4jnsgd1na2vs0mg"},{"bike_id":"ffaa17d3-22fa-44c1-a012-253e3c948a53","system_id":"levelo_inurba_marseille","lat":43.29258,"lon":5.38436,"is_reserved":false,"is_disabled":false,"rental_uris":{"android":"levelo://app?vid=ffaa17d3-22fa-44c1-a012-253e3c948a53","ios":"levelo://app?vid=ffaa17d3-22fa-44c1-a012-253e3c948a53"},"vehicle_type_id":"4","last_reported":1778348415,"current_range_meters":3200,"station_id":"ce4bh692rcd13ifvqea0","pricing_plan_id":"cebpf4jnsgd1na2vs0mg"},{"bike_id":"6400099d-f713-4246-a4ce-1b44f22e3329","system_id":"levelo_inurba_marseille","lat":43.32107,"lon":5.36762,"is_reserved":false,"is_disabled":false,"rental_uris":{"android":"levelo://app?vid=6400099d-f713-4246-a4ce-1b44f22e3329","ios":"levelo://app?vid=6400099d-f713-4246-a4ce-1b44f22e3329"},"vehicle_type_id":"4","last_reported":1778348415,"current_range_meters":3200,"station_id":"ce4bhrh2rcd13ifvqhug","pricing_plan_id":"cebpf4jnsgd1na2vs0mg"},{"bike_id":"f468b49e-0a5a-4a36-87bc-071047149868","system_id":"levelo_inurba_marseille","lat":43.298723,"lon":5.389632,"is_reserved":false,"is_disabled":false,"rental_uris":{"android":"levelo://app?vid=f468b49e-0a5a-4a36-87bc-071047149868","ios":"levelo://app?vid=f468b49e-0a5a-4a36-87bc-071047149868"},"vehicle_type_id":"4","last_reported":1778348415,"current_range_meters":3200,"station_id":"chh1huq6cuj3fo74tm60","pricing_plan_id":"cebpf4jnsgd1na2vs0mg"},{"bike_id":"d887cdf3-66ee-4a37-985b-e7ed35671fff","system_id":"levelo_inurba_marseille","lat":43.27312,"lon":5.39094,"is_reserved":false,"is_disabled":false,"rental_uris":{"android":"levelo://app?vid=d887cdf3-66ee-4a37-985b-e7ed35671fff","ios":"levelo://app?vid=d887cdf3-66ee-4a37-985b-e7ed35671fff"},"vehicle_type_id":"4","last_reported":1778348415,"current_range_meters":3200,"station_id":"ce4bhgp2rcd13ifvqfe0","pricing_plan_id":"cebpf4jnsgd1na2vs0mg"},{"bike_id":"415142c7-f50e-411e-adf6-f39700e22f6d","system_id":"levelo_inurba_marseille","lat":43.32699,"lon":5.3555,"is_reserved":false,"is_disabled":false,"rental_uris":{"android":"levelo://app?vid=415142c7-f50e-411e-adf6-f39700e22f6d","ios":"levelo://app?vid=415142c7-f50e-411e-adf6-f39700e22f6d"},"vehicle_type_id":"4","last_reported":1778348415,"current_range_meters":3200,"station_id":"","pricing_plan_id":"cebpf4jnsgd1na2vs0mg"},{"bike_id":"31e3bdd3-26c2-4084-a93d-199a4e07cfe9","system_id":"levelo_inurba_marseille","lat":43.27319,"lon":5.3909,"is_reserved":false,"is_disabled":false,"rental_uris":{"android":"levelo://app?vid=31e3bdd3-26c2-4084-a93d-199a4e07cfe9","ios":"levelo://app?vid=31e3bdd3-26c2-4084-a93d-199a4e07cfe9"},"vehicle_type_id":"4","last_reported":1778348415,"current_range_meters":3200,"station_id":"ce4bhgp2rcd13ifvqfe0","pricing_plan_id":"cebpf4jnsgd1na2vs0mg"},{"bike_id":"20e13723-1380-420b-b720-2e419fa844d1","system_id":"levelo_inurba_marseille","lat":43.28468,"lon":5.38455,"is_reserved":false,"is_disabled":false,"rental_uris":{"android":"levelo://app?vid=20e13723-1380-420b-b720-2e419fa844d1","ios":"levelo://app?vid=20e13723-1380-420b-b720-2e419fa844d1"},"vehicle_type_id":"4","last_reported":1778348415,"current_range_meters":3200,"station_id":"ce4bh512rcd13ifvqe3g","pricing_plan_id":"cebpf4jnsgd1na2vs0mg"},{"bike_id":"89ae5690-28bf-4b15-ae03-941d1c512dfe","system_id":"levelo_inurba_marseille","lat":43.30135,"lon":5.37907,"is_reserved":false,"is_disabled":false,"rental_uris":{"android":"levelo://app?vid=89ae5690-28bf-4b15-ae03-941d1c512dfe","ios":"levelo://app?vid=89ae5690-28bf-4b15-ae03-941d1c512dfe"},"vehicle_type_id":"4","last_reported":1778348415,"current_range_meters":3200,"station_id":"","pricing_plan_id":"cebpf4jnsgd1na2vs0mg"},{"bike_id":"4e3ccd1e-f18f-4baa-9d8a-5f0eca769a53","system_id":"levelo_inurba_marseille","lat":43.28401,"lon":5.37517,"is_reserved":false,"is_disabled":false,"rental_uris":{"android":"levelo://app?vid=4e3ccd1e-f18f-4baa-9d8a-5f0eca769a53","ios":"levelo://app?vid=4e3ccd1e-f18f-4baa-9d8a-5f0eca769a53"},"vehicle_type_id":"4","last_reported":1778348415,"current_range_meters":3200,"station_id":"ce4bh412rcd13ifvqds0","pricing_plan_id":"cebpf4jnsgd1na2vs0mg"},{"bike_id":"33d7f954-7575-4f77-9a35-09ab08dcf5bc","system_id":"levelo_inurba_marseille","lat":43.272212,"lon":5.391816,"is_reserved":false,"is_disabled":false,"rental_uris":{"android":"levelo://app?vid=33d7f954-7575-4f77-9a35-09ab08dcf5bc","ios":"levelo://app?vid=33d7f954-7575-4f77-9a35-09ab08dcf5bc"},"vehicle_type_id":"4","last_reported":1778348415,"current_range_meters":3200,"station_id":"ce4bhhp2rcd13ifvqfm0","pricing_plan_id":"cebpf4jnsgd1na2vs0mg"},{"bike_id":"37c2fb2c-9a80-4684-95d5-4d33e54683b8","system_id":"levelo_inurba_marseille","lat":43.29253,"lon":5.40884,"is_reserved":false,"is_disabled":false,"rental_uris":{"android":"levelo://app?vid=37c2fb2c-9a80-4684-95d5-4d33e54683b8","ios":"levelo://app?vid=37c2fb2c-9a80-4684-95d5-4d33e54683b8"},"vehicle_type_id":"4","last_reported":1778348415,"current_range_meters":3600,"station_id":"ce4bh192rcd13ifvqdc0","pricing_plan_id":"cebpf4jnsgd1na2vs0mg"},{"bike_id":"f8b38d01-9622-49a7-a96b-fd34e88ed4ae","system_id":"levelo_inurba_marseille","lat":43.29517,"lon":5.39408,"is_reserved":false,"is_disabled":false,"rental_uris":{"android":"levelo://app?vid=f8b38d01-9622-49a7-a96b-fd34e88ed4ae","ios":"levelo://app?vid=f8b38d01-9622-49a7-a96b-fd34e88ed4ae"},"vehicle_type_id":"4","last_reported":1778348415,"current_range_meters":3600,"station_id":"ce4bh292rcd13ifvqdf0","pricing_plan_id":"cebpf4jnsgd1na2vs0mg"},{"bike_id":"ea5c3135-38a5-4203-98af-8f473f29d4fe","system_id":"levelo_inurba_marseille","lat":43.25503,"lon":5.37648,"is_reserved":false,"is_disabled":false,"rental_uris":{"android":"levelo://app?vid=ea5c3135-38a5-4203-98af-8f473f29d4fe","ios":"levelo://app?vid=ea5c3135-38a5-4203-98af-8f473f29d4fe"},"vehicle_type_id":"4","last_reported":1778348415,"current_range_meters":3600,"station_id":"ce4bhh12rcd13ifvqff0","pricing_plan_id":"cebpf4jnsgd1na2vs0mg"},{"bike_id":"83c53200-e80f-47bb-b870-a7652825089e","system_id":"levelo_inurba_marseille","lat":43.24692,"lon":5.38164,"is_reserved":false,"is_disabled":false,"rental_uris":{"android":"levelo://app?vid=83c53200-e80f-47bb-b870-a7652825089e","ios":"levelo://app?vid=83c53200-e80f-47bb-b870-a7652825089e"},"vehicle_type_id":"4","last_reported":1778348415,"current_range_meters":3600,"station_id":"ce4bhih2rcd13ifvqfr0","pricing_plan_id":"cebpf4jnsgd1na2vs0mg"},{"bike_id":"91d78913-28b2-401d-850a-f1af99bf6768","system_id":"levelo_inurba_marseille","lat":43.28853,"lon":5.42512,"is_reserved":false,"is_disabled":false,"rental_uris":{"android":"levelo://app?vid=91d78913-28b2-401d-850a-f1af99bf6768","ios":"levelo://app?vid=91d78913-28b2-401d-850a-f1af99bf6768"},"vehicle_type_id":"4","last_reported":1778348415,"current_range_meters":3600,"station_id":"st_d3b462108ojc7389ooeg","pricing_plan_id":"cebpf4jnsgd1na2vs0mg"},{"bike_id":"798edaef-bd54-4368-9500-a6ad4811f4c9","system_id":"levelo_inurba_marseille","lat":43.27215,"lon":5.39191,"is_reserved":false,"is_disabled":false,"rental_uris":{"android":"levelo://app?vid=798edaef-bd54-4368-9500-a6ad4811f4c9","ios":"levelo://app?vid=798edaef-bd54-4368-9500-a6ad4811f4c9"},"vehicle_type_id":"4","last_reported":1778348415,"current_range_meters":3600,"station_id":"ce4bhhp2rcd13ifvqfm0","pricing_plan_id":"cebpf4jnsgd1na2vs0mg"},{"bike_id":"b44a9cd4-5b24-4ba8-878e-e9ddbed75cb6","system_id":"levelo_inurba_marseille","lat":43.27931,"lon":5.38734,"is_reserved":false,"is_disabled":true,"rental_uris":{"android":"levelo://app?vid=b44a9cd4-5b24-4ba8-878e-e9ddbed75cb6","ios":"levelo://app?vid=b44a9cd4-5b24-4ba8-878e-e9ddbed75cb6"},"vehicle_type_id":"4","last_reported":1778348415,"current_range_meters":3600,"station_id":"ce4bhg12rcd13ifvqf80","pricing_plan_id":"cebpf4jnsgd1na2vs0mg"},{"bike_id":"6452db2c-1182-4afc-94bd-93e76ac56d68","system_id":"levelo_inurba_marseille","lat":43.27055,"lon":5.42292,"is_reserved":false,"is_disabled":false,"rental_uris":{"android":"levelo://app?vid=6452db2c-1182-4afc-94bd-93e76ac56d68","ios":"levelo://app?vid=6452db2c-1182-4afc-94bd-93e76ac56d68"},"vehicle_type_id":"4","last_reported":1778348415,"current_range_meters":3600,"station_id":"ce4bhk92rcd13ifvqgb0","pricing_plan_id":"cebpf4jnsgd1na2vs0mg"},{"bike_id":"4b65741e-5ed9-4da8-8620-3a00f88659d6","system_id":"levelo_inurba_marseille","lat":43.28495,"lon":5.48382,"is_reserved":false,"is_disabled":false,"rental_uris":{"android":"levelo://app?vid=4b65741e-5ed9-4da8-8620-3a00f88659d6","ios":"levelo://app?vid=4b65741e-5ed9-4da8-8620-3a00f88659d6"},"vehicle_type_id":"4","last_reported":1778348415,"current_range_meters":3600,"station_id":"","pricing_plan_id":"cebpf4jnsgd1na2vs0mg"},{"bike_id":"0ecddad9-091b-47fd-a45d-db67559668c1","system_id":"levelo_inurba_marseille","lat":43.27973,"lon":5.38765,"is_reserved":false,"is_disabled":true,"rental_uris":{"android":"levelo://app?vid=0ecddad9-091b-47fd-a45d-db67559668c1","ios":"levelo://app?vid=0ecddad9-091b-47fd-a45d-db67559668c1"},"vehicle_type_id":"4","last_reported":1778348415,"current_range_meters":3600,"station_id":"ce4bhg12rcd13ifvqf80","pricing_plan_id":"cebpf4jnsgd1na2vs0mg"},{"bike_id":"cb559c43-ced4-40d0-88fc-0197d6f8c5cb","system_id":"levelo_inurba_marseille","lat":43.29245,"lon":5.38445,"is_reserved":false,"is_disabled":false,"rental_uris":{"android":"levelo://app?vid=cb559c43-ced4-40d0-88fc-0197d6f8c5cb","ios":"levelo://app?vid=cb559c43-ced4-40d0-88fc-0197d6f8c5cb"},"vehicle_type_id":"4","last_reported":1778348415,"current_range_meters":3600,"station_id":"ce4bh692rcd13ifvqea0","pricing_plan_id":"cebpf4jnsgd1na2vs0mg"},{"bike_id":"dd2f2f67-8f94-4371-a78c-9db87965cd83","system_id":"levelo_inurba_marseille","lat":43.28474,"lon":5.38413,"is_reserved":false,"is_disabled":false,"rental_uris":{"android":"levelo://app?vid=dd2f2f67-8f94-4371-a78c-9db87965cd83","ios":"levelo://app?vid=dd2f2f67-8f94-4371-a78c-9db87965cd83"},"vehicle_type_id":"4","last_reported":1778348415,"current_range_meters":3600,"station_id":"ce4bh512rcd13ifvqe3g","pricing_plan_id":"cebpf4jnsgd1na2vs0mg"},{"bike_id":"9a3140d6-e3fa-492e-8460-9c6f22636700","system_id":"levelo_inurba_marseille","lat":43.31345,"lon":5.39962,"is_reserved":false,"is_disabled":false,"rental_uris":{"android":"levelo://app?vid=9a3140d6-e3fa-492e-8460-9c6f22636700","ios":"levelo://app?vid=9a3140d6-e3fa-492e-8460-9c6f22636700"},"vehicle_type_id":"4","last_reported":1778348415,"current_range_meters":3600,"station_id":"","pricing_plan_id":"cebpf4jnsgd1na2vs0mg"},{"bike_id":"db1ac9e8-2733-492b-8480-e00e6de58734","system_id":"levelo_inurba_marseille","lat":43.27275,"lon":5.39136,"is_reserved":false,"is_disabled":false,"rental_uris":{"android":"levelo://app?vid=db1ac9e8-2733-492b-8480-e00e6de58734","ios":"levelo://app?vid=db1ac9e8-2733-492b-8480-e00e6de58734"},"vehicle_type_id":"4","last_reported":1778348415,"current_range_meters":3600,"station_id":"","pricing_plan_id":"cebpf4jnsgd1na2vs0mg"},{"bike_id":"fa833790-fea7-4b87-ab01-22a9071ab066","system_id":"levelo_inurba_marseille","lat":43.28486,"lon":5.48383,"is_reserved":false,"is_disabled":false,"rental_uris":{"android":"levelo://app?vid=fa833790-fea7-4b87-ab01-22a9071ab066","ios":"levelo://app?vid=fa833790-fea7-4b87-ab01-22a9071ab066"},"vehicle_type_id":"4","last_reported":1778348415,"current_range_meters":3600,"station_id":"","pricing_plan_id":"cebpf4jnsgd1na2vs0mg"},{"bike_id":"95489a07-b280-4aea-935b-70fc8cc33653","system_id":"levelo_inurba_marseille","lat":43.21759,"lon":5.34606,"is_reserved":false,"is_disabled":true,"rental_uris":{"android":"levelo://app?vid=95489a07-b280-4aea-935b-70fc8cc33653","ios":"levelo://app?vid=95489a07-b280-4aea-935b-70fc8cc33653"},"vehicle_type_id":"4","last_reported":1778348415,"current_range_meters":3600,"station_id":"st_cvj6r9ubvosntc0bgbag","pricing_plan_id":"cebpf4jnsgd1na2vs0mg"},{"bike_id":"5fc85a70-cd51-491b-a363-a46b0850da15","system_id":"levelo_inurba_marseille","lat":43.32878,"lon":5.36688,"is_reserved":false,"is_disabled":false,"rental_uris":{"android":"levelo://app?vid=5fc85a70-cd51-491b-a363-a46b0850da15","ios":"levelo://app?vid=5fc85a70-cd51-491b-a363-a46b0850da15"},"vehicle_type_id":"4","last_reported":1778348415,"current_range_meters":3600,"station_id":"","pricing_plan_id":"cebpf4jnsgd1na2vs0mg"},{"bike_id":"7afac39b-ec7f-441c-854a-bc035a5b385e","system_id":"levelo_inurba_marseille","lat":43.27556,"lon":5.38415,"is_reserved":false,"is_disabled":false,"rental_uris":{"android":"levelo://app?vid=7afac39b-ec7f-441c-854a-bc035a5b385e","ios":"levelo://app?vid=7afac39b-ec7f-441c-854a-bc035a5b385e"},"vehicle_type_id":"4","last_reported":1778348415,"current_range_meters":3600,"station_id":"ce4bhh92rcd13ifvqfi0","pricing_plan_id":"cebpf4jnsgd1na2vs0mg"},{"bike_id":"13b1bcc7-e9d8-48b8-a72f-6d1f9d17e51d","system_id":"levelo_inurba_marseille","lat":43.24951,"lon":5.38941,"is_reserved":false,"is_disabled":false,"rental_uris":{"android":"levelo://app?vid=13b1bcc7-e9d8-48b8-a72f-6d1f9d17e51d","ios":"levelo://app?vid=13b1bcc7-e9d8-48b8-a72f-6d1f9d17e51d"},"vehicle_type_id":"4","last_reported":1778348415,"current_range_meters":3600,"station_id":"","pricing_plan_id":"cebpf4jnsgd1na2vs0mg"},{"bike_id":"c13e7a13-79ca-4cee-809c-aa71e124cb8b","system_id":"levelo_inurba_marseille","lat":43.28459,"lon":5.35892,"is_reserved":false,"is_disabled":false,"rental_uris":{"android":"levelo://app?vid=c13e7a13-79ca-4cee-809c-aa71e124cb8b","ios":"levelo://app?vid=c13e7a13-79ca-4cee-809c-aa71e124cb8b"},"vehicle_type_id":"4","last_reported":1778348415,"current_range_meters":3600,"station_id":"ce4bhah2rcd13ifvqei0","pricing_plan_id":"cebpf4jnsgd1na2vs0mg"},{"bike_id":"be3eb70d-bddd-4c9f-a058-4be32cbd8f4c","system_id":"levelo_inurba_marseille","lat":43.26097,"lon":5.39406,"is_reserved":false,"is_disabled":false,"rental_uris":{"android":"levelo://app?vid=be3eb70d-bddd-4c9f-a058-4be32cbd8f4c","ios":"levelo://app?vid=be3eb70d-bddd-4c9f-a058-4be32cbd8f4c"},"vehicle_type_id":"4","last_reported":1778348415,"current_range_meters":3600,"station_id":"ce4bhh92rcd13ifvqfj0","pricing_plan_id":"cebpf4jnsgd1na2vs0mg"},{"bike_id":"5b17b337-4e55-486b-b310-212b10614e57","system_id":"levelo_inurba_marseille","lat":43.32338,"lon":5.36759,"is_reserved":false,"is_disabled":false,"rental_uris":{"android":"levelo://app?vid=5b17b337-4e55-486b-b310-212b10614e57","ios":"levelo://app?vid=5b17b337-4e55-486b-b310-212b10614e57"},"vehicle_type_id":"4","last_reported":1778348415,"current_range_meters":3600,"station_id":"ce4bhsh2rcd13ifvqi2g","pricing_plan_id":"cebpf4jnsgd1na2vs0mg"},{"bike_id":"50b1fa95-02f4-43a4-a0a9-7096efa3c4e6","system_id":"levelo_inurba_marseille","lat":43.29866,"lon":5.38919,"is_reserved":false,"is_disabled":false,"rental_uris":{"android":"levelo://app?vid=50b1fa95-02f4-43a4-a0a9-7096efa3c4e6","ios":"levelo://app?vid=50b1fa95-02f4-43a4-a0a9-7096efa3c4e6"},"vehicle_type_id":"4","last_reported":1778348415,"current_range_meters":3600,"station_id":"ce4bh392rcd13ifvqdl0","pricing_plan_id":"cebpf4jnsgd1na2vs0mg"},{"bike_id":"343834ee-b926-4d2c-bdd3-bcf9da1816c8","system_id":"levelo_inurba_marseille","lat":43.26564,"lon":5.37285,"is_reserved":false,"is_disabled":false,"rental_uris":{"android":"levelo://app?vid=343834ee-b926-4d2c-bdd3-bcf9da1816c8","ios":"levelo://app?vid=343834ee-b926-4d2c-bdd3-bcf9da1816c8"},"vehicle_type_id":"4","last_reported":1778348415,"current_range_meters":3600,"station_id":"ce4bhg12rcd13ifvqf70","pricing_plan_id":"cebpf4jnsgd1na2vs0mg"},{"bike_id":"b814abf4-d77d-4013-8042-4e39661fb9e7","system_id":"levelo_inurba_marseille","lat":43.27202,"lon":5.39182,"is_reserved":false,"is_disabled":false,"rental_uris":{"android":"levelo://app?vid=b814abf4-d77d-4013-8042-4e39661fb9e7","ios":"levelo://app?vid=b814abf4-d77d-4013-8042-4e39661fb9e7"},"vehicle_type_id":"4","last_reported":1778348415,"current_range_meters":3600,"station_id":"ce4bhhp2rcd13ifvqfm0","pricing_plan_id":"cebpf4jnsgd1na2vs0mg"},{"bike_id":"44323924-798f-42ab-ab14-1aac3eea6f76","system_id":"levelo_inurba_marseille","lat":43.27313,"lon":5.39127,"is_reserved":false,"is_disabled":false,"rental_uris":{"android":"levelo://app?vid=44323924-798f-42ab-ab14-1aac3eea6f76","ios":"levelo://app?vid=44323924-798f-42ab-ab14-1aac3eea6f76"},"vehicle_type_id":"4","last_reported":1778348415,"current_range_meters":3600,"station_id":"ce4bhgp2rcd13ifvqfe0","pricing_plan_id":"cebpf4jnsgd1na2vs0mg"},{"bike_id":"c4c3b82c-52a1-4725-b4c9-119d5083cc55","system_id":"levelo_inurba_marseille","lat":43.239644,"lon":5.366258,"is_reserved":false,"is_disabled":false,"rental_uris":{"android":"levelo://app?vid=c4c3b82c-52a1-4725-b4c9-119d5083cc55","ios":"levelo://app?vid=c4c3b82c-52a1-4725-b4c9-119d5083cc55"},"vehicle_type_id":"4","last_reported":1778348415,"current_range_meters":3600,"station_id":"ce4bhi12rcd13ifvqfp0","pricing_plan_id":"cebpf4jnsgd1na2vs0mg"},{"bike_id":"ba1a84df-99bc-4f91-b102-9b8b01f50ffc","system_id":"levelo_inurba_marseille","lat":43.31879,"lon":5.36819,"is_reserved":false,"is_disabled":false,"rental_uris":{"android":"levelo://app?vid=ba1a84df-99bc-4f91-b102-9b8b01f50ffc","ios":"levelo://app?vid=ba1a84df-99bc-4f91-b102-9b8b01f50ffc"},"vehicle_type_id":"4","last_reported":1778348415,"current_range_meters":4000,"station_id":"st_d6o2h0d0559c73evc1b0","pricing_plan_id":"cebpf4jnsgd1na2vs0mg"},{"bike_id":"59f02d15-449d-49ea-8791-53b7c641060d","system_id":"levelo_inurba_marseille","lat":43.29263,"lon":5.40892,"is_reserved":false,"is_disabled":false,"rental_uris":{"android":"levelo://app?vid=59f02d15-449d-49ea-8791-53b7c641060d","ios":"levelo://app?vid=59f02d15-449d-49ea-8791-53b7c641060d"},"vehicle_type_id":"4","last_reported":1778348415,"current_range_meters":4000,"station_id":"ce4bh192rcd13ifvqdc0","pricing_plan_id":"cebpf4jnsgd1na2vs0mg"},{"bike_id":"e52acf5d-a057-46c0-9bce-e7c70b097916","system_id":"levelo_inurba_marseille","lat":43.250875,"lon":5.395239,"is_reserved":false,"is_disabled":false,"rental_uris":{"android":"levelo://app?vid=e52acf5d-a057-46c0-9bce-e7c70b097916","ios":"levelo://app?vid=e52acf5d-a057-46c0-9bce-e7c70b097916"},"vehicle_type_id":"4","last_reported":1778348415,"current_range_meters":4000,"station_id":"ce4bhm12rcd13ifvqgkg","pricing_plan_id":"cebpf4jnsgd1na2vs0mg"},{"bike_id":"26ff3971-3ad3-421f-b953-66789697f23b","system_id":"levelo_inurba_marseille","lat":43.27191,"lon":5.39192,"is_reserved":false,"is_disabled":false,"rental_uris":{"android":"levelo://app?vid=26ff3971-3ad3-421f-b953-66789697f23b","ios":"levelo://app?vid=26ff3971-3ad3-421f-b953-66789697f23b"},"vehicle_type_id":"4","last_reported":1778348415,"current_range_meters":4000,"station_id":"ce4bhhp2rcd13ifvqfm0","pricing_plan_id":"cebpf4jnsgd1na2vs0mg"},{"bike_id":"079b83ea-a72e-4a8a-8506-4b07ea493768","system_id":"levelo_inurba_marseille","lat":43.29086,"lon":5.37147,"is_reserved":false,"is_disabled":false,"rental_uris":{"android":"levelo://app?vid=079b83ea-a72e-4a8a-8506-4b07ea493768","ios":"levelo://app?vid=079b83ea-a72e-4a8a-8506-4b07ea493768"},"vehicle_type_id":"4","last_reported":1778348415,"current_range_meters":4000,"station_id":"ce4bh5p2rcd13ifvqe4g","pricing_plan_id":"cebpf4jnsgd1na2vs0mg"},{"bike_id":"4433c720-c05e-4419-9a19-b563c044039d","system_id":"levelo_inurba_marseille","lat":43.24664,"lon":5.38146,"is_reserved":false,"is_disabled":false,"rental_uris":{"android":"levelo://app?vid=4433c720-c05e-4419-9a19-b563c044039d","ios":"levelo://app?vid=4433c720-c05e-4419-9a19-b563c044039d"},"vehicle_type_id":"4","last_reported":1778348415,"current_range_meters":4400,"station_id":"ce4bhih2rcd13ifvqfr0","pricing_plan_id":"cebpf4jnsgd1na2vs0mg"},{"bike_id":"09f03c71-3135-488b-aa1b-16f1834011a9","system_id":"levelo_inurba_marseille","lat":43.29198,"lon":5.35677,"is_reserved":false,"is_disabled":false,"rental_uris":{"android":"levelo://app?vid=09f03c71-3135-488b-aa1b-16f1834011a9","ios":"levelo://app?vid=09f03c71-3135-488b-aa1b-16f1834011a9"},"vehicle_type_id":"4","last_reported":1778348415,"current_range_meters":4400,"station_id":"","pricing_plan_id":"cebpf4jnsgd1na2vs0mg"},{"bike_id":"8154ff12-ac46-4d24-99b5-65cac259016b","system_id":"levelo_inurba_marseille","lat":43.245423,"lon":5.395199,"is_reserved":false,"is_disabled":false,"rental_uris":{"android":"levelo://app?vid=8154ff12-ac46-4d24-99b5-65cac259016b","ios":"levelo://app?vid=8154ff12-ac46-4d24-99b5-65cac259016b"},"vehicle_type_id":"4","last_reported":1778348415,"current_range_meters":4400,"station_id":"ce4bhlp2rcd13ifvqgjg","pricing_plan_id":"cebpf4jnsgd1na2vs0mg"},{"bike_id":"aea747f8-311b-4ded-9e0e-45c22d0f6c1f","system_id":"levelo_inurba_marseille","lat":43.27308,"lon":5.39114,"is_reserved":false,"is_disabled":false,"rental_uris":{"android":"levelo://app?vid=aea747f8-311b-4ded-9e0e-45c22d0f6c1f","ios":"levelo://app?vid=aea747f8-311b-4ded-9e0e-45c22d0f6c1f"},"vehicle_type_id":"4","last_reported":1778348415,"current_range_meters":4400,"station_id":"ce4bhgp2rcd13ifvqfe0","pricing_plan_id":"cebpf4jnsgd1na2vs0mg"},{"bike_id":"075e7a6c-4f4b-400a-a226-e30e8c6d4f53","system_id":"levelo_inurba_marseille","lat":43.2781,"lon":5.40712,"is_reserved":false,"is_disabled":false,"rental_uris":{"android":"levelo://app?vid=075e7a6c-4f4b-400a-a226-e30e8c6d4f53","ios":"levelo://app?vid=075e7a6c-4f4b-400a-a226-e30e8c6d4f53"},"vehicle_type_id":"4","last_reported":1778348415,"current_range_meters":4400,"station_id":"ce4bhnh2rcd13ifvqgtg","pricing_plan_id":"cebpf4jnsgd1na2vs0mg"},{"bike_id":"d6177cbc-df79-4783-b382-607985008f6d","system_id":"levelo_inurba_marseille","lat":43.29854,"lon":5.36276,"is_reserved":false,"is_disabled":false,"rental_uris":{"android":"levelo://app?vid=d6177cbc-df79-4783-b382-607985008f6d","ios":"levelo://app?vid=d6177cbc-df79-4783-b382-607985008f6d"},"vehicle_type_id":"4","last_reported":1778348415,"current_range_meters":4400,"station_id":"ce4bgpp2rcd13ifvqc3g","pricing_plan_id":"cebpf4jnsgd1na2vs0mg"},{"bike_id":"ccfc41b9-944b-43fe-b428-c5219bcf8a8a","system_id":"levelo_inurba_marseille","lat":43.29039,"lon":5.38645,"is_reserved":false,"is_disabled":false,"rental_uris":{"android":"levelo://app?vid=ccfc41b9-944b-43fe-b428-c5219bcf8a8a","ios":"levelo://app?vid=ccfc41b9-944b-43fe-b428-c5219bcf8a8a"},"vehicle_type_id":"4","last_reported":1778348415,"current_range_meters":4400,"station_id":"ce4bh4p2rcd13ifvqe0g","pricing_plan_id":"cebpf4jnsgd1na2vs0mg"},{"bike_id":"cbae987d-4b84-417e-bd1f-38e21a9853b9","system_id":"levelo_inurba_marseille","lat":43.29267,"lon":5.38434,"is_reserved":false,"is_disabled":false,"rental_uris":{"android":"levelo://app?vid=cbae987d-4b84-417e-bd1f-38e21a9853b9","ios":"levelo://app?vid=cbae987d-4b84-417e-bd1f-38e21a9853b9"},"vehicle_type_id":"4","last_reported":1778348415,"current_range_meters":4400,"station_id":"ce4bh692rcd13ifvqea0","pricing_plan_id":"cebpf4jnsgd1na2vs0mg"},{"bike_id":"3eaa98fe-19f3-481a-ab88-1a1c39a88d31","system_id":"levelo_inurba_marseille","lat":43.30958,"lon":5.36843,"is_reserved":false,"is_disabled":false,"rental_uris":{"android":"levelo://app?vid=3eaa98fe-19f3-481a-ab88-1a1c39a88d31","ios":"levelo://app?vid=3eaa98fe-19f3-481a-ab88-1a1c39a88d31"},"vehicle_type_id":"4","last_reported":1778348415,"current_range_meters":4400,"station_id":"ce4bgn92rcd13ifvqbvg","pricing_plan_id":"cebpf4jnsgd1na2vs0mg"},{"bike_id":"30041664-003c-4cd4-bde1-834705f2408c","system_id":"levelo_inurba_marseille","lat":43.274252,"lon":5.394134,"is_reserved":false,"is_disabled":false,"rental_uris":{"android":"levelo://app?vid=30041664-003c-4cd4-bde1-834705f2408c","ios":"levelo://app?vid=30041664-003c-4cd4-bde1-834705f2408c"},"vehicle_type_id":"4","last_reported":1778348415,"current_range_meters":4400,"station_id":"ce4bhdp2rcd13ifvqf20","pricing_plan_id":"cebpf4jnsgd1na2vs0mg"},{"bike_id":"c1b768b5-78ad-4562-8b11-acf628f13106","system_id":"levelo_inurba_marseille","lat":43.28009,"lon":5.44157,"is_reserved":false,"is_disabled":false,"rental_uris":{"android":"levelo://app?vid=c1b768b5-78ad-4562-8b11-acf628f13106","ios":"levelo://app?vid=c1b768b5-78ad-4562-8b11-acf628f13106"},"vehicle_type_id":"4","last_reported":1778348415,"current_range_meters":4400,"station_id":"","pricing_plan_id":"cebpf4jnsgd1na2vs0mg"},{"bike_id":"b23376ef-aa88-4e69-9e7f-702d06e027c4","system_id":"levelo_inurba_marseille","lat":43.27163,"lon":5.39187,"is_reserved":false,"is_disabled":false,"rental_uris":{"android":"levelo://app?vid=b23376ef-aa88-4e69-9e7f-702d06e027c4","ios":"levelo://app?vid=b23376ef-aa88-4e69-9e7f-702d06e027c4"},"vehicle_type_id":"4","last_reported":1778348415,"current_range_meters":4400,"station_id":"","pricing_plan_id":"cebpf4jnsgd1na2vs0mg"},{"bike_id":"82c4ff89-91b4-412f-8c54-04b006cf67f6","system_id":"levelo_inurba_marseille","lat":43.31172,"lon":5.3692,"is_reserved":false,"is_disabled":false,"rental_uris":{"android":"levelo://app?vid=82c4ff89-91b4-412f-8c54-04b006cf67f6","ios":"levelo://app?vid=82c4ff89-91b4-412f-8c54-04b006cf67f6"},"vehicle_type_id":"4","last_reported":1778348415,"current_range_meters":4400,"station_id":"","pricing_plan_id":"cebpf4jnsgd1na2vs0mg"},{"bike_id":"60f596ca-32f5-4896-bf54-db217eeefec5","system_id":"levelo_inurba_marseille","lat":43.300878,"lon":5.39081,"is_reserved":false,"is_disabled":false,"rental_uris":{"android":"levelo://app?vid=60f596ca-32f5-4896-bf54-db217eeefec5","ios":"levelo://app?vid=60f596ca-32f5-4896-bf54-db217eeefec5"},"vehicle_type_id":"4","last_reported":1778348415,"current_range_meters":4400,"station_id":"ce4bh192rcd13ifvqdb0","pricing_plan_id":"cebpf4jnsgd1na2vs0mg"},{"bike_id":"2604fbbc-e049-4cc7-8069-721d8cb88417","system_id":"levelo_inurba_marseille","lat":43.2445,"lon":5.42559,"is_reserved":false,"is_disabled":false,"rental_uris":{"android":"levelo://app?vid=2604fbbc-e049-4cc7-8069-721d8cb88417","ios":"levelo://app?vid=2604fbbc-e049-4cc7-8069-721d8cb88417"},"vehicle_type_id":"4","last_reported":1778348415,"current_range_meters":4400,"station_id":"st_d4a3vfp97mjs738cd8kg","pricing_plan_id":"cebpf4jnsgd1na2vs0mg"},{"bike_id":"e8461b56-9af7-4d44-a288-92e063783260","system_id":"levelo_inurba_marseille","lat":43.26218,"lon":5.40452,"is_reserved":false,"is_disabled":false,"rental_uris":{"android":"levelo://app?vid=e8461b56-9af7-4d44-a288-92e063783260","ios":"levelo://app?vid=e8461b56-9af7-4d44-a288-92e063783260"},"vehicle_type_id":"4","last_reported":1778348415,"current_range_meters":4400,"station_id":"ce4bhmh2rcd13ifvqgmg","pricing_plan_id":"cebpf4jnsgd1na2vs0mg"},{"bike_id":"acdb8d73-6978-477f-bfe5-2981495ce1fc","system_id":"levelo_inurba_marseille","lat":43.26557,"lon":5.37278,"is_reserved":false,"is_disabled":false,"rental_uris":{"android":"levelo://app?vid=acdb8d73-6978-477f-bfe5-2981495ce1fc","ios":"levelo://app?vid=acdb8d73-6978-477f-bfe5-2981495ce1fc"},"vehicle_type_id":"4","last_reported":1778348415,"current_range_meters":4400,"station_id":"ce4bhg12rcd13ifvqf70","pricing_plan_id":"cebpf4jnsgd1na2vs0mg"},{"bike_id":"40f5baea-d964-4d28-9f92-953674a25d82","system_id":"levelo_inurba_marseille","lat":43.30891,"lon":5.39658,"is_reserved":false,"is_disabled":false,"rental_uris":{"android":"levelo://app?vid=40f5baea-d964-4d28-9f92-953674a25d82","ios":"levelo://app?vid=40f5baea-d964-4d28-9f92-953674a25d82"},"vehicle_type_id":"4","last_reported":1778348415,"current_range_meters":4400,"station_id":"ce4bh012rcd13ifvqcv0","pricing_plan_id":"cebpf4jnsgd1na2vs0mg"},{"bike_id":"715e6c4e-f5a5-43d4-bda9-55152af43a7b","system_id":"levelo_inurba_marseille","lat":43.26774,"lon":5.39414,"is_reserved":false,"is_disabled":false,"rental_uris":{"android":"levelo://app?vid=715e6c4e-f5a5-43d4-bda9-55152af43a7b","ios":"levelo://app?vid=715e6c4e-f5a5-43d4-bda9-55152af43a7b"},"vehicle_type_id":"4","last_reported":1778348415,"current_range_meters":4400,"station_id":"ce4bhh12rcd13ifvqfg0","pricing_plan_id":"cebpf4jnsgd1na2vs0mg"},{"bike_id":"cad34172-e400-49e7-804c-04a869e760a9","system_id":"levelo_inurba_marseille","lat":43.27324,"lon":5.3911,"is_reserved":false,"is_disabled":false,"rental_uris":{"android":"levelo://app?vid=cad34172-e400-49e7-804c-04a869e760a9","ios":"levelo://app?vid=cad34172-e400-49e7-804c-04a869e760a9"},"vehicle_type_id":"4","last_reported":1778348415,"current_range_meters":4400,"station_id":"ce4bhgp2rcd13ifvqfe0","pricing_plan_id":"cebpf4jnsgd1na2vs0mg"},{"bike_id":"4acb43ed-3642-4736-9baa-453b9005f3a4","system_id":"levelo_inurba_marseille","lat":43.29571,"lon":5.38678,"is_reserved":false,"is_disabled":false,"rental_uris":{"android":"levelo://app?vid=4acb43ed-3642-4736-9baa-453b9005f3a4","ios":"levelo://app?vid=4acb43ed-3642-4736-9baa-453b9005f3a4"},"vehicle_type_id":"4","last_reported":1778348415,"current_range_meters":4400,"station_id":"","pricing_plan_id":"cebpf4jnsgd1na2vs0mg"},{"bike_id":"eee51eae-5aaa-4a90-b6bb-0ee2250819e2","system_id":"levelo_inurba_marseille","lat":43.27887,"lon":5.38747,"is_reserved":false,"is_disabled":false,"rental_uris":{"android":"levelo://app?vid=eee51eae-5aaa-4a90-b6bb-0ee2250819e2","ios":"levelo://app?vid=eee51eae-5aaa-4a90-b6bb-0ee2250819e2"},"vehicle_type_id":"4","last_reported":1778348415,"current_range_meters":4800,"station_id":"","pricing_plan_id":"cebpf4jnsgd1na2vs0mg"},{"bike_id":"06038472-38be-4080-b7e3-99b5ea628dd0","system_id":"levelo_inurba_marseille","lat":43.29528,"lon":5.38529,"is_reserved":false,"is_disabled":false,"rental_uris":{"android":"levelo://app?vid=06038472-38be-4080-b7e3-99b5ea628dd0","ios":"levelo://app?vid=06038472-38be-4080-b7e3-99b5ea628dd0"},"vehicle_type_id":"4","last_reported":1778348415,"current_range_meters":4800,"station_id":"ce4bgih2rcd13ifvqba0","pricing_plan_id":"cebpf4jnsgd1na2vs0mg"},{"bike_id":"36bf5966-883a-4820-975e-e8801ce08727","system_id":"levelo_inurba_marseille","lat":43.29317,"lon":5.37143,"is_reserved":false,"is_disabled":false,"rental_uris":{"android":"levelo://app?vid=36bf5966-883a-4820-975e-e8801ce08727","ios":"levelo://app?vid=36bf5966-883a-4820-975e-e8801ce08727"},"vehicle_type_id":"4","last_reported":1778348415,"current_range_meters":4800,"station_id":"ce4bgh92rcd13ifvqb40","pricing_plan_id":"cebpf4jnsgd1na2vs0mg"},{"bike_id":"bdba5fba-644a-4bca-be8b-80908dbd614b","system_id":"levelo_inurba_marseille","lat":43.27418,"lon":5.39407,"is_reserved":false,"is_disabled":false,"rental_uris":{"android":"levelo://app?vid=bdba5fba-644a-4bca-be8b-80908dbd614b","ios":"levelo://app?vid=bdba5fba-644a-4bca-be8b-80908dbd614b"},"vehicle_type_id":"4","last_reported":1778348415,"current_range_meters":4800,"station_id":"ce4bhdp2rcd13ifvqf20","pricing_plan_id":"cebpf4jnsgd1na2vs0mg"},{"bike_id":"393c6bfc-9719-4c4f-8997-ed6d854d2bd8","system_id":"levelo_inurba_marseille","lat":43.28262,"lon":5.3506,"is_reserved":false,"is_disabled":false,"rental_uris":{"android":"levelo://app?vid=393c6bfc-9719-4c4f-8997-ed6d854d2bd8","ios":"levelo://app?vid=393c6bfc-9719-4c4f-8997-ed6d854d2bd8"},"vehicle_type_id":"4","last_reported":1778348415,"current_range_meters":4800,"station_id":"ce4bhbp2rcd13ifvqerg","pricing_plan_id":"cebpf4jnsgd1na2vs0mg"},{"bike_id":"751cdc66-8641-4875-a1dd-40c6831f96d1","system_id":"levelo_inurba_marseille","lat":43.26785,"lon":5.39418,"is_reserved":false,"is_disabled":false,"rental_uris":{"android":"levelo://app?vid=751cdc66-8641-4875-a1dd-40c6831f96d1","ios":"levelo://app?vid=751cdc66-8641-4875-a1dd-40c6831f96d1"},"vehicle_type_id":"4","last_reported":1778348415,"current_range_meters":4800,"station_id":"ce4bhh12rcd13ifvqfg0","pricing_plan_id":"cebpf4jnsgd1na2vs0mg"},{"bike_id":"e9603e54-ff6b-4fae-9e9b-b17dd395cbe4","system_id":"levelo_inurba_marseille","lat":43.26362,"lon":5.39917,"is_reserved":false,"is_disabled":false,"rental_uris":{"android":"levelo://app?vid=e9603e54-ff6b-4fae-9e9b-b17dd395cbe4","ios":"levelo://app?vid=e9603e54-ff6b-4fae-9e9b-b17dd395cbe4"},"vehicle_type_id":"4","last_reported":1778348415,"current_range_meters":4800,"station_id":"","pricing_plan_id":"cebpf4jnsgd1na2vs0mg"},{"bike_id":"27dd487f-6124-474e-99d9-df68aa587ff8","system_id":"levelo_inurba_marseille","lat":43.28667,"lon":5.3742,"is_reserved":false,"is_disabled":false,"rental_uris":{"android":"levelo://app?vid=27dd487f-6124-474e-99d9-df68aa587ff8","ios":"levelo://app?vid=27dd487f-6124-474e-99d9-df68aa587ff8"},"vehicle_type_id":"4","last_reported":1778348415,"current_range_meters":4800,"station_id":"ce4bh3p2rcd13ifvqdq0","pricing_plan_id":"cebpf4jnsgd1na2vs0mg"},{"bike_id":"348bfdba-9d6e-4aa7-8d67-36f0a3487da5","system_id":"levelo_inurba_marseille","lat":43.31366,"lon":5.38507,"is_reserved":false,"is_disabled":false,"rental_uris":{"android":"levelo://app?vid=348bfdba-9d6e-4aa7-8d67-36f0a3487da5","ios":"levelo://app?vid=348bfdba-9d6e-4aa7-8d67-36f0a3487da5"},"vehicle_type_id":"4","last_reported":1778348415,"current_range_meters":4800,"station_id":"ce4bgt92rcd13ifvqcf0","pricing_plan_id":"cebpf4jnsgd1na2vs0mg"},{"bike_id":"61002420-6a77-4a70-8c67-d6290c4e07fe","system_id":"levelo_inurba_marseille","lat":43.26488,"lon":5.39556,"is_reserved":false,"is_disabled":false,"rental_uris":{"android":"levelo://app?vid=61002420-6a77-4a70-8c67-d6290c4e07fe","ios":"levelo://app?vid=61002420-6a77-4a70-8c67-d6290c4e07fe"},"vehicle_type_id":"4","last_reported":1778348415,"current_range_meters":4800,"station_id":"ce4bhi12rcd13ifvqfq0","pricing_plan_id":"cebpf4jnsgd1na2vs0mg"},{"bike_id":"c2f371ff-7955-49f6-8507-0905d38ae0b7","system_id":"levelo_inurba_marseille","lat":43.30887,"lon":5.371921,"is_reserved":false,"is_disabled":false,"rental_uris":{"android":"levelo://app?vid=c2f371ff-7955-49f6-8507-0905d38ae0b7","ios":"levelo://app?vid=c2f371ff-7955-49f6-8507-0905d38ae0b7"},"vehicle_type_id":"4","last_reported":1778348415,"current_range_meters":4800,"station_id":"ce4bguh2rcd13ifvqckg","pricing_plan_id":"cebpf4jnsgd1na2vs0mg"},{"bike_id":"190b9c16-9267-4536-8147-92a2558a8b5b","system_id":"levelo_inurba_marseille","lat":43.304589,"lon":5.379075,"is_reserved":false,"is_disabled":false,"rental_uris":{"android":"levelo://app?vid=190b9c16-9267-4536-8147-92a2558a8b5b","ios":"levelo://app?vid=190b9c16-9267-4536-8147-92a2558a8b5b"},"vehicle_type_id":"4","last_reported":1778348415,"current_range_meters":4800,"station_id":"ce4bgup2rcd13ifvqcn0","pricing_plan_id":"cebpf4jnsgd1na2vs0mg"},{"bike_id":"a1be75a7-7777-4f8c-b405-594ea4aaacd7","system_id":"levelo_inurba_marseille","lat":43.28388,"lon":5.37549,"is_reserved":false,"is_disabled":false,"rental_uris":{"android":"levelo://app?vid=a1be75a7-7777-4f8c-b405-594ea4aaacd7","ios":"levelo://app?vid=a1be75a7-7777-4f8c-b405-594ea4aaacd7"},"vehicle_type_id":"4","last_reported":1778348415,"current_range_meters":4800,"station_id":"ce4bh412rcd13ifvqds0","pricing_plan_id":"cebpf4jnsgd1na2vs0mg"},{"bike_id":"92c9d0a0-7699-4a8f-9822-768984018037","system_id":"levelo_inurba_marseille","lat":43.337444,"lon":5.374475,"is_reserved":false,"is_disabled":false,"rental_uris":{"android":"levelo://app?vid=92c9d0a0-7699-4a8f-9822-768984018037","ios":"levelo://app?vid=92c9d0a0-7699-4a8f-9822-768984018037"},"vehicle_type_id":"4","last_reported":1778348415,"current_range_meters":4800,"station_id":"ce4bhbh2rcd13ifvqeqg","pricing_plan_id":"cebpf4jnsgd1na2vs0mg"},{"bike_id":"374b2057-15d6-47ba-a552-d6515abccbd9","system_id":"levelo_inurba_marseille","lat":43.25566,"lon":5.38273,"is_reserved":false,"is_disabled":false,"rental_uris":{"android":"levelo://app?vid=374b2057-15d6-47ba-a552-d6515abccbd9","ios":"levelo://app?vid=374b2057-15d6-47ba-a552-d6515abccbd9"},"vehicle_type_id":"4","last_reported":1778348415,"current_range_meters":5600,"station_id":"ce4bhih2rcd13ifvqfs0","pricing_plan_id":"cebpf4jnsgd1na2vs0mg"},{"bike_id":"0e9fefd6-d903-48af-8f71-233497c4ff19","system_id":"levelo_inurba_marseille","lat":43.26059,"lon":5.39396,"is_reserved":false,"is_disabled":false,"rental_uris":{"android":"levelo://app?vid=0e9fefd6-d903-48af-8f71-233497c4ff19","ios":"levelo://app?vid=0e9fefd6-d903-48af-8f71-233497c4ff19"},"vehicle_type_id":"4","last_reported":1778348415,"current_range_meters":5600,"station_id":"ce4bhh92rcd13ifvqfj0","pricing_plan_id":"cebpf4jnsgd1na2vs0mg"},{"bike_id":"8127a179-0b6c-4390-978d-34e331e55652","system_id":"levelo_inurba_marseille","lat":43.31699,"lon":5.40463,"is_reserved":false,"is_disabled":false,"rental_uris":{"android":"levelo://app?vid=8127a179-0b6c-4390-978d-34e331e55652","ios":"levelo://app?vid=8127a179-0b6c-4390-978d-34e331e55652"},"vehicle_type_id":"4","last_reported":1778348415,"current_range_meters":5600,"station_id":"ce4bh012rcd13ifvqd00","pricing_plan_id":"cebpf4jnsgd1na2vs0mg"},{"bike_id":"06eb2a3d-eff9-47db-b493-097bff667fda","system_id":"levelo_inurba_marseille","lat":43.31324,"lon":5.39679,"is_reserved":false,"is_disabled":false,"rental_uris":{"android":"levelo://app?vid=06eb2a3d-eff9-47db-b493-097bff667fda","ios":"levelo://app?vid=06eb2a3d-eff9-47db-b493-097bff667fda"},"vehicle_type_id":"4","last_reported":1778348415,"current_range_meters":5600,"station_id":"ce4bgvp2rcd13ifvqcu0","pricing_plan_id":"cebpf4jnsgd1na2vs0mg"},{"bike_id":"798dd442-ecce-41be-b4b9-436ee7f8a467","system_id":"levelo_inurba_marseille","lat":43.272094,"lon":5.390291,"is_reserved":false,"is_disabled":false,"rental_uris":{"android":"levelo://app?vid=798dd442-ecce-41be-b4b9-436ee7f8a467","ios":"levelo://app?vid=798dd442-ecce-41be-b4b9-436ee7f8a467"},"vehicle_type_id":"4","last_reported":1778348415,"current_range_meters":5600,"station_id":"ce4bhhp2rcd13ifvqfm0","pricing_plan_id":"cebpf4jnsgd1na2vs0mg"},{"bike_id":"4342608d-aa3a-4d5a-9dae-1f92fea5b950","system_id":"levelo_inurba_marseille","lat":43.28455,"lon":5.39192,"is_reserved":false,"is_disabled":false,"rental_uris":{"android":"levelo://app?vid=4342608d-aa3a-4d5a-9dae-1f92fea5b950","ios":"levelo://app?vid=4342608d-aa3a-4d5a-9dae-1f92fea5b950"},"vehicle_type_id":"4","last_reported":1778348415,"current_range_meters":5600,"station_id":"ce4bhoh2rcd13ifvqh5g","pricing_plan_id":"cebpf4jnsgd1na2vs0mg"},{"bike_id":"8d433cd8-ede2-498a-84f5-0980fac50dc8","system_id":"levelo_inurba_marseille","lat":43.3041,"lon":5.42353,"is_reserved":false,"is_disabled":false,"rental_uris":{"android":"levelo://app?vid=8d433cd8-ede2-498a-84f5-0980fac50dc8","ios":"levelo://app?vid=8d433cd8-ede2-498a-84f5-0980fac50dc8"},"vehicle_type_id":"4","last_reported":1778348415,"current_range_meters":5600,"station_id":"","pricing_plan_id":"cebpf4jnsgd1na2vs0mg"},{"bike_id":"aca4d789-ddc3-4c90-ac02-851a78a69ef1","system_id":"levelo_inurba_marseille","lat":43.29936,"lon":5.365604,"is_reserved":false,"is_disabled":false,"rental_uris":{"android":"levelo://app?vid=aca4d789-ddc3-4c90-ac02-851a78a69ef1","ios":"levelo://app?vid=aca4d789-ddc3-4c90-ac02-851a78a69ef1"},"vehicle_type_id":"4","last_reported":1778348415,"current_range_meters":5600,"station_id":"ce4bgm92rcd13ifvqbr0","pricing_plan_id":"cebpf4jnsgd1na2vs0mg"},{"bike_id":"012436db-213f-4ce3-a46b-2b318f2b65c1","system_id":"levelo_inurba_marseille","lat":43.29581,"lon":5.3747,"is_reserved":false,"is_disabled":true,"rental_uris":{"android":"levelo://app?vid=012436db-213f-4ce3-a46b-2b318f2b65c1","ios":"levelo://app?vid=012436db-213f-4ce3-a46b-2b318f2b65c1"},"vehicle_type_id":"4","last_reported":1778348415,"current_range_meters":5600,"station_id":"ce4bgh92rcd13ifvqb50","pricing_plan_id":"cebpf4jnsgd1na2vs0mg"},{"bike_id":"5361539f-a584-4329-8108-172e9f5f2d2f","system_id":"levelo_inurba_marseille","lat":43.26081,"lon":5.3938,"is_reserved":false,"is_disabled":false,"rental_uris":{"android":"levelo://app?vid=5361539f-a584-4329-8108-172e9f5f2d2f","ios":"levelo://app?vid=5361539f-a584-4329-8108-172e9f5f2d2f"},"vehicle_type_id":"4","last_reported":1778348415,"current_range_meters":5600,"station_id":"ce4bhh92rcd13ifvqfj0","pricing_plan_id":"cebpf4jnsgd1na2vs0mg"},{"bike_id":"af61e9e5-a309-4a8f-aeec-cfe3919b7118","system_id":"levelo_inurba_marseille","lat":43.24785,"lon":5.37443,"is_reserved":false,"is_disabled":false,"rental_uris":{"android":"levelo://app?vid=af61e9e5-a309-4a8f-aeec-cfe3919b7118","ios":"levelo://app?vid=af61e9e5-a309-4a8f-aeec-cfe3919b7118"},"vehicle_type_id":"4","last_reported":1778348415,"current_range_meters":5600,"station_id":"ce4bhgh2rcd13ifvqfb0","pricing_plan_id":"cebpf4jnsgd1na2vs0mg"},{"bike_id":"07829fdc-c599-44a2-8a5d-d38b8b9f7bb8","system_id":"levelo_inurba_marseille","lat":43.30368,"lon":5.42489,"is_reserved":false,"is_disabled":true,"rental_uris":{"android":"levelo://app?vid=07829fdc-c599-44a2-8a5d-d38b8b9f7bb8","ios":"levelo://app?vid=07829fdc-c599-44a2-8a5d-d38b8b9f7bb8"},"vehicle_type_id":"4","last_reported":1778348415,"current_range_meters":5600,"station_id":"ce4bhoh2rcd13ifvqh6g","pricing_plan_id":"cebpf4jnsgd1na2vs0mg"},{"bike_id":"b8425fa1-a298-4679-ba8a-777546e14eca","system_id":"levelo_inurba_marseille","lat":43.3378,"lon":5.37441,"is_reserved":false,"is_disabled":false,"rental_uris":{"android":"levelo://app?vid=b8425fa1-a298-4679-ba8a-777546e14eca","ios":"levelo://app?vid=b8425fa1-a298-4679-ba8a-777546e14eca"},"vehicle_type_id":"4","last_reported":1778348415,"current_range_meters":5600,"station_id":"","pricing_plan_id":"cebpf4jnsgd1na2vs0mg"},{"bike_id":"f16537a4-61e2-487d-a888-9c49de7cbe19","system_id":"levelo_inurba_marseille","lat":43.30148,"lon":5.38785,"is_reserved":false,"is_disabled":false,"rental_uris":{"android":"levelo://app?vid=f16537a4-61e2-487d-a888-9c49de7cbe19","ios":"levelo://app?vid=f16537a4-61e2-487d-a888-9c49de7cbe19"},"vehicle_type_id":"4","last_reported":1778348415,"current_range_meters":5600,"station_id":"ce4bghh2rcd13ifvqb60","pricing_plan_id":"cebpf4jnsgd1na2vs0mg"},{"bike_id":"21d77756-98a6-4a2a-8e5d-a5338d89550c","system_id":"levelo_inurba_marseille","lat":43.28688,"lon":5.37362,"is_reserved":false,"is_disabled":false,"rental_uris":{"android":"levelo://app?vid=21d77756-98a6-4a2a-8e5d-a5338d89550c","ios":"levelo://app?vid=21d77756-98a6-4a2a-8e5d-a5338d89550c"},"vehicle_type_id":"4","last_reported":1778348415,"current_range_meters":5600,"station_id":"ce4bh3p2rcd13ifvqdq0","pricing_plan_id":"cebpf4jnsgd1na2vs0mg"},{"bike_id":"5a436f11-afe4-43ad-a9a1-056bd0578be1","system_id":"levelo_inurba_marseille","lat":43.2796,"lon":5.38719,"is_reserved":false,"is_disabled":true,"rental_uris":{"android":"levelo://app?vid=5a436f11-afe4-43ad-a9a1-056bd0578be1","ios":"levelo://app?vid=5a436f11-afe4-43ad-a9a1-056bd0578be1"},"vehicle_type_id":"4","last_reported":1778348415,"current_range_meters":5600,"station_id":"ce4bhg12rcd13ifvqf80","pricing_plan_id":"cebpf4jnsgd1na2vs0mg"},{"bike_id":"d8a60d2b-c911-4a35-9272-b24976059bcb","system_id":"levelo_inurba_marseille","lat":43.24489,"lon":5.42542,"is_reserved":false,"is_disabled":false,"rental_uris":{"android":"levelo://app?vid=d8a60d2b-c911-4a35-9272-b24976059bcb","ios":"levelo://app?vid=d8a60d2b-c911-4a35-9272-b24976059bcb"},"vehicle_type_id":"4","last_reported":1778348415,"current_range_meters":5600,"station_id":"st_d4a3vfp97mjs738cd8kg","pricing_plan_id":"cebpf4jnsgd1na2vs0mg"},{"bike_id":"04ee24fb-ee23-4fa7-a6fe-89e7ad189c21","system_id":"levelo_inurba_marseille","lat":43.29834,"lon":5.3628,"is_reserved":false,"is_disabled":false,"rental_uris":{"android":"levelo://app?vid=04ee24fb-ee23-4fa7-a6fe-89e7ad189c21","ios":"levelo://app?vid=04ee24fb-ee23-4fa7-a6fe-89e7ad189c21"},"vehicle_type_id":"4","last_reported":1778348415,"current_range_meters":5600,"station_id":"ce4bgpp2rcd13ifvqc3g","pricing_plan_id":"cebpf4jnsgd1na2vs0mg"},{"bike_id":"271681c6-7806-458c-86cb-e9589f46e6fe","system_id":"levelo_inurba_marseille","lat":43.27803,"lon":5.40707,"is_reserved":false,"is_disabled":false,"rental_uris":{"android":"levelo://app?vid=271681c6-7806-458c-86cb-e9589f46e6fe","ios":"levelo://app?vid=271681c6-7806-458c-86cb-e9589f46e6fe"},"vehicle_type_id":"4","last_reported":1778348415,"current_range_meters":6000,"station_id":"ce4bhnh2rcd13ifvqgtg","pricing_plan_id":"cebpf4jnsgd1na2vs0mg"},{"bike_id":"a42d0819-d263-4a44-a5ac-c71929da87e3","system_id":"levelo_inurba_marseille","lat":43.26775,"lon":5.39416,"is_reserved":false,"is_disabled":false,"rental_uris":{"android":"levelo://app?vid=a42d0819-d263-4a44-a5ac-c71929da87e3","ios":"levelo://app?vid=a42d0819-d263-4a44-a5ac-c71929da87e3"},"vehicle_type_id":"4","last_reported":1778348415,"current_range_meters":6000,"station_id":"ce4bhh12rcd13ifvqfg0","pricing_plan_id":"cebpf4jnsgd1na2vs0mg"},{"bike_id":"b4413a4d-15de-4b24-a498-4680ee909a28","system_id":"levelo_inurba_marseille","lat":43.29512,"lon":5.39041,"is_reserved":false,"is_disabled":false,"rental_uris":{"android":"levelo://app?vid=b4413a4d-15de-4b24-a498-4680ee909a28","ios":"levelo://app?vid=b4413a4d-15de-4b24-a498-4680ee909a28"},"vehicle_type_id":"4","last_reported":1778348415,"current_range_meters":6000,"station_id":"ce4bh3p2rcd13ifvqdp0","pricing_plan_id":"cebpf4jnsgd1na2vs0mg"},{"bike_id":"8fdbe986-716a-4dce-a50d-3af695e9688c","system_id":"levelo_inurba_marseille","lat":43.33528,"lon":5.37465,"is_reserved":false,"is_disabled":false,"rental_uris":{"android":"levelo://app?vid=8fdbe986-716a-4dce-a50d-3af695e9688c","ios":"levelo://app?vid=8fdbe986-716a-4dce-a50d-3af695e9688c"},"vehicle_type_id":"4","last_reported":1778348415,"current_range_meters":6000,"station_id":"st_d46tts09ee8s73dlu43g","pricing_plan_id":"cebpf4jnsgd1na2vs0mg"},{"bike_id":"e25ab1eb-4117-4288-9064-c7dbbdb6c6b8","system_id":"levelo_inurba_marseille","lat":43.33019,"lon":5.39038,"is_reserved":false,"is_disabled":false,"rental_uris":{"android":"levelo://app?vid=e25ab1eb-4117-4288-9064-c7dbbdb6c6b8","ios":"levelo://app?vid=e25ab1eb-4117-4288-9064-c7dbbdb6c6b8"},"vehicle_type_id":"4","last_reported":1778348415,"current_range_meters":6000,"station_id":"ce4bhr92rcd13ifvqhrg","pricing_plan_id":"cebpf4jnsgd1na2vs0mg"},{"bike_id":"1f2e3678-2790-4134-b0b0-63d504b63bcc","system_id":"levelo_inurba_marseille","lat":43.2982,"lon":5.36239,"is_reserved":false,"is_disabled":false,"rental_uris":{"android":"levelo://app?vid=1f2e3678-2790-4134-b0b0-63d504b63bcc","ios":"levelo://app?vid=1f2e3678-2790-4134-b0b0-63d504b63bcc"},"vehicle_type_id":"4","last_reported":1778348415,"current_range_meters":6000,"station_id":"ce4bgpp2rcd13ifvqc3g","pricing_plan_id":"cebpf4jnsgd1na2vs0mg"},{"bike_id":"558ecc7a-7ed0-4d4d-8eaf-a0bf6d6ce907","system_id":"levelo_inurba_marseille","lat":43.28224,"lon":5.40559,"is_reserved":false,"is_disabled":false,"rental_uris":{"android":"levelo://app?vid=558ecc7a-7ed0-4d4d-8eaf-a0bf6d6ce907","ios":"levelo://app?vid=558ecc7a-7ed0-4d4d-8eaf-a0bf6d6ce907"},"vehicle_type_id":"4","last_reported":1778348415,"current_range_meters":6000,"station_id":"","pricing_plan_id":"cebpf4jnsgd1na2vs0mg"},{"bike_id":"e744fd51-d53a-4993-92a1-3a6752e7a33c","system_id":"levelo_inurba_marseille","lat":43.32144,"lon":5.36757,"is_reserved":false,"is_disabled":false,"rental_uris":{"android":"levelo://app?vid=e744fd51-d53a-4993-92a1-3a6752e7a33c","ios":"levelo://app?vid=e744fd51-d53a-4993-92a1-3a6752e7a33c"},"vehicle_type_id":"4","last_reported":1778348415,"current_range_meters":6000,"station_id":"ce4bhrh2rcd13ifvqhug","pricing_plan_id":"cebpf4jnsgd1na2vs0mg"},{"bike_id":"e40313bb-0626-44b0-97f2-8e7e45a6caa8","system_id":"levelo_inurba_marseille","lat":43.26775,"lon":5.39413,"is_reserved":false,"is_disabled":false,"rental_uris":{"android":"levelo://app?vid=e40313bb-0626-44b0-97f2-8e7e45a6caa8","ios":"levelo://app?vid=e40313bb-0626-44b0-97f2-8e7e45a6caa8"},"vehicle_type_id":"4","last_reported":1778348415,"current_range_meters":6000,"station_id":"ce4bhh12rcd13ifvqfg0","pricing_plan_id":"cebpf4jnsgd1na2vs0mg"},{"bike_id":"10c1c852-27c1-4a93-8a9e-687fcc741284","system_id":"levelo_inurba_marseille","lat":43.29858,"lon":5.36268,"is_reserved":false,"is_disabled":false,"rental_uris":{"android":"levelo://app?vid=10c1c852-27c1-4a93-8a9e-687fcc741284","ios":"levelo://app?vid=10c1c852-27c1-4a93-8a9e-687fcc741284"},"vehicle_type_id":"4","last_reported":1778348415,"current_range_meters":6000,"station_id":"ce4bgpp2rcd13ifvqc3g","pricing_plan_id":"cebpf4jnsgd1na2vs0mg"},{"bike_id":"c8839437-c286-4318-b7be-1ada9dfcd256","system_id":"levelo_inurba_marseille","lat":43.26348,"lon":5.40963,"is_reserved":false,"is_disabled":false,"rental_uris":{"android":"levelo://app?vid=c8839437-c286-4318-b7be-1ada9dfcd256","ios":"levelo://app?vid=c8839437-c286-4318-b7be-1ada9dfcd256"},"vehicle_type_id":"4","last_reported":1778348415,"current_range_meters":6000,"station_id":"st_d4e5ca6na9uc73bfl5fg","pricing_plan_id":"cebpf4jnsgd1na2vs0mg"},{"bike_id":"04bbb414-85c4-496b-9e21-7d690b7a16fc","system_id":"levelo_inurba_marseille","lat":43.28102,"lon":5.3784,"is_reserved":false,"is_disabled":false,"rental_uris":{"android":"levelo://app?vid=04bbb414-85c4-496b-9e21-7d690b7a16fc","ios":"levelo://app?vid=04bbb414-85c4-496b-9e21-7d690b7a16fc"},"vehicle_type_id":"4","last_reported":1778348415,"current_range_meters":6000,"station_id":"ce4bha12rcd13ifvqee0","pricing_plan_id":"cebpf4jnsgd1na2vs0mg"},{"bike_id":"450b8f63-c29f-4fe5-b962-cdb41398e02a","system_id":"levelo_inurba_marseille","lat":43.29876,"lon":5.38912,"is_reserved":false,"is_disabled":false,"rental_uris":{"android":"levelo://app?vid=450b8f63-c29f-4fe5-b962-cdb41398e02a","ios":"levelo://app?vid=450b8f63-c29f-4fe5-b962-cdb41398e02a"},"vehicle_type_id":"4","last_reported":1778348415,"current_range_meters":6000,"station_id":"ce4bh392rcd13ifvqdl0","pricing_plan_id":"cebpf4jnsgd1na2vs0mg"},{"bike_id":"b4bc587a-6ea5-4a51-be2b-84e77a62aed9","system_id":"levelo_inurba_marseille","lat":43.28964,"lon":5.37835,"is_reserved":false,"is_disabled":false,"rental_uris":{"android":"levelo://app?vid=b4bc587a-6ea5-4a51-be2b-84e77a62aed9","ios":"levelo://app?vid=b4bc587a-6ea5-4a51-be2b-84e77a62aed9"},"vehicle_type_id":"4","last_reported":1778348415,"current_range_meters":6000,"station_id":"ce4bh9p2rcd13ifvqed0","pricing_plan_id":"cebpf4jnsgd1na2vs0mg"},{"bike_id":"c440543a-fc70-44c0-b21f-aa93407f1be5","system_id":"levelo_inurba_marseille","lat":43.34136,"lon":5.40904,"is_reserved":false,"is_disabled":true,"rental_uris":{"android":"levelo://app?vid=c440543a-fc70-44c0-b21f-aa93407f1be5","ios":"levelo://app?vid=c440543a-fc70-44c0-b21f-aa93407f1be5"},"vehicle_type_id":"4","last_reported":1778348415,"current_range_meters":6000,"station_id":"ce4bhqh2rcd13ifvqhlg","pricing_plan_id":"cebpf4jnsgd1na2vs0mg"},{"bike_id":"55bd0be8-2922-4948-a41f-addf407fe060","system_id":"levelo_inurba_marseille","lat":43.29848,"lon":5.36279,"is_reserved":false,"is_disabled":false,"rental_uris":{"android":"levelo://app?vid=55bd0be8-2922-4948-a41f-addf407fe060","ios":"levelo://app?vid=55bd0be8-2922-4948-a41f-addf407fe060"},"vehicle_type_id":"4","last_reported":1778348415,"current_range_meters":6000,"station_id":"ce4bgpp2rcd13ifvqc3g","pricing_plan_id":"cebpf4jnsgd1na2vs0mg"},{"bike_id":"ea094aa0-6adb-465e-b562-1db77b7fd78c","system_id":"levelo_inurba_marseille","lat":43.26572,"lon":5.37278,"is_reserved":false,"is_disabled":false,"rental_uris":{"android":"levelo://app?vid=ea094aa0-6adb-465e-b562-1db77b7fd78c","ios":"levelo://app?vid=ea094aa0-6adb-465e-b562-1db77b7fd78c"},"vehicle_type_id":"4","last_reported":1778348415,"current_range_meters":6000,"station_id":"ce4bhg12rcd13ifvqf70","pricing_plan_id":"cebpf4jnsgd1na2vs0mg"},{"bike_id":"d66e3aee-030c-411e-8b2a-b74bee0c4a26","system_id":"levelo_inurba_marseille","lat":43.295292,"lon":5.385655,"is_reserved":false,"is_disabled":false,"rental_uris":{"android":"levelo://app?vid=d66e3aee-030c-411e-8b2a-b74bee0c4a26","ios":"levelo://app?vid=d66e3aee-030c-411e-8b2a-b74bee0c4a26"},"vehicle_type_id":"4","last_reported":1778348415,"current_range_meters":6000,"station_id":"ce4bgih2rcd13ifvqba0","pricing_plan_id":"cebpf4jnsgd1na2vs0mg"},{"bike_id":"496d9d23-0758-4b07-831b-1c112b733a7b","system_id":"levelo_inurba_marseille","lat":43.27909,"lon":5.37995,"is_reserved":false,"is_disabled":false,"rental_uris":{"android":"levelo://app?vid=496d9d23-0758-4b07-831b-1c112b733a7b","ios":"levelo://app?vid=496d9d23-0758-4b07-831b-1c112b733a7b"},"vehicle_type_id":"4","last_reported":1778348415,"current_range_meters":6000,"station_id":"ce4bhf92rcd13ifvqf50","pricing_plan_id":"cebpf4jnsgd1na2vs0mg"},{"bike_id":"ef4c0d2f-d37c-409b-be4c-7cceaa4aabfa","system_id":"levelo_inurba_marseille","lat":43.28467,"lon":5.48406,"is_reserved":false,"is_disabled":false,"rental_uris":{"android":"levelo://app?vid=ef4c0d2f-d37c-409b-be4c-7cceaa4aabfa","ios":"levelo://app?vid=ef4c0d2f-d37c-409b-be4c-7cceaa4aabfa"},"vehicle_type_id":"4","last_reported":1778348415,"current_range_meters":6400,"station_id":"","pricing_plan_id":"cebpf4jnsgd1na2vs0mg"},{"bike_id":"5d0b675a-025b-429b-a587-89adfbe45954","system_id":"levelo_inurba_marseille","lat":43.26538,"lon":5.37299,"is_reserved":false,"is_disabled":false,"rental_uris":{"android":"levelo://app?vid=5d0b675a-025b-429b-a587-89adfbe45954","ios":"levelo://app?vid=5d0b675a-025b-429b-a587-89adfbe45954"},"vehicle_type_id":"4","last_reported":1778348415,"current_range_meters":6400,"station_id":"ce4bhg12rcd13ifvqf70","pricing_plan_id":"cebpf4jnsgd1na2vs0mg"},{"bike_id":"0905bf26-d1df-4967-bcf7-a2c7f347956a","system_id":"levelo_inurba_marseille","lat":43.28931,"lon":5.39634,"is_reserved":false,"is_disabled":true,"rental_uris":{"android":"levelo://app?vid=0905bf26-d1df-4967-bcf7-a2c7f347956a","ios":"levelo://app?vid=0905bf26-d1df-4967-bcf7-a2c7f347956a"},"vehicle_type_id":"4","last_reported":1778348415,"current_range_meters":6400,"station_id":"ce4bh3h2rcd13ifvqdn0","pricing_plan_id":"cebpf4jnsgd1na2vs0mg"},{"bike_id":"21027f7b-5afc-4406-a90c-b6b023bcf36c","system_id":"levelo_inurba_marseille","lat":43.24694,"lon":5.38133,"is_reserved":false,"is_disabled":false,"rental_uris":{"android":"levelo://app?vid=21027f7b-5afc-4406-a90c-b6b023bcf36c","ios":"levelo://app?vid=21027f7b-5afc-4406-a90c-b6b023bcf36c"},"vehicle_type_id":"4","last_reported":1778348415,"current_range_meters":6400,"station_id":"ce4bhih2rcd13ifvqfr0","pricing_plan_id":"cebpf4jnsgd1na2vs0mg"},{"bike_id":"64ca439b-a2a6-4835-bc6b-b3a491984dcf","system_id":"levelo_inurba_marseille","lat":43.27304,"lon":5.39109,"is_reserved":false,"is_disabled":false,"rental_uris":{"android":"levelo://app?vid=64ca439b-a2a6-4835-bc6b-b3a491984dcf","ios":"levelo://app?vid=64ca439b-a2a6-4835-bc6b-b3a491984dcf"},"vehicle_type_id":"4","last_reported":1778348415,"current_range_meters":6400,"station_id":"ce4bhgp2rcd13ifvqfe0","pricing_plan_id":"cebpf4jnsgd1na2vs0mg"},{"bike_id":"aad10db8-b026-409c-9558-2748d08f6222","system_id":"levelo_inurba_marseille","lat":43.29259,"lon":5.38436,"is_reserved":false,"is_disabled":false,"rental_uris":{"android":"levelo://app?vid=aad10db8-b026-409c-9558-2748d08f6222","ios":"levelo://app?vid=aad10db8-b026-409c-9558-2748d08f6222"},"vehicle_type_id":"4","last_reported":1778348415,"current_range_meters":6400,"station_id":"ce4bh692rcd13ifvqea0","pricing_plan_id":"cebpf4jnsgd1na2vs0mg"},{"bike_id":"0c1e5de2-2f01-4591-ab3b-3a5ae0e1c12e","system_id":"levelo_inurba_marseille","lat":43.26029,"lon":5.3755,"is_reserved":false,"is_disabled":false,"rental_uris":{"android":"levelo://app?vid=0c1e5de2-2f01-4591-ab3b-3a5ae0e1c12e","ios":"levelo://app?vid=0c1e5de2-2f01-4591-ab3b-3a5ae0e1c12e"},"vehicle_type_id":"4","last_reported":1778348415,"current_range_meters":6400,"station_id":"ce4bhgh2rcd13ifvqfa0","pricing_plan_id":"cebpf4jnsgd1na2vs0mg"},{"bike_id":"407e9612-ad93-4d7c-a713-0ff1764d5034","system_id":"levelo_inurba_marseille","lat":43.31359,"lon":5.41511,"is_reserved":false,"is_disabled":false,"rental_uris":{"android":"levelo://app?vid=407e9612-ad93-4d7c-a713-0ff1764d5034","ios":"levelo://app?vid=407e9612-ad93-4d7c-a713-0ff1764d5034"},"vehicle_type_id":"4","last_reported":1778348415,"current_range_meters":6400,"station_id":"","pricing_plan_id":"cebpf4jnsgd1na2vs0mg"},{"bike_id":"5dda00a1-f787-488a-aa64-058079c40c64","system_id":"levelo_inurba_marseille","lat":43.2696,"lon":5.39354,"is_reserved":false,"is_disabled":false,"rental_uris":{"android":"levelo://app?vid=5dda00a1-f787-488a-aa64-058079c40c64","ios":"levelo://app?vid=5dda00a1-f787-488a-aa64-058079c40c64"},"vehicle_type_id":"4","last_reported":1778348415,"current_range_meters":6400,"station_id":"","pricing_plan_id":"cebpf4jnsgd1na2vs0mg"},{"bike_id":"ef1d551d-a4cc-4480-96c9-049fdc8184d6","system_id":"levelo_inurba_marseille","lat":43.22928,"lon":5.35372,"is_reserved":false,"is_disabled":false,"rental_uris":{"android":"levelo://app?vid=ef1d551d-a4cc-4480-96c9-049fdc8184d6","ios":"levelo://app?vid=ef1d551d-a4cc-4480-96c9-049fdc8184d6"},"vehicle_type_id":"4","last_reported":1778348415,"current_range_meters":6400,"station_id":"cpo3532slgdg3j2ikp40","pricing_plan_id":"cebpf4jnsgd1na2vs0mg"},{"bike_id":"e8e0b3e9-49bd-47ec-a643-797f175042aa","system_id":"levelo_inurba_marseille","lat":43.28373,"lon":5.38631,"is_reserved":false,"is_disabled":false,"rental_uris":{"android":"levelo://app?vid=e8e0b3e9-49bd-47ec-a643-797f175042aa","ios":"levelo://app?vid=e8e0b3e9-49bd-47ec-a643-797f175042aa"},"vehicle_type_id":"4","last_reported":1778348415,"current_range_meters":6400,"station_id":"ce4bh492rcd13ifvqdvg","pricing_plan_id":"cebpf4jnsgd1na2vs0mg"},{"bike_id":"2ff9251c-7b0d-4f23-9ffb-0b20d3d095d6","system_id":"levelo_inurba_marseille","lat":43.29235,"lon":5.37636,"is_reserved":false,"is_disabled":false,"rental_uris":{"android":"levelo://app?vid=2ff9251c-7b0d-4f23-9ffb-0b20d3d095d6","ios":"levelo://app?vid=2ff9251c-7b0d-4f23-9ffb-0b20d3d095d6"},"vehicle_type_id":"4","last_reported":1778348415,"current_range_meters":6400,"station_id":"ce4bgi12rcd13ifvqb80","pricing_plan_id":"cebpf4jnsgd1na2vs0mg"},{"bike_id":"024c6892-203c-4eeb-b7a9-cce2defb82a6","system_id":"levelo_inurba_marseille","lat":43.27054,"lon":5.38297,"is_reserved":false,"is_disabled":false,"rental_uris":{"android":"levelo://app?vid=024c6892-203c-4eeb-b7a9-cce2defb82a6","ios":"levelo://app?vid=024c6892-203c-4eeb-b7a9-cce2defb82a6"},"vehicle_type_id":"4","last_reported":1778348415,"current_range_meters":6400,"station_id":"st_d3n2fo6cfp8s73cte1j0","pricing_plan_id":"cebpf4jnsgd1na2vs0mg"},{"bike_id":"a0013878-08d8-43ec-90e5-39454bbb909d","system_id":"levelo_inurba_marseille","lat":43.28354,"lon":5.38102,"is_reserved":false,"is_disabled":false,"rental_uris":{"android":"levelo://app?vid=a0013878-08d8-43ec-90e5-39454bbb909d","ios":"levelo://app?vid=a0013878-08d8-43ec-90e5-39454bbb909d"},"vehicle_type_id":"4","last_reported":1778348415,"current_range_meters":6400,"station_id":"ce4bh412rcd13ifvqdr0","pricing_plan_id":"cebpf4jnsgd1na2vs0mg"},{"bike_id":"141c5000-b6b7-4262-b029-899367810b99","system_id":"levelo_inurba_marseille","lat":43.29001,"lon":5.35607,"is_reserved":false,"is_disabled":false,"rental_uris":{"android":"levelo://app?vid=141c5000-b6b7-4262-b029-899367810b99","ios":"levelo://app?vid=141c5000-b6b7-4262-b029-899367810b99"},"vehicle_type_id":"4","last_reported":1778348415,"current_range_meters":6400,"station_id":"ce4bhb92rcd13ifvqen0","pricing_plan_id":"cebpf4jnsgd1na2vs0mg"},{"bike_id":"80ce62aa-95db-4134-a27f-af6f321881d8","system_id":"levelo_inurba_marseille","lat":43.3303,"lon":5.39033,"is_reserved":false,"is_disabled":false,"rental_uris":{"android":"levelo://app?vid=80ce62aa-95db-4134-a27f-af6f321881d8","ios":"levelo://app?vid=80ce62aa-95db-4134-a27f-af6f321881d8"},"vehicle_type_id":"4","last_reported":1778348415,"current_range_meters":6400,"station_id":"ce4bhr92rcd13ifvqhrg","pricing_plan_id":"cebpf4jnsgd1na2vs0mg"},{"bike_id":"627ea465-4e71-4046-a508-023e31352421","system_id":"levelo_inurba_marseille","lat":43.2508,"lon":5.40483,"is_reserved":false,"is_disabled":false,"rental_uris":{"android":"levelo://app?vid=627ea465-4e71-4046-a508-023e31352421","ios":"levelo://app?vid=627ea465-4e71-4046-a508-023e31352421"},"vehicle_type_id":"4","last_reported":1778348415,"current_range_meters":6400,"station_id":"","pricing_plan_id":"cebpf4jnsgd1na2vs0mg"},{"bike_id":"cc44567e-bd23-4f5a-82d1-86829ad119b4","system_id":"levelo_inurba_marseille","lat":43.29,"lon":5.35604,"is_reserved":false,"is_disabled":false,"rental_uris":{"android":"levelo://app?vid=cc44567e-bd23-4f5a-82d1-86829ad119b4","ios":"levelo://app?vid=cc44567e-bd23-4f5a-82d1-86829ad119b4"},"vehicle_type_id":"4","last_reported":1778348415,"current_range_meters":6400,"station_id":"ce4bhb92rcd13ifvqen0","pricing_plan_id":"cebpf4jnsgd1na2vs0mg"},{"bike_id":"b04be0b9-e1f1-4b3a-a624-da85cca3a01a","system_id":"levelo_inurba_marseille","lat":43.24615,"lon":5.38184,"is_reserved":false,"is_disabled":false,"rental_uris":{"android":"levelo://app?vid=b04be0b9-e1f1-4b3a-a624-da85cca3a01a","ios":"levelo://app?vid=b04be0b9-e1f1-4b3a-a624-da85cca3a01a"},"vehicle_type_id":"4","last_reported":1778348415,"current_range_meters":6400,"station_id":"","pricing_plan_id":"cebpf4jnsgd1na2vs0mg"},{"bike_id":"45f8fdb7-2cb1-45b9-8a88-adeab1f325d7","system_id":"levelo_inurba_marseille","lat":43.29194,"lon":5.3834,"is_reserved":false,"is_disabled":false,"rental_uris":{"android":"levelo://app?vid=45f8fdb7-2cb1-45b9-8a88-adeab1f325d7","ios":"levelo://app?vid=45f8fdb7-2cb1-45b9-8a88-adeab1f325d7"},"vehicle_type_id":"4","last_reported":1778348415,"current_range_meters":6400,"station_id":"","pricing_plan_id":"cebpf4jnsgd1na2vs0mg"},{"bike_id":"3f53f19d-adc4-44f6-bb50-d0b2d6e70bc5","system_id":"levelo_inurba_marseille","lat":43.28402,"lon":5.37527,"is_reserved":false,"is_disabled":false,"rental_uris":{"android":"levelo://app?vid=3f53f19d-adc4-44f6-bb50-d0b2d6e70bc5","ios":"levelo://app?vid=3f53f19d-adc4-44f6-bb50-d0b2d6e70bc5"},"vehicle_type_id":"4","last_reported":1778348415,"current_range_meters":6800,"station_id":"ce4bh412rcd13ifvqds0","pricing_plan_id":"cebpf4jnsgd1na2vs0mg"},{"bike_id":"365f5c28-6148-41e1-9064-4136e9124cb6","system_id":"levelo_inurba_marseille","lat":43.26211,"lon":5.3792,"is_reserved":false,"is_disabled":false,"rental_uris":{"android":"levelo://app?vid=365f5c28-6148-41e1-9064-4136e9124cb6","ios":"levelo://app?vid=365f5c28-6148-41e1-9064-4136e9124cb6"},"vehicle_type_id":"4","last_reported":1778348415,"current_range_meters":6800,"station_id":"ce4bhjp2rcd13ifvqg90","pricing_plan_id":"cebpf4jnsgd1na2vs0mg"},{"bike_id":"e6bd8138-3d56-4ae6-9878-8794caa087c5","system_id":"levelo_inurba_marseille","lat":43.24457,"lon":5.42545,"is_reserved":false,"is_disabled":true,"rental_uris":{"android":"levelo://app?vid=e6bd8138-3d56-4ae6-9878-8794caa087c5","ios":"levelo://app?vid=e6bd8138-3d56-4ae6-9878-8794caa087c5"},"vehicle_type_id":"4","last_reported":1778348415,"current_range_meters":6800,"station_id":"st_d4a3vfp97mjs738cd8kg","pricing_plan_id":"cebpf4jnsgd1na2vs0mg"},{"bike_id":"84ecb0ea-af06-4d3e-b377-8630ac848c1f","system_id":"levelo_inurba_marseille","lat":43.26047,"lon":5.37541,"is_reserved":false,"is_disabled":false,"rental_uris":{"android":"levelo://app?vid=84ecb0ea-af06-4d3e-b377-8630ac848c1f","ios":"levelo://app?vid=84ecb0ea-af06-4d3e-b377-8630ac848c1f"},"vehicle_type_id":"4","last_reported":1778348415,"current_range_meters":6800,"station_id":"ce4bhgh2rcd13ifvqfa0","pricing_plan_id":"cebpf4jnsgd1na2vs0mg"},{"bike_id":"f539bb17-16cf-4505-8a99-d64e79a69d9e","system_id":"levelo_inurba_marseille","lat":43.32104,"lon":5.36789,"is_reserved":false,"is_disabled":false,"rental_uris":{"android":"levelo://app?vid=f539bb17-16cf-4505-8a99-d64e79a69d9e","ios":"levelo://app?vid=f539bb17-16cf-4505-8a99-d64e79a69d9e"},"vehicle_type_id":"4","last_reported":1778348415,"current_range_meters":6800,"station_id":"ce4bhrh2rcd13ifvqhug","pricing_plan_id":"cebpf4jnsgd1na2vs0mg"},{"bike_id":"6c35899d-de01-47e7-ace9-dde3aa38b339","system_id":"levelo_inurba_marseille","lat":43.30179,"lon":5.36622,"is_reserved":false,"is_disabled":false,"rental_uris":{"android":"levelo://app?vid=6c35899d-de01-47e7-ace9-dde3aa38b339","ios":"levelo://app?vid=6c35899d-de01-47e7-ace9-dde3aa38b339"},"vehicle_type_id":"4","last_reported":1778348415,"current_range_meters":6800,"station_id":"ce4bgrh2rcd13ifvqc8g","pricing_plan_id":"cebpf4jnsgd1na2vs0mg"},{"bike_id":"605edcc0-7379-490e-a193-3bb1fd5145bb","system_id":"levelo_inurba_marseille","lat":43.24802,"lon":5.37454,"is_reserved":false,"is_disabled":false,"rental_uris":{"android":"levelo://app?vid=605edcc0-7379-490e-a193-3bb1fd5145bb","ios":"levelo://app?vid=605edcc0-7379-490e-a193-3bb1fd5145bb"},"vehicle_type_id":"4","last_reported":1778348415,"current_range_meters":6800,"station_id":"ce4bhgh2rcd13ifvqfb0","pricing_plan_id":"cebpf4jnsgd1na2vs0mg"},{"bike_id":"2e6ef606-d7d2-41ed-aea6-fe31a6f98e03","system_id":"levelo_inurba_marseille","lat":43.29254,"lon":5.38431,"is_reserved":false,"is_disabled":false,"rental_uris":{"android":"levelo://app?vid=2e6ef606-d7d2-41ed-aea6-fe31a6f98e03","ios":"levelo://app?vid=2e6ef606-d7d2-41ed-aea6-fe31a6f98e03"},"vehicle_type_id":"4","last_reported":1778348415,"current_range_meters":6800,"station_id":"ce4bh692rcd13ifvqea0","pricing_plan_id":"cebpf4jnsgd1na2vs0mg"},{"bike_id":"a30008ae-a2df-4129-8ea6-0f377536b8ba","system_id":"levelo_inurba_marseille","lat":43.32116,"lon":5.36761,"is_reserved":false,"is_disabled":false,"rental_uris":{"android":"levelo://app?vid=a30008ae-a2df-4129-8ea6-0f377536b8ba","ios":"levelo://app?vid=a30008ae-a2df-4129-8ea6-0f377536b8ba"},"vehicle_type_id":"4","last_reported":1778348415,"current_range_meters":6800,"station_id":"ce4bhrh2rcd13ifvqhug","pricing_plan_id":"cebpf4jnsgd1na2vs0mg"},{"bike_id":"ac669cf6-3802-49e7-8567-a514ce79081d","system_id":"levelo_inurba_marseille","lat":43.29142,"lon":5.38538,"is_reserved":false,"is_disabled":true,"rental_uris":{"android":"levelo://app?vid=ac669cf6-3802-49e7-8567-a514ce79081d","ios":"levelo://app?vid=ac669cf6-3802-49e7-8567-a514ce79081d"},"vehicle_type_id":"4","last_reported":1778348415,"current_range_meters":6800,"station_id":"","pricing_plan_id":"cebpf4jnsgd1na2vs0mg"},{"bike_id":"68234306-3737-4701-9a6f-8b470725aad8","system_id":"levelo_inurba_marseille","lat":43.29786,"lon":5.38098,"is_reserved":false,"is_disabled":false,"rental_uris":{"android":"levelo://app?vid=68234306-3737-4701-9a6f-8b470725aad8","ios":"levelo://app?vid=68234306-3737-4701-9a6f-8b470725aad8"},"vehicle_type_id":"4","last_reported":1778348415,"current_range_meters":6800,"station_id":"ce4bgip2rcd13ifvqbb0","pricing_plan_id":"cebpf4jnsgd1na2vs0mg"},{"bike_id":"0241ce56-bc7a-4162-8828-9fa3625f4639","system_id":"levelo_inurba_marseille","lat":43.26932,"lon":5.3892,"is_reserved":false,"is_disabled":false,"rental_uris":{"android":"levelo://app?vid=0241ce56-bc7a-4162-8828-9fa3625f4639","ios":"levelo://app?vid=0241ce56-bc7a-4162-8828-9fa3625f4639"},"vehicle_type_id":"4","last_reported":1778348415,"current_range_meters":6800,"station_id":"ce4bhhh2rcd13ifvqfl0","pricing_plan_id":"cebpf4jnsgd1na2vs0mg"},{"bike_id":"b1eefa37-96ae-4f95-a344-438091e1d04d","system_id":"levelo_inurba_marseille","lat":43.31037,"lon":5.39379,"is_reserved":false,"is_disabled":false,"rental_uris":{"android":"levelo://app?vid=b1eefa37-96ae-4f95-a344-438091e1d04d","ios":"levelo://app?vid=b1eefa37-96ae-4f95-a344-438091e1d04d"},"vehicle_type_id":"4","last_reported":1778348415,"current_range_meters":6800,"station_id":"","pricing_plan_id":"cebpf4jnsgd1na2vs0mg"},{"bike_id":"296921d4-d837-47f5-8f08-d0f78154b13e","system_id":"levelo_inurba_marseille","lat":43.29769,"lon":5.38093,"is_reserved":false,"is_disabled":false,"rental_uris":{"android":"levelo://app?vid=296921d4-d837-47f5-8f08-d0f78154b13e","ios":"levelo://app?vid=296921d4-d837-47f5-8f08-d0f78154b13e"},"vehicle_type_id":"4","last_reported":1778348415,"current_range_meters":6800,"station_id":"ce4bgip2rcd13ifvqbb0","pricing_plan_id":"cebpf4jnsgd1na2vs0mg"},{"bike_id":"fd15faf6-f969-4bda-be30-e042b3108596","system_id":"levelo_inurba_marseille","lat":43.26363,"lon":5.41043,"is_reserved":false,"is_disabled":false,"rental_uris":{"android":"levelo://app?vid=fd15faf6-f969-4bda-be30-e042b3108596","ios":"levelo://app?vid=fd15faf6-f969-4bda-be30-e042b3108596"},"vehicle_type_id":"4","last_reported":1778348415,"current_range_meters":6800,"station_id":"st_d4e5ca6na9uc73bfl5fg","pricing_plan_id":"cebpf4jnsgd1na2vs0mg"},{"bike_id":"74a938f2-f578-4294-9976-174677fe2f35","system_id":"levelo_inurba_marseille","lat":43.29488,"lon":5.43301,"is_reserved":false,"is_disabled":false,"rental_uris":{"android":"levelo://app?vid=74a938f2-f578-4294-9976-174677fe2f35","ios":"levelo://app?vid=74a938f2-f578-4294-9976-174677fe2f35"},"vehicle_type_id":"4","last_reported":1778348415,"current_range_meters":6800,"station_id":"st_d3j5ugp08ojc73fj9d10","pricing_plan_id":"cebpf4jnsgd1na2vs0mg"},{"bike_id":"bf199b2e-2f10-4962-a950-e1d2d8cd97cb","system_id":"levelo_inurba_marseille","lat":43.28027,"lon":5.35368,"is_reserved":false,"is_disabled":false,"rental_uris":{"android":"levelo://app?vid=bf199b2e-2f10-4962-a950-e1d2d8cd97cb","ios":"levelo://app?vid=bf199b2e-2f10-4962-a950-e1d2d8cd97cb"},"vehicle_type_id":"4","last_reported":1778348415,"current_range_meters":6800,"station_id":"","pricing_plan_id":"cebpf4jnsgd1na2vs0mg"},{"bike_id":"3740445d-4b6a-4f17-9f1c-82a3ef553e56","system_id":"levelo_inurba_marseille","lat":43.29224,"lon":5.38456,"is_reserved":false,"is_disabled":false,"rental_uris":{"android":"levelo://app?vid=3740445d-4b6a-4f17-9f1c-82a3ef553e56","ios":"levelo://app?vid=3740445d-4b6a-4f17-9f1c-82a3ef553e56"},"vehicle_type_id":"4","last_reported":1778348415,"current_range_meters":6800,"station_id":"","pricing_plan_id":"cebpf4jnsgd1na2vs0mg"},{"bike_id":"0259c7f9-4a67-468b-967d-555f1f780b18","system_id":"levelo_inurba_marseille","lat":43.24685,"lon":5.38133,"is_reserved":false,"is_disabled":false,"rental_uris":{"android":"levelo://app?vid=0259c7f9-4a67-468b-967d-555f1f780b18","ios":"levelo://app?vid=0259c7f9-4a67-468b-967d-555f1f780b18"},"vehicle_type_id":"4","last_reported":1778348415,"current_range_meters":6800,"station_id":"ce4bhih2rcd13ifvqfr0","pricing_plan_id":"cebpf4jnsgd1na2vs0mg"},{"bike_id":"7ca87edb-8a77-4fa7-b7dc-fb3200368f14","system_id":"levelo_inurba_marseille","lat":43.24655,"lon":5.43135,"is_reserved":false,"is_disabled":false,"rental_uris":{"android":"levelo://app?vid=7ca87edb-8a77-4fa7-b7dc-fb3200368f14","ios":"levelo://app?vid=7ca87edb-8a77-4fa7-b7dc-fb3200368f14"},"vehicle_type_id":"4","last_reported":1778348415,"current_range_meters":6800,"station_id":"st_d2m6c4gdas8pm72e190g","pricing_plan_id":"cebpf4jnsgd1na2vs0mg"},{"bike_id":"05a3701e-6c72-4084-9c4c-67e77fb525e9","system_id":"levelo_inurba_marseille","lat":43.250844,"lon":5.395292,"is_reserved":false,"is_disabled":false,"rental_uris":{"android":"levelo://app?vid=05a3701e-6c72-4084-9c4c-67e77fb525e9","ios":"levelo://app?vid=05a3701e-6c72-4084-9c4c-67e77fb525e9"},"vehicle_type_id":"4","last_reported":1778348415,"current_range_meters":6800,"station_id":"ce4bhm12rcd13ifvqgkg","pricing_plan_id":"cebpf4jnsgd1na2vs0mg"},{"bike_id":"6dfe43ac-6131-42a7-8c3d-86b7cfec6e79","system_id":"levelo_inurba_marseille","lat":43.29,"lon":5.37244,"is_reserved":false,"is_disabled":false,"rental_uris":{"android":"levelo://app?vid=6dfe43ac-6131-42a7-8c3d-86b7cfec6e79","ios":"levelo://app?vid=6dfe43ac-6131-42a7-8c3d-86b7cfec6e79"},"vehicle_type_id":"4","last_reported":1778348415,"current_range_meters":6800,"station_id":"","pricing_plan_id":"cebpf4jnsgd1na2vs0mg"},{"bike_id":"0152740e-06db-4ade-88eb-e3632fbb8a1f","system_id":"levelo_inurba_marseille","lat":43.28264,"lon":5.3506,"is_reserved":false,"is_disabled":true,"rental_uris":{"android":"levelo://app?vid=0152740e-06db-4ade-88eb-e3632fbb8a1f","ios":"levelo://app?vid=0152740e-06db-4ade-88eb-e3632fbb8a1f"},"vehicle_type_id":"4","last_reported":1778348415,"current_range_meters":6800,"station_id":"ce4bhbp2rcd13ifvqerg","pricing_plan_id":"cebpf4jnsgd1na2vs0mg"},{"bike_id":"6f2325ae-8138-47d8-9dba-4d3ae3ef34bd","system_id":"levelo_inurba_marseille","lat":43.29917,"lon":5.37474,"is_reserved":false,"is_disabled":false,"rental_uris":{"android":"levelo://app?vid=6f2325ae-8138-47d8-9dba-4d3ae3ef34bd","ios":"levelo://app?vid=6f2325ae-8138-47d8-9dba-4d3ae3ef34bd"},"vehicle_type_id":"4","last_reported":1778348415,"current_range_meters":6800,"station_id":"ce4bgjh2rcd13ifvqbg0","pricing_plan_id":"cebpf4jnsgd1na2vs0mg"},{"bike_id":"6eec760c-5e8b-4ec2-8818-5088580d0e9c","system_id":"levelo_inurba_marseille","lat":43.25186,"lon":5.37386,"is_reserved":false,"is_disabled":false,"rental_uris":{"android":"levelo://app?vid=6eec760c-5e8b-4ec2-8818-5088580d0e9c","ios":"levelo://app?vid=6eec760c-5e8b-4ec2-8818-5088580d0e9c"},"vehicle_type_id":"4","last_reported":1778348415,"current_range_meters":6800,"station_id":"","pricing_plan_id":"cebpf4jnsgd1na2vs0mg"},{"bike_id":"f62f892b-35da-4575-91cd-6ff29b858255","system_id":"levelo_inurba_marseille","lat":43.29988,"lon":5.38488,"is_reserved":false,"is_disabled":true,"rental_uris":{"android":"levelo://app?vid=f62f892b-35da-4575-91cd-6ff29b858255","ios":"levelo://app?vid=f62f892b-35da-4575-91cd-6ff29b858255"},"vehicle_type_id":"4","last_reported":1778348415,"current_range_meters":6800,"station_id":"ce4bgj92rcd13ifvqbd0","pricing_plan_id":"cebpf4jnsgd1na2vs0mg"},{"bike_id":"874b9ccc-d09b-40b6-b6f7-c57827a30f32","system_id":"levelo_inurba_marseille","lat":43.29261,"lon":5.38434,"is_reserved":false,"is_disabled":false,"rental_uris":{"android":"levelo://app?vid=874b9ccc-d09b-40b6-b6f7-c57827a30f32","ios":"levelo://app?vid=874b9ccc-d09b-40b6-b6f7-c57827a30f32"},"vehicle_type_id":"4","last_reported":1778348415,"current_range_meters":7200,"station_id":"ce4bh692rcd13ifvqea0","pricing_plan_id":"cebpf4jnsgd1na2vs0mg"},{"bike_id":"583ee2d2-4f66-4102-99b1-a852d72ac1ff","system_id":"levelo_inurba_marseille","lat":43.30407,"lon":5.39775,"is_reserved":false,"is_disabled":false,"rental_uris":{"android":"levelo://app?vid=583ee2d2-4f66-4102-99b1-a852d72ac1ff","ios":"levelo://app?vid=583ee2d2-4f66-4102-99b1-a852d72ac1ff"},"vehicle_type_id":"4","last_reported":1778348415,"current_range_meters":7200,"station_id":"ce4bh092rcd13ifvqd20","pricing_plan_id":"cebpf4jnsgd1na2vs0mg"},{"bike_id":"764eceff-f6c3-4c7a-85c1-45afbb1a3450","system_id":"levelo_inurba_marseille","lat":43.264524,"lon":5.403951,"is_reserved":false,"is_disabled":false,"rental_uris":{"android":"levelo://app?vid=764eceff-f6c3-4c7a-85c1-45afbb1a3450","ios":"levelo://app?vid=764eceff-f6c3-4c7a-85c1-45afbb1a3450"},"vehicle_type_id":"4","last_reported":1778348415,"current_range_meters":7200,"station_id":"ce501612rcd8frsf0b60","pricing_plan_id":"cebpf4jnsgd1na2vs0mg"},{"bike_id":"9a45abed-8a50-4591-a381-dce67a2e04c0","system_id":"levelo_inurba_marseille","lat":43.29787,"lon":5.39361,"is_reserved":false,"is_disabled":true,"rental_uris":{"android":"levelo://app?vid=9a45abed-8a50-4591-a381-dce67a2e04c0","ios":"levelo://app?vid=9a45abed-8a50-4591-a381-dce67a2e04c0"},"vehicle_type_id":"4","last_reported":1778348415,"current_range_meters":7200,"station_id":"chh1huq6cuj3fo74tm60","pricing_plan_id":"cebpf4jnsgd1na2vs0mg"},{"bike_id":"9c6f744c-0e72-49bc-9387-3a540d0fe052","system_id":"levelo_inurba_marseille","lat":43.24809,"lon":5.37444,"is_reserved":false,"is_disabled":false,"rental_uris":{"android":"levelo://app?vid=9c6f744c-0e72-49bc-9387-3a540d0fe052","ios":"levelo://app?vid=9c6f744c-0e72-49bc-9387-3a540d0fe052"},"vehicle_type_id":"4","last_reported":1778348415,"current_range_meters":7200,"station_id":"ce4bhgh2rcd13ifvqfb0","pricing_plan_id":"cebpf4jnsgd1na2vs0mg"},{"bike_id":"234d937c-0a51-4b7b-a5da-54c58b1cfe2d","system_id":"levelo_inurba_marseille","lat":43.30545,"lon":5.36691,"is_reserved":false,"is_disabled":true,"rental_uris":{"android":"levelo://app?vid=234d937c-0a51-4b7b-a5da-54c58b1cfe2d","ios":"levelo://app?vid=234d937c-0a51-4b7b-a5da-54c58b1cfe2d"},"vehicle_type_id":"4","last_reported":1778348415,"current_range_meters":7200,"station_id":"ce4bgrp2rcd13ifvqc9g","pricing_plan_id":"cebpf4jnsgd1na2vs0mg"},{"bike_id":"f422b51e-1ef9-42a2-8365-1d33f807a8e0","system_id":"levelo_inurba_marseille","lat":43.23905,"lon":5.37463,"is_reserved":false,"is_disabled":true,"rental_uris":{"android":"levelo://app?vid=f422b51e-1ef9-42a2-8365-1d33f807a8e0","ios":"levelo://app?vid=f422b51e-1ef9-42a2-8365-1d33f807a8e0"},"vehicle_type_id":"4","last_reported":1778348415,"current_range_meters":7200,"station_id":"st_d6sm7csbq4hs73f8fpjg","pricing_plan_id":"cebpf4jnsgd1na2vs0mg"},{"bike_id":"d5b1780b-e346-4f12-b171-c0fd994c9f82","system_id":"levelo_inurba_marseille","lat":43.2693,"lon":5.40248,"is_reserved":false,"is_disabled":false,"rental_uris":{"android":"levelo://app?vid=d5b1780b-e346-4f12-b171-c0fd994c9f82","ios":"levelo://app?vid=d5b1780b-e346-4f12-b171-c0fd994c9f82"},"vehicle_type_id":"4","last_reported":1778348415,"current_range_meters":7200,"station_id":"cjm6bp8fraef2m0cb0m0","pricing_plan_id":"cebpf4jnsgd1na2vs0mg"},{"bike_id":"0653b89c-7725-4dd0-97b2-2cad49cff22b","system_id":"levelo_inurba_marseille","lat":43.2984,"lon":5.36271,"is_reserved":false,"is_disabled":false,"rental_uris":{"android":"levelo://app?vid=0653b89c-7725-4dd0-97b2-2cad49cff22b","ios":"levelo://app?vid=0653b89c-7725-4dd0-97b2-2cad49cff22b"},"vehicle_type_id":"4","last_reported":1778348415,"current_range_meters":7200,"station_id":"ce4bgpp2rcd13ifvqc3g","pricing_plan_id":"cebpf4jnsgd1na2vs0mg"},{"bike_id":"264dd0a7-16d8-48c6-b8bf-1ef756773377","system_id":"levelo_inurba_marseille","lat":43.31934,"lon":5.36795,"is_reserved":false,"is_disabled":false,"rental_uris":{"android":"levelo://app?vid=264dd0a7-16d8-48c6-b8bf-1ef756773377","ios":"levelo://app?vid=264dd0a7-16d8-48c6-b8bf-1ef756773377"},"vehicle_type_id":"4","last_reported":1778348415,"current_range_meters":7200,"station_id":"st_d6o2h0d0559c73evc1b0","pricing_plan_id":"cebpf4jnsgd1na2vs0mg"},{"bike_id":"c64dbc3e-eee2-45ba-b0de-41901e826066","system_id":"levelo_inurba_marseille","lat":43.29693,"lon":5.3666,"is_reserved":false,"is_disabled":false,"rental_uris":{"android":"levelo://app?vid=c64dbc3e-eee2-45ba-b0de-41901e826066","ios":"levelo://app?vid=c64dbc3e-eee2-45ba-b0de-41901e826066"},"vehicle_type_id":"4","last_reported":1778348415,"current_range_meters":7200,"station_id":"ce4bgn12rcd13ifvqbt0","pricing_plan_id":"cebpf4jnsgd1na2vs0mg"},{"bike_id":"51d5b294-35d0-46bc-bba3-28f79376e313","system_id":"levelo_inurba_marseille","lat":43.28401,"lon":5.37565,"is_reserved":false,"is_disabled":false,"rental_uris":{"android":"levelo://app?vid=51d5b294-35d0-46bc-bba3-28f79376e313","ios":"levelo://app?vid=51d5b294-35d0-46bc-bba3-28f79376e313"},"vehicle_type_id":"4","last_reported":1778348415,"current_range_meters":7200,"station_id":"ce4bh412rcd13ifvqds0","pricing_plan_id":"cebpf4jnsgd1na2vs0mg"},{"bike_id":"4bc6302e-723c-444e-9c1c-2353d2969136","system_id":"levelo_inurba_marseille","lat":43.2945,"lon":5.39627,"is_reserved":false,"is_disabled":true,"rental_uris":{"android":"levelo://app?vid=4bc6302e-723c-444e-9c1c-2353d2969136","ios":"levelo://app?vid=4bc6302e-723c-444e-9c1c-2353d2969136"},"vehicle_type_id":"4","last_reported":1778348415,"current_range_meters":7200,"station_id":"","pricing_plan_id":"cebpf4jnsgd1na2vs0mg"},{"bike_id":"0cdbcb90-cdfd-41b2-b3ad-5d18561f62ca","system_id":"levelo_inurba_marseille","lat":43.29518,"lon":5.38539,"is_reserved":false,"is_disabled":false,"rental_uris":{"android":"levelo://app?vid=0cdbcb90-cdfd-41b2-b3ad-5d18561f62ca","ios":"levelo://app?vid=0cdbcb90-cdfd-41b2-b3ad-5d18561f62ca"},"vehicle_type_id":"4","last_reported":1778348415,"current_range_meters":7200,"station_id":"ce4bgih2rcd13ifvqba0","pricing_plan_id":"cebpf4jnsgd1na2vs0mg"},{"bike_id":"d0422a3d-e193-4cef-8d02-e1260b86002b","system_id":"levelo_inurba_marseille","lat":43.2928,"lon":5.37622,"is_reserved":false,"is_disabled":true,"rental_uris":{"android":"levelo://app?vid=d0422a3d-e193-4cef-8d02-e1260b86002b","ios":"levelo://app?vid=d0422a3d-e193-4cef-8d02-e1260b86002b"},"vehicle_type_id":"4","last_reported":1778348415,"current_range_meters":8000,"station_id":"ce4bgi12rcd13ifvqb80","pricing_plan_id":"cebpf4jnsgd1na2vs0mg"},{"bike_id":"97f964d8-1b4e-4439-a5e5-5bf9eca1819d","system_id":"levelo_inurba_marseille","lat":43.26373,"lon":5.41053,"is_reserved":false,"is_disabled":false,"rental_uris":{"android":"levelo://app?vid=97f964d8-1b4e-4439-a5e5-5bf9eca1819d","ios":"levelo://app?vid=97f964d8-1b4e-4439-a5e5-5bf9eca1819d"},"vehicle_type_id":"4","last_reported":1778348415,"current_range_meters":8000,"station_id":"st_d4e5ca6na9uc73bfl5fg","pricing_plan_id":"cebpf4jnsgd1na2vs0mg"},{"bike_id":"261442be-df01-487c-b82d-848abe824608","system_id":"levelo_inurba_marseille","lat":43.26212,"lon":5.40455,"is_reserved":false,"is_disabled":false,"rental_uris":{"android":"levelo://app?vid=261442be-df01-487c-b82d-848abe824608","ios":"levelo://app?vid=261442be-df01-487c-b82d-848abe824608"},"vehicle_type_id":"4","last_reported":1778348415,"current_range_meters":8000,"station_id":"ce4bhmh2rcd13ifvqgmg","pricing_plan_id":"cebpf4jnsgd1na2vs0mg"},{"bike_id":"24b614b1-21fe-4a2b-a521-7a850622da21","system_id":"levelo_inurba_marseille","lat":43.23967,"lon":5.36622,"is_reserved":false,"is_disabled":false,"rental_uris":{"android":"levelo://app?vid=24b614b1-21fe-4a2b-a521-7a850622da21","ios":"levelo://app?vid=24b614b1-21fe-4a2b-a521-7a850622da21"},"vehicle_type_id":"4","last_reported":1778348415,"current_range_meters":8000,"station_id":"ce4bhi12rcd13ifvqfp0","pricing_plan_id":"cebpf4jnsgd1na2vs0mg"},{"bike_id":"6185c6b4-782e-4ff8-b9f0-cc828921242d","system_id":"levelo_inurba_marseille","lat":43.27037,"lon":5.42267,"is_reserved":false,"is_disabled":false,"rental_uris":{"android":"levelo://app?vid=6185c6b4-782e-4ff8-b9f0-cc828921242d","ios":"levelo://app?vid=6185c6b4-782e-4ff8-b9f0-cc828921242d"},"vehicle_type_id":"4","last_reported":1778348415,"current_range_meters":8000,"station_id":"ce4bhk92rcd13ifvqgb0","pricing_plan_id":"cebpf4jnsgd1na2vs0mg"},{"bike_id":"d6e11961-a2ee-4bd5-94e1-17a162f7b084","system_id":"levelo_inurba_marseille","lat":43.29597,"lon":5.38097,"is_reserved":false,"is_disabled":false,"rental_uris":{"android":"levelo://app?vid=d6e11961-a2ee-4bd5-94e1-17a162f7b084","ios":"levelo://app?vid=d6e11961-a2ee-4bd5-94e1-17a162f7b084"},"vehicle_type_id":"4","last_reported":1778348415,"current_range_meters":8000,"station_id":"ce4bgl12rcd13ifvqbo0","pricing_plan_id":"cebpf4jnsgd1na2vs0mg"},{"bike_id":"f6c9e6e7-4f2b-454e-95d4-e62c573cffbd","system_id":"levelo_inurba_marseille","lat":43.2845,"lon":5.38416,"is_reserved":false,"is_disabled":false,"rental_uris":{"android":"levelo://app?vid=f6c9e6e7-4f2b-454e-95d4-e62c573cffbd","ios":"levelo://app?vid=f6c9e6e7-4f2b-454e-95d4-e62c573cffbd"},"vehicle_type_id":"4","last_reported":1778348415,"current_range_meters":8000,"station_id":"ce4bh512rcd13ifvqe3g","pricing_plan_id":"cebpf4jnsgd1na2vs0mg"},{"bike_id":"4fd5b212-cba9-47fe-a389-1fe7b66457c2","system_id":"levelo_inurba_marseille","lat":43.30286,"lon":5.36873,"is_reserved":false,"is_disabled":false,"rental_uris":{"android":"levelo://app?vid=4fd5b212-cba9-47fe-a389-1fe7b66457c2","ios":"levelo://app?vid=4fd5b212-cba9-47fe-a389-1fe7b66457c2"},"vehicle_type_id":"4","last_reported":1778348415,"current_range_meters":8000,"station_id":"ce4bgqh2rcd13ifvqc5g","pricing_plan_id":"cebpf4jnsgd1na2vs0mg"},{"bike_id":"d6aa3b2f-3029-4676-9089-14b4fb6bf286","system_id":"levelo_inurba_marseille","lat":43.28698,"lon":5.46687,"is_reserved":false,"is_disabled":false,"rental_uris":{"android":"levelo://app?vid=d6aa3b2f-3029-4676-9089-14b4fb6bf286","ios":"levelo://app?vid=d6aa3b2f-3029-4676-9089-14b4fb6bf286"},"vehicle_type_id":"4","last_reported":1778348415,"current_range_meters":8000,"station_id":"st_d6tc3vkotcvc738tfjhg","pricing_plan_id":"cebpf4jnsgd1na2vs0mg"},{"bike_id":"8b83e034-6a7d-4698-9e7f-a4e9245ebec3","system_id":"levelo_inurba_marseille","lat":43.29849,"lon":5.36272,"is_reserved":false,"is_disabled":false,"rental_uris":{"android":"levelo://app?vid=8b83e034-6a7d-4698-9e7f-a4e9245ebec3","ios":"levelo://app?vid=8b83e034-6a7d-4698-9e7f-a4e9245ebec3"},"vehicle_type_id":"4","last_reported":1778348415,"current_range_meters":8000,"station_id":"ce4bgpp2rcd13ifvqc3g","pricing_plan_id":"cebpf4jnsgd1na2vs0mg"},{"bike_id":"3c5f0f52-deec-4478-b1b8-43df5890b0b6","system_id":"levelo_inurba_marseille","lat":43.23962,"lon":5.36614,"is_reserved":false,"is_disabled":false,"rental_uris":{"android":"levelo://app?vid=3c5f0f52-deec-4478-b1b8-43df5890b0b6","ios":"levelo://app?vid=3c5f0f52-deec-4478-b1b8-43df5890b0b6"},"vehicle_type_id":"4","last_reported":1778348415,"current_range_meters":8000,"station_id":"ce4bhi12rcd13ifvqfp0","pricing_plan_id":"cebpf4jnsgd1na2vs0mg"},{"bike_id":"4a09775a-a802-431c-9a22-0b7f36fe45c8","system_id":"levelo_inurba_marseille","lat":43.24814,"lon":5.37453,"is_reserved":false,"is_disabled":false,"rental_uris":{"android":"levelo://app?vid=4a09775a-a802-431c-9a22-0b7f36fe45c8","ios":"levelo://app?vid=4a09775a-a802-431c-9a22-0b7f36fe45c8"},"vehicle_type_id":"4","last_reported":1778348415,"current_range_meters":8000,"station_id":"ce4bhgh2rcd13ifvqfb0","pricing_plan_id":"cebpf4jnsgd1na2vs0mg"},{"bike_id":"ad614396-23e5-448d-b158-fe234fca1cfd","system_id":"levelo_inurba_marseille","lat":43.251093,"lon":5.403204,"is_reserved":false,"is_disabled":false,"rental_uris":{"android":"levelo://app?vid=ad614396-23e5-448d-b158-fe234fca1cfd","ios":"levelo://app?vid=ad614396-23e5-448d-b158-fe234fca1cfd"},"vehicle_type_id":"4","last_reported":1778348415,"current_range_meters":8000,"station_id":"ce4bhlh2rcd13ifvqgig","pricing_plan_id":"cebpf4jnsgd1na2vs0mg"},{"bike_id":"549fead8-4793-4cb0-823e-06fcb4efd395","system_id":"levelo_inurba_marseille","lat":43.24668,"lon":5.38144,"is_reserved":false,"is_disabled":false,"rental_uris":{"android":"levelo://app?vid=549fead8-4793-4cb0-823e-06fcb4efd395","ios":"levelo://app?vid=549fead8-4793-4cb0-823e-06fcb4efd395"},"vehicle_type_id":"4","last_reported":1778348415,"current_range_meters":8000,"station_id":"ce4bhih2rcd13ifvqfr0","pricing_plan_id":"cebpf4jnsgd1na2vs0mg"},{"bike_id":"cdd278be-6985-4e01-a1e8-4899861427d9","system_id":"levelo_inurba_marseille","lat":43.25813,"lon":5.39429,"is_reserved":false,"is_disabled":false,"rental_uris":{"android":"levelo://app?vid=cdd278be-6985-4e01-a1e8-4899861427d9","ios":"levelo://app?vid=cdd278be-6985-4e01-a1e8-4899861427d9"},"vehicle_type_id":"4","last_reported":1778348415,"current_range_meters":8000,"station_id":"ce4bhip2rcd13ifvqft0","pricing_plan_id":"cebpf4jnsgd1na2vs0mg"},{"bike_id":"f43779d5-16c9-4f97-95b2-2f1f51b6ba6b","system_id":"levelo_inurba_marseille","lat":43.3088,"lon":5.37219,"is_reserved":false,"is_disabled":false,"rental_uris":{"android":"levelo://app?vid=f43779d5-16c9-4f97-95b2-2f1f51b6ba6b","ios":"levelo://app?vid=f43779d5-16c9-4f97-95b2-2f1f51b6ba6b"},"vehicle_type_id":"4","last_reported":1778348415,"current_range_meters":8000,"station_id":"ce4bguh2rcd13ifvqckg","pricing_plan_id":"cebpf4jnsgd1na2vs0mg"},{"bike_id":"ee695d1b-5065-4e57-a71c-4120186bb71c","system_id":"levelo_inurba_marseille","lat":43.28931,"lon":5.384077,"is_reserved":false,"is_disabled":false,"rental_uris":{"android":"levelo://app?vid=ee695d1b-5065-4e57-a71c-4120186bb71c","ios":"levelo://app?vid=ee695d1b-5065-4e57-a71c-4120186bb71c"},"vehicle_type_id":"4","last_reported":1778348415,"current_range_meters":8000,"station_id":"ce4bh612rcd13ifvqe6g","pricing_plan_id":"cebpf4jnsgd1na2vs0mg"},{"bike_id":"ed58a147-194b-403c-8ed5-feb97489bc7e","system_id":"levelo_inurba_marseille","lat":43.27194,"lon":5.39199,"is_reserved":false,"is_disabled":false,"rental_uris":{"android":"levelo://app?vid=ed58a147-194b-403c-8ed5-feb97489bc7e","ios":"levelo://app?vid=ed58a147-194b-403c-8ed5-feb97489bc7e"},"vehicle_type_id":"4","last_reported":1778348415,"current_range_meters":8000,"station_id":"ce4bhhp2rcd13ifvqfm0","pricing_plan_id":"cebpf4jnsgd1na2vs0mg"},{"bike_id":"927e1ba0-dd37-49de-b97c-37420bbc7ad3","system_id":"levelo_inurba_marseille","lat":43.27905,"lon":5.38016,"is_reserved":false,"is_disabled":false,"rental_uris":{"android":"levelo://app?vid=927e1ba0-dd37-49de-b97c-37420bbc7ad3","ios":"levelo://app?vid=927e1ba0-dd37-49de-b97c-37420bbc7ad3"},"vehicle_type_id":"4","last_reported":1778348415,"current_range_meters":8000,"station_id":"ce4bhf92rcd13ifvqf50","pricing_plan_id":"cebpf4jnsgd1na2vs0mg"},{"bike_id":"3e63ca9f-52b9-4901-a1d9-7f430e423bd0","system_id":"levelo_inurba_marseille","lat":43.31432,"lon":5.44128,"is_reserved":false,"is_disabled":false,"rental_uris":{"android":"levelo://app?vid=3e63ca9f-52b9-4901-a1d9-7f430e423bd0","ios":"levelo://app?vid=3e63ca9f-52b9-4901-a1d9-7f430e423bd0"},"vehicle_type_id":"4","last_reported":1778348415,"current_range_meters":8000,"station_id":"","pricing_plan_id":"cebpf4jnsgd1na2vs0mg"},{"bike_id":"c2277f9d-93a6-480b-b9fc-a6864cbe3c7a","system_id":"levelo_inurba_marseille","lat":43.27659,"lon":5.40686,"is_reserved":false,"is_disabled":false,"rental_uris":{"android":"levelo://app?vid=c2277f9d-93a6-480b-b9fc-a6864cbe3c7a","ios":"levelo://app?vid=c2277f9d-93a6-480b-b9fc-a6864cbe3c7a"},"vehicle_type_id":"4","last_reported":1778348415,"current_range_meters":8000,"station_id":"","pricing_plan_id":"cebpf4jnsgd1na2vs0mg"},{"bike_id":"7014ecaf-9a2b-43d3-a9d8-0b2860dd81de","system_id":"levelo_inurba_marseille","lat":43.29839,"lon":5.362699,"is_reserved":false,"is_disabled":false,"rental_uris":{"android":"levelo://app?vid=7014ecaf-9a2b-43d3-a9d8-0b2860dd81de","ios":"levelo://app?vid=7014ecaf-9a2b-43d3-a9d8-0b2860dd81de"},"vehicle_type_id":"4","last_reported":1778348415,"current_range_meters":8000,"station_id":"ce4bgpp2rcd13ifvqc3g","pricing_plan_id":"cebpf4jnsgd1na2vs0mg"},{"bike_id":"a688888e-630e-4e10-aaf3-98b5d39dc78e","system_id":"levelo_inurba_marseille","lat":43.29971,"lon":5.38499,"is_reserved":false,"is_disabled":false,"rental_uris":{"android":"levelo://app?vid=a688888e-630e-4e10-aaf3-98b5d39dc78e","ios":"levelo://app?vid=a688888e-630e-4e10-aaf3-98b5d39dc78e"},"vehicle_type_id":"4","last_reported":1778348415,"current_range_meters":8000,"station_id":"ce4bgj92rcd13ifvqbd0","pricing_plan_id":"cebpf4jnsgd1na2vs0mg"},{"bike_id":"9dc61640-987a-437c-ada7-637d7471e1db","system_id":"levelo_inurba_marseille","lat":43.33165,"lon":5.37688,"is_reserved":false,"is_disabled":false,"rental_uris":{"android":"levelo://app?vid=9dc61640-987a-437c-ada7-637d7471e1db","ios":"levelo://app?vid=9dc61640-987a-437c-ada7-637d7471e1db"},"vehicle_type_id":"4","last_reported":1778348415,"current_range_meters":8400,"station_id":"st_d46cu089ee8s73dldbu0","pricing_plan_id":"cebpf4jnsgd1na2vs0mg"},{"bike_id":"cf0eb85b-036b-4f60-9867-74caa70c82be","system_id":"levelo_inurba_marseille","lat":43.29072,"lon":5.38659,"is_reserved":false,"is_disabled":false,"rental_uris":{"android":"levelo://app?vid=cf0eb85b-036b-4f60-9867-74caa70c82be","ios":"levelo://app?vid=cf0eb85b-036b-4f60-9867-74caa70c82be"},"vehicle_type_id":"4","last_reported":1778348415,"current_range_meters":8400,"station_id":"ce4bh4p2rcd13ifvqe0g","pricing_plan_id":"cebpf4jnsgd1na2vs0mg"},{"bike_id":"240f83cd-e330-45fb-9f58-4a13270cfff0","system_id":"levelo_inurba_marseille","lat":43.28168,"lon":5.42647,"is_reserved":false,"is_disabled":false,"rental_uris":{"android":"levelo://app?vid=240f83cd-e330-45fb-9f58-4a13270cfff0","ios":"levelo://app?vid=240f83cd-e330-45fb-9f58-4a13270cfff0"},"vehicle_type_id":"4","last_reported":1778348415,"current_range_meters":8400,"station_id":"ce4bhnh2rcd13ifvqgug","pricing_plan_id":"cebpf4jnsgd1na2vs0mg"},{"bike_id":"58f02a01-2d6b-42fb-b6cf-a6eb2f8162a4","system_id":"levelo_inurba_marseille","lat":43.26091,"lon":5.3962,"is_reserved":false,"is_disabled":false,"rental_uris":{"android":"levelo://app?vid=58f02a01-2d6b-42fb-b6cf-a6eb2f8162a4","ios":"levelo://app?vid=58f02a01-2d6b-42fb-b6cf-a6eb2f8162a4"},"vehicle_type_id":"4","last_reported":1778348415,"current_range_meters":8400,"station_id":"","pricing_plan_id":"cebpf4jnsgd1na2vs0mg"},{"bike_id":"f3e5f4c8-4e21-43e7-b783-e32e46d7b1d8","system_id":"levelo_inurba_marseille","lat":43.31241,"lon":5.37288,"is_reserved":false,"is_disabled":false,"rental_uris":{"android":"levelo://app?vid=f3e5f4c8-4e21-43e7-b783-e32e46d7b1d8","ios":"levelo://app?vid=f3e5f4c8-4e21-43e7-b783-e32e46d7b1d8"},"vehicle_type_id":"4","last_reported":1778348415,"current_range_meters":8400,"station_id":"","pricing_plan_id":"cebpf4jnsgd1na2vs0mg"},{"bike_id":"62d6aa60-b1ab-42a9-acb0-9c00e3b81529","system_id":"levelo_inurba_marseille","lat":43.28103,"lon":5.37871,"is_reserved":false,"is_disabled":false,"rental_uris":{"android":"levelo://app?vid=62d6aa60-b1ab-42a9-acb0-9c00e3b81529","ios":"levelo://app?vid=62d6aa60-b1ab-42a9-acb0-9c00e3b81529"},"vehicle_type_id":"4","last_reported":1778348415,"current_range_meters":8400,"station_id":"ce4bha12rcd13ifvqee0","pricing_plan_id":"cebpf4jnsgd1na2vs0mg"},{"bike_id":"d74b55b1-7186-4fc2-a7a8-58c5cdd1325a","system_id":"levelo_inurba_marseille","lat":43.29823,"lon":5.36285,"is_reserved":false,"is_disabled":false,"rental_uris":{"android":"levelo://app?vid=d74b55b1-7186-4fc2-a7a8-58c5cdd1325a","ios":"levelo://app?vid=d74b55b1-7186-4fc2-a7a8-58c5cdd1325a"},"vehicle_type_id":"4","last_reported":1778348415,"current_range_meters":8400,"station_id":"ce4bgpp2rcd13ifvqc3g","pricing_plan_id":"cebpf4jnsgd1na2vs0mg"},{"bike_id":"c59f577f-e1bc-4085-b7b3-c8f2e28e9471","system_id":"levelo_inurba_marseille","lat":43.28664,"lon":5.38672,"is_reserved":false,"is_disabled":false,"rental_uris":{"android":"levelo://app?vid=c59f577f-e1bc-4085-b7b3-c8f2e28e9471","ios":"levelo://app?vid=c59f577f-e1bc-4085-b7b3-c8f2e28e9471"},"vehicle_type_id":"4","last_reported":1778348415,"current_range_meters":8400,"station_id":"ce4bh492rcd13ifvqdug","pricing_plan_id":"cebpf4jnsgd1na2vs0mg"},{"bike_id":"41e821f9-d05f-4ef8-a6d6-c613a1df1d14","system_id":"levelo_inurba_marseille","lat":43.26791,"lon":5.3941,"is_reserved":false,"is_disabled":false,"rental_uris":{"android":"levelo://app?vid=41e821f9-d05f-4ef8-a6d6-c613a1df1d14","ios":"levelo://app?vid=41e821f9-d05f-4ef8-a6d6-c613a1df1d14"},"vehicle_type_id":"4","last_reported":1778348415,"current_range_meters":8400,"station_id":"ce4bhh12rcd13ifvqfg0","pricing_plan_id":"cebpf4jnsgd1na2vs0mg"},{"bike_id":"1db8e5da-37cb-4dda-bb5c-e2ae11868e54","system_id":"levelo_inurba_marseille","lat":43.24193,"lon":5.38837,"is_reserved":false,"is_disabled":false,"rental_uris":{"android":"levelo://app?vid=1db8e5da-37cb-4dda-bb5c-e2ae11868e54","ios":"levelo://app?vid=1db8e5da-37cb-4dda-bb5c-e2ae11868e54"},"vehicle_type_id":"4","last_reported":1778348415,"current_range_meters":8400,"station_id":"","pricing_plan_id":"cebpf4jnsgd1na2vs0mg"},{"bike_id":"808c4ecd-9bba-4ef5-91dc-62b4109dcc93","system_id":"levelo_inurba_marseille","lat":43.29532,"lon":5.38563,"is_reserved":false,"is_disabled":true,"rental_uris":{"android":"levelo://app?vid=808c4ecd-9bba-4ef5-91dc-62b4109dcc93","ios":"levelo://app?vid=808c4ecd-9bba-4ef5-91dc-62b4109dcc93"},