{"last_updated":1728175805,"ttl":60,"version":"2.2","data":{"bikes":[{"bike_id":"b3fb91ee-2552-4bb1-b638-e1c008f0fbc7","system_id":"levelo_inurba_marseille","lat":43.26062,"lon":5.39398,"is_reserved":false,"is_disabled":false,"rental_uris":{"android":"levelo://app?vid=b3fb91ee-2552-4bb1-b638-e1c008f0fbc7","ios":"levelo://app?vid=b3fb91ee-2552-4bb1-b638-e1c008f0fbc7"},"vehicle_type_id":"4","last_reported":1728175805,"current_range_meters":38800,"station_id":"ce4bhh92rcd13ifvqfj0","pricing_plan_id":"cebpf4jnsgd1na2vs0mg"},{"bike_id":"e626ce58-ed24-403d-b16f-1544c4a5d89a","system_id":"levelo_inurba_marseille","lat":43.23184,"lon":5.35561,"is_reserved":false,"is_disabled":false,"rental_uris":{"android":"levelo://app?vid=e626ce58-ed24-403d-b16f-1544c4a5d89a","ios":"levelo://app?vid=e626ce58-ed24-403d-b16f-1544c4a5d89a"},"vehicle_type_id":"4","last_reported":1728175805,"current_range_meters":38800,"station_id":"ce4bhu92rcd13ifvqi70","pricing_plan_id":"cebpf4jnsgd1na2vs0mg"},{"bike_id":"8141a509-e797-4ec3-9b27-a12ebc8090b6","system_id":"levelo_inurba_marseille","lat":43.25115,"lon":5.40318,"is_reserved":false,"is_disabled":false,"rental_uris":{"android":"levelo://app?vid=8141a509-e797-4ec3-9b27-a12ebc8090b6","ios":"levelo://app?vid=8141a509-e797-4ec3-9b27-a12ebc8090b6"},"vehicle_type_id":"4","last_reported":1728175805,"current_range_meters":38800,"station_id":"ce4bhlh2rcd13ifvqgig","pricing_plan_id":"cebpf4jnsgd1na2vs0mg"},{"bike_id":"9671f252-4906-4ded-9eb9-fd7886dcac1f","system_id":"levelo_inurba_marseille","lat":43.31811,"lon":5.3904,"is_reserved":false,"is_disabled":false,"rental_uris":{"android":"levelo://app?vid=9671f252-4906-4ded-9eb9-fd7886dcac1f","ios":"levelo://app?vid=9671f252-4906-4ded-9eb9-fd7886dcac1f"},"vehicle_type_id":"4","last_reported":1728175805,"current_range_meters":38800,"station_id":"","pricing_plan_id":"cebpf4jnsgd1na2vs0mg"},{"bike_id":"1983c93e-c965-4222-b577-534bb342f583","system_id":"levelo_inurba_marseille","lat":43.24173,"lon":5.39726,"is_reserved":false,"is_disabled":false,"rental_uris":{"android":"levelo://app?vid=1983c93e-c965-4222-b577-534bb342f583","ios":"levelo://app?vid=1983c93e-c965-4222-b577-534bb342f583"},"vehicle_type_id":"4","last_reported":1728175805,"current_range_meters":19600,"station_id":"ce4bhn12rcd13ifvqgpg","pricing_plan_id":"cebpf4jnsgd1na2vs0mg"},{"bike_id":"442824c6-8b63-4a71-93f0-6531329b40f0","system_id":"levelo_inurba_marseille","lat":43.29196,"lon":5.35792,"is_reserved":false,"is_disabled":false,"rental_uris":{"android":"levelo://app?vid=442824c6-8b63-4a71-93f0-6531329b40f0","ios":"levelo://app?vid=442824c6-8b63-4a71-93f0-6531329b40f0"},"vehicle_type_id":"4","last_reported":1728175805,"current_range_meters":30800,"station_id":"ce4bhb12rcd13ifvqel0","pricing_plan_id":"cebpf4jnsgd1na2vs0mg"},{"bike_id":"3edccbad-c604-40df-acb2-6e9d91b67298","system_id":"levelo_inurba_marseille","lat":43.33805,"lon":5.37436,"is_reserved":false,"is_disabled":false,"rental_uris":{"android":"levelo://app?vid=3edccbad-c604-40df-acb2-6e9d91b67298","ios":"levelo://app?vid=3edccbad-c604-40df-acb2-6e9d91b67298"},"vehicle_type_id":"4","last_reported":1728175805,"current_range_meters":31200,"station_id":"","pricing_plan_id":"cebpf4jnsgd1na2vs0mg"},{"bike_id":"1715ce98-ec40-46a0-a69c-eb5d08c7ad2e","system_id":"levelo_inurba_marseille","lat":43.27426,"lon":5.39404,"is_reserved":false,"is_disabled":false,"rental_uris":{"android":"levelo://app?vid=1715ce98-ec40-46a0-a69c-eb5d08c7ad2e","ios":"levelo://app?vid=1715ce98-ec40-46a0-a69c-eb5d08c7ad2e"},"vehicle_type_id":"4","last_reported":1728175805,"current_range_meters":32000,"station_id":"ce4bhdp2rcd13ifvqf20","pricing_plan_id":"cebpf4jnsgd1na2vs0mg"},{"bike_id":"f42ba909-c6af-4d4c-bcad-ee9c6f8944ff","system_id":"levelo_inurba_marseille","lat":43.31754,"lon":5.39007,"is_reserved":false,"is_disabled":false,"rental_uris":{"android":"levelo://app?vid=f42ba909-c6af-4d4c-bcad-ee9c6f8944ff","ios":"levelo://app?vid=f42ba909-c6af-4d4c-bcad-ee9c6f8944ff"},"vehicle_type_id":"4","last_reported":1728175805,"current_range_meters":30800,"station_id":"ce4bhqp2rcd13ifvqhng","pricing_plan_id":"cebpf4jnsgd1na2vs0mg"},{"bike_id":"0690d114-c8c7-4e46-a5a2-7f449cdff008","system_id":"levelo_inurba_marseille","lat":43.30798,"lon":5.43519,"is_reserved":false,"is_disabled":false,"rental_uris":{"android":"levelo://app?vid=0690d114-c8c7-4e46-a5a2-7f449cdff008","ios":"levelo://app?vid=0690d114-c8c7-4e46-a5a2-7f449cdff008"},"vehicle_type_id":"4","last_reported":1728175805,"current_range_meters":24000,"station_id":"ce4bhph2rcd13ifvqheg","pricing_plan_id":"cebpf4jnsgd1na2vs0mg"},{"bike_id":"2b95e316-1940-4083-bf39-ae8850120b7f","system_id":"levelo_inurba_marseille","lat":43.29798,"lon":5.40404,"is_reserved":false,"is_disabled":false,"rental_uris":{"android":"levelo://app?vid=2b95e316-1940-4083-bf39-ae8850120b7f","ios":"levelo://app?vid=2b95e316-1940-4083-bf39-ae8850120b7f"},"vehicle_type_id":"4","last_reported":1728175805,"current_range_meters":7200,"station_id":"ce4bh112rcd13ifvqd90","pricing_plan_id":"cebpf4jnsgd1na2vs0mg"},{"bike_id":"5247e496-daed-4465-8046-4c6092253b0e","system_id":"levelo_inurba_marseille","lat":43.23226,"lon":5.43761,"is_reserved":false,"is_disabled":false,"rental_uris":{"android":"levelo://app?vid=5247e496-daed-4465-8046-4c6092253b0e","ios":"levelo://app?vid=5247e496-daed-4465-8046-4c6092253b0e"},"vehicle_type_id":"4","last_reported":1728175805,"current_range_meters":38000,"station_id":"ce4bhmp2rcd13ifvqgog","pricing_plan_id":"cebpf4jnsgd1na2vs0mg"},{"bike_id":"633b889a-a22f-4e08-baac-8b530217db02","system_id":"levelo_inurba_marseille","lat":43.30784,"lon":5.37652,"is_reserved":false,"is_disabled":false,"rental_uris":{"android":"levelo://app?vid=633b889a-a22f-4e08-baac-8b530217db02","ios":"levelo://app?vid=633b889a-a22f-4e08-baac-8b530217db02"},"vehicle_type_id":"4","last_reported":1728175805,"current_range_meters":28400,"station_id":"ce4bgv92rcd13ifvqcq0","pricing_plan_id":"cebpf4jnsgd1na2vs0mg"},{"bike_id":"45724e92-532e-484e-b4a7-5ca3c85c5df6","system_id":"levelo_inurba_marseille","lat":43.23965,"lon":5.3663,"is_reserved":false,"is_disabled":false,"rental_uris":{"android":"levelo://app?vid=45724e92-532e-484e-b4a7-5ca3c85c5df6","ios":"levelo://app?vid=45724e92-532e-484e-b4a7-5ca3c85c5df6"},"vehicle_type_id":"4","last_reported":1728175805,"current_range_meters":21600,"station_id":"ce4bhi12rcd13ifvqfp0","pricing_plan_id":"cebpf4jnsgd1na2vs0mg"},{"bike_id":"b287de09-225f-4862-8d67-b67d53011f62","system_id":"levelo_inurba_marseille","lat":43.28155,"lon":5.42646,"is_reserved":false,"is_disabled":false,"rental_uris":{"android":"levelo://app?vid=b287de09-225f-4862-8d67-b67d53011f62","ios":"levelo://app?vid=b287de09-225f-4862-8d67-b67d53011f62"},"vehicle_type_id":"4","last_reported":1728175805,"current_range_meters":16000,"station_id":"ce4bhnh2rcd13ifvqgug","pricing_plan_id":"cebpf4jnsgd1na2vs0mg"},{"bike_id":"31ea6b97-9b1b-4830-91db-ea5d9e36526f","system_id":"levelo_inurba_marseille","lat":43.28034,"lon":5.36952,"is_reserved":false,"is_disabled":false,"rental_uris":{"android":"levelo://app?vid=31ea6b97-9b1b-4830-91db-ea5d9e36526f","ios":"levelo://app?vid=31ea6b97-9b1b-4830-91db-ea5d9e36526f"},"vehicle_type_id":"4","last_reported":1728175805,"current_range_meters":37600,"station_id":"ce4bha12rcd13ifvqef0","pricing_plan_id":"cebpf4jnsgd1na2vs0mg"},{"bike_id":"ba0180d4-cf64-48df-8270-0db5fe20d0c7","system_id":"levelo_inurba_marseille","lat":43.29548,"lon":5.42284,"is_reserved":false,"is_disabled":false,"rental_uris":{"android":"levelo://app?vid=ba0180d4-cf64-48df-8270-0db5fe20d0c7","ios":"levelo://app?vid=ba0180d4-cf64-48df-8270-0db5fe20d0c7"},"vehicle_type_id":"4","last_reported":1728175805,"current_range_meters":38800,"station_id":"ce4bhph2rcd13ifvqhdg","pricing_plan_id":"cebpf4jnsgd1na2vs0mg"},{"bike_id":"6266ab0d-036e-4351-aec4-c2f2013119e5","system_id":"levelo_inurba_marseille","lat":43.32486,"lon":5.36563,"is_reserved":false,"is_disabled":false,"rental_uris":{"android":"levelo://app?vid=6266ab0d-036e-4351-aec4-c2f2013119e5","ios":"levelo://app?vid=6266ab0d-036e-4351-aec4-c2f2013119e5"},"vehicle_type_id":"4","last_reported":1728175805,"current_range_meters":38800,"station_id":"ce4bhs12rcd13ifvqhvg","pricing_plan_id":"cebpf4jnsgd1na2vs0mg"},{"bike_id":"a2153ac2-6bee-4af8-9fcf-4a9bf85c4fae","system_id":"levelo_inurba_marseille","lat":43.31696,"lon":5.40463,"is_reserved":false,"is_disabled":false,"rental_uris":{"android":"levelo://app?vid=a2153ac2-6bee-4af8-9fcf-4a9bf85c4fae","ios":"levelo://app?vid=a2153ac2-6bee-4af8-9fcf-4a9bf85c4fae"},"vehicle_type_id":"4","last_reported":1728175805,"current_range_meters":32800,"station_id":"ce4bh012rcd13ifvqd00","pricing_plan_id":"cebpf4jnsgd1na2vs0mg"},{"bike_id":"2c1ccc48-7b9a-4b96-82c1-feb476287a75","system_id":"levelo_inurba_marseille","lat":43.25082,"lon":5.39517,"is_reserved":false,"is_disabled":false,"rental_uris":{"android":"levelo://app?vid=2c1ccc48-7b9a-4b96-82c1-feb476287a75","ios":"levelo://app?vid=2c1ccc48-7b9a-4b96-82c1-feb476287a75"},"vehicle_type_id":"4","last_reported":1728175805,"current_range_meters":37600,"station_id":"ce4bhm12rcd13ifvqgkg","pricing_plan_id":"cebpf4jnsgd1na2vs0mg"},{"bike_id":"4dbd6601-2a53-4250-961c-bd7955351e14","system_id":"levelo_inurba_marseille","lat":43.29552,"lon":5.42276,"is_reserved":false,"is_disabled":false,"rental_uris":{"android":"levelo://app?vid=4dbd6601-2a53-4250-961c-bd7955351e14","ios":"levelo://app?vid=4dbd6601-2a53-4250-961c-bd7955351e14"},"vehicle_type_id":"4","last_reported":1728175805,"current_range_meters":28000,"station_id":"ce4bhph2rcd13ifvqhdg","pricing_plan_id":"cebpf4jnsgd1na2vs0mg"},{"bike_id":"f11dd066-6b94-4d0b-8a87-cb59e5dabda0","system_id":"levelo_inurba_marseille","lat":43.31274,"lon":5.40172,"is_reserved":false,"is_disabled":false,"rental_uris":{"android":"levelo://app?vid=f11dd066-6b94-4d0b-8a87-cb59e5dabda0","ios":"levelo://app?vid=f11dd066-6b94-4d0b-8a87-cb59e5dabda0"},"vehicle_type_id":"4","last_reported":1728175805,"current_range_meters":39200,"station_id":"ce4bh092rcd13ifvqd30","pricing_plan_id":"cebpf4jnsgd1na2vs0mg"},{"bike_id":"2d7a2cb1-2897-4c0f-8a7d-31c222bf8d7d","system_id":"levelo_inurba_marseille","lat":43.30959,"lon":5.39031,"is_reserved":false,"is_disabled":false,"rental_uris":{"android":"levelo://app?vid=2d7a2cb1-2897-4c0f-8a7d-31c222bf8d7d","ios":"levelo://app?vid=2d7a2cb1-2897-4c0f-8a7d-31c222bf8d7d"},"vehicle_type_id":"4","last_reported":1728175805,"current_range_meters":30000,"station_id":"ce4bgup2rcd13ifvqco0","pricing_plan_id":"cebpf4jnsgd1na2vs0mg"},{"bike_id":"6eb49694-06bb-41cb-98b9-71b7074bd821","system_id":"levelo_inurba_marseille","lat":43.3189,"lon":5.40728,"is_reserved":false,"is_disabled":false,"rental_uris":{"android":"levelo://app?vid=6eb49694-06bb-41cb-98b9-71b7074bd821","ios":"levelo://app?vid=6eb49694-06bb-41cb-98b9-71b7074bd821"},"vehicle_type_id":"4","last_reported":1728175805,"current_range_meters":24400,"station_id":"ce4bhq12rcd13ifvqhig","pricing_plan_id":"cebpf4jnsgd1na2vs0mg"},{"bike_id":"75dbce07-c755-4145-9e54-8edf0905547b","system_id":"levelo_inurba_marseille","lat":43.27834,"lon":5.39215,"is_reserved":false,"is_disabled":false,"rental_uris":{"android":"levelo://app?vid=75dbce07-c755-4145-9e54-8edf0905547b","ios":"levelo://app?vid=75dbce07-c755-4145-9e54-8edf0905547b"},"vehicle_type_id":"4","last_reported":1728175805,"current_range_meters":38000,"station_id":"ce4bhjp2rcd13ifvqga0","pricing_plan_id":"cebpf4jnsgd1na2vs0mg"},{"bike_id":"68ecf37e-031f-4b6a-a3d6-30fc7a23d9ad","system_id":"levelo_inurba_marseille","lat":43.28072,"lon":5.3965,"is_reserved":false,"is_disabled":false,"rental_uris":{"android":"levelo://app?vid=68ecf37e-031f-4b6a-a3d6-30fc7a23d9ad","ios":"levelo://app?vid=68ecf37e-031f-4b6a-a3d6-30fc7a23d9ad"},"vehicle_type_id":"4","last_reported":1728175805,"current_range_meters":24400,"station_id":"ce4bho12rcd13ifvqh2g","pricing_plan_id":"cebpf4jnsgd1na2vs0mg"},{"bike_id":"e4d472bd-5053-4d8d-8cf9-5534eceab3f4","system_id":"levelo_inurba_marseille","lat":43.29531,"lon":5.39048,"is_reserved":false,"is_disabled":false,"rental_uris":{"android":"levelo://app?vid=e4d472bd-5053-4d8d-8cf9-5534eceab3f4","ios":"levelo://app?vid=e4d472bd-5053-4d8d-8cf9-5534eceab3f4"},"vehicle_type_id":"4","last_reported":1728175805,"current_range_meters":38000,"station_id":"ce4bh3p2rcd13ifvqdp0","pricing_plan_id":"cebpf4jnsgd1na2vs0mg"},{"bike_id":"a013fc0e-79f4-4493-bf94-abf4fcb0118b","system_id":"levelo_inurba_marseille","lat":43.28106,"lon":5.37836,"is_reserved":false,"is_disabled":false,"rental_uris":{"android":"levelo://app?vid=a013fc0e-79f4-4493-bf94-abf4fcb0118b","ios":"levelo://app?vid=a013fc0e-79f4-4493-bf94-abf4fcb0118b"},"vehicle_type_id":"4","last_reported":1728175805,"current_range_meters":34000,"station_id":"ce4bha12rcd13ifvqee0","pricing_plan_id":"cebpf4jnsgd1na2vs0mg"},{"bike_id":"8f568ac0-6709-4e1b-976a-2ebd965361a0","system_id":"levelo_inurba_marseille","lat":43.31531,"lon":5.38029,"is_reserved":false,"is_disabled":false,"rental_uris":{"android":"levelo://app?vid=8f568ac0-6709-4e1b-976a-2ebd965361a0","ios":"levelo://app?vid=8f568ac0-6709-4e1b-976a-2ebd965361a0"},"vehicle_type_id":"4","last_reported":1728175805,"current_range_meters":10000,"station_id":"ce4bhsp2rcd13ifvqi50","pricing_plan_id":"cebpf4jnsgd1na2vs0mg"},{"bike_id":"03ebdfef-60b9-4383-b780-f6e10ef5dff9","system_id":"levelo_inurba_marseille","lat":43.33751,"lon":5.3744,"is_reserved":false,"is_disabled":false,"rental_uris":{"android":"levelo://app?vid=03ebdfef-60b9-4383-b780-f6e10ef5dff9","ios":"levelo://app?vid=03ebdfef-60b9-4383-b780-f6e10ef5dff9"},"vehicle_type_id":"4","last_reported":1728175805,"current_range_meters":30400,"station_id":"","pricing_plan_id":"cebpf4jnsgd1na2vs0mg"},{"bike_id":"2af3a296-acf1-4a1b-ac20-a269b1358416","system_id":"levelo_inurba_marseille","lat":43.25826,"lon":5.39419,"is_reserved":false,"is_disabled":false,"rental_uris":{"android":"levelo://app?vid=2af3a296-acf1-4a1b-ac20-a269b1358416","ios":"levelo://app?vid=2af3a296-acf1-4a1b-ac20-a269b1358416"},"vehicle_type_id":"4","last_reported":1728175805,"current_range_meters":38800,"station_id":"ce4bhip2rcd13ifvqft0","pricing_plan_id":"cebpf4jnsgd1na2vs0mg"},{"bike_id":"1c3bbd8d-8d5e-44b9-b34d-bf485a3c73f8","system_id":"levelo_inurba_marseille","lat":43.30133,"lon":5.39874,"is_reserved":false,"is_disabled":false,"rental_uris":{"android":"levelo://app?vid=1c3bbd8d-8d5e-44b9-b34d-bf485a3c73f8","ios":"levelo://app?vid=1c3bbd8d-8d5e-44b9-b34d-bf485a3c73f8"},"vehicle_type_id":"4","last_reported":1728175805,"current_range_meters":36800,"station_id":"ce4bh0h2rcd13ifvqd40","pricing_plan_id":"cebpf4jnsgd1na2vs0mg"},{"bike_id":"8776769b-9d44-4cbf-8bfe-df4892fb90c2","system_id":"levelo_inurba_marseille","lat":43.32357,"lon":5.38859,"is_reserved":false,"is_disabled":false,"rental_uris":{"android":"levelo://app?vid=8776769b-9d44-4cbf-8bfe-df4892fb90c2","ios":"levelo://app?vid=8776769b-9d44-4cbf-8bfe-df4892fb90c2"},"vehicle_type_id":"4","last_reported":1728175805,"current_range_meters":27200,"station_id":"ce4bhqp2rcd13ifvqhog","pricing_plan_id":"cebpf4jnsgd1na2vs0mg"},{"bike_id":"0952ea56-7f44-4708-ab22-7a7a98985b63","system_id":"levelo_inurba_marseille","lat":43.33029,"lon":5.39042,"is_reserved":false,"is_disabled":false,"rental_uris":{"android":"levelo://app?vid=0952ea56-7f44-4708-ab22-7a7a98985b63","ios":"levelo://app?vid=0952ea56-7f44-4708-ab22-7a7a98985b63"},"vehicle_type_id":"4","last_reported":1728175805,"current_range_meters":33600,"station_id":"ce4bhr92rcd13ifvqhrg","pricing_plan_id":"cebpf4jnsgd1na2vs0mg"},{"bike_id":"8c4ede2a-8479-4951-912b-e9104b176599","system_id":"levelo_inurba_marseille","lat":43.33723,"lon":5.39198,"is_reserved":false,"is_disabled":false,"rental_uris":{"android":"levelo://app?vid=8c4ede2a-8479-4951-912b-e9104b176599","ios":"levelo://app?vid=8c4ede2a-8479-4951-912b-e9104b176599"},"vehicle_type_id":"4","last_reported":1728175805,"current_range_meters":9600,"station_id":"ce4bhr92rcd13ifvqhsg","pricing_plan_id":"cebpf4jnsgd1na2vs0mg"},{"bike_id":"0070bd1d-0841-43bf-9fe9-9007ec3667b5","system_id":"levelo_inurba_marseille","lat":43.28911,"lon":5.39516,"is_reserved":false,"is_disabled":false,"rental_uris":{"android":"levelo://app?vid=0070bd1d-0841-43bf-9fe9-9007ec3667b5","ios":"levelo://app?vid=0070bd1d-0841-43bf-9fe9-9007ec3667b5"},"vehicle_type_id":"4","last_reported":1728175805,"current_range_meters":18000,"station_id":"","pricing_plan_id":"cebpf4jnsgd1na2vs0mg"},{"bike_id":"a209a971-131e-491a-94c0-3302688dd8c9","system_id":"levelo_inurba_marseille","lat":43.30802,"lon":5.43527,"is_reserved":false,"is_disabled":false,"rental_uris":{"android":"levelo://app?vid=a209a971-131e-491a-94c0-3302688dd8c9","ios":"levelo://app?vid=a209a971-131e-491a-94c0-3302688dd8c9"},"vehicle_type_id":"4","last_reported":1728175805,"current_range_meters":15200,"station_id":"ce4bhph2rcd13ifvqheg","pricing_plan_id":"cebpf4jnsgd1na2vs0mg"},{"bike_id":"78ed7689-12dc-409d-8545-3f1274f7780d","system_id":"levelo_inurba_marseille","lat":43.29554,"lon":5.42279,"is_reserved":false,"is_disabled":false,"rental_uris":{"android":"levelo://app?vid=78ed7689-12dc-409d-8545-3f1274f7780d","ios":"levelo://app?vid=78ed7689-12dc-409d-8545-3f1274f7780d"},"vehicle_type_id":"4","last_reported":1728175805,"current_range_meters":11600,"station_id":"ce4bhph2rcd13ifvqhdg","pricing_plan_id":"cebpf4jnsgd1na2vs0mg"},{"bike_id":"4018fa26-9a2a-4214-af21-76b3667a940b","system_id":"levelo_inurba_marseille","lat":43.33751,"lon":5.37439,"is_reserved":false,"is_disabled":false,"rental_uris":{"android":"levelo://app?vid=4018fa26-9a2a-4214-af21-76b3667a940b","ios":"levelo://app?vid=4018fa26-9a2a-4214-af21-76b3667a940b"},"vehicle_type_id":"4","last_reported":1728175805,"current_range_meters":30400,"station_id":"","pricing_plan_id":"cebpf4jnsgd1na2vs0mg"},{"bike_id":"00c45ea1-858d-461f-8ea3-1590828f0800","system_id":"levelo_inurba_marseille","lat":43.3021,"lon":5.39469,"is_reserved":false,"is_disabled":false,"rental_uris":{"android":"levelo://app?vid=00c45ea1-858d-461f-8ea3-1590828f0800","ios":"levelo://app?vid=00c45ea1-858d-461f-8ea3-1590828f0800"},"vehicle_type_id":"4","last_reported":1728175805,"current_range_meters":8000,"station_id":"ce4bh0p2rcd13ifvqd70","pricing_plan_id":"cebpf4jnsgd1na2vs0mg"},{"bike_id":"66a3911d-261b-4658-9123-6edcbc033e45","system_id":"levelo_inurba_marseille","lat":43.29267,"lon":5.36845,"is_reserved":false,"is_disabled":false,"rental_uris":{"android":"levelo://app?vid=66a3911d-261b-4658-9123-6edcbc033e45","ios":"levelo://app?vid=66a3911d-261b-4658-9123-6edcbc033e45"},"vehicle_type_id":"4","last_reported":1728175805,"current_range_meters":9600,"station_id":"ce4bhbp2rcd13ifvqesg","pricing_plan_id":"cebpf4jnsgd1na2vs0mg"},{"bike_id":"fac6f7d5-25da-4d75-bd37-6eb9ec641f1f","system_id":"levelo_inurba_marseille","lat":43.23192,"lon":5.35552,"is_reserved":false,"is_disabled":false,"rental_uris":{"android":"levelo://app?vid=fac6f7d5-25da-4d75-bd37-6eb9ec641f1f","ios":"levelo://app?vid=fac6f7d5-25da-4d75-bd37-6eb9ec641f1f"},"vehicle_type_id":"4","last_reported":1728175805,"current_range_meters":38800,"station_id":"ce4bhu92rcd13ifvqi70","pricing_plan_id":"cebpf4jnsgd1na2vs0mg"},{"bike_id":"ac7477e2-647f-4698-b2f1-05ac6bd7ca79","system_id":"levelo_inurba_marseille","lat":43.27373,"lon":5.3625,"is_reserved":false,"is_disabled":false,"rental_uris":{"android":"levelo://app?vid=ac7477e2-647f-4698-b2f1-05ac6bd7ca79","ios":"levelo://app?vid=ac7477e2-647f-4698-b2f1-05ac6bd7ca79"},"vehicle_type_id":"4","last_reported":1728175805,"current_range_meters":36400,"station_id":"ce4bhbh2rcd13ifvqeo0","pricing_plan_id":"cebpf4jnsgd1na2vs0mg"},{"bike_id":"c2631e27-f561-45cd-964c-4f2a217a8c4e","system_id":"levelo_inurba_marseille","lat":43.30637,"lon":5.4007,"is_reserved":false,"is_disabled":false,"rental_uris":{"android":"levelo://app?vid=c2631e27-f561-45cd-964c-4f2a217a8c4e","ios":"levelo://app?vid=c2631e27-f561-45cd-964c-4f2a217a8c4e"},"vehicle_type_id":"4","last_reported":1728175805,"current_range_meters":6800,"station_id":"ce4bh112rcd13ifvqda0","pricing_plan_id":"cebpf4jnsgd1na2vs0mg"},{"bike_id":"ec5ac124-dc84-4484-b748-2418550ad8a8","system_id":"levelo_inurba_marseille","lat":43.31494,"lon":5.37305,"is_reserved":false,"is_disabled":false,"rental_uris":{"android":"levelo://app?vid=ec5ac124-dc84-4484-b748-2418550ad8a8","ios":"levelo://app?vid=ec5ac124-dc84-4484-b748-2418550ad8a8"},"vehicle_type_id":"4","last_reported":1728175805,"current_range_meters":38400,"station_id":"ce4bgt12rcd13ifvqcd0","pricing_plan_id":"cebpf4jnsgd1na2vs0mg"},{"bike_id":"0a6abf91-5934-4bff-86d6-d42b6ef92f8f","system_id":"levelo_inurba_marseille","lat":43.28107,"lon":5.37831,"is_reserved":false,"is_disabled":false,"rental_uris":{"android":"levelo://app?vid=0a6abf91-5934-4bff-86d6-d42b6ef92f8f","ios":"levelo://app?vid=0a6abf91-5934-4bff-86d6-d42b6ef92f8f"},"vehicle_type_id":"4","last_reported":1728175805,"current_range_meters":20800,"station_id":"ce4bha12rcd13ifvqee0","pricing_plan_id":"cebpf4jnsgd1na2vs0mg"},{"bike_id":"b2609d29-2adb-4d7d-b560-a8842737ae32","system_id":"levelo_inurba_marseille","lat":43.294346,"lon":5.397513,"is_reserved":false,"is_disabled":false,"rental_uris":{"android":"levelo://app?vid=b2609d29-2adb-4d7d-b560-a8842737ae32","ios":"levelo://app?vid=b2609d29-2adb-4d7d-b560-a8842737ae32"},"vehicle_type_id":"4","last_reported":1728175805,"current_range_meters":24800,"station_id":"ce4bh3h2rcd13ifvqdo0","pricing_plan_id":"cebpf4jnsgd1na2vs0mg"},{"bike_id":"270d446c-c917-4cb4-bb1b-6308ef4780b2","system_id":"levelo_inurba_marseille","lat":43.31366,"lon":5.38506,"is_reserved":false,"is_disabled":false,"rental_uris":{"android":"levelo://app?vid=270d446c-c917-4cb4-bb1b-6308ef4780b2","ios":"levelo://app?vid=270d446c-c917-4cb4-bb1b-6308ef4780b2"},"vehicle_type_id":"4","last_reported":1728175805,"current_range_meters":10800,"station_id":"ce4bgt92rcd13ifvqcf0","pricing_plan_id":"cebpf4jnsgd1na2vs0mg"},{"bike_id":"be80d8a2-d07f-4e97-a19e-421069027a70","system_id":"levelo_inurba_marseille","lat":43.24539,"lon":5.39517,"is_reserved":false,"is_disabled":false,"rental_uris":{"android":"levelo://app?vid=be80d8a2-d07f-4e97-a19e-421069027a70","ios":"levelo://app?vid=be80d8a2-d07f-4e97-a19e-421069027a70"},"vehicle_type_id":"4","last_reported":1728175805,"current_range_meters":38400,"station_id":"ce4bhlp2rcd13ifvqgjg","pricing_plan_id":"cebpf4jnsgd1na2vs0mg"},{"bike_id":"491813ec-5bcd-4eda-acb2-c01ccb4e9894","system_id":"levelo_inurba_marseille","lat":43.33772,"lon":5.3744,"is_reserved":false,"is_disabled":false,"rental_uris":{"android":"levelo://app?vid=491813ec-5bcd-4eda-acb2-c01ccb4e9894","ios":"levelo://app?vid=491813ec-5bcd-4eda-acb2-c01ccb4e9894"},"vehicle_type_id":"4","last_reported":1728175805,"current_range_meters":32800,"station_id":"","pricing_plan_id":"cebpf4jnsgd1na2vs0mg"},{"bike_id":"8314afce-5c76-45ae-958c-61928c717fd9","system_id":"levelo_inurba_marseille","lat":43.27992,"lon":5.41656,"is_reserved":false,"is_disabled":false,"rental_uris":{"android":"levelo://app?vid=8314afce-5c76-45ae-958c-61928c717fd9","ios":"levelo://app?vid=8314afce-5c76-45ae-958c-61928c717fd9"},"vehicle_type_id":"4","last_reported":1728175805,"current_range_meters":33600,"station_id":"ce4bho12rcd13ifvqh1g","pricing_plan_id":"cebpf4jnsgd1na2vs0mg"},{"bike_id":"3e73745e-f9be-4060-862f-b92f1ee6a9ab","system_id":"levelo_inurba_marseille","lat":43.31368,"lon":5.38496,"is_reserved":false,"is_disabled":false,"rental_uris":{"android":"levelo://app?vid=3e73745e-f9be-4060-862f-b92f1ee6a9ab","ios":"levelo://app?vid=3e73745e-f9be-4060-862f-b92f1ee6a9ab"},"vehicle_type_id":"4","last_reported":1728175805,"current_range_meters":28800,"station_id":"ce4bgt92rcd13ifvqcf0","pricing_plan_id":"cebpf4jnsgd1na2vs0mg"},{"bike_id":"87be7a17-4302-4965-8336-821c2174ed32","system_id":"levelo_inurba_marseille","lat":43.25113,"lon":5.40325,"is_reserved":false,"is_disabled":false,"rental_uris":{"android":"levelo://app?vid=87be7a17-4302-4965-8336-821c2174ed32","ios":"levelo://app?vid=87be7a17-4302-4965-8336-821c2174ed32"},"vehicle_type_id":"4","last_reported":1728175805,"current_range_meters":38800,"station_id":"ce4bhlh2rcd13ifvqgig","pricing_plan_id":"cebpf4jnsgd1na2vs0mg"},{"bike_id":"c56a7f6d-1c51-4af0-848a-53ce2371dbf4","system_id":"levelo_inurba_marseille","lat":43.31722,"lon":5.42403,"is_reserved":false,"is_disabled":false,"rental_uris":{"android":"levelo://app?vid=c56a7f6d-1c51-4af0-848a-53ce2371dbf4","ios":"levelo://app?vid=c56a7f6d-1c51-4af0-848a-53ce2371dbf4"},"vehicle_type_id":"4","last_reported":1728175805,"current_range_meters":18000,"station_id":"ce4bhp92rcd13ifvqhbg","pricing_plan_id":"cebpf4jnsgd1na2vs0mg"},{"bike_id":"baba7691-81ff-4c7d-90d9-c89eba9696cb","system_id":"levelo_inurba_marseille","lat":43.25922,"lon":5.40903,"is_reserved":false,"is_disabled":false,"rental_uris":{"android":"levelo://app?vid=baba7691-81ff-4c7d-90d9-c89eba9696cb","ios":"levelo://app?vid=baba7691-81ff-4c7d-90d9-c89eba9696cb"},"vehicle_type_id":"4","last_reported":1728175805,"current_range_meters":34800,"station_id":"ce4bhm92rcd13ifvqglg","pricing_plan_id":"cebpf4jnsgd1na2vs0mg"},{"bike_id":"598e7482-d528-4354-8ef8-35deedd58485","system_id":"levelo_inurba_marseille","lat":43.29707,"lon":5.36605,"is_reserved":false,"is_disabled":false,"rental_uris":{"android":"levelo://app?vid=598e7482-d528-4354-8ef8-35deedd58485","ios":"levelo://app?vid=598e7482-d528-4354-8ef8-35deedd58485"},"vehicle_type_id":"4","last_reported":1728175805,"current_range_meters":25600,"station_id":"ce4bgn12rcd13ifvqbt0","pricing_plan_id":"cebpf4jnsgd1na2vs0mg"},{"bike_id":"50b3012e-ec86-40b5-9328-579a7f881b99","system_id":"levelo_inurba_marseille","lat":43.29054,"lon":5.3592,"is_reserved":false,"is_disabled":false,"rental_uris":{"android":"levelo://app?vid=50b3012e-ec86-40b5-9328-579a7f881b99","ios":"levelo://app?vid=50b3012e-ec86-40b5-9328-579a7f881b99"},"vehicle_type_id":"4","last_reported":1728175805,"current_range_meters":24800,"station_id":"ce4bha92rcd13ifvqeg0","pricing_plan_id":"cebpf4jnsgd1na2vs0mg"},{"bike_id":"2b08579d-333c-4fe2-94e8-5ba5b8475885","system_id":"levelo_inurba_marseille","lat":43.27067,"lon":5.42274,"is_reserved":false,"is_disabled":false,"rental_uris":{"android":"levelo://app?vid=2b08579d-333c-4fe2-94e8-5ba5b8475885","ios":"levelo://app?vid=2b08579d-333c-4fe2-94e8-5ba5b8475885"},"vehicle_type_id":"4","last_reported":1728175805,"current_range_meters":38800,"station_id":"ce4bhk92rcd13ifvqgb0","pricing_plan_id":"cebpf4jnsgd1na2vs0mg"},{"bike_id":"be1fc320-dd97-4954-ac7c-7de9b96a03e0","system_id":"levelo_inurba_marseille","lat":43.29554,"lon":5.42276,"is_reserved":false,"is_disabled":false,"rental_uris":{"android":"levelo://app?vid=be1fc320-dd97-4954-ac7c-7de9b96a03e0","ios":"levelo://app?vid=be1fc320-dd97-4954-ac7c-7de9b96a03e0"},"vehicle_type_id":"4","last_reported":1728175805,"current_range_meters":14800,"station_id":"ce4bhph2rcd13ifvqhdg","pricing_plan_id":"cebpf4jnsgd1na2vs0mg"},{"bike_id":"1a4b9bee-9297-474e-8c5a-addba9e72262","system_id":"levelo_inurba_marseille","lat":43.27492,"lon":5.42459,"is_reserved":false,"is_disabled":false,"rental_uris":{"android":"levelo://app?vid=1a4b9bee-9297-474e-8c5a-addba9e72262","ios":"levelo://app?vid=1a4b9bee-9297-474e-8c5a-addba9e72262"},"vehicle_type_id":"4","last_reported":1728175805,"current_range_meters":35200,"station_id":"ce4bhn92rcd13ifvqgrg","pricing_plan_id":"cebpf4jnsgd1na2vs0mg"},{"bike_id":"d23ddbe4-840b-4d6d-8e13-a20922334a77","system_id":"levelo_inurba_marseille","lat":43.32486,"lon":5.36572,"is_reserved":false,"is_disabled":false,"rental_uris":{"android":"levelo://app?vid=d23ddbe4-840b-4d6d-8e13-a20922334a77","ios":"levelo://app?vid=d23ddbe4-840b-4d6d-8e13-a20922334a77"},"vehicle_type_id":"4","last_reported":1728175805,"current_range_meters":40000,"station_id":"ce4bhs12rcd13ifvqhvg","pricing_plan_id":"cebpf4jnsgd1na2vs0mg"},{"bike_id":"ec3d339b-02fe-4c2c-8367-336c7f8156d9","system_id":"levelo_inurba_marseille","lat":43.30282,"lon":5.37706,"is_reserved":false,"is_disabled":false,"rental_uris":{"android":"levelo://app?vid=ec3d339b-02fe-4c2c-8367-336c7f8156d9","ios":"levelo://app?vid=ec3d339b-02fe-4c2c-8367-336c7f8156d9"},"vehicle_type_id":"4","last_reported":1728175805,"current_range_meters":28800,"station_id":"ce4bguh2rcd13ifvqcj0","pricing_plan_id":"cebpf4jnsgd1na2vs0mg"},{"bike_id":"4af55307-045f-4c66-a045-a91d88bb4c16","system_id":"levelo_inurba_marseille","lat":43.33762,"lon":5.374272,"is_reserved":false,"is_disabled":false,"rental_uris":{"android":"levelo://app?vid=4af55307-045f-4c66-a045-a91d88bb4c16","ios":"levelo://app?vid=4af55307-045f-4c66-a045-a91d88bb4c16"},"vehicle_type_id":"4","last_reported":1728175805,"current_range_meters":33600,"station_id":"","pricing_plan_id":"cebpf4jnsgd1na2vs0mg"},{"bike_id":"41523f19-68f1-4c55-8c6a-46199b7f6643","system_id":"levelo_inurba_marseille","lat":43.28073,"lon":5.39648,"is_reserved":false,"is_disabled":false,"rental_uris":{"android":"levelo://app?vid=41523f19-68f1-4c55-8c6a-46199b7f6643","ios":"levelo://app?vid=41523f19-68f1-4c55-8c6a-46199b7f6643"},"vehicle_type_id":"4","last_reported":1728175805,"current_range_meters":38800,"station_id":"ce4bho12rcd13ifvqh2g","pricing_plan_id":"cebpf4jnsgd1na2vs0mg"},{"bike_id":"5edcea2d-7f6d-4562-855c-bbcc004f28f7","system_id":"levelo_inurba_marseille","lat":43.28465,"lon":5.35885,"is_reserved":false,"is_disabled":false,"rental_uris":{"android":"levelo://app?vid=5edcea2d-7f6d-4562-855c-bbcc004f28f7","ios":"levelo://app?vid=5edcea2d-7f6d-4562-855c-bbcc004f28f7"},"vehicle_type_id":"4","last_reported":1728175805,"current_range_meters":16000,"station_id":"ce4bhah2rcd13ifvqei0","pricing_plan_id":"cebpf4jnsgd1na2vs0mg"},{"bike_id":"f1a5d0a5-6c6c-4e53-a5a3-e81641cb0aa0","system_id":"levelo_inurba_marseille","lat":43.28851,"lon":5.35836,"is_reserved":false,"is_disabled":false,"rental_uris":{"android":"levelo://app?vid=f1a5d0a5-6c6c-4e53-a5a3-e81641cb0aa0","ios":"levelo://app?vid=f1a5d0a5-6c6c-4e53-a5a3-e81641cb0aa0"},"vehicle_type_id":"4","last_reported":1728175805,"current_range_meters":32400,"station_id":"ce4bhb12rcd13ifvqem0","pricing_plan_id":"cebpf4jnsgd1na2vs0mg"},{"bike_id":"13a35d1a-1c21-4cdd-9282-17040c700716","system_id":"levelo_inurba_marseille","lat":43.32531,"lon":5.41432,"is_reserved":false,"is_disabled":false,"rental_uris":{"android":"levelo://app?vid=13a35d1a-1c21-4cdd-9282-17040c700716","ios":"levelo://app?vid=13a35d1a-1c21-4cdd-9282-17040c700716"},"vehicle_type_id":"4","last_reported":1728175805,"current_range_meters":36800,"station_id":"ce4bhq12rcd13ifvqhhg","pricing_plan_id":"cebpf4jnsgd1na2vs0mg"},{"bike_id":"5fe9af2d-0282-40cf-ae73-3a1b842e2f4b","system_id":"levelo_inurba_marseille","lat":43.23054,"lon":5.355,"is_reserved":false,"is_disabled":false,"rental_uris":{"android":"levelo://app?vid=5fe9af2d-0282-40cf-ae73-3a1b842e2f4b","ios":"levelo://app?vid=5fe9af2d-0282-40cf-ae73-3a1b842e2f4b"},"vehicle_type_id":"4","last_reported":1728175805,"current_range_meters":37600,"station_id":"cpo3342slgdg3j2ifvpg","pricing_plan_id":"cebpf4jnsgd1na2vs0mg"},{"bike_id":"235344ae-d40d-4c9e-a986-52bb5c104ce0","system_id":"levelo_inurba_marseille","lat":43.3169,"lon":5.40461,"is_reserved":false,"is_disabled":false,"rental_uris":{"android":"levelo://app?vid=235344ae-d40d-4c9e-a986-52bb5c104ce0","ios":"levelo://app?vid=235344ae-d40d-4c9e-a986-52bb5c104ce0"},"vehicle_type_id":"4","last_reported":1728175805,"current_range_meters":38800,"station_id":"ce4bh012rcd13ifvqd00","pricing_plan_id":"cebpf4jnsgd1na2vs0mg"},{"bike_id":"9074de95-811a-4894-a12f-525bfe5d1a38","system_id":"levelo_inurba_marseille","lat":43.29281,"lon":5.40122,"is_reserved":false,"is_disabled":false,"rental_uris":{"android":"levelo://app?vid=9074de95-811a-4894-a12f-525bfe5d1a38","ios":"levelo://app?vid=9074de95-811a-4894-a12f-525bfe5d1a38"},"vehicle_type_id":"4","last_reported":1728175805,"current_range_meters":18800,"station_id":"ce4bh312rcd13ifvqdk0","pricing_plan_id":"cebpf4jnsgd1na2vs0mg"},{"bike_id":"544c5222-5e5f-424c-97d9-902e66ffec96","system_id":"levelo_inurba_marseille","lat":43.31113,"lon":5.37772,"is_reserved":false,"is_disabled":false,"rental_uris":{"android":"levelo://app?vid=544c5222-5e5f-424c-97d9-902e66ffec96","ios":"levelo://app?vid=544c5222-5e5f-424c-97d9-902e66ffec96"},"vehicle_type_id":"4","last_reported":1728175805,"current_range_meters":38800,"station_id":"ce4bgt92rcd13ifvqcg0","pricing_plan_id":"cebpf4jnsgd1na2vs0mg"},{"bike_id":"ec6e251e-99d1-4ac4-a075-545dbd029bdc","system_id":"levelo_inurba_marseille","lat":43.28908,"lon":5.36209,"is_reserved":false,"is_disabled":false,"rental_uris":{"android":"levelo://app?vid=ec6e251e-99d1-4ac4-a075-545dbd029bdc","ios":"levelo://app?vid=ec6e251e-99d1-4ac4-a075-545dbd029bdc"},"vehicle_type_id":"4","last_reported":1728175805,"current_range_meters":31200,"station_id":"","pricing_plan_id":"cebpf4jnsgd1na2vs0mg"},{"bike_id":"32de8690-8902-45d9-9261-1a5a54055b39","system_id":"levelo_inurba_marseille","lat":43.33024,"lon":5.39035,"is_reserved":false,"is_disabled":false,"rental_uris":{"android":"levelo://app?vid=32de8690-8902-45d9-9261-1a5a54055b39","ios":"levelo://app?vid=32de8690-8902-45d9-9261-1a5a54055b39"},"vehicle_type_id":"4","last_reported":1728175805,"current_range_meters":38800,"station_id":"ce4bhr92rcd13ifvqhrg","pricing_plan_id":"cebpf4jnsgd1na2vs0mg"},{"bike_id":"6a4acb12-a5ac-4a0e-a8f4-746f667028fc","system_id":"levelo_inurba_marseille","lat":43.292485,"lon":5.409141,"is_reserved":false,"is_disabled":false,"rental_uris":{"android":"levelo://app?vid=6a4acb12-a5ac-4a0e-a8f4-746f667028fc","ios":"levelo://app?vid=6a4acb12-a5ac-4a0e-a8f4-746f667028fc"},"vehicle_type_id":"4","last_reported":1728175805,"current_range_meters":36000,"station_id":"ce4bh192rcd13ifvqdc0","pricing_plan_id":"cebpf4jnsgd1na2vs0mg"},{"bike_id":"f41af709-4741-45bf-a75a-e5e2fdef89e3","system_id":"levelo_inurba_marseille","lat":43.2873,"lon":5.36084,"is_reserved":false,"is_disabled":false,"rental_uris":{"android":"levelo://app?vid=f41af709-4741-45bf-a75a-e5e2fdef89e3","ios":"levelo://app?vid=f41af709-4741-45bf-a75a-e5e2fdef89e3"},"vehicle_type_id":"4","last_reported":1728175805,"current_range_meters":38400,"station_id":"cki0cbj6b192h4jlfktg","pricing_plan_id":"cebpf4jnsgd1na2vs0mg"},{"bike_id":"e659a4ee-579d-4a4b-9cd4-77b3cbed9517","system_id":"levelo_inurba_marseille","lat":43.29003,"lon":5.35606,"is_reserved":false,"is_disabled":false,"rental_uris":{"android":"levelo://app?vid=e659a4ee-579d-4a4b-9cd4-77b3cbed9517","ios":"levelo://app?vid=e659a4ee-579d-4a4b-9cd4-77b3cbed9517"},"vehicle_type_id":"4","last_reported":1728175805,"current_range_meters":26800,"station_id":"ce4bhb92rcd13ifvqen0","pricing_plan_id":"cebpf4jnsgd1na2vs0mg"},{"bike_id":"ad4ff437-508d-4571-b342-7c6dc2f849f3","system_id":"levelo_inurba_marseille","lat":43.30244,"lon":5.40055,"is_reserved":false,"is_disabled":false,"rental_uris":{"android":"levelo://app?vid=ad4ff437-508d-4571-b342-7c6dc2f849f3","ios":"levelo://app?vid=ad4ff437-508d-4571-b342-7c6dc2f849f3"},"vehicle_type_id":"4","last_reported":1728175805,"current_range_meters":19600,"station_id":"ce4bgvh2rcd13ifvqcs0","pricing_plan_id":"cebpf4jnsgd1na2vs0mg"},{"bike_id":"c437175d-0e29-478f-bc71-93de3b699267","system_id":"levelo_inurba_marseille","lat":43.27942,"lon":5.41039,"is_reserved":false,"is_disabled":false,"rental_uris":{"android":"levelo://app?vid=c437175d-0e29-478f-bc71-93de3b699267","ios":"levelo://app?vid=c437175d-0e29-478f-bc71-93de3b699267"},"vehicle_type_id":"4","last_reported":1728175805,"current_range_meters":14000,"station_id":"ce4bhnp2rcd13ifvqh0g","pricing_plan_id":"cebpf4jnsgd1na2vs0mg"},{"bike_id":"a79cc37e-cb1a-479a-99cf-70bd4e6e70b7","system_id":"levelo_inurba_marseille","lat":43.28614,"lon":5.35104,"is_reserved":false,"is_disabled":false,"rental_uris":{"android":"levelo://app?vid=a79cc37e-cb1a-479a-99cf-70bd4e6e70b7","ios":"levelo://app?vid=a79cc37e-cb1a-479a-99cf-70bd4e6e70b7"},"vehicle_type_id":"4","last_reported":1728175805,"current_range_meters":20800,"station_id":"ce4bhch2rcd13ifvqeug","pricing_plan_id":"cebpf4jnsgd1na2vs0mg"},{"bike_id":"be56f1a4-275f-4091-81c4-2d7d1e9dc326","system_id":"levelo_inurba_marseille","lat":43.28149,"lon":5.42639,"is_reserved":false,"is_disabled":false,"rental_uris":{"android":"levelo://app?vid=be56f1a4-275f-4091-81c4-2d7d1e9dc326","ios":"levelo://app?vid=be56f1a4-275f-4091-81c4-2d7d1e9dc326"},"vehicle_type_id":"4","last_reported":1728175805,"current_range_meters":7200,"station_id":"ce4bhnh2rcd13ifvqgug","pricing_plan_id":"cebpf4jnsgd1na2vs0mg"},{"bike_id":"001a42b9-c901-452e-9c8a-fb18f31f236d","system_id":"levelo_inurba_marseille","lat":43.33606,"lon":5.41032,"is_reserved":false,"is_disabled":false,"rental_uris":{"android":"levelo://app?vid=001a42b9-c901-452e-9c8a-fb18f31f236d","ios":"levelo://app?vid=001a42b9-c901-452e-9c8a-fb18f31f236d"},"vehicle_type_id":"4","last_reported":1728175805,"current_range_meters":6000,"station_id":"ce4bhqh2rcd13ifvqhmg","pricing_plan_id":"cebpf4jnsgd1na2vs0mg"},{"bike_id":"efcd7dc6-cf1b-49b9-868e-e23f6839d189","system_id":"levelo_inurba_marseille","lat":43.27834,"lon":5.39211,"is_reserved":false,"is_disabled":false,"rental_uris":{"android":"levelo://app?vid=efcd7dc6-cf1b-49b9-868e-e23f6839d189","ios":"levelo://app?vid=efcd7dc6-cf1b-49b9-868e-e23f6839d189"},"vehicle_type_id":"4","last_reported":1728175805,"current_range_meters":7200,"station_id":"ce4bhjp2rcd13ifvqga0","pricing_plan_id":"cebpf4jnsgd1na2vs0mg"},{"bike_id":"1a978a89-dbeb-45cc-8c83-bb4f90d46fcc","system_id":"levelo_inurba_marseille","lat":43.3169,"lon":5.40466,"is_reserved":false,"is_disabled":false,"rental_uris":{"android":"levelo://app?vid=1a978a89-dbeb-45cc-8c83-bb4f90d46fcc","ios":"levelo://app?vid=1a978a89-dbeb-45cc-8c83-bb4f90d46fcc"},"vehicle_type_id":"4","last_reported":1728175805,"current_range_meters":38800,"station_id":"ce4bh012rcd13ifvqd00","pricing_plan_id":"cebpf4jnsgd1na2vs0mg"},{"bike_id":"faf2a1d7-4681-4c92-b0a7-2fc04bde2493","system_id":"levelo_inurba_marseille","lat":43.27834,"lon":5.39207,"is_reserved":false,"is_disabled":false,"rental_uris":{"android":"levelo://app?vid=faf2a1d7-4681-4c92-b0a7-2fc04bde2493","ios":"levelo://app?vid=faf2a1d7-4681-4c92-b0a7-2fc04bde2493"},"vehicle_type_id":"4","last_reported":1728175805,"current_range_meters":33200,"station_id":"ce4bhjp2rcd13ifvqga0","pricing_plan_id":"cebpf4jnsgd1na2vs0mg"},{"bike_id":"2223b6cf-60c6-41bf-b1cd-7d09873a1aa5","system_id":"levelo_inurba_marseille","lat":43.26059,"lon":5.39395,"is_reserved":false,"is_disabled":false,"rental_uris":{"android":"levelo://app?vid=2223b6cf-60c6-41bf-b1cd-7d09873a1aa5","ios":"levelo://app?vid=2223b6cf-60c6-41bf-b1cd-7d09873a1aa5"},"vehicle_type_id":"4","last_reported":1728175805,"current_range_meters":38800,"station_id":"ce4bhh92rcd13ifvqfj0","pricing_plan_id":"cebpf4jnsgd1na2vs0mg"},{"bike_id":"8c67e6b9-1cc5-4acc-ad5c-fb9016a39cff","system_id":"levelo_inurba_marseille","lat":43.30808,"lon":5.38163,"is_reserved":false,"is_disabled":false,"rental_uris":{"android":"levelo://app?vid=8c67e6b9-1cc5-4acc-ad5c-fb9016a39cff","ios":"levelo://app?vid=8c67e6b9-1cc5-4acc-ad5c-fb9016a39cff"},"vehicle_type_id":"4","last_reported":1728175805,"current_range_meters":36800,"station_id":"ce4bgt12rcd13ifvqce0","pricing_plan_id":"cebpf4jnsgd1na2vs0mg"},{"bike_id":"7e4b9590-3379-4154-a614-86d758234e67","system_id":"levelo_inurba_marseille","lat":43.25722,"lon":5.41111,"is_reserved":false,"is_disabled":false,"rental_uris":{"android":"levelo://app?vid=7e4b9590-3379-4154-a614-86d758234e67","ios":"levelo://app?vid=7e4b9590-3379-4154-a614-86d758234e67"},"vehicle_type_id":"4","last_reported":1728175805,"current_range_meters":38000,"station_id":"ce4bhkp2rcd13ifvqgd0","pricing_plan_id":"cebpf4jnsgd1na2vs0mg"},{"bike_id":"d5297f66-bd0c-4b9b-bbfc-70cfa0a81a02","system_id":"levelo_inurba_marseille","lat":43.29575,"lon":5.39971,"is_reserved":false,"is_disabled":false,"rental_uris":{"android":"levelo://app?vid=d5297f66-bd0c-4b9b-bbfc-70cfa0a81a02","ios":"levelo://app?vid=d5297f66-bd0c-4b9b-bbfc-70cfa0a81a02"},"vehicle_type_id":"4","last_reported":1728175805,"current_range_meters":22800,"station_id":"ce4bh312rcd13ifvqdj0","pricing_plan_id":"cebpf4jnsgd1na2vs0mg"},{"bike_id":"8681938f-9e36-4a3b-991e-8daa28e998ad","system_id":"levelo_inurba_marseille","lat":43.28077,"lon":5.3966,"is_reserved":false,"is_disabled":false,"rental_uris":{"android":"levelo://app?vid=8681938f-9e36-4a3b-991e-8daa28e998ad","ios":"levelo://app?vid=8681938f-9e36-4a3b-991e-8daa28e998ad"},"vehicle_type_id":"4","last_reported":1728175805,"current_range_meters":38000,"station_id":"ce4bho12rcd13ifvqh2g","pricing_plan_id":"cebpf4jnsgd1na2vs0mg"},{"bike_id":"4197ef8d-f35f-44aa-b27d-dc6b343bfa7a","system_id":"levelo_inurba_marseille","lat":43.27812,"lon":5.40707,"is_reserved":false,"is_disabled":false,"rental_uris":{"android":"levelo://app?vid=4197ef8d-f35f-44aa-b27d-dc6b343bfa7a","ios":"levelo://app?vid=4197ef8d-f35f-44aa-b27d-dc6b343bfa7a"},"vehicle_type_id":"4","last_reported":1728175805,"current_range_meters":37600,"station_id":"ce4bhnh2rcd13ifvqgtg","pricing_plan_id":"cebpf4jnsgd1na2vs0mg"},{"bike_id":"1bd2f7ec-d06e-4723-b3c8-18546fc91d7d","system_id":"levelo_inurba_marseille","lat":43.31268,"lon":5.40168,"is_reserved":false,"is_disabled":false,"rental_uris":{"android":"levelo://app?vid=1bd2f7ec-d06e-4723-b3c8-18546fc91d7d","ios":"levelo://app?vid=1bd2f7ec-d06e-4723-b3c8-18546fc91d7d"},"vehicle_type_id":"4","last_reported":1728175805,"current_range_meters":9200,"station_id":"ce4bh092rcd13ifvqd30","pricing_plan_id":"cebpf4jnsgd1na2vs0mg"},{"bike_id":"2f702661-d611-4ffb-b30a-4a8eb4fc84ee","system_id":"levelo_inurba_marseille","lat":43.27817,"lon":5.40705,"is_reserved":false,"is_disabled":false,"rental_uris":{"android":"levelo://app?vid=2f702661-d611-4ffb-b30a-4a8eb4fc84ee","ios":"levelo://app?vid=2f702661-d611-4ffb-b30a-4a8eb4fc84ee"},"vehicle_type_id":"4","last_reported":1728175805,"current_range_meters":30800,"station_id":"ce4bhnh2rcd13ifvqgtg","pricing_plan_id":"cebpf4jnsgd1na2vs0mg"},{"bike_id":"89673f4d-6ff0-4bc5-92ad-b49af2c61f80","system_id":"levelo_inurba_marseille","lat":43.31367,"lon":5.385,"is_reserved":false,"is_disabled":false,"rental_uris":{"android":"levelo://app?vid=89673f4d-6ff0-4bc5-92ad-b49af2c61f80","ios":"levelo://app?vid=89673f4d-6ff0-4bc5-92ad-b49af2c61f80"},"vehicle_type_id":"4","last_reported":1728175805,"current_range_meters":37600,"station_id":"ce4bgt92rcd13ifvqcf0","pricing_plan_id":"cebpf4jnsgd1na2vs0mg"},{"bike_id":"9ca4ad83-eaa6-4426-baca-3a3e8322b7ea","system_id":"levelo_inurba_marseille","lat":43.27906,"lon":5.37996,"is_reserved":false,"is_disabled":false,"rental_uris":{"android":"levelo://app?vid=9ca4ad83-eaa6-4426-baca-3a3e8322b7ea","ios":"levelo://app?vid=9ca4ad83-eaa6-4426-baca-3a3e8322b7ea"},"vehicle_type_id":"4","last_reported":1728175805,"current_range_meters":37600,"station_id":"ce4bhf92rcd13ifvqf50","pricing_plan_id":"cebpf4jnsgd1na2vs0mg"},{"bike_id":"edd3d55d-61c7-4fec-aa60-0383480c2666","system_id":"levelo_inurba_marseille","lat":43.27832,"lon":5.39206,"is_reserved":false,"is_disabled":false,"rental_uris":{"android":"levelo://app?vid=edd3d55d-61c7-4fec-aa60-0383480c2666","ios":"levelo://app?vid=edd3d55d-61c7-4fec-aa60-0383480c2666"},"vehicle_type_id":"4","last_reported":1728175805,"current_range_meters":38000,"station_id":"ce4bhjp2rcd13ifvqga0","pricing_plan_id":"cebpf4jnsgd1na2vs0mg"},{"bike_id":"6ff38fbb-3e1f-4d59-a7a6-ab257495a9ff","system_id":"levelo_inurba_marseille","lat":43.25085,"lon":5.39513,"is_reserved":false,"is_disabled":false,"rental_uris":{"android":"levelo://app?vid=6ff38fbb-3e1f-4d59-a7a6-ab257495a9ff","ios":"levelo://app?vid=6ff38fbb-3e1f-4d59-a7a6-ab257495a9ff"},"vehicle_type_id":"4","last_reported":1728175805,"current_range_meters":12400,"station_id":"ce4bhm12rcd13ifvqgkg","pricing_plan_id":"cebpf4jnsgd1na2vs0mg"},{"bike_id":"65c59103-0b30-4b4d-8ddd-ed1931c22228","system_id":"levelo_inurba_marseille","lat":43.30352,"lon":5.41873,"is_reserved":false,"is_disabled":false,"rental_uris":{"android":"levelo://app?vid=65c59103-0b30-4b4d-8ddd-ed1931c22228","ios":"levelo://app?vid=65c59103-0b30-4b4d-8ddd-ed1931c22228"},"vehicle_type_id":"4","last_reported":1728175805,"current_range_meters":37600,"station_id":"ce4bhop2rcd13ifvqh7g","pricing_plan_id":"cebpf4jnsgd1na2vs0mg"},{"bike_id":"e3c30e80-1e38-4b28-8233-995748b2f7bc","system_id":"levelo_inurba_marseille","lat":43.28862,"lon":5.39308,"is_reserved":false,"is_disabled":false,"rental_uris":{"android":"levelo://app?vid=e3c30e80-1e38-4b28-8233-995748b2f7bc","ios":"levelo://app?vid=e3c30e80-1e38-4b28-8233-995748b2f7bc"},"vehicle_type_id":"4","last_reported":1728175805,"current_range_meters":34800,"station_id":"ce4bh2p2rcd13ifvqdi0","pricing_plan_id":"cebpf4jnsgd1na2vs0mg"},{"bike_id":"69e2a222-ccaf-43ca-a69a-6f3ee9a92a0e","system_id":"levelo_inurba_marseille","lat":43.2841,"lon":5.37519,"is_reserved":false,"is_disabled":false,"rental_uris":{"android":"levelo://app?vid=69e2a222-ccaf-43ca-a69a-6f3ee9a92a0e","ios":"levelo://app?vid=69e2a222-ccaf-43ca-a69a-6f3ee9a92a0e"},"vehicle_type_id":"4","last_reported":1728175805,"current_range_meters":12800,"station_id":"ce4bh412rcd13ifvqds0","pricing_plan_id":"cebpf4jnsgd1na2vs0mg"},{"bike_id":"f207cc7e-6fda-4f2d-8cda-99287e3b61a1","system_id":"levelo_inurba_marseille","lat":43.27991,"lon":5.41666,"is_reserved":false,"is_disabled":false,"rental_uris":{"android":"levelo://app?vid=f207cc7e-6fda-4f2d-8cda-99287e3b61a1","ios":"levelo://app?vid=f207cc7e-6fda-4f2d-8cda-99287e3b61a1"},"vehicle_type_id":"4","last_reported":1728175805,"current_range_meters":29600,"station_id":"ce4bho12rcd13ifvqh1g","pricing_plan_id":"cebpf4jnsgd1na2vs0mg"},{"bike_id":"f1a31902-bf1f-4725-91b5-b9d9818e5407","system_id":"levelo_inurba_marseille","lat":43.29553,"lon":5.4228,"is_reserved":false,"is_disabled":false,"rental_uris":{"android":"levelo://app?vid=f1a31902-bf1f-4725-91b5-b9d9818e5407","ios":"levelo://app?vid=f1a31902-bf1f-4725-91b5-b9d9818e5407"},"vehicle_type_id":"4","last_reported":1728175805,"current_range_meters":32000,"station_id":"ce4bhph2rcd13ifvqhdg","pricing_plan_id":"cebpf4jnsgd1na2vs0mg"},{"bike_id":"48cfda74-5ea4-41e1-bcac-d6e207673b94","system_id":"levelo_inurba_marseille","lat":43.26055,"lon":5.39387,"is_reserved":false,"is_disabled":false,"rental_uris":{"android":"levelo://app?vid=48cfda74-5ea4-41e1-bcac-d6e207673b94","ios":"levelo://app?vid=48cfda74-5ea4-41e1-bcac-d6e207673b94"},"vehicle_type_id":"4","last_reported":1728175805,"current_range_meters":38000,"station_id":"ce4bhh92rcd13ifvqfj0","pricing_plan_id":"cebpf4jnsgd1na2vs0mg"},{"bike_id":"4c890982-9552-4059-b170-81698c459747","system_id":"levelo_inurba_marseille","lat":43.28729,"lon":5.36081,"is_reserved":false,"is_disabled":false,"rental_uris":{"android":"levelo://app?vid=4c890982-9552-4059-b170-81698c459747","ios":"levelo://app?vid=4c890982-9552-4059-b170-81698c459747"},"vehicle_type_id":"4","last_reported":1728175805,"current_range_meters":38800,"station_id":"cki0cbj6b192h4jlfktg","pricing_plan_id":"cebpf4jnsgd1na2vs0mg"},{"bike_id":"cc3075c7-c54d-44a6-b275-dc4c69848582","system_id":"levelo_inurba_marseille","lat":43.25112,"lon":5.4032,"is_reserved":false,"is_disabled":false,"rental_uris":{"android":"levelo://app?vid=cc3075c7-c54d-44a6-b275-dc4c69848582","ios":"levelo://app?vid=cc3075c7-c54d-44a6-b275-dc4c69848582"},"vehicle_type_id":"4","last_reported":1728175805,"current_range_meters":30400,"station_id":"ce4bhlh2rcd13ifvqgig","pricing_plan_id":"cebpf4jnsgd1na2vs0mg"},{"bike_id":"7e764f2b-b5f9-4a10-b1be-189838b6a6be","system_id":"levelo_inurba_marseille","lat":43.2732,"lon":5.39089,"is_reserved":false,"is_disabled":false,"rental_uris":{"android":"levelo://app?vid=7e764f2b-b5f9-4a10-b1be-189838b6a6be","ios":"levelo://app?vid=7e764f2b-b5f9-4a10-b1be-189838b6a6be"},"vehicle_type_id":"4","last_reported":1728175805,"current_range_meters":38800,"station_id":"ce4bhgp2rcd13ifvqfe0","pricing_plan_id":"cebpf4jnsgd1na2vs0mg"},{"bike_id":"490889b1-cee9-4892-9db5-299333956c90","system_id":"levelo_inurba_marseille","lat":43.341386,"lon":5.409056,"is_reserved":false,"is_disabled":false,"rental_uris":{"android":"levelo://app?vid=490889b1-cee9-4892-9db5-299333956c90","ios":"levelo://app?vid=490889b1-cee9-4892-9db5-299333956c90"},"vehicle_type_id":"4","last_reported":1728175805,"current_range_meters":38800,"station_id":"ce4bhqh2rcd13ifvqhlg","pricing_plan_id":"cebpf4jnsgd1na2vs0mg"},{"bike_id":"23d3c40b-5aaf-4334-bdc9-beab528338e2","system_id":"levelo_inurba_marseille","lat":43.293284,"lon":5.375165,"is_reserved":false,"is_disabled":false,"rental_uris":{"android":"levelo://app?vid=23d3c40b-5aaf-4334-bdc9-beab528338e2","ios":"levelo://app?vid=23d3c40b-5aaf-4334-bdc9-beab528338e2"},"vehicle_type_id":"4","last_reported":1728175805,"current_range_meters":38400,"station_id":"ce4bgkh2rcd13ifvqbl0","pricing_plan_id":"cebpf4jnsgd1na2vs0mg"},{"bike_id":"746566d2-607d-4cd7-a8ea-65bac8e6380a","system_id":"levelo_inurba_marseille","lat":43.30418,"lon":5.39752,"is_reserved":false,"is_disabled":false,"rental_uris":{"android":"levelo://app?vid=746566d2-607d-4cd7-a8ea-65bac8e6380a","ios":"levelo://app?vid=746566d2-607d-4cd7-a8ea-65bac8e6380a"},"vehicle_type_id":"4","last_reported":1728175805,"current_range_meters":38000,"station_id":"ce4bh092rcd13ifvqd20","pricing_plan_id":"cebpf4jnsgd1na2vs0mg"},{"bike_id":"85ef83d9-fec6-405f-8a01-7a2d5ed9a2a1","system_id":"levelo_inurba_marseille","lat":43.29259,"lon":5.40901,"is_reserved":false,"is_disabled":false,"rental_uris":{"android":"levelo://app?vid=85ef83d9-fec6-405f-8a01-7a2d5ed9a2a1","ios":"levelo://app?vid=85ef83d9-fec6-405f-8a01-7a2d5ed9a2a1"},"vehicle_type_id":"4","last_reported":1728175805,"current_range_meters":28000,"station_id":"ce4bh192rcd13ifvqdc0","pricing_plan_id":"cebpf4jnsgd1na2vs0mg"},{"bike_id":"06e57557-145f-43a2-b93f-f77babfa172d","system_id":"levelo_inurba_marseille","lat":43.29035,"lon":5.39965,"is_reserved":false,"is_disabled":false,"rental_uris":{"android":"levelo://app?vid=06e57557-145f-43a2-b93f-f77babfa172d","ios":"levelo://app?vid=06e57557-145f-43a2-b93f-f77babfa172d"},"vehicle_type_id":"4","last_reported":1728175805,"current_range_meters":8000,"station_id":"ce4bh392rcd13ifvqdm0","pricing_plan_id":"cebpf4jnsgd1na2vs0mg"},{"bike_id":"bfade276-5a9f-45d5-b641-04bb267aa3b5","system_id":"levelo_inurba_marseille","lat":43.30435,"lon":5.38883,"is_reserved":false,"is_disabled":false,"rental_uris":{"android":"levelo://app?vid=bfade276-5a9f-45d5-b641-04bb267aa3b5","ios":"levelo://app?vid=bfade276-5a9f-45d5-b641-04bb267aa3b5"},"vehicle_type_id":"4","last_reported":1728175805,"current_range_meters":30000,"station_id":"ce4bgk12rcd13ifvqbi0","pricing_plan_id":"cebpf4jnsgd1na2vs0mg"},{"bike_id":"256fa177-60ee-45a2-a2aa-de47baeac3b4","system_id":"levelo_inurba_marseille","lat":43.32216,"lon":5.41351,"is_reserved":false,"is_disabled":false,"rental_uris":{"android":"levelo://app?vid=256fa177-60ee-45a2-a2aa-de47baeac3b4","ios":"levelo://app?vid=256fa177-60ee-45a2-a2aa-de47baeac3b4"},"vehicle_type_id":"4","last_reported":1728175805,"current_range_meters":38800,"station_id":"","pricing_plan_id":"cebpf4jnsgd1na2vs0mg"},{"bike_id":"389cdf32-7eb1-4775-914a-6dc8318d3538","system_id":"levelo_inurba_marseille","lat":43.26782,"lon":5.39415,"is_reserved":false,"is_disabled":false,"rental_uris":{"android":"levelo://app?vid=389cdf32-7eb1-4775-914a-6dc8318d3538","ios":"levelo://app?vid=389cdf32-7eb1-4775-914a-6dc8318d3538"},"vehicle_type_id":"4","last_reported":1728175805,"current_range_meters":31200,"station_id":"ce4bhh12rcd13ifvqfg0","pricing_plan_id":"cebpf4jnsgd1na2vs0mg"},{"bike_id":"168fdd0d-638b-492d-b1ce-678f05dbeac9","system_id":"levelo_inurba_marseille","lat":43.28728,"lon":5.36093,"is_reserved":false,"is_disabled":false,"rental_uris":{"android":"levelo://app?vid=168fdd0d-638b-492d-b1ce-678f05dbeac9","ios":"levelo://app?vid=168fdd0d-638b-492d-b1ce-678f05dbeac9"},"vehicle_type_id":"4","last_reported":1728175805,"current_range_meters":38800,"station_id":"cki0cbj6b192h4jlfktg","pricing_plan_id":"cebpf4jnsgd1na2vs0mg"},{"bike_id":"8da5e341-6cab-4468-9790-0734e5cf3e0b","system_id":"levelo_inurba_marseille","lat":43.24081,"lon":5.37754,"is_reserved":false,"is_disabled":false,"rental_uris":{"android":"levelo://app?vid=8da5e341-6cab-4468-9790-0734e5cf3e0b","ios":"levelo://app?vid=8da5e341-6cab-4468-9790-0734e5cf3e0b"},"vehicle_type_id":"4","last_reported":1728175805,"current_range_meters":38800,"station_id":"ce4bhnp2rcd13ifvqgvg","pricing_plan_id":"cebpf4jnsgd1na2vs0mg"},{"bike_id":"6bf16a2a-f63b-47d9-9110-1efaed25b77a","system_id":"levelo_inurba_marseille","lat":43.2293,"lon":5.35375,"is_reserved":false,"is_disabled":false,"rental_uris":{"android":"levelo://app?vid=6bf16a2a-f63b-47d9-9110-1efaed25b77a","ios":"levelo://app?vid=6bf16a2a-f63b-47d9-9110-1efaed25b77a"},"vehicle_type_id":"4","last_reported":1728175805,"current_range_meters":36800,"station_id":"cpo3532slgdg3j2ikp40","pricing_plan_id":"cebpf4jnsgd1na2vs0mg"},{"bike_id":"428f793c-4121-423c-8663-6edf254533e0","system_id":"levelo_inurba_marseille","lat":43.27566,"lon":5.38413,"is_reserved":false,"is_disabled":false,"rental_uris":{"android":"levelo://app?vid=428f793c-4121-423c-8663-6edf254533e0","ios":"levelo://app?vid=428f793c-4121-423c-8663-6edf254533e0"},"vehicle_type_id":"4","last_reported":1728175805,"current_range_meters":38800,"station_id":"ce4bhh92rcd13ifvqfi0","pricing_plan_id":"cebpf4jnsgd1na2vs0mg"},{"bike_id":"8bc4cde9-0296-469e-b34e-934cfa5918e1","system_id":"levelo_inurba_marseille","lat":43.29568,"lon":5.39979,"is_reserved":false,"is_disabled":false,"rental_uris":{"android":"levelo://app?vid=8bc4cde9-0296-469e-b34e-934cfa5918e1","ios":"levelo://app?vid=8bc4cde9-0296-469e-b34e-934cfa5918e1"},"vehicle_type_id":"4","last_reported":1728175805,"current_range_meters":14000,"station_id":"ce4bh312rcd13ifvqdj0","pricing_plan_id":"cebpf4jnsgd1na2vs0mg"},{"bike_id":"f847f035-9a4d-4206-b6aa-aacd56cdefdc","system_id":"levelo_inurba_marseille","lat":43.28101,"lon":5.37854,"is_reserved":false,"is_disabled":false,"rental_uris":{"android":"levelo://app?vid=f847f035-9a4d-4206-b6aa-aacd56cdefdc","ios":"levelo://app?vid=f847f035-9a4d-4206-b6aa-aacd56cdefdc"},"vehicle_type_id":"4","last_reported":1728175805,"current_range_meters":38000,"station_id":"ce4bha12rcd13ifvqee0","pricing_plan_id":"cebpf4jnsgd1na2vs0mg"},{"bike_id":"5bd5b0fd-a88b-4104-a91a-433feb9ebf7f","system_id":"levelo_inurba_marseille","lat":43.24993,"lon":5.38931,"is_reserved":false,"is_disabled":false,"rental_uris":{"android":"levelo://app?vid=5bd5b0fd-a88b-4104-a91a-433feb9ebf7f","ios":"levelo://app?vid=5bd5b0fd-a88b-4104-a91a-433feb9ebf7f"},"vehicle_type_id":"4","last_reported":1728175805,"current_range_meters":36400,"station_id":"ce4bhgp2rcd13ifvqfd0","pricing_plan_id":"cebpf4jnsgd1na2vs0mg"},{"bike_id":"a32d1d0c-08b3-47ed-ac60-34218f6d0141","system_id":"levelo_inurba_marseille","lat":43.3021,"lon":5.39472,"is_reserved":false,"is_disabled":false,"rental_uris":{"android":"levelo://app?vid=a32d1d0c-08b3-47ed-ac60-34218f6d0141","ios":"levelo://app?vid=a32d1d0c-08b3-47ed-ac60-34218f6d0141"},"vehicle_type_id":"4","last_reported":1728175805,"current_range_meters":36400,"station_id":"ce4bh0p2rcd13ifvqd70","pricing_plan_id":"cebpf4jnsgd1na2vs0mg"},{"bike_id":"259fa619-a5db-4595-ae6f-1d77e1bb756c","system_id":"levelo_inurba_marseille","lat":43.299438,"lon":5.395682,"is_reserved":false,"is_disabled":false,"rental_uris":{"android":"levelo://app?vid=259fa619-a5db-4595-ae6f-1d77e1bb756c","ios":"levelo://app?vid=259fa619-a5db-4595-ae6f-1d77e1bb756c"},"vehicle_type_id":"4","last_reported":1728175805,"current_range_meters":37600,"station_id":"ce4bh0h2rcd13ifvqd40","pricing_plan_id":"cebpf4jnsgd1na2vs0mg"},{"bike_id":"489d3596-b98a-4cf0-a057-455f16d5e96d","system_id":"levelo_inurba_marseille","lat":43.31326,"lon":5.39698,"is_reserved":false,"is_disabled":false,"rental_uris":{"android":"levelo://app?vid=489d3596-b98a-4cf0-a057-455f16d5e96d","ios":"levelo://app?vid=489d3596-b98a-4cf0-a057-455f16d5e96d"},"vehicle_type_id":"4","last_reported":1728175805,"current_range_meters":39200,"station_id":"ce4bgvp2rcd13ifvqcu0","pricing_plan_id":"cebpf4jnsgd1na2vs0mg"},{"bike_id":"8a5d33e0-b975-42b3-abe3-d9312cfdb7f5","system_id":"levelo_inurba_marseille","lat":43.30774,"lon":5.37668,"is_reserved":false,"is_disabled":false,"rental_uris":{"android":"levelo://app?vid=8a5d33e0-b975-42b3-abe3-d9312cfdb7f5","ios":"levelo://app?vid=8a5d33e0-b975-42b3-abe3-d9312cfdb7f5"},"vehicle_type_id":"4","last_reported":1728175805,"current_range_meters":36000,"station_id":"ce4bgv92rcd13ifvqcq0","pricing_plan_id":"cebpf4jnsgd1na2vs0mg"},{"bike_id":"cda12a4d-8902-4f89-ba00-ce7f414c7bc4","system_id":"levelo_inurba_marseille","lat":43.30427,"lon":5.39749,"is_reserved":false,"is_disabled":false,"rental_uris":{"android":"levelo://app?vid=cda12a4d-8902-4f89-ba00-ce7f414c7bc4","ios":"levelo://app?vid=cda12a4d-8902-4f89-ba00-ce7f414c7bc4"},"vehicle_type_id":"4","last_reported":1728175805,"current_range_meters":6400,"station_id":"ce4bh092rcd13ifvqd20","pricing_plan_id":"cebpf4jnsgd1na2vs0mg"},{"bike_id":"646517eb-897e-4996-9fc0-4d132f59f1ae","system_id":"levelo_inurba_marseille","lat":43.28703,"lon":5.3998,"is_reserved":false,"is_disabled":false,"rental_uris":{"android":"levelo://app?vid=646517eb-897e-4996-9fc0-4d132f59f1ae","ios":"levelo://app?vid=646517eb-897e-4996-9fc0-4d132f59f1ae"},"vehicle_type_id":"4","last_reported":1728175805,"current_range_meters":19200,"station_id":"ce4bho92rcd13ifvqh3g","pricing_plan_id":"cebpf4jnsgd1na2vs0mg"},{"bike_id":"7cdd683b-1d53-47c9-89fe-f645deb63715","system_id":"levelo_inurba_marseille","lat":43.30797,"lon":5.43526,"is_reserved":false,"is_disabled":false,"rental_uris":{"android":"levelo://app?vid=7cdd683b-1d53-47c9-89fe-f645deb63715","ios":"levelo://app?vid=7cdd683b-1d53-47c9-89fe-f645deb63715"},"vehicle_type_id":"4","last_reported":1728175805,"current_range_meters":4800,"station_id":"ce4bhph2rcd13ifvqheg","pricing_plan_id":"cebpf4jnsgd1na2vs0mg"},{"bike_id":"704d9481-6ec3-47be-8efb-df494f367ab6","system_id":"levelo_inurba_marseille","lat":43.29548,"lon":5.42271,"is_reserved":false,"is_disabled":false,"rental_uris":{"android":"levelo://app?vid=704d9481-6ec3-47be-8efb-df494f367ab6","ios":"levelo://app?vid=704d9481-6ec3-47be-8efb-df494f367ab6"},"vehicle_type_id":"4","last_reported":1728175805,"current_range_meters":38800,"station_id":"ce4bhph2rcd13ifvqhdg","pricing_plan_id":"cebpf4jnsgd1na2vs0mg"},{"bike_id":"2912abb1-e6fe-40f9-a80b-b98fc8142039","system_id":"levelo_inurba_marseille","lat":43.319933,"lon":5.381486,"is_reserved":false,"is_disabled":false,"rental_uris":{"android":"levelo://app?vid=2912abb1-e6fe-40f9-a80b-b98fc8142039","ios":"levelo://app?vid=2912abb1-e6fe-40f9-a80b-b98fc8142039"},"vehicle_type_id":"4","last_reported":1728175805,"current_range_meters":38800,"station_id":"ce4bhr12rcd13ifvqhpg","pricing_plan_id":"cebpf4jnsgd1na2vs0mg"},{"bike_id":"9e64fe2b-fd8d-4b2d-b4a9-e0835858dd64","system_id":"levelo_inurba_marseille","lat":43.29555,"lon":5.42279,"is_reserved":false,"is_disabled":false,"rental_uris":{"android":"levelo://app?vid=9e64fe2b-fd8d-4b2d-b4a9-e0835858dd64","ios":"levelo://app?vid=9e64fe2b-fd8d-4b2d-b4a9-e0835858dd64"},"vehicle_type_id":"4","last_reported":1728175805,"current_range_meters":6800,"station_id":"ce4bhph2rcd13ifvqhdg","pricing_plan_id":"cebpf4jnsgd1na2vs0mg"},{"bike_id":"3e25ea35-4344-4f49-b912-0c61f850cba0","system_id":"levelo_inurba_marseille","lat":43.30427,"lon":5.38892,"is_reserved":false,"is_disabled":false,"rental_uris":{"android":"levelo://app?vid=3e25ea35-4344-4f49-b912-0c61f850cba0","ios":"levelo://app?vid=3e25ea35-4344-4f49-b912-0c61f850cba0"},"vehicle_type_id":"4","last_reported":1728175805,"current_range_meters":27600,"station_id":"ce4bgk12rcd13ifvqbi0","pricing_plan_id":"cebpf4jnsgd1na2vs0mg"},{"bike_id":"e8eb2859-8be7-4852-a7df-ba2f9b4c73ff","system_id":"levelo_inurba_marseille","lat":43.30596,"lon":5.39346,"is_reserved":false,"is_disabled":false,"rental_uris":{"android":"levelo://app?vid=e8eb2859-8be7-4852-a7df-ba2f9b4c73ff","ios":"levelo://app?vid=e8eb2859-8be7-4852-a7df-ba2f9b4c73ff"},"vehicle_type_id":"4","last_reported":1728175805,"current_range_meters":39200,"station_id":"ce4bh0p2rcd13ifvqd80","pricing_plan_id":"cebpf4jnsgd1na2vs0mg"},{"bike_id":"9912717d-2838-4af6-b5b9-539207ae5ec0","system_id":"levelo_inurba_marseille","lat":43.3107,"lon":5.38356,"is_reserved":false,"is_disabled":false,"rental_uris":{"android":"levelo://app?vid=9912717d-2838-4af6-b5b9-539207ae5ec0","ios":"levelo://app?vid=9912717d-2838-4af6-b5b9-539207ae5ec0"},"vehicle_type_id":"4","last_reported":1728175805,"current_range_meters":22400,"station_id":"ce4bgv92rcd13ifvqcr0","pricing_plan_id":"cebpf4jnsgd1na2vs0mg"},{"bike_id":"6df513f4-8c75-4b0a-82ff-d337a9bc6d97","system_id":"levelo_inurba_marseille","lat":43.25864,"lon":5.39902,"is_reserved":false,"is_disabled":false,"rental_uris":{"android":"levelo://app?vid=6df513f4-8c75-4b0a-82ff-d337a9bc6d97","ios":"levelo://app?vid=6df513f4-8c75-4b0a-82ff-d337a9bc6d97"},"vehicle_type_id":"4","last_reported":1728175805,"current_range_meters":38800,"station_id":"ce4bhl92rcd13ifvqghg","pricing_plan_id":"cebpf4jnsgd1na2vs0mg"},{"bike_id":"e7341701-5d04-4cdb-84d0-b90046595e3c","system_id":"levelo_inurba_marseille","lat":43.29263,"lon":5.40127,"is_reserved":false,"is_disabled":false,"rental_uris":{"android":"levelo://app?vid=e7341701-5d04-4cdb-84d0-b90046595e3c","ios":"levelo://app?vid=e7341701-5d04-4cdb-84d0-b90046595e3c"},"vehicle_type_id":"4","last_reported":1728175805,"current_range_meters":34000,"station_id":"ce4bh312rcd13ifvqdk0","pricing_plan_id":"cebpf4jnsgd1na2vs0mg"},{"bike_id":"bb5f5452-4b9b-417d-b148-b396a874f3d9","system_id":"levelo_inurba_marseille","lat":43.33777,"lon":5.37418,"is_reserved":false,"is_disabled":false,"rental_uris":{"android":"levelo://app?vid=bb5f5452-4b9b-417d-b148-b396a874f3d9","ios":"levelo://app?vid=bb5f5452-4b9b-417d-b148-b396a874f3d9"},"vehicle_type_id":"4","last_reported":1728175805,"current_range_meters":28400,"station_id":"","pricing_plan_id":"cebpf4jnsgd1na2vs0mg"},{"bike_id":"a38ce0aa-4c25-49e4-a3e6-21e62b481b01","system_id":"levelo_inurba_marseille","lat":43.28706,"lon":5.3999,"is_reserved":false,"is_disabled":false,"rental_uris":{"android":"levelo://app?vid=a38ce0aa-4c25-49e4-a3e6-21e62b481b01","ios":"levelo://app?vid=a38ce0aa-4c25-49e4-a3e6-21e62b481b01"},"vehicle_type_id":"4","last_reported":1728175805,"current_range_meters":38800,"station_id":"ce4bho92rcd13ifvqh3g","pricing_plan_id":"cebpf4jnsgd1na2vs0mg"},{"bike_id":"ab83fadf-d068-4c8e-b6a0-a2c4cd43bc9b","system_id":"levelo_inurba_marseille","lat":43.319955,"lon":5.381472,"is_reserved":false,"is_disabled":false,"rental_uris":{"android":"levelo://app?vid=ab83fadf-d068-4c8e-b6a0-a2c4cd43bc9b","ios":"levelo://app?vid=ab83fadf-d068-4c8e-b6a0-a2c4cd43bc9b"},"vehicle_type_id":"4","last_reported":1728175805,"current_range_meters":30800,"station_id":"ce4bhr12rcd13ifvqhpg","pricing_plan_id":"cebpf4jnsgd1na2vs0mg"},{"bike_id":"73a5307d-3e7d-4037-8357-25200e33a5e5","system_id":"levelo_inurba_marseille","lat":43.28402,"lon":5.37521,"is_reserved":false,"is_disabled":false,"rental_uris":{"android":"levelo://app?vid=73a5307d-3e7d-4037-8357-25200e33a5e5","ios":"levelo://app?vid=73a5307d-3e7d-4037-8357-25200e33a5e5"},"vehicle_type_id":"4","last_reported":1728175805,"current_range_meters":32400,"station_id":"ce4bh412rcd13ifvqds0","pricing_plan_id":"cebpf4jnsgd1na2vs0mg"},{"bike_id":"d5bd4fc9-b596-4a66-8faa-61c6a5dce860","system_id":"levelo_inurba_marseille","lat":43.29894,"lon":5.4366,"is_reserved":false,"is_disabled":false,"rental_uris":{"android":"levelo://app?vid=d5bd4fc9-b596-4a66-8faa-61c6a5dce860","ios":"levelo://app?vid=d5bd4fc9-b596-4a66-8faa-61c6a5dce860"},"vehicle_type_id":"4","last_reported":1728175805,"current_range_meters":38800,"station_id":"ce4bhpp2rcd13ifvqhfg","pricing_plan_id":"cebpf4jnsgd1na2vs0mg"},{"bike_id":"6ee8431f-19f3-47f2-b098-64c635c9d62b","system_id":"levelo_inurba_marseille","lat":43.30354,"lon":5.41878,"is_reserved":false,"is_disabled":false,"rental_uris":{"android":"levelo://app?vid=6ee8431f-19f3-47f2-b098-64c635c9d62b","ios":"levelo://app?vid=6ee8431f-19f3-47f2-b098-64c635c9d62b"},"vehicle_type_id":"4","last_reported":1728175805,"current_range_meters":38800,"station_id":"ce4bhop2rcd13ifvqh7g","pricing_plan_id":"cebpf4jnsgd1na2vs0mg"},{"bike_id":"11ac3aaa-4104-46d2-af84-26d4fe6ba565","system_id":"levelo_inurba_marseille","lat":43.27807,"lon":5.40703,"is_reserved":false,"is_disabled":false,"rental_uris":{"android":"levelo://app?vid=11ac3aaa-4104-46d2-af84-26d4fe6ba565","ios":"levelo://app?vid=11ac3aaa-4104-46d2-af84-26d4fe6ba565"},"vehicle_type_id":"4","last_reported":1728175805,"current_range_meters":36800,"station_id":"ce4bhnh2rcd13ifvqgtg","pricing_plan_id":"cebpf4jnsgd1na2vs0mg"},{"bike_id":"38c89ef1-1d14-415c-859a-9589d2e0e998","system_id":"levelo_inurba_marseille","lat":43.26488,"lon":5.39545,"is_reserved":false,"is_disabled":false,"rental_uris":{"android":"levelo://app?vid=38c89ef1-1d14-415c-859a-9589d2e0e998","ios":"levelo://app?vid=38c89ef1-1d14-415c-859a-9589d2e0e998"},"vehicle_type_id":"4","last_reported":1728175805,"current_range_meters":38800,"station_id":"ce4bhi12rcd13ifvqfq0","pricing_plan_id":"cebpf4jnsgd1na2vs0mg"},{"bike_id":"f3d4e1ba-c888-4e07-9a1c-39eb5179eca7","system_id":"levelo_inurba_marseille","lat":43.311708,"lon":5.386859,"is_reserved":false,"is_disabled":false,"rental_uris":{"android":"levelo://app?vid=f3d4e1ba-c888-4e07-9a1c-39eb5179eca7","ios":"levelo://app?vid=f3d4e1ba-c888-4e07-9a1c-39eb5179eca7"},"vehicle_type_id":"4","last_reported":1728175805,"current_range_meters":32400,"station_id":"ce4bgv12rcd13ifvqcp0","pricing_plan_id":"cebpf4jnsgd1na2vs0mg"},{"bike_id":"0f35cf48-fa00-4494-a8d4-4e002476bb6c","system_id":"levelo_inurba_marseille","lat":43.295549,"lon":5.422771,"is_reserved":false,"is_disabled":false,"rental_uris":{"android":"levelo://app?vid=0f35cf48-fa00-4494-a8d4-4e002476bb6c","ios":"levelo://app?vid=0f35cf48-fa00-4494-a8d4-4e002476bb6c"},"vehicle_type_id":"4","last_reported":1728175805,"current_range_meters":38000,"station_id":"ce4bhph2rcd13ifvqhdg","pricing_plan_id":"cebpf4jnsgd1na2vs0mg"},{"bike_id":"8e94c158-3450-4d74-9a10-086db250f48e","system_id":"levelo_inurba_marseille","lat":43.27161,"lon":5.39032,"is_reserved":false,"is_disabled":false,"rental_uris":{"android":"levelo://app?vid=8e94c158-3450-4d74-9a10-086db250f48e","ios":"levelo://app?vid=8e94c158-3450-4d74-9a10-086db250f48e"},"vehicle_type_id":"4","last_reported":1728175805,"current_range_meters":35200,"station_id":"","pricing_plan_id":"cebpf4jnsgd1na2vs0mg"},{"bike_id":"8ef0d884-6abe-4b43-a0e5-51a1aa3f343a","system_id":"levelo_inurba_marseille","lat":43.31721,"lon":5.42392,"is_reserved":false,"is_disabled":false,"rental_uris":{"android":"levelo://app?vid=8ef0d884-6abe-4b43-a0e5-51a1aa3f343a","ios":"levelo://app?vid=8ef0d884-6abe-4b43-a0e5-51a1aa3f343a"},"vehicle_type_id":"4","last_reported":1728175805,"current_range_meters":8400,"station_id":"ce4bhp92rcd13ifvqhbg","pricing_plan_id":"cebpf4jnsgd1na2vs0mg"},{"bike_id":"475403d5-0f73-468d-8711-91dc2dc49e75","system_id":"levelo_inurba_marseille","lat":43.33746,"lon":5.37458,"is_reserved":false,"is_disabled":false,"rental_uris":{"android":"levelo://app?vid=475403d5-0f73-468d-8711-91dc2dc49e75","ios":"levelo://app?vid=475403d5-0f73-468d-8711-91dc2dc49e75"},"vehicle_type_id":"4","last_reported":1728175805,"current_range_meters":29600,"station_id":"","pricing_plan_id":"cebpf4jnsgd1na2vs0mg"},{"bike_id":"2f1f7e56-c6cd-448e-b406-4d3dfc3a4de4","system_id":"levelo_inurba_marseille","lat":43.25723,"lon":5.41102,"is_reserved":false,"is_disabled":false,"rental_uris":{"android":"levelo://app?vid=2f1f7e56-c6cd-448e-b406-4d3dfc3a4de4","ios":"levelo://app?vid=2f1f7e56-c6cd-448e-b406-4d3dfc3a4de4"},"vehicle_type_id":"4","last_reported":1728175805,"current_range_meters":33200,"station_id":"ce4bhkp2rcd13ifvqgd0","pricing_plan_id":"cebpf4jnsgd1na2vs0mg"},{"bike_id":"1ee81508-41a1-4e3e-8ff6-e4273d8073de","system_id":"levelo_inurba_marseille","lat":43.31997,"lon":5.38158,"is_reserved":false,"is_disabled":false,"rental_uris":{"android":"levelo://app?vid=1ee81508-41a1-4e3e-8ff6-e4273d8073de","ios":"levelo://app?vid=1ee81508-41a1-4e3e-8ff6-e4273d8073de"},"vehicle_type_id":"4","last_reported":1728175805,"current_range_meters":4800,"station_id":"ce4bhr12rcd13ifvqhpg","pricing_plan_id":"cebpf4jnsgd1na2vs0mg"},{"bike_id":"58822ca1-68f8-4f6b-9765-150c72bf3810","system_id":"levelo_inurba_marseille","lat":43.28669,"lon":5.36341,"is_reserved":false,"is_disabled":false,"rental_uris":{"android":"levelo://app?vid=58822ca1-68f8-4f6b-9765-150c72bf3810","ios":"levelo://app?vid=58822ca1-68f8-4f6b-9765-150c72bf3810"},"vehicle_type_id":"4","last_reported":1728175805,"current_range_meters":34000,"station_id":"ce4bhah2rcd13ifvqej0","pricing_plan_id":"cebpf4jnsgd1na2vs0mg"},{"bike_id":"88072e69-654d-4d69-bc67-c54cca8403e8","system_id":"levelo_inurba_marseille","lat":43.27206,"lon":5.39188,"is_reserved":false,"is_disabled":false,"rental_uris":{"android":"levelo://app?vid=88072e69-654d-4d69-bc67-c54cca8403e8","ios":"levelo://app?vid=88072e69-654d-4d69-bc67-c54cca8403e8"},"vehicle_type_id":"4","last_reported":1728175805,"current_range_meters":38800,"station_id":"ce4bhhp2rcd13ifvqfm0","pricing_plan_id":"cebpf4jnsgd1na2vs0mg"},{"bike_id":"6431128f-d629-415c-9507-a60d9c1f8359","system_id":"levelo_inurba_marseille","lat":43.29034,"lon":5.39969,"is_reserved":false,"is_disabled":false,"rental_uris":{"android":"levelo://app?vid=6431128f-d629-415c-9507-a60d9c1f8359","ios":"levelo://app?vid=6431128f-d629-415c-9507-a60d9c1f8359"},"vehicle_type_id":"4","last_reported":1728175805,"current_range_meters":29600,"station_id":"ce4bh392rcd13ifvqdm0","pricing_plan_id":"cebpf4jnsgd1na2vs0mg"},{"bike_id":"276b2a39-b613-4af9-9ea9-ed0062f3281c","system_id":"levelo_inurba_marseille","lat":43.30216,"lon":5.39469,"is_reserved":false,"is_disabled":false,"rental_uris":{"android":"levelo://app?vid=276b2a39-b613-4af9-9ea9-ed0062f3281c","ios":"levelo://app?vid=276b2a39-b613-4af9-9ea9-ed0062f3281c"},"vehicle_type_id":"4","last_reported":1728175805,"current_range_meters":35600,"station_id":"ce4bh0p2rcd13ifvqd70","pricing_plan_id":"cebpf4jnsgd1na2vs0mg"},{"bike_id":"bab516d1-d7f1-4d23-b2fa-cb43d0750992","system_id":"levelo_inurba_marseille","lat":43.23189,"lon":5.39988,"is_reserved":false,"is_disabled":false,"rental_uris":{"android":"levelo://app?vid=bab516d1-d7f1-4d23-b2fa-cb43d0750992","ios":"levelo://app?vid=bab516d1-d7f1-4d23-b2fa-cb43d0750992"},"vehicle_type_id":"4","last_reported":1728175805,"current_range_meters":8400,"station_id":"ce4bhn12rcd13ifvqgqg","pricing_plan_id":"cebpf4jnsgd1na2vs0mg"},{"bike_id":"1d7e584d-d9bd-4a40-880d-10ef72bd85dc","system_id":"levelo_inurba_marseille","lat":43.28082,"lon":5.3965,"is_reserved":false,"is_disabled":false,"rental_uris":{"android":"levelo://app?vid=1d7e584d-d9bd-4a40-880d-10ef72bd85dc","ios":"levelo://app?vid=1d7e584d-d9bd-4a40-880d-10ef72bd85dc"},"vehicle_type_id":"4","last_reported":1728175805,"current_range_meters":38800,"station_id":"ce4bho12rcd13ifvqh2g","pricing_plan_id":"cebpf4jnsgd1na2vs0mg"},{"bike_id":"a94f106c-921c-40e5-90b8-0a0b7d3f49ab","system_id":"levelo_inurba_marseille","lat":43.33356,"lon":5.35853,"is_reserved":false,"is_disabled":false,"rental_uris":{"android":"levelo://app?vid=a94f106c-921c-40e5-90b8-0a0b7d3f49ab","ios":"levelo://app?vid=a94f106c-921c-40e5-90b8-0a0b7d3f49ab"},"vehicle_type_id":"4","last_reported":1728175805,"current_range_meters":21600,"station_id":"","pricing_plan_id":"cebpf4jnsgd1na2vs0mg"},{"bike_id":"3f75b285-bf87-4037-863f-775d9a9d6495","system_id":"levelo_inurba_marseille","lat":43.33022,"lon":5.3904,"is_reserved":false,"is_disabled":false,"rental_uris":{"android":"levelo://app?vid=3f75b285-bf87-4037-863f-775d9a9d6495","ios":"levelo://app?vid=3f75b285-bf87-4037-863f-775d9a9d6495"},"vehicle_type_id":"4","last_reported":1728175805,"current_range_meters":38800,"station_id":"ce4bhr92rcd13ifvqhrg","pricing_plan_id":"cebpf4jnsgd1na2vs0mg"},{"bike_id":"7c9ef478-7387-4cc6-95cf-6452ba0be681","system_id":"levelo_inurba_marseille","lat":43.29558,"lon":5.42285,"is_reserved":false,"is_disabled":false,"rental_uris":{"android":"levelo://app?vid=7c9ef478-7387-4cc6-95cf-6452ba0be681","ios":"levelo://app?vid=7c9ef478-7387-4cc6-95cf-6452ba0be681"},"vehicle_type_id":"4","last_reported":1728175805,"current_range_meters":36000,"station_id":"ce4bhph2rcd13ifvqhdg","pricing_plan_id":"cebpf4jnsgd1na2vs0mg"},{"bike_id":"f1543ab5-4e23-417f-809a-d8a6268dedc7","system_id":"levelo_inurba_marseille","lat":43.24542,"lon":5.39531,"is_reserved":false,"is_disabled":false,"rental_uris":{"android":"levelo://app?vid=f1543ab5-4e23-417f-809a-d8a6268dedc7","ios":"levelo://app?vid=f1543ab5-4e23-417f-809a-d8a6268dedc7"},"vehicle_type_id":"4","last_reported":1728175805,"current_range_meters":38800,"station_id":"ce4bhlp2rcd13ifvqgjg","pricing_plan_id":"cebpf4jnsgd1na2vs0mg"},{"bike_id":"a7a0ce32-a2e1-414d-9cb4-b7863590ca64","system_id":"levelo_inurba_marseille","lat":43.27564,"lon":5.38434,"is_reserved":false,"is_disabled":false,"rental_uris":{"android":"levelo://app?vid=a7a0ce32-a2e1-414d-9cb4-b7863590ca64","ios":"levelo://app?vid=a7a0ce32-a2e1-414d-9cb4-b7863590ca64"},"vehicle_type_id":"4","last_reported":1728175805,"current_range_meters":38400,"station_id":"ce4bhh92rcd13ifvqfi0","pricing_plan_id":"cebpf4jnsgd1na2vs0mg"},{"bike_id":"9bc4f879-5248-4392-926a-6f43f214f04c","system_id":"levelo_inurba_marseille","lat":43.24808,"lon":5.37462,"is_reserved":false,"is_disabled":false,"rental_uris":{"android":"levelo://app?vid=9bc4f879-5248-4392-926a-6f43f214f04c","ios":"levelo://app?vid=9bc4f879-5248-4392-926a-6f43f214f04c"},"vehicle_type_id":"4","last_reported":1728175805,"current_range_meters":7200,"station_id":"ce4bhgh2rcd13ifvqfb0","pricing_plan_id":"cebpf4jnsgd1na2vs0mg"},{"bike_id":"dcb4c6c4-8237-41ce-a572-63834d47b3fb","system_id":"levelo_inurba_marseille","lat":43.26493,"lon":5.39538,"is_reserved":false,"is_disabled":false,"rental_uris":{"android":"levelo://app?vid=dcb4c6c4-8237-41ce-a572-63834d47b3fb","ios":"levelo://app?vid=dcb4c6c4-8237-41ce-a572-63834d47b3fb"},"vehicle_type_id":"4","last_reported":1728175805,"current_range_meters":16400,"station_id":"ce4bhi12rcd13ifvqfq0","pricing_plan_id":"cebpf4jnsgd1na2vs0mg"},{"bike_id":"6eaca8f5-3830-4424-893c-263c0864ef10","system_id":"levelo_inurba_marseille","lat":43.280335,"lon":5.369448,"is_reserved":false,"is_disabled":false,"rental_uris":{"android":"levelo://app?vid=6eaca8f5-3830-4424-893c-263c0864ef10","ios":"levelo://app?vid=6eaca8f5-3830-4424-893c-263c0864ef10"},"vehicle_type_id":"4","last_reported":1728175805,"current_range_meters":38800,"station_id":"ce4bha12rcd13ifvqef0","pricing_plan_id":"cebpf4jnsgd1na2vs0mg"},{"bike_id":"7d832797-a368-47ce-80a8-50d6a3763de8","system_id":"levelo_inurba_marseille","lat":43.28411,"lon":5.38456,"is_reserved":false,"is_disabled":false,"rental_uris":{"android":"levelo://app?vid=7d832797-a368-47ce-80a8-50d6a3763de8","ios":"levelo://app?vid=7d832797-a368-47ce-80a8-50d6a3763de8"},"vehicle_type_id":"4","last_reported":1728175805,"current_range_meters":30400,"station_id":"","pricing_plan_id":"cebpf4jnsgd1na2vs0mg"},{"bike_id":"868fa2c3-859c-4b5a-b69c-933c8c522d35","system_id":"levelo_inurba_marseille","lat":43.31353,"lon":5.38504,"is_reserved":false,"is_disabled":false,"rental_uris":{"android":"levelo://app?vid=868fa2c3-859c-4b5a-b69c-933c8c522d35","ios":"levelo://app?vid=868fa2c3-859c-4b5a-b69c-933c8c522d35"},"vehicle_type_id":"4","last_reported":1728175805,"current_range_meters":38000,"station_id":"ce4bgt92rcd13ifvqcf0","pricing_plan_id":"cebpf4jnsgd1na2vs0mg"},{"bike_id":"1121dded-5bdc-4095-b903-1711383b0169","system_id":"levelo_inurba_marseille","lat":43.2894,"lon":5.36403,"is_reserved":false,"is_disabled":false,"rental_uris":{"android":"levelo://app?vid=1121dded-5bdc-4095-b903-1711383b0169","ios":"levelo://app?vid=1121dded-5bdc-4095-b903-1711383b0169"},"vehicle_type_id":"4","last_reported":1728175805,"current_range_meters":22000,"station_id":"ce4bhc92rcd13ifvqetg","pricing_plan_id":"cebpf4jnsgd1na2vs0mg"},{"bike_id":"126e8b9c-d4ba-4fdf-b891-8a69ddbd21f6","system_id":"levelo_inurba_marseille","lat":43.3211,"lon":5.36777,"is_reserved":false,"is_disabled":false,"rental_uris":{"android":"levelo://app?vid=126e8b9c-d4ba-4fdf-b891-8a69ddbd21f6","ios":"levelo://app?vid=126e8b9c-d4ba-4fdf-b891-8a69ddbd21f6"},"vehicle_type_id":"4","last_reported":1728175805,"current_range_meters":28000,"station_id":"ce4bhrh2rcd13ifvqhug","pricing_plan_id":"cebpf4jnsgd1na2vs0mg"},{"bike_id":"cd479abc-12ff-413e-a9bf-69e6ced65d03","system_id":"levelo_inurba_marseille","lat":43.24649,"lon":5.38888,"is_reserved":false,"is_disabled":false,"rental_uris":{"android":"levelo://app?vid=cd479abc-12ff-413e-a9bf-69e6ced65d03","ios":"levelo://app?vid=cd479abc-12ff-413e-a9bf-69e6ced65d03"},"vehicle_type_id":"4","last_reported":1728175805,"current_range_meters":38800,"station_id":"ce4bhg12rcd13ifvqf60","pricing_plan_id":"cebpf4jnsgd1na2vs0mg"},{"bike_id":"68b77a88-2067-422a-ab7b-e29094a40dcc","system_id":"levelo_inurba_marseille","lat":43.25113,"lon":5.40318,"is_reserved":false,"is_disabled":false,"rental_uris":{"android":"levelo://app?vid=68b77a88-2067-422a-ab7b-e29094a40dcc","ios":"levelo://app?vid=68b77a88-2067-422a-ab7b-e29094a40dcc"},"vehicle_type_id":"4","last_reported":1728175805,"current_range_meters":38000,"station_id":"ce4bhlh2rcd13ifvqgig","pricing_plan_id":"cebpf4jnsgd1na2vs0mg"},{"bike_id":"d3f60117-edac-46af-a600-02c6c194981b","system_id":"levelo_inurba_marseille","lat":43.3064,"lon":5.4009,"is_reserved":false,"is_disabled":false,"rental_uris":{"android":"levelo://app?vid=d3f60117-edac-46af-a600-02c6c194981b","ios":"levelo://app?vid=d3f60117-edac-46af-a600-02c6c194981b"},"vehicle_type_id":"4","last_reported":1728175805,"current_range_meters":24400,"station_id":"ce4bh112rcd13ifvqda0","pricing_plan_id":"cebpf4jnsgd1na2vs0mg"},{"bike_id":"3246e9fa-6aa1-4bd7-858d-ddbf0d2e62e5","system_id":"levelo_inurba_marseille","lat":43.301392,"lon":5.398778,"is_reserved":false,"is_disabled":false,"rental_uris":{"android":"levelo://app?vid=3246e9fa-6aa1-4bd7-858d-ddbf0d2e62e5","ios":"levelo://app?vid=3246e9fa-6aa1-4bd7-858d-ddbf0d2e62e5"},"vehicle_type_id":"4","last_reported":1728175805,"current_range_meters":19200,"station_id":"ce4bh0h2rcd13ifvqd40","pricing_plan_id":"cebpf4jnsgd1na2vs0mg"},{"bike_id":"55e97f7f-5765-4465-b5f8-31d57afc4c78","system_id":"levelo_inurba_marseille","lat":43.29552,"lon":5.42277,"is_reserved":false,"is_disabled":false,"rental_uris":{"android":"levelo://app?vid=55e97f7f-5765-4465-b5f8-31d57afc4c78","ios":"levelo://app?vid=55e97f7f-5765-4465-b5f8-31d57afc4c78"},"vehicle_type_id":"4","last_reported":1728175805,"current_range_meters":30800,"station_id":"ce4bhph2rcd13ifvqhdg","pricing_plan_id":"cebpf4jnsgd1na2vs0mg"},{"bike_id":"78cfcc3c-2061-4c54-8e9a-c4d9b3a845c4","system_id":"levelo_inurba_marseille","lat":43.29549,"lon":5.42276,"is_reserved":false,"is_disabled":false,"rental_uris":{"android":"levelo://app?vid=78cfcc3c-2061-4c54-8e9a-c4d9b3a845c4","ios":"levelo://app?vid=78cfcc3c-2061-4c54-8e9a-c4d9b3a845c4"},"vehicle_type_id":"4","last_reported":1728175805,"current_range_meters":9600,"station_id":"ce4bhph2rcd13ifvqhdg","pricing_plan_id":"cebpf4jnsgd1na2vs0mg"},{"bike_id":"7b9ba1ff-08b4-4bd7-8512-4be43a62039f","system_id":"levelo_inurba_marseille","lat":43.28697,"lon":5.39976,"is_reserved":false,"is_disabled":false,"rental_uris":{"android":"levelo://app?vid=7b9ba1ff-08b4-4bd7-8512-4be43a62039f","ios":"levelo://app?vid=7b9ba1ff-08b4-4bd7-8512-4be43a62039f"},"vehicle_type_id":"4","last_reported":1728175805,"current_range_meters":27600,"station_id":"ce4bho92rcd13ifvqh3g","pricing_plan_id":"cebpf4jnsgd1na2vs0mg"},{"bike_id":"a0867223-e2cf-49a2-bb70-12696eadfb28","system_id":"levelo_inurba_marseille","lat":43.29558,"lon":5.42275,"is_reserved":false,"is_disabled":false,"rental_uris":{"android":"levelo://app?vid=a0867223-e2cf-49a2-bb70-12696eadfb28","ios":"levelo://app?vid=a0867223-e2cf-49a2-bb70-12696eadfb28"},"vehicle_type_id":"4","last_reported":1728175805,"current_range_meters":38800,"station_id":"ce4bhph2rcd13ifvqhdg","pricing_plan_id":"cebpf4jnsgd1na2vs0mg"},{"bike_id":"4fea846c-9813-440d-886c-458270909c65","system_id":"levelo_inurba_marseille","lat":43.28463,"lon":5.35884,"is_reserved":false,"is_disabled":false,"rental_uris":{"android":"levelo://app?vid=4fea846c-9813-440d-886c-458270909c65","ios":"levelo://app?vid=4fea846c-9813-440d-886c-458270909c65"},"vehicle_type_id":"4","last_reported":1728175805,"current_range_meters":38800,"station_id":"ce4bhah2rcd13ifvqei0","pricing_plan_id":"cebpf4jnsgd1na2vs0mg"},{"bike_id":"9f19e14f-fab5-49bf-878b-9a40978f6235","system_id":"levelo_inurba_marseille","lat":43.28431,"lon":5.39182,"is_reserved":false,"is_disabled":false,"rental_uris":{"android":"levelo://app?vid=9f19e14f-fab5-49bf-878b-9a40978f6235","ios":"levelo://app?vid=9f19e14f-fab5-49bf-878b-9a40978f6235"},"vehicle_type_id":"4","last_reported":1728175805,"current_range_meters":38800,"station_id":"ce4bhoh2rcd13ifvqh5g","pricing_plan_id":"cebpf4jnsgd1na2vs0mg"},{"bike_id":"b6fd76d3-34a5-4c26-a80e-03dca3f57387","system_id":"levelo_inurba_marseille","lat":43.336,"lon":5.41025,"is_reserved":false,"is_disabled":false,"rental_uris":{"android":"levelo://app?vid=b6fd76d3-34a5-4c26-a80e-03dca3f57387","ios":"levelo://app?vid=b6fd76d3-34a5-4c26-a80e-03dca3f57387"},"vehicle_type_id":"4","last_reported":1728175805,"current_range_meters":8400,"station_id":"ce4bhqh2rcd13ifvqhmg","pricing_plan_id":"cebpf4jnsgd1na2vs0mg"},{"bike_id":"4cfc80d4-b97c-4c3c-97d6-996e68d8712f","system_id":"levelo_inurba_marseille","lat":43.30328,"lon":5.40442,"is_reserved":false,"is_disabled":false,"rental_uris":{"android":"levelo://app?vid=4cfc80d4-b97c-4c3c-97d6-996e68d8712f","ios":"levelo://app?vid=4cfc80d4-b97c-4c3c-97d6-996e68d8712f"},"vehicle_type_id":"4","last_reported":1728175805,"current_range_meters":35600,"station_id":"ce4bh012rcd13ifvqd10","pricing_plan_id":"cebpf4jnsgd1na2vs0mg"},{"bike_id":"152f3a24-1071-41b9-a2ed-934df83e2faa","system_id":"levelo_inurba_marseille","lat":43.25864,"lon":5.39906,"is_reserved":false,"is_disabled":false,"rental_uris":{"android":"levelo://app?vid=152f3a24-1071-41b9-a2ed-934df83e2faa","ios":"levelo://app?vid=152f3a24-1071-41b9-a2ed-934df83e2faa"},"vehicle_type_id":"4","last_reported":1728175805,"current_range_meters":24000,"station_id":"ce4bhl92rcd13ifvqghg","pricing_plan_id":"cebpf4jnsgd1na2vs0mg"},{"bike_id":"e52556a0-eec0-42f8-9dff-bfa9d9b67ba6","system_id":"levelo_inurba_marseille","lat":43.32487,"lon":5.36563,"is_reserved":false,"is_disabled":false,"rental_uris":{"android":"levelo://app?vid=e52556a0-eec0-42f8-9dff-bfa9d9b67ba6","ios":"levelo://app?vid=e52556a0-eec0-42f8-9dff-bfa9d9b67ba6"},"vehicle_type_id":"4","last_reported":1728175805,"current_range_meters":27200,"station_id":"ce4bhs12rcd13ifvqhvg","pricing_plan_id":"cebpf4jnsgd1na2vs0mg"},{"bike_id":"f6d4b972-00e6-4211-9ae0-a8d157877144","system_id":"levelo_inurba_marseille","lat":43.308078,"lon":5.381514,"is_reserved":false,"is_disabled":false,"rental_uris":{"android":"levelo://app?vid=f6d4b972-00e6-4211-9ae0-a8d157877144","ios":"levelo://app?vid=f6d4b972-00e6-4211-9ae0-a8d157877144"},"vehicle_type_id":"4","last_reported":1728175805,"current_range_meters":39200,"station_id":"ce4bgt12rcd13ifvqce0","pricing_plan_id":"cebpf4jnsgd1na2vs0mg"},{"bike_id":"21a022e4-deb3-488c-87ac-c5ee0bf6a5eb","system_id":"levelo_inurba_marseille","lat":43.3033,"lon":5.40436,"is_reserved":false,"is_disabled":false,"rental_uris":{"android":"levelo://app?vid=21a022e4-deb3-488c-87ac-c5ee0bf6a5eb","ios":"levelo://app?vid=21a022e4-deb3-488c-87ac-c5ee0bf6a5eb"},"vehicle_type_id":"4","last_reported":1728175805,"current_range_meters":24400,"station_id":"ce4bh012rcd13ifvqd10","pricing_plan_id":"cebpf4jnsgd1na2vs0mg"},{"bike_id":"1389bc01-1539-492d-b24d-d1ad5bffa484","system_id":"levelo_inurba_marseille","lat":43.302592,"lon":5.400756,"is_reserved":false,"is_disabled":false,"rental_uris":{"android":"levelo://app?vid=1389bc01-1539-492d-b24d-d1ad5bffa484","ios":"levelo://app?vid=1389bc01-1539-492d-b24d-d1ad5bffa484"},"vehicle_type_id":"4","last_reported":1728175805,"current_range_meters":36000,"station_id":"ce4bgvh2rcd13ifvqcs0","pricing_plan_id":"cebpf4jnsgd1na2vs0mg"},{"bike_id":"0206aab1-99d2-4109-8df3-4f2fc5521402","system_id":"levelo_inurba_marseille","lat":43.23194,"lon":5.35561,"is_reserved":false,"is_disabled":false,"rental_uris":{"android":"levelo://app?vid=0206aab1-99d2-4109-8df3-4f2fc5521402","ios":"levelo://app?vid=0206aab1-99d2-4109-8df3-4f2fc5521402"},"vehicle_type_id":"4","last_reported":1728175805,"current_range_meters":38800,"station_id":"ce4bhu92rcd13ifvqi70","pricing_plan_id":"cebpf4jnsgd1na2vs0mg"},{"bike_id":"77e44f96-8992-4ec5-ba2c-5e51b9e5b288","system_id":"levelo_inurba_marseille","lat":43.2706,"lon":5.38786,"is_reserved":false,"is_disabled":false,"rental_uris":{"android":"levelo://app?vid=77e44f96-8992-4ec5-ba2c-5e51b9e5b288","ios":"levelo://app?vid=77e44f96-8992-4ec5-ba2c-5e51b9e5b288"},"vehicle_type_id":"4","last_reported":1728175805,"current_range_meters":38000,"station_id":"","pricing_plan_id":"cebpf4jnsgd1na2vs0mg"},{"bike_id":"ea6cad51-86c8-4493-9cce-3d75faa651ad","system_id":"levelo_inurba_marseille","lat":43.26801,"lon":5.40259,"is_reserved":false,"is_disabled":false,"rental_uris":{"android":"levelo://app?vid=ea6cad51-86c8-4493-9cce-3d75faa651ad","ios":"levelo://app?vid=ea6cad51-86c8-4493-9cce-3d75faa651ad"},"vehicle_type_id":"4","last_reported":1728175805,"current_range_meters":16400,"station_id":"ce501612rcd8frsf0b60","pricing_plan_id":"cebpf4jnsgd1na2vs0mg"},{"bike_id":"b51ee6d2-4574-4587-a7f0-3852397ae634","system_id":"levelo_inurba_marseille","lat":43.229474,"lon":5.353472,"is_reserved":false,"is_disabled":false,"rental_uris":{"android":"levelo://app?vid=b51ee6d2-4574-4587-a7f0-3852397ae634","ios":"levelo://app?vid=b51ee6d2-4574-4587-a7f0-3852397ae634"},"vehicle_type_id":"4","last_reported":1728175805,"current_range_meters":38800,"station_id":"cpo3532slgdg3j2ikp40","pricing_plan_id":"cebpf4jnsgd1na2vs0mg"},{"bike_id":"4f5038fe-9ccd-4d04-a6cd-afe04d9be89f","system_id":"levelo_inurba_marseille","lat":43.27379,"lon":5.36258,"is_reserved":false,"is_disabled":false,"rental_uris":{"android":"levelo://app?vid=4f5038fe-9ccd-4d04-a6cd-afe04d9be89f","ios":"levelo://app?vid=4f5038fe-9ccd-4d04-a6cd-afe04d9be89f"},"vehicle_type_id":"4","last_reported":1728175805,"current_range_meters":35200,"station_id":"ce4bhbh2rcd13ifvqeo0","pricing_plan_id":"cebpf4jnsgd1na2vs0mg"},{"bike_id":"68788143-3525-40be-94dd-ffa183ac0343","system_id":"levelo_inurba_marseille","lat":43.28944,"lon":5.36628,"is_reserved":false,"is_disabled":false,"rental_uris":{"android":"levelo://app?vid=68788143-3525-40be-94dd-ffa183ac0343","ios":"levelo://app?vid=68788143-3525-40be-94dd-ffa183ac0343"},"vehicle_type_id":"4","last_reported":1728175805,"current_range_meters":18000,"station_id":"ce4bhap2rcd13ifvqek0","pricing_plan_id":"cebpf4jnsgd1na2vs0mg"},{"bike_id":"0a8c9a0d-0b0f-4138-98a5-c8e50caa5c7e","system_id":"levelo_inurba_marseille","lat":43.24182,"lon":5.39723,"is_reserved":false,"is_disabled":false,"rental_uris":{"android":"levelo://app?vid=0a8c9a0d-0b0f-4138-98a5-c8e50caa5c7e","ios":"levelo://app?vid=0a8c9a0d-0b0f-4138-98a5-c8e50caa5c7e"},"vehicle_type_id":"4","last_reported":1728175805,"current_range_meters":7200,"station_id":"ce4bhn12rcd13ifvqgpg","pricing_plan_id":"cebpf4jnsgd1na2vs0mg"},{"bike_id":"9b7ef211-e2e3-461e-95c2-c27a9f5f93da","system_id":"levelo_inurba_marseille","lat":43.24548,"lon":5.39526,"is_reserved":false,"is_disabled":false,"rental_uris":{"android":"levelo://app?vid=9b7ef211-e2e3-461e-95c2-c27a9f5f93da","ios":"levelo://app?vid=9b7ef211-e2e3-461e-95c2-c27a9f5f93da"},"vehicle_type_id":"4","last_reported":1728175805,"current_range_meters":38000,"station_id":"ce4bhlp2rcd13ifvqgjg","pricing_plan_id":"cebpf4jnsgd1na2vs0mg"},{"bike_id":"2b027b08-111f-4d9f-b9ba-738cd515165f","system_id":"levelo_inurba_marseille","lat":43.26934,"lon":5.38916,"is_reserved":false,"is_disabled":false,"rental_uris":{"android":"levelo://app?vid=2b027b08-111f-4d9f-b9ba-738cd515165f","ios":"levelo://app?vid=2b027b08-111f-4d9f-b9ba-738cd515165f"},"vehicle_type_id":"4","last_reported":1728175805,"current_range_meters":38000,"station_id":"ce4bhhh2rcd13ifvqfl0","pricing_plan_id":"cebpf4jnsgd1na2vs0mg"},{"bike_id":"d91af7a0-e968-4500-8fde-6538c6ce32cd","system_id":"levelo_inurba_marseille","lat":43.27901,"lon":5.38002,"is_reserved":false,"is_disabled":false,"rental_uris":{"android":"levelo://app?vid=d91af7a0-e968-4500-8fde-6538c6ce32cd","ios":"levelo://app?vid=d91af7a0-e968-4500-8fde-6538c6ce32cd"},"vehicle_type_id":"4","last_reported":1728175805,"current_range_meters":37600,"station_id":"ce4bhf92rcd13ifvqf50","pricing_plan_id":"cebpf4jnsgd1na2vs0mg"},{"bike_id":"4e0c83a2-b0c3-4894-8559-e509681998d3","system_id":"levelo_inurba_marseille","lat":43.31118,"lon":5.38324,"is_reserved":false,"is_disabled":false,"rental_uris":{"android":"levelo://app?vid=4e0c83a2-b0c3-4894-8559-e509681998d3","ios":"levelo://app?vid=4e0c83a2-b0c3-4894-8559-e509681998d3"},"vehicle_type_id":"4","last_reported":1728175805,"current_range_meters":12400,"station_id":"","pricing_plan_id":"cebpf4jnsgd1na2vs0mg"},{"bike_id":"6427da65-1c01-46ad-bce6-7b1503f7b986","system_id":"levelo_inurba_marseille","lat":43.31822,"lon":5.40632,"is_reserved":false,"is_disabled":false,"rental_uris":{"android":"levelo://app?vid=6427da65-1c01-46ad-bce6-7b1503f7b986","ios":"levelo://app?vid=6427da65-1c01-46ad-bce6-7b1503f7b986"},"vehicle_type_id":"4","last_reported":1728175805,"current_range_meters":14000,"station_id":"","pricing_plan_id":"cebpf4jnsgd1na2vs0mg"},{"bike_id":"d3d0826a-8542-464c-893d-a0abebc55504","system_id":"levelo_inurba_marseille","lat":43.312718,"lon":5.4018,"is_reserved":false,"is_disabled":false,"rental_uris":{"android":"levelo://app?vid=d3d0826a-8542-464c-893d-a0abebc55504","ios":"levelo://app?vid=d3d0826a-8542-464c-893d-a0abebc55504"},"vehicle_type_id":"4","last_reported":1728175805,"current_range_meters":39200,"station_id":"ce4bh092rcd13ifvqd30","pricing_plan_id":"cebpf4jnsgd1na2vs0mg"},{"bike_id":"c8a81076-9586-4795-a406-3705874a4aa0","system_id":"levelo_inurba_marseille","lat":43.22925,"lon":5.35376,"is_reserved":false,"is_disabled":false,"rental_uris":{"android":"levelo://app?vid=c8a81076-9586-4795-a406-3705874a4aa0","ios":"levelo://app?vid=c8a81076-9586-4795-a406-3705874a4aa0"},"vehicle_type_id":"4","last_reported":1728175805,"current_range_meters":32800,"station_id":"cpo3532slgdg3j2ikp40","pricing_plan_id":"cebpf4jnsgd1na2vs0mg"},{"bike_id":"05bfd5bd-cbf9-4ceb-a570-0f8bbbbaa4c4","system_id":"levelo_inurba_marseille","lat":43.27555,"lon":5.38418,"is_reserved":false,"is_disabled":false,"rental_uris":{"android":"levelo://app?vid=05bfd5bd-cbf9-4ceb-a570-0f8bbbbaa4c4","ios":"levelo://app?vid=05bfd5bd-cbf9-4ceb-a570-0f8bbbbaa4c4"},"vehicle_type_id":"4","last_reported":1728175805,"current_range_meters":35600,"station_id":"ce4bhh92rcd13ifvqfi0","pricing_plan_id":"cebpf4jnsgd1na2vs0mg"},{"bike_id":"8d4950f1-b301-449d-bcd0-f0ac70cb73de","system_id":"levelo_inurba_marseille","lat":43.2849,"lon":5.4219,"is_reserved":false,"is_disabled":false,"rental_uris":{"android":"levelo://app?vid=8d4950f1-b301-449d-bcd0-f0ac70cb73de","ios":"levelo://app?vid=8d4950f1-b301-449d-bcd0-f0ac70cb73de"},"vehicle_type_id":"4","last_reported":1728175805,"current_range_meters":7200,"station_id":"","pricing_plan_id":"cebpf4jnsgd1na2vs0mg"},{"bike_id":"acb42592-bf69-4207-abd5-bccef3c85fae","system_id":"levelo_inurba_marseille","lat":43.31892,"lon":5.40729,"is_reserved":false,"is_disabled":false,"rental_uris":{"android":"levelo://app?vid=acb42592-bf69-4207-abd5-bccef3c85fae","ios":"levelo://app?vid=acb42592-bf69-4207-abd5-bccef3c85fae"},"vehicle_type_id":"4","last_reported":1728175805,"current_range_meters":38800,"station_id":"ce4bhq12rcd13ifvqhig","pricing_plan_id":"cebpf4jnsgd1na2vs0mg"},{"bike_id":"c378dc83-ebd1-41d3-9b5e-a9309637a11d","system_id":"levelo_inurba_marseille","lat":43.30933,"lon":5.40147,"is_reserved":false,"is_disabled":false,"rental_uris":{"android":"levelo://app?vid=c378dc83-ebd1-41d3-9b5e-a9309637a11d","ios":"levelo://app?vid=c378dc83-ebd1-41d3-9b5e-a9309637a11d"},"vehicle_type_id":"4","last_reported":1728175805,"current_range_meters":9600,"station_id":"ce4bgvp2rcd13ifvqct0","pricing_plan_id":"cebpf4jnsgd1na2vs0mg"},{"bike_id":"47fd952c-b84c-4fff-b691-98ea3d1d1fe3","system_id":"levelo_inurba_marseille","lat":43.32335,"lon":5.4063,"is_reserved":false,"is_disabled":false,"rental_uris":{"android":"levelo://app?vid=47fd952c-b84c-4fff-b691-98ea3d1d1fe3","ios":"levelo://app?vid=47fd952c-b84c-4fff-b691-98ea3d1d1fe3"},"vehicle_type_id":"4","last_reported":1728175805,"current_range_meters":25600,"station_id":"ce4bhq92rcd13ifvqhjg","pricing_plan_id":"cebpf4jnsgd1na2vs0mg"},{"bike_id":"71dfe08a-90ca-4844-85a8-ac6b95b5d2b2","system_id":"levelo_inurba_marseille","lat":43.24181,"lon":5.39727,"is_reserved":false,"is_disabled":false,"rental_uris":{"android":"levelo://app?vid=71dfe08a-90ca-4844-85a8-ac6b95b5d2b2","ios":"levelo://app?vid=71dfe08a-90ca-4844-85a8-ac6b95b5d2b2"},"vehicle_type_id":"4","last_reported":1728175805,"current_range_meters":28800,"station_id":"ce4bhn12rcd13ifvqgpg","pricing_plan_id":"cebpf4jnsgd1na2vs0mg"},{"bike_id":"1af251bd-f9ea-4b89-b70e-d668e0dc1d2d","system_id":"levelo_inurba_marseille","lat":43.287109,"lon":5.379246,"is_reserved":false,"is_disabled":false,"rental_uris":{"android":"levelo://app?vid=1af251bd-f9ea-4b89-b70e-d668e0dc1d2d","ios":"levelo://app?vid=1af251bd-f9ea-4b89-b70e-d668e0dc1d2d"},"vehicle_type_id":"4","last_reported":1728175805,"current_range_meters":5600,"station_id":"ce4bhl92rcd13ifvqghg","pricing_plan_id":"cebpf4jnsgd1na2vs0mg"},{"bike_id":"4562355b-36d5-44a4-ac1a-fda5c02cd815","system_id":"levelo_inurba_marseille","lat":43.30782,"lon":5.37654,"is_reserved":false,"is_disabled":false,"rental_uris":{"android":"levelo://app?vid=4562355b-36d5-44a4-ac1a-fda5c02cd815","ios":"levelo://app?vid=4562355b-36d5-44a4-ac1a-fda5c02cd815"},"vehicle_type_id":"4","last_reported":1728175805,"current_range_meters":6400,"station_id":"","pricing_plan_id":"cebpf4jnsgd1na2vs0mg"},{"bike_id":"4f5491e9-1040-4dce-8fe0-700570afca1e","system_id":"levelo_inurba_marseille","lat":43.31585,"lon":5.36675,"is_reserved":false,"is_disabled":false,"rental_uris":{"android":"levelo://app?vid=4f5491e9-1040-4dce-8fe0-700570afca1e","ios":"levelo://app?vid=4f5491e9-1040-4dce-8fe0-700570afca1e"},"vehicle_type_id":"4","last_reported":1728175805,"current_range_meters":27600,"station_id":"ce4bgj92rcd13ifvqbd0","pricing_plan_id":"cebpf4jnsgd1na2vs0mg"},{"bike_id":"08e9b6fc-c847-46af-9081-e87c1c4d4afe","system_id":"levelo_inurba_marseille","lat":43.28838,"lon":5.35854,"is_reserved":false,"is_disabled":false,"rental_uris":{"android":"levelo://app?vid=08e9b6fc-c847-46af-9081-e87c1c4d4afe","ios":"levelo://app?vid=08e9b6fc-c847-46af-9081-e87c1c4d4afe"},"vehicle_type_id":"4","last_reported":1728175805,"current_range_meters":18800,"station_id":"ce4bhb12rcd13ifvqem0","pricing_plan_id":"cebpf4jnsgd1na2vs0mg"},{"bike_id":"ee70354b-9fb1-40d1-b0cb-a7c37bf963b6","system_id":"levelo_inurba_marseille","lat":43.28153,"lon":5.42649,"is_reserved":false,"is_disabled":false,"rental_uris":{"android":"levelo://app?vid=ee70354b-9fb1-40d1-b0cb-a7c37bf963b6","ios":"levelo://app?vid=ee70354b-9fb1-40d1-b0cb-a7c37bf963b6"},"vehicle_type_id":"4","last_reported":1728175805,"current_range_meters":30800,"station_id":"ce4bhnh2rcd13ifvqgug","pricing_plan_id":"cebpf4jnsgd1na2vs0mg"},{"bike_id":"0e706edc-d6c9-4695-a8ed-089f891deb61","system_id":"levelo_inurba_marseille","lat":43.30629,"lon":5.40071,"is_reserved":false,"is_disabled":false,"rental_uris":{"android":"levelo://app?vid=0e706edc-d6c9-4695-a8ed-089f891deb61","ios":"levelo://app?vid=0e706edc-d6c9-4695-a8ed-089f891deb61"},"vehicle_type_id":"4","last_reported":1728175805,"current_range_meters":16000,"station_id":"ce4bh112rcd13ifvqda0","pricing_plan_id":"cebpf4jnsgd1na2vs0mg"},{"bike_id":"831bc235-831d-45cf-bcd0-cd42534c92b5","system_id":"levelo_inurba_marseille","lat":43.28353,"lon":5.38105,"is_reserved":false,"is_disabled":false,"rental_uris":{"android":"levelo://app?vid=831bc235-831d-45cf-bcd0-cd42534c92b5","ios":"levelo://app?vid=831bc235-831d-45cf-bcd0-cd42534c92b5"},"vehicle_type_id":"4","last_reported":1728175805,"current_range_meters":6400,"station_id":"ce4bh412rcd13ifvqdr0","pricing_plan_id":"cebpf4jnsgd1na2vs0mg"},{"bike_id":"0a1d5dec-f797-45be-adc5-41ab5ff9f725","system_id":"levelo_inurba_marseille","lat":43.2963,"lon":5.40597,"is_reserved":false,"is_disabled":false,"rental_uris":{"android":"levelo://app?vid=0a1d5dec-f797-45be-adc5-41ab5ff9f725","ios":"levelo://app?vid=0a1d5dec-f797-45be-adc5-41ab5ff9f725"},"vehicle_type_id":"4","last_reported":1728175805,"current_range_meters":9600,"station_id":"ce4bh0h2rcd13ifvqd60","pricing_plan_id":"cebpf4jnsgd1na2vs0mg"},{"bike_id":"2c052363-cb43-4d1b-abc6-e860c8218f98","system_id":"levelo_inurba_marseille","lat":43.32482,"lon":5.36577,"is_reserved":false,"is_disabled":false,"rental_uris":{"android":"levelo://app?vid=2c052363-cb43-4d1b-abc6-e860c8218f98","ios":"levelo://app?vid=2c052363-cb43-4d1b-abc6-e860c8218f98"},"vehicle_type_id":"4","last_reported":1728175805,"current_range_meters":32000,"station_id":"ce4bhs12rcd13ifvqhvg","pricing_plan_id":"cebpf4jnsgd1na2vs0mg"},{"bike_id":"9be63c29-4818-4119-b13b-b0d1c2aca0fe","system_id":"levelo_inurba_marseille","lat":43.29787,"lon":5.38096,"is_reserved":false,"is_disabled":false,"rental_uris":{"android":"levelo://app?vid=9be63c29-4818-4119-b13b-b0d1c2aca0fe","ios":"levelo://app?vid=9be63c29-4818-4119-b13b-b0d1c2aca0fe"},"vehicle_type_id":"4","last_reported":1728175805,"current_range_meters":38000,"station_id":"ce4bgip2rcd13ifvqbb0","pricing_plan_id":"cebpf4jnsgd1na2vs0mg"},{"bike_id":"bdefae95-7cc5-4880-bfcb-b1af39586be0","system_id":"levelo_inurba_marseille","lat":43.32662,"lon":5.40995,"is_reserved":false,"is_disabled":false,"rental_uris":{"android":"levelo://app?vid=bdefae95-7cc5-4880-bfcb-b1af39586be0","ios":"levelo://app?vid=bdefae95-7cc5-4880-bfcb-b1af39586be0"},"vehicle_type_id":"4","last_reported":1728175805,"current_range_meters":38000,"station_id":"ce4bhpp2rcd13ifvqhgg","pricing_plan_id":"cebpf4jnsgd1na2vs0mg"},{"bike_id":"e42bf752-7b7e-448f-8365-fc1f9debacf0","system_id":"levelo_inurba_marseille","lat":43.30313,"lon":5.36904,"is_reserved":false,"is_disabled":false,"rental_uris":{"android":"levelo://app?vid=e42bf752-7b7e-448f-8365-fc1f9debacf0","ios":"levelo://app?vid=e42bf752-7b7e-448f-8365-fc1f9debacf0"},"vehicle_type_id":"4","last_reported":1728175805,"current_range_meters":38400,"station_id":"ce4bgqh2rcd13ifvqc5g","pricing_plan_id":"cebpf4jnsgd1na2vs0mg"},{"bike_id":"985bee0a-2fee-4b1e-aa9e-f813989bbc2f","system_id":"levelo_inurba_marseille","lat":43.29257,"lon":5.40897,"is_reserved":false,"is_disabled":false,"rental_uris":{"android":"levelo://app?vid=985bee0a-2fee-4b1e-aa9e-f813989bbc2f","ios":"levelo://app?vid=985bee0a-2fee-4b1e-aa9e-f813989bbc2f"},"vehicle_type_id":"4","last_reported":1728175805,"current_range_meters":32400,"station_id":"ce4bh192rcd13ifvqdc0","pricing_plan_id":"cebpf4jnsgd1na2vs0mg"},{"bike_id":"12afc8f1-2acf-4c0e-b1d3-c57bea2e71f3","system_id":"levelo_inurba_marseille","lat":43.26059,"lon":5.39389,"is_reserved":false,"is_disabled":false,"rental_uris":{"android":"levelo://app?vid=12afc8f1-2acf-4c0e-b1d3-c57bea2e71f3","ios":"levelo://app?vid=12afc8f1-2acf-4c0e-b1d3-c57bea2e71f3"},"vehicle_type_id":"4","last_reported":1728175805,"current_range_meters":38000,"station_id":"ce4bhh92rcd13ifvqfj0","pricing_plan_id":"cebpf4jnsgd1na2vs0mg"},