{"last_updated":1743923304,"ttl":60,"version":"2.2","data":{"bikes":[{"bike_id":"b991118a-b3fd-4081-a6c6-23b69168496a","system_id":"levelo_inurba_marseille","lat":43.21756,"lon":5.346,"is_reserved":false,"is_disabled":true,"rental_uris":{"android":"levelo://app?vid=b991118a-b3fd-4081-a6c6-23b69168496a","ios":"levelo://app?vid=b991118a-b3fd-4081-a6c6-23b69168496a"},"vehicle_type_id":"4","last_reported":1743923304,"current_range_meters":2800,"station_id":"st_cvj6r9ubvosntc0bgbag","pricing_plan_id":"cebpf4jnsgd1na2vs0mg"},{"bike_id":"f84a84b0-2693-4b6e-a64a-54f05fa5fb03","system_id":"levelo_inurba_marseille","lat":43.29577,"lon":5.36747,"is_reserved":false,"is_disabled":false,"rental_uris":{"android":"levelo://app?vid=f84a84b0-2693-4b6e-a64a-54f05fa5fb03","ios":"levelo://app?vid=f84a84b0-2693-4b6e-a64a-54f05fa5fb03"},"vehicle_type_id":"4","last_reported":1743923304,"current_range_meters":2800,"station_id":"ce4bgph2rcd13ifvqc2g","pricing_plan_id":"cebpf4jnsgd1na2vs0mg"},{"bike_id":"50297066-959d-45c5-a71e-b062cc3724ec","system_id":"levelo_inurba_marseille","lat":43.30798,"lon":5.37335,"is_reserved":false,"is_disabled":false,"rental_uris":{"android":"levelo://app?vid=50297066-959d-45c5-a71e-b062cc3724ec","ios":"levelo://app?vid=50297066-959d-45c5-a71e-b062cc3724ec"},"vehicle_type_id":"4","last_reported":1743923304,"current_range_meters":2800,"station_id":"","pricing_plan_id":"cebpf4jnsgd1na2vs0mg"},{"bike_id":"cc281636-5b31-4cb8-9bca-c4010602b2cf","system_id":"levelo_inurba_marseille","lat":43.29526,"lon":5.37528,"is_reserved":false,"is_disabled":false,"rental_uris":{"android":"levelo://app?vid=cc281636-5b31-4cb8-9bca-c4010602b2cf","ios":"levelo://app?vid=cc281636-5b31-4cb8-9bca-c4010602b2cf"},"vehicle_type_id":"4","last_reported":1743923304,"current_range_meters":2800,"station_id":"ce4bgkp2rcd13ifvqbmg","pricing_plan_id":"cebpf4jnsgd1na2vs0mg"},{"bike_id":"351fe75b-eb04-4abc-9eb5-865028629e1f","system_id":"levelo_inurba_marseille","lat":43.29276,"lon":5.4017,"is_reserved":false,"is_disabled":false,"rental_uris":{"android":"levelo://app?vid=351fe75b-eb04-4abc-9eb5-865028629e1f","ios":"levelo://app?vid=351fe75b-eb04-4abc-9eb5-865028629e1f"},"vehicle_type_id":"4","last_reported":1743923304,"current_range_meters":3200,"station_id":"ce4bh312rcd13ifvqdk0","pricing_plan_id":"cebpf4jnsgd1na2vs0mg"},{"bike_id":"61bfcb73-c0cd-4828-8b03-acb3dcb4f719","system_id":"levelo_inurba_marseille","lat":43.2993,"lon":5.36549,"is_reserved":false,"is_disabled":false,"rental_uris":{"android":"levelo://app?vid=61bfcb73-c0cd-4828-8b03-acb3dcb4f719","ios":"levelo://app?vid=61bfcb73-c0cd-4828-8b03-acb3dcb4f719"},"vehicle_type_id":"4","last_reported":1743923304,"current_range_meters":3200,"station_id":"ce4bgm92rcd13ifvqbr0","pricing_plan_id":"cebpf4jnsgd1na2vs0mg"},{"bike_id":"11101b03-02c0-4bb4-a9dc-326497f91f4e","system_id":"levelo_inurba_marseille","lat":43.29254,"lon":5.40924,"is_reserved":false,"is_disabled":true,"rental_uris":{"android":"levelo://app?vid=11101b03-02c0-4bb4-a9dc-326497f91f4e","ios":"levelo://app?vid=11101b03-02c0-4bb4-a9dc-326497f91f4e"},"vehicle_type_id":"4","last_reported":1743923304,"current_range_meters":3200,"station_id":"ce4bh192rcd13ifvqdc0","pricing_plan_id":"cebpf4jnsgd1na2vs0mg"},{"bike_id":"b9d0d0fb-3f73-4eff-ae31-f14816619c3c","system_id":"levelo_inurba_marseille","lat":43.29549,"lon":5.37536,"is_reserved":false,"is_disabled":false,"rental_uris":{"android":"levelo://app?vid=b9d0d0fb-3f73-4eff-ae31-f14816619c3c","ios":"levelo://app?vid=b9d0d0fb-3f73-4eff-ae31-f14816619c3c"},"vehicle_type_id":"4","last_reported":1743923304,"current_range_meters":3200,"station_id":"ce4bgh92rcd13ifvqb50","pricing_plan_id":"cebpf4jnsgd1na2vs0mg"},{"bike_id":"67bfd585-c195-4c9f-97cc-5e77c96701dd","system_id":"levelo_inurba_marseille","lat":43.30432,"lon":5.39783,"is_reserved":false,"is_disabled":false,"rental_uris":{"android":"levelo://app?vid=67bfd585-c195-4c9f-97cc-5e77c96701dd","ios":"levelo://app?vid=67bfd585-c195-4c9f-97cc-5e77c96701dd"},"vehicle_type_id":"4","last_reported":1743923304,"current_range_meters":3200,"station_id":"ce4bh092rcd13ifvqd20","pricing_plan_id":"cebpf4jnsgd1na2vs0mg"},{"bike_id":"c73a85e2-fb2d-4d21-bea0-c717ffa7bb89","system_id":"levelo_inurba_marseille","lat":43.304543,"lon":5.367192,"is_reserved":false,"is_disabled":true,"rental_uris":{"android":"levelo://app?vid=c73a85e2-fb2d-4d21-bea0-c717ffa7bb89","ios":"levelo://app?vid=c73a85e2-fb2d-4d21-bea0-c717ffa7bb89"},"vehicle_type_id":"4","last_reported":1743923304,"current_range_meters":3600,"station_id":"","pricing_plan_id":"cebpf4jnsgd1na2vs0mg"},{"bike_id":"050a0ea3-f288-4335-82d4-1c0a70d44252","system_id":"levelo_inurba_marseille","lat":43.29562,"lon":5.37346,"is_reserved":false,"is_disabled":false,"rental_uris":{"android":"levelo://app?vid=050a0ea3-f288-4335-82d4-1c0a70d44252","ios":"levelo://app?vid=050a0ea3-f288-4335-82d4-1c0a70d44252"},"vehicle_type_id":"4","last_reported":1743923304,"current_range_meters":3600,"station_id":"","pricing_plan_id":"cebpf4jnsgd1na2vs0mg"},{"bike_id":"5efe9cf5-fb5a-4786-bc38-85dab11e064a","system_id":"levelo_inurba_marseille","lat":43.29047,"lon":5.39952,"is_reserved":false,"is_disabled":false,"rental_uris":{"android":"levelo://app?vid=5efe9cf5-fb5a-4786-bc38-85dab11e064a","ios":"levelo://app?vid=5efe9cf5-fb5a-4786-bc38-85dab11e064a"},"vehicle_type_id":"4","last_reported":1743923304,"current_range_meters":3600,"station_id":"ce4bh392rcd13ifvqdm0","pricing_plan_id":"cebpf4jnsgd1na2vs0mg"},{"bike_id":"dc7e3549-ceba-4c23-bcc5-f429c3b0f5d7","system_id":"levelo_inurba_marseille","lat":43.28424,"lon":5.37537,"is_reserved":false,"is_disabled":false,"rental_uris":{"android":"levelo://app?vid=dc7e3549-ceba-4c23-bcc5-f429c3b0f5d7","ios":"levelo://app?vid=dc7e3549-ceba-4c23-bcc5-f429c3b0f5d7"},"vehicle_type_id":"4","last_reported":1743923304,"current_range_meters":3600,"station_id":"ce4bh412rcd13ifvqds0","pricing_plan_id":"cebpf4jnsgd1na2vs0mg"},{"bike_id":"95ebc31d-ba2c-4855-9413-141191b5e202","system_id":"levelo_inurba_marseille","lat":43.29225,"lon":5.40144,"is_reserved":false,"is_disabled":true,"rental_uris":{"android":"levelo://app?vid=95ebc31d-ba2c-4855-9413-141191b5e202","ios":"levelo://app?vid=95ebc31d-ba2c-4855-9413-141191b5e202"},"vehicle_type_id":"4","last_reported":1743923304,"current_range_meters":3600,"station_id":"","pricing_plan_id":"cebpf4jnsgd1na2vs0mg"},{"bike_id":"de50bbab-1368-4da3-a92a-1e482f1dcc12","system_id":"levelo_inurba_marseille","lat":43.29071,"lon":5.37167,"is_reserved":false,"is_disabled":false,"rental_uris":{"android":"levelo://app?vid=de50bbab-1368-4da3-a92a-1e482f1dcc12","ios":"levelo://app?vid=de50bbab-1368-4da3-a92a-1e482f1dcc12"},"vehicle_type_id":"4","last_reported":1743923304,"current_range_meters":4000,"station_id":"ce4bh5p2rcd13ifvqe4g","pricing_plan_id":"cebpf4jnsgd1na2vs0mg"},{"bike_id":"ca519737-f34f-4e55-baab-dc89f354b8df","system_id":"levelo_inurba_marseille","lat":43.30333,"lon":5.4044,"is_reserved":false,"is_disabled":false,"rental_uris":{"android":"levelo://app?vid=ca519737-f34f-4e55-baab-dc89f354b8df","ios":"levelo://app?vid=ca519737-f34f-4e55-baab-dc89f354b8df"},"vehicle_type_id":"4","last_reported":1743923304,"current_range_meters":4000,"station_id":"ce4bh012rcd13ifvqd10","pricing_plan_id":"cebpf4jnsgd1na2vs0mg"},{"bike_id":"35802c94-dcea-47c0-9738-22d2b64af0d8","system_id":"levelo_inurba_marseille","lat":43.30471,"lon":5.37914,"is_reserved":false,"is_disabled":false,"rental_uris":{"android":"levelo://app?vid=35802c94-dcea-47c0-9738-22d2b64af0d8","ios":"levelo://app?vid=35802c94-dcea-47c0-9738-22d2b64af0d8"},"vehicle_type_id":"4","last_reported":1743923304,"current_range_meters":4000,"station_id":"ce4bgup2rcd13ifvqcn0","pricing_plan_id":"cebpf4jnsgd1na2vs0mg"},{"bike_id":"e7b956ce-2ab2-4301-8fd3-6312d753e8f6","system_id":"levelo_inurba_marseille","lat":43.246602,"lon":5.381602,"is_reserved":false,"is_disabled":true,"rental_uris":{"android":"levelo://app?vid=e7b956ce-2ab2-4301-8fd3-6312d753e8f6","ios":"levelo://app?vid=e7b956ce-2ab2-4301-8fd3-6312d753e8f6"},"vehicle_type_id":"4","last_reported":1743923304,"current_range_meters":4400,"station_id":"ce4bhih2rcd13ifvqfr0","pricing_plan_id":"cebpf4jnsgd1na2vs0mg"},{"bike_id":"f2ba4e92-b310-4f87-a303-db5396c4b8d8","system_id":"levelo_inurba_marseille","lat":43.29221,"lon":5.36067,"is_reserved":false,"is_disabled":false,"rental_uris":{"android":"levelo://app?vid=f2ba4e92-b310-4f87-a303-db5396c4b8d8","ios":"levelo://app?vid=f2ba4e92-b310-4f87-a303-db5396c4b8d8"},"vehicle_type_id":"4","last_reported":1743923304,"current_range_meters":4400,"station_id":"ce4bhbh2rcd13ifvqeqg","pricing_plan_id":"cebpf4jnsgd1na2vs0mg"},{"bike_id":"9a15121a-5462-466d-985c-935e6e5e6b97","system_id":"levelo_inurba_marseille","lat":43.30269,"lon":5.40072,"is_reserved":false,"is_disabled":false,"rental_uris":{"android":"levelo://app?vid=9a15121a-5462-466d-985c-935e6e5e6b97","ios":"levelo://app?vid=9a15121a-5462-466d-985c-935e6e5e6b97"},"vehicle_type_id":"4","last_reported":1743923304,"current_range_meters":4400,"station_id":"ce4bgvh2rcd13ifvqcs0","pricing_plan_id":"cebpf4jnsgd1na2vs0mg"},{"bike_id":"5614d6af-81a9-4eab-baa0-11cb296b8c59","system_id":"levelo_inurba_marseille","lat":43.29933,"lon":5.36539,"is_reserved":false,"is_disabled":false,"rental_uris":{"android":"levelo://app?vid=5614d6af-81a9-4eab-baa0-11cb296b8c59","ios":"levelo://app?vid=5614d6af-81a9-4eab-baa0-11cb296b8c59"},"vehicle_type_id":"4","last_reported":1743923304,"current_range_meters":4400,"station_id":"ce4bgm92rcd13ifvqbr0","pricing_plan_id":"cebpf4jnsgd1na2vs0mg"},{"bike_id":"8cf93f1a-21d3-4b84-9166-913f31dc184e","system_id":"levelo_inurba_marseille","lat":43.28489,"lon":5.38557,"is_reserved":false,"is_disabled":false,"rental_uris":{"android":"levelo://app?vid=8cf93f1a-21d3-4b84-9166-913f31dc184e","ios":"levelo://app?vid=8cf93f1a-21d3-4b84-9166-913f31dc184e"},"vehicle_type_id":"4","last_reported":1743923304,"current_range_meters":4400,"station_id":"ce4bh8p2rcd13ifvqeb0","pricing_plan_id":"cebpf4jnsgd1na2vs0mg"},{"bike_id":"91c1edaf-977d-4632-affd-dc0004bc3721","system_id":"levelo_inurba_marseille","lat":43.27911,"lon":5.39631,"is_reserved":false,"is_disabled":false,"rental_uris":{"android":"levelo://app?vid=91c1edaf-977d-4632-affd-dc0004bc3721","ios":"levelo://app?vid=91c1edaf-977d-4632-affd-dc0004bc3721"},"vehicle_type_id":"4","last_reported":1743923304,"current_range_meters":4800,"station_id":"ce4bhf92rcd13ifvqf40","pricing_plan_id":"cebpf4jnsgd1na2vs0mg"},{"bike_id":"05736583-a4df-4140-bff4-80483d983a4a","system_id":"levelo_inurba_marseille","lat":43.30057,"lon":5.39974,"is_reserved":false,"is_disabled":false,"rental_uris":{"android":"levelo://app?vid=05736583-a4df-4140-bff4-80483d983a4a","ios":"levelo://app?vid=05736583-a4df-4140-bff4-80483d983a4a"},"vehicle_type_id":"4","last_reported":1743923304,"current_range_meters":4800,"station_id":"","pricing_plan_id":"cebpf4jnsgd1na2vs0mg"},{"bike_id":"572f2e81-c7d2-437d-b511-65ca6db6c5e3","system_id":"levelo_inurba_marseille","lat":43.29227,"lon":5.36072,"is_reserved":false,"is_disabled":false,"rental_uris":{"android":"levelo://app?vid=572f2e81-c7d2-437d-b511-65ca6db6c5e3","ios":"levelo://app?vid=572f2e81-c7d2-437d-b511-65ca6db6c5e3"},"vehicle_type_id":"4","last_reported":1743923304,"current_range_meters":4800,"station_id":"ce4bhbh2rcd13ifvqeqg","pricing_plan_id":"cebpf4jnsgd1na2vs0mg"},{"bike_id":"6c6d4a54-f7f8-4fcb-9518-22e12af63f19","system_id":"levelo_inurba_marseille","lat":43.258264,"lon":5.394406,"is_reserved":false,"is_disabled":false,"rental_uris":{"android":"levelo://app?vid=6c6d4a54-f7f8-4fcb-9518-22e12af63f19","ios":"levelo://app?vid=6c6d4a54-f7f8-4fcb-9518-22e12af63f19"},"vehicle_type_id":"4","last_reported":1743923304,"current_range_meters":4800,"station_id":"ce4bhip2rcd13ifvqft0","pricing_plan_id":"cebpf4jnsgd1na2vs0mg"},{"bike_id":"8fa92ff1-c2cb-4fa2-b3ce-e14c12ce1bf4","system_id":"levelo_inurba_marseille","lat":43.28187,"lon":5.42691,"is_reserved":false,"is_disabled":false,"rental_uris":{"android":"levelo://app?vid=8fa92ff1-c2cb-4fa2-b3ce-e14c12ce1bf4","ios":"levelo://app?vid=8fa92ff1-c2cb-4fa2-b3ce-e14c12ce1bf4"},"vehicle_type_id":"4","last_reported":1743923304,"current_range_meters":5600,"station_id":"ce4bhnh2rcd13ifvqgug","pricing_plan_id":"cebpf4jnsgd1na2vs0mg"},{"bike_id":"9fe929f7-d7ac-4455-876f-ab3d27792e39","system_id":"levelo_inurba_marseille","lat":43.29848,"lon":5.36279,"is_reserved":false,"is_disabled":false,"rental_uris":{"android":"levelo://app?vid=9fe929f7-d7ac-4455-876f-ab3d27792e39","ios":"levelo://app?vid=9fe929f7-d7ac-4455-876f-ab3d27792e39"},"vehicle_type_id":"4","last_reported":1743923304,"current_range_meters":5600,"station_id":"ce4bgpp2rcd13ifvqc3g","pricing_plan_id":"cebpf4jnsgd1na2vs0mg"},{"bike_id":"c129ecbc-fa81-4169-8f04-cc6466a8fd4b","system_id":"levelo_inurba_marseille","lat":43.29582,"lon":5.4228,"is_reserved":false,"is_disabled":false,"rental_uris":{"android":"levelo://app?vid=c129ecbc-fa81-4169-8f04-cc6466a8fd4b","ios":"levelo://app?vid=c129ecbc-fa81-4169-8f04-cc6466a8fd4b"},"vehicle_type_id":"4","last_reported":1743923304,"current_range_meters":5600,"station_id":"ce4bhph2rcd13ifvqhdg","pricing_plan_id":"cebpf4jnsgd1na2vs0mg"},{"bike_id":"b71a90bd-6f85-4770-a515-2d0fa5402a88","system_id":"levelo_inurba_marseille","lat":43.309925,"lon":5.379376,"is_reserved":false,"is_disabled":false,"rental_uris":{"android":"levelo://app?vid=b71a90bd-6f85-4770-a515-2d0fa5402a88","ios":"levelo://app?vid=b71a90bd-6f85-4770-a515-2d0fa5402a88"},"vehicle_type_id":"4","last_reported":1743923304,"current_range_meters":5600,"station_id":"","pricing_plan_id":"cebpf4jnsgd1na2vs0mg"},{"bike_id":"feb6e46c-3fb2-45a9-a2fb-22ac62feb505","system_id":"levelo_inurba_marseille","lat":43.23066,"lon":5.35494,"is_reserved":false,"is_disabled":true,"rental_uris":{"android":"levelo://app?vid=feb6e46c-3fb2-45a9-a2fb-22ac62feb505","ios":"levelo://app?vid=feb6e46c-3fb2-45a9-a2fb-22ac62feb505"},"vehicle_type_id":"4","last_reported":1743923304,"current_range_meters":5600,"station_id":"cpo3342slgdg3j2ifvpg","pricing_plan_id":"cebpf4jnsgd1na2vs0mg"},{"bike_id":"ef009f38-91b4-4e7c-abfc-5709f7733f8d","system_id":"levelo_inurba_marseille","lat":43.28479,"lon":5.38424,"is_reserved":false,"is_disabled":false,"rental_uris":{"android":"levelo://app?vid=ef009f38-91b4-4e7c-abfc-5709f7733f8d","ios":"levelo://app?vid=ef009f38-91b4-4e7c-abfc-5709f7733f8d"},"vehicle_type_id":"4","last_reported":1743923304,"current_range_meters":5600,"station_id":"ce4bh512rcd13ifvqe3g","pricing_plan_id":"cebpf4jnsgd1na2vs0mg"},{"bike_id":"bd54f12c-f305-4b70-959a-6e93476b2909","system_id":"levelo_inurba_marseille","lat":43.30251,"lon":5.40084,"is_reserved":false,"is_disabled":false,"rental_uris":{"android":"levelo://app?vid=bd54f12c-f305-4b70-959a-6e93476b2909","ios":"levelo://app?vid=bd54f12c-f305-4b70-959a-6e93476b2909"},"vehicle_type_id":"4","last_reported":1743923304,"current_range_meters":6000,"station_id":"ce4bgvh2rcd13ifvqcs0","pricing_plan_id":"cebpf4jnsgd1na2vs0mg"},{"bike_id":"9a36e749-313f-43fc-ac90-b52b5015306e","system_id":"levelo_inurba_marseille","lat":43.2119,"lon":5.3508,"is_reserved":false,"is_disabled":false,"rental_uris":{"android":"levelo://app?vid=9a36e749-313f-43fc-ac90-b52b5015306e","ios":"levelo://app?vid=9a36e749-313f-43fc-ac90-b52b5015306e"},"vehicle_type_id":"4","last_reported":1743923304,"current_range_meters":6000,"station_id":"st_cvj6sg6p6f1abm77japg","pricing_plan_id":"cebpf4jnsgd1na2vs0mg"},{"bike_id":"0677b4a4-fe6b-4c92-b1df-eab4f7b98b71","system_id":"levelo_inurba_marseille","lat":43.27376,"lon":5.36259,"is_reserved":false,"is_disabled":false,"rental_uris":{"android":"levelo://app?vid=0677b4a4-fe6b-4c92-b1df-eab4f7b98b71","ios":"levelo://app?vid=0677b4a4-fe6b-4c92-b1df-eab4f7b98b71"},"vehicle_type_id":"4","last_reported":1743923304,"current_range_meters":6000,"station_id":"ce4bhbh2rcd13ifvqeo0","pricing_plan_id":"cebpf4jnsgd1na2vs0mg"},{"bike_id":"003ce78a-c7cd-47d7-b553-fc8d462e3bcf","system_id":"levelo_inurba_marseille","lat":43.279352,"lon":5.410486,"is_reserved":false,"is_disabled":false,"rental_uris":{"android":"levelo://app?vid=003ce78a-c7cd-47d7-b553-fc8d462e3bcf","ios":"levelo://app?vid=003ce78a-c7cd-47d7-b553-fc8d462e3bcf"},"vehicle_type_id":"4","last_reported":1743923304,"current_range_meters":5600,"station_id":"ce4bh512rcd13ifvqe3g","pricing_plan_id":"cebpf4jnsgd1na2vs0mg"},{"bike_id":"0868e417-7cc5-4742-b16e-4407ef2bf098","system_id":"levelo_inurba_marseille","lat":43.30584,"lon":5.37208,"is_reserved":false,"is_disabled":false,"rental_uris":{"android":"levelo://app?vid=0868e417-7cc5-4742-b16e-4407ef2bf098","ios":"levelo://app?vid=0868e417-7cc5-4742-b16e-4407ef2bf098"},"vehicle_type_id":"4","last_reported":1743923304,"current_range_meters":6000,"station_id":"ce4bgqh2rcd13ifvqc4g","pricing_plan_id":"cebpf4jnsgd1na2vs0mg"},{"bike_id":"aee5ad9a-f0e6-4325-aab2-0d740c441f15","system_id":"levelo_inurba_marseille","lat":43.28718,"lon":5.4,"is_reserved":false,"is_disabled":false,"rental_uris":{"android":"levelo://app?vid=aee5ad9a-f0e6-4325-aab2-0d740c441f15","ios":"levelo://app?vid=aee5ad9a-f0e6-4325-aab2-0d740c441f15"},"vehicle_type_id":"4","last_reported":1743923304,"current_range_meters":6000,"station_id":"ce4bho92rcd13ifvqh3g","pricing_plan_id":"cebpf4jnsgd1na2vs0mg"},{"bike_id":"9044b5d5-411e-4627-808d-d3699de6427c","system_id":"levelo_inurba_marseille","lat":43.30485,"lon":5.379,"is_reserved":false,"is_disabled":false,"rental_uris":{"android":"levelo://app?vid=9044b5d5-411e-4627-808d-d3699de6427c","ios":"levelo://app?vid=9044b5d5-411e-4627-808d-d3699de6427c"},"vehicle_type_id":"4","last_reported":1743923304,"current_range_meters":6400,"station_id":"ce4bgup2rcd13ifvqcn0","pricing_plan_id":"cebpf4jnsgd1na2vs0mg"},{"bike_id":"fb0d4993-67fa-4314-9525-ef2ba9197c72","system_id":"levelo_inurba_marseille","lat":43.30321,"lon":5.4059,"is_reserved":false,"is_disabled":false,"rental_uris":{"android":"levelo://app?vid=fb0d4993-67fa-4314-9525-ef2ba9197c72","ios":"levelo://app?vid=fb0d4993-67fa-4314-9525-ef2ba9197c72"},"vehicle_type_id":"4","last_reported":1743923304,"current_range_meters":6400,"station_id":"","pricing_plan_id":"cebpf4jnsgd1na2vs0mg"},{"bike_id":"b58ad8a0-c08d-46b4-aa19-7fbb9bd04d04","system_id":"levelo_inurba_marseille","lat":43.3032,"lon":5.40466,"is_reserved":false,"is_disabled":false,"rental_uris":{"android":"levelo://app?vid=b58ad8a0-c08d-46b4-aa19-7fbb9bd04d04","ios":"levelo://app?vid=b58ad8a0-c08d-46b4-aa19-7fbb9bd04d04"},"vehicle_type_id":"4","last_reported":1743923304,"current_range_meters":6800,"station_id":"ce4bh012rcd13ifvqd10","pricing_plan_id":"cebpf4jnsgd1na2vs0mg"},{"bike_id":"da2c0523-95d2-4536-9674-1400e7cb2212","system_id":"levelo_inurba_marseille","lat":43.24179,"lon":5.39726,"is_reserved":false,"is_disabled":false,"rental_uris":{"android":"levelo://app?vid=da2c0523-95d2-4536-9674-1400e7cb2212","ios":"levelo://app?vid=da2c0523-95d2-4536-9674-1400e7cb2212"},"vehicle_type_id":"4","last_reported":1743923304,"current_range_meters":6800,"station_id":"ce4bhn12rcd13ifvqgpg","pricing_plan_id":"cebpf4jnsgd1na2vs0mg"},{"bike_id":"ac7a85da-6a1d-42f4-b3e0-decaec458451","system_id":"levelo_inurba_marseille","lat":43.22929,"lon":5.35377,"is_reserved":false,"is_disabled":true,"rental_uris":{"android":"levelo://app?vid=ac7a85da-6a1d-42f4-b3e0-decaec458451","ios":"levelo://app?vid=ac7a85da-6a1d-42f4-b3e0-decaec458451"},"vehicle_type_id":"4","last_reported":1743923304,"current_range_meters":6800,"station_id":"cpo3532slgdg3j2ikp40","pricing_plan_id":"cebpf4jnsgd1na2vs0mg"},{"bike_id":"7b67800d-f82f-4a84-a388-fe0fb5c5cf2e","system_id":"levelo_inurba_marseille","lat":43.30431,"lon":5.39761,"is_reserved":false,"is_disabled":false,"rental_uris":{"android":"levelo://app?vid=7b67800d-f82f-4a84-a388-fe0fb5c5cf2e","ios":"levelo://app?vid=7b67800d-f82f-4a84-a388-fe0fb5c5cf2e"},"vehicle_type_id":"4","last_reported":1743923304,"current_range_meters":6800,"station_id":"ce4bh092rcd13ifvqd20","pricing_plan_id":"cebpf4jnsgd1na2vs0mg"},{"bike_id":"8e8105ce-63e2-4441-9ebe-d6a09a08a22e","system_id":"levelo_inurba_marseille","lat":43.29668,"lon":5.36204,"is_reserved":false,"is_disabled":false,"rental_uris":{"android":"levelo://app?vid=8e8105ce-63e2-4441-9ebe-d6a09a08a22e","ios":"levelo://app?vid=8e8105ce-63e2-4441-9ebe-d6a09a08a22e"},"vehicle_type_id":"4","last_reported":1743923304,"current_range_meters":6800,"station_id":"","pricing_plan_id":"cebpf4jnsgd1na2vs0mg"},{"bike_id":"ec737ef1-235a-4860-8285-7bf3399b334b","system_id":"levelo_inurba_marseille","lat":43.29784,"lon":5.39345,"is_reserved":false,"is_disabled":false,"rental_uris":{"android":"levelo://app?vid=ec737ef1-235a-4860-8285-7bf3399b334b","ios":"levelo://app?vid=ec737ef1-235a-4860-8285-7bf3399b334b"},"vehicle_type_id":"4","last_reported":1743923304,"current_range_meters":6400,"station_id":"chh1huq6cuj3fo74tm60","pricing_plan_id":"cebpf4jnsgd1na2vs0mg"},{"bike_id":"820e00b9-22a9-4c8a-884d-a6d5542f1894","system_id":"levelo_inurba_marseille","lat":43.26804,"lon":5.402627,"is_reserved":false,"is_disabled":false,"rental_uris":{"android":"levelo://app?vid=820e00b9-22a9-4c8a-884d-a6d5542f1894","ios":"levelo://app?vid=820e00b9-22a9-4c8a-884d-a6d5542f1894"},"vehicle_type_id":"4","last_reported":1743923304,"current_range_meters":6800,"station_id":"ce501612rcd8frsf0b60","pricing_plan_id":"cebpf4jnsgd1na2vs0mg"},{"bike_id":"86950742-2a83-439a-b6d7-c0601bd4f799","system_id":"levelo_inurba_marseille","lat":43.280325,"lon":5.369439,"is_reserved":false,"is_disabled":false,"rental_uris":{"android":"levelo://app?vid=86950742-2a83-439a-b6d7-c0601bd4f799","ios":"levelo://app?vid=86950742-2a83-439a-b6d7-c0601bd4f799"},"vehicle_type_id":"4","last_reported":1743923304,"current_range_meters":6800,"station_id":"ce4bha12rcd13ifvqef0","pricing_plan_id":"cebpf4jnsgd1na2vs0mg"},{"bike_id":"d5e984d3-343e-4e16-bd54-bc3ebbd48639","system_id":"levelo_inurba_marseille","lat":43.30132,"lon":5.3879,"is_reserved":false,"is_disabled":true,"rental_uris":{"android":"levelo://app?vid=d5e984d3-343e-4e16-bd54-bc3ebbd48639","ios":"levelo://app?vid=d5e984d3-343e-4e16-bd54-bc3ebbd48639"},"vehicle_type_id":"4","last_reported":1743923304,"current_range_meters":7200,"station_id":"ce4bghh2rcd13ifvqb60","pricing_plan_id":"cebpf4jnsgd1na2vs0mg"},{"bike_id":"fb7a6658-65a4-4af9-acc1-679ce624548f","system_id":"levelo_inurba_marseille","lat":43.26227,"lon":5.40461,"is_reserved":false,"is_disabled":false,"rental_uris":{"android":"levelo://app?vid=fb7a6658-65a4-4af9-acc1-679ce624548f","ios":"levelo://app?vid=fb7a6658-65a4-4af9-acc1-679ce624548f"},"vehicle_type_id":"4","last_reported":1743923304,"current_range_meters":7200,"station_id":"ce4bhmh2rcd13ifvqgmg","pricing_plan_id":"cebpf4jnsgd1na2vs0mg"},{"bike_id":"eb79d1f9-7c91-4ea2-b5f8-796189743e1a","system_id":"levelo_inurba_marseille","lat":43.33738,"lon":5.39186,"is_reserved":false,"is_disabled":false,"rental_uris":{"android":"levelo://app?vid=eb79d1f9-7c91-4ea2-b5f8-796189743e1a","ios":"levelo://app?vid=eb79d1f9-7c91-4ea2-b5f8-796189743e1a"},"vehicle_type_id":"4","last_reported":1743923304,"current_range_meters":7200,"station_id":"ce4bhr92rcd13ifvqhsg","pricing_plan_id":"cebpf4jnsgd1na2vs0mg"},{"bike_id":"597e3cb0-7bf1-4c5c-814c-bff699977597","system_id":"levelo_inurba_marseille","lat":43.33155,"lon":5.38184,"is_reserved":false,"is_disabled":false,"rental_uris":{"android":"levelo://app?vid=597e3cb0-7bf1-4c5c-814c-bff699977597","ios":"levelo://app?vid=597e3cb0-7bf1-4c5c-814c-bff699977597"},"vehicle_type_id":"4","last_reported":1743923304,"current_range_meters":7200,"station_id":"","pricing_plan_id":"cebpf4jnsgd1na2vs0mg"},{"bike_id":"98514e77-22f5-4e2b-9f65-8efc32d06320","system_id":"levelo_inurba_marseille","lat":43.25098,"lon":5.40332,"is_reserved":false,"is_disabled":false,"rental_uris":{"android":"levelo://app?vid=98514e77-22f5-4e2b-9f65-8efc32d06320","ios":"levelo://app?vid=98514e77-22f5-4e2b-9f65-8efc32d06320"},"vehicle_type_id":"4","last_reported":1743923304,"current_range_meters":7200,"station_id":"ce4bhlh2rcd13ifvqgig","pricing_plan_id":"cebpf4jnsgd1na2vs0mg"},{"bike_id":"b5f7c507-44db-40d3-a7d0-d8cd7fd3f572","system_id":"levelo_inurba_marseille","lat":43.28702,"lon":5.39988,"is_reserved":false,"is_disabled":false,"rental_uris":{"android":"levelo://app?vid=b5f7c507-44db-40d3-a7d0-d8cd7fd3f572","ios":"levelo://app?vid=b5f7c507-44db-40d3-a7d0-d8cd7fd3f572"},"vehicle_type_id":"4","last_reported":1743923304,"current_range_meters":7200,"station_id":"ce4bho92rcd13ifvqh3g","pricing_plan_id":"cebpf4jnsgd1na2vs0mg"},{"bike_id":"c396281f-6ab5-4c50-b6bd-e00814ced58c","system_id":"levelo_inurba_marseille","lat":43.28928,"lon":5.38384,"is_reserved":false,"is_disabled":false,"rental_uris":{"android":"levelo://app?vid=c396281f-6ab5-4c50-b6bd-e00814ced58c","ios":"levelo://app?vid=c396281f-6ab5-4c50-b6bd-e00814ced58c"},"vehicle_type_id":"4","last_reported":1743923304,"current_range_meters":7200,"station_id":"ce4bh612rcd13ifvqe6g","pricing_plan_id":"cebpf4jnsgd1na2vs0mg"},{"bike_id":"4990bd67-7676-4289-813c-d374d8ff72c1","system_id":"levelo_inurba_marseille","lat":43.27945,"lon":5.41066,"is_reserved":false,"is_disabled":false,"rental_uris":{"android":"levelo://app?vid=4990bd67-7676-4289-813c-d374d8ff72c1","ios":"levelo://app?vid=4990bd67-7676-4289-813c-d374d8ff72c1"},"vehicle_type_id":"4","last_reported":1743923304,"current_range_meters":7200,"station_id":"ce4bhnp2rcd13ifvqh0g","pricing_plan_id":"cebpf4jnsgd1na2vs0mg"},{"bike_id":"d144cdeb-94c3-4a1d-92d5-9d5462e2a94e","system_id":"levelo_inurba_marseille","lat":43.28014,"lon":5.36946,"is_reserved":false,"is_disabled":false,"rental_uris":{"android":"levelo://app?vid=d144cdeb-94c3-4a1d-92d5-9d5462e2a94e","ios":"levelo://app?vid=d144cdeb-94c3-4a1d-92d5-9d5462e2a94e"},"vehicle_type_id":"4","last_reported":1743923304,"current_range_meters":7200,"station_id":"ce4bha12rcd13ifvqef0","pricing_plan_id":"cebpf4jnsgd1na2vs0mg"},{"bike_id":"eddfbc23-c525-4ea0-b8f1-9871cc156723","system_id":"levelo_inurba_marseille","lat":43.29217,"lon":5.40176,"is_reserved":false,"is_disabled":false,"rental_uris":{"android":"levelo://app?vid=eddfbc23-c525-4ea0-b8f1-9871cc156723","ios":"levelo://app?vid=eddfbc23-c525-4ea0-b8f1-9871cc156723"},"vehicle_type_id":"4","last_reported":1743923304,"current_range_meters":8000,"station_id":"ce4bh0h2rcd13ifvqd60","pricing_plan_id":"cebpf4jnsgd1na2vs0mg"},{"bike_id":"9378cab7-1ef7-47d6-af28-c6473192be1a","system_id":"levelo_inurba_marseille","lat":43.31185,"lon":5.40768,"is_reserved":false,"is_disabled":false,"rental_uris":{"android":"levelo://app?vid=9378cab7-1ef7-47d6-af28-c6473192be1a","ios":"levelo://app?vid=9378cab7-1ef7-47d6-af28-c6473192be1a"},"vehicle_type_id":"4","last_reported":1743923304,"current_range_meters":8000,"station_id":"","pricing_plan_id":"cebpf4jnsgd1na2vs0mg"},{"bike_id":"19e5e026-6d23-4689-a279-bec1f0dfe8ef","system_id":"levelo_inurba_marseille","lat":43.22946,"lon":5.3539,"is_reserved":false,"is_disabled":false,"rental_uris":{"android":"levelo://app?vid=19e5e026-6d23-4689-a279-bec1f0dfe8ef","ios":"levelo://app?vid=19e5e026-6d23-4689-a279-bec1f0dfe8ef"},"vehicle_type_id":"4","last_reported":1743923304,"current_range_meters":8000,"station_id":"cpo3532slgdg3j2ikp40","pricing_plan_id":"cebpf4jnsgd1na2vs0mg"},{"bike_id":"a096c797-45ca-4515-b98f-02b52a525d4e","system_id":"levelo_inurba_marseille","lat":43.29577,"lon":5.37509,"is_reserved":false,"is_disabled":false,"rental_uris":{"android":"levelo://app?vid=a096c797-45ca-4515-b98f-02b52a525d4e","ios":"levelo://app?vid=a096c797-45ca-4515-b98f-02b52a525d4e"},"vehicle_type_id":"4","last_reported":1743923304,"current_range_meters":8000,"station_id":"ce4bgh92rcd13ifvqb50","pricing_plan_id":"cebpf4jnsgd1na2vs0mg"},{"bike_id":"1e72d3fb-accb-4636-a1fd-813f0b952e02","system_id":"levelo_inurba_marseille","lat":43.308869,"lon":5.396412,"is_reserved":false,"is_disabled":false,"rental_uris":{"android":"levelo://app?vid=1e72d3fb-accb-4636-a1fd-813f0b952e02","ios":"levelo://app?vid=1e72d3fb-accb-4636-a1fd-813f0b952e02"},"vehicle_type_id":"4","last_reported":1743923304,"current_range_meters":8000,"station_id":"ce4bh012rcd13ifvqcv0","pricing_plan_id":"cebpf4jnsgd1na2vs0mg"},{"bike_id":"d0a10f6f-b535-48bd-8067-86f19477a3ea","system_id":"levelo_inurba_marseille","lat":43.2465,"lon":5.38897,"is_reserved":false,"is_disabled":false,"rental_uris":{"android":"levelo://app?vid=d0a10f6f-b535-48bd-8067-86f19477a3ea","ios":"levelo://app?vid=d0a10f6f-b535-48bd-8067-86f19477a3ea"},"vehicle_type_id":"4","last_reported":1743923304,"current_range_meters":8000,"station_id":"ce4bhg12rcd13ifvqf60","pricing_plan_id":"cebpf4jnsgd1na2vs0mg"},{"bike_id":"f825fa0b-561d-4b58-a029-a279b1a7e45d","system_id":"levelo_inurba_marseille","lat":43.31072,"lon":5.38372,"is_reserved":false,"is_disabled":false,"rental_uris":{"android":"levelo://app?vid=f825fa0b-561d-4b58-a029-a279b1a7e45d","ios":"levelo://app?vid=f825fa0b-561d-4b58-a029-a279b1a7e45d"},"vehicle_type_id":"4","last_reported":1743923304,"current_range_meters":8000,"station_id":"ce4bgv92rcd13ifvqcr0","pricing_plan_id":"cebpf4jnsgd1na2vs0mg"},{"bike_id":"da9c8c5a-aa54-4242-9f06-c4b2da0ddccb","system_id":"levelo_inurba_marseille","lat":43.27921,"lon":5.38025,"is_reserved":false,"is_disabled":false,"rental_uris":{"android":"levelo://app?vid=da9c8c5a-aa54-4242-9f06-c4b2da0ddccb","ios":"levelo://app?vid=da9c8c5a-aa54-4242-9f06-c4b2da0ddccb"},"vehicle_type_id":"4","last_reported":1743923304,"current_range_meters":8400,"station_id":"ce4bhf92rcd13ifvqf50","pricing_plan_id":"cebpf4jnsgd1na2vs0mg"},{"bike_id":"db29433a-c7f6-40d6-b0e1-3a1f0abf15ab","system_id":"levelo_inurba_marseille","lat":43.241712,"lon":5.364041,"is_reserved":false,"is_disabled":true,"rental_uris":{"android":"levelo://app?vid=db29433a-c7f6-40d6-b0e1-3a1f0abf15ab","ios":"levelo://app?vid=db29433a-c7f6-40d6-b0e1-3a1f0abf15ab"},"vehicle_type_id":"4","last_reported":1743923304,"current_range_meters":8400,"station_id":"ce4bh412rcd13ifvqdr0","pricing_plan_id":"cebpf4jnsgd1na2vs0mg"},{"bike_id":"fdfd01fc-093d-4c48-8c80-06fe1b4633e3","system_id":"levelo_inurba_marseille","lat":43.29256,"lon":5.384325,"is_reserved":false,"is_disabled":true,"rental_uris":{"android":"levelo://app?vid=fdfd01fc-093d-4c48-8c80-06fe1b4633e3","ios":"levelo://app?vid=fdfd01fc-093d-4c48-8c80-06fe1b4633e3"},"vehicle_type_id":"4","last_reported":1743923304,"current_range_meters":8400,"station_id":"ce4bh692rcd13ifvqea0","pricing_plan_id":"cebpf4jnsgd1na2vs0mg"},{"bike_id":"9d5e033b-05b5-411f-8f82-5b44142c931e","system_id":"levelo_inurba_marseille","lat":43.25817,"lon":5.39432,"is_reserved":false,"is_disabled":false,"rental_uris":{"android":"levelo://app?vid=9d5e033b-05b5-411f-8f82-5b44142c931e","ios":"levelo://app?vid=9d5e033b-05b5-411f-8f82-5b44142c931e"},"vehicle_type_id":"4","last_reported":1743923304,"current_range_meters":8400,"station_id":"ce4bhip2rcd13ifvqft0","pricing_plan_id":"cebpf4jnsgd1na2vs0mg"},{"bike_id":"267eeb16-6453-4fb7-8038-3b408a6bb427","system_id":"levelo_inurba_marseille","lat":43.314385,"lon":5.369917,"is_reserved":false,"is_disabled":false,"rental_uris":{"android":"levelo://app?vid=267eeb16-6453-4fb7-8038-3b408a6bb427","ios":"levelo://app?vid=267eeb16-6453-4fb7-8038-3b408a6bb427"},"vehicle_type_id":"4","last_reported":1743923304,"current_range_meters":8400,"station_id":"","pricing_plan_id":"cebpf4jnsgd1na2vs0mg"},{"bike_id":"66bd6e2d-3170-42d5-91d3-6f6cc114323c","system_id":"levelo_inurba_marseille","lat":43.287309,"lon":5.360801,"is_reserved":false,"is_disabled":false,"rental_uris":{"android":"levelo://app?vid=66bd6e2d-3170-42d5-91d3-6f6cc114323c","ios":"levelo://app?vid=66bd6e2d-3170-42d5-91d3-6f6cc114323c"},"vehicle_type_id":"4","last_reported":1743923304,"current_range_meters":8400,"station_id":"cki0cbj6b192h4jlfktg","pricing_plan_id":"cebpf4jnsgd1na2vs0mg"},{"bike_id":"b7a6d371-4cea-45c6-b168-85005dec8f56","system_id":"levelo_inurba_marseille","lat":43.313285,"lon":5.396943,"is_reserved":false,"is_disabled":false,"rental_uris":{"android":"levelo://app?vid=b7a6d371-4cea-45c6-b168-85005dec8f56","ios":"levelo://app?vid=b7a6d371-4cea-45c6-b168-85005dec8f56"},"vehicle_type_id":"4","last_reported":1743923304,"current_range_meters":8400,"station_id":"ce4bgvp2rcd13ifvqcu0","pricing_plan_id":"cebpf4jnsgd1na2vs0mg"},{"bike_id":"9246d8bb-4735-434f-b77a-a5133c8b0b74","system_id":"levelo_inurba_marseille","lat":43.29785,"lon":5.38099,"is_reserved":false,"is_disabled":true,"rental_uris":{"android":"levelo://app?vid=9246d8bb-4735-434f-b77a-a5133c8b0b74","ios":"levelo://app?vid=9246d8bb-4735-434f-b77a-a5133c8b0b74"},"vehicle_type_id":"4","last_reported":1743923304,"current_range_meters":8400,"station_id":"ce4bgip2rcd13ifvqbb0","pricing_plan_id":"cebpf4jnsgd1na2vs0mg"},{"bike_id":"1a3f6b3e-83e6-47c7-b945-212e231f4c7a","system_id":"levelo_inurba_marseille","lat":43.30594,"lon":5.39346,"is_reserved":false,"is_disabled":false,"rental_uris":{"android":"levelo://app?vid=1a3f6b3e-83e6-47c7-b945-212e231f4c7a","ios":"levelo://app?vid=1a3f6b3e-83e6-47c7-b945-212e231f4c7a"},"vehicle_type_id":"4","last_reported":1743923304,"current_range_meters":8400,"station_id":"ce4bh0p2rcd13ifvqd80","pricing_plan_id":"cebpf4jnsgd1na2vs0mg"},{"bike_id":"fdad6e5e-1467-4616-9d72-68b29d343e00","system_id":"levelo_inurba_marseille","lat":43.32289,"lon":5.38252,"is_reserved":false,"is_disabled":false,"rental_uris":{"android":"levelo://app?vid=fdad6e5e-1467-4616-9d72-68b29d343e00","ios":"levelo://app?vid=fdad6e5e-1467-4616-9d72-68b29d343e00"},"vehicle_type_id":"4","last_reported":1743923304,"current_range_meters":8400,"station_id":"ce4bhr12rcd13ifvqhqg","pricing_plan_id":"cebpf4jnsgd1na2vs0mg"},{"bike_id":"30b57730-cb66-4122-bd93-7dabcaba84e7","system_id":"levelo_inurba_marseille","lat":43.24883,"lon":5.40786,"is_reserved":false,"is_disabled":false,"rental_uris":{"android":"levelo://app?vid=30b57730-cb66-4122-bd93-7dabcaba84e7","ios":"levelo://app?vid=30b57730-cb66-4122-bd93-7dabcaba84e7"},"vehicle_type_id":"4","last_reported":1743923304,"current_range_meters":8400,"station_id":"","pricing_plan_id":"cebpf4jnsgd1na2vs0mg"},{"bike_id":"5519561e-6a78-4e38-8de4-84b7f76a38b0","system_id":"levelo_inurba_marseille","lat":43.30917,"lon":5.4018,"is_reserved":false,"is_disabled":true,"rental_uris":{"android":"levelo://app?vid=5519561e-6a78-4e38-8de4-84b7f76a38b0","ios":"levelo://app?vid=5519561e-6a78-4e38-8de4-84b7f76a38b0"},"vehicle_type_id":"4","last_reported":1743923304,"current_range_meters":8400,"station_id":"ce4bgvp2rcd13ifvqct0","pricing_plan_id":"cebpf4jnsgd1na2vs0mg"},{"bike_id":"45b4008f-54c1-4d17-8bbf-96f80d4fa84f","system_id":"levelo_inurba_marseille","lat":43.3211,"lon":5.36783,"is_reserved":false,"is_disabled":false,"rental_uris":{"android":"levelo://app?vid=45b4008f-54c1-4d17-8bbf-96f80d4fa84f","ios":"levelo://app?vid=45b4008f-54c1-4d17-8bbf-96f80d4fa84f"},"vehicle_type_id":"4","last_reported":1743923304,"current_range_meters":8400,"station_id":"ce4bhrh2rcd13ifvqhug","pricing_plan_id":"cebpf4jnsgd1na2vs0mg"},{"bike_id":"02779b29-7a5d-439e-936a-d77d08eab911","system_id":"levelo_inurba_marseille","lat":43.25001,"lon":5.38928,"is_reserved":false,"is_disabled":false,"rental_uris":{"android":"levelo://app?vid=02779b29-7a5d-439e-936a-d77d08eab911","ios":"levelo://app?vid=02779b29-7a5d-439e-936a-d77d08eab911"},"vehicle_type_id":"4","last_reported":1743923304,"current_range_meters":8400,"station_id":"ce4bhgp2rcd13ifvqfd0","pricing_plan_id":"cebpf4jnsgd1na2vs0mg"},{"bike_id":"4ac6dfb0-5fb3-41d5-9e83-0029602112f6","system_id":"levelo_inurba_marseille","lat":43.29738,"lon":5.36603,"is_reserved":false,"is_disabled":true,"rental_uris":{"android":"levelo://app?vid=4ac6dfb0-5fb3-41d5-9e83-0029602112f6","ios":"levelo://app?vid=4ac6dfb0-5fb3-41d5-9e83-0029602112f6"},"vehicle_type_id":"4","last_reported":1743923304,"current_range_meters":8800,"station_id":"ce4bgn12rcd13ifvqbt0","pricing_plan_id":"cebpf4jnsgd1na2vs0mg"},{"bike_id":"a6a4aada-4dec-4c66-9029-bd9ebff46b38","system_id":"levelo_inurba_marseille","lat":43.313289,"lon":5.396987,"is_reserved":false,"is_disabled":false,"rental_uris":{"android":"levelo://app?vid=a6a4aada-4dec-4c66-9029-bd9ebff46b38","ios":"levelo://app?vid=a6a4aada-4dec-4c66-9029-bd9ebff46b38"},"vehicle_type_id":"4","last_reported":1743923304,"current_range_meters":8800,"station_id":"ce4bgvp2rcd13ifvqcu0","pricing_plan_id":"cebpf4jnsgd1na2vs0mg"},{"bike_id":"301b6729-c45c-4915-8ef6-dadde3959d3d","system_id":"levelo_inurba_marseille","lat":43.2656,"lon":5.39038,"is_reserved":false,"is_disabled":true,"rental_uris":{"android":"levelo://app?vid=301b6729-c45c-4915-8ef6-dadde3959d3d","ios":"levelo://app?vid=301b6729-c45c-4915-8ef6-dadde3959d3d"},"vehicle_type_id":"4","last_reported":1743923304,"current_range_meters":8800,"station_id":"ce4bhe12rcd13ifvqf30","pricing_plan_id":"cebpf4jnsgd1na2vs0mg"},{"bike_id":"43718d37-b132-4a2d-9430-23101833a89e","system_id":"levelo_inurba_marseille","lat":43.308443,"lon":5.380919,"is_reserved":false,"is_disabled":false,"rental_uris":{"android":"levelo://app?vid=43718d37-b132-4a2d-9430-23101833a89e","ios":"levelo://app?vid=43718d37-b132-4a2d-9430-23101833a89e"},"vehicle_type_id":"4","last_reported":1743923304,"current_range_meters":8800,"station_id":"","pricing_plan_id":"cebpf4jnsgd1na2vs0mg"},{"bike_id":"4c25fb76-cd0e-4544-8837-d2585ee48375","system_id":"levelo_inurba_marseille","lat":43.29899,"lon":5.43663,"is_reserved":false,"is_disabled":false,"rental_uris":{"android":"levelo://app?vid=4c25fb76-cd0e-4544-8837-d2585ee48375","ios":"levelo://app?vid=4c25fb76-cd0e-4544-8837-d2585ee48375"},"vehicle_type_id":"4","last_reported":1743923304,"current_range_meters":8800,"station_id":"ce4bhpp2rcd13ifvqhfg","pricing_plan_id":"cebpf4jnsgd1na2vs0mg"},{"bike_id":"e5a7e6b1-2168-407f-8739-469989498272","system_id":"levelo_inurba_marseille","lat":43.31733,"lon":5.43704,"is_reserved":false,"is_disabled":false,"rental_uris":{"android":"levelo://app?vid=e5a7e6b1-2168-407f-8739-469989498272","ios":"levelo://app?vid=e5a7e6b1-2168-407f-8739-469989498272"},"vehicle_type_id":"4","last_reported":1743923304,"current_range_meters":8800,"station_id":"ce4bhp92rcd13ifvqhcg","pricing_plan_id":"cebpf4jnsgd1na2vs0mg"},{"bike_id":"7a935817-47e2-4cb3-8324-a647fdf3a140","system_id":"levelo_inurba_marseille","lat":43.29533,"lon":5.38557,"is_reserved":false,"is_disabled":true,"rental_uris":{"android":"levelo://app?vid=7a935817-47e2-4cb3-8324-a647fdf3a140","ios":"levelo://app?vid=7a935817-47e2-4cb3-8324-a647fdf3a140"},"vehicle_type_id":"4","last_reported":1743923304,"current_range_meters":8800,"station_id":"ce4bgih2rcd13ifvqba0","pricing_plan_id":"cebpf4jnsgd1na2vs0mg"},{"bike_id":"68ea0086-76a8-4c6e-b84d-9082869e46b1","system_id":"levelo_inurba_marseille","lat":43.30369,"lon":5.41913,"is_reserved":false,"is_disabled":false,"rental_uris":{"android":"levelo://app?vid=68ea0086-76a8-4c6e-b84d-9082869e46b1","ios":"levelo://app?vid=68ea0086-76a8-4c6e-b84d-9082869e46b1"},"vehicle_type_id":"4","last_reported":1743923304,"current_range_meters":8800,"station_id":"ce4bhop2rcd13ifvqh7g","pricing_plan_id":"cebpf4jnsgd1na2vs0mg"},{"bike_id":"9f3986ed-7e09-49d3-8d97-dbac184e8474","system_id":"levelo_inurba_marseille","lat":43.26922,"lon":5.38657,"is_reserved":false,"is_disabled":false,"rental_uris":{"android":"levelo://app?vid=9f3986ed-7e09-49d3-8d97-dbac184e8474","ios":"levelo://app?vid=9f3986ed-7e09-49d3-8d97-dbac184e8474"},"vehicle_type_id":"4","last_reported":1743923304,"current_range_meters":8800,"station_id":"ce4bhh92rcd13ifvqfh0","pricing_plan_id":"cebpf4jnsgd1na2vs0mg"},{"bike_id":"128fb589-a97e-437f-a8d4-fb84393c9e61","system_id":"levelo_inurba_marseille","lat":43.29845,"lon":5.36279,"is_reserved":false,"is_disabled":false,"rental_uris":{"android":"levelo://app?vid=128fb589-a97e-437f-a8d4-fb84393c9e61","ios":"levelo://app?vid=128fb589-a97e-437f-a8d4-fb84393c9e61"},"vehicle_type_id":"4","last_reported":1743923304,"current_range_meters":9200,"station_id":"ce4bgpp2rcd13ifvqc3g","pricing_plan_id":"cebpf4jnsgd1na2vs0mg"},{"bike_id":"57bf4e8a-9c9a-4b4c-967c-a6a1430f9b98","system_id":"levelo_inurba_marseille","lat":43.229306,"lon":5.353748,"is_reserved":false,"is_disabled":false,"rental_uris":{"android":"levelo://app?vid=57bf4e8a-9c9a-4b4c-967c-a6a1430f9b98","ios":"levelo://app?vid=57bf4e8a-9c9a-4b4c-967c-a6a1430f9b98"},"vehicle_type_id":"4","last_reported":1743923304,"current_range_meters":9200,"station_id":"cpo3532slgdg3j2ikp40","pricing_plan_id":"cebpf4jnsgd1na2vs0mg"},{"bike_id":"1d16e172-d477-4a96-8d7d-42ff6a622d2e","system_id":"levelo_inurba_marseille","lat":43.246928,"lon":5.411806,"is_reserved":false,"is_disabled":false,"rental_uris":{"android":"levelo://app?vid=1d16e172-d477-4a96-8d7d-42ff6a622d2e","ios":"levelo://app?vid=1d16e172-d477-4a96-8d7d-42ff6a622d2e"},"vehicle_type_id":"4","last_reported":1743923304,"current_range_meters":9200,"station_id":"","pricing_plan_id":"cebpf4jnsgd1na2vs0mg"},{"bike_id":"f8d02833-2611-41b1-8f0f-3e714be38b08","system_id":"levelo_inurba_marseille","lat":43.29957,"lon":5.3655,"is_reserved":false,"is_disabled":false,"rental_uris":{"android":"levelo://app?vid=f8d02833-2611-41b1-8f0f-3e714be38b08","ios":"levelo://app?vid=f8d02833-2611-41b1-8f0f-3e714be38b08"},"vehicle_type_id":"4","last_reported":1743923304,"current_range_meters":9200,"station_id":"ce4bgm92rcd13ifvqbr0","pricing_plan_id":"cebpf4jnsgd1na2vs0mg"},{"bike_id":"b70cced5-dc6e-4ac4-aef4-4cfbee9a2e11","system_id":"levelo_inurba_marseille","lat":43.295985,"lon":5.377201,"is_reserved":false,"is_disabled":true,"rental_uris":{"android":"levelo://app?vid=b70cced5-dc6e-4ac4-aef4-4cfbee9a2e11","ios":"levelo://app?vid=b70cced5-dc6e-4ac4-aef4-4cfbee9a2e11"},"vehicle_type_id":"4","last_reported":1743923304,"current_range_meters":9200,"station_id":"","pricing_plan_id":"cebpf4jnsgd1na2vs0mg"},{"bike_id":"bead49ad-4f08-409b-b5dc-f17872424c3c","system_id":"levelo_inurba_marseille","lat":43.29565,"lon":5.42278,"is_reserved":false,"is_disabled":false,"rental_uris":{"android":"levelo://app?vid=bead49ad-4f08-409b-b5dc-f17872424c3c","ios":"levelo://app?vid=bead49ad-4f08-409b-b5dc-f17872424c3c"},"vehicle_type_id":"4","last_reported":1743923304,"current_range_meters":9200,"station_id":"ce4bhph2rcd13ifvqhdg","pricing_plan_id":"cebpf4jnsgd1na2vs0mg"},{"bike_id":"c6be368f-888b-4032-8930-33d5cbf2657b","system_id":"levelo_inurba_marseille","lat":43.299,"lon":5.4367,"is_reserved":false,"is_disabled":false,"rental_uris":{"android":"levelo://app?vid=c6be368f-888b-4032-8930-33d5cbf2657b","ios":"levelo://app?vid=c6be368f-888b-4032-8930-33d5cbf2657b"},"vehicle_type_id":"4","last_reported":1743923304,"current_range_meters":9200,"station_id":"ce4bhpp2rcd13ifvqhfg","pricing_plan_id":"cebpf4jnsgd1na2vs0mg"},{"bike_id":"596c8839-b7cf-45b4-a690-17d962944c1f","system_id":"levelo_inurba_marseille","lat":43.2464,"lon":5.38922,"is_reserved":false,"is_disabled":false,"rental_uris":{"android":"levelo://app?vid=596c8839-b7cf-45b4-a690-17d962944c1f","ios":"levelo://app?vid=596c8839-b7cf-45b4-a690-17d962944c1f"},"vehicle_type_id":"4","last_reported":1743923304,"current_range_meters":9200,"station_id":"ce4bhg12rcd13ifvqf60","pricing_plan_id":"cebpf4jnsgd1na2vs0mg"},{"bike_id":"1f28f7e9-c1c1-45d9-80f7-279d1e059248","system_id":"levelo_inurba_marseille","lat":43.28709,"lon":5.40019,"is_reserved":false,"is_disabled":false,"rental_uris":{"android":"levelo://app?vid=1f28f7e9-c1c1-45d9-80f7-279d1e059248","ios":"levelo://app?vid=1f28f7e9-c1c1-45d9-80f7-279d1e059248"},"vehicle_type_id":"4","last_reported":1743923304,"current_range_meters":9200,"station_id":"ce4bho92rcd13ifvqh3g","pricing_plan_id":"cebpf4jnsgd1na2vs0mg"},{"bike_id":"e47d0894-a5ef-4a54-99dc-25ba483d11d9","system_id":"levelo_inurba_marseille","lat":43.2928,"lon":5.36855,"is_reserved":false,"is_disabled":false,"rental_uris":{"android":"levelo://app?vid=e47d0894-a5ef-4a54-99dc-25ba483d11d9","ios":"levelo://app?vid=e47d0894-a5ef-4a54-99dc-25ba483d11d9"},"vehicle_type_id":"4","last_reported":1743923304,"current_range_meters":9200,"station_id":"ce4bhbp2rcd13ifvqesg","pricing_plan_id":"cebpf4jnsgd1na2vs0mg"},{"bike_id":"1d7e034e-3553-4b69-9eb8-32c77ea26169","system_id":"levelo_inurba_marseille","lat":43.28751,"lon":5.36088,"is_reserved":false,"is_disabled":false,"rental_uris":{"android":"levelo://app?vid=1d7e034e-3553-4b69-9eb8-32c77ea26169","ios":"levelo://app?vid=1d7e034e-3553-4b69-9eb8-32c77ea26169"},"vehicle_type_id":"4","last_reported":1743923304,"current_range_meters":9200,"station_id":"cki0cbj6b192h4jlfktg","pricing_plan_id":"cebpf4jnsgd1na2vs0mg"},{"bike_id":"aeaafdce-072b-410b-bb71-bd5216dc505b","system_id":"levelo_inurba_marseille","lat":43.2313,"lon":5.40048,"is_reserved":false,"is_disabled":false,"rental_uris":{"android":"levelo://app?vid=aeaafdce-072b-410b-bb71-bd5216dc505b","ios":"levelo://app?vid=aeaafdce-072b-410b-bb71-bd5216dc505b"},"vehicle_type_id":"4","last_reported":1743923304,"current_range_meters":9600,"station_id":"","pricing_plan_id":"cebpf4jnsgd1na2vs0mg"},{"bike_id":"64ef4aca-2f76-454a-86f0-57d107f9d4b8","system_id":"levelo_inurba_marseille","lat":43.287296,"lon":5.360961,"is_reserved":false,"is_disabled":false,"rental_uris":{"android":"levelo://app?vid=64ef4aca-2f76-454a-86f0-57d107f9d4b8","ios":"levelo://app?vid=64ef4aca-2f76-454a-86f0-57d107f9d4b8"},"vehicle_type_id":"4","last_reported":1743923304,"current_range_meters":9600,"station_id":"cki0cbj6b192h4jlfktg","pricing_plan_id":"cebpf4jnsgd1na2vs0mg"},{"bike_id":"1622461e-25a5-4ec6-9188-643400d8cf0e","system_id":"levelo_inurba_marseille","lat":43.307971,"lon":5.435307,"is_reserved":false,"is_disabled":false,"rental_uris":{"android":"levelo://app?vid=1622461e-25a5-4ec6-9188-643400d8cf0e","ios":"levelo://app?vid=1622461e-25a5-4ec6-9188-643400d8cf0e"},"vehicle_type_id":"4","last_reported":1743923304,"current_range_meters":9600,"station_id":"ce4bhph2rcd13ifvqheg","pricing_plan_id":"cebpf4jnsgd1na2vs0mg"},{"bike_id":"39119060-af49-409e-96d3-c184076822f9","system_id":"levelo_inurba_marseille","lat":43.30537,"lon":5.36551,"is_reserved":false,"is_disabled":false,"rental_uris":{"android":"levelo://app?vid=39119060-af49-409e-96d3-c184076822f9","ios":"levelo://app?vid=39119060-af49-409e-96d3-c184076822f9"},"vehicle_type_id":"4","last_reported":1743923304,"current_range_meters":9600,"station_id":"ce4bgs12rcd13ifvqcag","pricing_plan_id":"cebpf4jnsgd1na2vs0mg"},{"bike_id":"0390015b-5bef-448b-bc10-44e5f8ab3c5f","system_id":"levelo_inurba_marseille","lat":43.25819,"lon":5.39423,"is_reserved":false,"is_disabled":false,"rental_uris":{"android":"levelo://app?vid=0390015b-5bef-448b-bc10-44e5f8ab3c5f","ios":"levelo://app?vid=0390015b-5bef-448b-bc10-44e5f8ab3c5f"},"vehicle_type_id":"4","last_reported":1743923304,"current_range_meters":9600,"station_id":"ce4bhip2rcd13ifvqft0","pricing_plan_id":"cebpf4jnsgd1na2vs0mg"},{"bike_id":"ba05910d-bdff-42fa-a381-3dd9cd2490d5","system_id":"levelo_inurba_marseille","lat":43.30268,"lon":5.40069,"is_reserved":false,"is_disabled":false,"rental_uris":{"android":"levelo://app?vid=ba05910d-bdff-42fa-a381-3dd9cd2490d5","ios":"levelo://app?vid=ba05910d-bdff-42fa-a381-3dd9cd2490d5"},"vehicle_type_id":"4","last_reported":1743923304,"current_range_meters":9600,"station_id":"ce4bgvh2rcd13ifvqcs0","pricing_plan_id":"cebpf4jnsgd1na2vs0mg"},{"bike_id":"64928ba1-df5f-4bed-a597-6dab5f3f4879","system_id":"levelo_inurba_marseille","lat":43.217421,"lon":5.346102,"is_reserved":false,"is_disabled":false,"rental_uris":{"android":"levelo://app?vid=64928ba1-df5f-4bed-a597-6dab5f3f4879","ios":"levelo://app?vid=64928ba1-df5f-4bed-a597-6dab5f3f4879"},"vehicle_type_id":"4","last_reported":1743923304,"current_range_meters":9600,"station_id":"ce4bhgh2rcd13ifvqfb0","pricing_plan_id":"cebpf4jnsgd1na2vs0mg"},{"bike_id":"b7b5577c-4ecb-43c4-a3ec-61eb89fee39a","system_id":"levelo_inurba_marseille","lat":43.30167,"lon":5.38108,"is_reserved":false,"is_disabled":false,"rental_uris":{"android":"levelo://app?vid=b7b5577c-4ecb-43c4-a3ec-61eb89fee39a","ios":"levelo://app?vid=b7b5577c-4ecb-43c4-a3ec-61eb89fee39a"},"vehicle_type_id":"4","last_reported":1743923304,"current_range_meters":9600,"station_id":"ce4bgjp2rcd13ifvqbh0","pricing_plan_id":"cebpf4jnsgd1na2vs0mg"},{"bike_id":"dce9f63e-296f-4991-af0c-a6167b38356a","system_id":"levelo_inurba_marseille","lat":43.25,"lon":5.38926,"is_reserved":false,"is_disabled":false,"rental_uris":{"android":"levelo://app?vid=dce9f63e-296f-4991-af0c-a6167b38356a","ios":"levelo://app?vid=dce9f63e-296f-4991-af0c-a6167b38356a"},"vehicle_type_id":"4","last_reported":1743923304,"current_range_meters":9600,"station_id":"ce4bhgp2rcd13ifvqfd0","pricing_plan_id":"cebpf4jnsgd1na2vs0mg"},{"bike_id":"45ce1baf-9c16-4172-aa68-bc63ac64cc8f","system_id":"levelo_inurba_marseille","lat":43.30182,"lon":5.36635,"is_reserved":false,"is_disabled":false,"rental_uris":{"android":"levelo://app?vid=45ce1baf-9c16-4172-aa68-bc63ac64cc8f","ios":"levelo://app?vid=45ce1baf-9c16-4172-aa68-bc63ac64cc8f"},"vehicle_type_id":"4","last_reported":1743923304,"current_range_meters":9600,"station_id":"ce4bgrh2rcd13ifvqc8g","pricing_plan_id":"cebpf4jnsgd1na2vs0mg"},{"bike_id":"f470b7ff-8985-4014-b9d1-2d1b82ce3088","system_id":"levelo_inurba_marseille","lat":43.28684,"lon":5.37933,"is_reserved":false,"is_disabled":false,"rental_uris":{"android":"levelo://app?vid=f470b7ff-8985-4014-b9d1-2d1b82ce3088","ios":"levelo://app?vid=f470b7ff-8985-4014-b9d1-2d1b82ce3088"},"vehicle_type_id":"4","last_reported":1743923304,"current_range_meters":9600,"station_id":"ce4bh9p2rcd13ifvqec0","pricing_plan_id":"cebpf4jnsgd1na2vs0mg"},{"bike_id":"0f3d6cb8-7efe-42ee-ab50-2a663f90e5af","system_id":"levelo_inurba_marseille","lat":43.27596,"lon":5.36132,"is_reserved":false,"is_disabled":false,"rental_uris":{"android":"levelo://app?vid=0f3d6cb8-7efe-42ee-ab50-2a663f90e5af","ios":"levelo://app?vid=0f3d6cb8-7efe-42ee-ab50-2a663f90e5af"},"vehicle_type_id":"4","last_reported":1743923304,"current_range_meters":9600,"station_id":"ce4bgj92rcd13ifvqbe0","pricing_plan_id":"cebpf4jnsgd1na2vs0mg"},{"bike_id":"b7ee7aed-09b2-4789-a41c-a569428ae849","system_id":"levelo_inurba_marseille","lat":43.30781,"lon":5.37657,"is_reserved":false,"is_disabled":false,"rental_uris":{"android":"levelo://app?vid=b7ee7aed-09b2-4789-a41c-a569428ae849","ios":"levelo://app?vid=b7ee7aed-09b2-4789-a41c-a569428ae849"},"vehicle_type_id":"4","last_reported":1743923304,"current_range_meters":9600,"station_id":"ce4bgv92rcd13ifvqcq0","pricing_plan_id":"cebpf4jnsgd1na2vs0mg"},{"bike_id":"4f766fdd-f1b5-46e8-9580-52c1decd1645","system_id":"levelo_inurba_marseille","lat":43.30644,"lon":5.40077,"is_reserved":false,"is_disabled":false,"rental_uris":{"android":"levelo://app?vid=4f766fdd-f1b5-46e8-9580-52c1decd1645","ios":"levelo://app?vid=4f766fdd-f1b5-46e8-9580-52c1decd1645"},"vehicle_type_id":"4","last_reported":1743923304,"current_range_meters":9600,"station_id":"ce4bh112rcd13ifvqda0","pricing_plan_id":"cebpf4jnsgd1na2vs0mg"},{"bike_id":"048baa14-41a1-4854-b930-24ae08b403d5","system_id":"levelo_inurba_marseille","lat":43.32664,"lon":5.41015,"is_reserved":false,"is_disabled":false,"rental_uris":{"android":"levelo://app?vid=048baa14-41a1-4854-b930-24ae08b403d5","ios":"levelo://app?vid=048baa14-41a1-4854-b930-24ae08b403d5"},"vehicle_type_id":"4","last_reported":1743923304,"current_range_meters":9600,"station_id":"ce4bhpp2rcd13ifvqhgg","pricing_plan_id":"cebpf4jnsgd1na2vs0mg"},{"bike_id":"5ed85862-8a09-4b95-a2aa-7fe225e41cfe","system_id":"levelo_inurba_marseille","lat":43.30794,"lon":5.3766,"is_reserved":false,"is_disabled":false,"rental_uris":{"android":"levelo://app?vid=5ed85862-8a09-4b95-a2aa-7fe225e41cfe","ios":"levelo://app?vid=5ed85862-8a09-4b95-a2aa-7fe225e41cfe"},"vehicle_type_id":"4","last_reported":1743923304,"current_range_meters":10000,"station_id":"ce4bgv92rcd13ifvqcq0","pricing_plan_id":"cebpf4jnsgd1na2vs0mg"},{"bike_id":"6b652b17-4709-4398-8896-6b070cee45a3","system_id":"levelo_inurba_marseille","lat":43.315082,"lon":5.380436,"is_reserved":false,"is_disabled":false,"rental_uris":{"android":"levelo://app?vid=6b652b17-4709-4398-8896-6b070cee45a3","ios":"levelo://app?vid=6b652b17-4709-4398-8896-6b070cee45a3"},"vehicle_type_id":"4","last_reported":1743923304,"current_range_meters":10000,"station_id":"ce4bhsp2rcd13ifvqi50","pricing_plan_id":"cebpf4jnsgd1na2vs0mg"},{"bike_id":"1eb9f1ad-8239-4684-9920-b4a2ac456140","system_id":"levelo_inurba_marseille","lat":43.29317,"lon":5.40137,"is_reserved":false,"is_disabled":false,"rental_uris":{"android":"levelo://app?vid=1eb9f1ad-8239-4684-9920-b4a2ac456140","ios":"levelo://app?vid=1eb9f1ad-8239-4684-9920-b4a2ac456140"},"vehicle_type_id":"4","last_reported":1743923304,"current_range_meters":10000,"station_id":"","pricing_plan_id":"cebpf4jnsgd1na2vs0mg"},{"bike_id":"1bf28fcd-357a-43a7-b215-31bb2951a59c","system_id":"levelo_inurba_marseille","lat":43.29575,"lon":5.42296,"is_reserved":false,"is_disabled":false,"rental_uris":{"android":"levelo://app?vid=1bf28fcd-357a-43a7-b215-31bb2951a59c","ios":"levelo://app?vid=1bf28fcd-357a-43a7-b215-31bb2951a59c"},"vehicle_type_id":"4","last_reported":1743923304,"current_range_meters":10000,"station_id":"ce4bhph2rcd13ifvqhdg","pricing_plan_id":"cebpf4jnsgd1na2vs0mg"},{"bike_id":"d8be372e-b980-40ad-b500-021e30549970","system_id":"levelo_inurba_marseille","lat":43.30812,"lon":5.38173,"is_reserved":false,"is_disabled":false,"rental_uris":{"android":"levelo://app?vid=d8be372e-b980-40ad-b500-021e30549970","ios":"levelo://app?vid=d8be372e-b980-40ad-b500-021e30549970"},"vehicle_type_id":"4","last_reported":1743923304,"current_range_meters":10000,"station_id":"ce4bgt12rcd13ifvqce0","pricing_plan_id":"cebpf4jnsgd1na2vs0mg"},{"bike_id":"867fb900-f56e-4c6b-83c4-e5102d4bd393","system_id":"levelo_inurba_marseille","lat":43.32345,"lon":5.40631,"is_reserved":false,"is_disabled":false,"rental_uris":{"android":"levelo://app?vid=867fb900-f56e-4c6b-83c4-e5102d4bd393","ios":"levelo://app?vid=867fb900-f56e-4c6b-83c4-e5102d4bd393"},"vehicle_type_id":"4","last_reported":1743923304,"current_range_meters":10000,"station_id":"ce4bhq92rcd13ifvqhjg","pricing_plan_id":"cebpf4jnsgd1na2vs0mg"},{"bike_id":"40600ffc-2dda-4872-b670-6a8b84aaf275","system_id":"levelo_inurba_marseille","lat":43.304478,"lon":5.378971,"is_reserved":false,"is_disabled":false,"rental_uris":{"android":"levelo://app?vid=40600ffc-2dda-4872-b670-6a8b84aaf275","ios":"levelo://app?vid=40600ffc-2dda-4872-b670-6a8b84aaf275"},"vehicle_type_id":"4","last_reported":1743923304,"current_range_meters":10000,"station_id":"ce4bgup2rcd13ifvqcn0","pricing_plan_id":"cebpf4jnsgd1na2vs0mg"},{"bike_id":"f36a48c2-fa68-4eee-87c4-9081abb532f8","system_id":"levelo_inurba_marseille","lat":43.29934,"lon":5.36542,"is_reserved":false,"is_disabled":false,"rental_uris":{"android":"levelo://app?vid=f36a48c2-fa68-4eee-87c4-9081abb532f8","ios":"levelo://app?vid=f36a48c2-fa68-4eee-87c4-9081abb532f8"},"vehicle_type_id":"4","last_reported":1743923304,"current_range_meters":10000,"station_id":"ce4bgm92rcd13ifvqbr0","pricing_plan_id":"cebpf4jnsgd1na2vs0mg"},{"bike_id":"936233dd-1e5b-4f07-9529-f0ff53a06c61","system_id":"levelo_inurba_marseille","lat":43.246715,"lon":5.381684,"is_reserved":false,"is_disabled":false,"rental_uris":{"android":"levelo://app?vid=936233dd-1e5b-4f07-9529-f0ff53a06c61","ios":"levelo://app?vid=936233dd-1e5b-4f07-9529-f0ff53a06c61"},"vehicle_type_id":"4","last_reported":1743923304,"current_range_meters":10800,"station_id":"ce4bhih2rcd13ifvqfr0","pricing_plan_id":"cebpf4jnsgd1na2vs0mg"},{"bike_id":"3e559d24-8471-45ca-a034-170bdaef8472","system_id":"levelo_inurba_marseille","lat":43.30418,"lon":5.39747,"is_reserved":false,"is_disabled":false,"rental_uris":{"android":"levelo://app?vid=3e559d24-8471-45ca-a034-170bdaef8472","ios":"levelo://app?vid=3e559d24-8471-45ca-a034-170bdaef8472"},"vehicle_type_id":"4","last_reported":1743923304,"current_range_meters":10800,"station_id":"ce4bh092rcd13ifvqd20","pricing_plan_id":"cebpf4jnsgd1na2vs0mg"},{"bike_id":"00393ee2-317d-4e98-a30d-fd25773ef49f","system_id":"levelo_inurba_marseille","lat":43.352564,"lon":5.357765,"is_reserved":false,"is_disabled":false,"rental_uris":{"android":"levelo://app?vid=00393ee2-317d-4e98-a30d-fd25773ef49f","ios":"levelo://app?vid=00393ee2-317d-4e98-a30d-fd25773ef49f"},"vehicle_type_id":"4","last_reported":1743923304,"current_range_meters":10800,"station_id":"","pricing_plan_id":"cebpf4jnsgd1na2vs0mg"},{"bike_id":"be0592d1-8673-41de-b066-b2109d8e8167","system_id":"levelo_inurba_marseille","lat":43.303099,"lon":5.368941,"is_reserved":false,"is_disabled":false,"rental_uris":{"android":"levelo://app?vid=be0592d1-8673-41de-b066-b2109d8e8167","ios":"levelo://app?vid=be0592d1-8673-41de-b066-b2109d8e8167"},"vehicle_type_id":"4","last_reported":1743923304,"current_range_meters":10800,"station_id":"ce4bgqh2rcd13ifvqc5g","pricing_plan_id":"cebpf4jnsgd1na2vs0mg"},{"bike_id":"9c9e91df-e133-414a-8295-3f6a292805f6","system_id":"levelo_inurba_marseille","lat":43.231902,"lon":5.355544,"is_reserved":false,"is_disabled":true,"rental_uris":{"android":"levelo://app?vid=9c9e91df-e133-414a-8295-3f6a292805f6","ios":"levelo://app?vid=9c9e91df-e133-414a-8295-3f6a292805f6"},"vehicle_type_id":"4","last_reported":1743923304,"current_range_meters":10800,"station_id":"ce4bhu92rcd13ifvqi70","pricing_plan_id":"cebpf4jnsgd1na2vs0mg"},{"bike_id":"7aff76c8-39b0-410c-b330-995f2a5af159","system_id":"levelo_inurba_marseille","lat":43.25016,"lon":5.38932,"is_reserved":false,"is_disabled":false,"rental_uris":{"android":"levelo://app?vid=7aff76c8-39b0-410c-b330-995f2a5af159","ios":"levelo://app?vid=7aff76c8-39b0-410c-b330-995f2a5af159"},"vehicle_type_id":"4","last_reported":1743923304,"current_range_meters":10800,"station_id":"ce4bhgp2rcd13ifvqfd0","pricing_plan_id":"cebpf4jnsgd1na2vs0mg"},{"bike_id":"9e065a82-9f50-4cb7-a540-8588637168ef","system_id":"levelo_inurba_marseille","lat":43.29284,"lon":5.36855,"is_reserved":false,"is_disabled":false,"rental_uris":{"android":"levelo://app?vid=9e065a82-9f50-4cb7-a540-8588637168ef","ios":"levelo://app?vid=9e065a82-9f50-4cb7-a540-8588637168ef"},"vehicle_type_id":"4","last_reported":1743923304,"current_range_meters":10800,"station_id":"ce4bhbp2rcd13ifvqesg","pricing_plan_id":"cebpf4jnsgd1na2vs0mg"},{"bike_id":"21f8acc6-ad6e-4601-b104-7de5e76cb194","system_id":"levelo_inurba_marseille","lat":43.281489,"lon":5.42655,"is_reserved":false,"is_disabled":false,"rental_uris":{"android":"levelo://app?vid=21f8acc6-ad6e-4601-b104-7de5e76cb194","ios":"levelo://app?vid=21f8acc6-ad6e-4601-b104-7de5e76cb194"},"vehicle_type_id":"4","last_reported":1743923304,"current_range_meters":10800,"station_id":"ce4bhnh2rcd13ifvqgug","pricing_plan_id":"cebpf4jnsgd1na2vs0mg"},{"bike_id":"7f235a8b-fa53-4ec4-a10b-74eadc11829b","system_id":"levelo_inurba_marseille","lat":43.29931,"lon":5.36544,"is_reserved":false,"is_disabled":false,"rental_uris":{"android":"levelo://app?vid=7f235a8b-fa53-4ec4-a10b-74eadc11829b","ios":"levelo://app?vid=7f235a8b-fa53-4ec4-a10b-74eadc11829b"},"vehicle_type_id":"4","last_reported":1743923304,"current_range_meters":11200,"station_id":"ce4bgm92rcd13ifvqbr0","pricing_plan_id":"cebpf4jnsgd1na2vs0mg"},{"bike_id":"abde5d83-9b30-4b2f-8a88-f914ca452329","system_id":"levelo_inurba_marseille","lat":43.31224,"lon":5.386901,"is_reserved":false,"is_disabled":false,"rental_uris":{"android":"levelo://app?vid=abde5d83-9b30-4b2f-8a88-f914ca452329","ios":"levelo://app?vid=abde5d83-9b30-4b2f-8a88-f914ca452329"},"vehicle_type_id":"4","last_reported":1743923304,"current_range_meters":11200,"station_id":"","pricing_plan_id":"cebpf4jnsgd1na2vs0mg"},{"bike_id":"b598b6b8-69a3-4491-bd9b-eb0a2b32b0cf","system_id":"levelo_inurba_marseille","lat":43.31019,"lon":5.38067,"is_reserved":false,"is_disabled":false,"rental_uris":{"android":"levelo://app?vid=b598b6b8-69a3-4491-bd9b-eb0a2b32b0cf","ios":"levelo://app?vid=b598b6b8-69a3-4491-bd9b-eb0a2b32b0cf"},"vehicle_type_id":"4","last_reported":1743923304,"current_range_meters":11200,"station_id":"","pricing_plan_id":"cebpf4jnsgd1na2vs0mg"},{"bike_id":"331ea854-5ef0-408d-9b23-b2372e32220a","system_id":"levelo_inurba_marseille","lat":43.30191,"lon":5.38087,"is_reserved":false,"is_disabled":false,"rental_uris":{"android":"levelo://app?vid=331ea854-5ef0-408d-9b23-b2372e32220a","ios":"levelo://app?vid=331ea854-5ef0-408d-9b23-b2372e32220a"},"vehicle_type_id":"4","last_reported":1743923304,"current_range_meters":11200,"station_id":"","pricing_plan_id":"cebpf4jnsgd1na2vs0mg"},{"bike_id":"625c7f88-f421-41b1-8bda-76b07c36098e","system_id":"levelo_inurba_marseille","lat":43.26566,"lon":5.39011,"is_reserved":false,"is_disabled":false,"rental_uris":{"android":"levelo://app?vid=625c7f88-f421-41b1-8bda-76b07c36098e","ios":"levelo://app?vid=625c7f88-f421-41b1-8bda-76b07c36098e"},"vehicle_type_id":"4","last_reported":1743923304,"current_range_meters":11200,"station_id":"ce4bhe12rcd13ifvqf30","pricing_plan_id":"cebpf4jnsgd1na2vs0mg"},{"bike_id":"bcf7c07f-b391-45d6-a419-1493f771d4df","system_id":"levelo_inurba_marseille","lat":43.30602,"lon":5.39359,"is_reserved":false,"is_disabled":false,"rental_uris":{"android":"levelo://app?vid=bcf7c07f-b391-45d6-a419-1493f771d4df","ios":"levelo://app?vid=bcf7c07f-b391-45d6-a419-1493f771d4df"},"vehicle_type_id":"4","last_reported":1743923304,"current_range_meters":11200,"station_id":"ce4bh0p2rcd13ifvqd80","pricing_plan_id":"cebpf4jnsgd1na2vs0mg"},{"bike_id":"6023584e-870f-454d-88b0-bf3dc0e21fbe","system_id":"levelo_inurba_marseille","lat":43.243902,"lon":5.370796,"is_reserved":false,"is_disabled":true,"rental_uris":{"android":"levelo://app?vid=6023584e-870f-454d-88b0-bf3dc0e21fbe","ios":"levelo://app?vid=6023584e-870f-454d-88b0-bf3dc0e21fbe"},"vehicle_type_id":"4","last_reported":1743923304,"current_range_meters":11200,"station_id":"ce4bhhh2rcd13ifvqfk0","pricing_plan_id":"cebpf4jnsgd1na2vs0mg"},{"bike_id":"1f9006c0-6130-498f-9399-ca1c8ff0c462","system_id":"levelo_inurba_marseille","lat":43.32119,"lon":5.36808,"is_reserved":false,"is_disabled":false,"rental_uris":{"android":"levelo://app?vid=1f9006c0-6130-498f-9399-ca1c8ff0c462","ios":"levelo://app?vid=1f9006c0-6130-498f-9399-ca1c8ff0c462"},"vehicle_type_id":"4","last_reported":1743923304,"current_range_meters":11200,"station_id":"ce4bhrh2rcd13ifvqhug","pricing_plan_id":"cebpf4jnsgd1na2vs0mg"},{"bike_id":"5420e474-5232-43f0-bd62-51e2359e3157","system_id":"levelo_inurba_marseille","lat":43.31353,"lon":5.37016,"is_reserved":false,"is_disabled":false,"rental_uris":{"android":"levelo://app?vid=5420e474-5232-43f0-bd62-51e2359e3157","ios":"levelo://app?vid=5420e474-5232-43f0-bd62-51e2359e3157"},"vehicle_type_id":"4","last_reported":1743923304,"current_range_meters":11600,"station_id":"","pricing_plan_id":"cebpf4jnsgd1na2vs0mg"},{"bike_id":"2378028b-97e6-415a-87f0-6aeac2da350b","system_id":"levelo_inurba_marseille","lat":43.33599,"lon":5.41026,"is_reserved":false,"is_disabled":false,"rental_uris":{"android":"levelo://app?vid=2378028b-97e6-415a-87f0-6aeac2da350b","ios":"levelo://app?vid=2378028b-97e6-415a-87f0-6aeac2da350b"},"vehicle_type_id":"4","last_reported":1743923304,"current_range_meters":11600,"station_id":"ce4bhqh2rcd13ifvqhmg","pricing_plan_id":"cebpf4jnsgd1na2vs0mg"},{"bike_id":"ceba594e-ff69-4140-828e-f8a961103e51","system_id":"levelo_inurba_marseille","lat":43.2418,"lon":5.36417,"is_reserved":false,"is_disabled":false,"rental_uris":{"android":"levelo://app?vid=ceba594e-ff69-4140-828e-f8a961103e51","ios":"levelo://app?vid=ceba594e-ff69-4140-828e-f8a961103e51"},"vehicle_type_id":"4","last_reported":1743923304,"current_range_meters":11600,"station_id":"cpo36qri1sfpv3e86is0","pricing_plan_id":"cebpf4jnsgd1na2vs0mg"},{"bike_id":"1282e3c4-e494-47cc-afd7-c7691e1b2184","system_id":"levelo_inurba_marseille","lat":43.29965,"lon":5.37184,"is_reserved":false,"is_disabled":false,"rental_uris":{"android":"levelo://app?vid=1282e3c4-e494-47cc-afd7-c7691e1b2184","ios":"levelo://app?vid=1282e3c4-e494-47cc-afd7-c7691e1b2184"},"vehicle_type_id":"4","last_reported":1743923304,"current_range_meters":11200,"station_id":"ce4bgr92rcd13ifvqc7g","pricing_plan_id":"cebpf4jnsgd1na2vs0mg"},{"bike_id":"69650e3a-b592-460d-8452-ee507f5842af","system_id":"levelo_inurba_marseille","lat":43.296,"lon":5.37723,"is_reserved":false,"is_disabled":false,"rental_uris":{"android":"levelo://app?vid=69650e3a-b592-460d-8452-ee507f5842af","ios":"levelo://app?vid=69650e3a-b592-460d-8452-ee507f5842af"},"vehicle_type_id":"4","last_reported":1743923304,"current_range_meters":11600,"station_id":"ce4bgi92rcd13ifvqb90","pricing_plan_id":"cebpf4jnsgd1na2vs0mg"},{"bike_id":"8f6dc4df-021c-4b49-b773-41ad9c5221cf","system_id":"levelo_inurba_marseille","lat":43.31122,"lon":5.37184,"is_reserved":false,"is_disabled":false,"rental_uris":{"android":"levelo://app?vid=8f6dc4df-021c-4b49-b773-41ad9c5221cf","ios":"levelo://app?vid=8f6dc4df-021c-4b49-b773-41ad9c5221cf"},"vehicle_type_id":"4","last_reported":1743923304,"current_range_meters":11600,"station_id":"","pricing_plan_id":"cebpf4jnsgd1na2vs0mg"},{"bike_id":"77fb35d2-28de-4101-8dd2-278f833d51b4","system_id":"levelo_inurba_marseille","lat":43.30791,"lon":5.37656,"is_reserved":false,"is_disabled":false,"rental_uris":{"android":"levelo://app?vid=77fb35d2-28de-4101-8dd2-278f833d51b4","ios":"levelo://app?vid=77fb35d2-28de-4101-8dd2-278f833d51b4"},"vehicle_type_id":"4","last_reported":1743923304,"current_range_meters":11600,"station_id":"ce4bgv92rcd13ifvqcq0","pricing_plan_id":"cebpf4jnsgd1na2vs0mg"},{"bike_id":"7fd0635d-68ad-4ce6-a52b-daef56987b4b","system_id":"levelo_inurba_marseille","lat":43.30879,"lon":5.38641,"is_reserved":false,"is_disabled":false,"rental_uris":{"android":"levelo://app?vid=7fd0635d-68ad-4ce6-a52b-daef56987b4b","ios":"levelo://app?vid=7fd0635d-68ad-4ce6-a52b-daef56987b4b"},"vehicle_type_id":"4","last_reported":1743923304,"current_range_meters":11600,"station_id":"","pricing_plan_id":"cebpf4jnsgd1na2vs0mg"},{"bike_id":"efe359c6-9a16-4a01-b52f-9f3d2b04dd09","system_id":"levelo_inurba_marseille","lat":43.304333,"lon":5.397487,"is_reserved":false,"is_disabled":false,"rental_uris":{"android":"levelo://app?vid=efe359c6-9a16-4a01-b52f-9f3d2b04dd09","ios":"levelo://app?vid=efe359c6-9a16-4a01-b52f-9f3d2b04dd09"},"vehicle_type_id":"4","last_reported":1743923304,"current_range_meters":11600,"station_id":"ce4bh092rcd13ifvqd20","pricing_plan_id":"cebpf4jnsgd1na2vs0mg"},{"bike_id":"136b6e45-ee21-453e-aa22-e07947db9071","system_id":"levelo_inurba_marseille","lat":43.2315,"lon":5.43711,"is_reserved":false,"is_disabled":true,"rental_uris":{"android":"levelo://app?vid=136b6e45-ee21-453e-aa22-e07947db9071","ios":"levelo://app?vid=136b6e45-ee21-453e-aa22-e07947db9071"},"vehicle_type_id":"4","last_reported":1743923304,"current_range_meters":11600,"station_id":"ce4bhmp2rcd13ifvqgog","pricing_plan_id":"cebpf4jnsgd1na2vs0mg"},{"bike_id":"c9bcb9ed-89fa-4f1d-bf29-12fb5d644696","system_id":"levelo_inurba_marseille","lat":43.27981,"lon":5.41672,"is_reserved":false,"is_disabled":false,"rental_uris":{"android":"levelo://app?vid=c9bcb9ed-89fa-4f1d-bf29-12fb5d644696","ios":"levelo://app?vid=c9bcb9ed-89fa-4f1d-bf29-12fb5d644696"},"vehicle_type_id":"4","last_reported":1743923304,"current_range_meters":12000,"station_id":"ce4bho12rcd13ifvqh1g","pricing_plan_id":"cebpf4jnsgd1na2vs0mg"},{"bike_id":"347b59a6-7fab-4bf0-a924-eac626981b6e","system_id":"levelo_inurba_marseille","lat":43.241739,"lon":5.397354,"is_reserved":false,"is_disabled":false,"rental_uris":{"android":"levelo://app?vid=347b59a6-7fab-4bf0-a924-eac626981b6e","ios":"levelo://app?vid=347b59a6-7fab-4bf0-a924-eac626981b6e"},"vehicle_type_id":"4","last_reported":1743923304,"current_range_meters":12000,"station_id":"ce4bhn12rcd13ifvqgpg","pricing_plan_id":"cebpf4jnsgd1na2vs0mg"},{"bike_id":"97c1701e-ad11-4e7e-92b1-742af6d82d4f","system_id":"levelo_inurba_marseille","lat":43.29255,"lon":5.40929,"is_reserved":false,"is_disabled":false,"rental_uris":{"android":"levelo://app?vid=97c1701e-ad11-4e7e-92b1-742af6d82d4f","ios":"levelo://app?vid=97c1701e-ad11-4e7e-92b1-742af6d82d4f"},"vehicle_type_id":"4","last_reported":1743923304,"current_range_meters":12000,"station_id":"ce4bh192rcd13ifvqdc0","pricing_plan_id":"cebpf4jnsgd1na2vs0mg"},{"bike_id":"806d9833-1d3d-4e1a-9624-7898ac645826","system_id":"levelo_inurba_marseille","lat":43.29843,"lon":5.36285,"is_reserved":false,"is_disabled":false,"rental_uris":{"android":"levelo://app?vid=806d9833-1d3d-4e1a-9624-7898ac645826","ios":"levelo://app?vid=806d9833-1d3d-4e1a-9624-7898ac645826"},"vehicle_type_id":"4","last_reported":1743923304,"current_range_meters":12000,"station_id":"ce4bgpp2rcd13ifvqc3g","pricing_plan_id":"cebpf4jnsgd1na2vs0mg"},{"bike_id":"f4f6fb03-9fbc-4053-aee6-f9ac793c055d","system_id":"levelo_inurba_marseille","lat":43.31536,"lon":5.3803,"is_reserved":false,"is_disabled":false,"rental_uris":{"android":"levelo://app?vid=f4f6fb03-9fbc-4053-aee6-f9ac793c055d","ios":"levelo://app?vid=f4f6fb03-9fbc-4053-aee6-f9ac793c055d"},"vehicle_type_id":"4","last_reported":1743923304,"current_range_meters":12400,"station_id":"ce4bhsp2rcd13ifvqi50","pricing_plan_id":"cebpf4jnsgd1na2vs0mg"},{"bike_id":"d0905cfd-03b9-433a-a2d7-90bdba9c98e8","system_id":"levelo_inurba_marseille","lat":43.29272,"lon":5.36843,"is_reserved":false,"is_disabled":false,"rental_uris":{"android":"levelo://app?vid=d0905cfd-03b9-433a-a2d7-90bdba9c98e8","ios":"levelo://app?vid=d0905cfd-03b9-433a-a2d7-90bdba9c98e8"},"vehicle_type_id":"4","last_reported":1743923304,"current_range_meters":12400,"station_id":"ce4bhbp2rcd13ifvqesg","pricing_plan_id":"cebpf4jnsgd1na2vs0mg"},{"bike_id":"308ccf60-9009-43f8-bb03-6f4f6c34706f","system_id":"levelo_inurba_marseille","lat":43.30253,"lon":5.40075,"is_reserved":false,"is_disabled":false,"rental_uris":{"android":"levelo://app?vid=308ccf60-9009-43f8-bb03-6f4f6c34706f","ios":"levelo://app?vid=308ccf60-9009-43f8-bb03-6f4f6c34706f"},"vehicle_type_id":"4","last_reported":1743923304,"current_range_meters":12400,"station_id":"ce4bgvh2rcd13ifvqcs0","pricing_plan_id":"cebpf4jnsgd1na2vs0mg"},{"bike_id":"5db3cc91-4857-42c1-b296-485f7b676401","system_id":"levelo_inurba_marseille","lat":43.23153,"lon":5.43705,"is_reserved":false,"is_disabled":false,"rental_uris":{"android":"levelo://app?vid=5db3cc91-4857-42c1-b296-485f7b676401","ios":"levelo://app?vid=5db3cc91-4857-42c1-b296-485f7b676401"},"vehicle_type_id":"4","last_reported":1743923304,"current_range_meters":12400,"station_id":"ce4bhmp2rcd13ifvqgog","pricing_plan_id":"cebpf4jnsgd1na2vs0mg"},{"bike_id":"c3e6d442-6282-4c88-9f90-93d85aff9e76","system_id":"levelo_inurba_marseille","lat":43.281558,"lon":5.426457,"is_reserved":false,"is_disabled":false,"rental_uris":{"android":"levelo://app?vid=c3e6d442-6282-4c88-9f90-93d85aff9e76","ios":"levelo://app?vid=c3e6d442-6282-4c88-9f90-93d85aff9e76"},"vehicle_type_id":"4","last_reported":1743923304,"current_range_meters":12400,"station_id":"ce4bhnh2rcd13ifvqgug","pricing_plan_id":"cebpf4jnsgd1na2vs0mg"},{"bike_id":"f2c5ea34-61c7-478c-805a-85008a823647","system_id":"levelo_inurba_marseille","lat":43.30533,"lon":5.36578,"is_reserved":false,"is_disabled":false,"rental_uris":{"android":"levelo://app?vid=f2c5ea34-61c7-478c-805a-85008a823647","ios":"levelo://app?vid=f2c5ea34-61c7-478c-805a-85008a823647"},"vehicle_type_id":"4","last_reported":1743923304,"current_range_meters":12400,"station_id":"ce4bgs12rcd13ifvqcag","pricing_plan_id":"cebpf4jnsgd1na2vs0mg"},{"bike_id":"4c37ba17-dd09-40d8-a29c-6f932748c036","system_id":"levelo_inurba_marseille","lat":43.302544,"lon":5.400934,"is_reserved":false,"is_disabled":false,"rental_uris":{"android":"levelo://app?vid=4c37ba17-dd09-40d8-a29c-6f932748c036","ios":"levelo://app?vid=4c37ba17-dd09-40d8-a29c-6f932748c036"},"vehicle_type_id":"4","last_reported":1743923304,"current_range_meters":12400,"station_id":"","pricing_plan_id":"cebpf4jnsgd1na2vs0mg"},{"bike_id":"b0a4a30b-3fdb-492d-be99-0bae6b38cc64","system_id":"levelo_inurba_marseille","lat":43.311684,"lon":5.387289,"is_reserved":false,"is_disabled":false,"rental_uris":{"android":"levelo://app?vid=b0a4a30b-3fdb-492d-be99-0bae6b38cc64","ios":"levelo://app?vid=b0a4a30b-3fdb-492d-be99-0bae6b38cc64"},"vehicle_type_id":"4","last_reported":1743923304,"current_range_meters":12800,"station_id":"ce4bgv12rcd13ifvqcp0","pricing_plan_id":"cebpf4jnsgd1na2vs0mg"},{"bike_id":"7d2dde4f-5a6a-4005-a47e-231c9dacefe3","system_id":"levelo_inurba_marseille","lat":43.30793,"lon":5.43536,"is_reserved":false,"is_disabled":false,"rental_uris":{"android":"levelo://app?vid=7d2dde4f-5a6a-4005-a47e-231c9dacefe3","ios":"levelo://app?vid=7d2dde4f-5a6a-4005-a47e-231c9dacefe3"},"vehicle_type_id":"4","last_reported":1743923304,"current_range_meters":12800,"station_id":"ce4bhph2rcd13ifvqheg","pricing_plan_id":"cebpf4jnsgd1na2vs0mg"},{"bike_id":"3f9f60e9-46e5-408d-a83f-6ffb283e0d47","system_id":"levelo_inurba_marseille","lat":43.241745,"lon":5.39741,"is_reserved":false,"is_disabled":false,"rental_uris":{"android":"levelo://app?vid=3f9f60e9-46e5-408d-a83f-6ffb283e0d47","ios":"levelo://app?vid=3f9f60e9-46e5-408d-a83f-6ffb283e0d47"},"vehicle_type_id":"4","last_reported":1743923304,"current_range_meters":12800,"station_id":"ce4bhn12rcd13ifvqgpg","pricing_plan_id":"cebpf4jnsgd1na2vs0mg"},{"bike_id":"a6064373-4863-4de1-99db-ff063ca1121f","system_id":"levelo_inurba_marseille","lat":43.27572,"lon":5.38414,"is_reserved":false,"is_disabled":false,"rental_uris":{"android":"levelo://app?vid=a6064373-4863-4de1-99db-ff063ca1121f","ios":"levelo://app?vid=a6064373-4863-4de1-99db-ff063ca1121f"},"vehicle_type_id":"4","last_reported":1743923304,"current_range_meters":12800,"station_id":"ce4bhh92rcd13ifvqfi0","pricing_plan_id":"cebpf4jnsgd1na2vs0mg"},{"bike_id":"f2a4a726-900d-43d4-8328-76c9d2f6012d","system_id":"levelo_inurba_marseille","lat":43.290004,"lon":5.356064,"is_reserved":false,"is_disabled":true,"rental_uris":{"android":"levelo://app?vid=f2a4a726-900d-43d4-8328-76c9d2f6012d","ios":"levelo://app?vid=f2a4a726-900d-43d4-8328-76c9d2f6012d"},"vehicle_type_id":"4","last_reported":1743923304,"current_range_meters":12800,"station_id":"ce4bhb92rcd13ifvqen0","pricing_plan_id":"cebpf4jnsgd1na2vs0mg"},{"bike_id":"6464475b-59d0-46fe-b6b0-e9967518ef0e","system_id":"levelo_inurba_marseille","lat":43.29568,"lon":5.37518,"is_reserved":false,"is_disabled":false,"rental_uris":{"android":"levelo://app?vid=6464475b-59d0-46fe-b6b0-e9967518ef0e","ios":"levelo://app?vid=6464475b-59d0-46fe-b6b0-e9967518ef0e"},"vehicle_type_id":"4","last_reported":1743923304,"current_range_meters":13600,"station_id":"ce4bgh92rcd13ifvqb50","pricing_plan_id":"cebpf4jnsgd1na2vs0mg"},{"bike_id":"c2c27c97-cdb9-4118-84ef-b2dc6e9357e6","system_id":"levelo_inurba_marseille","lat":43.306126,"lon":5.371689,"is_reserved":false,"is_disabled":false,"rental_uris":{"android":"levelo://app?vid=c2c27c97-cdb9-4118-84ef-b2dc6e9357e6","ios":"levelo://app?vid=c2c27c97-cdb9-4118-84ef-b2dc6e9357e6"},"vehicle_type_id":"4","last_reported":1743923304,"current_range_meters":13600,"station_id":"ce4bgqh2rcd13ifvqc4g","pricing_plan_id":"cebpf4jnsgd1na2vs0mg"},{"bike_id":"f7e3b8fa-9062-4469-bcee-58c5aa5cfb6e","system_id":"levelo_inurba_marseille","lat":43.29537,"lon":5.385466,"is_reserved":false,"is_disabled":true,"rental_uris":{"android":"levelo://app?vid=f7e3b8fa-9062-4469-bcee-58c5aa5cfb6e","ios":"levelo://app?vid=f7e3b8fa-9062-4469-bcee-58c5aa5cfb6e"},"vehicle_type_id":"4","last_reported":1743923304,"current_range_meters":13600,"station_id":"ce4bgih2rcd13ifvqba0","pricing_plan_id":"cebpf4jnsgd1na2vs0mg"},{"bike_id":"8a38320c-a733-4cf5-8c8e-152497fe8f8f","system_id":"levelo_inurba_marseille","lat":43.28124,"lon":5.42647,"is_reserved":false,"is_disabled":false,"rental_uris":{"android":"levelo://app?vid=8a38320c-a733-4cf5-8c8e-152497fe8f8f","ios":"levelo://app?vid=8a38320c-a733-4cf5-8c8e-152497fe8f8f"},"vehicle_type_id":"4","last_reported":1743923304,"current_range_meters":14000,"station_id":"ce4bhnh2rcd13ifvqgug","pricing_plan_id":"cebpf4jnsgd1na2vs0mg"},{"bike_id":"434b8d0f-6132-4ff0-8e7c-aa6e8ea86e7c","system_id":"levelo_inurba_marseille","lat":43.29037,"lon":5.39966,"is_reserved":false,"is_disabled":false,"rental_uris":{"android":"levelo://app?vid=434b8d0f-6132-4ff0-8e7c-aa6e8ea86e7c","ios":"levelo://app?vid=434b8d0f-6132-4ff0-8e7c-aa6e8ea86e7c"},"vehicle_type_id":"4","last_reported":1743923304,"current_range_meters":14000,"station_id":"ce4bh392rcd13ifvqdm0","pricing_plan_id":"cebpf4jnsgd1na2vs0mg"},{"bike_id":"6ee85d75-9576-48a6-9ea1-92da0dac2d73","system_id":"levelo_inurba_marseille","lat":43.30798,"lon":5.43537,"is_reserved":false,"is_disabled":false,"rental_uris":{"android":"levelo://app?vid=6ee85d75-9576-48a6-9ea1-92da0dac2d73","ios":"levelo://app?vid=6ee85d75-9576-48a6-9ea1-92da0dac2d73"},"vehicle_type_id":"4","last_reported":1743923304,"current_range_meters":14000,"station_id":"ce4bhph2rcd13ifvqheg","pricing_plan_id":"cebpf4jnsgd1na2vs0mg"},{"bike_id":"97d77224-5748-4443-848a-6ab951c45d6d","system_id":"levelo_inurba_marseille","lat":43.32276,"lon":5.3828,"is_reserved":false,"is_disabled":false,"rental_uris":{"android":"levelo://app?vid=97d77224-5748-4443-848a-6ab951c45d6d","ios":"levelo://app?vid=97d77224-5748-4443-848a-6ab951c45d6d"},"vehicle_type_id":"4","last_reported":1743923304,"current_range_meters":14000,"station_id":"ce4bhr12rcd13ifvqhqg","pricing_plan_id":"cebpf4jnsgd1na2vs0mg"},{"bike_id":"a409c3f0-8991-4228-afb5-57b19bb06658","system_id":"levelo_inurba_marseille","lat":43.32401,"lon":5.38997,"is_reserved":false,"is_disabled":false,"rental_uris":{"android":"levelo://app?vid=a409c3f0-8991-4228-afb5-57b19bb06658","ios":"levelo://app?vid=a409c3f0-8991-4228-afb5-57b19bb06658"},"vehicle_type_id":"4","last_reported":1743923304,"current_range_meters":14000,"station_id":"","pricing_plan_id":"cebpf4jnsgd1na2vs0mg"},{"bike_id":"9d9ecd7f-1e89-42e7-a812-6a77504eca65","system_id":"levelo_inurba_marseille","lat":43.26812,"lon":5.40254,"is_reserved":false,"is_disabled":false,"rental_uris":{"android":"levelo://app?vid=9d9ecd7f-1e89-42e7-a812-6a77504eca65","ios":"levelo://app?vid=9d9ecd7f-1e89-42e7-a812-6a77504eca65"},"vehicle_type_id":"4","last_reported":1743923304,"current_range_meters":14000,"station_id":"ce501612rcd8frsf0b60","pricing_plan_id":"cebpf4jnsgd1na2vs0mg"},{"bike_id":"63e1d95c-79be-4b82-a868-e312bf827ceb","system_id":"levelo_inurba_marseille","lat":43.290265,"lon":5.386448,"is_reserved":false,"is_disabled":true,"rental_uris":{"android":"levelo://app?vid=63e1d95c-79be-4b82-a868-e312bf827ceb","ios":"levelo://app?vid=63e1d95c-79be-4b82-a868-e312bf827ceb"},"vehicle_type_id":"4","last_reported":1743923304,"current_range_meters":14000,"station_id":"ce4bh4p2rcd13ifvqe0g","pricing_plan_id":"cebpf4jnsgd1na2vs0mg"},{"bike_id":"95a2808d-fcff-4357-b119-2023f2aebd19","system_id":"levelo_inurba_marseille","lat":43.29043,"lon":5.39959,"is_reserved":false,"is_disabled":false,"rental_uris":{"android":"levelo://app?vid=95a2808d-fcff-4357-b119-2023f2aebd19","ios":"levelo://app?vid=95a2808d-fcff-4357-b119-2023f2aebd19"},"vehicle_type_id":"4","last_reported":1743923304,"current_range_meters":14000,"station_id":"ce4bh392rcd13ifvqdm0","pricing_plan_id":"cebpf4jnsgd1na2vs0mg"},{"bike_id":"fefe83d6-22ae-4bdc-9846-80fca8c3f8b6","system_id":"levelo_inurba_marseille","lat":43.262249,"lon":5.404563,"is_reserved":false,"is_disabled":false,"rental_uris":{"android":"levelo://app?vid=fefe83d6-22ae-4bdc-9846-80fca8c3f8b6","ios":"levelo://app?vid=fefe83d6-22ae-4bdc-9846-80fca8c3f8b6"},"vehicle_type_id":"4","last_reported":1743923304,"current_range_meters":14000,"station_id":"ce4bhmh2rcd13ifvqgmg","pricing_plan_id":"cebpf4jnsgd1na2vs0mg"},{"bike_id":"ec7bf5c8-52be-428c-8ec7-f34a907b13e2","system_id":"levelo_inurba_marseille","lat":43.30325,"lon":5.36903,"is_reserved":false,"is_disabled":false,"rental_uris":{"android":"levelo://app?vid=ec7bf5c8-52be-428c-8ec7-f34a907b13e2","ios":"levelo://app?vid=ec7bf5c8-52be-428c-8ec7-f34a907b13e2"},"vehicle_type_id":"4","last_reported":1743923304,"current_range_meters":14000,"station_id":"ce4bgqh2rcd13ifvqc5g","pricing_plan_id":"cebpf4jnsgd1na2vs0mg"},{"bike_id":"014c8a6b-46fc-4f15-bafe-c1e2893f51ef","system_id":"levelo_inurba_marseille","lat":43.29621,"lon":5.37169,"is_reserved":false,"is_disabled":false,"rental_uris":{"android":"levelo://app?vid=014c8a6b-46fc-4f15-bafe-c1e2893f51ef","ios":"levelo://app?vid=014c8a6b-46fc-4f15-bafe-c1e2893f51ef"},"vehicle_type_id":"4","last_reported":1743923304,"current_range_meters":14400,"station_id":"ce4bgnh2rcd13ifvqc0g","pricing_plan_id":"cebpf4jnsgd1na2vs0mg"},{"bike_id":"e332aab8-1fe3-40e9-8086-1f7d5ff35118","system_id":"levelo_inurba_marseille","lat":43.33162,"lon":5.381769,"is_reserved":false,"is_disabled":false,"rental_uris":{"android":"levelo://app?vid=e332aab8-1fe3-40e9-8086-1f7d5ff35118","ios":"levelo://app?vid=e332aab8-1fe3-40e9-8086-1f7d5ff35118"},"vehicle_type_id":"4","last_reported":1743923304,"current_range_meters":14400,"station_id":"","pricing_plan_id":"cebpf4jnsgd1na2vs0mg"},{"bike_id":"0eb63064-fdac-46db-8828-83c6999ff221","system_id":"levelo_inurba_marseille","lat":43.2865,"lon":5.38546,"is_reserved":false,"is_disabled":false,"rental_uris":{"android":"levelo://app?vid=0eb63064-fdac-46db-8828-83c6999ff221","ios":"levelo://app?vid=0eb63064-fdac-46db-8828-83c6999ff221"},"vehicle_type_id":"4","last_reported":1743923304,"current_range_meters":14400,"station_id":"","pricing_plan_id":"cebpf4jnsgd1na2vs0mg"},{"bike_id":"73272853-088e-4b39-8e6e-94fe10fc353c","system_id":"levelo_inurba_marseille","lat":43.33762,"lon":5.37492,"is_reserved":false,"is_disabled":false,"rental_uris":{"android":"levelo://app?vid=73272853-088e-4b39-8e6e-94fe10fc353c","ios":"levelo://app?vid=73272853-088e-4b39-8e6e-94fe10fc353c"},"vehicle_type_id":"4","last_reported":1743923304,"current_range_meters":14400,"station_id":"","pricing_plan_id":"cebpf4jnsgd1na2vs0mg"},{"bike_id":"90eefabd-bdae-4624-872e-20a02839d612","system_id":"levelo_inurba_marseille","lat":43.30652,"lon":5.40064,"is_reserved":false,"is_disabled":false,"rental_uris":{"android":"levelo://app?vid=90eefabd-bdae-4624-872e-20a02839d612","ios":"levelo://app?vid=90eefabd-bdae-4624-872e-20a02839d612"},"vehicle_type_id":"4","last_reported":1743923304,"current_range_meters":14400,"station_id":"ce4bh112rcd13ifvqda0","pricing_plan_id":"cebpf4jnsgd1na2vs0mg"},{"bike_id":"81b54145-1b41-434c-8893-b960eb3ab562","system_id":"levelo_inurba_marseille","lat":43.29593,"lon":5.37514,"is_reserved":false,"is_disabled":false,"rental_uris":{"android":"levelo://app?vid=81b54145-1b41-434c-8893-b960eb3ab562","ios":"levelo://app?vid=81b54145-1b41-434c-8893-b960eb3ab562"},"vehicle_type_id":"4","last_reported":1743923304,"current_range_meters":14800,"station_id":"ce4bgh92rcd13ifvqb50","pricing_plan_id":"cebpf4jnsgd1na2vs0mg"},{"bike_id":"873b9cb9-411d-441c-81fa-204f209e04e7","system_id":"levelo_inurba_marseille","lat":43.30839,"lon":5.37399,"is_reserved":false,"is_disabled":false,"rental_uris":{"android":"levelo://app?vid=873b9cb9-411d-441c-81fa-204f209e04e7","ios":"levelo://app?vid=873b9cb9-411d-441c-81fa-204f209e04e7"},"vehicle_type_id":"4","last_reported":1743923304,"current_range_meters":14800,"station_id":"","pricing_plan_id":"cebpf4jnsgd1na2vs0mg"},{"bike_id":"e4d4dc7a-abcd-4c1d-8017-887f937d011f","system_id":"levelo_inurba_marseille","lat":43.29582,"lon":5.39977,"is_reserved":false,"is_disabled":true,"rental_uris":{"android":"levelo://app?vid=e4d4dc7a-abcd-4c1d-8017-887f937d011f","ios":"levelo://app?vid=e4d4dc7a-abcd-4c1d-8017-887f937d011f"},"vehicle_type_id":"4","last_reported":1743923304,"current_range_meters":14800,"station_id":"ce4bh312rcd13ifvqdj0","pricing_plan_id":"cebpf4jnsgd1na2vs0mg"},{"bike_id":"fde89c15-925a-4ea4-886c-7b10545fc8bd","system_id":"levelo_inurba_marseille","lat":43.30305,"lon":5.36876,"is_reserved":false,"is_disabled":false,"rental_uris":{"android":"levelo://app?vid=fde89c15-925a-4ea4-886c-7b10545fc8bd","ios":"levelo://app?vid=fde89c15-925a-4ea4-886c-7b10545fc8bd"},"vehicle_type_id":"4","last_reported":1743923304,"current_range_meters":14800,"station_id":"ce4bgqh2rcd13ifvqc5g","pricing_plan_id":"cebpf4jnsgd1na2vs0mg"},{"bike_id":"7124513d-6ad9-47b2-b934-dbe93b3cba04","system_id":"levelo_inurba_marseille","lat":43.30656,"lon":5.40078,"is_reserved":false,"is_disabled":false,"rental_uris":{"android":"levelo://app?vid=7124513d-6ad9-47b2-b934-dbe93b3cba04","ios":"levelo://app?vid=7124513d-6ad9-47b2-b934-dbe93b3cba04"},"vehicle_type_id":"4","last_reported":1743923304,"current_range_meters":14800,"station_id":"ce4bh112rcd13ifvqda0","pricing_plan_id":"cebpf4jnsgd1na2vs0mg"},{"bike_id":"350e666a-10b7-4b84-9afa-fe3bebb82833","system_id":"levelo_inurba_marseille","lat":43.31127,"lon":5.38369,"is_reserved":false,"is_disabled":false,"rental_uris":{"android":"levelo://app?vid=350e666a-10b7-4b84-9afa-fe3bebb82833","ios":"levelo://app?vid=350e666a-10b7-4b84-9afa-fe3bebb82833"},"vehicle_type_id":"4","last_reported":1743923304,"current_range_meters":14800,"station_id":"","pricing_plan_id":"cebpf4jnsgd1na2vs0mg"},{"bike_id":"d553dd87-8cd1-4b81-808e-8aeb82a0fa0c","system_id":"levelo_inurba_marseille","lat":43.2801,"lon":5.36934,"is_reserved":false,"is_disabled":true,"rental_uris":{"android":"levelo://app?vid=d553dd87-8cd1-4b81-808e-8aeb82a0fa0c","ios":"levelo://app?vid=d553dd87-8cd1-4b81-808e-8aeb82a0fa0c"},"vehicle_type_id":"4","last_reported":1743923304,"current_range_meters":14800,"station_id":"ce4bha12rcd13ifvqef0","pricing_plan_id":"cebpf4jnsgd1na2vs0mg"},{"bike_id":"d6c3d7f4-760c-422c-8667-25e15a7934b3","system_id":"levelo_inurba_marseille","lat":43.30795,"lon":5.37444,"is_reserved":false,"is_disabled":false,"rental_uris":{"android":"levelo://app?vid=d6c3d7f4-760c-422c-8667-25e15a7934b3","ios":"levelo://app?vid=d6c3d7f4-760c-422c-8667-25e15a7934b3"},"vehicle_type_id":"4","last_reported":1743923304,"current_range_meters":15200,"station_id":"","pricing_plan_id":"cebpf4jnsgd1na2vs0mg"},{"bike_id":"530e934d-fa5f-4174-942f-60d0ca8604f7","system_id":"levelo_inurba_marseille","lat":43.28178,"lon":5.42648,"is_reserved":false,"is_disabled":false,"rental_uris":{"android":"levelo://app?vid=530e934d-fa5f-4174-942f-60d0ca8604f7","ios":"levelo://app?vid=530e934d-fa5f-4174-942f-60d0ca8604f7"},"vehicle_type_id":"4","last_reported":1743923304,"current_range_meters":15200,"station_id":"ce4bhnh2rcd13ifvqgug","pricing_plan_id":"cebpf4jnsgd1na2vs0mg"},{"bike_id":"46818100-7d2e-4766-8a25-c102eda0b9e2","system_id":"levelo_inurba_marseille","lat":43.2922,"lon":5.36063,"is_reserved":false,"is_disabled":false,"rental_uris":{"android":"levelo://app?vid=46818100-7d2e-4766-8a25-c102eda0b9e2","ios":"levelo://app?vid=46818100-7d2e-4766-8a25-c102eda0b9e2"},"vehicle_type_id":"4","last_reported":1743923304,"current_range_meters":15200,"station_id":"ce4bhbh2rcd13ifvqeqg","pricing_plan_id":"cebpf4jnsgd1na2vs0mg"},{"bike_id":"0e12fcc0-fc40-4f30-9646-f777233e8e19","system_id":"levelo_inurba_marseille","lat":43.2957,"lon":5.42281,"is_reserved":false,"is_disabled":false,"rental_uris":{"android":"levelo://app?vid=0e12fcc0-fc40-4f30-9646-f777233e8e19","ios":"levelo://app?vid=0e12fcc0-fc40-4f30-9646-f777233e8e19"},"vehicle_type_id":"4","last_reported":1743923304,"current_range_meters":15200,"station_id":"ce4bhph2rcd13ifvqhdg","pricing_plan_id":"cebpf4jnsgd1na2vs0mg"},{"bike_id":"c89b7457-08f2-4f20-a231-5d1d545645d6","system_id":"levelo_inurba_marseille","lat":43.30159,"lon":5.39907,"is_reserved":false,"is_disabled":false,"rental_uris":{"android":"levelo://app?vid=c89b7457-08f2-4f20-a231-5d1d545645d6","ios":"levelo://app?vid=c89b7457-08f2-4f20-a231-5d1d545645d6"},"vehicle_type_id":"4","last_reported":1743923304,"current_range_meters":15200,"station_id":"ce4bh0h2rcd13ifvqd40","pricing_plan_id":"cebpf4jnsgd1na2vs0mg"},{"bike_id":"b2e6d730-1ae9-4dd3-ab0c-1de601c116c2","system_id":"levelo_inurba_marseille","lat":43.25086,"lon":5.39522,"is_reserved":false,"is_disabled":false,"rental_uris":{"android":"levelo://app?vid=b2e6d730-1ae9-4dd3-ab0c-1de601c116c2","ios":"levelo://app?vid=b2e6d730-1ae9-4dd3-ab0c-1de601c116c2"},"vehicle_type_id":"4","last_reported":1743923304,"current_range_meters":15200,"station_id":"ce4bhm12rcd13ifvqgkg","pricing_plan_id":"cebpf4jnsgd1na2vs0mg"},{"bike_id":"c080dbc5-9a0b-4be2-88b8-b17e9d606a89","system_id":"levelo_inurba_marseille","lat":43.30783,"lon":5.38173,"is_reserved":false,"is_disabled":false,"rental_uris":{"android":"levelo://app?vid=c080dbc5-9a0b-4be2-88b8-b17e9d606a89","ios":"levelo://app?vid=c080dbc5-9a0b-4be2-88b8-b17e9d606a89"},"vehicle_type_id":"4","last_reported":1743923304,"current_range_meters":16000,"station_id":"ce4bgt12rcd13ifvqce0","pricing_plan_id":"cebpf4jnsgd1na2vs0mg"},{"bike_id":"8cfd8938-ab02-4f88-9086-591f1be1afd7","system_id":"levelo_inurba_marseille","lat":43.23074,"lon":5.35526,"is_reserved":false,"is_disabled":true,"rental_uris":{"android":"levelo://app?vid=8cfd8938-ab02-4f88-9086-591f1be1afd7","ios":"levelo://app?vid=8cfd8938-ab02-4f88-9086-591f1be1afd7"},"vehicle_type_id":"4","last_reported":1743923304,"current_range_meters":16000,"station_id":"cpo3342slgdg3j2ifvpg","pricing_plan_id":"cebpf4jnsgd1na2vs0mg"},{"bike_id":"98934827-7a36-4e0d-98f2-96ff1ecd834e","system_id":"levelo_inurba_marseille","lat":43.28005,"lon":5.40017,"is_reserved":false,"is_disabled":false,"rental_uris":{"android":"levelo://app?vid=98934827-7a36-4e0d-98f2-96ff1ecd834e","ios":"levelo://app?vid=98934827-7a36-4e0d-98f2-96ff1ecd834e"},"vehicle_type_id":"4","last_reported":1743923304,"current_range_meters":16000,"station_id":"ce4bho92rcd13ifvqh4g","pricing_plan_id":"cebpf4jnsgd1na2vs0mg"},{"bike_id":"bbbb2130-3c5a-48b0-aac0-3841b6c01215","system_id":"levelo_inurba_marseille","lat":43.29872,"lon":5.36289,"is_reserved":false,"is_disabled":false,"rental_uris":{"android":"levelo://app?vid=bbbb2130-3c5a-48b0-aac0-3841b6c01215","ios":"levelo://app?vid=bbbb2130-3c5a-48b0-aac0-3841b6c01215"},"vehicle_type_id":"4","last_reported":1743923304,"current_range_meters":16000,"station_id":"ce4bgpp2rcd13ifvqc3g","pricing_plan_id":"cebpf4jnsgd1na2vs0mg"},{"bike_id":"f84b956f-2981-462e-8cf6-186374de0c37","system_id":"levelo_inurba_marseille","lat":43.317039,"lon":5.437017,"is_reserved":false,"is_disabled":false,"rental_uris":{"android":"levelo://app?vid=f84b956f-2981-462e-8cf6-186374de0c37","ios":"levelo://app?vid=f84b956f-2981-462e-8cf6-186374de0c37"},"vehicle_type_id":"4","last_reported":1743923304,"current_range_meters":16000,"station_id":"ce4bhp92rcd13ifvqhcg","pricing_plan_id":"cebpf4jnsgd1na2vs0mg"},{"bike_id":"5802201a-7612-4ef8-b5c6-fd4c28cf0138","system_id":"levelo_inurba_marseille","lat":43.304085,"lon":5.413035,"is_reserved":false,"is_disabled":false,"rental_uris":{"android":"levelo://app?vid=5802201a-7612-4ef8-b5c6-fd4c28cf0138","ios":"levelo://app?vid=5802201a-7612-4ef8-b5c6-fd4c28cf0138"},"vehicle_type_id":"4","last_reported":1743923304,"current_range_meters":16000,"station_id":"ce4bhop2rcd13ifvqh8g","pricing_plan_id":"cebpf4jnsgd1na2vs0mg"},{"bike_id":"4a1cb96e-3080-483d-924e-26f54c7180d8","system_id":"levelo_inurba_marseille","lat":43.32154,"lon":5.36785,"is_reserved":false,"is_disabled":false,"rental_uris":{"android":"levelo://app?vid=4a1cb96e-3080-483d-924e-26f54c7180d8","ios":"levelo://app?vid=4a1cb96e-3080-483d-924e-26f54c7180d8"},"vehicle_type_id":"4","last_reported":1743923304,"current_range_meters":16000,"station_id":"ce4bhrh2rcd13ifvqhug","pricing_plan_id":"cebpf4jnsgd1na2vs0mg"},{"bike_id":"ece386c2-0345-47e9-84ab-7b1754fbfe3d","system_id":"levelo_inurba_marseille","lat":43.30663,"lon":5.40078,"is_reserved":false,"is_disabled":false,"rental_uris":{"android":"levelo://app?vid=ece386c2-0345-47e9-84ab-7b1754fbfe3d","ios":"levelo://app?vid=ece386c2-0345-47e9-84ab-7b1754fbfe3d"},"vehicle_type_id":"4","last_reported":1743923304,"current_range_meters":16000,"station_id":"ce4bh112rcd13ifvqda0","pricing_plan_id":"cebpf4jnsgd1na2vs0mg"},{"bike_id":"958e55f3-2a49-45f3-b3cc-031ec71d2e20","system_id":"levelo_inurba_marseille","lat":43.298466,"lon":5.362975,"is_reserved":false,"is_disabled":false,"rental_uris":{"android":"levelo://app?vid=958e55f3-2a49-45f3-b3cc-031ec71d2e20","ios":"levelo://app?vid=958e55f3-2a49-45f3-b3cc-031ec71d2e20"},"vehicle_type_id":"4","last_reported":1743923304,"current_range_meters":16000,"station_id":"ce4bgpp2rcd13ifvqc3g","pricing_plan_id":"cebpf4jnsgd1na2vs0mg"},{"bike_id":"ea6b6ccf-b986-4e5a-8fdd-7474fb270169","system_id":"levelo_inurba_marseille","lat":43.28179,"lon":5.42665,"is_reserved":false,"is_disabled":false,"rental_uris":{"android":"levelo://app?vid=ea6b6ccf-b986-4e5a-8fdd-7474fb270169","ios":"levelo://app?vid=ea6b6ccf-b986-4e5a-8fdd-7474fb270169"},"vehicle_type_id":"4","last_reported":1743923304,"current_range_meters":16400,"station_id":"ce4bhnh2rcd13ifvqgug","pricing_plan_id":"cebpf4jnsgd1na2vs0mg"},{"bike_id":"40a621c0-90fc-49e7-b4b6-60f8184e982f","system_id":"levelo_inurba_marseille","lat":43.32269,"lon":5.38299,"is_reserved":false,"is_disabled":false,"rental_uris":{"android":"levelo://app?vid=40a621c0-90fc-49e7-b4b6-60f8184e982f","ios":"levelo://app?vid=40a621c0-90fc-49e7-b4b6-60f8184e982f"},"vehicle_type_id":"4","last_reported":1743923304,"current_range_meters":16400,"station_id":"ce4bhr12rcd13ifvqhqg","pricing_plan_id":"cebpf4jnsgd1na2vs0mg"},{"bike_id":"a959694d-18ce-4d80-917f-23c91ed81065","system_id":"levelo_inurba_marseille","lat":43.29875,"lon":5.43628,"is_reserved":false,"is_disabled":false,"rental_uris":{"android":"levelo://app?vid=a959694d-18ce-4d80-917f-23c91ed81065","ios":"levelo://app?vid=a959694d-18ce-4d80-917f-23c91ed81065"},"vehicle_type_id":"4","last_reported":1743923304,"current_range_meters":16400,"station_id":"ce4bhpp2rcd13ifvqhfg","pricing_plan_id":"cebpf4jnsgd1na2vs0mg"},{"bike_id":"0ba85086-e7ca-4889-b53d-f84fd8045f2f","system_id":"levelo_inurba_marseille","lat":43.26931,"lon":5.400871,"is_reserved":false,"is_disabled":false,"rental_uris":{"android":"levelo://app?vid=0ba85086-e7ca-4889-b53d-f84fd8045f2f","ios":"levelo://app?vid=0ba85086-e7ca-4889-b53d-f84fd8045f2f"},"vehicle_type_id":"4","last_reported":1743923304,"current_range_meters":16400,"station_id":"","pricing_plan_id":"cebpf4jnsgd1na2vs0mg"},{"bike_id":"29cffe11-e0c1-4f86-9b4e-543bffdaf04d","system_id":"levelo_inurba_marseille","lat":43.308047,"lon":5.435266,"is_reserved":false,"is_disabled":false,"rental_uris":{"android":"levelo://app?vid=29cffe11-e0c1-4f86-9b4e-543bffdaf04d","ios":"levelo://app?vid=29cffe11-e0c1-4f86-9b4e-543bffdaf04d"},"vehicle_type_id":"4","last_reported":1743923304,"current_range_meters":16400,"station_id":"ce4bhph2rcd13ifvqheg","pricing_plan_id":"cebpf4jnsgd1na2vs0mg"},{"bike_id":"aaebb233-4b83-402c-ba65-193008c6277e","system_id":"levelo_inurba_marseille","lat":43.29924,"lon":5.36537,"is_reserved":false,"is_disabled":false,"rental_uris":{"android":"levelo://app?vid=aaebb233-4b83-402c-ba65-193008c6277e","ios":"levelo://app?vid=aaebb233-4b83-402c-ba65-193008c6277e"},"vehicle_type_id":"4","last_reported":1743923304,"current_range_meters":16400,"station_id":"ce4bgm92rcd13ifvqbr0","pricing_plan_id":"cebpf4jnsgd1na2vs0mg"},{"bike_id":"f8cd1080-6c6d-4a30-90b4-6915b2f4d13d","system_id":"levelo_inurba_marseille","lat":43.26566,"lon":5.37247,"is_reserved":false,"is_disabled":false,"rental_uris":{"android":"levelo://app?vid=f8cd1080-6c6d-4a30-90b4-6915b2f4d13d","ios":"levelo://app?vid=f8cd1080-6c6d-4a30-90b4-6915b2f4d13d"},"vehicle_type_id":"4","last_reported":1743923304,"current_range_meters":16400,"station_id":"ce4bhg12rcd13ifvqf70","pricing_plan_id":"cebpf4jnsgd1na2vs0mg"},{"bike_id":"c2b30833-e231-4318-9d5b-5fc2c3f0dff8","system_id":"levelo_inurba_marseille","lat":43.24651,"lon":5.38166,"is_reserved":false,"is_disabled":false,"rental_uris":{"android":"levelo://app?vid=c2b30833-e231-4318-9d5b-5fc2c3f0dff8","ios":"levelo://app?vid=c2b30833-e231-4318-9d5b-5fc2c3f0dff8"},"vehicle_type_id":"4","last_reported":1743923304,"current_range_meters":16400,"station_id":"ce4bhih2rcd13ifvqfr0","pricing_plan_id":"cebpf4jnsgd1na2vs0mg"},{"bike_id":"f95df092-7a38-43d8-b216-a3bf2a702083","system_id":"levelo_inurba_marseille","lat":43.30823,"lon":5.43534,"is_reserved":false,"is_disabled":false,"rental_uris":{"android":"levelo://app?vid=f95df092-7a38-43d8-b216-a3bf2a702083","ios":"levelo://app?vid=f95df092-7a38-43d8-b216-a3bf2a702083"},"vehicle_type_id":"4","last_reported":1743923304,"current_range_meters":16400,"station_id":"ce4bhph2rcd13ifvqheg","pricing_plan_id":"cebpf4jnsgd1na2vs0mg"},{"bike_id":"da0670c7-fedc-4cac-90fa-69b612536bd8","system_id":"levelo_inurba_marseille","lat":43.28417,"lon":5.34988,"is_reserved":false,"is_disabled":false,"rental_uris":{"android":"levelo://app?vid=da0670c7-fedc-4cac-90fa-69b612536bd8","ios":"levelo://app?vid=da0670c7-fedc-4cac-90fa-69b612536bd8"},"vehicle_type_id":"4","last_reported":1743923304,"current_range_meters":16800,"station_id":"ce4bhbh2rcd13ifvqepg","pricing_plan_id":"cebpf4jnsgd1na2vs0mg"},{"bike_id":"8b60bebc-2719-4302-a640-cda4abe45362","system_id":"levelo_inurba_marseille","lat":43.275403,"lon":5.412973,"is_reserved":false,"is_disabled":false,"rental_uris":{"android":"levelo://app?vid=8b60bebc-2719-4302-a640-cda4abe45362","ios":"levelo://app?vid=8b60bebc-2719-4302-a640-cda4abe45362"},"vehicle_type_id":"4","last_reported":1743923304,"current_range_meters":16800,"station_id":"","pricing_plan_id":"cebpf4jnsgd1na2vs0mg"},{"bike_id":"cb5d4bb6-8ec0-4bbf-9363-b00c25eb6018","system_id":"levelo_inurba_marseille","lat":43.280348,"lon":5.369431,"is_reserved":false,"is_disabled":false,"rental_uris":{"android":"levelo://app?vid=cb5d4bb6-8ec0-4bbf-9363-b00c25eb6018","ios":"levelo://app?vid=cb5d4bb6-8ec0-4bbf-9363-b00c25eb6018"},"vehicle_type_id":"4","last_reported":1743923304,"current_range_meters":16800,"station_id":"ce4bha12rcd13ifvqef0","pricing_plan_id":"cebpf4jnsgd1na2vs0mg"},{"bike_id":"ba991623-d196-4285-bb24-378dab583942","system_id":"levelo_inurba_marseille","lat":43.32278,"lon":5.38273,"is_reserved":false,"is_disabled":false,"rental_uris":{"android":"levelo://app?vid=ba991623-d196-4285-bb24-378dab583942","ios":"levelo://app?vid=ba991623-d196-4285-bb24-378dab583942"},"vehicle_type_id":"4","last_reported":1743923304,"current_range_meters":16800,"station_id":"ce4bhr12rcd13ifvqhqg","pricing_plan_id":"cebpf4jnsgd1na2vs0mg"},{"bike_id":"5239359e-66fc-4d8f-b426-41386f53e34b","system_id":"levelo_inurba_marseille","lat":43.31307,"lon":5.39706,"is_reserved":false,"is_disabled":false,"rental_uris":{"android":"levelo://app?vid=5239359e-66fc-4d8f-b426-41386f53e34b","ios":"levelo://app?vid=5239359e-66fc-4d8f-b426-41386f53e34b"},"vehicle_type_id":"4","last_reported":1743923304,"current_range_meters":16800,"station_id":"ce4bgvp2rcd13ifvqcu0","pricing_plan_id":"cebpf4jnsgd1na2vs0mg"},{"bike_id":"33f3816c-12e7-49be-befd-aeb487ab17aa","system_id":"levelo_inurba_marseille","lat":43.30795,"lon":5.43518,"is_reserved":false,"is_disabled":false,"rental_uris":{"android":"levelo://app?vid=33f3816c-12e7-49be-befd-aeb487ab17aa","ios":"levelo://app?vid=33f3816c-12e7-49be-befd-aeb487ab17aa"},"vehicle_type_id":"4","last_reported":1743923304,"current_range_meters":16800,"station_id":"ce4bhph2rcd13ifvqheg","pricing_plan_id":"cebpf4jnsgd1na2vs0mg"},{"bike_id":"26917ba2-a987-4b4c-85e2-204645024679","system_id":"levelo_inurba_marseille","lat":43.23958,"lon":5.36654,"is_reserved":false,"is_disabled":false,"rental_uris":{"android":"levelo://app?vid=26917ba2-a987-4b4c-85e2-204645024679","ios":"levelo://app?vid=26917ba2-a987-4b4c-85e2-204645024679"},"vehicle_type_id":"4","last_reported":1743923304,"current_range_meters":16800,"station_id":"ce4bhi12rcd13ifvqfp0","pricing_plan_id":"cebpf4jnsgd1na2vs0mg"},{"bike_id":"4b80b757-a513-41f7-a595-087af9305302","system_id":"levelo_inurba_marseille","lat":43.287254,"lon":5.360849,"is_reserved":false,"is_disabled":false,"rental_uris":{"android":"levelo://app?vid=4b80b757-a513-41f7-a595-087af9305302","ios":"levelo://app?vid=4b80b757-a513-41f7-a595-087af9305302"},"vehicle_type_id":"4","last_reported":1743923304,"current_range_meters":16800,"station_id":"cki0cbj6b192h4jlfktg","pricing_plan_id":"cebpf4jnsgd1na2vs0mg"},