{"last_updated":1685826328,"ttl":30,"version":"2.2","data":{"bikes":[{"bike_id":"4d43e892-ec90-4fce-8475-f727fed3851f","system_id":"levelo_inurba_marseille","lat":43.31927,"lon":5.36679,"is_reserved":false,"is_disabled":false,"rental_uris":{"android":"levelo://app?vid=4d43e892-ec90-4fce-8475-f727fed3851f","ios":"levelo://app?vid=4d43e892-ec90-4fce-8475-f727fed3851f"},"vehicle_type_id":"4","last_reported":1685826328,"current_range_meters":3600,"station_id":"","pricing_plan_id":"free"},{"bike_id":"9de860ae-a821-4436-9e9a-3df93a32f1f9","system_id":"levelo_inurba_marseille","lat":43.311175,"lon":5.377713,"is_reserved":false,"is_disabled":false,"rental_uris":{"android":"levelo://app?vid=9de860ae-a821-4436-9e9a-3df93a32f1f9","ios":"levelo://app?vid=9de860ae-a821-4436-9e9a-3df93a32f1f9"},"vehicle_type_id":"4","last_reported":1685826328,"current_range_meters":20000,"station_id":"","pricing_plan_id":"free"},{"bike_id":"e8db647d-6d28-4c94-b25b-aba8f21333f4","system_id":"levelo_inurba_marseille","lat":43.303046,"lon":5.368981,"is_reserved":false,"is_disabled":false,"rental_uris":{"android":"levelo://app?vid=e8db647d-6d28-4c94-b25b-aba8f21333f4","ios":"levelo://app?vid=e8db647d-6d28-4c94-b25b-aba8f21333f4"},"vehicle_type_id":"4","last_reported":1685826328,"current_range_meters":11600,"station_id":"ce4bgqh2rcd13ifvqc5g","pricing_plan_id":"free"},{"bike_id":"647bf15e-224c-43f6-b3fa-0ed1f5773e07","system_id":"levelo_inurba_marseille","lat":43.3029,"lon":5.36763,"is_reserved":false,"is_disabled":false,"rental_uris":{"android":"levelo://app?vid=647bf15e-224c-43f6-b3fa-0ed1f5773e07","ios":"levelo://app?vid=647bf15e-224c-43f6-b3fa-0ed1f5773e07"},"vehicle_type_id":"4","last_reported":1685826328,"current_range_meters":8400,"station_id":"","pricing_plan_id":"free"},{"bike_id":"994fd81e-6db6-4408-acc8-bec511d624f9","system_id":"levelo_inurba_marseille","lat":43.319935,"lon":5.381699,"is_reserved":false,"is_disabled":false,"rental_uris":{"android":"levelo://app?vid=994fd81e-6db6-4408-acc8-bec511d624f9","ios":"levelo://app?vid=994fd81e-6db6-4408-acc8-bec511d624f9"},"vehicle_type_id":"4","last_reported":1685826328,"current_range_meters":19600,"station_id":"ce4bhr12rcd13ifvqhpg","pricing_plan_id":"free"},{"bike_id":"d6d55402-ec75-47a8-9db6-39a66ff5c655","system_id":"levelo_inurba_marseille","lat":43.319935,"lon":5.381699,"is_reserved":false,"is_disabled":false,"rental_uris":{"android":"levelo://app?vid=d6d55402-ec75-47a8-9db6-39a66ff5c655","ios":"levelo://app?vid=d6d55402-ec75-47a8-9db6-39a66ff5c655"},"vehicle_type_id":"4","last_reported":1685826328,"current_range_meters":6000,"station_id":"ce4bhr12rcd13ifvqhpg","pricing_plan_id":"free"},{"bike_id":"1f1dc83b-8ccb-4689-a2db-9ce7e1fda49c","system_id":"levelo_inurba_marseille","lat":43.319935,"lon":5.381699,"is_reserved":false,"is_disabled":false,"rental_uris":{"android":"levelo://app?vid=1f1dc83b-8ccb-4689-a2db-9ce7e1fda49c","ios":"levelo://app?vid=1f1dc83b-8ccb-4689-a2db-9ce7e1fda49c"},"vehicle_type_id":"4","last_reported":1685826328,"current_range_meters":6000,"station_id":"ce4bhr12rcd13ifvqhpg","pricing_plan_id":"free"},{"bike_id":"d9d247d9-9e28-4497-a65e-365a07986a7d","system_id":"levelo_inurba_marseille","lat":43.313571,"lon":5.384829,"is_reserved":false,"is_disabled":false,"rental_uris":{"android":"levelo://app?vid=d9d247d9-9e28-4497-a65e-365a07986a7d","ios":"levelo://app?vid=d9d247d9-9e28-4497-a65e-365a07986a7d"},"vehicle_type_id":"4","last_reported":1685826328,"current_range_meters":19200,"station_id":"ce4bgt92rcd13ifvqcf0","pricing_plan_id":"free"},{"bike_id":"cc361804-82e5-4efb-8f6d-531287b81982","system_id":"levelo_inurba_marseille","lat":43.313571,"lon":5.384829,"is_reserved":false,"is_disabled":false,"rental_uris":{"android":"levelo://app?vid=cc361804-82e5-4efb-8f6d-531287b81982","ios":"levelo://app?vid=cc361804-82e5-4efb-8f6d-531287b81982"},"vehicle_type_id":"4","last_reported":1685826328,"current_range_meters":28000,"station_id":"ce4bgt92rcd13ifvqcf0","pricing_plan_id":"free"},{"bike_id":"77b1248e-24c5-490f-b5ae-5d0da8693aeb","system_id":"levelo_inurba_marseille","lat":43.313571,"lon":5.384829,"is_reserved":false,"is_disabled":false,"rental_uris":{"android":"levelo://app?vid=77b1248e-24c5-490f-b5ae-5d0da8693aeb","ios":"levelo://app?vid=77b1248e-24c5-490f-b5ae-5d0da8693aeb"},"vehicle_type_id":"4","last_reported":1685826328,"current_range_meters":30400,"station_id":"ce4bgt92rcd13ifvqcf0","pricing_plan_id":"free"},{"bike_id":"f5d686f2-d4c7-4003-b634-34ee0b592a6b","system_id":"levelo_inurba_marseille","lat":43.29937,"lon":5.3655,"is_reserved":false,"is_disabled":false,"rental_uris":{"android":"levelo://app?vid=f5d686f2-d4c7-4003-b634-34ee0b592a6b","ios":"levelo://app?vid=f5d686f2-d4c7-4003-b634-34ee0b592a6b"},"vehicle_type_id":"4","last_reported":1685826328,"current_range_meters":0,"station_id":"ce4bgm92rcd13ifvqbr0","pricing_plan_id":"free"},{"bike_id":"d0811d40-ed68-4bf0-8ef2-ef169afb4e94","system_id":"levelo_inurba_marseille","lat":43.29851,"lon":5.36288,"is_reserved":false,"is_disabled":false,"rental_uris":{"android":"levelo://app?vid=d0811d40-ed68-4bf0-8ef2-ef169afb4e94","ios":"levelo://app?vid=d0811d40-ed68-4bf0-8ef2-ef169afb4e94"},"vehicle_type_id":"4","last_reported":1685826328,"current_range_meters":0,"station_id":"ce4bgpp2rcd13ifvqc3g","pricing_plan_id":"free"},{"bike_id":"2bb542f6-c3af-4b7e-af4a-8d03d2942ede","system_id":"levelo_inurba_marseille","lat":43.298433,"lon":5.362774,"is_reserved":false,"is_disabled":false,"rental_uris":{"android":"levelo://app?vid=2bb542f6-c3af-4b7e-af4a-8d03d2942ede","ios":"levelo://app?vid=2bb542f6-c3af-4b7e-af4a-8d03d2942ede"},"vehicle_type_id":"4","last_reported":1685826328,"current_range_meters":0,"station_id":"ce4bgpp2rcd13ifvqc3g","pricing_plan_id":"free"},{"bike_id":"4f585299-d054-4381-877e-36440f0ce685","system_id":"levelo_inurba_marseille","lat":43.297774,"lon":5.370875,"is_reserved":false,"is_disabled":false,"rental_uris":{"android":"levelo://app?vid=4f585299-d054-4381-877e-36440f0ce685","ios":"levelo://app?vid=4f585299-d054-4381-877e-36440f0ce685"},"vehicle_type_id":"4","last_reported":1685826328,"current_range_meters":4400,"station_id":"ce4bgop2rcd13ifvqc1g","pricing_plan_id":"free"},{"bike_id":"8ebcc512-ef8f-4c53-b1a5-474e6b79e0ce","system_id":"levelo_inurba_marseille","lat":43.261782,"lon":5.374515,"is_reserved":false,"is_disabled":false,"rental_uris":{"android":"levelo://app?vid=8ebcc512-ef8f-4c53-b1a5-474e6b79e0ce","ios":"levelo://app?vid=8ebcc512-ef8f-4c53-b1a5-474e6b79e0ce"},"vehicle_type_id":"4","last_reported":1685826328,"current_range_meters":6000,"station_id":"ce4bhgp2rcd13ifvqfc0","pricing_plan_id":"free"},{"bike_id":"4879a260-9f1b-402b-bd89-3bac325db973","system_id":"levelo_inurba_marseille","lat":43.317557,"lon":5.390173,"is_reserved":false,"is_disabled":false,"rental_uris":{"android":"levelo://app?vid=4879a260-9f1b-402b-bd89-3bac325db973","ios":"levelo://app?vid=4879a260-9f1b-402b-bd89-3bac325db973"},"vehicle_type_id":"4","last_reported":1685826328,"current_range_meters":4400,"station_id":"ce4bhqp2rcd13ifvqhng","pricing_plan_id":"free"},{"bike_id":"7ae4910b-e49f-453d-ae0f-7adfc77f1625","system_id":"levelo_inurba_marseille","lat":43.295748,"lon":5.37522,"is_reserved":false,"is_disabled":false,"rental_uris":{"android":"levelo://app?vid=7ae4910b-e49f-453d-ae0f-7adfc77f1625","ios":"levelo://app?vid=7ae4910b-e49f-453d-ae0f-7adfc77f1625"},"vehicle_type_id":"4","last_reported":1685826328,"current_range_meters":0,"station_id":"ce4bgh92rcd13ifvqb50","pricing_plan_id":"free"},{"bike_id":"befb2652-959a-439c-96ab-b8d53a1320a6","system_id":"levelo_inurba_marseille","lat":43.295748,"lon":5.37522,"is_reserved":false,"is_disabled":false,"rental_uris":{"android":"levelo://app?vid=befb2652-959a-439c-96ab-b8d53a1320a6","ios":"levelo://app?vid=befb2652-959a-439c-96ab-b8d53a1320a6"},"vehicle_type_id":"4","last_reported":1685826328,"current_range_meters":0,"station_id":"ce4bgh92rcd13ifvqb50","pricing_plan_id":"free"},{"bike_id":"6285f222-0b2a-4a96-97a8-9e5e72b54ea6","system_id":"levelo_inurba_marseille","lat":43.295748,"lon":5.37522,"is_reserved":false,"is_disabled":false,"rental_uris":{"android":"levelo://app?vid=6285f222-0b2a-4a96-97a8-9e5e72b54ea6","ios":"levelo://app?vid=6285f222-0b2a-4a96-97a8-9e5e72b54ea6"},"vehicle_type_id":"4","last_reported":1685826328,"current_range_meters":30800,"station_id":"ce4bgh92rcd13ifvqb50","pricing_plan_id":"free"},{"bike_id":"06ee3d68-45f1-442d-8e17-fae93ca9ef81","system_id":"levelo_inurba_marseille","lat":43.29601,"lon":5.381084,"is_reserved":false,"is_disabled":false,"rental_uris":{"android":"levelo://app?vid=06ee3d68-45f1-442d-8e17-fae93ca9ef81","ios":"levelo://app?vid=06ee3d68-45f1-442d-8e17-fae93ca9ef81"},"vehicle_type_id":"4","last_reported":1685826328,"current_range_meters":29200,"station_id":"ce4bgl12rcd13ifvqbo0","pricing_plan_id":"free"},{"bike_id":"39fda0da-dce3-41a6-8646-e96c9e748c90","system_id":"levelo_inurba_marseille","lat":43.29242,"lon":5.3663,"is_reserved":false,"is_disabled":false,"rental_uris":{"android":"levelo://app?vid=39fda0da-dce3-41a6-8646-e96c9e748c90","ios":"levelo://app?vid=39fda0da-dce3-41a6-8646-e96c9e748c90"},"vehicle_type_id":"4","last_reported":1685826328,"current_range_meters":24800,"station_id":"","pricing_plan_id":"free"},{"bike_id":"0d085608-bc15-4a77-9ba9-a5d9bcaf93b5","system_id":"levelo_inurba_marseille","lat":43.293009,"lon":5.374584,"is_reserved":false,"is_disabled":false,"rental_uris":{"android":"levelo://app?vid=0d085608-bc15-4a77-9ba9-a5d9bcaf93b5","ios":"levelo://app?vid=0d085608-bc15-4a77-9ba9-a5d9bcaf93b5"},"vehicle_type_id":"4","last_reported":1685826328,"current_range_meters":2800,"station_id":"ce4bgi12rcd13ifvqb70","pricing_plan_id":"free"},{"bike_id":"989c541f-27fa-4d64-830d-e85a703b1dcf","system_id":"levelo_inurba_marseille","lat":43.302992,"lon":5.392136,"is_reserved":false,"is_disabled":false,"rental_uris":{"android":"levelo://app?vid=989c541f-27fa-4d64-830d-e85a703b1dcf","ios":"levelo://app?vid=989c541f-27fa-4d64-830d-e85a703b1dcf"},"vehicle_type_id":"4","last_reported":1685826328,"current_range_meters":800,"station_id":"ce4bgkh2rcd13ifvqbk0","pricing_plan_id":"free"},{"bike_id":"ddef3448-29c9-48a2-acb4-ffe28e66231c","system_id":"levelo_inurba_marseille","lat":43.302992,"lon":5.392136,"is_reserved":false,"is_disabled":false,"rental_uris":{"android":"levelo://app?vid=ddef3448-29c9-48a2-acb4-ffe28e66231c","ios":"levelo://app?vid=ddef3448-29c9-48a2-acb4-ffe28e66231c"},"vehicle_type_id":"4","last_reported":1685826328,"current_range_meters":22800,"station_id":"ce4bgkh2rcd13ifvqbk0","pricing_plan_id":"free"},{"bike_id":"dc2506c7-c350-4bce-9ffa-d4be03e44d0a","system_id":"levelo_inurba_marseille","lat":43.300852,"lon":5.390859,"is_reserved":false,"is_disabled":false,"rental_uris":{"android":"levelo://app?vid=dc2506c7-c350-4bce-9ffa-d4be03e44d0a","ios":"levelo://app?vid=dc2506c7-c350-4bce-9ffa-d4be03e44d0a"},"vehicle_type_id":"4","last_reported":1685826328,"current_range_meters":21600,"station_id":"ce4bh192rcd13ifvqdb0","pricing_plan_id":"free"},{"bike_id":"75e9b28f-9703-456a-b5c1-ffbb653e85d4","system_id":"levelo_inurba_marseille","lat":43.313291,"lon":5.396838,"is_reserved":false,"is_disabled":false,"rental_uris":{"android":"levelo://app?vid=75e9b28f-9703-456a-b5c1-ffbb653e85d4","ios":"levelo://app?vid=75e9b28f-9703-456a-b5c1-ffbb653e85d4"},"vehicle_type_id":"4","last_reported":1685826328,"current_range_meters":0,"station_id":"ce4bgvp2rcd13ifvqcu0","pricing_plan_id":"free"},{"bike_id":"2dbc1604-15cf-49e1-8c77-696eff04d9ec","system_id":"levelo_inurba_marseille","lat":43.29076,"lon":5.37156,"is_reserved":false,"is_disabled":false,"rental_uris":{"android":"levelo://app?vid=2dbc1604-15cf-49e1-8c77-696eff04d9ec","ios":"levelo://app?vid=2dbc1604-15cf-49e1-8c77-696eff04d9ec"},"vehicle_type_id":"4","last_reported":1685826328,"current_range_meters":5600,"station_id":"ce4bh5p2rcd13ifvqe4g","pricing_plan_id":"free"},{"bike_id":"a1d588f9-8125-4a8f-9f59-c1cf1bdc5430","system_id":"levelo_inurba_marseille","lat":43.32814,"lon":5.38924,"is_reserved":false,"is_disabled":false,"rental_uris":{"android":"levelo://app?vid=a1d588f9-8125-4a8f-9f59-c1cf1bdc5430","ios":"levelo://app?vid=a1d588f9-8125-4a8f-9f59-c1cf1bdc5430"},"vehicle_type_id":"4","last_reported":1685826328,"current_range_meters":15600,"station_id":"","pricing_plan_id":"free"},{"bike_id":"30a0d2d8-aeea-4548-b50e-9090fcafdacc","system_id":"levelo_inurba_marseille","lat":43.302008,"lon":5.394694,"is_reserved":false,"is_disabled":false,"rental_uris":{"android":"levelo://app?vid=30a0d2d8-aeea-4548-b50e-9090fcafdacc","ios":"levelo://app?vid=30a0d2d8-aeea-4548-b50e-9090fcafdacc"},"vehicle_type_id":"4","last_reported":1685826328,"current_range_meters":0,"station_id":"ce4bh0p2rcd13ifvqd70","pricing_plan_id":"free"},{"bike_id":"9b022a7c-1bbe-4cbd-b132-c6d1245a0bc9","system_id":"levelo_inurba_marseille","lat":43.290631,"lon":5.359244,"is_reserved":false,"is_disabled":false,"rental_uris":{"android":"levelo://app?vid=9b022a7c-1bbe-4cbd-b132-c6d1245a0bc9","ios":"levelo://app?vid=9b022a7c-1bbe-4cbd-b132-c6d1245a0bc9"},"vehicle_type_id":"4","last_reported":1685826328,"current_range_meters":0,"station_id":"ce4bha92rcd13ifvqeg0","pricing_plan_id":"free"},{"bike_id":"dcb00244-aef9-4eec-91cd-42ea75ebd82c","system_id":"levelo_inurba_marseille","lat":43.3304,"lon":5.38914,"is_reserved":false,"is_disabled":false,"rental_uris":{"android":"levelo://app?vid=dcb00244-aef9-4eec-91cd-42ea75ebd82c","ios":"levelo://app?vid=dcb00244-aef9-4eec-91cd-42ea75ebd82c"},"vehicle_type_id":"4","last_reported":1685826328,"current_range_meters":6000,"station_id":"ce4bhr92rcd13ifvqhrg","pricing_plan_id":"free"},{"bike_id":"1c4a5d89-01bc-4130-9591-e3ca4cb1ba1e","system_id":"levelo_inurba_marseille","lat":43.33038,"lon":5.38917,"is_reserved":false,"is_disabled":false,"rental_uris":{"android":"levelo://app?vid=1c4a5d89-01bc-4130-9591-e3ca4cb1ba1e","ios":"levelo://app?vid=1c4a5d89-01bc-4130-9591-e3ca4cb1ba1e"},"vehicle_type_id":"4","last_reported":1685826328,"current_range_meters":28400,"station_id":"ce4bhr92rcd13ifvqhrg","pricing_plan_id":"free"},{"bike_id":"5f91dd3f-b8a1-468e-a160-1b36d0af6d12","system_id":"levelo_inurba_marseille","lat":43.33039,"lon":5.38916,"is_reserved":false,"is_disabled":false,"rental_uris":{"android":"levelo://app?vid=5f91dd3f-b8a1-468e-a160-1b36d0af6d12","ios":"levelo://app?vid=5f91dd3f-b8a1-468e-a160-1b36d0af6d12"},"vehicle_type_id":"4","last_reported":1685826328,"current_range_meters":10400,"station_id":"ce4bhr92rcd13ifvqhrg","pricing_plan_id":"free"},{"bike_id":"5cbcf543-d288-404c-bac6-328ef38ba2d8","system_id":"levelo_inurba_marseille","lat":43.33039,"lon":5.3892,"is_reserved":false,"is_disabled":false,"rental_uris":{"android":"levelo://app?vid=5cbcf543-d288-404c-bac6-328ef38ba2d8","ios":"levelo://app?vid=5cbcf543-d288-404c-bac6-328ef38ba2d8"},"vehicle_type_id":"4","last_reported":1685826328,"current_range_meters":22400,"station_id":"ce4bhr92rcd13ifvqhrg","pricing_plan_id":"free"},{"bike_id":"e2b942e0-3901-4124-a71d-a8535684af38","system_id":"levelo_inurba_marseille","lat":43.33042,"lon":5.38916,"is_reserved":false,"is_disabled":false,"rental_uris":{"android":"levelo://app?vid=e2b942e0-3901-4124-a71d-a8535684af38","ios":"levelo://app?vid=e2b942e0-3901-4124-a71d-a8535684af38"},"vehicle_type_id":"4","last_reported":1685826328,"current_range_meters":29200,"station_id":"ce4bhr92rcd13ifvqhrg","pricing_plan_id":"free"},{"bike_id":"05f1a2c7-d830-495c-86b8-292585194459","system_id":"levelo_inurba_marseille","lat":43.3304,"lon":5.38921,"is_reserved":false,"is_disabled":false,"rental_uris":{"android":"levelo://app?vid=05f1a2c7-d830-495c-86b8-292585194459","ios":"levelo://app?vid=05f1a2c7-d830-495c-86b8-292585194459"},"vehicle_type_id":"4","last_reported":1685826328,"current_range_meters":22000,"station_id":"ce4bhr92rcd13ifvqhrg","pricing_plan_id":"free"},{"bike_id":"0456b2c1-8a4f-4e94-ae33-a548e7711bcf","system_id":"levelo_inurba_marseille","lat":43.33045,"lon":5.38915,"is_reserved":false,"is_disabled":false,"rental_uris":{"android":"levelo://app?vid=0456b2c1-8a4f-4e94-ae33-a548e7711bcf","ios":"levelo://app?vid=0456b2c1-8a4f-4e94-ae33-a548e7711bcf"},"vehicle_type_id":"4","last_reported":1685826328,"current_range_meters":15200,"station_id":"ce4bhr92rcd13ifvqhrg","pricing_plan_id":"free"},{"bike_id":"9b807a2e-66ef-49ed-9e7e-632d3222380c","system_id":"levelo_inurba_marseille","lat":43.33042,"lon":5.3892,"is_reserved":false,"is_disabled":false,"rental_uris":{"android":"levelo://app?vid=9b807a2e-66ef-49ed-9e7e-632d3222380c","ios":"levelo://app?vid=9b807a2e-66ef-49ed-9e7e-632d3222380c"},"vehicle_type_id":"4","last_reported":1685826328,"current_range_meters":20400,"station_id":"ce4bhr92rcd13ifvqhrg","pricing_plan_id":"free"},{"bike_id":"9ccdbaca-0f25-43a4-a803-2f9aa6be23fd","system_id":"levelo_inurba_marseille","lat":43.289743,"lon":5.378304,"is_reserved":false,"is_disabled":false,"rental_uris":{"android":"levelo://app?vid=9ccdbaca-0f25-43a4-a803-2f9aa6be23fd","ios":"levelo://app?vid=9ccdbaca-0f25-43a4-a803-2f9aa6be23fd"},"vehicle_type_id":"4","last_reported":1685826328,"current_range_meters":31200,"station_id":"ce4bh9p2rcd13ifvqed0","pricing_plan_id":"free"},{"bike_id":"cc07b6e7-6189-44ff-ae35-cb194f65bcff","system_id":"levelo_inurba_marseille","lat":43.2898,"lon":5.37834,"is_reserved":false,"is_disabled":false,"rental_uris":{"android":"levelo://app?vid=cc07b6e7-6189-44ff-ae35-cb194f65bcff","ios":"levelo://app?vid=cc07b6e7-6189-44ff-ae35-cb194f65bcff"},"vehicle_type_id":"4","last_reported":1685826328,"current_range_meters":18400,"station_id":"ce4bh9p2rcd13ifvqed0","pricing_plan_id":"free"},{"bike_id":"883171d1-6074-48f4-bcde-23ff50265f4e","system_id":"levelo_inurba_marseille","lat":43.289743,"lon":5.378304,"is_reserved":false,"is_disabled":false,"rental_uris":{"android":"levelo://app?vid=883171d1-6074-48f4-bcde-23ff50265f4e","ios":"levelo://app?vid=883171d1-6074-48f4-bcde-23ff50265f4e"},"vehicle_type_id":"4","last_reported":1685826328,"current_range_meters":0,"station_id":"ce4bh9p2rcd13ifvqed0","pricing_plan_id":"free"},{"bike_id":"38e97bb3-039c-422b-a809-763ebd1a131c","system_id":"levelo_inurba_marseille","lat":43.289743,"lon":5.378304,"is_reserved":false,"is_disabled":false,"rental_uris":{"android":"levelo://app?vid=38e97bb3-039c-422b-a809-763ebd1a131c","ios":"levelo://app?vid=38e97bb3-039c-422b-a809-763ebd1a131c"},"vehicle_type_id":"4","last_reported":1685826328,"current_range_meters":31200,"station_id":"ce4bh9p2rcd13ifvqed0","pricing_plan_id":"free"},{"bike_id":"0a8aba60-b51b-427d-be66-8709066b23d1","system_id":"levelo_inurba_marseille","lat":43.33129,"lon":5.38916,"is_reserved":false,"is_disabled":false,"rental_uris":{"android":"levelo://app?vid=0a8aba60-b51b-427d-be66-8709066b23d1","ios":"levelo://app?vid=0a8aba60-b51b-427d-be66-8709066b23d1"},"vehicle_type_id":"4","last_reported":1685826328,"current_range_meters":28000,"station_id":"","pricing_plan_id":"free"},{"bike_id":"a364a0cb-77a1-474d-8182-2133f722907d","system_id":"levelo_inurba_marseille","lat":43.2901,"lon":5.381269,"is_reserved":false,"is_disabled":false,"rental_uris":{"android":"levelo://app?vid=a364a0cb-77a1-474d-8182-2133f722907d","ios":"levelo://app?vid=a364a0cb-77a1-474d-8182-2133f722907d"},"vehicle_type_id":"4","last_reported":1685826328,"current_range_meters":5600,"station_id":"ce4bh4p2rcd13ifvqe1g","pricing_plan_id":"free"},{"bike_id":"781876d0-b84b-49cf-b13f-55f3ea468daa","system_id":"levelo_inurba_marseille","lat":43.29017,"lon":5.38137,"is_reserved":false,"is_disabled":false,"rental_uris":{"android":"levelo://app?vid=781876d0-b84b-49cf-b13f-55f3ea468daa","ios":"levelo://app?vid=781876d0-b84b-49cf-b13f-55f3ea468daa"},"vehicle_type_id":"4","last_reported":1685826328,"current_range_meters":16800,"station_id":"ce4bh4p2rcd13ifvqe1g","pricing_plan_id":"free"},{"bike_id":"17867a74-c882-449f-b186-78179fbd8fa0","system_id":"levelo_inurba_marseille","lat":43.29014,"lon":5.38131,"is_reserved":false,"is_disabled":false,"rental_uris":{"android":"levelo://app?vid=17867a74-c882-449f-b186-78179fbd8fa0","ios":"levelo://app?vid=17867a74-c882-449f-b186-78179fbd8fa0"},"vehicle_type_id":"4","last_reported":1685826328,"current_range_meters":0,"station_id":"ce4bh4p2rcd13ifvqe1g","pricing_plan_id":"free"},{"bike_id":"1dc2cc99-6997-4e64-abe8-10878865daff","system_id":"levelo_inurba_marseille","lat":43.30929,"lon":5.4014,"is_reserved":false,"is_disabled":false,"rental_uris":{"android":"levelo://app?vid=1dc2cc99-6997-4e64-abe8-10878865daff","ios":"levelo://app?vid=1dc2cc99-6997-4e64-abe8-10878865daff"},"vehicle_type_id":"4","last_reported":1685826328,"current_range_meters":16400,"station_id":"","pricing_plan_id":"free"},{"bike_id":"cf0caa37-cec8-408b-98f7-37211a80813c","system_id":"levelo_inurba_marseille","lat":43.33754,"lon":5.37413,"is_reserved":false,"is_disabled":false,"rental_uris":{"android":"levelo://app?vid=cf0caa37-cec8-408b-98f7-37211a80813c","ios":"levelo://app?vid=cf0caa37-cec8-408b-98f7-37211a80813c"},"vehicle_type_id":"4","last_reported":1685826328,"current_range_meters":29600,"station_id":"","pricing_plan_id":"free"},{"bike_id":"675927e0-ab95-41a0-80be-7ee111a218f5","system_id":"levelo_inurba_marseille","lat":43.3375,"lon":5.37472,"is_reserved":false,"is_disabled":false,"rental_uris":{"android":"levelo://app?vid=675927e0-ab95-41a0-80be-7ee111a218f5","ios":"levelo://app?vid=675927e0-ab95-41a0-80be-7ee111a218f5"},"vehicle_type_id":"4","last_reported":1685826328,"current_range_meters":30400,"station_id":"","pricing_plan_id":"free"},{"bike_id":"8f950625-af2d-4089-844d-37bd38107aa9","system_id":"levelo_inurba_marseille","lat":43.33756,"lon":5.37438,"is_reserved":false,"is_disabled":false,"rental_uris":{"android":"levelo://app?vid=8f950625-af2d-4089-844d-37bd38107aa9","ios":"levelo://app?vid=8f950625-af2d-4089-844d-37bd38107aa9"},"vehicle_type_id":"4","last_reported":1685826328,"current_range_meters":31200,"station_id":"","pricing_plan_id":"free"},{"bike_id":"0d29733c-5fcf-4749-8fcf-1d7408384c9c","system_id":"levelo_inurba_marseille","lat":43.30632,"lon":5.4009,"is_reserved":false,"is_disabled":false,"rental_uris":{"android":"levelo://app?vid=0d29733c-5fcf-4749-8fcf-1d7408384c9c","ios":"levelo://app?vid=0d29733c-5fcf-4749-8fcf-1d7408384c9c"},"vehicle_type_id":"4","last_reported":1685826328,"current_range_meters":400,"station_id":"ce4bh112rcd13ifvqda0","pricing_plan_id":"free"},{"bike_id":"d466e16a-e98f-4009-978b-53867fe111c2","system_id":"levelo_inurba_marseille","lat":43.30642,"lon":5.401031,"is_reserved":false,"is_disabled":false,"rental_uris":{"android":"levelo://app?vid=d466e16a-e98f-4009-978b-53867fe111c2","ios":"levelo://app?vid=d466e16a-e98f-4009-978b-53867fe111c2"},"vehicle_type_id":"4","last_reported":1685826328,"current_range_meters":0,"station_id":"ce4bh112rcd13ifvqda0","pricing_plan_id":"free"},{"bike_id":"429581fe-8f4f-4fc8-8d43-693abd968389","system_id":"levelo_inurba_marseille","lat":43.28709,"lon":5.37378,"is_reserved":false,"is_disabled":false,"rental_uris":{"android":"levelo://app?vid=429581fe-8f4f-4fc8-8d43-693abd968389","ios":"levelo://app?vid=429581fe-8f4f-4fc8-8d43-693abd968389"},"vehicle_type_id":"4","last_reported":1685826328,"current_range_meters":21600,"station_id":"","pricing_plan_id":"free"},{"bike_id":"9af26314-ad78-4ce1-9092-c13d087485d8","system_id":"levelo_inurba_marseille","lat":43.29503,"lon":5.39396,"is_reserved":false,"is_disabled":false,"rental_uris":{"android":"levelo://app?vid=9af26314-ad78-4ce1-9092-c13d087485d8","ios":"levelo://app?vid=9af26314-ad78-4ce1-9092-c13d087485d8"},"vehicle_type_id":"4","last_reported":1685826328,"current_range_meters":0,"station_id":"ce4bh292rcd13ifvqdf0","pricing_plan_id":"free"},{"bike_id":"63389e3a-f09a-408e-bc57-5230b4da5e1e","system_id":"levelo_inurba_marseille","lat":43.302759,"lon":5.400793,"is_reserved":false,"is_disabled":false,"rental_uris":{"android":"levelo://app?vid=63389e3a-f09a-408e-bc57-5230b4da5e1e","ios":"levelo://app?vid=63389e3a-f09a-408e-bc57-5230b4da5e1e"},"vehicle_type_id":"4","last_reported":1685826328,"current_range_meters":1600,"station_id":"ce4bgvh2rcd13ifvqcs0","pricing_plan_id":"free"},{"bike_id":"dddbac5d-0b10-48d0-87c5-3b5169dc1d9e","system_id":"levelo_inurba_marseille","lat":43.287184,"lon":5.37937,"is_reserved":false,"is_disabled":false,"rental_uris":{"android":"levelo://app?vid=dddbac5d-0b10-48d0-87c5-3b5169dc1d9e","ios":"levelo://app?vid=dddbac5d-0b10-48d0-87c5-3b5169dc1d9e"},"vehicle_type_id":"4","last_reported":1685826328,"current_range_meters":3200,"station_id":"ce4bh9p2rcd13ifvqec0","pricing_plan_id":"free"},{"bike_id":"909cba5b-c15e-4716-9932-f3a1a111b1c9","system_id":"levelo_inurba_marseille","lat":43.316517,"lon":5.404375,"is_reserved":false,"is_disabled":false,"rental_uris":{"android":"levelo://app?vid=909cba5b-c15e-4716-9932-f3a1a111b1c9","ios":"levelo://app?vid=909cba5b-c15e-4716-9932-f3a1a111b1c9"},"vehicle_type_id":"4","last_reported":1685826328,"current_range_meters":4000,"station_id":"ce4bh012rcd13ifvqd00","pricing_plan_id":"free"},{"bike_id":"d015c253-05b9-41b4-9128-df88e5bc6916","system_id":"levelo_inurba_marseille","lat":43.295736,"lon":5.399777,"is_reserved":false,"is_disabled":false,"rental_uris":{"android":"levelo://app?vid=d015c253-05b9-41b4-9128-df88e5bc6916","ios":"levelo://app?vid=d015c253-05b9-41b4-9128-df88e5bc6916"},"vehicle_type_id":"4","last_reported":1685826328,"current_range_meters":9200,"station_id":"","pricing_plan_id":"free"},{"bike_id":"b205e703-9cc6-479d-b47b-dcec15459f4d","system_id":"levelo_inurba_marseille","lat":43.32661,"lon":5.40371,"is_reserved":false,"is_disabled":false,"rental_uris":{"android":"levelo://app?vid=b205e703-9cc6-479d-b47b-dcec15459f4d","ios":"levelo://app?vid=b205e703-9cc6-479d-b47b-dcec15459f4d"},"vehicle_type_id":"4","last_reported":1685826328,"current_range_meters":16000,"station_id":"","pricing_plan_id":"free"},{"bike_id":"2e398e33-9be9-4f29-aef0-2134ad5aa0a7","system_id":"levelo_inurba_marseille","lat":43.28344,"lon":5.38108,"is_reserved":false,"is_disabled":false,"rental_uris":{"android":"levelo://app?vid=2e398e33-9be9-4f29-aef0-2134ad5aa0a7","ios":"levelo://app?vid=2e398e33-9be9-4f29-aef0-2134ad5aa0a7"},"vehicle_type_id":"4","last_reported":1685826328,"current_range_meters":0,"station_id":"ce4bh412rcd13ifvqdr0","pricing_plan_id":"free"},{"bike_id":"f76e7cce-3afb-4bd3-b3c9-3489aff8fe01","system_id":"levelo_inurba_marseille","lat":43.289363,"lon":5.396322,"is_reserved":false,"is_disabled":false,"rental_uris":{"android":"levelo://app?vid=f76e7cce-3afb-4bd3-b3c9-3489aff8fe01","ios":"levelo://app?vid=f76e7cce-3afb-4bd3-b3c9-3489aff8fe01"},"vehicle_type_id":"4","last_reported":1685826328,"current_range_meters":14000,"station_id":"ce4bh3h2rcd13ifvqdn0","pricing_plan_id":"free"},{"bike_id":"94260985-8a89-4ab7-a4c3-cee294e79b63","system_id":"levelo_inurba_marseille","lat":43.289363,"lon":5.396322,"is_reserved":false,"is_disabled":false,"rental_uris":{"android":"levelo://app?vid=94260985-8a89-4ab7-a4c3-cee294e79b63","ios":"levelo://app?vid=94260985-8a89-4ab7-a4c3-cee294e79b63"},"vehicle_type_id":"4","last_reported":1685826328,"current_range_meters":28000,"station_id":"ce4bh3h2rcd13ifvqdn0","pricing_plan_id":"free"},{"bike_id":"5781d72f-7838-4819-a3db-a0dab83b3e04","system_id":"levelo_inurba_marseille","lat":43.289363,"lon":5.396322,"is_reserved":false,"is_disabled":false,"rental_uris":{"android":"levelo://app?vid=5781d72f-7838-4819-a3db-a0dab83b3e04","ios":"levelo://app?vid=5781d72f-7838-4819-a3db-a0dab83b3e04"},"vehicle_type_id":"4","last_reported":1685826328,"current_range_meters":2400,"station_id":"ce4bh3h2rcd13ifvqdn0","pricing_plan_id":"free"},{"bike_id":"54ec1f0b-c5d2-4781-ab82-578dad39cde8","system_id":"levelo_inurba_marseille","lat":43.290412,"lon":5.399633,"is_reserved":false,"is_disabled":false,"rental_uris":{"android":"levelo://app?vid=54ec1f0b-c5d2-4781-ab82-578dad39cde8","ios":"levelo://app?vid=54ec1f0b-c5d2-4781-ab82-578dad39cde8"},"vehicle_type_id":"4","last_reported":1685826328,"current_range_meters":1600,"station_id":"ce4bh392rcd13ifvqdm0","pricing_plan_id":"free"},{"bike_id":"6a393bd7-90bb-4794-9445-d37322c69d35","system_id":"levelo_inurba_marseille","lat":43.299579,"lon":5.413255,"is_reserved":false,"is_disabled":false,"rental_uris":{"android":"levelo://app?vid=6a393bd7-90bb-4794-9445-d37322c69d35","ios":"levelo://app?vid=6a393bd7-90bb-4794-9445-d37322c69d35"},"vehicle_type_id":"4","last_reported":1685826328,"current_range_meters":22800,"station_id":"ce4bhp12rcd13ifvqh9g","pricing_plan_id":"free"},{"bike_id":"618450e6-c87d-4940-8a3b-2d77a1fc3467","system_id":"levelo_inurba_marseille","lat":43.29254,"lon":5.40906,"is_reserved":false,"is_disabled":false,"rental_uris":{"android":"levelo://app?vid=618450e6-c87d-4940-8a3b-2d77a1fc3467","ios":"levelo://app?vid=618450e6-c87d-4940-8a3b-2d77a1fc3467"},"vehicle_type_id":"4","last_reported":1685826328,"current_range_meters":28800,"station_id":"ce4bh192rcd13ifvqdc0","pricing_plan_id":"free"},{"bike_id":"c698f313-0a20-413d-9e1f-9eef2e1d5aa8","system_id":"levelo_inurba_marseille","lat":43.29249,"lon":5.40906,"is_reserved":false,"is_disabled":false,"rental_uris":{"android":"levelo://app?vid=c698f313-0a20-413d-9e1f-9eef2e1d5aa8","ios":"levelo://app?vid=c698f313-0a20-413d-9e1f-9eef2e1d5aa8"},"vehicle_type_id":"4","last_reported":1685826328,"current_range_meters":30400,"station_id":"ce4bh192rcd13ifvqdc0","pricing_plan_id":"free"},{"bike_id":"f01eff48-95c3-43f8-961a-e5c6a8a09a93","system_id":"levelo_inurba_marseille","lat":43.292569,"lon":5.409107,"is_reserved":false,"is_disabled":false,"rental_uris":{"android":"levelo://app?vid=f01eff48-95c3-43f8-961a-e5c6a8a09a93","ios":"levelo://app?vid=f01eff48-95c3-43f8-961a-e5c6a8a09a93"},"vehicle_type_id":"4","last_reported":1685826328,"current_range_meters":31200,"station_id":"ce4bh192rcd13ifvqdc0","pricing_plan_id":"free"},{"bike_id":"18947911-ee77-4352-89bc-d9db943af719","system_id":"levelo_inurba_marseille","lat":43.292569,"lon":5.409107,"is_reserved":false,"is_disabled":false,"rental_uris":{"android":"levelo://app?vid=18947911-ee77-4352-89bc-d9db943af719","ios":"levelo://app?vid=18947911-ee77-4352-89bc-d9db943af719"},"vehicle_type_id":"4","last_reported":1685826328,"current_range_meters":26000,"station_id":"ce4bh192rcd13ifvqdc0","pricing_plan_id":"free"},{"bike_id":"22a47e99-a555-4e20-bcb7-bb89bb65e80a","system_id":"levelo_inurba_marseille","lat":43.303837,"lon":5.418724,"is_reserved":false,"is_disabled":false,"rental_uris":{"android":"levelo://app?vid=22a47e99-a555-4e20-bcb7-bb89bb65e80a","ios":"levelo://app?vid=22a47e99-a555-4e20-bcb7-bb89bb65e80a"},"vehicle_type_id":"4","last_reported":1685826328,"current_range_meters":8000,"station_id":"ce4bhop2rcd13ifvqh7g","pricing_plan_id":"free"},{"bike_id":"e1d3d640-d733-4874-817f-e9df379d0109","system_id":"levelo_inurba_marseille","lat":43.27562,"lon":5.38411,"is_reserved":false,"is_disabled":false,"rental_uris":{"android":"levelo://app?vid=e1d3d640-d733-4874-817f-e9df379d0109","ios":"levelo://app?vid=e1d3d640-d733-4874-817f-e9df379d0109"},"vehicle_type_id":"4","last_reported":1685826328,"current_range_meters":30800,"station_id":"","pricing_plan_id":"free"},{"bike_id":"aece11da-abe5-4650-ba29-dfec19e336af","system_id":"levelo_inurba_marseille","lat":43.33612,"lon":5.410321,"is_reserved":false,"is_disabled":false,"rental_uris":{"android":"levelo://app?vid=aece11da-abe5-4650-ba29-dfec19e336af","ios":"levelo://app?vid=aece11da-abe5-4650-ba29-dfec19e336af"},"vehicle_type_id":"4","last_reported":1685826328,"current_range_meters":30400,"station_id":"ce4bhqh2rcd13ifvqhmg","pricing_plan_id":"free"},{"bike_id":"449eeb59-bd7e-4175-860b-36c5840ef090","system_id":"levelo_inurba_marseille","lat":43.336134,"lon":5.410341,"is_reserved":false,"is_disabled":false,"rental_uris":{"android":"levelo://app?vid=449eeb59-bd7e-4175-860b-36c5840ef090","ios":"levelo://app?vid=449eeb59-bd7e-4175-860b-36c5840ef090"},"vehicle_type_id":"4","last_reported":1685826328,"current_range_meters":19200,"station_id":"ce4bhqh2rcd13ifvqhmg","pricing_plan_id":"free"},{"bike_id":"9908a2eb-cceb-4359-b2f6-31b6ef3dee84","system_id":"levelo_inurba_marseille","lat":43.275243,"lon":5.384237,"is_reserved":false,"is_disabled":false,"rental_uris":{"android":"levelo://app?vid=9908a2eb-cceb-4359-b2f6-31b6ef3dee84","ios":"levelo://app?vid=9908a2eb-cceb-4359-b2f6-31b6ef3dee84"},"vehicle_type_id":"4","last_reported":1685826328,"current_range_meters":24800,"station_id":"ce4bhe12rcd13ifvqf30","pricing_plan_id":"free"},{"bike_id":"9db9545d-f63d-42be-a674-9c25625f916b","system_id":"levelo_inurba_marseille","lat":43.29391,"lon":5.419,"is_reserved":false,"is_disabled":false,"rental_uris":{"android":"levelo://app?vid=9db9545d-f63d-42be-a674-9c25625f916b","ios":"levelo://app?vid=9db9545d-f63d-42be-a674-9c25625f916b"},"vehicle_type_id":"4","last_reported":1685826328,"current_range_meters":10800,"station_id":"","pricing_plan_id":"free"},{"bike_id":"4d80717c-1ab1-4ff1-8e16-4b8981f90281","system_id":"levelo_inurba_marseille","lat":43.32836,"lon":5.42137,"is_reserved":false,"is_disabled":false,"rental_uris":{"android":"levelo://app?vid=4d80717c-1ab1-4ff1-8e16-4b8981f90281","ios":"levelo://app?vid=4d80717c-1ab1-4ff1-8e16-4b8981f90281"},"vehicle_type_id":"4","last_reported":1685826328,"current_range_meters":28800,"station_id":"","pricing_plan_id":"free"},{"bike_id":"a4e53354-3a31-4fe7-a912-7692ce0f6d95","system_id":"levelo_inurba_marseille","lat":43.273129,"lon":5.390725,"is_reserved":false,"is_disabled":false,"rental_uris":{"android":"levelo://app?vid=a4e53354-3a31-4fe7-a912-7692ce0f6d95","ios":"levelo://app?vid=a4e53354-3a31-4fe7-a912-7692ce0f6d95"},"vehicle_type_id":"4","last_reported":1685826328,"current_range_meters":24400,"station_id":"ce4bhgp2rcd13ifvqfe0","pricing_plan_id":"free"},{"bike_id":"1d96f7bc-2361-455d-b6cb-723482ef90a3","system_id":"levelo_inurba_marseille","lat":43.295523,"lon":5.422926,"is_reserved":false,"is_disabled":false,"rental_uris":{"android":"levelo://app?vid=1d96f7bc-2361-455d-b6cb-723482ef90a3","ios":"levelo://app?vid=1d96f7bc-2361-455d-b6cb-723482ef90a3"},"vehicle_type_id":"4","last_reported":1685826328,"current_range_meters":4400,"station_id":"ce4bhph2rcd13ifvqhdg","pricing_plan_id":"free"},{"bike_id":"5960c9db-b5b5-4a3f-99c9-902296bf5704","system_id":"levelo_inurba_marseille","lat":43.278128,"lon":5.407195,"is_reserved":false,"is_disabled":false,"rental_uris":{"android":"levelo://app?vid=5960c9db-b5b5-4a3f-99c9-902296bf5704","ios":"levelo://app?vid=5960c9db-b5b5-4a3f-99c9-902296bf5704"},"vehicle_type_id":"4","last_reported":1685826328,"current_range_meters":10800,"station_id":"ce4bhnh2rcd13ifvqgtg","pricing_plan_id":"free"},{"bike_id":"477c9b24-a1bd-4af2-9e3a-7a10b9af13d1","system_id":"levelo_inurba_marseille","lat":43.31708,"lon":5.43312,"is_reserved":false,"is_disabled":false,"rental_uris":{"android":"levelo://app?vid=477c9b24-a1bd-4af2-9e3a-7a10b9af13d1","ios":"levelo://app?vid=477c9b24-a1bd-4af2-9e3a-7a10b9af13d1"},"vehicle_type_id":"4","last_reported":1685826328,"current_range_meters":0,"station_id":"","pricing_plan_id":"free"},{"bike_id":"9a910898-7923-4b86-a109-ded213d8eccb","system_id":"levelo_inurba_marseille","lat":43.30797,"lon":5.43519,"is_reserved":false,"is_disabled":false,"rental_uris":{"android":"levelo://app?vid=9a910898-7923-4b86-a109-ded213d8eccb","ios":"levelo://app?vid=9a910898-7923-4b86-a109-ded213d8eccb"},"vehicle_type_id":"4","last_reported":1685826328,"current_range_meters":11200,"station_id":"","pricing_plan_id":"free"},{"bike_id":"5605a65f-1f03-471d-b1cf-b1dbf33bc05f","system_id":"levelo_inurba_marseille","lat":43.261782,"lon":5.374515,"is_reserved":false,"is_disabled":false,"rental_uris":{"android":"levelo://app?vid=5605a65f-1f03-471d-b1cf-b1dbf33bc05f","ios":"levelo://app?vid=5605a65f-1f03-471d-b1cf-b1dbf33bc05f"},"vehicle_type_id":"4","last_reported":1685826328,"current_range_meters":16400,"station_id":"ce4bhgp2rcd13ifvqfc0","pricing_plan_id":"free"},{"bike_id":"5e2ac40e-6a13-4016-bd82-ac10d5e54fe3","system_id":"levelo_inurba_marseille","lat":43.26185,"lon":5.37442,"is_reserved":false,"is_disabled":false,"rental_uris":{"android":"levelo://app?vid=5e2ac40e-6a13-4016-bd82-ac10d5e54fe3","ios":"levelo://app?vid=5e2ac40e-6a13-4016-bd82-ac10d5e54fe3"},"vehicle_type_id":"4","last_reported":1685826328,"current_range_meters":3600,"station_id":"ce4bhgp2rcd13ifvqfc0","pricing_plan_id":"free"},{"bike_id":"2c6548b6-8ac6-417a-9e04-ca4bde5ebfbe","system_id":"levelo_inurba_marseille","lat":43.317104,"lon":5.436818,"is_reserved":false,"is_disabled":false,"rental_uris":{"android":"levelo://app?vid=2c6548b6-8ac6-417a-9e04-ca4bde5ebfbe","ios":"levelo://app?vid=2c6548b6-8ac6-417a-9e04-ca4bde5ebfbe"},"vehicle_type_id":"4","last_reported":1685826328,"current_range_meters":29200,"station_id":"ce4bhp92rcd13ifvqhcg","pricing_plan_id":"free"},{"bike_id":"6ca7d071-cf92-4246-a745-87bfa50de06e","system_id":"levelo_inurba_marseille","lat":43.254945,"lon":5.376454,"is_reserved":false,"is_disabled":false,"rental_uris":{"android":"levelo://app?vid=6ca7d071-cf92-4246-a745-87bfa50de06e","ios":"levelo://app?vid=6ca7d071-cf92-4246-a745-87bfa50de06e"},"vehicle_type_id":"4","last_reported":1685826328,"current_range_meters":18800,"station_id":"ce4bhh12rcd13ifvqff0","pricing_plan_id":"free"},{"bike_id":"a36e94b6-dfe6-427d-9418-391bd7642c5e","system_id":"levelo_inurba_marseille","lat":43.25493,"lon":5.37645,"is_reserved":false,"is_disabled":false,"rental_uris":{"android":"levelo://app?vid=a36e94b6-dfe6-427d-9418-391bd7642c5e","ios":"levelo://app?vid=a36e94b6-dfe6-427d-9418-391bd7642c5e"},"vehicle_type_id":"4","last_reported":1685826328,"current_range_meters":22000,"station_id":"ce4bhh12rcd13ifvqff0","pricing_plan_id":"free"},{"bike_id":"590f50e0-3984-4150-8d81-4ec2b3c0a634","system_id":"levelo_inurba_marseille","lat":43.270721,"lon":5.422764,"is_reserved":false,"is_disabled":false,"rental_uris":{"android":"levelo://app?vid=590f50e0-3984-4150-8d81-4ec2b3c0a634","ios":"levelo://app?vid=590f50e0-3984-4150-8d81-4ec2b3c0a634"},"vehicle_type_id":"4","last_reported":1685826328,"current_range_meters":26000,"station_id":"ce4bhk92rcd13ifvqgb0","pricing_plan_id":"free"},{"bike_id":"41c2590e-164d-41e9-b96b-588d43dd2f8b","system_id":"levelo_inurba_marseille","lat":43.28604,"lon":5.44207,"is_reserved":false,"is_disabled":false,"rental_uris":{"android":"levelo://app?vid=41c2590e-164d-41e9-b96b-588d43dd2f8b","ios":"levelo://app?vid=41c2590e-164d-41e9-b96b-588d43dd2f8b"},"vehicle_type_id":"4","last_reported":1685826328,"current_range_meters":6800,"station_id":"","pricing_plan_id":"free"},{"bike_id":"e370656b-f8e3-4af5-b780-09cad9cf5f70","system_id":"levelo_inurba_marseille","lat":43.25939,"lon":5.40894,"is_reserved":false,"is_disabled":false,"rental_uris":{"android":"levelo://app?vid=e370656b-f8e3-4af5-b780-09cad9cf5f70","ios":"levelo://app?vid=e370656b-f8e3-4af5-b780-09cad9cf5f70"},"vehicle_type_id":"4","last_reported":1685826328,"current_range_meters":22000,"station_id":"","pricing_plan_id":"free"},{"bike_id":"5a368c29-98c1-430a-ba2b-e6ea3a875cd8","system_id":"levelo_inurba_marseille","lat":43.2479,"lon":5.374457,"is_reserved":false,"is_disabled":false,"rental_uris":{"android":"levelo://app?vid=5a368c29-98c1-430a-ba2b-e6ea3a875cd8","ios":"levelo://app?vid=5a368c29-98c1-430a-ba2b-e6ea3a875cd8"},"vehicle_type_id":"4","last_reported":1685826328,"current_range_meters":2400,"station_id":"ce4bhgh2rcd13ifvqfb0","pricing_plan_id":"free"},{"bike_id":"bcd1341f-d7b7-4e21-a95a-232dd6a80468","system_id":"levelo_inurba_marseille","lat":43.2479,"lon":5.374457,"is_reserved":false,"is_disabled":false,"rental_uris":{"android":"levelo://app?vid=bcd1341f-d7b7-4e21-a95a-232dd6a80468","ios":"levelo://app?vid=bcd1341f-d7b7-4e21-a95a-232dd6a80468"},"vehicle_type_id":"4","last_reported":1685826328,"current_range_meters":4800,"station_id":"ce4bhgh2rcd13ifvqfb0","pricing_plan_id":"free"},{"bike_id":"5a287abc-7624-432d-a348-6ea31a21c5b1","system_id":"levelo_inurba_marseille","lat":43.2479,"lon":5.374457,"is_reserved":false,"is_disabled":false,"rental_uris":{"android":"levelo://app?vid=5a287abc-7624-432d-a348-6ea31a21c5b1","ios":"levelo://app?vid=5a287abc-7624-432d-a348-6ea31a21c5b1"},"vehicle_type_id":"4","last_reported":1685826328,"current_range_meters":5600,"station_id":"ce4bhgh2rcd13ifvqfb0","pricing_plan_id":"free"},{"bike_id":"7bf66e7e-34db-4ae5-9e09-f21e103b7b93","system_id":"levelo_inurba_marseille","lat":43.2479,"lon":5.374457,"is_reserved":false,"is_disabled":false,"rental_uris":{"android":"levelo://app?vid=7bf66e7e-34db-4ae5-9e09-f21e103b7b93","ios":"levelo://app?vid=7bf66e7e-34db-4ae5-9e09-f21e103b7b93"},"vehicle_type_id":"4","last_reported":1685826328,"current_range_meters":0,"station_id":"ce4bhgh2rcd13ifvqfb0","pricing_plan_id":"free"},{"bike_id":"1e003efd-26cb-4df0-8d71-14ab271fe6d7","system_id":"levelo_inurba_marseille","lat":43.24693,"lon":5.382096,"is_reserved":false,"is_disabled":false,"rental_uris":{"android":"levelo://app?vid=1e003efd-26cb-4df0-8d71-14ab271fe6d7","ios":"levelo://app?vid=1e003efd-26cb-4df0-8d71-14ab271fe6d7"},"vehicle_type_id":"4","last_reported":1685826328,"current_range_meters":0,"station_id":"ce4bhih2rcd13ifvqfr0","pricing_plan_id":"free"},{"bike_id":"8ae77b5e-541a-4803-94e5-50e8fc075cbd","system_id":"levelo_inurba_marseille","lat":43.24462,"lon":5.36911,"is_reserved":false,"is_disabled":false,"rental_uris":{"android":"levelo://app?vid=8ae77b5e-541a-4803-94e5-50e8fc075cbd","ios":"levelo://app?vid=8ae77b5e-541a-4803-94e5-50e8fc075cbd"},"vehicle_type_id":"4","last_reported":1685826328,"current_range_meters":31200,"station_id":"","pricing_plan_id":"free"},{"bike_id":"f48f61f2-f413-4add-8bc7-fa009bc0b679","system_id":"levelo_inurba_marseille","lat":43.24643,"lon":5.39158,"is_reserved":false,"is_disabled":false,"rental_uris":{"android":"levelo://app?vid=f48f61f2-f413-4add-8bc7-fa009bc0b679","ios":"levelo://app?vid=f48f61f2-f413-4add-8bc7-fa009bc0b679"},"vehicle_type_id":"4","last_reported":1685826328,"current_range_meters":20000,"station_id":"","pricing_plan_id":"free"},{"bike_id":"5d413320-2d93-47df-9016-dd82954c80b5","system_id":"levelo_inurba_marseille","lat":43.24651,"lon":5.39203,"is_reserved":false,"is_disabled":false,"rental_uris":{"android":"levelo://app?vid=5d413320-2d93-47df-9016-dd82954c80b5","ios":"levelo://app?vid=5d413320-2d93-47df-9016-dd82954c80b5"},"vehicle_type_id":"4","last_reported":1685826328,"current_range_meters":26800,"station_id":"","pricing_plan_id":"free"},{"bike_id":"90ec6158-08ad-4670-8a96-0a5e300cb0d7","system_id":"levelo_inurba_marseille","lat":43.24597,"lon":5.38974,"is_reserved":false,"is_disabled":false,"rental_uris":{"android":"levelo://app?vid=90ec6158-08ad-4670-8a96-0a5e300cb0d7","ios":"levelo://app?vid=90ec6158-08ad-4670-8a96-0a5e300cb0d7"},"vehicle_type_id":"4","last_reported":1685826328,"current_range_meters":9200,"station_id":"","pricing_plan_id":"free"},{"bike_id":"2c8cb84b-1112-4638-840b-42a6227cf279","system_id":"levelo_inurba_marseille","lat":43.28928,"lon":5.45718,"is_reserved":false,"is_disabled":false,"rental_uris":{"android":"levelo://app?vid=2c8cb84b-1112-4638-840b-42a6227cf279","ios":"levelo://app?vid=2c8cb84b-1112-4638-840b-42a6227cf279"},"vehicle_type_id":"4","last_reported":1685826328,"current_range_meters":10400,"station_id":"","pricing_plan_id":"free"},{"bike_id":"27775441-1d6a-4956-bf71-a83355e67459","system_id":"levelo_inurba_marseille","lat":43.24078,"lon":5.37759,"is_reserved":false,"is_disabled":false,"rental_uris":{"android":"levelo://app?vid=27775441-1d6a-4956-bf71-a83355e67459","ios":"levelo://app?vid=27775441-1d6a-4956-bf71-a83355e67459"},"vehicle_type_id":"4","last_reported":1685826328,"current_range_meters":28800,"station_id":"","pricing_plan_id":"free"},{"bike_id":"36be0654-a594-495b-a31c-6463ea32f1be","system_id":"levelo_inurba_marseille","lat":43.30383,"lon":5.47465,"is_reserved":false,"is_disabled":false,"rental_uris":{"android":"levelo://app?vid=36be0654-a594-495b-a31c-6463ea32f1be","ios":"levelo://app?vid=36be0654-a594-495b-a31c-6463ea32f1be"},"vehicle_type_id":"4","last_reported":1685826328,"current_range_meters":2400,"station_id":"","pricing_plan_id":"free"},{"bike_id":"97911575-0740-4ace-9259-7ac6b2b09d9e","system_id":"levelo_inurba_marseille","lat":43.28779,"lon":5.47064,"is_reserved":false,"is_disabled":false,"rental_uris":{"android":"levelo://app?vid=97911575-0740-4ace-9259-7ac6b2b09d9e","ios":"levelo://app?vid=97911575-0740-4ace-9259-7ac6b2b09d9e"},"vehicle_type_id":"4","last_reported":1685826328,"current_range_meters":800,"station_id":"","pricing_plan_id":"free"},{"bike_id":"7308ca39-47ea-49fa-b43a-6117239bbcbe","system_id":"levelo_inurba_marseille","lat":43.231919,"lon":5.355532,"is_reserved":false,"is_disabled":false,"rental_uris":{"android":"levelo://app?vid=7308ca39-47ea-49fa-b43a-6117239bbcbe","ios":"levelo://app?vid=7308ca39-47ea-49fa-b43a-6117239bbcbe"},"vehicle_type_id":"4","last_reported":1685826328,"current_range_meters":6400,"station_id":"ce4bhu92rcd13ifvqi70","pricing_plan_id":"free"},{"bike_id":"8d36cd0f-05b8-42de-9e10-9935cdb33bec","system_id":"levelo_inurba_marseille","lat":43.231919,"lon":5.355532,"is_reserved":false,"is_disabled":false,"rental_uris":{"android":"levelo://app?vid=8d36cd0f-05b8-42de-9e10-9935cdb33bec","ios":"levelo://app?vid=8d36cd0f-05b8-42de-9e10-9935cdb33bec"},"vehicle_type_id":"4","last_reported":1685826328,"current_range_meters":12400,"station_id":"ce4bhu92rcd13ifvqi70","pricing_plan_id":"free"}]}}