{"last_updated":1744963994,"ttl":60,"version":"2.2","data":{"bikes":[{"bike_id":"1c2b1d51-e0d9-4b04-9d1a-d20dcfdc47b4","system_id":"levelo_inurba_marseille","lat":43.25933,"lon":5.40905,"is_reserved":false,"is_disabled":false,"rental_uris":{"android":"levelo://app?vid=1c2b1d51-e0d9-4b04-9d1a-d20dcfdc47b4","ios":"levelo://app?vid=1c2b1d51-e0d9-4b04-9d1a-d20dcfdc47b4"},"vehicle_type_id":"4","last_reported":1744963994,"current_range_meters":3600,"station_id":"ce4bhm92rcd13ifvqglg","pricing_plan_id":"cebpf4jnsgd1na2vs0mg"},{"bike_id":"716d4b32-b4c9-46a1-b495-0e5665e9c4da","system_id":"levelo_inurba_marseille","lat":43.27809,"lon":5.40708,"is_reserved":false,"is_disabled":false,"rental_uris":{"android":"levelo://app?vid=716d4b32-b4c9-46a1-b495-0e5665e9c4da","ios":"levelo://app?vid=716d4b32-b4c9-46a1-b495-0e5665e9c4da"},"vehicle_type_id":"4","last_reported":1744963994,"current_range_meters":4400,"station_id":"ce4bhnh2rcd13ifvqgtg","pricing_plan_id":"cebpf4jnsgd1na2vs0mg"},{"bike_id":"206e6eed-90ee-4177-ab5a-4bcb1810ce02","system_id":"levelo_inurba_marseille","lat":43.32362,"lon":5.36765,"is_reserved":false,"is_disabled":false,"rental_uris":{"android":"levelo://app?vid=206e6eed-90ee-4177-ab5a-4bcb1810ce02","ios":"levelo://app?vid=206e6eed-90ee-4177-ab5a-4bcb1810ce02"},"vehicle_type_id":"4","last_reported":1744963994,"current_range_meters":4800,"station_id":"ce4bhsh2rcd13ifvqi2g","pricing_plan_id":"cebpf4jnsgd1na2vs0mg"},{"bike_id":"95dc26ac-f001-4a1b-b28e-76d754d92b22","system_id":"levelo_inurba_marseille","lat":43.283746,"lon":5.381061,"is_reserved":false,"is_disabled":false,"rental_uris":{"android":"levelo://app?vid=95dc26ac-f001-4a1b-b28e-76d754d92b22","ios":"levelo://app?vid=95dc26ac-f001-4a1b-b28e-76d754d92b22"},"vehicle_type_id":"4","last_reported":1744963994,"current_range_meters":4800,"station_id":"ce4bh412rcd13ifvqdr0","pricing_plan_id":"cebpf4jnsgd1na2vs0mg"},{"bike_id":"593f200f-acc6-4515-9b2c-377663e6c433","system_id":"levelo_inurba_marseille","lat":43.21745,"lon":5.34609,"is_reserved":false,"is_disabled":true,"rental_uris":{"android":"levelo://app?vid=593f200f-acc6-4515-9b2c-377663e6c433","ios":"levelo://app?vid=593f200f-acc6-4515-9b2c-377663e6c433"},"vehicle_type_id":"4","last_reported":1744963994,"current_range_meters":4800,"station_id":"st_cvj6r9ubvosntc0bgbag","pricing_plan_id":"cebpf4jnsgd1na2vs0mg"},{"bike_id":"9b227aba-105e-4676-816a-5a19de633530","system_id":"levelo_inurba_marseille","lat":43.24802,"lon":5.37458,"is_reserved":false,"is_disabled":false,"rental_uris":{"android":"levelo://app?vid=9b227aba-105e-4676-816a-5a19de633530","ios":"levelo://app?vid=9b227aba-105e-4676-816a-5a19de633530"},"vehicle_type_id":"4","last_reported":1744963994,"current_range_meters":4800,"station_id":"ce4bhgh2rcd13ifvqfb0","pricing_plan_id":"cebpf4jnsgd1na2vs0mg"},{"bike_id":"857f2ddd-7ee5-4382-8a43-96654bba9ba2","system_id":"levelo_inurba_marseille","lat":43.23972,"lon":5.3663,"is_reserved":false,"is_disabled":false,"rental_uris":{"android":"levelo://app?vid=857f2ddd-7ee5-4382-8a43-96654bba9ba2","ios":"levelo://app?vid=857f2ddd-7ee5-4382-8a43-96654bba9ba2"},"vehicle_type_id":"4","last_reported":1744963994,"current_range_meters":5600,"station_id":"ce4bhi12rcd13ifvqfp0","pricing_plan_id":"cebpf4jnsgd1na2vs0mg"},{"bike_id":"ff8044f2-3c86-48da-a9ed-092d9917fd63","system_id":"levelo_inurba_marseille","lat":43.30211,"lon":5.39473,"is_reserved":false,"is_disabled":false,"rental_uris":{"android":"levelo://app?vid=ff8044f2-3c86-48da-a9ed-092d9917fd63","ios":"levelo://app?vid=ff8044f2-3c86-48da-a9ed-092d9917fd63"},"vehicle_type_id":"4","last_reported":1744963994,"current_range_meters":5600,"station_id":"ce4bh0p2rcd13ifvqd70","pricing_plan_id":"cebpf4jnsgd1na2vs0mg"},{"bike_id":"d2f0a7a8-c4bd-4542-b641-b081ad6bb9e6","system_id":"levelo_inurba_marseille","lat":43.2828,"lon":5.35064,"is_reserved":false,"is_disabled":true,"rental_uris":{"android":"levelo://app?vid=d2f0a7a8-c4bd-4542-b641-b081ad6bb9e6","ios":"levelo://app?vid=d2f0a7a8-c4bd-4542-b641-b081ad6bb9e6"},"vehicle_type_id":"4","last_reported":1744963994,"current_range_meters":5600,"station_id":"ce4bhbp2rcd13ifvqerg","pricing_plan_id":"cebpf4jnsgd1na2vs0mg"},{"bike_id":"1812e504-d01c-4a74-9e55-135c932d22ed","system_id":"levelo_inurba_marseille","lat":43.27426,"lon":5.3941,"is_reserved":false,"is_disabled":false,"rental_uris":{"android":"levelo://app?vid=1812e504-d01c-4a74-9e55-135c932d22ed","ios":"levelo://app?vid=1812e504-d01c-4a74-9e55-135c932d22ed"},"vehicle_type_id":"4","last_reported":1744963994,"current_range_meters":6000,"station_id":"ce4bhdp2rcd13ifvqf20","pricing_plan_id":"cebpf4jnsgd1na2vs0mg"},{"bike_id":"318178ab-18c4-4763-a7ec-fd9e64268800","system_id":"levelo_inurba_marseille","lat":43.28007,"lon":5.41665,"is_reserved":false,"is_disabled":false,"rental_uris":{"android":"levelo://app?vid=318178ab-18c4-4763-a7ec-fd9e64268800","ios":"levelo://app?vid=318178ab-18c4-4763-a7ec-fd9e64268800"},"vehicle_type_id":"4","last_reported":1744963994,"current_range_meters":6000,"station_id":"ce4bho12rcd13ifvqh1g","pricing_plan_id":"cebpf4jnsgd1na2vs0mg"},{"bike_id":"7b09dfe8-4549-4e15-baf3-df132e32d464","system_id":"levelo_inurba_marseille","lat":43.24171,"lon":5.39734,"is_reserved":false,"is_disabled":false,"rental_uris":{"android":"levelo://app?vid=7b09dfe8-4549-4e15-baf3-df132e32d464","ios":"levelo://app?vid=7b09dfe8-4549-4e15-baf3-df132e32d464"},"vehicle_type_id":"4","last_reported":1744963994,"current_range_meters":6400,"station_id":"ce4bhn12rcd13ifvqgpg","pricing_plan_id":"cebpf4jnsgd1na2vs0mg"},{"bike_id":"efe2c559-3f1f-4eae-8f0d-9b098103009d","system_id":"levelo_inurba_marseille","lat":43.30942,"lon":5.3904,"is_reserved":false,"is_disabled":false,"rental_uris":{"android":"levelo://app?vid=efe2c559-3f1f-4eae-8f0d-9b098103009d","ios":"levelo://app?vid=efe2c559-3f1f-4eae-8f0d-9b098103009d"},"vehicle_type_id":"4","last_reported":1744963994,"current_range_meters":6400,"station_id":"ce4bgup2rcd13ifvqco0","pricing_plan_id":"cebpf4jnsgd1na2vs0mg"},{"bike_id":"88ce086b-91b3-4da1-a45f-e9ca4f83e1d2","system_id":"levelo_inurba_marseille","lat":43.284668,"lon":5.384033,"is_reserved":false,"is_disabled":true,"rental_uris":{"android":"levelo://app?vid=88ce086b-91b3-4da1-a45f-e9ca4f83e1d2","ios":"levelo://app?vid=88ce086b-91b3-4da1-a45f-e9ca4f83e1d2"},"vehicle_type_id":"4","last_reported":1744963994,"current_range_meters":6400,"station_id":"ce4bhbh2rcd13ifvqeo0","pricing_plan_id":"cebpf4jnsgd1na2vs0mg"},{"bike_id":"f57acb1a-2d22-481f-9311-39903e65c833","system_id":"levelo_inurba_marseille","lat":43.24661,"lon":5.3817,"is_reserved":false,"is_disabled":false,"rental_uris":{"android":"levelo://app?vid=f57acb1a-2d22-481f-9311-39903e65c833","ios":"levelo://app?vid=f57acb1a-2d22-481f-9311-39903e65c833"},"vehicle_type_id":"4","last_reported":1744963994,"current_range_meters":6400,"station_id":"ce4bhih2rcd13ifvqfr0","pricing_plan_id":"cebpf4jnsgd1na2vs0mg"},{"bike_id":"2a297b53-e6c9-4a44-8832-a1535085da75","system_id":"levelo_inurba_marseille","lat":43.31992,"lon":5.381471,"is_reserved":false,"is_disabled":true,"rental_uris":{"android":"levelo://app?vid=2a297b53-e6c9-4a44-8832-a1535085da75","ios":"levelo://app?vid=2a297b53-e6c9-4a44-8832-a1535085da75"},"vehicle_type_id":"4","last_reported":1744963994,"current_range_meters":6800,"station_id":"ce4bhr12rcd13ifvqhpg","pricing_plan_id":"cebpf4jnsgd1na2vs0mg"},{"bike_id":"2df22311-bac1-4b8f-abff-11893969de63","system_id":"levelo_inurba_marseille","lat":43.3108,"lon":5.37845,"is_reserved":false,"is_disabled":false,"rental_uris":{"android":"levelo://app?vid=2df22311-bac1-4b8f-abff-11893969de63","ios":"levelo://app?vid=2df22311-bac1-4b8f-abff-11893969de63"},"vehicle_type_id":"4","last_reported":1744963994,"current_range_meters":6800,"station_id":"","pricing_plan_id":"cebpf4jnsgd1na2vs0mg"},{"bike_id":"ce90eeb4-f81d-4b80-9b35-94fd4698915f","system_id":"levelo_inurba_marseille","lat":43.28428,"lon":5.34982,"is_reserved":false,"is_disabled":false,"rental_uris":{"android":"levelo://app?vid=ce90eeb4-f81d-4b80-9b35-94fd4698915f","ios":"levelo://app?vid=ce90eeb4-f81d-4b80-9b35-94fd4698915f"},"vehicle_type_id":"4","last_reported":1744963994,"current_range_meters":6800,"station_id":"ce4bhbh2rcd13ifvqepg","pricing_plan_id":"cebpf4jnsgd1na2vs0mg"},{"bike_id":"683727aa-af5c-4a30-b620-923da0da034b","system_id":"levelo_inurba_marseille","lat":43.26869,"lon":5.4046,"is_reserved":false,"is_disabled":false,"rental_uris":{"android":"levelo://app?vid=683727aa-af5c-4a30-b620-923da0da034b","ios":"levelo://app?vid=683727aa-af5c-4a30-b620-923da0da034b"},"vehicle_type_id":"4","last_reported":1744963994,"current_range_meters":6800,"station_id":"cjm6bp8fraef2m0cb0m0","pricing_plan_id":"cebpf4jnsgd1na2vs0mg"},{"bike_id":"d03355fa-c7f9-4104-958e-81d7994c7f64","system_id":"levelo_inurba_marseille","lat":43.28162,"lon":5.42689,"is_reserved":false,"is_disabled":false,"rental_uris":{"android":"levelo://app?vid=d03355fa-c7f9-4104-958e-81d7994c7f64","ios":"levelo://app?vid=d03355fa-c7f9-4104-958e-81d7994c7f64"},"vehicle_type_id":"4","last_reported":1744963994,"current_range_meters":7200,"station_id":"ce4bhnh2rcd13ifvqgug","pricing_plan_id":"cebpf4jnsgd1na2vs0mg"},{"bike_id":"c2874bbb-5f3c-4097-b74e-5b403970e51c","system_id":"levelo_inurba_marseille","lat":43.30467,"lon":5.37903,"is_reserved":false,"is_disabled":false,"rental_uris":{"android":"levelo://app?vid=c2874bbb-5f3c-4097-b74e-5b403970e51c","ios":"levelo://app?vid=c2874bbb-5f3c-4097-b74e-5b403970e51c"},"vehicle_type_id":"4","last_reported":1744963994,"current_range_meters":7200,"station_id":"ce4bgup2rcd13ifvqcn0","pricing_plan_id":"cebpf4jnsgd1na2vs0mg"},{"bike_id":"13b00410-bb9e-4396-a252-e1c023113219","system_id":"levelo_inurba_marseille","lat":43.30994,"lon":5.38458,"is_reserved":false,"is_disabled":false,"rental_uris":{"android":"levelo://app?vid=13b00410-bb9e-4396-a252-e1c023113219","ios":"levelo://app?vid=13b00410-bb9e-4396-a252-e1c023113219"},"vehicle_type_id":"4","last_reported":1744963994,"current_range_meters":7200,"station_id":"","pricing_plan_id":"cebpf4jnsgd1na2vs0mg"},{"bike_id":"0a0b0a73-2b27-49fb-801a-3111dcebfbac","system_id":"levelo_inurba_marseille","lat":43.27506,"lon":5.42454,"is_reserved":false,"is_disabled":false,"rental_uris":{"android":"levelo://app?vid=0a0b0a73-2b27-49fb-801a-3111dcebfbac","ios":"levelo://app?vid=0a0b0a73-2b27-49fb-801a-3111dcebfbac"},"vehicle_type_id":"4","last_reported":1744963994,"current_range_meters":8000,"station_id":"ce4bhn92rcd13ifvqgrg","pricing_plan_id":"cebpf4jnsgd1na2vs0mg"},{"bike_id":"634d8e15-416b-4c50-8ebb-215dec257ec9","system_id":"levelo_inurba_marseille","lat":43.25952,"lon":5.40895,"is_reserved":false,"is_disabled":false,"rental_uris":{"android":"levelo://app?vid=634d8e15-416b-4c50-8ebb-215dec257ec9","ios":"levelo://app?vid=634d8e15-416b-4c50-8ebb-215dec257ec9"},"vehicle_type_id":"4","last_reported":1744963994,"current_range_meters":8000,"station_id":"ce4bhm92rcd13ifvqglg","pricing_plan_id":"cebpf4jnsgd1na2vs0mg"},{"bike_id":"8c9cb089-ecfb-4b82-a678-09b0f352f9b9","system_id":"levelo_inurba_marseille","lat":43.23155,"lon":5.43713,"is_reserved":false,"is_disabled":false,"rental_uris":{"android":"levelo://app?vid=8c9cb089-ecfb-4b82-a678-09b0f352f9b9","ios":"levelo://app?vid=8c9cb089-ecfb-4b82-a678-09b0f352f9b9"},"vehicle_type_id":"4","last_reported":1744963994,"current_range_meters":8000,"station_id":"ce4bhmp2rcd13ifvqgog","pricing_plan_id":"cebpf4jnsgd1na2vs0mg"},{"bike_id":"3aa21b95-1b32-4a0f-afd5-5b5e7c484284","system_id":"levelo_inurba_marseille","lat":43.259307,"lon":5.409126,"is_reserved":false,"is_disabled":false,"rental_uris":{"android":"levelo://app?vid=3aa21b95-1b32-4a0f-afd5-5b5e7c484284","ios":"levelo://app?vid=3aa21b95-1b32-4a0f-afd5-5b5e7c484284"},"vehicle_type_id":"4","last_reported":1744963994,"current_range_meters":8400,"station_id":"ce4bhm92rcd13ifvqglg","pricing_plan_id":"cebpf4jnsgd1na2vs0mg"},{"bike_id":"35f0c2b6-9a06-495e-8706-de8e51ba7f42","system_id":"levelo_inurba_marseille","lat":43.31224,"lon":5.36832,"is_reserved":false,"is_disabled":true,"rental_uris":{"android":"levelo://app?vid=35f0c2b6-9a06-495e-8706-de8e51ba7f42","ios":"levelo://app?vid=35f0c2b6-9a06-495e-8706-de8e51ba7f42"},"vehicle_type_id":"4","last_reported":1744963994,"current_range_meters":8400,"station_id":"ce4bgl92rcd13ifvqbq0","pricing_plan_id":"cebpf4jnsgd1na2vs0mg"},{"bike_id":"e3061286-add2-4bc6-a803-66a4d7d63e42","system_id":"levelo_inurba_marseille","lat":43.2862,"lon":5.35094,"is_reserved":false,"is_disabled":false,"rental_uris":{"android":"levelo://app?vid=e3061286-add2-4bc6-a803-66a4d7d63e42","ios":"levelo://app?vid=e3061286-add2-4bc6-a803-66a4d7d63e42"},"vehicle_type_id":"4","last_reported":1744963994,"current_range_meters":8400,"station_id":"ce4bhch2rcd13ifvqeug","pricing_plan_id":"cebpf4jnsgd1na2vs0mg"},{"bike_id":"3f4e1186-3d94-409e-8a28-6e2e16b869a1","system_id":"levelo_inurba_marseille","lat":43.26691,"lon":5.38276,"is_reserved":false,"is_disabled":true,"rental_uris":{"android":"levelo://app?vid=3f4e1186-3d94-409e-8a28-6e2e16b869a1","ios":"levelo://app?vid=3f4e1186-3d94-409e-8a28-6e2e16b869a1"},"vehicle_type_id":"4","last_reported":1744963994,"current_range_meters":8400,"station_id":"ce4bhg92rcd13ifvqf90","pricing_plan_id":"cebpf4jnsgd1na2vs0mg"},{"bike_id":"9dac2e69-a062-49d6-92a9-7e004e1a897d","system_id":"levelo_inurba_marseille","lat":43.241808,"lon":5.397297,"is_reserved":false,"is_disabled":false,"rental_uris":{"android":"levelo://app?vid=9dac2e69-a062-49d6-92a9-7e004e1a897d","ios":"levelo://app?vid=9dac2e69-a062-49d6-92a9-7e004e1a897d"},"vehicle_type_id":"4","last_reported":1744963994,"current_range_meters":8800,"station_id":"ce4bhn12rcd13ifvqgpg","pricing_plan_id":"cebpf4jnsgd1na2vs0mg"},{"bike_id":"72823705-7f07-4adb-897d-e1709234e554","system_id":"levelo_inurba_marseille","lat":43.23177,"lon":5.40018,"is_reserved":false,"is_disabled":false,"rental_uris":{"android":"levelo://app?vid=72823705-7f07-4adb-897d-e1709234e554","ios":"levelo://app?vid=72823705-7f07-4adb-897d-e1709234e554"},"vehicle_type_id":"4","last_reported":1744963994,"current_range_meters":8800,"station_id":"ce4bhn12rcd13ifvqgqg","pricing_plan_id":"cebpf4jnsgd1na2vs0mg"},{"bike_id":"9f87218f-476c-4818-b2b1-325a51dc8349","system_id":"levelo_inurba_marseille","lat":43.32505,"lon":5.36568,"is_reserved":false,"is_disabled":false,"rental_uris":{"android":"levelo://app?vid=9f87218f-476c-4818-b2b1-325a51dc8349","ios":"levelo://app?vid=9f87218f-476c-4818-b2b1-325a51dc8349"},"vehicle_type_id":"4","last_reported":1744963994,"current_range_meters":8800,"station_id":"ce4bhs12rcd13ifvqhvg","pricing_plan_id":"cebpf4jnsgd1na2vs0mg"},{"bike_id":"79e278b0-6937-4e24-99d2-a6309ccc1be1","system_id":"levelo_inurba_marseille","lat":43.30768,"lon":5.37644,"is_reserved":false,"is_disabled":false,"rental_uris":{"android":"levelo://app?vid=79e278b0-6937-4e24-99d2-a6309ccc1be1","ios":"levelo://app?vid=79e278b0-6937-4e24-99d2-a6309ccc1be1"},"vehicle_type_id":"4","last_reported":1744963994,"current_range_meters":9200,"station_id":"ce4bgv92rcd13ifvqcq0","pricing_plan_id":"cebpf4jnsgd1na2vs0mg"},{"bike_id":"7b78b99c-eca5-488a-a1ac-be39ba2c69c9","system_id":"levelo_inurba_marseille","lat":43.30548,"lon":5.38418,"is_reserved":false,"is_disabled":false,"rental_uris":{"android":"levelo://app?vid=7b78b99c-eca5-488a-a1ac-be39ba2c69c9","ios":"levelo://app?vid=7b78b99c-eca5-488a-a1ac-be39ba2c69c9"},"vehicle_type_id":"4","last_reported":1744963994,"current_range_meters":9200,"station_id":"ce4bgg92rcd13ifvqb30","pricing_plan_id":"cebpf4jnsgd1na2vs0mg"},{"bike_id":"c5ad34a5-de23-413d-9e8b-ec61ed7009c1","system_id":"levelo_inurba_marseille","lat":43.286219,"lon":5.350996,"is_reserved":false,"is_disabled":false,"rental_uris":{"android":"levelo://app?vid=c5ad34a5-de23-413d-9e8b-ec61ed7009c1","ios":"levelo://app?vid=c5ad34a5-de23-413d-9e8b-ec61ed7009c1"},"vehicle_type_id":"4","last_reported":1744963994,"current_range_meters":9200,"station_id":"ce4bhch2rcd13ifvqeug","pricing_plan_id":"cebpf4jnsgd1na2vs0mg"},{"bike_id":"caeb88bf-a625-4b47-8f15-d9bab12bac93","system_id":"levelo_inurba_marseille","lat":43.28428,"lon":5.34976,"is_reserved":false,"is_disabled":false,"rental_uris":{"android":"levelo://app?vid=caeb88bf-a625-4b47-8f15-d9bab12bac93","ios":"levelo://app?vid=caeb88bf-a625-4b47-8f15-d9bab12bac93"},"vehicle_type_id":"4","last_reported":1744963994,"current_range_meters":9600,"station_id":"ce4bhbh2rcd13ifvqepg","pricing_plan_id":"cebpf4jnsgd1na2vs0mg"},{"bike_id":"fe7c7689-3731-4056-8d49-6381cc08a48b","system_id":"levelo_inurba_marseille","lat":43.30006,"lon":5.38468,"is_reserved":false,"is_disabled":true,"rental_uris":{"android":"levelo://app?vid=fe7c7689-3731-4056-8d49-6381cc08a48b","ios":"levelo://app?vid=fe7c7689-3731-4056-8d49-6381cc08a48b"},"vehicle_type_id":"4","last_reported":1744963994,"current_range_meters":9600,"station_id":"ce4bgj92rcd13ifvqbd0","pricing_plan_id":"cebpf4jnsgd1na2vs0mg"},{"bike_id":"41fb0398-f2fe-4abb-ae37-a38f47615ea9","system_id":"levelo_inurba_marseille","lat":43.32373,"lon":5.36804,"is_reserved":false,"is_disabled":true,"rental_uris":{"android":"levelo://app?vid=41fb0398-f2fe-4abb-ae37-a38f47615ea9","ios":"levelo://app?vid=41fb0398-f2fe-4abb-ae37-a38f47615ea9"},"vehicle_type_id":"4","last_reported":1744963994,"current_range_meters":9600,"station_id":"ce4bhsh2rcd13ifvqi2g","pricing_plan_id":"cebpf4jnsgd1na2vs0mg"},{"bike_id":"4a17a27b-4979-4133-9ae1-996785f8fee4","system_id":"levelo_inurba_marseille","lat":43.23091,"lon":5.355,"is_reserved":false,"is_disabled":false,"rental_uris":{"android":"levelo://app?vid=4a17a27b-4979-4133-9ae1-996785f8fee4","ios":"levelo://app?vid=4a17a27b-4979-4133-9ae1-996785f8fee4"},"vehicle_type_id":"4","last_reported":1744963994,"current_range_meters":9600,"station_id":"cpo3342slgdg3j2ifvpg","pricing_plan_id":"cebpf4jnsgd1na2vs0mg"},{"bike_id":"2f52d163-dd56-4334-be9f-8d6905835b03","system_id":"levelo_inurba_marseille","lat":43.3135,"lon":5.36728,"is_reserved":false,"is_disabled":false,"rental_uris":{"android":"levelo://app?vid=2f52d163-dd56-4334-be9f-8d6905835b03","ios":"levelo://app?vid=2f52d163-dd56-4334-be9f-8d6905835b03"},"vehicle_type_id":"4","last_reported":1744963994,"current_range_meters":9600,"station_id":"ce4bgr92rcd13ifvqc6g","pricing_plan_id":"cebpf4jnsgd1na2vs0mg"},{"bike_id":"8033c8a6-9666-4125-9e17-3e7eaf5cf07f","system_id":"levelo_inurba_marseille","lat":43.2557,"lon":5.38246,"is_reserved":false,"is_disabled":false,"rental_uris":{"android":"levelo://app?vid=8033c8a6-9666-4125-9e17-3e7eaf5cf07f","ios":"levelo://app?vid=8033c8a6-9666-4125-9e17-3e7eaf5cf07f"},"vehicle_type_id":"4","last_reported":1744963994,"current_range_meters":9600,"station_id":"ce4bhih2rcd13ifvqfs0","pricing_plan_id":"cebpf4jnsgd1na2vs0mg"},{"bike_id":"7aaae4ad-cac6-460d-9e4f-57bad554724a","system_id":"levelo_inurba_marseille","lat":43.28454,"lon":5.39187,"is_reserved":false,"is_disabled":true,"rental_uris":{"android":"levelo://app?vid=7aaae4ad-cac6-460d-9e4f-57bad554724a","ios":"levelo://app?vid=7aaae4ad-cac6-460d-9e4f-57bad554724a"},"vehicle_type_id":"4","last_reported":1744963994,"current_range_meters":9600,"station_id":"ce4bhoh2rcd13ifvqh5g","pricing_plan_id":"cebpf4jnsgd1na2vs0mg"},{"bike_id":"ec8c9ac7-1e95-4171-97f3-226ce1e3c951","system_id":"levelo_inurba_marseille","lat":43.32168,"lon":5.3686,"is_reserved":false,"is_disabled":false,"rental_uris":{"android":"levelo://app?vid=ec8c9ac7-1e95-4171-97f3-226ce1e3c951","ios":"levelo://app?vid=ec8c9ac7-1e95-4171-97f3-226ce1e3c951"},"vehicle_type_id":"4","last_reported":1744963994,"current_range_meters":10000,"station_id":"ce4bhrh2rcd13ifvqhug","pricing_plan_id":"cebpf4jnsgd1na2vs0mg"},{"bike_id":"64a47f4a-f4e2-4e1b-949e-3e6cf7bc5e72","system_id":"levelo_inurba_marseille","lat":43.27173,"lon":5.40995,"is_reserved":false,"is_disabled":false,"rental_uris":{"android":"levelo://app?vid=64a47f4a-f4e2-4e1b-949e-3e6cf7bc5e72","ios":"levelo://app?vid=64a47f4a-f4e2-4e1b-949e-3e6cf7bc5e72"},"vehicle_type_id":"4","last_reported":1744963994,"current_range_meters":10000,"station_id":"ce4bhl12rcd13ifvqgf0","pricing_plan_id":"cebpf4jnsgd1na2vs0mg"},{"bike_id":"70b6b133-6705-4dfd-b4a7-6e88067904e8","system_id":"levelo_inurba_marseille","lat":43.24174,"lon":5.36401,"is_reserved":false,"is_disabled":false,"rental_uris":{"android":"levelo://app?vid=70b6b133-6705-4dfd-b4a7-6e88067904e8","ios":"levelo://app?vid=70b6b133-6705-4dfd-b4a7-6e88067904e8"},"vehicle_type_id":"4","last_reported":1744963994,"current_range_meters":10000,"station_id":"cpo36qri1sfpv3e86is0","pricing_plan_id":"cebpf4jnsgd1na2vs0mg"},{"bike_id":"f85d96c5-43aa-42d3-a992-c2e785d61e81","system_id":"levelo_inurba_marseille","lat":43.2669,"lon":5.38264,"is_reserved":false,"is_disabled":false,"rental_uris":{"android":"levelo://app?vid=f85d96c5-43aa-42d3-a992-c2e785d61e81","ios":"levelo://app?vid=f85d96c5-43aa-42d3-a992-c2e785d61e81"},"vehicle_type_id":"4","last_reported":1744963994,"current_range_meters":10000,"station_id":"ce4bhg92rcd13ifvqf90","pricing_plan_id":"cebpf4jnsgd1na2vs0mg"},{"bike_id":"4b33f286-5cd5-4322-a997-29c53282b349","system_id":"levelo_inurba_marseille","lat":43.27178,"lon":5.40989,"is_reserved":false,"is_disabled":false,"rental_uris":{"android":"levelo://app?vid=4b33f286-5cd5-4322-a997-29c53282b349","ios":"levelo://app?vid=4b33f286-5cd5-4322-a997-29c53282b349"},"vehicle_type_id":"4","last_reported":1744963994,"current_range_meters":10000,"station_id":"ce4bhl12rcd13ifvqgf0","pricing_plan_id":"cebpf4jnsgd1na2vs0mg"},{"bike_id":"f348c235-69d5-41ec-b5f7-0a83dab5339a","system_id":"levelo_inurba_marseille","lat":43.29008,"lon":5.35612,"is_reserved":false,"is_disabled":true,"rental_uris":{"android":"levelo://app?vid=f348c235-69d5-41ec-b5f7-0a83dab5339a","ios":"levelo://app?vid=f348c235-69d5-41ec-b5f7-0a83dab5339a"},"vehicle_type_id":"4","last_reported":1744963994,"current_range_meters":10000,"station_id":"ce4bhb92rcd13ifvqen0","pricing_plan_id":"cebpf4jnsgd1na2vs0mg"},{"bike_id":"04657881-18eb-45ab-8fbd-9926a7c863cf","system_id":"levelo_inurba_marseille","lat":43.28643,"lon":5.35081,"is_reserved":false,"is_disabled":false,"rental_uris":{"android":"levelo://app?vid=04657881-18eb-45ab-8fbd-9926a7c863cf","ios":"levelo://app?vid=04657881-18eb-45ab-8fbd-9926a7c863cf"},"vehicle_type_id":"4","last_reported":1744963994,"current_range_meters":10000,"station_id":"ce4bhch2rcd13ifvqeug","pricing_plan_id":"cebpf4jnsgd1na2vs0mg"},{"bike_id":"d7e9d8be-e49c-45a8-80f8-1f65bfb83645","system_id":"levelo_inurba_marseille","lat":43.235889,"lon":5.403514,"is_reserved":false,"is_disabled":false,"rental_uris":{"android":"levelo://app?vid=d7e9d8be-e49c-45a8-80f8-1f65bfb83645","ios":"levelo://app?vid=d7e9d8be-e49c-45a8-80f8-1f65bfb83645"},"vehicle_type_id":"4","last_reported":1744963994,"current_range_meters":10000,"station_id":"","pricing_plan_id":"cebpf4jnsgd1na2vs0mg"},{"bike_id":"80e897ed-764d-4553-8a10-27cd3972481d","system_id":"levelo_inurba_marseille","lat":43.30955,"lon":5.39031,"is_reserved":false,"is_disabled":false,"rental_uris":{"android":"levelo://app?vid=80e897ed-764d-4553-8a10-27cd3972481d","ios":"levelo://app?vid=80e897ed-764d-4553-8a10-27cd3972481d"},"vehicle_type_id":"4","last_reported":1744963994,"current_range_meters":10800,"station_id":"ce4bgup2rcd13ifvqco0","pricing_plan_id":"cebpf4jnsgd1na2vs0mg"},{"bike_id":"5fddd535-ab4d-402f-9080-0ad0b96c0735","system_id":"levelo_inurba_marseille","lat":43.309344,"lon":5.367511,"is_reserved":false,"is_disabled":false,"rental_uris":{"android":"levelo://app?vid=5fddd535-ab4d-402f-9080-0ad0b96c0735","ios":"levelo://app?vid=5fddd535-ab4d-402f-9080-0ad0b96c0735"},"vehicle_type_id":"4","last_reported":1744963994,"current_range_meters":10800,"station_id":"","pricing_plan_id":"cebpf4jnsgd1na2vs0mg"},{"bike_id":"5e08de35-3e0c-4d5f-b69b-a662212c4dac","system_id":"levelo_inurba_marseille","lat":43.24171,"lon":5.39738,"is_reserved":false,"is_disabled":false,"rental_uris":{"android":"levelo://app?vid=5e08de35-3e0c-4d5f-b69b-a662212c4dac","ios":"levelo://app?vid=5e08de35-3e0c-4d5f-b69b-a662212c4dac"},"vehicle_type_id":"4","last_reported":1744963994,"current_range_meters":10800,"station_id":"ce4bhn12rcd13ifvqgpg","pricing_plan_id":"cebpf4jnsgd1na2vs0mg"},{"bike_id":"ae0e1566-e631-4bc5-9aed-0ebca70f0554","system_id":"levelo_inurba_marseille","lat":43.28616,"lon":5.35106,"is_reserved":false,"is_disabled":false,"rental_uris":{"android":"levelo://app?vid=ae0e1566-e631-4bc5-9aed-0ebca70f0554","ios":"levelo://app?vid=ae0e1566-e631-4bc5-9aed-0ebca70f0554"},"vehicle_type_id":"4","last_reported":1744963994,"current_range_meters":10800,"station_id":"ce4bhch2rcd13ifvqeug","pricing_plan_id":"cebpf4jnsgd1na2vs0mg"},{"bike_id":"1e954ebd-6f87-4cd4-8c0c-e1f08423f7c4","system_id":"levelo_inurba_marseille","lat":43.29928,"lon":5.36524,"is_reserved":false,"is_disabled":false,"rental_uris":{"android":"levelo://app?vid=1e954ebd-6f87-4cd4-8c0c-e1f08423f7c4","ios":"levelo://app?vid=1e954ebd-6f87-4cd4-8c0c-e1f08423f7c4"},"vehicle_type_id":"4","last_reported":1744963994,"current_range_meters":11200,"station_id":"ce4bgm92rcd13ifvqbr0","pricing_plan_id":"cebpf4jnsgd1na2vs0mg"},{"bike_id":"a8acab35-e8ef-4d3d-a4b5-67d71ab7687d","system_id":"levelo_inurba_marseille","lat":43.23958,"lon":5.36643,"is_reserved":false,"is_disabled":false,"rental_uris":{"android":"levelo://app?vid=a8acab35-e8ef-4d3d-a4b5-67d71ab7687d","ios":"levelo://app?vid=a8acab35-e8ef-4d3d-a4b5-67d71ab7687d"},"vehicle_type_id":"4","last_reported":1744963994,"current_range_meters":11200,"station_id":"ce4bhi12rcd13ifvqfp0","pricing_plan_id":"cebpf4jnsgd1na2vs0mg"},{"bike_id":"e14c265e-eca3-4791-a3e7-f534121ae166","system_id":"levelo_inurba_marseille","lat":43.22952,"lon":5.35375,"is_reserved":false,"is_disabled":true,"rental_uris":{"android":"levelo://app?vid=e14c265e-eca3-4791-a3e7-f534121ae166","ios":"levelo://app?vid=e14c265e-eca3-4791-a3e7-f534121ae166"},"vehicle_type_id":"4","last_reported":1744963994,"current_range_meters":11200,"station_id":"cpo3532slgdg3j2ikp40","pricing_plan_id":"cebpf4jnsgd1na2vs0mg"},{"bike_id":"3d6ad01f-e233-4ed4-bd4b-9dd88ce78cb3","system_id":"levelo_inurba_marseille","lat":43.31348,"lon":5.36717,"is_reserved":false,"is_disabled":false,"rental_uris":{"android":"levelo://app?vid=3d6ad01f-e233-4ed4-bd4b-9dd88ce78cb3","ios":"levelo://app?vid=3d6ad01f-e233-4ed4-bd4b-9dd88ce78cb3"},"vehicle_type_id":"4","last_reported":1744963994,"current_range_meters":11200,"station_id":"ce4bgr92rcd13ifvqc6g","pricing_plan_id":"cebpf4jnsgd1na2vs0mg"},{"bike_id":"3d39b325-7911-4cf7-bb72-261094febdde","system_id":"levelo_inurba_marseille","lat":43.274506,"lon":5.394265,"is_reserved":false,"is_disabled":false,"rental_uris":{"android":"levelo://app?vid=3d39b325-7911-4cf7-bb72-261094febdde","ios":"levelo://app?vid=3d39b325-7911-4cf7-bb72-261094febdde"},"vehicle_type_id":"4","last_reported":1744963994,"current_range_meters":11200,"station_id":"ce4bhdp2rcd13ifvqf20","pricing_plan_id":"cebpf4jnsgd1na2vs0mg"},{"bike_id":"1210dc72-37b8-49f7-b249-6faa54daba28","system_id":"levelo_inurba_marseille","lat":43.32359,"lon":5.36779,"is_reserved":false,"is_disabled":false,"rental_uris":{"android":"levelo://app?vid=1210dc72-37b8-49f7-b249-6faa54daba28","ios":"levelo://app?vid=1210dc72-37b8-49f7-b249-6faa54daba28"},"vehicle_type_id":"4","last_reported":1744963994,"current_range_meters":11600,"station_id":"ce4bhsh2rcd13ifvqi2g","pricing_plan_id":"cebpf4jnsgd1na2vs0mg"},{"bike_id":"0fb1a105-b046-4c66-baab-c2dec6ff86a2","system_id":"levelo_inurba_marseille","lat":43.28622,"lon":5.37053,"is_reserved":false,"is_disabled":false,"rental_uris":{"android":"levelo://app?vid=0fb1a105-b046-4c66-baab-c2dec6ff86a2","ios":"levelo://app?vid=0fb1a105-b046-4c66-baab-c2dec6ff86a2"},"vehicle_type_id":"4","last_reported":1744963994,"current_range_meters":11600,"station_id":"ce4bht12rcd13ifvqi60","pricing_plan_id":"cebpf4jnsgd1na2vs0mg"},{"bike_id":"588acb0e-e75b-4fcb-a8f4-0d184e9a03d9","system_id":"levelo_inurba_marseille","lat":43.30547,"lon":5.36711,"is_reserved":false,"is_disabled":false,"rental_uris":{"android":"levelo://app?vid=588acb0e-e75b-4fcb-a8f4-0d184e9a03d9","ios":"levelo://app?vid=588acb0e-e75b-4fcb-a8f4-0d184e9a03d9"},"vehicle_type_id":"4","last_reported":1744963994,"current_range_meters":11600,"station_id":"ce4bgrp2rcd13ifvqc9g","pricing_plan_id":"cebpf4jnsgd1na2vs0mg"},{"bike_id":"420a4b43-08d3-4ce0-b490-6274d6cb9b4c","system_id":"levelo_inurba_marseille","lat":43.285345,"lon":5.404306,"is_reserved":false,"is_disabled":false,"rental_uris":{"android":"levelo://app?vid=420a4b43-08d3-4ce0-b490-6274d6cb9b4c","ios":"levelo://app?vid=420a4b43-08d3-4ce0-b490-6274d6cb9b4c"},"vehicle_type_id":"4","last_reported":1744963994,"current_range_meters":12000,"station_id":"ce4bh0h2rcd13ifvqd60","pricing_plan_id":"cebpf4jnsgd1na2vs0mg"},{"bike_id":"f720e68a-58c8-440f-bcbc-822e9ccaaecb","system_id":"levelo_inurba_marseille","lat":43.29887,"lon":5.36522,"is_reserved":false,"is_disabled":false,"rental_uris":{"android":"levelo://app?vid=f720e68a-58c8-440f-bcbc-822e9ccaaecb","ios":"levelo://app?vid=f720e68a-58c8-440f-bcbc-822e9ccaaecb"},"vehicle_type_id":"4","last_reported":1744963994,"current_range_meters":12000,"station_id":"ce4bgm92rcd13ifvqbr0","pricing_plan_id":"cebpf4jnsgd1na2vs0mg"},{"bike_id":"c6fe016c-89a1-4aa2-a395-48f46dbb7486","system_id":"levelo_inurba_marseille","lat":43.29275,"lon":5.36842,"is_reserved":false,"is_disabled":false,"rental_uris":{"android":"levelo://app?vid=c6fe016c-89a1-4aa2-a395-48f46dbb7486","ios":"levelo://app?vid=c6fe016c-89a1-4aa2-a395-48f46dbb7486"},"vehicle_type_id":"4","last_reported":1744963994,"current_range_meters":12000,"station_id":"ce4bhbp2rcd13ifvqesg","pricing_plan_id":"cebpf4jnsgd1na2vs0mg"},{"bike_id":"6638a7ad-e1ee-41df-8526-0e6e8d82c4d7","system_id":"levelo_inurba_marseille","lat":43.27376,"lon":5.36264,"is_reserved":false,"is_disabled":false,"rental_uris":{"android":"levelo://app?vid=6638a7ad-e1ee-41df-8526-0e6e8d82c4d7","ios":"levelo://app?vid=6638a7ad-e1ee-41df-8526-0e6e8d82c4d7"},"vehicle_type_id":"4","last_reported":1744963994,"current_range_meters":12000,"station_id":"ce4bhbh2rcd13ifvqeo0","pricing_plan_id":"cebpf4jnsgd1na2vs0mg"},{"bike_id":"3f94f560-bc6a-40aa-9ab6-722f782cddfb","system_id":"levelo_inurba_marseille","lat":43.29259,"lon":5.40911,"is_reserved":false,"is_disabled":false,"rental_uris":{"android":"levelo://app?vid=3f94f560-bc6a-40aa-9ab6-722f782cddfb","ios":"levelo://app?vid=3f94f560-bc6a-40aa-9ab6-722f782cddfb"},"vehicle_type_id":"4","last_reported":1744963994,"current_range_meters":12000,"station_id":"ce4bh192rcd13ifvqdc0","pricing_plan_id":"cebpf4jnsgd1na2vs0mg"},{"bike_id":"5786e5be-4090-4249-9138-7309437a9754","system_id":"levelo_inurba_marseille","lat":43.25081,"lon":5.39511,"is_reserved":false,"is_disabled":false,"rental_uris":{"android":"levelo://app?vid=5786e5be-4090-4249-9138-7309437a9754","ios":"levelo://app?vid=5786e5be-4090-4249-9138-7309437a9754"},"vehicle_type_id":"4","last_reported":1744963994,"current_range_meters":12000,"station_id":"ce4bhm12rcd13ifvqgkg","pricing_plan_id":"cebpf4jnsgd1na2vs0mg"},{"bike_id":"1d6405c3-f2f6-4ea8-ba95-9f3e8cc9a2e3","system_id":"levelo_inurba_marseille","lat":43.29962,"lon":5.41323,"is_reserved":false,"is_disabled":false,"rental_uris":{"android":"levelo://app?vid=1d6405c3-f2f6-4ea8-ba95-9f3e8cc9a2e3","ios":"levelo://app?vid=1d6405c3-f2f6-4ea8-ba95-9f3e8cc9a2e3"},"vehicle_type_id":"4","last_reported":1744963994,"current_range_meters":12400,"station_id":"ce4bhp12rcd13ifvqh9g","pricing_plan_id":"cebpf4jnsgd1na2vs0mg"},{"bike_id":"ba9786bb-1cac-4b75-83c5-e113aaf2f7c3","system_id":"levelo_inurba_marseille","lat":43.31373,"lon":5.36694,"is_reserved":false,"is_disabled":false,"rental_uris":{"android":"levelo://app?vid=ba9786bb-1cac-4b75-83c5-e113aaf2f7c3","ios":"levelo://app?vid=ba9786bb-1cac-4b75-83c5-e113aaf2f7c3"},"vehicle_type_id":"4","last_reported":1744963994,"current_range_meters":12400,"station_id":"ce4bgr92rcd13ifvqc6g","pricing_plan_id":"cebpf4jnsgd1na2vs0mg"},{"bike_id":"66104c7f-8c48-4281-b213-17db1be488cd","system_id":"levelo_inurba_marseille","lat":43.29571,"lon":5.39971,"is_reserved":false,"is_disabled":false,"rental_uris":{"android":"levelo://app?vid=66104c7f-8c48-4281-b213-17db1be488cd","ios":"levelo://app?vid=66104c7f-8c48-4281-b213-17db1be488cd"},"vehicle_type_id":"4","last_reported":1744963994,"current_range_meters":14000,"station_id":"ce4bh312rcd13ifvqdj0","pricing_plan_id":"cebpf4jnsgd1na2vs0mg"},{"bike_id":"9ccc1250-0ff6-4acc-bd2f-67431ef76582","system_id":"levelo_inurba_marseille","lat":43.28418,"lon":5.34991,"is_reserved":false,"is_disabled":false,"rental_uris":{"android":"levelo://app?vid=9ccc1250-0ff6-4acc-bd2f-67431ef76582","ios":"levelo://app?vid=9ccc1250-0ff6-4acc-bd2f-67431ef76582"},"vehicle_type_id":"4","last_reported":1744963994,"current_range_meters":12400,"station_id":"ce4bhbh2rcd13ifvqepg","pricing_plan_id":"cebpf4jnsgd1na2vs0mg"},{"bike_id":"74b9df44-627a-4051-874f-d5948b830699","system_id":"levelo_inurba_marseille","lat":43.2849,"lon":5.38548,"is_reserved":false,"is_disabled":false,"rental_uris":{"android":"levelo://app?vid=74b9df44-627a-4051-874f-d5948b830699","ios":"levelo://app?vid=74b9df44-627a-4051-874f-d5948b830699"},"vehicle_type_id":"4","last_reported":1744963994,"current_range_meters":12400,"station_id":"ce4bh8p2rcd13ifvqeb0","pricing_plan_id":"cebpf4jnsgd1na2vs0mg"},{"bike_id":"50d4a2c6-4a96-473e-8d34-d513024f852d","system_id":"levelo_inurba_marseille","lat":43.23957,"lon":5.36636,"is_reserved":false,"is_disabled":false,"rental_uris":{"android":"levelo://app?vid=50d4a2c6-4a96-473e-8d34-d513024f852d","ios":"levelo://app?vid=50d4a2c6-4a96-473e-8d34-d513024f852d"},"vehicle_type_id":"4","last_reported":1744963994,"current_range_meters":13600,"station_id":"ce4bhi12rcd13ifvqfp0","pricing_plan_id":"cebpf4jnsgd1na2vs0mg"},{"bike_id":"72083357-9251-4ecc-84c6-c9ada04d0978","system_id":"levelo_inurba_marseille","lat":43.307929,"lon":5.388001,"is_reserved":false,"is_disabled":false,"rental_uris":{"android":"levelo://app?vid=72083357-9251-4ecc-84c6-c9ada04d0978","ios":"levelo://app?vid=72083357-9251-4ecc-84c6-c9ada04d0978"},"vehicle_type_id":"4","last_reported":1744963994,"current_range_meters":13600,"station_id":"ce4bh4p2rcd13ifvqe1g","pricing_plan_id":"cebpf4jnsgd1na2vs0mg"},{"bike_id":"0e59b8f1-ee92-44c5-81a2-b13d0f8786bd","system_id":"levelo_inurba_marseille","lat":43.28419,"lon":5.34985,"is_reserved":false,"is_disabled":false,"rental_uris":{"android":"levelo://app?vid=0e59b8f1-ee92-44c5-81a2-b13d0f8786bd","ios":"levelo://app?vid=0e59b8f1-ee92-44c5-81a2-b13d0f8786bd"},"vehicle_type_id":"4","last_reported":1744963994,"current_range_meters":14000,"station_id":"ce4bhbh2rcd13ifvqepg","pricing_plan_id":"cebpf4jnsgd1na2vs0mg"},{"bike_id":"3e755304-b8bd-4cdd-9d9f-e5e64b526a98","system_id":"levelo_inurba_marseille","lat":43.26698,"lon":5.38268,"is_reserved":false,"is_disabled":false,"rental_uris":{"android":"levelo://app?vid=3e755304-b8bd-4cdd-9d9f-e5e64b526a98","ios":"levelo://app?vid=3e755304-b8bd-4cdd-9d9f-e5e64b526a98"},"vehicle_type_id":"4","last_reported":1744963994,"current_range_meters":14000,"station_id":"ce4bhg92rcd13ifvqf90","pricing_plan_id":"cebpf4jnsgd1na2vs0mg"},{"bike_id":"0163f344-632f-4875-8459-3d9391fd8f55","system_id":"levelo_inurba_marseille","lat":43.28445,"lon":5.39185,"is_reserved":false,"is_disabled":false,"rental_uris":{"android":"levelo://app?vid=0163f344-632f-4875-8459-3d9391fd8f55","ios":"levelo://app?vid=0163f344-632f-4875-8459-3d9391fd8f55"},"vehicle_type_id":"4","last_reported":1744963994,"current_range_meters":14000,"station_id":"ce4bhoh2rcd13ifvqh5g","pricing_plan_id":"cebpf4jnsgd1na2vs0mg"},{"bike_id":"61cbdded-5b80-451e-87fa-6b67a81b13d1","system_id":"levelo_inurba_marseille","lat":43.24386,"lon":5.37054,"is_reserved":false,"is_disabled":false,"rental_uris":{"android":"levelo://app?vid=61cbdded-5b80-451e-87fa-6b67a81b13d1","ios":"levelo://app?vid=61cbdded-5b80-451e-87fa-6b67a81b13d1"},"vehicle_type_id":"4","last_reported":1744963994,"current_range_meters":14000,"station_id":"ce4bhhh2rcd13ifvqfk0","pricing_plan_id":"cebpf4jnsgd1na2vs0mg"},{"bike_id":"007ee9c7-c769-4de9-a218-517ff098b9cd","system_id":"levelo_inurba_marseille","lat":43.314505,"lon":5.373787,"is_reserved":false,"is_disabled":false,"rental_uris":{"android":"levelo://app?vid=007ee9c7-c769-4de9-a218-517ff098b9cd","ios":"levelo://app?vid=007ee9c7-c769-4de9-a218-517ff098b9cd"},"vehicle_type_id":"4","last_reported":1744963994,"current_range_meters":14000,"station_id":"","pricing_plan_id":"cebpf4jnsgd1na2vs0mg"},{"bike_id":"fdb736b6-d23f-4fa0-8b91-7424bf67be26","system_id":"levelo_inurba_marseille","lat":43.34147,"lon":5.40924,"is_reserved":false,"is_disabled":false,"rental_uris":{"android":"levelo://app?vid=fdb736b6-d23f-4fa0-8b91-7424bf67be26","ios":"levelo://app?vid=fdb736b6-d23f-4fa0-8b91-7424bf67be26"},"vehicle_type_id":"4","last_reported":1744963994,"current_range_meters":14000,"station_id":"ce4bhqh2rcd13ifvqhlg","pricing_plan_id":"cebpf4jnsgd1na2vs0mg"},{"bike_id":"934a8fc0-98f8-4aaf-a145-d485dee937c7","system_id":"levelo_inurba_marseille","lat":43.32357,"lon":5.36757,"is_reserved":false,"is_disabled":false,"rental_uris":{"android":"levelo://app?vid=934a8fc0-98f8-4aaf-a145-d485dee937c7","ios":"levelo://app?vid=934a8fc0-98f8-4aaf-a145-d485dee937c7"},"vehicle_type_id":"4","last_reported":1744963994,"current_range_meters":14000,"station_id":"ce4bhsh2rcd13ifvqi2g","pricing_plan_id":"cebpf4jnsgd1na2vs0mg"},{"bike_id":"a0ddb0a5-f7f0-4281-aa27-9e82747cc573","system_id":"levelo_inurba_marseille","lat":43.33754,"lon":5.37491,"is_reserved":false,"is_disabled":false,"rental_uris":{"android":"levelo://app?vid=a0ddb0a5-f7f0-4281-aa27-9e82747cc573","ios":"levelo://app?vid=a0ddb0a5-f7f0-4281-aa27-9e82747cc573"},"vehicle_type_id":"4","last_reported":1744963994,"current_range_meters":14000,"station_id":"","pricing_plan_id":"cebpf4jnsgd1na2vs0mg"},{"bike_id":"135f0758-d03d-42f1-a2d6-49e93dc7a634","system_id":"levelo_inurba_marseille","lat":43.29852,"lon":5.36279,"is_reserved":false,"is_disabled":false,"rental_uris":{"android":"levelo://app?vid=135f0758-d03d-42f1-a2d6-49e93dc7a634","ios":"levelo://app?vid=135f0758-d03d-42f1-a2d6-49e93dc7a634"},"vehicle_type_id":"4","last_reported":1744963994,"current_range_meters":14000,"station_id":"ce4bgpp2rcd13ifvqc3g","pricing_plan_id":"cebpf4jnsgd1na2vs0mg"},{"bike_id":"9fe6b68c-b08e-4d81-8c7d-760938ace4d6","system_id":"levelo_inurba_marseille","lat":43.29222,"lon":5.36108,"is_reserved":false,"is_disabled":false,"rental_uris":{"android":"levelo://app?vid=9fe6b68c-b08e-4d81-8c7d-760938ace4d6","ios":"levelo://app?vid=9fe6b68c-b08e-4d81-8c7d-760938ace4d6"},"vehicle_type_id":"4","last_reported":1744963994,"current_range_meters":14400,"station_id":"ce4bhbh2rcd13ifvqeqg","pricing_plan_id":"cebpf4jnsgd1na2vs0mg"},{"bike_id":"bbb1c662-cc65-4c72-8489-de78d2f0f12f","system_id":"levelo_inurba_marseille","lat":43.23058,"lon":5.35492,"is_reserved":false,"is_disabled":false,"rental_uris":{"android":"levelo://app?vid=bbb1c662-cc65-4c72-8489-de78d2f0f12f","ios":"levelo://app?vid=bbb1c662-cc65-4c72-8489-de78d2f0f12f"},"vehicle_type_id":"4","last_reported":1744963994,"current_range_meters":14400,"station_id":"cpo3342slgdg3j2ifvpg","pricing_plan_id":"cebpf4jnsgd1na2vs0mg"},{"bike_id":"bd492354-2d79-4427-82ee-84e4a12dea30","system_id":"levelo_inurba_marseille","lat":43.21192,"lon":5.35069,"is_reserved":false,"is_disabled":false,"rental_uris":{"android":"levelo://app?vid=bd492354-2d79-4427-82ee-84e4a12dea30","ios":"levelo://app?vid=bd492354-2d79-4427-82ee-84e4a12dea30"},"vehicle_type_id":"4","last_reported":1744963994,"current_range_meters":14400,"station_id":"st_cvj6sg6p6f1abm77japg","pricing_plan_id":"cebpf4jnsgd1na2vs0mg"},{"bike_id":"7ed91d22-3d5b-4254-83bf-64eb2a7d5481","system_id":"levelo_inurba_marseille","lat":43.225043,"lon":5.347869,"is_reserved":false,"is_disabled":false,"rental_uris":{"android":"levelo://app?vid=7ed91d22-3d5b-4254-83bf-64eb2a7d5481","ios":"levelo://app?vid=7ed91d22-3d5b-4254-83bf-64eb2a7d5481"},"vehicle_type_id":"4","last_reported":1744963994,"current_range_meters":14400,"station_id":"","pricing_plan_id":"cebpf4jnsgd1na2vs0mg"},{"bike_id":"51f32d2c-1879-464c-acba-93c57bc66ab6","system_id":"levelo_inurba_marseille","lat":43.29038,"lon":5.35905,"is_reserved":false,"is_disabled":true,"rental_uris":{"android":"levelo://app?vid=51f32d2c-1879-464c-acba-93c57bc66ab6","ios":"levelo://app?vid=51f32d2c-1879-464c-acba-93c57bc66ab6"},"vehicle_type_id":"4","last_reported":1744963994,"current_range_meters":14400,"station_id":"ce4bha92rcd13ifvqeg0","pricing_plan_id":"cebpf4jnsgd1na2vs0mg"},{"bike_id":"0412a1ca-4def-4ac7-bfaa-effc8cbb5510","system_id":"levelo_inurba_marseille","lat":43.22926,"lon":5.3538,"is_reserved":false,"is_disabled":false,"rental_uris":{"android":"levelo://app?vid=0412a1ca-4def-4ac7-bfaa-effc8cbb5510","ios":"levelo://app?vid=0412a1ca-4def-4ac7-bfaa-effc8cbb5510"},"vehicle_type_id":"4","last_reported":1744963994,"current_range_meters":14400,"station_id":"cpo3532slgdg3j2ikp40","pricing_plan_id":"cebpf4jnsgd1na2vs0mg"},{"bike_id":"5cdbc4c1-0642-46e4-87cf-2386924265b5","system_id":"levelo_inurba_marseille","lat":43.26506,"lon":5.37231,"is_reserved":false,"is_disabled":false,"rental_uris":{"android":"levelo://app?vid=5cdbc4c1-0642-46e4-87cf-2386924265b5","ios":"levelo://app?vid=5cdbc4c1-0642-46e4-87cf-2386924265b5"},"vehicle_type_id":"4","last_reported":1744963994,"current_range_meters":14400,"station_id":"ce4bhg12rcd13ifvqf70","pricing_plan_id":"cebpf4jnsgd1na2vs0mg"},{"bike_id":"5a5c57f4-93dc-4c9c-9d4b-c7555febdc7a","system_id":"levelo_inurba_marseille","lat":43.2679,"lon":5.39416,"is_reserved":false,"is_disabled":false,"rental_uris":{"android":"levelo://app?vid=5a5c57f4-93dc-4c9c-9d4b-c7555febdc7a","ios":"levelo://app?vid=5a5c57f4-93dc-4c9c-9d4b-c7555febdc7a"},"vehicle_type_id":"4","last_reported":1744963994,"current_range_meters":14000,"station_id":"ce4bhh12rcd13ifvqfg0","pricing_plan_id":"cebpf4jnsgd1na2vs0mg"},{"bike_id":"e3b9c86b-9e49-41d1-83da-e803d37c2cf4","system_id":"levelo_inurba_marseille","lat":43.30136,"lon":5.38779,"is_reserved":false,"is_disabled":true,"rental_uris":{"android":"levelo://app?vid=e3b9c86b-9e49-41d1-83da-e803d37c2cf4","ios":"levelo://app?vid=e3b9c86b-9e49-41d1-83da-e803d37c2cf4"},"vehicle_type_id":"4","last_reported":1744963994,"current_range_meters":14800,"station_id":"ce4bghh2rcd13ifvqb60","pricing_plan_id":"cebpf4jnsgd1na2vs0mg"},{"bike_id":"5ea3100f-c34b-4bbd-b4ea-bf9621895fc6","system_id":"levelo_inurba_marseille","lat":43.29554,"lon":5.42292,"is_reserved":false,"is_disabled":false,"rental_uris":{"android":"levelo://app?vid=5ea3100f-c34b-4bbd-b4ea-bf9621895fc6","ios":"levelo://app?vid=5ea3100f-c34b-4bbd-b4ea-bf9621895fc6"},"vehicle_type_id":"4","last_reported":1744963994,"current_range_meters":14800,"station_id":"ce4bhph2rcd13ifvqhdg","pricing_plan_id":"cebpf4jnsgd1na2vs0mg"},{"bike_id":"87dfde22-0946-4fff-8481-b20f78b7b350","system_id":"levelo_inurba_marseille","lat":43.31266,"lon":5.36848,"is_reserved":false,"is_disabled":false,"rental_uris":{"android":"levelo://app?vid=87dfde22-0946-4fff-8481-b20f78b7b350","ios":"levelo://app?vid=87dfde22-0946-4fff-8481-b20f78b7b350"},"vehicle_type_id":"4","last_reported":1744963994,"current_range_meters":14800,"station_id":"ce4bgl92rcd13ifvqbq0","pricing_plan_id":"cebpf4jnsgd1na2vs0mg"},{"bike_id":"a5576019-43e7-4c3f-9b3f-bda5c803876a","system_id":"levelo_inurba_marseille","lat":43.2418,"lon":5.39715,"is_reserved":false,"is_disabled":false,"rental_uris":{"android":"levelo://app?vid=a5576019-43e7-4c3f-9b3f-bda5c803876a","ios":"levelo://app?vid=a5576019-43e7-4c3f-9b3f-bda5c803876a"},"vehicle_type_id":"4","last_reported":1744963994,"current_range_meters":14800,"station_id":"ce4bhn12rcd13ifvqgpg","pricing_plan_id":"cebpf4jnsgd1na2vs0mg"},{"bike_id":"ecf1b2ce-6838-4d42-ab1f-fc94cebd3b05","system_id":"levelo_inurba_marseille","lat":43.323633,"lon":5.389017,"is_reserved":false,"is_disabled":true,"rental_uris":{"android":"levelo://app?vid=ecf1b2ce-6838-4d42-ab1f-fc94cebd3b05","ios":"levelo://app?vid=ecf1b2ce-6838-4d42-ab1f-fc94cebd3b05"},"vehicle_type_id":"4","last_reported":1744963994,"current_range_meters":15200,"station_id":"ce4bhqp2rcd13ifvqhog","pricing_plan_id":"cebpf4jnsgd1na2vs0mg"},{"bike_id":"ef6e9c6f-8f69-4fcf-9727-b556a001e5bc","system_id":"levelo_inurba_marseille","lat":43.2955,"lon":5.4227,"is_reserved":false,"is_disabled":false,"rental_uris":{"android":"levelo://app?vid=ef6e9c6f-8f69-4fcf-9727-b556a001e5bc","ios":"levelo://app?vid=ef6e9c6f-8f69-4fcf-9727-b556a001e5bc"},"vehicle_type_id":"4","last_reported":1744963994,"current_range_meters":15200,"station_id":"ce4bhph2rcd13ifvqhdg","pricing_plan_id":"cebpf4jnsgd1na2vs0mg"},{"bike_id":"48229575-bb87-4106-aa7e-b66ccc2bfdc5","system_id":"levelo_inurba_marseille","lat":43.31377,"lon":5.36701,"is_reserved":false,"is_disabled":false,"rental_uris":{"android":"levelo://app?vid=48229575-bb87-4106-aa7e-b66ccc2bfdc5","ios":"levelo://app?vid=48229575-bb87-4106-aa7e-b66ccc2bfdc5"},"vehicle_type_id":"4","last_reported":1744963994,"current_range_meters":15200,"station_id":"ce4bgr92rcd13ifvqc6g","pricing_plan_id":"cebpf4jnsgd1na2vs0mg"},{"bike_id":"68342d9f-f0b6-47e7-b690-b27078e67a77","system_id":"levelo_inurba_marseille","lat":43.24176,"lon":5.36394,"is_reserved":false,"is_disabled":false,"rental_uris":{"android":"levelo://app?vid=68342d9f-f0b6-47e7-b690-b27078e67a77","ios":"levelo://app?vid=68342d9f-f0b6-47e7-b690-b27078e67a77"},"vehicle_type_id":"4","last_reported":1744963994,"current_range_meters":16000,"station_id":"cpo36qri1sfpv3e86is0","pricing_plan_id":"cebpf4jnsgd1na2vs0mg"},{"bike_id":"ae6f6bc3-b076-4713-869e-a7f6201bc7ea","system_id":"levelo_inurba_marseille","lat":43.24812,"lon":5.3745,"is_reserved":false,"is_disabled":false,"rental_uris":{"android":"levelo://app?vid=ae6f6bc3-b076-4713-869e-a7f6201bc7ea","ios":"levelo://app?vid=ae6f6bc3-b076-4713-869e-a7f6201bc7ea"},"vehicle_type_id":"4","last_reported":1744963994,"current_range_meters":16000,"station_id":"ce4bhgh2rcd13ifvqfb0","pricing_plan_id":"cebpf4jnsgd1na2vs0mg"},{"bike_id":"3d8c248e-bb6e-4b01-81fc-fc98a296095f","system_id":"levelo_inurba_marseille","lat":43.26246,"lon":5.37425,"is_reserved":false,"is_disabled":false,"rental_uris":{"android":"levelo://app?vid=3d8c248e-bb6e-4b01-81fc-fc98a296095f","ios":"levelo://app?vid=3d8c248e-bb6e-4b01-81fc-fc98a296095f"},"vehicle_type_id":"4","last_reported":1744963994,"current_range_meters":16000,"station_id":"ce4bhgp2rcd13ifvqfc0","pricing_plan_id":"cebpf4jnsgd1na2vs0mg"},{"bike_id":"33efbe4e-e642-4271-be29-4926b421ca5b","system_id":"levelo_inurba_marseille","lat":43.24179,"lon":5.36399,"is_reserved":false,"is_disabled":false,"rental_uris":{"android":"levelo://app?vid=33efbe4e-e642-4271-be29-4926b421ca5b","ios":"levelo://app?vid=33efbe4e-e642-4271-be29-4926b421ca5b"},"vehicle_type_id":"4","last_reported":1744963994,"current_range_meters":16000,"station_id":"cpo36qri1sfpv3e86is0","pricing_plan_id":"cebpf4jnsgd1na2vs0mg"},{"bike_id":"7eb8853e-3665-40f5-8308-1299f0674652","system_id":"levelo_inurba_marseille","lat":43.30367,"lon":5.425,"is_reserved":false,"is_disabled":false,"rental_uris":{"android":"levelo://app?vid=7eb8853e-3665-40f5-8308-1299f0674652","ios":"levelo://app?vid=7eb8853e-3665-40f5-8308-1299f0674652"},"vehicle_type_id":"4","last_reported":1744963994,"current_range_meters":16000,"station_id":"ce4bhoh2rcd13ifvqh6g","pricing_plan_id":"cebpf4jnsgd1na2vs0mg"},{"bike_id":"f9d3fbe6-73e5-424e-af02-f446d5b07152","system_id":"levelo_inurba_marseille","lat":43.21741,"lon":5.34591,"is_reserved":false,"is_disabled":false,"rental_uris":{"android":"levelo://app?vid=f9d3fbe6-73e5-424e-af02-f446d5b07152","ios":"levelo://app?vid=f9d3fbe6-73e5-424e-af02-f446d5b07152"},"vehicle_type_id":"4","last_reported":1744963994,"current_range_meters":16000,"station_id":"st_cvj6r9ubvosntc0bgbag","pricing_plan_id":"cebpf4jnsgd1na2vs0mg"},{"bike_id":"5fba1097-d266-4f11-ba7e-0f0b630b3da9","system_id":"levelo_inurba_marseille","lat":43.30822,"lon":5.43523,"is_reserved":false,"is_disabled":false,"rental_uris":{"android":"levelo://app?vid=5fba1097-d266-4f11-ba7e-0f0b630b3da9","ios":"levelo://app?vid=5fba1097-d266-4f11-ba7e-0f0b630b3da9"},"vehicle_type_id":"4","last_reported":1744963994,"current_range_meters":16400,"station_id":"ce4bhph2rcd13ifvqheg","pricing_plan_id":"cebpf4jnsgd1na2vs0mg"},{"bike_id":"8f9b1724-a032-4654-9dc5-07dda4626e13","system_id":"levelo_inurba_marseille","lat":43.31064,"lon":5.38353,"is_reserved":false,"is_disabled":false,"rental_uris":{"android":"levelo://app?vid=8f9b1724-a032-4654-9dc5-07dda4626e13","ios":"levelo://app?vid=8f9b1724-a032-4654-9dc5-07dda4626e13"},"vehicle_type_id":"4","last_reported":1744963994,"current_range_meters":16400,"station_id":"ce4bgv92rcd13ifvqcr0","pricing_plan_id":"cebpf4jnsgd1na2vs0mg"},{"bike_id":"b90acf1e-92f2-45e3-a0be-5f20323ea3d1","system_id":"levelo_inurba_marseille","lat":43.23202,"lon":5.39994,"is_reserved":false,"is_disabled":false,"rental_uris":{"android":"levelo://app?vid=b90acf1e-92f2-45e3-a0be-5f20323ea3d1","ios":"levelo://app?vid=b90acf1e-92f2-45e3-a0be-5f20323ea3d1"},"vehicle_type_id":"4","last_reported":1744963994,"current_range_meters":16400,"station_id":"ce4bhn12rcd13ifvqgqg","pricing_plan_id":"cebpf4jnsgd1na2vs0mg"},{"bike_id":"5e6be620-a3d0-49c3-9ff0-b85332cde817","system_id":"levelo_inurba_marseille","lat":43.231913,"lon":5.3556,"is_reserved":false,"is_disabled":false,"rental_uris":{"android":"levelo://app?vid=5e6be620-a3d0-49c3-9ff0-b85332cde817","ios":"levelo://app?vid=5e6be620-a3d0-49c3-9ff0-b85332cde817"},"vehicle_type_id":"4","last_reported":1744963994,"current_range_meters":16400,"station_id":"ce4bhu92rcd13ifvqi70","pricing_plan_id":"cebpf4jnsgd1na2vs0mg"},{"bike_id":"54c18ae4-fb9e-4f9c-8e98-a792665bc160","system_id":"levelo_inurba_marseille","lat":43.32123,"lon":5.36793,"is_reserved":false,"is_disabled":false,"rental_uris":{"android":"levelo://app?vid=54c18ae4-fb9e-4f9c-8e98-a792665bc160","ios":"levelo://app?vid=54c18ae4-fb9e-4f9c-8e98-a792665bc160"},"vehicle_type_id":"4","last_reported":1744963994,"current_range_meters":16400,"station_id":"ce4bhrh2rcd13ifvqhug","pricing_plan_id":"cebpf4jnsgd1na2vs0mg"},{"bike_id":"f9257457-af89-46ea-a09c-323ad0c42b2f","system_id":"levelo_inurba_marseille","lat":43.31372,"lon":5.36695,"is_reserved":false,"is_disabled":false,"rental_uris":{"android":"levelo://app?vid=f9257457-af89-46ea-a09c-323ad0c42b2f","ios":"levelo://app?vid=f9257457-af89-46ea-a09c-323ad0c42b2f"},"vehicle_type_id":"4","last_reported":1744963994,"current_range_meters":16400,"station_id":"ce4bgr92rcd13ifvqc6g","pricing_plan_id":"cebpf4jnsgd1na2vs0mg"},{"bike_id":"db092bab-860c-4e5b-840d-945206939097","system_id":"levelo_inurba_marseille","lat":43.26554,"lon":5.373,"is_reserved":false,"is_disabled":false,"rental_uris":{"android":"levelo://app?vid=db092bab-860c-4e5b-840d-945206939097","ios":"levelo://app?vid=db092bab-860c-4e5b-840d-945206939097"},"vehicle_type_id":"4","last_reported":1744963994,"current_range_meters":16800,"station_id":"ce4bhg12rcd13ifvqf70","pricing_plan_id":"cebpf4jnsgd1na2vs0mg"},{"bike_id":"19481d9b-6a00-4a11-8cb7-677b61ea5d1e","system_id":"levelo_inurba_marseille","lat":43.28156,"lon":5.42637,"is_reserved":false,"is_disabled":false,"rental_uris":{"android":"levelo://app?vid=19481d9b-6a00-4a11-8cb7-677b61ea5d1e","ios":"levelo://app?vid=19481d9b-6a00-4a11-8cb7-677b61ea5d1e"},"vehicle_type_id":"4","last_reported":1744963994,"current_range_meters":16800,"station_id":"ce4bhnh2rcd13ifvqgug","pricing_plan_id":"cebpf4jnsgd1na2vs0mg"},{"bike_id":"f11c1877-2531-4187-8a4e-82f9bf9c66d8","system_id":"levelo_inurba_marseille","lat":43.25006,"lon":5.38911,"is_reserved":false,"is_disabled":false,"rental_uris":{"android":"levelo://app?vid=f11c1877-2531-4187-8a4e-82f9bf9c66d8","ios":"levelo://app?vid=f11c1877-2531-4187-8a4e-82f9bf9c66d8"},"vehicle_type_id":"4","last_reported":1744963994,"current_range_meters":16800,"station_id":"ce4bhgp2rcd13ifvqfd0","pricing_plan_id":"cebpf4jnsgd1na2vs0mg"},{"bike_id":"9f45b2bf-53d1-4e39-9a64-fb391bdbd395","system_id":"levelo_inurba_marseille","lat":43.33724,"lon":5.39186,"is_reserved":false,"is_disabled":false,"rental_uris":{"android":"levelo://app?vid=9f45b2bf-53d1-4e39-9a64-fb391bdbd395","ios":"levelo://app?vid=9f45b2bf-53d1-4e39-9a64-fb391bdbd395"},"vehicle_type_id":"4","last_reported":1744963994,"current_range_meters":16800,"station_id":"ce4bhr92rcd13ifvqhsg","pricing_plan_id":"cebpf4jnsgd1na2vs0mg"},{"bike_id":"789c3822-56ca-4769-bcd4-8845bdea2fda","system_id":"levelo_inurba_marseille","lat":43.241656,"lon":5.363934,"is_reserved":false,"is_disabled":false,"rental_uris":{"android":"levelo://app?vid=789c3822-56ca-4769-bcd4-8845bdea2fda","ios":"levelo://app?vid=789c3822-56ca-4769-bcd4-8845bdea2fda"},"vehicle_type_id":"4","last_reported":1744963994,"current_range_meters":16800,"station_id":"cpo36qri1sfpv3e86is0","pricing_plan_id":"cebpf4jnsgd1na2vs0mg"},{"bike_id":"38f3965c-7391-46cb-a55d-a74d728bc029","system_id":"levelo_inurba_marseille","lat":43.28265,"lon":5.3508,"is_reserved":false,"is_disabled":true,"rental_uris":{"android":"levelo://app?vid=38f3965c-7391-46cb-a55d-a74d728bc029","ios":"levelo://app?vid=38f3965c-7391-46cb-a55d-a74d728bc029"},"vehicle_type_id":"4","last_reported":1744963994,"current_range_meters":16800,"station_id":"ce4bhbp2rcd13ifvqerg","pricing_plan_id":"cebpf4jnsgd1na2vs0mg"},{"bike_id":"5be50111-fab4-4c4a-a429-529f79be7ff1","system_id":"levelo_inurba_marseille","lat":43.306229,"lon":5.392967,"is_reserved":false,"is_disabled":false,"rental_uris":{"android":"levelo://app?vid=5be50111-fab4-4c4a-a429-529f79be7ff1","ios":"levelo://app?vid=5be50111-fab4-4c4a-a429-529f79be7ff1"},"vehicle_type_id":"4","last_reported":1744963994,"current_range_meters":16800,"station_id":"ce4bgup2rcd13ifvqco0","pricing_plan_id":"cebpf4jnsgd1na2vs0mg"},{"bike_id":"1e42834b-82df-4633-8e87-140b76e7dc99","system_id":"levelo_inurba_marseille","lat":43.26491,"lon":5.3954,"is_reserved":false,"is_disabled":false,"rental_uris":{"android":"levelo://app?vid=1e42834b-82df-4633-8e87-140b76e7dc99","ios":"levelo://app?vid=1e42834b-82df-4633-8e87-140b76e7dc99"},"vehicle_type_id":"4","last_reported":1744963994,"current_range_meters":16800,"station_id":"ce4bhi12rcd13ifvqfq0","pricing_plan_id":"cebpf4jnsgd1na2vs0mg"},{"bike_id":"030978cd-eddc-40be-b582-b7fe69c6a341","system_id":"levelo_inurba_marseille","lat":43.304697,"lon":5.379035,"is_reserved":false,"is_disabled":false,"rental_uris":{"android":"levelo://app?vid=030978cd-eddc-40be-b582-b7fe69c6a341","ios":"levelo://app?vid=030978cd-eddc-40be-b582-b7fe69c6a341"},"vehicle_type_id":"4","last_reported":1744963994,"current_range_meters":16800,"station_id":"ce4bgup2rcd13ifvqcn0","pricing_plan_id":"cebpf4jnsgd1na2vs0mg"},{"bike_id":"07006dad-1eac-4c5b-8e9f-977d282a6f86","system_id":"levelo_inurba_marseille","lat":43.3074,"lon":5.42437,"is_reserved":false,"is_disabled":false,"rental_uris":{"android":"levelo://app?vid=07006dad-1eac-4c5b-8e9f-977d282a6f86","ios":"levelo://app?vid=07006dad-1eac-4c5b-8e9f-977d282a6f86"},"vehicle_type_id":"4","last_reported":1744963994,"current_range_meters":16800,"station_id":"st_cvj6ca6bvosntc0bfgr0","pricing_plan_id":"cebpf4jnsgd1na2vs0mg"},{"bike_id":"f9144f39-8fcf-4d58-8071-682bff6704f1","system_id":"levelo_inurba_marseille","lat":43.30551,"lon":5.36533,"is_reserved":false,"is_disabled":false,"rental_uris":{"android":"levelo://app?vid=f9144f39-8fcf-4d58-8071-682bff6704f1","ios":"levelo://app?vid=f9144f39-8fcf-4d58-8071-682bff6704f1"},"vehicle_type_id":"4","last_reported":1744963994,"current_range_meters":16800,"station_id":"ce4bgs12rcd13ifvqcag","pricing_plan_id":"cebpf4jnsgd1na2vs0mg"},{"bike_id":"ecd9b5fe-4b17-4d30-a270-9ff21e0a9ad2","system_id":"levelo_inurba_marseille","lat":43.24159,"lon":5.364,"is_reserved":false,"is_disabled":false,"rental_uris":{"android":"levelo://app?vid=ecd9b5fe-4b17-4d30-a270-9ff21e0a9ad2","ios":"levelo://app?vid=ecd9b5fe-4b17-4d30-a270-9ff21e0a9ad2"},"vehicle_type_id":"4","last_reported":1744963994,"current_range_meters":16800,"station_id":"cpo36qri1sfpv3e86is0","pricing_plan_id":"cebpf4jnsgd1na2vs0mg"},{"bike_id":"61bfb762-82cf-49af-be3a-77f66f7fd7c6","system_id":"levelo_inurba_marseille","lat":43.325445,"lon":5.414353,"is_reserved":false,"is_disabled":false,"rental_uris":{"android":"levelo://app?vid=61bfb762-82cf-49af-be3a-77f66f7fd7c6","ios":"levelo://app?vid=61bfb762-82cf-49af-be3a-77f66f7fd7c6"},"vehicle_type_id":"4","last_reported":1744963994,"current_range_meters":16800,"station_id":"ce4bhq12rcd13ifvqhhg","pricing_plan_id":"cebpf4jnsgd1na2vs0mg"},{"bike_id":"61d71678-c491-497b-a063-1e28491bb507","system_id":"levelo_inurba_marseille","lat":43.29223,"lon":5.36066,"is_reserved":false,"is_disabled":false,"rental_uris":{"android":"levelo://app?vid=61d71678-c491-497b-a063-1e28491bb507","ios":"levelo://app?vid=61d71678-c491-497b-a063-1e28491bb507"},"vehicle_type_id":"4","last_reported":1744963994,"current_range_meters":17200,"station_id":"ce4bhbh2rcd13ifvqeqg","pricing_plan_id":"cebpf4jnsgd1na2vs0mg"},{"bike_id":"06c69cbf-f6a8-4497-b97f-4ec81764e0ec","system_id":"levelo_inurba_marseille","lat":43.25573,"lon":5.38269,"is_reserved":false,"is_disabled":false,"rental_uris":{"android":"levelo://app?vid=06c69cbf-f6a8-4497-b97f-4ec81764e0ec","ios":"levelo://app?vid=06c69cbf-f6a8-4497-b97f-4ec81764e0ec"},"vehicle_type_id":"4","last_reported":1744963994,"current_range_meters":17200,"station_id":"ce4bhih2rcd13ifvqfs0","pricing_plan_id":"cebpf4jnsgd1na2vs0mg"},{"bike_id":"36b90cff-40d2-47e2-985b-e09410752cc5","system_id":"levelo_inurba_marseille","lat":43.29901,"lon":5.43645,"is_reserved":false,"is_disabled":false,"rental_uris":{"android":"levelo://app?vid=36b90cff-40d2-47e2-985b-e09410752cc5","ios":"levelo://app?vid=36b90cff-40d2-47e2-985b-e09410752cc5"},"vehicle_type_id":"4","last_reported":1744963994,"current_range_meters":17600,"station_id":"ce4bhpp2rcd13ifvqhfg","pricing_plan_id":"cebpf4jnsgd1na2vs0mg"},{"bike_id":"3c50cf56-b255-4057-a425-19e52336290a","system_id":"levelo_inurba_marseille","lat":43.26963,"lon":5.38635,"is_reserved":false,"is_disabled":false,"rental_uris":{"android":"levelo://app?vid=3c50cf56-b255-4057-a425-19e52336290a","ios":"levelo://app?vid=3c50cf56-b255-4057-a425-19e52336290a"},"vehicle_type_id":"4","last_reported":1744963994,"current_range_meters":17600,"station_id":"ce4bhh92rcd13ifvqfh0","pricing_plan_id":"cebpf4jnsgd1na2vs0mg"},{"bike_id":"4c05fc04-5a3e-4846-ae6c-06609c17f5be","system_id":"levelo_inurba_marseille","lat":43.26224,"lon":5.40461,"is_reserved":false,"is_disabled":false,"rental_uris":{"android":"levelo://app?vid=4c05fc04-5a3e-4846-ae6c-06609c17f5be","ios":"levelo://app?vid=4c05fc04-5a3e-4846-ae6c-06609c17f5be"},"vehicle_type_id":"4","last_reported":1744963994,"current_range_meters":17600,"station_id":"ce4bhmh2rcd13ifvqgmg","pricing_plan_id":"cebpf4jnsgd1na2vs0mg"},{"bike_id":"bfa49018-87e7-4e6d-a73f-f9b53d1a144b","system_id":"levelo_inurba_marseille","lat":43.31359,"lon":5.36726,"is_reserved":false,"is_disabled":false,"rental_uris":{"android":"levelo://app?vid=bfa49018-87e7-4e6d-a73f-f9b53d1a144b","ios":"levelo://app?vid=bfa49018-87e7-4e6d-a73f-f9b53d1a144b"},"vehicle_type_id":"4","last_reported":1744963994,"current_range_meters":17600,"station_id":"ce4bgr92rcd13ifvqc6g","pricing_plan_id":"cebpf4jnsgd1na2vs0mg"},{"bike_id":"f1d513e7-93f2-472b-b840-4c42490aad95","system_id":"levelo_inurba_marseille","lat":43.24163,"lon":5.36396,"is_reserved":false,"is_disabled":false,"rental_uris":{"android":"levelo://app?vid=f1d513e7-93f2-472b-b840-4c42490aad95","ios":"levelo://app?vid=f1d513e7-93f2-472b-b840-4c42490aad95"},"vehicle_type_id":"4","last_reported":1744963994,"current_range_meters":17600,"station_id":"cpo36qri1sfpv3e86is0","pricing_plan_id":"cebpf4jnsgd1na2vs0mg"},{"bike_id":"1614b783-2b7e-433a-b3c4-1d994050ec08","system_id":"levelo_inurba_marseille","lat":43.30246,"lon":5.40052,"is_reserved":false,"is_disabled":false,"rental_uris":{"android":"levelo://app?vid=1614b783-2b7e-433a-b3c4-1d994050ec08","ios":"levelo://app?vid=1614b783-2b7e-433a-b3c4-1d994050ec08"},"vehicle_type_id":"4","last_reported":1744963994,"current_range_meters":17200,"station_id":"ce4bgvh2rcd13ifvqcs0","pricing_plan_id":"cebpf4jnsgd1na2vs0mg"},{"bike_id":"860add7b-e12e-4e2c-b219-89fa78edf4d3","system_id":"levelo_inurba_marseille","lat":43.29844,"lon":5.36266,"is_reserved":false,"is_disabled":false,"rental_uris":{"android":"levelo://app?vid=860add7b-e12e-4e2c-b219-89fa78edf4d3","ios":"levelo://app?vid=860add7b-e12e-4e2c-b219-89fa78edf4d3"},"vehicle_type_id":"4","last_reported":1744963994,"current_range_meters":18000,"station_id":"ce4bgpp2rcd13ifvqc3g","pricing_plan_id":"cebpf4jnsgd1na2vs0mg"},{"bike_id":"91aa591a-3e56-4092-a295-ecb6aebe69eb","system_id":"levelo_inurba_marseille","lat":43.22498,"lon":5.34799,"is_reserved":false,"is_disabled":false,"rental_uris":{"android":"levelo://app?vid=91aa591a-3e56-4092-a295-ecb6aebe69eb","ios":"levelo://app?vid=91aa591a-3e56-4092-a295-ecb6aebe69eb"},"vehicle_type_id":"4","last_reported":1744963994,"current_range_meters":18000,"station_id":"st_cvj5dfep6f1abm77gieg","pricing_plan_id":"cebpf4jnsgd1na2vs0mg"},{"bike_id":"0492362c-785a-4b27-88d9-661c754186db","system_id":"levelo_inurba_marseille","lat":43.27297,"lon":5.39084,"is_reserved":false,"is_disabled":false,"rental_uris":{"android":"levelo://app?vid=0492362c-785a-4b27-88d9-661c754186db","ios":"levelo://app?vid=0492362c-785a-4b27-88d9-661c754186db"},"vehicle_type_id":"4","last_reported":1744963994,"current_range_meters":18000,"station_id":"ce4bhgp2rcd13ifvqfe0","pricing_plan_id":"cebpf4jnsgd1na2vs0mg"},{"bike_id":"82a001e1-327f-4a58-b355-bcf2e1a86bf6","system_id":"levelo_inurba_marseille","lat":43.30902,"lon":5.367,"is_reserved":false,"is_disabled":false,"rental_uris":{"android":"levelo://app?vid=82a001e1-327f-4a58-b355-bcf2e1a86bf6","ios":"levelo://app?vid=82a001e1-327f-4a58-b355-bcf2e1a86bf6"},"vehicle_type_id":"4","last_reported":1744963994,"current_range_meters":18000,"station_id":"","pricing_plan_id":"cebpf4jnsgd1na2vs0mg"},{"bike_id":"5db7c5ab-73d5-47e4-9713-3ef31de4325c","system_id":"levelo_inurba_marseille","lat":43.30824,"lon":5.37356,"is_reserved":false,"is_disabled":false,"rental_uris":{"android":"levelo://app?vid=5db7c5ab-73d5-47e4-9713-3ef31de4325c","ios":"levelo://app?vid=5db7c5ab-73d5-47e4-9713-3ef31de4325c"},"vehicle_type_id":"4","last_reported":1744963994,"current_range_meters":18000,"station_id":"","pricing_plan_id":"cebpf4jnsgd1na2vs0mg"},{"bike_id":"beae55ab-1a39-49d3-9e51-9498979f641f","system_id":"levelo_inurba_marseille","lat":43.29943,"lon":5.36544,"is_reserved":false,"is_disabled":false,"rental_uris":{"android":"levelo://app?vid=beae55ab-1a39-49d3-9e51-9498979f641f","ios":"levelo://app?vid=beae55ab-1a39-49d3-9e51-9498979f641f"},"vehicle_type_id":"4","last_reported":1744963994,"current_range_meters":18000,"station_id":"ce4bgm92rcd13ifvqbr0","pricing_plan_id":"cebpf4jnsgd1na2vs0mg"},{"bike_id":"009e8abb-c09f-4cf0-9e1e-38315e3429df","system_id":"levelo_inurba_marseille","lat":43.30299,"lon":5.36916,"is_reserved":false,"is_disabled":false,"rental_uris":{"android":"levelo://app?vid=009e8abb-c09f-4cf0-9e1e-38315e3429df","ios":"levelo://app?vid=009e8abb-c09f-4cf0-9e1e-38315e3429df"},"vehicle_type_id":"4","last_reported":1744963994,"current_range_meters":18000,"station_id":"ce4bgqh2rcd13ifvqc5g","pricing_plan_id":"cebpf4jnsgd1na2vs0mg"},{"bike_id":"9eb6738d-486c-4d0a-88f4-70b8d81983d1","system_id":"levelo_inurba_marseille","lat":43.21758,"lon":5.34605,"is_reserved":false,"is_disabled":false,"rental_uris":{"android":"levelo://app?vid=9eb6738d-486c-4d0a-88f4-70b8d81983d1","ios":"levelo://app?vid=9eb6738d-486c-4d0a-88f4-70b8d81983d1"},"vehicle_type_id":"4","last_reported":1744963994,"current_range_meters":18000,"station_id":"st_cvj6r9ubvosntc0bgbag","pricing_plan_id":"cebpf4jnsgd1na2vs0mg"},{"bike_id":"80bac1fe-218c-4068-937c-4aa733df023f","system_id":"levelo_inurba_marseille","lat":43.2864,"lon":5.37036,"is_reserved":false,"is_disabled":false,"rental_uris":{"android":"levelo://app?vid=80bac1fe-218c-4068-937c-4aa733df023f","ios":"levelo://app?vid=80bac1fe-218c-4068-937c-4aa733df023f"},"vehicle_type_id":"4","last_reported":1744963994,"current_range_meters":18000,"station_id":"ce4bht12rcd13ifvqi60","pricing_plan_id":"cebpf4jnsgd1na2vs0mg"},{"bike_id":"8296043d-2944-485e-b916-c0e8588a8c06","system_id":"levelo_inurba_marseille","lat":43.31265,"lon":5.36826,"is_reserved":false,"is_disabled":false,"rental_uris":{"android":"levelo://app?vid=8296043d-2944-485e-b916-c0e8588a8c06","ios":"levelo://app?vid=8296043d-2944-485e-b916-c0e8588a8c06"},"vehicle_type_id":"4","last_reported":1744963994,"current_range_meters":18800,"station_id":"ce4bgl92rcd13ifvqbq0","pricing_plan_id":"cebpf4jnsgd1na2vs0mg"},{"bike_id":"83d96cf6-3fb5-40dc-bfc1-65832d61b48a","system_id":"levelo_inurba_marseille","lat":43.23961,"lon":5.3663,"is_reserved":false,"is_disabled":false,"rental_uris":{"android":"levelo://app?vid=83d96cf6-3fb5-40dc-bfc1-65832d61b48a","ios":"levelo://app?vid=83d96cf6-3fb5-40dc-bfc1-65832d61b48a"},"vehicle_type_id":"4","last_reported":1744963994,"current_range_meters":18800,"station_id":"ce4bhi12rcd13ifvqfp0","pricing_plan_id":"cebpf4jnsgd1na2vs0mg"},{"bike_id":"aea2afb6-112e-4c3a-968a-5eb5aa77e9be","system_id":"levelo_inurba_marseille","lat":43.21194,"lon":5.35077,"is_reserved":false,"is_disabled":false,"rental_uris":{"android":"levelo://app?vid=aea2afb6-112e-4c3a-968a-5eb5aa77e9be","ios":"levelo://app?vid=aea2afb6-112e-4c3a-968a-5eb5aa77e9be"},"vehicle_type_id":"4","last_reported":1744963994,"current_range_meters":18800,"station_id":"st_cvj6sg6p6f1abm77japg","pricing_plan_id":"cebpf4jnsgd1na2vs0mg"},{"bike_id":"b48a7d06-746c-4f80-a6f9-5d5243352b73","system_id":"levelo_inurba_marseille","lat":43.29977,"lon":5.37173,"is_reserved":false,"is_disabled":false,"rental_uris":{"android":"levelo://app?vid=b48a7d06-746c-4f80-a6f9-5d5243352b73","ios":"levelo://app?vid=b48a7d06-746c-4f80-a6f9-5d5243352b73"},"vehicle_type_id":"4","last_reported":1744963994,"current_range_meters":18800,"station_id":"ce4bgr92rcd13ifvqc7g","pricing_plan_id":"cebpf4jnsgd1na2vs0mg"},{"bike_id":"0513d50a-d6e4-4093-a8cf-4d32d2c45b4c","system_id":"levelo_inurba_marseille","lat":43.32503,"lon":5.36565,"is_reserved":false,"is_disabled":false,"rental_uris":{"android":"levelo://app?vid=0513d50a-d6e4-4093-a8cf-4d32d2c45b4c","ios":"levelo://app?vid=0513d50a-d6e4-4093-a8cf-4d32d2c45b4c"},"vehicle_type_id":"4","last_reported":1744963994,"current_range_meters":18800,"station_id":"ce4bhs12rcd13ifvqhvg","pricing_plan_id":"cebpf4jnsgd1na2vs0mg"},{"bike_id":"846231f6-6953-4ff8-b8a5-3a085f1dbb55","system_id":"levelo_inurba_marseille","lat":43.29914,"lon":5.43662,"is_reserved":false,"is_disabled":false,"rental_uris":{"android":"levelo://app?vid=846231f6-6953-4ff8-b8a5-3a085f1dbb55","ios":"levelo://app?vid=846231f6-6953-4ff8-b8a5-3a085f1dbb55"},"vehicle_type_id":"4","last_reported":1744963994,"current_range_meters":18800,"station_id":"ce4bhpp2rcd13ifvqhfg","pricing_plan_id":"cebpf4jnsgd1na2vs0mg"},{"bike_id":"bb9cc5b6-0c7a-4871-8383-15ba04455dec","system_id":"levelo_inurba_marseille","lat":43.29883,"lon":5.43634,"is_reserved":false,"is_disabled":false,"rental_uris":{"android":"levelo://app?vid=bb9cc5b6-0c7a-4871-8383-15ba04455dec","ios":"levelo://app?vid=bb9cc5b6-0c7a-4871-8383-15ba04455dec"},"vehicle_type_id":"4","last_reported":1744963994,"current_range_meters":19200,"station_id":"ce4bhpp2rcd13ifvqhfg","pricing_plan_id":"cebpf4jnsgd1na2vs0mg"},{"bike_id":"98fe4d37-d8c0-4f00-8054-516bc255211f","system_id":"levelo_inurba_marseille","lat":43.33605,"lon":5.40979,"is_reserved":false,"is_disabled":false,"rental_uris":{"android":"levelo://app?vid=98fe4d37-d8c0-4f00-8054-516bc255211f","ios":"levelo://app?vid=98fe4d37-d8c0-4f00-8054-516bc255211f"},"vehicle_type_id":"4","last_reported":1744963994,"current_range_meters":19200,"station_id":"ce4bhqh2rcd13ifvqhmg","pricing_plan_id":"cebpf4jnsgd1na2vs0mg"},{"bike_id":"84b952e2-6eb6-409a-8e0f-b68207a75e9f","system_id":"levelo_inurba_marseille","lat":43.33606,"lon":5.41036,"is_reserved":false,"is_disabled":false,"rental_uris":{"android":"levelo://app?vid=84b952e2-6eb6-409a-8e0f-b68207a75e9f","ios":"levelo://app?vid=84b952e2-6eb6-409a-8e0f-b68207a75e9f"},"vehicle_type_id":"4","last_reported":1744963994,"current_range_meters":18800,"station_id":"ce4bhqh2rcd13ifvqhmg","pricing_plan_id":"cebpf4jnsgd1na2vs0mg"},{"bike_id":"056beed3-732b-4c15-871c-8c4749c0b234","system_id":"levelo_inurba_marseille","lat":43.265682,"lon":5.390267,"is_reserved":false,"is_disabled":false,"rental_uris":{"android":"levelo://app?vid=056beed3-732b-4c15-871c-8c4749c0b234","ios":"levelo://app?vid=056beed3-732b-4c15-871c-8c4749c0b234"},"vehicle_type_id":"4","last_reported":1744963994,"current_range_meters":19200,"station_id":"ce4bhe12rcd13ifvqf30","pricing_plan_id":"cebpf4jnsgd1na2vs0mg"},{"bike_id":"17de6571-3c1c-4621-995b-d445cb9c6f14","system_id":"levelo_inurba_marseille","lat":43.211929,"lon":5.350734,"is_reserved":false,"is_disabled":false,"rental_uris":{"android":"levelo://app?vid=17de6571-3c1c-4621-995b-d445cb9c6f14","ios":"levelo://app?vid=17de6571-3c1c-4621-995b-d445cb9c6f14"},"vehicle_type_id":"4","last_reported":1744963994,"current_range_meters":19200,"station_id":"st_cvj6sg6p6f1abm77japg","pricing_plan_id":"cebpf4jnsgd1na2vs0mg"},{"bike_id":"13639961-333f-4b59-8b23-36bcf6df258e","system_id":"levelo_inurba_marseille","lat":43.24394,"lon":5.37062,"is_reserved":false,"is_disabled":false,"rental_uris":{"android":"levelo://app?vid=13639961-333f-4b59-8b23-36bcf6df258e","ios":"levelo://app?vid=13639961-333f-4b59-8b23-36bcf6df258e"},"vehicle_type_id":"4","last_reported":1744963994,"current_range_meters":19200,"station_id":"ce4bhhh2rcd13ifvqfk0","pricing_plan_id":"cebpf4jnsgd1na2vs0mg"},{"bike_id":"33fa584f-8122-4b89-9c35-5643d504dd0b","system_id":"levelo_inurba_marseille","lat":43.23175,"lon":5.436401,"is_reserved":false,"is_disabled":false,"rental_uris":{"android":"levelo://app?vid=33fa584f-8122-4b89-9c35-5643d504dd0b","ios":"levelo://app?vid=33fa584f-8122-4b89-9c35-5643d504dd0b"},"vehicle_type_id":"4","last_reported":1744963994,"current_range_meters":19200,"station_id":"ce4bhmp2rcd13ifvqgog","pricing_plan_id":"cebpf4jnsgd1na2vs0mg"},{"bike_id":"5bfdd3ac-ac87-4124-a941-1bd318b8cd03","system_id":"levelo_inurba_marseille","lat":43.30465,"lon":5.37909,"is_reserved":false,"is_disabled":false,"rental_uris":{"android":"levelo://app?vid=5bfdd3ac-ac87-4124-a941-1bd318b8cd03","ios":"levelo://app?vid=5bfdd3ac-ac87-4124-a941-1bd318b8cd03"},"vehicle_type_id":"4","last_reported":1744963994,"current_range_meters":19200,"station_id":"ce4bgup2rcd13ifvqcn0","pricing_plan_id":"cebpf4jnsgd1na2vs0mg"},{"bike_id":"5c87a66e-a468-4c06-bf6a-016059f2b476","system_id":"levelo_inurba_marseille","lat":43.22928,"lon":5.35377,"is_reserved":false,"is_disabled":false,"rental_uris":{"android":"levelo://app?vid=5c87a66e-a468-4c06-bf6a-016059f2b476","ios":"levelo://app?vid=5c87a66e-a468-4c06-bf6a-016059f2b476"},"vehicle_type_id":"4","last_reported":1744963994,"current_range_meters":19200,"station_id":"cpo3532slgdg3j2ikp40","pricing_plan_id":"cebpf4jnsgd1na2vs0mg"},{"bike_id":"ed0bcbf4-25af-4fcc-842b-74cfde49d383","system_id":"levelo_inurba_marseille","lat":43.30903,"lon":5.36846,"is_reserved":false,"is_disabled":false,"rental_uris":{"android":"levelo://app?vid=ed0bcbf4-25af-4fcc-842b-74cfde49d383","ios":"levelo://app?vid=ed0bcbf4-25af-4fcc-842b-74cfde49d383"},"vehicle_type_id":"4","last_reported":1744963994,"current_range_meters":19200,"station_id":"ce4bgn92rcd13ifvqbvg","pricing_plan_id":"cebpf4jnsgd1na2vs0mg"},{"bike_id":"eb0220de-5641-4549-8ce6-f907772fde4d","system_id":"levelo_inurba_marseille","lat":43.2655,"lon":5.37291,"is_reserved":false,"is_disabled":false,"rental_uris":{"android":"levelo://app?vid=eb0220de-5641-4549-8ce6-f907772fde4d","ios":"levelo://app?vid=eb0220de-5641-4549-8ce6-f907772fde4d"},"vehicle_type_id":"4","last_reported":1744963994,"current_range_meters":19600,"station_id":"ce4bhg12rcd13ifvqf70","pricing_plan_id":"cebpf4jnsgd1na2vs0mg"},{"bike_id":"d05b7cc4-f88b-4d02-ae6c-c344f22c0e5c","system_id":"levelo_inurba_marseille","lat":43.29729,"lon":5.36533,"is_reserved":false,"is_disabled":false,"rental_uris":{"android":"levelo://app?vid=d05b7cc4-f88b-4d02-ae6c-c344f22c0e5c","ios":"levelo://app?vid=d05b7cc4-f88b-4d02-ae6c-c344f22c0e5c"},"vehicle_type_id":"4","last_reported":1744963994,"current_range_meters":19600,"station_id":"","pricing_plan_id":"cebpf4jnsgd1na2vs0mg"},{"bike_id":"090d4548-e724-4717-9292-8a2f68c511fb","system_id":"levelo_inurba_marseille","lat":43.28617,"lon":5.35106,"is_reserved":false,"is_disabled":false,"rental_uris":{"android":"levelo://app?vid=090d4548-e724-4717-9292-8a2f68c511fb","ios":"levelo://app?vid=090d4548-e724-4717-9292-8a2f68c511fb"},"vehicle_type_id":"4","last_reported":1744963994,"current_range_meters":19600,"station_id":"ce4bhch2rcd13ifvqeug","pricing_plan_id":"cebpf4jnsgd1na2vs0mg"},{"bike_id":"24213b37-b766-4d9c-a174-f6bf34920497","system_id":"levelo_inurba_marseille","lat":43.28469,"lon":5.384178,"is_reserved":false,"is_disabled":false,"rental_uris":{"android":"levelo://app?vid=24213b37-b766-4d9c-a174-f6bf34920497","ios":"levelo://app?vid=24213b37-b766-4d9c-a174-f6bf34920497"},"vehicle_type_id":"4","last_reported":1744963994,"current_range_meters":19600,"station_id":"ce4bh512rcd13ifvqe3g","pricing_plan_id":"cebpf4jnsgd1na2vs0mg"},{"bike_id":"e19797c2-1f12-4455-ad19-bbeb287ac8ad","system_id":"levelo_inurba_marseille","lat":43.2816,"lon":5.42724,"is_reserved":false,"is_disabled":false,"rental_uris":{"android":"levelo://app?vid=e19797c2-1f12-4455-ad19-bbeb287ac8ad","ios":"levelo://app?vid=e19797c2-1f12-4455-ad19-bbeb287ac8ad"},"vehicle_type_id":"4","last_reported":1744963994,"current_range_meters":19600,"station_id":"","pricing_plan_id":"cebpf4jnsgd1na2vs0mg"},{"bike_id":"b3db7714-dbf3-4bc4-a6f1-64ff1086c08f","system_id":"levelo_inurba_marseille","lat":43.2176,"lon":5.34606,"is_reserved":false,"is_disabled":false,"rental_uris":{"android":"levelo://app?vid=b3db7714-dbf3-4bc4-a6f1-64ff1086c08f","ios":"levelo://app?vid=b3db7714-dbf3-4bc4-a6f1-64ff1086c08f"},"vehicle_type_id":"4","last_reported":1744963994,"current_range_meters":19600,"station_id":"st_cvj6r9ubvosntc0bgbag","pricing_plan_id":"cebpf4jnsgd1na2vs0mg"},{"bike_id":"d54700c1-6669-4cc2-a95e-e2d8eead96e5","system_id":"levelo_inurba_marseille","lat":43.27766,"lon":5.40536,"is_reserved":false,"is_disabled":false,"rental_uris":{"android":"levelo://app?vid=d54700c1-6669-4cc2-a95e-e2d8eead96e5","ios":"levelo://app?vid=d54700c1-6669-4cc2-a95e-e2d8eead96e5"},"vehicle_type_id":"4","last_reported":1744963994,"current_range_meters":19600,"station_id":"","pricing_plan_id":"cebpf4jnsgd1na2vs0mg"},{"bike_id":"8b8b5b1a-faf4-4b04-81a1-9c8c5d3df2ad","system_id":"levelo_inurba_marseille","lat":43.27321,"lon":5.39083,"is_reserved":false,"is_disabled":false,"rental_uris":{"android":"levelo://app?vid=8b8b5b1a-faf4-4b04-81a1-9c8c5d3df2ad","ios":"levelo://app?vid=8b8b5b1a-faf4-4b04-81a1-9c8c5d3df2ad"},"vehicle_type_id":"4","last_reported":1744963994,"current_range_meters":20000,"station_id":"ce4bhgp2rcd13ifvqfe0","pricing_plan_id":"cebpf4jnsgd1na2vs0mg"},{"bike_id":"e2fb8f13-893e-42f2-bc76-7e47ec81fcbb","system_id":"levelo_inurba_marseille","lat":43.24156,"lon":5.39735,"is_reserved":false,"is_disabled":false,"rental_uris":{"android":"levelo://app?vid=e2fb8f13-893e-42f2-bc76-7e47ec81fcbb","ios":"levelo://app?vid=e2fb8f13-893e-42f2-bc76-7e47ec81fcbb"},"vehicle_type_id":"4","last_reported":1744963994,"current_range_meters":20000,"station_id":"ce4bhn12rcd13ifvqgpg","pricing_plan_id":"cebpf4jnsgd1na2vs0mg"},{"bike_id":"de3fe3b1-c57a-4e02-a606-8cd8b46140ab","system_id":"levelo_inurba_marseille","lat":43.24073,"lon":5.37766,"is_reserved":false,"is_disabled":false,"rental_uris":{"android":"levelo://app?vid=de3fe3b1-c57a-4e02-a606-8cd8b46140ab","ios":"levelo://app?vid=de3fe3b1-c57a-4e02-a606-8cd8b46140ab"},"vehicle_type_id":"4","last_reported":1744963994,"current_range_meters":20000,"station_id":"ce4bhnp2rcd13ifvqgvg","pricing_plan_id":"cebpf4jnsgd1na2vs0mg"},{"bike_id":"4aea431c-3c39-46c0-bf02-b8351d0e2cad","system_id":"levelo_inurba_marseille","lat":43.27443,"lon":5.39399,"is_reserved":false,"is_disabled":false,"rental_uris":{"android":"levelo://app?vid=4aea431c-3c39-46c0-bf02-b8351d0e2cad","ios":"levelo://app?vid=4aea431c-3c39-46c0-bf02-b8351d0e2cad"},"vehicle_type_id":"4","last_reported":1744963994,"current_range_meters":20000,"station_id":"ce4bhdp2rcd13ifvqf20","pricing_plan_id":"cebpf4jnsgd1na2vs0mg"},{"bike_id":"7de48f14-7797-4b06-ac93-3d5cdc757db4","system_id":"levelo_inurba_marseille","lat":43.30467,"lon":5.37908,"is_reserved":false,"is_disabled":false,"rental_uris":{"android":"levelo://app?vid=7de48f14-7797-4b06-ac93-3d5cdc757db4","ios":"levelo://app?vid=7de48f14-7797-4b06-ac93-3d5cdc757db4"},"vehicle_type_id":"4","last_reported":1744963994,"current_range_meters":20000,"station_id":"ce4bgup2rcd13ifvqcn0","pricing_plan_id":"cebpf4jnsgd1na2vs0mg"},{"bike_id":"d52be970-ec48-4545-bc59-de81d161700d","system_id":"levelo_inurba_marseille","lat":43.25592,"lon":5.38253,"is_reserved":false,"is_disabled":false,"rental_uris":{"android":"levelo://app?vid=d52be970-ec48-4545-bc59-de81d161700d","ios":"levelo://app?vid=d52be970-ec48-4545-bc59-de81d161700d"},"vehicle_type_id":"4","last_reported":1744963994,"current_range_meters":20000,"station_id":"ce4bhih2rcd13ifvqfs0","pricing_plan_id":"cebpf4jnsgd1na2vs0mg"},{"bike_id":"3c37d3ec-c1f3-47c3-9356-b25b0d14152b","system_id":"levelo_inurba_marseille","lat":43.28656,"lon":5.37097,"is_reserved":false,"is_disabled":false,"rental_uris":{"android":"levelo://app?vid=3c37d3ec-c1f3-47c3-9356-b25b0d14152b","ios":"levelo://app?vid=3c37d3ec-c1f3-47c3-9356-b25b0d14152b"},"vehicle_type_id":"4","last_reported":1744963994,"current_range_meters":20000,"station_id":"","pricing_plan_id":"cebpf4jnsgd1na2vs0mg"},{"bike_id":"32e1baf6-f2a8-4876-8b0a-9cc13511ff65","system_id":"levelo_inurba_marseille","lat":43.24189,"lon":5.39725,"is_reserved":false,"is_disabled":false,"rental_uris":{"android":"levelo://app?vid=32e1baf6-f2a8-4876-8b0a-9cc13511ff65","ios":"levelo://app?vid=32e1baf6-f2a8-4876-8b0a-9cc13511ff65"},"vehicle_type_id":"4","last_reported":1744963994,"current_range_meters":20000,"station_id":"ce4bhn12rcd13ifvqgpg","pricing_plan_id":"cebpf4jnsgd1na2vs0mg"},{"bike_id":"d1571cea-c6fe-4c00-8065-941ebeefe21f","system_id":"levelo_inurba_marseille","lat":43.24807,"lon":5.37455,"is_reserved":false,"is_disabled":false,"rental_uris":{"android":"levelo://app?vid=d1571cea-c6fe-4c00-8065-941ebeefe21f","ios":"levelo://app?vid=d1571cea-c6fe-4c00-8065-941ebeefe21f"},"vehicle_type_id":"4","last_reported":1744963994,"current_range_meters":20000,"station_id":"ce4bhgh2rcd13ifvqfb0","pricing_plan_id":"cebpf4jnsgd1na2vs0mg"},{"bike_id":"4f21705c-c48a-4ede-a08e-8f6c41e837ee","system_id":"levelo_inurba_marseille","lat":43.29627,"lon":5.37155,"is_reserved":false,"is_disabled":false,"rental_uris":{"android":"levelo://app?vid=4f21705c-c48a-4ede-a08e-8f6c41e837ee","ios":"levelo://app?vid=4f21705c-c48a-4ede-a08e-8f6c41e837ee"},"vehicle_type_id":"4","last_reported":1744963994,"current_range_meters":20000,"station_id":"ce4bgnh2rcd13ifvqc0g","pricing_plan_id":"cebpf4jnsgd1na2vs0mg"},{"bike_id":"73c40e6f-177f-4994-9799-03c96a64aa59","system_id":"levelo_inurba_marseille","lat":43.24073,"lon":5.37761,"is_reserved":false,"is_disabled":false,"rental_uris":{"android":"levelo://app?vid=73c40e6f-177f-4994-9799-03c96a64aa59","ios":"levelo://app?vid=73c40e6f-177f-4994-9799-03c96a64aa59"},"vehicle_type_id":"4","last_reported":1744963994,"current_range_meters":20400,"station_id":"ce4bhnp2rcd13ifvqgvg","pricing_plan_id":"cebpf4jnsgd1na2vs0mg"},{"bike_id":"01704a8f-435a-4093-b73c-e671c4af56fa","system_id":"levelo_inurba_marseille","lat":43.33728,"lon":5.39187,"is_reserved":false,"is_disabled":false,"rental_uris":{"android":"levelo://app?vid=01704a8f-435a-4093-b73c-e671c4af56fa","ios":"levelo://app?vid=01704a8f-435a-4093-b73c-e671c4af56fa"},"vehicle_type_id":"4","last_reported":1744963994,"current_range_meters":20000,"station_id":"ce4bhr92rcd13ifvqhsg","pricing_plan_id":"cebpf4jnsgd1na2vs0mg"},{"bike_id":"5c991962-d5a0-46ab-b8d3-7e26135894a2","system_id":"levelo_inurba_marseille","lat":43.26036,"lon":5.37548,"is_reserved":false,"is_disabled":false,"rental_uris":{"android":"levelo://app?vid=5c991962-d5a0-46ab-b8d3-7e26135894a2","ios":"levelo://app?vid=5c991962-d5a0-46ab-b8d3-7e26135894a2"},"vehicle_type_id":"4","last_reported":1744963994,"current_range_meters":20400,"station_id":"ce4bhgh2rcd13ifvqfa0","pricing_plan_id":"cebpf4jnsgd1na2vs0mg"},{"bike_id":"173a3e45-c713-4423-95fb-904ffdf6446c","system_id":"levelo_inurba_marseille","lat":43.2732,"lon":5.39082,"is_reserved":false,"is_disabled":false,"rental_uris":{"android":"levelo://app?vid=173a3e45-c713-4423-95fb-904ffdf6446c","ios":"levelo://app?vid=173a3e45-c713-4423-95fb-904ffdf6446c"},"vehicle_type_id":"4","last_reported":1744963994,"current_range_meters":20000,"station_id":"ce4bhgp2rcd13ifvqfe0","pricing_plan_id":"cebpf4jnsgd1na2vs0mg"},{"bike_id":"ff6fdeb3-4f98-4ba9-96e2-a417ad336a28","system_id":"levelo_inurba_marseille","lat":43.24806,"lon":5.37479,"is_reserved":false,"is_disabled":false,"rental_uris":{"android":"levelo://app?vid=ff6fdeb3-4f98-4ba9-96e2-a417ad336a28","ios":"levelo://app?vid=ff6fdeb3-4f98-4ba9-96e2-a417ad336a28"},"vehicle_type_id":"4","last_reported":1744963994,"current_range_meters":20400,"station_id":"ce4bhgh2rcd13ifvqfb0","pricing_plan_id":"cebpf4jnsgd1na2vs0mg"},{"bike_id":"db8a50ff-1d30-465e-b416-eb0297a72a2b","system_id":"levelo_inurba_marseille","lat":43.29847,"lon":5.36294,"is_reserved":false,"is_disabled":false,"rental_uris":{"android":"levelo://app?vid=db8a50ff-1d30-465e-b416-eb0297a72a2b","ios":"levelo://app?vid=db8a50ff-1d30-465e-b416-eb0297a72a2b"},"vehicle_type_id":"4","last_reported":1744963994,"current_range_meters":20400,"station_id":"ce4bgpp2rcd13ifvqc3g","pricing_plan_id":"cebpf4jnsgd1na2vs0mg"},{"bike_id":"9b4d8359-a0da-4d75-bddc-3c4accdcbc46","system_id":"levelo_inurba_marseille","lat":43.30957,"lon":5.39031,"is_reserved":false,"is_disabled":false,"rental_uris":{"android":"levelo://app?vid=9b4d8359-a0da-4d75-bddc-3c4accdcbc46","ios":"levelo://app?vid=9b4d8359-a0da-4d75-bddc-3c4accdcbc46"},"vehicle_type_id":"4","last_reported":1744963994,"current_range_meters":20400,"station_id":"ce4bgup2rcd13ifvqco0","pricing_plan_id":"cebpf4jnsgd1na2vs0mg"},{"bike_id":"20dd2fb4-8e76-4164-aeb7-8c4771f432e4","system_id":"levelo_inurba_marseille","lat":43.28158,"lon":5.42596,"is_reserved":false,"is_disabled":true,"rental_uris":{"android":"levelo://app?vid=20dd2fb4-8e76-4164-aeb7-8c4771f432e4","ios":"levelo://app?vid=20dd2fb4-8e76-4164-aeb7-8c4771f432e4"},"vehicle_type_id":"4","last_reported":1744963994,"current_range_meters":20400,"station_id":"ce4bhnh2rcd13ifvqgug","pricing_plan_id":"cebpf4jnsgd1na2vs0mg"},{"bike_id":"625caf8d-0c30-4178-b98b-e24b4a4fa9d0","system_id":"levelo_inurba_marseille","lat":43.27376,"lon":5.36256,"is_reserved":false,"is_disabled":false,"rental_uris":{"android":"levelo://app?vid=625caf8d-0c30-4178-b98b-e24b4a4fa9d0","ios":"levelo://app?vid=625caf8d-0c30-4178-b98b-e24b4a4fa9d0"},"vehicle_type_id":"4","last_reported":1744963994,"current_range_meters":20800,"station_id":"ce4bhbh2rcd13ifvqeo0","pricing_plan_id":"cebpf4jnsgd1na2vs0mg"},{"bike_id":"7359c783-1b4d-4a9e-8789-4b2adfe07816","system_id":"levelo_inurba_marseille","lat":43.26479,"lon":5.39553,"is_reserved":false,"is_disabled":false,"rental_uris":{"android":"levelo://app?vid=7359c783-1b4d-4a9e-8789-4b2adfe07816","ios":"levelo://app?vid=7359c783-1b4d-4a9e-8789-4b2adfe07816"},"vehicle_type_id":"4","last_reported":1744963994,"current_range_meters":20800,"station_id":"ce4bhi12rcd13ifvqfq0","pricing_plan_id":"cebpf4jnsgd1na2vs0mg"},{"bike_id":"20c115d3-5c54-411b-97dd-5acc81a682f0","system_id":"levelo_inurba_marseille","lat":43.23206,"lon":5.40008,"is_reserved":false,"is_disabled":false,"rental_uris":{"android":"levelo://app?vid=20c115d3-5c54-411b-97dd-5acc81a682f0","ios":"levelo://app?vid=20c115d3-5c54-411b-97dd-5acc81a682f0"},"vehicle_type_id":"4","last_reported":1744963994,"current_range_meters":20800,"station_id":"ce4bhn12rcd13ifvqgqg","pricing_plan_id":"cebpf4jnsgd1na2vs0mg"},{"bike_id":"3f551158-8b56-445d-9f85-e84eef52ca7d","system_id":"levelo_inurba_marseille","lat":43.31881,"lon":5.40736,"is_reserved":false,"is_disabled":false,"rental_uris":{"android":"levelo://app?vid=3f551158-8b56-445d-9f85-e84eef52ca7d","ios":"levelo://app?vid=3f551158-8b56-445d-9f85-e84eef52ca7d"},"vehicle_type_id":"4","last_reported":1744963994,"current_range_meters":20800,"station_id":"ce4bhq12rcd13ifvqhig","pricing_plan_id":"cebpf4jnsgd1na2vs0mg"},{"bike_id":"154def0d-0d4f-486e-8308-5952a9e62ef1","system_id":"levelo_inurba_marseille","lat":43.22934,"lon":5.35382,"is_reserved":false,"is_disabled":false,"rental_uris":{"android":"levelo://app?vid=154def0d-0d4f-486e-8308-5952a9e62ef1","ios":"levelo://app?vid=154def0d-0d4f-486e-8308-5952a9e62ef1"},"vehicle_type_id":"4","last_reported":1744963994,"current_range_meters":20800,"station_id":"cpo3532slgdg3j2ikp40","pricing_plan_id":"cebpf4jnsgd1na2vs0mg"},{"bike_id":"09f95fea-c6da-4763-8600-a88272da027a","system_id":"levelo_inurba_marseille","lat":43.31339,"lon":5.36654,"is_reserved":false,"is_disabled":false,"rental_uris":{"android":"levelo://app?vid=09f95fea-c6da-4763-8600-a88272da027a","ios":"levelo://app?vid=09f95fea-c6da-4763-8600-a88272da027a"},"vehicle_type_id":"4","last_reported":1744963994,"current_range_meters":20800,"station_id":"ce4bgr92rcd13ifvqc6g","pricing_plan_id":"cebpf4jnsgd1na2vs0mg"},{"bike_id":"7010a7c7-5deb-453b-b05b-90cb5fee4733","system_id":"levelo_inurba_marseille","lat":43.26946,"lon":5.38641,"is_reserved":false,"is_disabled":false,"rental_uris":{"android":"levelo://app?vid=7010a7c7-5deb-453b-b05b-90cb5fee4733","ios":"levelo://app?vid=7010a7c7-5deb-453b-b05b-90cb5fee4733"},"vehicle_type_id":"4","last_reported":1744963994,"current_range_meters":21600,"station_id":"ce4bhh92rcd13ifvqfh0","pricing_plan_id":"cebpf4jnsgd1na2vs0mg"},{"bike_id":"4b8fd6fb-702a-48bf-83a9-e88ab46db4a6","system_id":"levelo_inurba_marseille","lat":43.28932,"lon":5.39614,"is_reserved":false,"is_disabled":false,"rental_uris":{"android":"levelo://app?vid=4b8fd6fb-702a-48bf-83a9-e88ab46db4a6","ios":"levelo://app?vid=4b8fd6fb-702a-48bf-83a9-e88ab46db4a6"},"vehicle_type_id":"4","last_reported":1744963994,"current_range_meters":22000,"station_id":"ce4bh3h2rcd13ifvqdn0","pricing_plan_id":"cebpf4jnsgd1na2vs0mg"},{"bike_id":"2c7763c2-4820-4121-ba08-c10f56dcd64f","system_id":"levelo_inurba_marseille","lat":43.32476,"lon":5.36582,"is_reserved":false,"is_disabled":false,"rental_uris":{"android":"levelo://app?vid=2c7763c2-4820-4121-ba08-c10f56dcd64f","ios":"levelo://app?vid=2c7763c2-4820-4121-ba08-c10f56dcd64f"},"vehicle_type_id":"4","last_reported":1744963994,"current_range_meters":22000,"station_id":"ce4bhs12rcd13ifvqhvg","pricing_plan_id":"cebpf4jnsgd1na2vs0mg"},{"bike_id":"a3983475-e2dd-4cdb-a7f7-824a42aaad22","system_id":"levelo_inurba_marseille","lat":43.305363,"lon":5.365503,"is_reserved":false,"is_disabled":false,"rental_uris":{"android":"levelo://app?vid=a3983475-e2dd-4cdb-a7f7-824a42aaad22","ios":"levelo://app?vid=a3983475-e2dd-4cdb-a7f7-824a42aaad22"},"vehicle_type_id":"4","last_reported":1744963994,"current_range_meters":22000,"station_id":"ce4bgs12rcd13ifvqcag","pricing_plan_id":"cebpf4jnsgd1na2vs0mg"},{"bike_id":"2b99f081-4f05-46ee-b560-dbfbd455ff86","system_id":"levelo_inurba_marseille","lat":43.24178,"lon":5.39723,"is_reserved":false,"is_disabled":false,"rental_uris":{"android":"levelo://app?vid=2b99f081-4f05-46ee-b560-dbfbd455ff86","ios":"levelo://app?vid=2b99f081-4f05-46ee-b560-dbfbd455ff86"},"vehicle_type_id":"4","last_reported":1744963994,"current_range_meters":22000,"station_id":"ce4bhn12rcd13ifvqgpg","pricing_plan_id":"cebpf4jnsgd1na2vs0mg"},{"bike_id":"c514e0a5-85d5-4a26-9fab-e8b235e4e1cc","system_id":"levelo_inurba_marseille","lat":43.31236,"lon":5.36851,"is_reserved":false,"is_disabled":false,"rental_uris":{"android":"levelo://app?vid=c514e0a5-85d5-4a26-9fab-e8b235e4e1cc","ios":"levelo://app?vid=c514e0a5-85d5-4a26-9fab-e8b235e4e1cc"},"vehicle_type_id":"4","last_reported":1744963994,"current_range_meters":22000,"station_id":"ce4bgl92rcd13ifvqbq0","pricing_plan_id":"cebpf4jnsgd1na2vs0mg"},{"bike_id":"00835e1a-58f5-4adf-b877-87e471ca9506","system_id":"levelo_inurba_marseille","lat":43.27579,"lon":5.38417,"is_reserved":false,"is_disabled":false,"rental_uris":{"android":"levelo://app?vid=00835e1a-58f5-4adf-b877-87e471ca9506","ios":"levelo://app?vid=00835e1a-58f5-4adf-b877-87e471ca9506"},"vehicle_type_id":"4","last_reported":1744963994,"current_range_meters":21600,"station_id":"ce4bhh92rcd13ifvqfi0","pricing_plan_id":"cebpf4jnsgd1na2vs0mg"},{"bike_id":"c6af8e20-0757-49a7-9e90-4ab9254669fc","system_id":"levelo_inurba_marseille","lat":43.23979,"lon":5.36637,"is_reserved":false,"is_disabled":false,"rental_uris":{"android":"levelo://app?vid=c6af8e20-0757-49a7-9e90-4ab9254669fc","ios":"levelo://app?vid=c6af8e20-0757-49a7-9e90-4ab9254669fc"},"vehicle_type_id":"4","last_reported":1744963994,"current_range_meters":22000,"station_id":"ce4bhi12rcd13ifvqfp0","pricing_plan_id":"cebpf4jnsgd1na2vs0mg"},{"bike_id":"39f779e9-263a-40a1-b8ea-e7d2e5e8cc24","system_id":"levelo_inurba_marseille","lat":43.2797,"lon":5.38734,"is_reserved":false,"is_disabled":false,"rental_uris":{"android":"levelo://app?vid=39f779e9-263a-40a1-b8ea-e7d2e5e8cc24","ios":"levelo://app?vid=39f779e9-263a-40a1-b8ea-e7d2e5e8cc24"},"vehicle_type_id":"4","last_reported":1744963994,"current_range_meters":22000,"station_id":"ce4bhg12rcd13ifvqf80","pricing_plan_id":"cebpf4jnsgd1na2vs0mg"},{"bike_id":"ddb81e49-3ca3-408e-bb7e-97e32c56d0f7","system_id":"levelo_inurba_marseille","lat":43.27909,"lon":5.38008,"is_reserved":false,"is_disabled":false,"rental_uris":{"android":"levelo://app?vid=ddb81e49-3ca3-408e-bb7e-97e32c56d0f7","ios":"levelo://app?vid=ddb81e49-3ca3-408e-bb7e-97e32c56d0f7"},"vehicle_type_id":"4","last_reported":1744963994,"current_range_meters":21600,"station_id":"ce4bhf92rcd13ifvqf50","pricing_plan_id":"cebpf4jnsgd1na2vs0mg"},{"bike_id":"935377c0-a8c8-47e7-8726-21d70a212587","system_id":"levelo_inurba_marseille","lat":43.33771,"lon":5.37461,"is_reserved":false,"is_disabled":false,"rental_uris":{"android":"levelo://app?vid=935377c0-a8c8-47e7-8726-21d70a212587","ios":"levelo://app?vid=935377c0-a8c8-47e7-8726-21d70a212587"},"vehicle_type_id":"4","last_reported":1744963994,"current_range_meters":22000,"station_id":"ce4bh2h2rcd13ifvqdh0","pricing_plan_id":"cebpf4jnsgd1na2vs0mg"},{"bike_id":"52285cb7-873a-40ae-97c5-8e054808bb9f","system_id":"levelo_inurba_marseille","lat":43.2669,"lon":5.38266,"is_reserved":false,"is_disabled":false,"rental_uris":{"android":"levelo://app?vid=52285cb7-873a-40ae-97c5-8e054808bb9f","ios":"levelo://app?vid=52285cb7-873a-40ae-97c5-8e054808bb9f"},"vehicle_type_id":"4","last_reported":1744963994,"current_range_meters":22400,"station_id":"ce4bhg92rcd13ifvqf90","pricing_plan_id":"cebpf4jnsgd1na2vs0mg"},{"bike_id":"680205ba-dd59-466e-9b44-30aa95795b05","system_id":"levelo_inurba_marseille","lat":43.23071,"lon":5.35497,"is_reserved":false,"is_disabled":false,"rental_uris":{"android":"levelo://app?vid=680205ba-dd59-466e-9b44-30aa95795b05","ios":"levelo://app?vid=680205ba-dd59-466e-9b44-30aa95795b05"},"vehicle_type_id":"4","last_reported":1744963994,"current_range_meters":22400,"station_id":"cpo3342slgdg3j2ifvpg","pricing_plan_id":"cebpf4jnsgd1na2vs0mg"},{"bike_id":"d775a69a-2038-4c31-b285-96fb9d926a56","system_id":"levelo_inurba_marseille","lat":43.3136,"lon":5.36729,"is_reserved":false,"is_disabled":false,"rental_uris":{"android":"levelo://app?vid=d775a69a-2038-4c31-b285-96fb9d926a56","ios":"levelo://app?vid=d775a69a-2038-4c31-b285-96fb9d926a56"},"vehicle_type_id":"4","last_reported":1744963994,"current_range_meters":22400,"station_id":"ce4bgr92rcd13ifvqc6g","pricing_plan_id":"cebpf4jnsgd1na2vs0mg"},{"bike_id":"b0e1b825-ba82-4aba-838e-c05aa42c1c23","system_id":"levelo_inurba_marseille","lat":43.30955,"lon":5.39067,"is_reserved":false,"is_disabled":false,"rental_uris":{"android":"levelo://app?vid=b0e1b825-ba82-4aba-838e-c05aa42c1c23","ios":"levelo://app?vid=b0e1b825-ba82-4aba-838e-c05aa42c1c23"},"vehicle_type_id":"4","last_reported":1744963994,"current_range_meters":22400,"station_id":"ce4bgup2rcd13ifvqco0","pricing_plan_id":"cebpf4jnsgd1na2vs0mg"},{"bike_id":"23ad8614-333d-461f-aa4c-5b46cf021d14","system_id":"levelo_inurba_marseille","lat":43.24061,"lon":5.37748,"is_reserved":false,"is_disabled":false,"rental_uris":{"android":"levelo://app?vid=23ad8614-333d-461f-aa4c-5b46cf021d14","ios":"levelo://app?vid=23ad8614-333d-461f-aa4c-5b46cf021d14"},"vehicle_type_id":"4","last_reported":1744963994,"current_range_meters":22400,"station_id":"ce4bhnp2rcd13ifvqgvg","pricing_plan_id":"cebpf4jnsgd1na2vs0mg"},{"bike_id":"9554a1b7-f280-4c5b-8912-bd2d781e4e5d","system_id":"levelo_inurba_marseille","lat":43.26204,"lon":5.37453,"is_reserved":false,"is_disabled":false,"rental_uris":{"android":"levelo://app?vid=9554a1b7-f280-4c5b-8912-bd2d781e4e5d","ios":"levelo://app?vid=9554a1b7-f280-4c5b-8912-bd2d781e4e5d"},"vehicle_type_id":"4","last_reported":1744963994,"current_range_meters":22400,"station_id":"ce4bhgp2rcd13ifvqfc0","pricing_plan_id":"cebpf4jnsgd1na2vs0mg"},{"bike_id":"94529fe1-c301-46f5-a50d-c48834da4dc1","system_id":"levelo_inurba_marseille","lat":43.24388,"lon":5.37066,"is_reserved":false,"is_disabled":false,"rental_uris":{"android":"levelo://app?vid=94529fe1-c301-46f5-a50d-c48834da4dc1","ios":"levelo://app?vid=94529fe1-c301-46f5-a50d-c48834da4dc1"},"vehicle_type_id":"4","last_reported":1744963994,"current_range_meters":22400,"station_id":"ce4bhhh2rcd13ifvqfk0","pricing_plan_id":"cebpf4jnsgd1na2vs0mg"},{"bike_id":"46938029-32bd-4477-80f0-69c6876ad488","system_id":"levelo_inurba_marseille","lat":43.30957,"lon":5.3905,"is_reserved":false,"is_disabled":false,"rental_uris":{"android":"levelo://app?vid=46938029-32bd-4477-80f0-69c6876ad488","ios":"levelo://app?vid=46938029-32bd-4477-80f0-69c6876ad488"},"vehicle_type_id":"4","last_reported":1744963994,"current_range_meters":22400,"station_id":"ce4bgup2rcd13ifvqco0","pricing_plan_id":"cebpf4jnsgd1na2vs0mg"},{"bike_id":"6b4cdffd-16e4-4062-a188-c5ee23da635a","system_id":"levelo_inurba_marseille","lat":43.29028,"lon":5.38643,"is_reserved":false,"is_disabled":false,"rental_uris":{"android":"levelo://app?vid=6b4cdffd-16e4-4062-a188-c5ee23da635a","ios":"levelo://app?vid=6b4cdffd-16e4-4062-a188-c5ee23da635a"},"vehicle_type_id":"4","last_reported":1744963994,"current_range_meters":22400,"station_id":"ce4bh4p2rcd13ifvqe0g","pricing_plan_id":"cebpf4jnsgd1na2vs0mg"},{"bike_id":"43452cfe-6823-4070-8be0-7e214a3fe483","system_id":"levelo_inurba_marseille","lat":43.26565,"lon":5.39005,"is_reserved":false,"is_disabled":false,"rental_uris":{"android":"levelo://app?vid=43452cfe-6823-4070-8be0-7e214a3fe483","ios":"levelo://app?vid=43452cfe-6823-4070-8be0-7e214a3fe483"},"vehicle_type_id":"4","last_reported":1744963994,"current_range_meters":22400,"station_id":"ce4bhe12rcd13ifvqf30","pricing_plan_id":"cebpf4jnsgd1na2vs0mg"},{"bike_id":"ac056a46-72ad-4861-b65c-1aac07ceaf22","system_id":"levelo_inurba_marseille","lat":43.26689,"lon":5.38266,"is_reserved":false,"is_disabled":false,"rental_uris":{"android":"levelo://app?vid=ac056a46-72ad-4861-b65c-1aac07ceaf22","ios":"levelo://app?vid=ac056a46-72ad-4861-b65c-1aac07ceaf22"},"vehicle_type_id":"4","last_reported":1744963994,"current_range_meters":22400,"station_id":"ce4bhg92rcd13ifvqf90","pricing_plan_id":"cebpf4jnsgd1na2vs0mg"},{"bike_id":"99062e51-0348-47f0-b002-ff3974ccfd47","system_id":"levelo_inurba_marseille","lat":43.21194,"lon":5.35075,"is_reserved":false,"is_disabled":false,"rental_uris":{"android":"levelo://app?vid=99062e51-0348-47f0-b002-ff3974ccfd47","ios":"levelo://app?vid=99062e51-0348-47f0-b002-ff3974ccfd47"},"vehicle_type_id":"4","last_reported":1744963994,"current_range_meters":22800,"station_id":"st_cvj6sg6p6f1abm77japg","pricing_plan_id":"cebpf4jnsgd1na2vs0mg"},{"bike_id":"ea6fd639-f9f4-4fbd-9b5c-f3c77e453173","system_id":"levelo_inurba_marseille","lat":43.29554,"lon":5.42269,"is_reserved":false,"is_disabled":false,"rental_uris":{"android":"levelo://app?vid=ea6fd639-f9f4-4fbd-9b5c-f3c77e453173","ios":"levelo://app?vid=ea6fd639-f9f4-4fbd-9b5c-f3c77e453173"},"vehicle_type_id":"4","last_reported":1744963994,"current_range_meters":22800,"station_id":"ce4bhph2rcd13ifvqhdg","pricing_plan_id":"cebpf4jnsgd1na2vs0mg"},{"bike_id":"02d18992-49fc-4a47-a2ca-18eece0ae0a4","system_id":"levelo_inurba_marseille","lat":43.28482,"lon":5.35894,"is_reserved":false,"is_disabled":true,"rental_uris":{"android":"levelo://app?vid=02d18992-49fc-4a47-a2ca-18eece0ae0a4","ios":"levelo://app?vid=02d18992-49fc-4a47-a2ca-18eece0ae0a4"},"vehicle_type_id":"4","last_reported":1744963994,"current_range_meters":22800,"station_id":"ce4bhah2rcd13ifvqei0","pricing_plan_id":"cebpf4jnsgd1na2vs0mg"},{"bike_id":"3fb9c115-6f06-4ebd-9954-9ad547e5a491","system_id":"levelo_inurba_marseille","lat":43.30317,"lon":5.40438,"is_reserved":false,"is_disabled":false,"rental_uris":{"android":"levelo://app?vid=3fb9c115-6f06-4ebd-9954-9ad547e5a491","ios":"levelo://app?vid=3fb9c115-6f06-4ebd-9954-9ad547e5a491"},"vehicle_type_id":"4","last_reported":1744963994,"current_range_meters":22800,"station_id":"ce4bh012rcd13ifvqd10","pricing_plan_id":"cebpf4jnsgd1na2vs0mg"},{"bike_id":"61099a4b-e08b-4810-94de-78a3cfe50ffc","system_id":"levelo_inurba_marseille","lat":43.30566,"lon":5.36551,"is_reserved":false,"is_disabled":false,"rental_uris":{"android":"levelo://app?vid=61099a4b-e08b-4810-94de-78a3cfe50ffc","ios":"levelo://app?vid=61099a4b-e08b-4810-94de-78a3cfe50ffc"},"vehicle_type_id":"4","last_reported":1744963994,"current_range_meters":22800,"station_id":"ce4bgs12rcd13ifvqcag","pricing_plan_id":"cebpf4jnsgd1na2vs0mg"},{"bike_id":"56b8b8b2-fe25-4bd6-b8ee-89ebffa2b48b","system_id":"levelo_inurba_marseille","lat":43.27376,"lon":5.36259,"is_reserved":false,"is_disabled":false,"rental_uris":{"android":"levelo://app?vid=56b8b8b2-fe25-4bd6-b8ee-89ebffa2b48b","ios":"levelo://app?vid=56b8b8b2-fe25-4bd6-b8ee-89ebffa2b48b"},"vehicle_type_id":"4","last_reported":1744963994,"current_range_meters":22800,"station_id":"ce4bhbh2rcd13ifvqeo0","pricing_plan_id":"cebpf4jnsgd1na2vs0mg"},{"bike_id":"8f9ffb34-869d-4176-b4cb-16b3b2587c2c","system_id":"levelo_inurba_marseille","lat":43.30458,"lon":5.37906,"is_reserved":false,"is_disabled":false,"rental_uris":{"android":"levelo://app?vid=8f9ffb34-869d-4176-b4cb-16b3b2587c2c","ios":"levelo://app?vid=8f9ffb34-869d-4176-b4cb-16b3b2587c2c"},"vehicle_type_id":"4","last_reported":1744963994,"current_range_meters":22800,"station_id":"ce4bgup2rcd13ifvqcn0","pricing_plan_id":"cebpf4jnsgd1na2vs0mg"},{"bike_id":"dfff32a8-bdaa-4254-a2f0-75d092404a31","system_id":"levelo_inurba_marseille","lat":43.3015,"lon":5.38095,"is_reserved":false,"is_disabled":false,"rental_uris":{"android":"levelo://app?vid=dfff32a8-bdaa-4254-a2f0-75d092404a31","ios":"levelo://app?vid=dfff32a8-bdaa-4254-a2f0-75d092404a31"},"vehicle_type_id":"4","last_reported":1744963994,"current_range_meters":22800,"station_id":"ce4bgjp2rcd13ifvqbh0","pricing_plan_id":"cebpf4jnsgd1na2vs0mg"},{"bike_id":"87752bd7-48f5-4dd7-bf67-f72258393718","system_id":"levelo_inurba_marseille","lat":43.29939,"lon":5.36552,"is_reserved":false,"is_disabled":false,"rental_uris":{"android":"levelo://app?vid=87752bd7-48f5-4dd7-bf67-f72258393718","ios":"levelo://app?vid=87752bd7-48f5-4dd7-bf67-f72258393718"},"vehicle_type_id":"4","last_reported":1744963994,"current_range_meters":22800,"station_id":"ce4bgm92rcd13ifvqbr0","pricing_plan_id":"cebpf4jnsgd1na2vs0mg"},