{"last_updated":1737709791,"ttl":60,"version":"2.2","data":{"bikes":[{"bike_id":"71025e83-daff-40eb-8f70-b8e1fc9300fb","system_id":"levelo_inurba_marseille","lat":43.22934,"lon":5.353929,"is_reserved":false,"is_disabled":false,"rental_uris":{"android":"levelo://app?vid=71025e83-daff-40eb-8f70-b8e1fc9300fb","ios":"levelo://app?vid=71025e83-daff-40eb-8f70-b8e1fc9300fb"},"vehicle_type_id":"4","last_reported":1737709791,"current_range_meters":38000,"station_id":"cpo3532slgdg3j2ikp40","pricing_plan_id":"cebpf4jnsgd1na2vs0mg"},{"bike_id":"7322c21c-2592-4aca-891e-6b4329bbc043","system_id":"levelo_inurba_marseille","lat":43.29728,"lon":5.37692,"is_reserved":false,"is_disabled":false,"rental_uris":{"android":"levelo://app?vid=7322c21c-2592-4aca-891e-6b4329bbc043","ios":"levelo://app?vid=7322c21c-2592-4aca-891e-6b4329bbc043"},"vehicle_type_id":"4","last_reported":1737709791,"current_range_meters":24800,"station_id":"ce4bgkh2rcd13ifvqbl0","pricing_plan_id":"cebpf4jnsgd1na2vs0mg"},{"bike_id":"9c7eaa63-fad9-42a1-ac6c-648c1755a7f5","system_id":"levelo_inurba_marseille","lat":43.30082,"lon":5.3729,"is_reserved":false,"is_disabled":false,"rental_uris":{"android":"levelo://app?vid=9c7eaa63-fad9-42a1-ac6c-648c1755a7f5","ios":"levelo://app?vid=9c7eaa63-fad9-42a1-ac6c-648c1755a7f5"},"vehicle_type_id":"4","last_reported":1737709791,"current_range_meters":32000,"station_id":"","pricing_plan_id":"cebpf4jnsgd1na2vs0mg"},{"bike_id":"84f737e8-0136-4021-b1cd-1240302b5eda","system_id":"levelo_inurba_marseille","lat":43.2978,"lon":5.37099,"is_reserved":false,"is_disabled":false,"rental_uris":{"android":"levelo://app?vid=84f737e8-0136-4021-b1cd-1240302b5eda","ios":"levelo://app?vid=84f737e8-0136-4021-b1cd-1240302b5eda"},"vehicle_type_id":"4","last_reported":1737709791,"current_range_meters":28000,"station_id":"ce4bgop2rcd13ifvqc1g","pricing_plan_id":"cebpf4jnsgd1na2vs0mg"},{"bike_id":"88bc6d52-a61d-497c-9a21-003afc3443d5","system_id":"levelo_inurba_marseille","lat":43.30152,"lon":5.37406,"is_reserved":false,"is_disabled":false,"rental_uris":{"android":"levelo://app?vid=88bc6d52-a61d-497c-9a21-003afc3443d5","ios":"levelo://app?vid=88bc6d52-a61d-497c-9a21-003afc3443d5"},"vehicle_type_id":"4","last_reported":1737709791,"current_range_meters":18000,"station_id":"ce4bgs92rcd13ifvqcc0","pricing_plan_id":"cebpf4jnsgd1na2vs0mg"},{"bike_id":"07b3636a-6565-4267-bb7f-3bdd825e382a","system_id":"levelo_inurba_marseille","lat":43.28687,"lon":5.40043,"is_reserved":false,"is_disabled":true,"rental_uris":{"android":"levelo://app?vid=07b3636a-6565-4267-bb7f-3bdd825e382a","ios":"levelo://app?vid=07b3636a-6565-4267-bb7f-3bdd825e382a"},"vehicle_type_id":"4","last_reported":1737709791,"current_range_meters":1200,"station_id":"ce4bho92rcd13ifvqh3g","pricing_plan_id":"cebpf4jnsgd1na2vs0mg"},{"bike_id":"18548f4f-e7bd-46d1-8459-c060f675b3ea","system_id":"levelo_inurba_marseille","lat":43.2979,"lon":5.38108,"is_reserved":false,"is_disabled":false,"rental_uris":{"android":"levelo://app?vid=18548f4f-e7bd-46d1-8459-c060f675b3ea","ios":"levelo://app?vid=18548f4f-e7bd-46d1-8459-c060f675b3ea"},"vehicle_type_id":"4","last_reported":1737709791,"current_range_meters":30000,"station_id":"ce4bgip2rcd13ifvqbb0","pricing_plan_id":"cebpf4jnsgd1na2vs0mg"},{"bike_id":"eb97554e-9784-452b-b85e-e8331efd4fe5","system_id":"levelo_inurba_marseille","lat":43.31358,"lon":5.36718,"is_reserved":false,"is_disabled":true,"rental_uris":{"android":"levelo://app?vid=eb97554e-9784-452b-b85e-e8331efd4fe5","ios":"levelo://app?vid=eb97554e-9784-452b-b85e-e8331efd4fe5"},"vehicle_type_id":"4","last_reported":1737709791,"current_range_meters":0,"station_id":"ce4bgr92rcd13ifvqc6g","pricing_plan_id":"cebpf4jnsgd1na2vs0mg"},{"bike_id":"cb0ff26d-12db-4f4f-8a1e-edf0f3766303","system_id":"levelo_inurba_marseille","lat":43.312212,"lon":5.368538,"is_reserved":false,"is_disabled":false,"rental_uris":{"android":"levelo://app?vid=cb0ff26d-12db-4f4f-8a1e-edf0f3766303","ios":"levelo://app?vid=cb0ff26d-12db-4f4f-8a1e-edf0f3766303"},"vehicle_type_id":"4","last_reported":1737709791,"current_range_meters":8800,"station_id":"ce4bgl92rcd13ifvqbq0","pricing_plan_id":"cebpf4jnsgd1na2vs0mg"},{"bike_id":"53d18bd8-04c9-4da3-b77e-584f2f7eed2a","system_id":"levelo_inurba_marseille","lat":43.32479,"lon":5.36572,"is_reserved":false,"is_disabled":false,"rental_uris":{"android":"levelo://app?vid=53d18bd8-04c9-4da3-b77e-584f2f7eed2a","ios":"levelo://app?vid=53d18bd8-04c9-4da3-b77e-584f2f7eed2a"},"vehicle_type_id":"4","last_reported":1737709791,"current_range_meters":4800,"station_id":"ce4bhs12rcd13ifvqhvg","pricing_plan_id":"cebpf4jnsgd1na2vs0mg"},{"bike_id":"bfc70de8-259d-4717-9783-7a0b7989db83","system_id":"levelo_inurba_marseille","lat":43.29362,"lon":5.37833,"is_reserved":false,"is_disabled":true,"rental_uris":{"android":"levelo://app?vid=bfc70de8-259d-4717-9783-7a0b7989db83","ios":"levelo://app?vid=bfc70de8-259d-4717-9783-7a0b7989db83"},"vehicle_type_id":"4","last_reported":1737709791,"current_range_meters":0,"station_id":"ce4bgjh2rcd13ifvqbf0","pricing_plan_id":"cebpf4jnsgd1na2vs0mg"},{"bike_id":"82f4c6d0-28c7-4041-af4f-8b561c06316e","system_id":"levelo_inurba_marseille","lat":43.29304,"lon":5.37465,"is_reserved":false,"is_disabled":false,"rental_uris":{"android":"levelo://app?vid=82f4c6d0-28c7-4041-af4f-8b561c06316e","ios":"levelo://app?vid=82f4c6d0-28c7-4041-af4f-8b561c06316e"},"vehicle_type_id":"4","last_reported":1737709791,"current_range_meters":38000,"station_id":"ce4bgi12rcd13ifvqb70","pricing_plan_id":"cebpf4jnsgd1na2vs0mg"},{"bike_id":"652ff0cc-8d87-46b0-add0-73b63008eda4","system_id":"levelo_inurba_marseille","lat":43.32535,"lon":5.41454,"is_reserved":false,"is_disabled":false,"rental_uris":{"android":"levelo://app?vid=652ff0cc-8d87-46b0-add0-73b63008eda4","ios":"levelo://app?vid=652ff0cc-8d87-46b0-add0-73b63008eda4"},"vehicle_type_id":"4","last_reported":1737709791,"current_range_meters":32000,"station_id":"ce4bhq12rcd13ifvqhhg","pricing_plan_id":"cebpf4jnsgd1na2vs0mg"},{"bike_id":"367c1a4d-e3ef-4cc4-8a53-e7c1e322176a","system_id":"levelo_inurba_marseille","lat":43.30146,"lon":5.3808,"is_reserved":false,"is_disabled":false,"rental_uris":{"android":"levelo://app?vid=367c1a4d-e3ef-4cc4-8a53-e7c1e322176a","ios":"levelo://app?vid=367c1a4d-e3ef-4cc4-8a53-e7c1e322176a"},"vehicle_type_id":"4","last_reported":1737709791,"current_range_meters":15200,"station_id":"ce4bgjp2rcd13ifvqbh0","pricing_plan_id":"cebpf4jnsgd1na2vs0mg"},{"bike_id":"fa235921-264c-45fa-9486-36940e44284c","system_id":"levelo_inurba_marseille","lat":43.25585,"lon":5.38231,"is_reserved":false,"is_disabled":false,"rental_uris":{"android":"levelo://app?vid=fa235921-264c-45fa-9486-36940e44284c","ios":"levelo://app?vid=fa235921-264c-45fa-9486-36940e44284c"},"vehicle_type_id":"4","last_reported":1737709791,"current_range_meters":38800,"station_id":"ce4bhih2rcd13ifvqfs0","pricing_plan_id":"cebpf4jnsgd1na2vs0mg"},{"bike_id":"b2d18654-c549-4f43-9593-2c68495e6f4c","system_id":"levelo_inurba_marseille","lat":43.30946,"lon":5.3902,"is_reserved":false,"is_disabled":true,"rental_uris":{"android":"levelo://app?vid=b2d18654-c549-4f43-9593-2c68495e6f4c","ios":"levelo://app?vid=b2d18654-c549-4f43-9593-2c68495e6f4c"},"vehicle_type_id":"4","last_reported":1737709791,"current_range_meters":38800,"station_id":"","pricing_plan_id":"cebpf4jnsgd1na2vs0mg"},{"bike_id":"59e599e2-aa0c-47e0-b327-0676fd03ab57","system_id":"levelo_inurba_marseille","lat":43.24164,"lon":5.36389,"is_reserved":false,"is_disabled":false,"rental_uris":{"android":"levelo://app?vid=59e599e2-aa0c-47e0-b327-0676fd03ab57","ios":"levelo://app?vid=59e599e2-aa0c-47e0-b327-0676fd03ab57"},"vehicle_type_id":"4","last_reported":1737709791,"current_range_meters":26000,"station_id":"cpo36qri1sfpv3e86is0","pricing_plan_id":"cebpf4jnsgd1na2vs0mg"},{"bike_id":"3169bea1-794e-4a56-bb06-3b17a235f305","system_id":"levelo_inurba_marseille","lat":43.25714,"lon":5.41116,"is_reserved":false,"is_disabled":false,"rental_uris":{"android":"levelo://app?vid=3169bea1-794e-4a56-bb06-3b17a235f305","ios":"levelo://app?vid=3169bea1-794e-4a56-bb06-3b17a235f305"},"vehicle_type_id":"4","last_reported":1737709791,"current_range_meters":38800,"station_id":"ce4bhkp2rcd13ifvqgd0","pricing_plan_id":"cebpf4jnsgd1na2vs0mg"},{"bike_id":"1472ea52-8fc9-449d-8cdc-fb5de31126e2","system_id":"levelo_inurba_marseille","lat":43.32462,"lon":5.3658,"is_reserved":false,"is_disabled":false,"rental_uris":{"android":"levelo://app?vid=1472ea52-8fc9-449d-8cdc-fb5de31126e2","ios":"levelo://app?vid=1472ea52-8fc9-449d-8cdc-fb5de31126e2"},"vehicle_type_id":"4","last_reported":1737709791,"current_range_meters":27200,"station_id":"ce4bhs12rcd13ifvqhvg","pricing_plan_id":"cebpf4jnsgd1na2vs0mg"},{"bike_id":"a7096c56-ee6c-4caa-8cc5-7bc6b6306671","system_id":"levelo_inurba_marseille","lat":43.3137,"lon":5.3671,"is_reserved":false,"is_disabled":false,"rental_uris":{"android":"levelo://app?vid=a7096c56-ee6c-4caa-8cc5-7bc6b6306671","ios":"levelo://app?vid=a7096c56-ee6c-4caa-8cc5-7bc6b6306671"},"vehicle_type_id":"4","last_reported":1737709791,"current_range_meters":27200,"station_id":"ce4bgr92rcd13ifvqc6g","pricing_plan_id":"cebpf4jnsgd1na2vs0mg"},{"bike_id":"056ed343-b9c5-4ee1-9000-c71459c47098","system_id":"levelo_inurba_marseille","lat":43.31684,"lon":5.40476,"is_reserved":false,"is_disabled":true,"rental_uris":{"android":"levelo://app?vid=056ed343-b9c5-4ee1-9000-c71459c47098","ios":"levelo://app?vid=056ed343-b9c5-4ee1-9000-c71459c47098"},"vehicle_type_id":"4","last_reported":1737709791,"current_range_meters":32800,"station_id":"ce4bh012rcd13ifvqd00","pricing_plan_id":"cebpf4jnsgd1na2vs0mg"},{"bike_id":"545d0c7e-8955-4a7d-89ad-8eb345691954","system_id":"levelo_inurba_marseille","lat":43.26195,"lon":5.37449,"is_reserved":false,"is_disabled":false,"rental_uris":{"android":"levelo://app?vid=545d0c7e-8955-4a7d-89ad-8eb345691954","ios":"levelo://app?vid=545d0c7e-8955-4a7d-89ad-8eb345691954"},"vehicle_type_id":"4","last_reported":1737709791,"current_range_meters":3200,"station_id":"ce4bhgp2rcd13ifvqfc0","pricing_plan_id":"cebpf4jnsgd1na2vs0mg"},{"bike_id":"d8e8b75f-a794-4d72-85e8-ae788703f778","system_id":"levelo_inurba_marseille","lat":43.30579,"lon":5.36706,"is_reserved":false,"is_disabled":false,"rental_uris":{"android":"levelo://app?vid=d8e8b75f-a794-4d72-85e8-ae788703f778","ios":"levelo://app?vid=d8e8b75f-a794-4d72-85e8-ae788703f778"},"vehicle_type_id":"4","last_reported":1737709791,"current_range_meters":38800,"station_id":"ce4bgrp2rcd13ifvqc9g","pricing_plan_id":"cebpf4jnsgd1na2vs0mg"},{"bike_id":"800072cb-ee31-4842-9e83-7d0a3b152503","system_id":"levelo_inurba_marseille","lat":43.27489,"lon":5.42447,"is_reserved":false,"is_disabled":false,"rental_uris":{"android":"levelo://app?vid=800072cb-ee31-4842-9e83-7d0a3b152503","ios":"levelo://app?vid=800072cb-ee31-4842-9e83-7d0a3b152503"},"vehicle_type_id":"4","last_reported":1737709791,"current_range_meters":27600,"station_id":"ce4bhn92rcd13ifvqgrg","pricing_plan_id":"cebpf4jnsgd1na2vs0mg"},{"bike_id":"2ae046cb-55cc-4a1a-81df-2c37596f6d66","system_id":"levelo_inurba_marseille","lat":43.30466,"lon":5.37916,"is_reserved":false,"is_disabled":false,"rental_uris":{"android":"levelo://app?vid=2ae046cb-55cc-4a1a-81df-2c37596f6d66","ios":"levelo://app?vid=2ae046cb-55cc-4a1a-81df-2c37596f6d66"},"vehicle_type_id":"4","last_reported":1737709791,"current_range_meters":35200,"station_id":"ce4bgup2rcd13ifvqcn0","pricing_plan_id":"cebpf4jnsgd1na2vs0mg"},{"bike_id":"a4ac5a9e-dec0-4898-a243-e1cd8e461e97","system_id":"levelo_inurba_marseille","lat":43.27494,"lon":5.4246,"is_reserved":false,"is_disabled":false,"rental_uris":{"android":"levelo://app?vid=a4ac5a9e-dec0-4898-a243-e1cd8e461e97","ios":"levelo://app?vid=a4ac5a9e-dec0-4898-a243-e1cd8e461e97"},"vehicle_type_id":"4","last_reported":1737709791,"current_range_meters":38800,"station_id":"ce4bhn92rcd13ifvqgrg","pricing_plan_id":"cebpf4jnsgd1na2vs0mg"},{"bike_id":"6ef9b078-758c-484c-88ff-72c3a69da2c0","system_id":"levelo_inurba_marseille","lat":43.3361,"lon":5.41001,"is_reserved":false,"is_disabled":false,"rental_uris":{"android":"levelo://app?vid=6ef9b078-758c-484c-88ff-72c3a69da2c0","ios":"levelo://app?vid=6ef9b078-758c-484c-88ff-72c3a69da2c0"},"vehicle_type_id":"4","last_reported":1737709791,"current_range_meters":38800,"station_id":"ce4bhqh2rcd13ifvqhmg","pricing_plan_id":"cebpf4jnsgd1na2vs0mg"},{"bike_id":"20fd9b95-fa1e-4176-bded-bb9737cd3dab","system_id":"levelo_inurba_marseille","lat":43.29198,"lon":5.35806,"is_reserved":false,"is_disabled":true,"rental_uris":{"android":"levelo://app?vid=20fd9b95-fa1e-4176-bded-bb9737cd3dab","ios":"levelo://app?vid=20fd9b95-fa1e-4176-bded-bb9737cd3dab"},"vehicle_type_id":"4","last_reported":1737709791,"current_range_meters":39200,"station_id":"ce4bhb12rcd13ifvqel0","pricing_plan_id":"cebpf4jnsgd1na2vs0mg"},{"bike_id":"720b7e3d-ec6c-4d8a-bd91-f2ce046d2245","system_id":"levelo_inurba_marseille","lat":43.23151,"lon":5.4372,"is_reserved":false,"is_disabled":false,"rental_uris":{"android":"levelo://app?vid=720b7e3d-ec6c-4d8a-bd91-f2ce046d2245","ios":"levelo://app?vid=720b7e3d-ec6c-4d8a-bd91-f2ce046d2245"},"vehicle_type_id":"4","last_reported":1737709791,"current_range_meters":10000,"station_id":"ce4bhmp2rcd13ifvqgog","pricing_plan_id":"cebpf4jnsgd1na2vs0mg"},{"bike_id":"13145640-31d5-45b9-bbc5-b237e555f374","system_id":"levelo_inurba_marseille","lat":43.27942,"lon":5.38721,"is_reserved":false,"is_disabled":false,"rental_uris":{"android":"levelo://app?vid=13145640-31d5-45b9-bbc5-b237e555f374","ios":"levelo://app?vid=13145640-31d5-45b9-bbc5-b237e555f374"},"vehicle_type_id":"4","last_reported":1737709791,"current_range_meters":27600,"station_id":"ce4bhg12rcd13ifvqf80","pricing_plan_id":"cebpf4jnsgd1na2vs0mg"},{"bike_id":"5bdbe150-9b84-4e55-bac6-cff13ce5d19f","system_id":"levelo_inurba_marseille","lat":43.30539,"lon":5.36699,"is_reserved":false,"is_disabled":false,"rental_uris":{"android":"levelo://app?vid=5bdbe150-9b84-4e55-bac6-cff13ce5d19f","ios":"levelo://app?vid=5bdbe150-9b84-4e55-bac6-cff13ce5d19f"},"vehicle_type_id":"4","last_reported":1737709791,"current_range_meters":24400,"station_id":"ce4bgrp2rcd13ifvqc9g","pricing_plan_id":"cebpf4jnsgd1na2vs0mg"},{"bike_id":"651de9ba-34f8-4bea-93ad-15a01c05be45","system_id":"levelo_inurba_marseille","lat":43.32107,"lon":5.36774,"is_reserved":false,"is_disabled":false,"rental_uris":{"android":"levelo://app?vid=651de9ba-34f8-4bea-93ad-15a01c05be45","ios":"levelo://app?vid=651de9ba-34f8-4bea-93ad-15a01c05be45"},"vehicle_type_id":"4","last_reported":1737709791,"current_range_meters":32000,"station_id":"ce4bhrh2rcd13ifvqhug","pricing_plan_id":"cebpf4jnsgd1na2vs0mg"},{"bike_id":"2b5f67dd-f0e0-4724-bc4a-a13b0862ca51","system_id":"levelo_inurba_marseille","lat":43.29892,"lon":5.38135,"is_reserved":false,"is_disabled":false,"rental_uris":{"android":"levelo://app?vid=2b5f67dd-f0e0-4724-bc4a-a13b0862ca51","ios":"levelo://app?vid=2b5f67dd-f0e0-4724-bc4a-a13b0862ca51"},"vehicle_type_id":"4","last_reported":1737709791,"current_range_meters":38800,"station_id":"ce4bgj12rcd13ifvqbc0","pricing_plan_id":"cebpf4jnsgd1na2vs0mg"},{"bike_id":"34b8856b-205b-4789-932e-f330a3a7ea9b","system_id":"levelo_inurba_marseille","lat":43.28935,"lon":5.36647,"is_reserved":false,"is_disabled":false,"rental_uris":{"android":"levelo://app?vid=34b8856b-205b-4789-932e-f330a3a7ea9b","ios":"levelo://app?vid=34b8856b-205b-4789-932e-f330a3a7ea9b"},"vehicle_type_id":"4","last_reported":1737709791,"current_range_meters":35600,"station_id":"ce4bhap2rcd13ifvqek0","pricing_plan_id":"cebpf4jnsgd1na2vs0mg"},{"bike_id":"df17b08c-c0a8-4101-b954-a8ea48a23f87","system_id":"levelo_inurba_marseille","lat":43.32533,"lon":5.41459,"is_reserved":false,"is_disabled":false,"rental_uris":{"android":"levelo://app?vid=df17b08c-c0a8-4101-b954-a8ea48a23f87","ios":"levelo://app?vid=df17b08c-c0a8-4101-b954-a8ea48a23f87"},"vehicle_type_id":"4","last_reported":1737709791,"current_range_meters":17600,"station_id":"ce4bhq12rcd13ifvqhhg","pricing_plan_id":"cebpf4jnsgd1na2vs0mg"},{"bike_id":"545ed6e3-0d7c-44d7-afc3-19d942ccdead","system_id":"levelo_inurba_marseille","lat":43.28267,"lon":5.35088,"is_reserved":false,"is_disabled":false,"rental_uris":{"android":"levelo://app?vid=545ed6e3-0d7c-44d7-afc3-19d942ccdead","ios":"levelo://app?vid=545ed6e3-0d7c-44d7-afc3-19d942ccdead"},"vehicle_type_id":"4","last_reported":1737709791,"current_range_meters":24000,"station_id":"ce4bhbp2rcd13ifvqerg","pricing_plan_id":"cebpf4jnsgd1na2vs0mg"},{"bike_id":"88230301-ab7c-4f9b-a51c-578fbbaed85d","system_id":"levelo_inurba_marseille","lat":43.28668,"lon":5.38698,"is_reserved":false,"is_disabled":false,"rental_uris":{"android":"levelo://app?vid=88230301-ab7c-4f9b-a51c-578fbbaed85d","ios":"levelo://app?vid=88230301-ab7c-4f9b-a51c-578fbbaed85d"},"vehicle_type_id":"4","last_reported":1737709791,"current_range_meters":33200,"station_id":"ce4bh492rcd13ifvqdug","pricing_plan_id":"cebpf4jnsgd1na2vs0mg"},{"bike_id":"781e08dd-496a-4d9a-ad41-4d4f4314f24b","system_id":"levelo_inurba_marseille","lat":43.31709,"lon":5.3776,"is_reserved":false,"is_disabled":false,"rental_uris":{"android":"levelo://app?vid=781e08dd-496a-4d9a-ad41-4d4f4314f24b","ios":"levelo://app?vid=781e08dd-496a-4d9a-ad41-4d4f4314f24b"},"vehicle_type_id":"4","last_reported":1737709791,"current_range_meters":38800,"station_id":"ce4bgth2rcd13ifvqch0","pricing_plan_id":"cebpf4jnsgd1na2vs0mg"},{"bike_id":"f74a82c9-5e54-4bd6-8eac-1181a9e04273","system_id":"levelo_inurba_marseille","lat":43.24175,"lon":5.36418,"is_reserved":false,"is_disabled":false,"rental_uris":{"android":"levelo://app?vid=f74a82c9-5e54-4bd6-8eac-1181a9e04273","ios":"levelo://app?vid=f74a82c9-5e54-4bd6-8eac-1181a9e04273"},"vehicle_type_id":"4","last_reported":1737709791,"current_range_meters":6800,"station_id":"cpo36qri1sfpv3e86is0","pricing_plan_id":"cebpf4jnsgd1na2vs0mg"},{"bike_id":"cddfddb2-750c-4eb5-81cb-d5e65f4765d7","system_id":"levelo_inurba_marseille","lat":43.24671,"lon":5.42464,"is_reserved":false,"is_disabled":true,"rental_uris":{"android":"levelo://app?vid=cddfddb2-750c-4eb5-81cb-d5e65f4765d7","ios":"levelo://app?vid=cddfddb2-750c-4eb5-81cb-d5e65f4765d7"},"vehicle_type_id":"4","last_reported":1737709791,"current_range_meters":0,"station_id":"","pricing_plan_id":"cebpf4jnsgd1na2vs0mg"},{"bike_id":"1b8dea10-97d5-4220-8908-25144256dd68","system_id":"levelo_inurba_marseille","lat":43.29515,"lon":5.37516,"is_reserved":false,"is_disabled":false,"rental_uris":{"android":"levelo://app?vid=1b8dea10-97d5-4220-8908-25144256dd68","ios":"levelo://app?vid=1b8dea10-97d5-4220-8908-25144256dd68"},"vehicle_type_id":"4","last_reported":1737709791,"current_range_meters":25600,"station_id":"ce4bgkp2rcd13ifvqbmg","pricing_plan_id":"cebpf4jnsgd1na2vs0mg"},{"bike_id":"38bab1e0-29f8-4175-9dc1-1e06c6b8591f","system_id":"levelo_inurba_marseille","lat":43.25114,"lon":5.40319,"is_reserved":false,"is_disabled":false,"rental_uris":{"android":"levelo://app?vid=38bab1e0-29f8-4175-9dc1-1e06c6b8591f","ios":"levelo://app?vid=38bab1e0-29f8-4175-9dc1-1e06c6b8591f"},"vehicle_type_id":"4","last_reported":1737709791,"current_range_meters":20800,"station_id":"ce4bhlh2rcd13ifvqgig","pricing_plan_id":"cebpf4jnsgd1na2vs0mg"},{"bike_id":"1f4cc9a1-a6f1-42ee-8f62-d3fd1b2849a6","system_id":"levelo_inurba_marseille","lat":43.23197,"lon":5.39989,"is_reserved":false,"is_disabled":false,"rental_uris":{"android":"levelo://app?vid=1f4cc9a1-a6f1-42ee-8f62-d3fd1b2849a6","ios":"levelo://app?vid=1f4cc9a1-a6f1-42ee-8f62-d3fd1b2849a6"},"vehicle_type_id":"4","last_reported":1737709791,"current_range_meters":4800,"station_id":"ce4bhn12rcd13ifvqgqg","pricing_plan_id":"cebpf4jnsgd1na2vs0mg"},{"bike_id":"70028081-a6eb-4063-9c3e-108b4f1fc959","system_id":"levelo_inurba_marseille","lat":43.3048,"lon":5.37905,"is_reserved":false,"is_disabled":false,"rental_uris":{"android":"levelo://app?vid=70028081-a6eb-4063-9c3e-108b4f1fc959","ios":"levelo://app?vid=70028081-a6eb-4063-9c3e-108b4f1fc959"},"vehicle_type_id":"4","last_reported":1737709791,"current_range_meters":20000,"station_id":"ce4bgup2rcd13ifvqcn0","pricing_plan_id":"cebpf4jnsgd1na2vs0mg"},{"bike_id":"86e28c85-0561-4b05-a3de-214c2bb07b8f","system_id":"levelo_inurba_marseille","lat":43.28706,"lon":5.37397,"is_reserved":false,"is_disabled":false,"rental_uris":{"android":"levelo://app?vid=86e28c85-0561-4b05-a3de-214c2bb07b8f","ios":"levelo://app?vid=86e28c85-0561-4b05-a3de-214c2bb07b8f"},"vehicle_type_id":"4","last_reported":1737709791,"current_range_meters":8400,"station_id":"ce4bh3p2rcd13ifvqdq0","pricing_plan_id":"cebpf4jnsgd1na2vs0mg"},{"bike_id":"9838cc78-2b53-49d3-ae13-82df62c4fd64","system_id":"levelo_inurba_marseille","lat":43.28425,"lon":5.40938,"is_reserved":false,"is_disabled":true,"rental_uris":{"android":"levelo://app?vid=9838cc78-2b53-49d3-ae13-82df62c4fd64","ios":"levelo://app?vid=9838cc78-2b53-49d3-ae13-82df62c4fd64"},"vehicle_type_id":"4","last_reported":1737709791,"current_range_meters":1600,"station_id":"","pricing_plan_id":"cebpf4jnsgd1na2vs0mg"},{"bike_id":"70f4baca-3d50-4fff-8ed7-e04bde78ff10","system_id":"levelo_inurba_marseille","lat":43.26217,"lon":5.37883,"is_reserved":false,"is_disabled":false,"rental_uris":{"android":"levelo://app?vid=70f4baca-3d50-4fff-8ed7-e04bde78ff10","ios":"levelo://app?vid=70f4baca-3d50-4fff-8ed7-e04bde78ff10"},"vehicle_type_id":"4","last_reported":1737709791,"current_range_meters":39200,"station_id":"ce4bhjp2rcd13ifvqg90","pricing_plan_id":"cebpf4jnsgd1na2vs0mg"},{"bike_id":"d18ba9c4-301e-4334-ab8c-9102f5285b2b","system_id":"levelo_inurba_marseille","lat":43.274957,"lon":5.424573,"is_reserved":false,"is_disabled":false,"rental_uris":{"android":"levelo://app?vid=d18ba9c4-301e-4334-ab8c-9102f5285b2b","ios":"levelo://app?vid=d18ba9c4-301e-4334-ab8c-9102f5285b2b"},"vehicle_type_id":"4","last_reported":1737709791,"current_range_meters":24800,"station_id":"ce4bhn92rcd13ifvqgrg","pricing_plan_id":"cebpf4jnsgd1na2vs0mg"},{"bike_id":"b028c4e1-2e14-4917-a0f8-b2c9d2fac853","system_id":"levelo_inurba_marseille","lat":43.29255,"lon":5.40911,"is_reserved":false,"is_disabled":false,"rental_uris":{"android":"levelo://app?vid=b028c4e1-2e14-4917-a0f8-b2c9d2fac853","ios":"levelo://app?vid=b028c4e1-2e14-4917-a0f8-b2c9d2fac853"},"vehicle_type_id":"4","last_reported":1737709791,"current_range_meters":16400,"station_id":"ce4bh192rcd13ifvqdc0","pricing_plan_id":"cebpf4jnsgd1na2vs0mg"},{"bike_id":"bf096a89-ee72-4f37-85bd-7b3cf9f0cb41","system_id":"levelo_inurba_marseille","lat":43.31934,"lon":5.3789,"is_reserved":false,"is_disabled":false,"rental_uris":{"android":"levelo://app?vid=bf096a89-ee72-4f37-85bd-7b3cf9f0cb41","ios":"levelo://app?vid=bf096a89-ee72-4f37-85bd-7b3cf9f0cb41"},"vehicle_type_id":"4","last_reported":1737709791,"current_range_meters":36000,"station_id":"","pricing_plan_id":"cebpf4jnsgd1na2vs0mg"},{"bike_id":"e75b6915-fb70-4312-8a23-7c2f498680ad","system_id":"levelo_inurba_marseille","lat":43.24073,"lon":5.37756,"is_reserved":false,"is_disabled":true,"rental_uris":{"android":"levelo://app?vid=e75b6915-fb70-4312-8a23-7c2f498680ad","ios":"levelo://app?vid=e75b6915-fb70-4312-8a23-7c2f498680ad"},"vehicle_type_id":"4","last_reported":1737709791,"current_range_meters":1600,"station_id":"ce4bhnp2rcd13ifvqgvg","pricing_plan_id":"cebpf4jnsgd1na2vs0mg"},{"bike_id":"c6608aa1-12d7-485e-b6e9-50f10fb23e1a","system_id":"levelo_inurba_marseille","lat":43.28967,"lon":5.37841,"is_reserved":false,"is_disabled":false,"rental_uris":{"android":"levelo://app?vid=c6608aa1-12d7-485e-b6e9-50f10fb23e1a","ios":"levelo://app?vid=c6608aa1-12d7-485e-b6e9-50f10fb23e1a"},"vehicle_type_id":"4","last_reported":1737709791,"current_range_meters":38800,"station_id":"ce4bh9p2rcd13ifvqed0","pricing_plan_id":"cebpf4jnsgd1na2vs0mg"},{"bike_id":"634d56c1-a2c0-4178-97ec-f77ccc52b51c","system_id":"levelo_inurba_marseille","lat":43.23186,"lon":5.39988,"is_reserved":false,"is_disabled":false,"rental_uris":{"android":"levelo://app?vid=634d56c1-a2c0-4178-97ec-f77ccc52b51c","ios":"levelo://app?vid=634d56c1-a2c0-4178-97ec-f77ccc52b51c"},"vehicle_type_id":"4","last_reported":1737709791,"current_range_meters":32000,"station_id":"ce4bhn12rcd13ifvqgqg","pricing_plan_id":"cebpf4jnsgd1na2vs0mg"},{"bike_id":"f7770a36-5a1c-4d0c-b873-623db0bb27c4","system_id":"levelo_inurba_marseille","lat":43.30894,"lon":5.36859,"is_reserved":false,"is_disabled":false,"rental_uris":{"android":"levelo://app?vid=f7770a36-5a1c-4d0c-b873-623db0bb27c4","ios":"levelo://app?vid=f7770a36-5a1c-4d0c-b873-623db0bb27c4"},"vehicle_type_id":"4","last_reported":1737709791,"current_range_meters":38800,"station_id":"ce4bgn92rcd13ifvqbvg","pricing_plan_id":"cebpf4jnsgd1na2vs0mg"},{"bike_id":"a8d26b73-4d25-4434-bbc9-57c79ca6deb8","system_id":"levelo_inurba_marseille","lat":43.29889,"lon":5.38121,"is_reserved":false,"is_disabled":false,"rental_uris":{"android":"levelo://app?vid=a8d26b73-4d25-4434-bbc9-57c79ca6deb8","ios":"levelo://app?vid=a8d26b73-4d25-4434-bbc9-57c79ca6deb8"},"vehicle_type_id":"4","last_reported":1737709791,"current_range_meters":36800,"station_id":"ce4bgj12rcd13ifvqbc0","pricing_plan_id":"cebpf4jnsgd1na2vs0mg"},{"bike_id":"308e358e-cb1f-4b62-8103-eeb5731f0b2e","system_id":"levelo_inurba_marseille","lat":43.29516,"lon":5.37504,"is_reserved":false,"is_disabled":false,"rental_uris":{"android":"levelo://app?vid=308e358e-cb1f-4b62-8103-eeb5731f0b2e","ios":"levelo://app?vid=308e358e-cb1f-4b62-8103-eeb5731f0b2e"},"vehicle_type_id":"4","last_reported":1737709791,"current_range_meters":37600,"station_id":"ce4bgkp2rcd13ifvqbmg","pricing_plan_id":"cebpf4jnsgd1na2vs0mg"},{"bike_id":"2fcb50f2-9cad-4024-bd6d-be83a2ae58b0","system_id":"levelo_inurba_marseille","lat":43.28478,"lon":5.38573,"is_reserved":false,"is_disabled":false,"rental_uris":{"android":"levelo://app?vid=2fcb50f2-9cad-4024-bd6d-be83a2ae58b0","ios":"levelo://app?vid=2fcb50f2-9cad-4024-bd6d-be83a2ae58b0"},"vehicle_type_id":"4","last_reported":1737709791,"current_range_meters":34000,"station_id":"ce4bh8p2rcd13ifvqeb0","pricing_plan_id":"cebpf4jnsgd1na2vs0mg"},{"bike_id":"ca086e44-bf3e-42cf-9cdd-4fb5146d5c95","system_id":"levelo_inurba_marseille","lat":43.30482,"lon":5.37902,"is_reserved":false,"is_disabled":false,"rental_uris":{"android":"levelo://app?vid=ca086e44-bf3e-42cf-9cdd-4fb5146d5c95","ios":"levelo://app?vid=ca086e44-bf3e-42cf-9cdd-4fb5146d5c95"},"vehicle_type_id":"4","last_reported":1737709791,"current_range_meters":38800,"station_id":"ce4bgup2rcd13ifvqcn0","pricing_plan_id":"cebpf4jnsgd1na2vs0mg"},{"bike_id":"c964a905-9270-455d-8da3-260e623933e5","system_id":"levelo_inurba_marseille","lat":43.26681,"lon":5.38264,"is_reserved":false,"is_disabled":false,"rental_uris":{"android":"levelo://app?vid=c964a905-9270-455d-8da3-260e623933e5","ios":"levelo://app?vid=c964a905-9270-455d-8da3-260e623933e5"},"vehicle_type_id":"4","last_reported":1737709791,"current_range_meters":27200,"station_id":"ce4bhg92rcd13ifvqf90","pricing_plan_id":"cebpf4jnsgd1na2vs0mg"},{"bike_id":"bf232eb6-ff63-4ac8-9eb0-5e3d769ec9cd","system_id":"levelo_inurba_marseille","lat":43.31368,"lon":5.36674,"is_reserved":false,"is_disabled":false,"rental_uris":{"android":"levelo://app?vid=bf232eb6-ff63-4ac8-9eb0-5e3d769ec9cd","ios":"levelo://app?vid=bf232eb6-ff63-4ac8-9eb0-5e3d769ec9cd"},"vehicle_type_id":"4","last_reported":1737709791,"current_range_meters":33200,"station_id":"ce4bgr92rcd13ifvqc6g","pricing_plan_id":"cebpf4jnsgd1na2vs0mg"},{"bike_id":"20829029-41ca-4836-84b4-7f5d19647da4","system_id":"levelo_inurba_marseille","lat":43.28483,"lon":5.3857,"is_reserved":false,"is_disabled":false,"rental_uris":{"android":"levelo://app?vid=20829029-41ca-4836-84b4-7f5d19647da4","ios":"levelo://app?vid=20829029-41ca-4836-84b4-7f5d19647da4"},"vehicle_type_id":"4","last_reported":1737709791,"current_range_meters":38800,"station_id":"ce4bh8p2rcd13ifvqeb0","pricing_plan_id":"cebpf4jnsgd1na2vs0mg"},{"bike_id":"640dda4b-4e7a-4299-9a4a-d49064134585","system_id":"levelo_inurba_marseille","lat":43.26205,"lon":5.37927,"is_reserved":false,"is_disabled":false,"rental_uris":{"android":"levelo://app?vid=640dda4b-4e7a-4299-9a4a-d49064134585","ios":"levelo://app?vid=640dda4b-4e7a-4299-9a4a-d49064134585"},"vehicle_type_id":"4","last_reported":1737709791,"current_range_meters":39200,"station_id":"ce4bhjp2rcd13ifvqg90","pricing_plan_id":"cebpf4jnsgd1na2vs0mg"},{"bike_id":"823f5e62-6792-4b71-9479-360bc5d7ee1c","system_id":"levelo_inurba_marseille","lat":43.29222,"lon":5.36065,"is_reserved":false,"is_disabled":false,"rental_uris":{"android":"levelo://app?vid=823f5e62-6792-4b71-9479-360bc5d7ee1c","ios":"levelo://app?vid=823f5e62-6792-4b71-9479-360bc5d7ee1c"},"vehicle_type_id":"4","last_reported":1737709791,"current_range_meters":32000,"station_id":"ce4bhbh2rcd13ifvqeqg","pricing_plan_id":"cebpf4jnsgd1na2vs0mg"},{"bike_id":"ad287a01-ade7-476c-a87f-d359846cb4aa","system_id":"levelo_inurba_marseille","lat":43.32037,"lon":5.41569,"is_reserved":false,"is_disabled":false,"rental_uris":{"android":"levelo://app?vid=ad287a01-ade7-476c-a87f-d359846cb4aa","ios":"levelo://app?vid=ad287a01-ade7-476c-a87f-d359846cb4aa"},"vehicle_type_id":"4","last_reported":1737709791,"current_range_meters":20000,"station_id":"ce4bhq92rcd13ifvqhkg","pricing_plan_id":"cebpf4jnsgd1na2vs0mg"},{"bike_id":"f224685c-857b-46cf-9bb6-2e06afda9b4d","system_id":"levelo_inurba_marseille","lat":43.29778,"lon":5.37102,"is_reserved":false,"is_disabled":false,"rental_uris":{"android":"levelo://app?vid=f224685c-857b-46cf-9bb6-2e06afda9b4d","ios":"levelo://app?vid=f224685c-857b-46cf-9bb6-2e06afda9b4d"},"vehicle_type_id":"4","last_reported":1737709791,"current_range_meters":14400,"station_id":"ce4bgop2rcd13ifvqc1g","pricing_plan_id":"cebpf4jnsgd1na2vs0mg"},{"bike_id":"b1350c89-a295-42ef-b3a2-f01d5d977dd1","system_id":"levelo_inurba_marseille","lat":43.30144,"lon":5.38086,"is_reserved":false,"is_disabled":false,"rental_uris":{"android":"levelo://app?vid=b1350c89-a295-42ef-b3a2-f01d5d977dd1","ios":"levelo://app?vid=b1350c89-a295-42ef-b3a2-f01d5d977dd1"},"vehicle_type_id":"4","last_reported":1737709791,"current_range_meters":17600,"station_id":"ce4bgjp2rcd13ifvqbh0","pricing_plan_id":"cebpf4jnsgd1na2vs0mg"},{"bike_id":"050bd42b-0fa4-4ea3-8a02-3c1196960ece","system_id":"levelo_inurba_marseille","lat":43.31636,"lon":5.37414,"is_reserved":false,"is_disabled":false,"rental_uris":{"android":"levelo://app?vid=050bd42b-0fa4-4ea3-8a02-3c1196960ece","ios":"levelo://app?vid=050bd42b-0fa4-4ea3-8a02-3c1196960ece"},"vehicle_type_id":"4","last_reported":1737709791,"current_range_meters":24400,"station_id":"","pricing_plan_id":"cebpf4jnsgd1na2vs0mg"},{"bike_id":"b8e3f34c-b1e0-40d9-833b-11a6b0e6c9c6","system_id":"levelo_inurba_marseille","lat":43.27483,"lon":5.42476,"is_reserved":false,"is_disabled":false,"rental_uris":{"android":"levelo://app?vid=b8e3f34c-b1e0-40d9-833b-11a6b0e6c9c6","ios":"levelo://app?vid=b8e3f34c-b1e0-40d9-833b-11a6b0e6c9c6"},"vehicle_type_id":"4","last_reported":1737709791,"current_range_meters":32000,"station_id":"ce4bhn92rcd13ifvqgrg","pricing_plan_id":"cebpf4jnsgd1na2vs0mg"},{"bike_id":"e3d72c5b-33fb-4d8e-8eae-71ee161e14bd","system_id":"levelo_inurba_marseille","lat":43.3091,"lon":5.36867,"is_reserved":false,"is_disabled":false,"rental_uris":{"android":"levelo://app?vid=e3d72c5b-33fb-4d8e-8eae-71ee161e14bd","ios":"levelo://app?vid=e3d72c5b-33fb-4d8e-8eae-71ee161e14bd"},"vehicle_type_id":"4","last_reported":1737709791,"current_range_meters":25200,"station_id":"ce4bgn92rcd13ifvqbvg","pricing_plan_id":"cebpf4jnsgd1na2vs0mg"},{"bike_id":"0ad149d9-6e33-405d-aa3c-5e42e0c0ed7d","system_id":"levelo_inurba_marseille","lat":43.28145,"lon":5.42658,"is_reserved":false,"is_disabled":false,"rental_uris":{"android":"levelo://app?vid=0ad149d9-6e33-405d-aa3c-5e42e0c0ed7d","ios":"levelo://app?vid=0ad149d9-6e33-405d-aa3c-5e42e0c0ed7d"},"vehicle_type_id":"4","last_reported":1737709791,"current_range_meters":36400,"station_id":"ce4bhnh2rcd13ifvqgug","pricing_plan_id":"cebpf4jnsgd1na2vs0mg"},{"bike_id":"2f4fa984-4c44-4974-abb6-1d4b539de1f0","system_id":"levelo_inurba_marseille","lat":43.28688,"lon":5.38658,"is_reserved":false,"is_disabled":true,"rental_uris":{"android":"levelo://app?vid=2f4fa984-4c44-4974-abb6-1d4b539de1f0","ios":"levelo://app?vid=2f4fa984-4c44-4974-abb6-1d4b539de1f0"},"vehicle_type_id":"4","last_reported":1737709791,"current_range_meters":32400,"station_id":"ce4bh492rcd13ifvqdug","pricing_plan_id":"cebpf4jnsgd1na2vs0mg"},{"bike_id":"347dd29e-9a9e-4a37-8ddd-6e2050aaff03","system_id":"levelo_inurba_marseille","lat":43.33725,"lon":5.39179,"is_reserved":false,"is_disabled":false,"rental_uris":{"android":"levelo://app?vid=347dd29e-9a9e-4a37-8ddd-6e2050aaff03","ios":"levelo://app?vid=347dd29e-9a9e-4a37-8ddd-6e2050aaff03"},"vehicle_type_id":"4","last_reported":1737709791,"current_range_meters":38400,"station_id":"ce4bhr92rcd13ifvqhsg","pricing_plan_id":"cebpf4jnsgd1na2vs0mg"},{"bike_id":"69ae49c8-dae4-483c-a6fa-9d4961c23e96","system_id":"levelo_inurba_marseille","lat":43.2582,"lon":5.39439,"is_reserved":false,"is_disabled":false,"rental_uris":{"android":"levelo://app?vid=69ae49c8-dae4-483c-a6fa-9d4961c23e96","ios":"levelo://app?vid=69ae49c8-dae4-483c-a6fa-9d4961c23e96"},"vehicle_type_id":"4","last_reported":1737709791,"current_range_meters":22800,"station_id":"ce4bhip2rcd13ifvqft0","pricing_plan_id":"cebpf4jnsgd1na2vs0mg"},{"bike_id":"d7dbec56-3cb4-42dd-970e-b1e8e7b8f352","system_id":"levelo_inurba_marseille","lat":43.26675,"lon":5.38274,"is_reserved":false,"is_disabled":false,"rental_uris":{"android":"levelo://app?vid=d7dbec56-3cb4-42dd-970e-b1e8e7b8f352","ios":"levelo://app?vid=d7dbec56-3cb4-42dd-970e-b1e8e7b8f352"},"vehicle_type_id":"4","last_reported":1737709791,"current_range_meters":39200,"station_id":"ce4bhg92rcd13ifvqf90","pricing_plan_id":"cebpf4jnsgd1na2vs0mg"},{"bike_id":"71052cee-d40f-4b38-b6a6-8986bdc4eada","system_id":"levelo_inurba_marseille","lat":43.30878,"lon":5.37192,"is_reserved":false,"is_disabled":false,"rental_uris":{"android":"levelo://app?vid=71052cee-d40f-4b38-b6a6-8986bdc4eada","ios":"levelo://app?vid=71052cee-d40f-4b38-b6a6-8986bdc4eada"},"vehicle_type_id":"4","last_reported":1737709791,"current_range_meters":12400,"station_id":"ce4bguh2rcd13ifvqckg","pricing_plan_id":"cebpf4jnsgd1na2vs0mg"},{"bike_id":"4553b969-7b05-4629-91cf-2232cce0116a","system_id":"levelo_inurba_marseille","lat":43.24073,"lon":5.37761,"is_reserved":false,"is_disabled":true,"rental_uris":{"android":"levelo://app?vid=4553b969-7b05-4629-91cf-2232cce0116a","ios":"levelo://app?vid=4553b969-7b05-4629-91cf-2232cce0116a"},"vehicle_type_id":"4","last_reported":1737709791,"current_range_meters":800,"station_id":"ce4bhnp2rcd13ifvqgvg","pricing_plan_id":"cebpf4jnsgd1na2vs0mg"},{"bike_id":"fc4e4c1b-bfb9-4093-ab86-a90b3b9e08bc","system_id":"levelo_inurba_marseille","lat":43.30473,"lon":5.37912,"is_reserved":false,"is_disabled":false,"rental_uris":{"android":"levelo://app?vid=fc4e4c1b-bfb9-4093-ab86-a90b3b9e08bc","ios":"levelo://app?vid=fc4e4c1b-bfb9-4093-ab86-a90b3b9e08bc"},"vehicle_type_id":"4","last_reported":1737709791,"current_range_meters":28000,"station_id":"ce4bgup2rcd13ifvqcn0","pricing_plan_id":"cebpf4jnsgd1na2vs0mg"},{"bike_id":"90b8a1b1-ad54-458d-9362-f5197bbdf048","system_id":"levelo_inurba_marseille","lat":43.22926,"lon":5.35387,"is_reserved":false,"is_disabled":false,"rental_uris":{"android":"levelo://app?vid=90b8a1b1-ad54-458d-9362-f5197bbdf048","ios":"levelo://app?vid=90b8a1b1-ad54-458d-9362-f5197bbdf048"},"vehicle_type_id":"4","last_reported":1737709791,"current_range_meters":38400,"station_id":"cpo3532slgdg3j2ikp40","pricing_plan_id":"cebpf4jnsgd1na2vs0mg"},{"bike_id":"1c66e932-63ee-4c4b-a135-c1271c7dcb5e","system_id":"levelo_inurba_marseille","lat":43.26198,"lon":5.37942,"is_reserved":false,"is_disabled":false,"rental_uris":{"android":"levelo://app?vid=1c66e932-63ee-4c4b-a135-c1271c7dcb5e","ios":"levelo://app?vid=1c66e932-63ee-4c4b-a135-c1271c7dcb5e"},"vehicle_type_id":"4","last_reported":1737709791,"current_range_meters":17600,"station_id":"ce4bhjp2rcd13ifvqg90","pricing_plan_id":"cebpf4jnsgd1na2vs0mg"},{"bike_id":"82563645-5192-4988-a48b-2e9d9ff2508a","system_id":"levelo_inurba_marseille","lat":43.26198,"lon":5.37448,"is_reserved":false,"is_disabled":false,"rental_uris":{"android":"levelo://app?vid=82563645-5192-4988-a48b-2e9d9ff2508a","ios":"levelo://app?vid=82563645-5192-4988-a48b-2e9d9ff2508a"},"vehicle_type_id":"4","last_reported":1737709791,"current_range_meters":26000,"station_id":"ce4bhgp2rcd13ifvqfc0","pricing_plan_id":"cebpf4jnsgd1na2vs0mg"},{"bike_id":"957c5c39-c969-433b-b7aa-8c4e22652ec2","system_id":"levelo_inurba_marseille","lat":43.26953,"lon":5.38649,"is_reserved":false,"is_disabled":false,"rental_uris":{"android":"levelo://app?vid=957c5c39-c969-433b-b7aa-8c4e22652ec2","ios":"levelo://app?vid=957c5c39-c969-433b-b7aa-8c4e22652ec2"},"vehicle_type_id":"4","last_reported":1737709791,"current_range_meters":38800,"station_id":"ce4bhh92rcd13ifvqfh0","pricing_plan_id":"cebpf4jnsgd1na2vs0mg"},{"bike_id":"750f8951-c735-4fbb-8352-4d4326ecc358","system_id":"levelo_inurba_marseille","lat":43.33618,"lon":5.41041,"is_reserved":false,"is_disabled":false,"rental_uris":{"android":"levelo://app?vid=750f8951-c735-4fbb-8352-4d4326ecc358","ios":"levelo://app?vid=750f8951-c735-4fbb-8352-4d4326ecc358"},"vehicle_type_id":"4","last_reported":1737709791,"current_range_meters":24000,"station_id":"ce4bhqh2rcd13ifvqhmg","pricing_plan_id":"cebpf4jnsgd1na2vs0mg"},{"bike_id":"892132d6-6b6c-4d5b-9184-ef22870ce55b","system_id":"levelo_inurba_marseille","lat":43.27495,"lon":5.42457,"is_reserved":false,"is_disabled":false,"rental_uris":{"android":"levelo://app?vid=892132d6-6b6c-4d5b-9184-ef22870ce55b","ios":"levelo://app?vid=892132d6-6b6c-4d5b-9184-ef22870ce55b"},"vehicle_type_id":"4","last_reported":1737709791,"current_range_meters":38800,"station_id":"ce4bhn92rcd13ifvqgrg","pricing_plan_id":"cebpf4jnsgd1na2vs0mg"},{"bike_id":"daa9ee29-0392-40ab-a464-ab8fcab36ba2","system_id":"levelo_inurba_marseille","lat":43.3046,"lon":5.37917,"is_reserved":false,"is_disabled":false,"rental_uris":{"android":"levelo://app?vid=daa9ee29-0392-40ab-a464-ab8fcab36ba2","ios":"levelo://app?vid=daa9ee29-0392-40ab-a464-ab8fcab36ba2"},"vehicle_type_id":"4","last_reported":1737709791,"current_range_meters":32000,"station_id":"ce4bgup2rcd13ifvqcn0","pricing_plan_id":"cebpf4jnsgd1na2vs0mg"},{"bike_id":"e8fa741c-a5d9-4e57-8a59-460ec63e7872","system_id":"levelo_inurba_marseille","lat":43.28152,"lon":5.42646,"is_reserved":false,"is_disabled":false,"rental_uris":{"android":"levelo://app?vid=e8fa741c-a5d9-4e57-8a59-460ec63e7872","ios":"levelo://app?vid=e8fa741c-a5d9-4e57-8a59-460ec63e7872"},"vehicle_type_id":"4","last_reported":1737709791,"current_range_meters":32800,"station_id":"ce4bhnh2rcd13ifvqgug","pricing_plan_id":"cebpf4jnsgd1na2vs0mg"},{"bike_id":"62069f6c-3dd9-4b79-9f44-941214b1a57f","system_id":"levelo_inurba_marseille","lat":43.29952,"lon":5.36541,"is_reserved":false,"is_disabled":false,"rental_uris":{"android":"levelo://app?vid=62069f6c-3dd9-4b79-9f44-941214b1a57f","ios":"levelo://app?vid=62069f6c-3dd9-4b79-9f44-941214b1a57f"},"vehicle_type_id":"4","last_reported":1737709791,"current_range_meters":37600,"station_id":"ce4bgm92rcd13ifvqbr0","pricing_plan_id":"cebpf4jnsgd1na2vs0mg"},{"bike_id":"ce90fea6-ff2a-4d0b-bd4f-45ced0acf4c0","system_id":"levelo_inurba_marseille","lat":43.32363,"lon":5.3676,"is_reserved":false,"is_disabled":false,"rental_uris":{"android":"levelo://app?vid=ce90fea6-ff2a-4d0b-bd4f-45ced0acf4c0","ios":"levelo://app?vid=ce90fea6-ff2a-4d0b-bd4f-45ced0acf4c0"},"vehicle_type_id":"4","last_reported":1737709791,"current_range_meters":8400,"station_id":"ce4bhsh2rcd13ifvqi2g","pricing_plan_id":"cebpf4jnsgd1na2vs0mg"},{"bike_id":"cdd117e7-bc15-4c62-95df-877efd487e32","system_id":"levelo_inurba_marseille","lat":43.2847,"lon":5.38563,"is_reserved":false,"is_disabled":false,"rental_uris":{"android":"levelo://app?vid=cdd117e7-bc15-4c62-95df-877efd487e32","ios":"levelo://app?vid=cdd117e7-bc15-4c62-95df-877efd487e32"},"vehicle_type_id":"4","last_reported":1737709791,"current_range_meters":30800,"station_id":"ce4bh8p2rcd13ifvqeb0","pricing_plan_id":"cebpf4jnsgd1na2vs0mg"},{"bike_id":"ab13439f-1c4b-4b83-ac72-9f4e6d1f64cb","system_id":"levelo_inurba_marseille","lat":43.31246,"lon":5.37973,"is_reserved":false,"is_disabled":true,"rental_uris":{"android":"levelo://app?vid=ab13439f-1c4b-4b83-ac72-9f4e6d1f64cb","ios":"levelo://app?vid=ab13439f-1c4b-4b83-ac72-9f4e6d1f64cb"},"vehicle_type_id":"4","last_reported":1737709791,"current_range_meters":8000,"station_id":"","pricing_plan_id":"cebpf4jnsgd1na2vs0mg"},{"bike_id":"431299a0-21ec-4f6a-93fe-0d0fe6e96565","system_id":"levelo_inurba_marseille","lat":43.30298,"lon":5.36901,"is_reserved":false,"is_disabled":false,"rental_uris":{"android":"levelo://app?vid=431299a0-21ec-4f6a-93fe-0d0fe6e96565","ios":"levelo://app?vid=431299a0-21ec-4f6a-93fe-0d0fe6e96565"},"vehicle_type_id":"4","last_reported":1737709791,"current_range_meters":38800,"station_id":"ce4bgqh2rcd13ifvqc5g","pricing_plan_id":"cebpf4jnsgd1na2vs0mg"},{"bike_id":"6b43ad74-a792-4452-b675-dde7572494e5","system_id":"levelo_inurba_marseille","lat":43.26952,"lon":5.38627,"is_reserved":false,"is_disabled":false,"rental_uris":{"android":"levelo://app?vid=6b43ad74-a792-4452-b675-dde7572494e5","ios":"levelo://app?vid=6b43ad74-a792-4452-b675-dde7572494e5"},"vehicle_type_id":"4","last_reported":1737709791,"current_range_meters":34000,"station_id":"ce4bhh92rcd13ifvqfh0","pricing_plan_id":"cebpf4jnsgd1na2vs0mg"},{"bike_id":"02394dc5-85af-47df-a8e1-31c154c9e2cc","system_id":"levelo_inurba_marseille","lat":43.23188,"lon":5.39993,"is_reserved":false,"is_disabled":false,"rental_uris":{"android":"levelo://app?vid=02394dc5-85af-47df-a8e1-31c154c9e2cc","ios":"levelo://app?vid=02394dc5-85af-47df-a8e1-31c154c9e2cc"},"vehicle_type_id":"4","last_reported":1737709791,"current_range_meters":37600,"station_id":"ce4bhn12rcd13ifvqgqg","pricing_plan_id":"cebpf4jnsgd1na2vs0mg"},{"bike_id":"b647daaa-f6b6-44a5-9603-dc342d980de8","system_id":"levelo_inurba_marseille","lat":43.29196,"lon":5.3932,"is_reserved":false,"is_disabled":false,"rental_uris":{"android":"levelo://app?vid=b647daaa-f6b6-44a5-9603-dc342d980de8","ios":"levelo://app?vid=b647daaa-f6b6-44a5-9603-dc342d980de8"},"vehicle_type_id":"4","last_reported":1737709791,"current_range_meters":17600,"station_id":"ce4bh192rcd13ifvqdd0","pricing_plan_id":"cebpf4jnsgd1na2vs0mg"},{"bike_id":"882afe9e-c71c-45eb-a6f1-743114e17806","system_id":"levelo_inurba_marseille","lat":43.30461,"lon":5.37897,"is_reserved":false,"is_disabled":false,"rental_uris":{"android":"levelo://app?vid=882afe9e-c71c-45eb-a6f1-743114e17806","ios":"levelo://app?vid=882afe9e-c71c-45eb-a6f1-743114e17806"},"vehicle_type_id":"4","last_reported":1737709791,"current_range_meters":38800,"station_id":"ce4bgup2rcd13ifvqcn0","pricing_plan_id":"cebpf4jnsgd1na2vs0mg"},{"bike_id":"0d3f5817-39fa-40d7-ab9d-35c01033f435","system_id":"levelo_inurba_marseille","lat":43.26224,"lon":5.40461,"is_reserved":false,"is_disabled":false,"rental_uris":{"android":"levelo://app?vid=0d3f5817-39fa-40d7-ab9d-35c01033f435","ios":"levelo://app?vid=0d3f5817-39fa-40d7-ab9d-35c01033f435"},"vehicle_type_id":"4","last_reported":1737709791,"current_range_meters":4000,"station_id":"","pricing_plan_id":"cebpf4jnsgd1na2vs0mg"},{"bike_id":"adf37ecb-7a79-450c-982d-303eae1f41ff","system_id":"levelo_inurba_marseille","lat":43.26686,"lon":5.38272,"is_reserved":false,"is_disabled":false,"rental_uris":{"android":"levelo://app?vid=adf37ecb-7a79-450c-982d-303eae1f41ff","ios":"levelo://app?vid=adf37ecb-7a79-450c-982d-303eae1f41ff"},"vehicle_type_id":"4","last_reported":1737709791,"current_range_meters":39200,"station_id":"ce4bhg92rcd13ifvqf90","pricing_plan_id":"cebpf4jnsgd1na2vs0mg"},{"bike_id":"78b03264-0c2d-45b5-9b0a-cf7cc454c0c6","system_id":"levelo_inurba_marseille","lat":43.32481,"lon":5.36598,"is_reserved":false,"is_disabled":false,"rental_uris":{"android":"levelo://app?vid=78b03264-0c2d-45b5-9b0a-cf7cc454c0c6","ios":"levelo://app?vid=78b03264-0c2d-45b5-9b0a-cf7cc454c0c6"},"vehicle_type_id":"4","last_reported":1737709791,"current_range_meters":37600,"station_id":"ce4bhs12rcd13ifvqhvg","pricing_plan_id":"cebpf4jnsgd1na2vs0mg"},{"bike_id":"c8715ca0-d392-4611-93af-a8f4ebe3932f","system_id":"levelo_inurba_marseille","lat":43.23154,"lon":5.43723,"is_reserved":false,"is_disabled":true,"rental_uris":{"android":"levelo://app?vid=c8715ca0-d392-4611-93af-a8f4ebe3932f","ios":"levelo://app?vid=c8715ca0-d392-4611-93af-a8f4ebe3932f"},"vehicle_type_id":"4","last_reported":1737709791,"current_range_meters":0,"station_id":"ce4bhmp2rcd13ifvqgog","pricing_plan_id":"cebpf4jnsgd1na2vs0mg"},{"bike_id":"efcccd97-a21c-4651-bca9-251bfff03385","system_id":"levelo_inurba_marseille","lat":43.29227,"lon":5.36068,"is_reserved":false,"is_disabled":false,"rental_uris":{"android":"levelo://app?vid=efcccd97-a21c-4651-bca9-251bfff03385","ios":"levelo://app?vid=efcccd97-a21c-4651-bca9-251bfff03385"},"vehicle_type_id":"4","last_reported":1737709791,"current_range_meters":27600,"station_id":"ce4bhbh2rcd13ifvqeqg","pricing_plan_id":"cebpf4jnsgd1na2vs0mg"},{"bike_id":"86e74e3b-996a-4975-88d9-d5a7ed191bca","system_id":"levelo_inurba_marseille","lat":43.30519,"lon":5.36541,"is_reserved":false,"is_disabled":false,"rental_uris":{"android":"levelo://app?vid=86e74e3b-996a-4975-88d9-d5a7ed191bca","ios":"levelo://app?vid=86e74e3b-996a-4975-88d9-d5a7ed191bca"},"vehicle_type_id":"4","last_reported":1737709791,"current_range_meters":37600,"station_id":"","pricing_plan_id":"cebpf4jnsgd1na2vs0mg"},{"bike_id":"2563228a-ba15-43c5-8d8f-2b9013c077b4","system_id":"levelo_inurba_marseille","lat":43.3148,"lon":5.3731,"is_reserved":false,"is_disabled":false,"rental_uris":{"android":"levelo://app?vid=2563228a-ba15-43c5-8d8f-2b9013c077b4","ios":"levelo://app?vid=2563228a-ba15-43c5-8d8f-2b9013c077b4"},"vehicle_type_id":"4","last_reported":1737709791,"current_range_meters":33600,"station_id":"ce4bgt12rcd13ifvqcd0","pricing_plan_id":"cebpf4jnsgd1na2vs0mg"},{"bike_id":"9dc65c9c-f924-41aa-a20d-9133d906e331","system_id":"levelo_inurba_marseille","lat":43.28949,"lon":5.39661,"is_reserved":false,"is_disabled":true,"rental_uris":{"android":"levelo://app?vid=9dc65c9c-f924-41aa-a20d-9133d906e331","ios":"levelo://app?vid=9dc65c9c-f924-41aa-a20d-9133d906e331"},"vehicle_type_id":"4","last_reported":1737709791,"current_range_meters":36400,"station_id":"ce4bh3h2rcd13ifvqdn0","pricing_plan_id":"cebpf4jnsgd1na2vs0mg"},{"bike_id":"85a3042a-99ef-4a57-92d9-e9fccf7a3989","system_id":"levelo_inurba_marseille","lat":43.30471,"lon":5.37905,"is_reserved":false,"is_disabled":false,"rental_uris":{"android":"levelo://app?vid=85a3042a-99ef-4a57-92d9-e9fccf7a3989","ios":"levelo://app?vid=85a3042a-99ef-4a57-92d9-e9fccf7a3989"},"vehicle_type_id":"4","last_reported":1737709791,"current_range_meters":34000,"station_id":"ce4bgup2rcd13ifvqcn0","pricing_plan_id":"cebpf4jnsgd1na2vs0mg"},{"bike_id":"c63c6879-4cb1-4775-9ff7-126d9b5c3d13","system_id":"levelo_inurba_marseille","lat":43.30563,"lon":5.3655,"is_reserved":false,"is_disabled":false,"rental_uris":{"android":"levelo://app?vid=c63c6879-4cb1-4775-9ff7-126d9b5c3d13","ios":"levelo://app?vid=c63c6879-4cb1-4775-9ff7-126d9b5c3d13"},"vehicle_type_id":"4","last_reported":1737709791,"current_range_meters":33600,"station_id":"ce4bgs12rcd13ifvqcag","pricing_plan_id":"cebpf4jnsgd1na2vs0mg"},{"bike_id":"85c4b304-0a15-4fc1-b75d-cfc16b5afe60","system_id":"levelo_inurba_marseille","lat":43.229316,"lon":5.353869,"is_reserved":false,"is_disabled":false,"rental_uris":{"android":"levelo://app?vid=85c4b304-0a15-4fc1-b75d-cfc16b5afe60","ios":"levelo://app?vid=85c4b304-0a15-4fc1-b75d-cfc16b5afe60"},"vehicle_type_id":"4","last_reported":1737709791,"current_range_meters":38400,"station_id":"cpo3532slgdg3j2ikp40","pricing_plan_id":"cebpf4jnsgd1na2vs0mg"},{"bike_id":"2b9c0f13-1dd3-4779-9c6a-3f68333e7c09","system_id":"levelo_inurba_marseille","lat":43.2795,"lon":5.38669,"is_reserved":false,"is_disabled":false,"rental_uris":{"android":"levelo://app?vid=2b9c0f13-1dd3-4779-9c6a-3f68333e7c09","ios":"levelo://app?vid=2b9c0f13-1dd3-4779-9c6a-3f68333e7c09"},"vehicle_type_id":"4","last_reported":1737709791,"current_range_meters":4000,"station_id":"","pricing_plan_id":"cebpf4jnsgd1na2vs0mg"},{"bike_id":"f7f20ea8-ac89-40b3-bd17-c73f31722701","system_id":"levelo_inurba_marseille","lat":43.29895,"lon":5.4367,"is_reserved":false,"is_disabled":false,"rental_uris":{"android":"levelo://app?vid=f7f20ea8-ac89-40b3-bd17-c73f31722701","ios":"levelo://app?vid=f7f20ea8-ac89-40b3-bd17-c73f31722701"},"vehicle_type_id":"4","last_reported":1737709791,"current_range_meters":38800,"station_id":"ce4bhpp2rcd13ifvqhfg","pricing_plan_id":"cebpf4jnsgd1na2vs0mg"},{"bike_id":"fb1048b7-e565-4e07-b82a-5f5a5712ce1d","system_id":"levelo_inurba_marseille","lat":43.32103,"lon":5.36781,"is_reserved":false,"is_disabled":false,"rental_uris":{"android":"levelo://app?vid=fb1048b7-e565-4e07-b82a-5f5a5712ce1d","ios":"levelo://app?vid=fb1048b7-e565-4e07-b82a-5f5a5712ce1d"},"vehicle_type_id":"4","last_reported":1737709791,"current_range_meters":38400,"station_id":"ce4bhrh2rcd13ifvqhug","pricing_plan_id":"cebpf4jnsgd1na2vs0mg"},{"bike_id":"9399f45c-6cc4-4e81-8348-de9a24ee6a48","system_id":"levelo_inurba_marseille","lat":43.29224,"lon":5.36092,"is_reserved":false,"is_disabled":true,"rental_uris":{"android":"levelo://app?vid=9399f45c-6cc4-4e81-8348-de9a24ee6a48","ios":"levelo://app?vid=9399f45c-6cc4-4e81-8348-de9a24ee6a48"},"vehicle_type_id":"4","last_reported":1737709791,"current_range_meters":0,"station_id":"ce4bhbh2rcd13ifvqeqg","pricing_plan_id":"cebpf4jnsgd1na2vs0mg"},{"bike_id":"2aeb1fe7-2455-4a37-a484-bbbf324c7cf2","system_id":"levelo_inurba_marseille","lat":43.32102,"lon":5.36769,"is_reserved":false,"is_disabled":false,"rental_uris":{"android":"levelo://app?vid=2aeb1fe7-2455-4a37-a484-bbbf324c7cf2","ios":"levelo://app?vid=2aeb1fe7-2455-4a37-a484-bbbf324c7cf2"},"vehicle_type_id":"4","last_reported":1737709791,"current_range_meters":8000,"station_id":"ce4bhrh2rcd13ifvqhug","pricing_plan_id":"cebpf4jnsgd1na2vs0mg"},{"bike_id":"328db5a7-81ca-4512-9a66-fc91e9d79237","system_id":"levelo_inurba_marseille","lat":43.30593,"lon":5.39368,"is_reserved":false,"is_disabled":false,"rental_uris":{"android":"levelo://app?vid=328db5a7-81ca-4512-9a66-fc91e9d79237","ios":"levelo://app?vid=328db5a7-81ca-4512-9a66-fc91e9d79237"},"vehicle_type_id":"4","last_reported":1737709791,"current_range_meters":28800,"station_id":"ce4bh0p2rcd13ifvqd80","pricing_plan_id":"cebpf4jnsgd1na2vs0mg"},{"bike_id":"5cbeeb31-e0c7-4911-9873-3974a5f601e5","system_id":"levelo_inurba_marseille","lat":43.27484,"lon":5.42457,"is_reserved":false,"is_disabled":false,"rental_uris":{"android":"levelo://app?vid=5cbeeb31-e0c7-4911-9873-3974a5f601e5","ios":"levelo://app?vid=5cbeeb31-e0c7-4911-9873-3974a5f601e5"},"vehicle_type_id":"4","last_reported":1737709791,"current_range_meters":36800,"station_id":"ce4bhn92rcd13ifvqgrg","pricing_plan_id":"cebpf4jnsgd1na2vs0mg"},{"bike_id":"c37c4b24-f915-4b08-854a-5e47a3975bb7","system_id":"levelo_inurba_marseille","lat":43.30141,"lon":5.37416,"is_reserved":false,"is_disabled":false,"rental_uris":{"android":"levelo://app?vid=c37c4b24-f915-4b08-854a-5e47a3975bb7","ios":"levelo://app?vid=c37c4b24-f915-4b08-854a-5e47a3975bb7"},"vehicle_type_id":"4","last_reported":1737709791,"current_range_meters":20800,"station_id":"ce4bgs92rcd13ifvqcc0","pricing_plan_id":"cebpf4jnsgd1na2vs0mg"},{"bike_id":"4b419281-a02b-4271-a3fe-274821949ca8","system_id":"levelo_inurba_marseille","lat":43.30907,"lon":5.3685,"is_reserved":false,"is_disabled":false,"rental_uris":{"android":"levelo://app?vid=4b419281-a02b-4271-a3fe-274821949ca8","ios":"levelo://app?vid=4b419281-a02b-4271-a3fe-274821949ca8"},"vehicle_type_id":"4","last_reported":1737709791,"current_range_meters":20000,"station_id":"ce4bgn92rcd13ifvqbvg","pricing_plan_id":"cebpf4jnsgd1na2vs0mg"},{"bike_id":"3e40302e-344f-404b-ba1e-ee841ffe8e36","system_id":"levelo_inurba_marseille","lat":43.30449,"lon":5.379,"is_reserved":false,"is_disabled":false,"rental_uris":{"android":"levelo://app?vid=3e40302e-344f-404b-ba1e-ee841ffe8e36","ios":"levelo://app?vid=3e40302e-344f-404b-ba1e-ee841ffe8e36"},"vehicle_type_id":"4","last_reported":1737709791,"current_range_meters":22000,"station_id":"ce4bgup2rcd13ifvqcn0","pricing_plan_id":"cebpf4jnsgd1na2vs0mg"},{"bike_id":"7a55f28a-5a5b-4ca4-9825-dee123c17d08","system_id":"levelo_inurba_marseille","lat":43.32108,"lon":5.36796,"is_reserved":false,"is_disabled":false,"rental_uris":{"android":"levelo://app?vid=7a55f28a-5a5b-4ca4-9825-dee123c17d08","ios":"levelo://app?vid=7a55f28a-5a5b-4ca4-9825-dee123c17d08"},"vehicle_type_id":"4","last_reported":1737709791,"current_range_meters":37600,"station_id":"ce4bhrh2rcd13ifvqhug","pricing_plan_id":"cebpf4jnsgd1na2vs0mg"},{"bike_id":"5b60a1f3-5775-4102-92d1-064456db193a","system_id":"levelo_inurba_marseille","lat":43.26947,"lon":5.38628,"is_reserved":false,"is_disabled":false,"rental_uris":{"android":"levelo://app?vid=5b60a1f3-5775-4102-92d1-064456db193a","ios":"levelo://app?vid=5b60a1f3-5775-4102-92d1-064456db193a"},"vehicle_type_id":"4","last_reported":1737709791,"current_range_meters":26000,"station_id":"ce4bhh92rcd13ifvqfh0","pricing_plan_id":"cebpf4jnsgd1na2vs0mg"},{"bike_id":"2c72ddc9-4bf2-4cb8-9c2c-5945add2cd9a","system_id":"levelo_inurba_marseille","lat":43.31354,"lon":5.36716,"is_reserved":false,"is_disabled":false,"rental_uris":{"android":"levelo://app?vid=2c72ddc9-4bf2-4cb8-9c2c-5945add2cd9a","ios":"levelo://app?vid=2c72ddc9-4bf2-4cb8-9c2c-5945add2cd9a"},"vehicle_type_id":"4","last_reported":1737709791,"current_range_meters":30400,"station_id":"ce4bgr92rcd13ifvqc6g","pricing_plan_id":"cebpf4jnsgd1na2vs0mg"},{"bike_id":"7ae57d4a-987c-4a94-bf67-7089b41c8d83","system_id":"levelo_inurba_marseille","lat":43.27615,"lon":5.36105,"is_reserved":false,"is_disabled":false,"rental_uris":{"android":"levelo://app?vid=7ae57d4a-987c-4a94-bf67-7089b41c8d83","ios":"levelo://app?vid=7ae57d4a-987c-4a94-bf67-7089b41c8d83"},"vehicle_type_id":"4","last_reported":1737709791,"current_range_meters":38400,"station_id":"ce4bgj92rcd13ifvqbe0","pricing_plan_id":"cebpf4jnsgd1na2vs0mg"},{"bike_id":"bf6bd9f7-0228-4238-a949-59464d96c547","system_id":"levelo_inurba_marseille","lat":43.30904,"lon":5.36839,"is_reserved":false,"is_disabled":false,"rental_uris":{"android":"levelo://app?vid=bf6bd9f7-0228-4238-a949-59464d96c547","ios":"levelo://app?vid=bf6bd9f7-0228-4238-a949-59464d96c547"},"vehicle_type_id":"4","last_reported":1737709791,"current_range_meters":38800,"station_id":"ce4bgn92rcd13ifvqbvg","pricing_plan_id":"cebpf4jnsgd1na2vs0mg"},{"bike_id":"14460ec0-8ab7-4599-bc0f-7184ba5cd83d","system_id":"levelo_inurba_marseille","lat":43.30461,"lon":5.37901,"is_reserved":false,"is_disabled":false,"rental_uris":{"android":"levelo://app?vid=14460ec0-8ab7-4599-bc0f-7184ba5cd83d","ios":"levelo://app?vid=14460ec0-8ab7-4599-bc0f-7184ba5cd83d"},"vehicle_type_id":"4","last_reported":1737709791,"current_range_meters":20800,"station_id":"ce4bgup2rcd13ifvqcn0","pricing_plan_id":"cebpf4jnsgd1na2vs0mg"},{"bike_id":"a9d5e1db-41a7-4c05-bdc9-54e576288f5a","system_id":"levelo_inurba_marseille","lat":43.30955,"lon":5.39083,"is_reserved":false,"is_disabled":false,"rental_uris":{"android":"levelo://app?vid=a9d5e1db-41a7-4c05-bdc9-54e576288f5a","ios":"levelo://app?vid=a9d5e1db-41a7-4c05-bdc9-54e576288f5a"},"vehicle_type_id":"4","last_reported":1737709791,"current_range_meters":39200,"station_id":"ce4bgup2rcd13ifvqco0","pricing_plan_id":"cebpf4jnsgd1na2vs0mg"},{"bike_id":"df8b68b0-a61c-401e-bc1c-616ed6cec7e0","system_id":"levelo_inurba_marseille","lat":43.26942,"lon":5.38655,"is_reserved":false,"is_disabled":true,"rental_uris":{"android":"levelo://app?vid=df8b68b0-a61c-401e-bc1c-616ed6cec7e0","ios":"levelo://app?vid=df8b68b0-a61c-401e-bc1c-616ed6cec7e0"},"vehicle_type_id":"4","last_reported":1737709791,"current_range_meters":38800,"station_id":"ce4bhh92rcd13ifvqfh0","pricing_plan_id":"cebpf4jnsgd1na2vs0mg"},{"bike_id":"35614ed7-a0df-4792-bca2-a1978fcd9fab","system_id":"levelo_inurba_marseille","lat":43.307984,"lon":5.435284,"is_reserved":false,"is_disabled":false,"rental_uris":{"android":"levelo://app?vid=35614ed7-a0df-4792-bca2-a1978fcd9fab","ios":"levelo://app?vid=35614ed7-a0df-4792-bca2-a1978fcd9fab"},"vehicle_type_id":"4","last_reported":1737709791,"current_range_meters":38400,"station_id":"ce4bhph2rcd13ifvqheg","pricing_plan_id":"cebpf4jnsgd1na2vs0mg"},{"bike_id":"c2b1d898-8d95-4b49-b324-a24f4f18a4a0","system_id":"levelo_inurba_marseille","lat":43.32532,"lon":5.41481,"is_reserved":false,"is_disabled":false,"rental_uris":{"android":"levelo://app?vid=c2b1d898-8d95-4b49-b324-a24f4f18a4a0","ios":"levelo://app?vid=c2b1d898-8d95-4b49-b324-a24f4f18a4a0"},"vehicle_type_id":"4","last_reported":1737709791,"current_range_meters":36800,"station_id":"ce4bhq12rcd13ifvqhhg","pricing_plan_id":"cebpf4jnsgd1na2vs0mg"},{"bike_id":"28c8c0d8-4bb2-40c7-97a3-48d0cd1d316d","system_id":"levelo_inurba_marseille","lat":43.26668,"lon":5.38235,"is_reserved":false,"is_disabled":true,"rental_uris":{"android":"levelo://app?vid=28c8c0d8-4bb2-40c7-97a3-48d0cd1d316d","ios":"levelo://app?vid=28c8c0d8-4bb2-40c7-97a3-48d0cd1d316d"},"vehicle_type_id":"4","last_reported":1737709791,"current_range_meters":0,"station_id":"ce4bhg92rcd13ifvqf90","pricing_plan_id":"cebpf4jnsgd1na2vs0mg"},{"bike_id":"8661b5e3-5c50-41b5-9990-f6cea7332865","system_id":"levelo_inurba_marseille","lat":43.29184,"lon":5.35797,"is_reserved":false,"is_disabled":false,"rental_uris":{"android":"levelo://app?vid=8661b5e3-5c50-41b5-9990-f6cea7332865","ios":"levelo://app?vid=8661b5e3-5c50-41b5-9990-f6cea7332865"},"vehicle_type_id":"4","last_reported":1737709791,"current_range_meters":37600,"station_id":"ce4bhb12rcd13ifvqel0","pricing_plan_id":"cebpf4jnsgd1na2vs0mg"},{"bike_id":"165dfcb7-3c6f-4306-af4c-0f90d59fd5a9","system_id":"levelo_inurba_marseille","lat":43.29292,"lon":5.37449,"is_reserved":false,"is_disabled":false,"rental_uris":{"android":"levelo://app?vid=165dfcb7-3c6f-4306-af4c-0f90d59fd5a9","ios":"levelo://app?vid=165dfcb7-3c6f-4306-af4c-0f90d59fd5a9"},"vehicle_type_id":"4","last_reported":1737709791,"current_range_meters":27200,"station_id":"ce4bgi12rcd13ifvqb70","pricing_plan_id":"cebpf4jnsgd1na2vs0mg"},{"bike_id":"bf49bae2-9c26-4641-9558-b17e1f3df312","system_id":"levelo_inurba_marseille","lat":43.23182,"lon":5.39996,"is_reserved":false,"is_disabled":false,"rental_uris":{"android":"levelo://app?vid=bf49bae2-9c26-4641-9558-b17e1f3df312","ios":"levelo://app?vid=bf49bae2-9c26-4641-9558-b17e1f3df312"},"vehicle_type_id":"4","last_reported":1737709791,"current_range_meters":38000,"station_id":"ce4bhn12rcd13ifvqgqg","pricing_plan_id":"cebpf4jnsgd1na2vs0mg"},{"bike_id":"51f092b8-b7f4-4a0c-adcf-40af6cc2c85e","system_id":"levelo_inurba_marseille","lat":43.2594,"lon":5.40903,"is_reserved":false,"is_disabled":false,"rental_uris":{"android":"levelo://app?vid=51f092b8-b7f4-4a0c-adcf-40af6cc2c85e","ios":"levelo://app?vid=51f092b8-b7f4-4a0c-adcf-40af6cc2c85e"},"vehicle_type_id":"4","last_reported":1737709791,"current_range_meters":38800,"station_id":"ce4bhm92rcd13ifvqglg","pricing_plan_id":"cebpf4jnsgd1na2vs0mg"},{"bike_id":"12c5ac8e-919d-454f-85fc-cf7404dddae7","system_id":"levelo_inurba_marseille","lat":43.29564,"lon":5.37511,"is_reserved":false,"is_disabled":false,"rental_uris":{"android":"levelo://app?vid=12c5ac8e-919d-454f-85fc-cf7404dddae7","ios":"levelo://app?vid=12c5ac8e-919d-454f-85fc-cf7404dddae7"},"vehicle_type_id":"4","last_reported":1737709791,"current_range_meters":30800,"station_id":"ce4bgh92rcd13ifvqb50","pricing_plan_id":"cebpf4jnsgd1na2vs0mg"},{"bike_id":"8189d985-ab91-4ff1-bb9d-2f862a50adc2","system_id":"levelo_inurba_marseille","lat":43.31703,"lon":5.40451,"is_reserved":false,"is_disabled":false,"rental_uris":{"android":"levelo://app?vid=8189d985-ab91-4ff1-bb9d-2f862a50adc2","ios":"levelo://app?vid=8189d985-ab91-4ff1-bb9d-2f862a50adc2"},"vehicle_type_id":"4","last_reported":1737709791,"current_range_meters":28000,"station_id":"ce4bh012rcd13ifvqd00","pricing_plan_id":"cebpf4jnsgd1na2vs0mg"},{"bike_id":"e5e4df67-dd0f-4661-9c3e-b4021a64b458","system_id":"levelo_inurba_marseille","lat":43.26945,"lon":5.38651,"is_reserved":false,"is_disabled":false,"rental_uris":{"android":"levelo://app?vid=e5e4df67-dd0f-4661-9c3e-b4021a64b458","ios":"levelo://app?vid=e5e4df67-dd0f-4661-9c3e-b4021a64b458"},"vehicle_type_id":"4","last_reported":1737709791,"current_range_meters":18800,"station_id":"ce4bhh92rcd13ifvqfh0","pricing_plan_id":"cebpf4jnsgd1na2vs0mg"},{"bike_id":"f7852742-3e4a-4e8d-a086-6b6a0282c38c","system_id":"levelo_inurba_marseille","lat":43.30483,"lon":5.3791,"is_reserved":false,"is_disabled":false,"rental_uris":{"android":"levelo://app?vid=f7852742-3e4a-4e8d-a086-6b6a0282c38c","ios":"levelo://app?vid=f7852742-3e4a-4e8d-a086-6b6a0282c38c"},"vehicle_type_id":"4","last_reported":1737709791,"current_range_meters":30000,"station_id":"ce4bgup2rcd13ifvqcn0","pricing_plan_id":"cebpf4jnsgd1na2vs0mg"},{"bike_id":"f23f0288-a55c-4862-a419-072a2b3fb42e","system_id":"levelo_inurba_marseille","lat":43.3095,"lon":5.39053,"is_reserved":false,"is_disabled":false,"rental_uris":{"android":"levelo://app?vid=f23f0288-a55c-4862-a419-072a2b3fb42e","ios":"levelo://app?vid=f23f0288-a55c-4862-a419-072a2b3fb42e"},"vehicle_type_id":"4","last_reported":1737709791,"current_range_meters":39200,"station_id":"ce4bgup2rcd13ifvqco0","pricing_plan_id":"cebpf4jnsgd1na2vs0mg"},{"bike_id":"1b8ccaf0-78e9-49fc-a573-a55f5a6259f1","system_id":"levelo_inurba_marseille","lat":43.27492,"lon":5.42455,"is_reserved":false,"is_disabled":false,"rental_uris":{"android":"levelo://app?vid=1b8ccaf0-78e9-49fc-a573-a55f5a6259f1","ios":"levelo://app?vid=1b8ccaf0-78e9-49fc-a573-a55f5a6259f1"},"vehicle_type_id":"4","last_reported":1737709791,"current_range_meters":8800,"station_id":"ce4bhn92rcd13ifvqgrg","pricing_plan_id":"cebpf4jnsgd1na2vs0mg"},{"bike_id":"c54405f6-19ca-4898-9c27-b06f2510a17d","system_id":"levelo_inurba_marseille","lat":43.29228,"lon":5.36071,"is_reserved":false,"is_disabled":false,"rental_uris":{"android":"levelo://app?vid=c54405f6-19ca-4898-9c27-b06f2510a17d","ios":"levelo://app?vid=c54405f6-19ca-4898-9c27-b06f2510a17d"},"vehicle_type_id":"4","last_reported":1737709791,"current_range_meters":35600,"station_id":"ce4bhbh2rcd13ifvqeqg","pricing_plan_id":"cebpf4jnsgd1na2vs0mg"},{"bike_id":"96b757d9-bc3b-420b-be19-28e6baef3842","system_id":"levelo_inurba_marseille","lat":43.29576,"lon":5.36735,"is_reserved":false,"is_disabled":false,"rental_uris":{"android":"levelo://app?vid=96b757d9-bc3b-420b-be19-28e6baef3842","ios":"levelo://app?vid=96b757d9-bc3b-420b-be19-28e6baef3842"},"vehicle_type_id":"4","last_reported":1737709791,"current_range_meters":28800,"station_id":"ce4bgph2rcd13ifvqc2g","pricing_plan_id":"cebpf4jnsgd1na2vs0mg"},{"bike_id":"90562b19-8802-4e76-a682-f90dad6ec469","system_id":"levelo_inurba_marseille","lat":43.29534,"lon":5.38556,"is_reserved":false,"is_disabled":true,"rental_uris":{"android":"levelo://app?vid=90562b19-8802-4e76-a682-f90dad6ec469","ios":"levelo://app?vid=90562b19-8802-4e76-a682-f90dad6ec469"},"vehicle_type_id":"4","last_reported":1737709791,"current_range_meters":0,"station_id":"ce4bgih2rcd13ifvqba0","pricing_plan_id":"cebpf4jnsgd1na2vs0mg"},{"bike_id":"9863b7f9-4316-4322-9f6c-3cc66b0448e2","system_id":"levelo_inurba_marseille","lat":43.279439,"lon":5.389008,"is_reserved":false,"is_disabled":true,"rental_uris":{"android":"levelo://app?vid=9863b7f9-4316-4322-9f6c-3cc66b0448e2","ios":"levelo://app?vid=9863b7f9-4316-4322-9f6c-3cc66b0448e2"},"vehicle_type_id":"4","last_reported":1737709791,"current_range_meters":20800,"station_id":"","pricing_plan_id":"cebpf4jnsgd1na2vs0mg"},{"bike_id":"1386ed0f-e447-45ac-8369-d2f2f0b1821f","system_id":"levelo_inurba_marseille","lat":43.27974,"lon":5.38743,"is_reserved":false,"is_disabled":false,"rental_uris":{"android":"levelo://app?vid=1386ed0f-e447-45ac-8369-d2f2f0b1821f","ios":"levelo://app?vid=1386ed0f-e447-45ac-8369-d2f2f0b1821f"},"vehicle_type_id":"4","last_reported":1737709791,"current_range_meters":16400,"station_id":"ce4bhg12rcd13ifvqf80","pricing_plan_id":"cebpf4jnsgd1na2vs0mg"},{"bike_id":"52c76b33-891b-4417-9674-1dca51bf36cf","system_id":"levelo_inurba_marseille","lat":43.29846,"lon":5.36286,"is_reserved":false,"is_disabled":false,"rental_uris":{"android":"levelo://app?vid=52c76b33-891b-4417-9674-1dca51bf36cf","ios":"levelo://app?vid=52c76b33-891b-4417-9674-1dca51bf36cf"},"vehicle_type_id":"4","last_reported":1737709791,"current_range_meters":35200,"station_id":"ce4bgpp2rcd13ifvqc3g","pricing_plan_id":"cebpf4jnsgd1na2vs0mg"},{"bike_id":"ab927040-bfc3-4782-b1b3-ffbf9d71bc34","system_id":"levelo_inurba_marseille","lat":43.26687,"lon":5.38275,"is_reserved":false,"is_disabled":false,"rental_uris":{"android":"levelo://app?vid=ab927040-bfc3-4782-b1b3-ffbf9d71bc34","ios":"levelo://app?vid=ab927040-bfc3-4782-b1b3-ffbf9d71bc34"},"vehicle_type_id":"4","last_reported":1737709791,"current_range_meters":38000,"station_id":"ce4bhg92rcd13ifvqf90","pricing_plan_id":"cebpf4jnsgd1na2vs0mg"},{"bike_id":"9e2d13b9-d1b0-4762-93f4-a7dd29fa0c55","system_id":"levelo_inurba_marseille","lat":43.29221,"lon":5.36072,"is_reserved":false,"is_disabled":false,"rental_uris":{"android":"levelo://app?vid=9e2d13b9-d1b0-4762-93f4-a7dd29fa0c55","ios":"levelo://app?vid=9e2d13b9-d1b0-4762-93f4-a7dd29fa0c55"},"vehicle_type_id":"4","last_reported":1737709791,"current_range_meters":24000,"station_id":"ce4bhbh2rcd13ifvqeqg","pricing_plan_id":"cebpf4jnsgd1na2vs0mg"},{"bike_id":"e11d5e25-e272-47e7-bd8a-065bf108edeb","system_id":"levelo_inurba_marseille","lat":43.29251,"lon":5.38439,"is_reserved":false,"is_disabled":true,"rental_uris":{"android":"levelo://app?vid=e11d5e25-e272-47e7-bd8a-065bf108edeb","ios":"levelo://app?vid=e11d5e25-e272-47e7-bd8a-065bf108edeb"},"vehicle_type_id":"4","last_reported":1737709791,"current_range_meters":14800,"station_id":"ce4bh692rcd13ifvqea0","pricing_plan_id":"cebpf4jnsgd1na2vs0mg"},{"bike_id":"7e582224-ba3d-49aa-a8c0-1433b262d0a6","system_id":"levelo_inurba_marseille","lat":43.28476,"lon":5.38574,"is_reserved":false,"is_disabled":false,"rental_uris":{"android":"levelo://app?vid=7e582224-ba3d-49aa-a8c0-1433b262d0a6","ios":"levelo://app?vid=7e582224-ba3d-49aa-a8c0-1433b262d0a6"},"vehicle_type_id":"4","last_reported":1737709791,"current_range_meters":3600,"station_id":"ce4bh8p2rcd13ifvqeb0","pricing_plan_id":"cebpf4jnsgd1na2vs0mg"},{"bike_id":"eb82a4fa-b45d-4357-8410-47675bcbc568","system_id":"levelo_inurba_marseille","lat":43.29586,"lon":5.3674,"is_reserved":false,"is_disabled":false,"rental_uris":{"android":"levelo://app?vid=eb82a4fa-b45d-4357-8410-47675bcbc568","ios":"levelo://app?vid=eb82a4fa-b45d-4357-8410-47675bcbc568"},"vehicle_type_id":"4","last_reported":1737709791,"current_range_meters":35200,"station_id":"ce4bgph2rcd13ifvqc2g","pricing_plan_id":"cebpf4jnsgd1na2vs0mg"},{"bike_id":"fb96c333-d038-4b1c-9f7d-d3a5abfa6e1c","system_id":"levelo_inurba_marseille","lat":43.32481,"lon":5.36575,"is_reserved":false,"is_disabled":false,"rental_uris":{"android":"levelo://app?vid=fb96c333-d038-4b1c-9f7d-d3a5abfa6e1c","ios":"levelo://app?vid=fb96c333-d038-4b1c-9f7d-d3a5abfa6e1c"},"vehicle_type_id":"4","last_reported":1737709791,"current_range_meters":22400,"station_id":"ce4bhs12rcd13ifvqhvg","pricing_plan_id":"cebpf4jnsgd1na2vs0mg"},{"bike_id":"a3881af1-edcb-4e46-88ef-a22c71e2506d","system_id":"levelo_inurba_marseille","lat":43.29981,"lon":5.37192,"is_reserved":false,"is_disabled":true,"rental_uris":{"android":"levelo://app?vid=a3881af1-edcb-4e46-88ef-a22c71e2506d","ios":"levelo://app?vid=a3881af1-edcb-4e46-88ef-a22c71e2506d"},"vehicle_type_id":"4","last_reported":1737709791,"current_range_meters":0,"station_id":"ce4bgr92rcd13ifvqc7g","pricing_plan_id":"cebpf4jnsgd1na2vs0mg"},{"bike_id":"c400706d-11d8-4109-af7f-04e1a2259d9b","system_id":"levelo_inurba_marseille","lat":43.29892,"lon":5.43673,"is_reserved":false,"is_disabled":false,"rental_uris":{"android":"levelo://app?vid=c400706d-11d8-4109-af7f-04e1a2259d9b","ios":"levelo://app?vid=c400706d-11d8-4109-af7f-04e1a2259d9b"},"vehicle_type_id":"4","last_reported":1737709791,"current_range_meters":6800,"station_id":"ce4bhpp2rcd13ifvqhfg","pricing_plan_id":"cebpf4jnsgd1na2vs0mg"},{"bike_id":"9179cda8-0af8-4c5b-be99-549f8466b1c2","system_id":"levelo_inurba_marseille","lat":43.29248,"lon":5.38444,"is_reserved":false,"is_disabled":false,"rental_uris":{"android":"levelo://app?vid=9179cda8-0af8-4c5b-be99-549f8466b1c2","ios":"levelo://app?vid=9179cda8-0af8-4c5b-be99-549f8466b1c2"},"vehicle_type_id":"4","last_reported":1737709791,"current_range_meters":2800,"station_id":"ce4bh692rcd13ifvqea0","pricing_plan_id":"cebpf4jnsgd1na2vs0mg"},{"bike_id":"6772743b-7b81-4152-8d50-d1d5e215203b","system_id":"levelo_inurba_marseille","lat":43.29158,"lon":5.37168,"is_reserved":false,"is_disabled":false,"rental_uris":{"android":"levelo://app?vid=6772743b-7b81-4152-8d50-d1d5e215203b","ios":"levelo://app?vid=6772743b-7b81-4152-8d50-d1d5e215203b"},"vehicle_type_id":"4","last_reported":1737709791,"current_range_meters":36800,"station_id":"ce4bha92rcd13ifvqeh0","pricing_plan_id":"cebpf4jnsgd1na2vs0mg"},{"bike_id":"e65017eb-8f52-4183-a9ec-6e2784f34809","system_id":"levelo_inurba_marseille","lat":43.30489,"lon":5.37899,"is_reserved":false,"is_disabled":true,"rental_uris":{"android":"levelo://app?vid=e65017eb-8f52-4183-a9ec-6e2784f34809","ios":"levelo://app?vid=e65017eb-8f52-4183-a9ec-6e2784f34809"},"vehicle_type_id":"4","last_reported":1737709791,"current_range_meters":800,"station_id":"ce4bgup2rcd13ifvqcn0","pricing_plan_id":"cebpf4jnsgd1na2vs0mg"},{"bike_id":"c3ccfefb-c1f2-459b-aeea-f7492233dca7","system_id":"levelo_inurba_marseille","lat":43.25937,"lon":5.40901,"is_reserved":false,"is_disabled":false,"rental_uris":{"android":"levelo://app?vid=c3ccfefb-c1f2-459b-aeea-f7492233dca7","ios":"levelo://app?vid=c3ccfefb-c1f2-459b-aeea-f7492233dca7"},"vehicle_type_id":"4","last_reported":1737709791,"current_range_meters":36800,"station_id":"ce4bhm92rcd13ifvqglg","pricing_plan_id":"cebpf4jnsgd1na2vs0mg"},{"bike_id":"97f6a575-d7f1-4244-a895-8f4ff54fffa8","system_id":"levelo_inurba_marseille","lat":43.29727,"lon":5.37679,"is_reserved":false,"is_disabled":false,"rental_uris":{"android":"levelo://app?vid=97f6a575-d7f1-4244-a895-8f4ff54fffa8","ios":"levelo://app?vid=97f6a575-d7f1-4244-a895-8f4ff54fffa8"},"vehicle_type_id":"4","last_reported":1737709791,"current_range_meters":38800,"station_id":"ce4bgkh2rcd13ifvqbl0","pricing_plan_id":"cebpf4jnsgd1na2vs0mg"},{"bike_id":"7c78a755-c7f5-4f07-a96b-621451d47948","system_id":"levelo_inurba_marseille","lat":43.29898,"lon":5.43658,"is_reserved":false,"is_disabled":false,"rental_uris":{"android":"levelo://app?vid=7c78a755-c7f5-4f07-a96b-621451d47948","ios":"levelo://app?vid=7c78a755-c7f5-4f07-a96b-621451d47948"},"vehicle_type_id":"4","last_reported":1737709791,"current_range_meters":8400,"station_id":"ce4bhpp2rcd13ifvqhfg","pricing_plan_id":"cebpf4jnsgd1na2vs0mg"},{"bike_id":"929e1263-245f-492d-83ee-f9f1b1535256","system_id":"levelo_inurba_marseille","lat":43.30914,"lon":5.3723,"is_reserved":false,"is_disabled":false,"rental_uris":{"android":"levelo://app?vid=929e1263-245f-492d-83ee-f9f1b1535256","ios":"levelo://app?vid=929e1263-245f-492d-83ee-f9f1b1535256"},"vehicle_type_id":"4","last_reported":1737709791,"current_range_meters":22400,"station_id":"ce4bguh2rcd13ifvqckg","pricing_plan_id":"cebpf4jnsgd1na2vs0mg"},{"bike_id":"dd37f6b9-6262-45fa-8f49-512ebe1f5cb4","system_id":"levelo_inurba_marseille","lat":43.3136,"lon":5.38497,"is_reserved":false,"is_disabled":false,"rental_uris":{"android":"levelo://app?vid=dd37f6b9-6262-45fa-8f49-512ebe1f5cb4","ios":"levelo://app?vid=dd37f6b9-6262-45fa-8f49-512ebe1f5cb4"},"vehicle_type_id":"4","last_reported":1737709791,"current_range_meters":6800,"station_id":"ce4bgt92rcd13ifvqcf0","pricing_plan_id":"cebpf4jnsgd1na2vs0mg"},{"bike_id":"52e3375d-f2b1-471c-bdfe-8428c026fbdc","system_id":"levelo_inurba_marseille","lat":43.29263,"lon":5.38467,"is_reserved":false,"is_disabled":false,"rental_uris":{"android":"levelo://app?vid=52e3375d-f2b1-471c-bdfe-8428c026fbdc","ios":"levelo://app?vid=52e3375d-f2b1-471c-bdfe-8428c026fbdc"},"vehicle_type_id":"4","last_reported":1737709791,"current_range_meters":38800,"station_id":"ce4bh692rcd13ifvqea0","pricing_plan_id":"cebpf4jnsgd1na2vs0mg"},{"bike_id":"43d90015-f0e6-4feb-bd4a-baa3bb4469a5","system_id":"levelo_inurba_marseille","lat":43.27828,"lon":5.39205,"is_reserved":false,"is_disabled":false,"rental_uris":{"android":"levelo://app?vid=43d90015-f0e6-4feb-bd4a-baa3bb4469a5","ios":"levelo://app?vid=43d90015-f0e6-4feb-bd4a-baa3bb4469a5"},"vehicle_type_id":"4","last_reported":1737709791,"current_range_meters":8800,"station_id":"ce4bhjp2rcd13ifvqga0","pricing_plan_id":"cebpf4jnsgd1na2vs0mg"},{"bike_id":"46a2a8bc-9817-4dc6-833b-4a71727103e0","system_id":"levelo_inurba_marseille","lat":43.29044,"lon":5.40072,"is_reserved":false,"is_disabled":true,"rental_uris":{"android":"levelo://app?vid=46a2a8bc-9817-4dc6-833b-4a71727103e0","ios":"levelo://app?vid=46a2a8bc-9817-4dc6-833b-4a71727103e0"},"vehicle_type_id":"4","last_reported":1737709791,"current_range_meters":2000,"station_id":"","pricing_plan_id":"cebpf4jnsgd1na2vs0mg"},{"bike_id":"e04c4b31-ecb0-4b69-bf85-31c7466d3d2b","system_id":"levelo_inurba_marseille","lat":43.27487,"lon":5.42471,"is_reserved":false,"is_disabled":false,"rental_uris":{"android":"levelo://app?vid=e04c4b31-ecb0-4b69-bf85-31c7466d3d2b","ios":"levelo://app?vid=e04c4b31-ecb0-4b69-bf85-31c7466d3d2b"},"vehicle_type_id":"4","last_reported":1737709791,"current_range_meters":30800,"station_id":"ce4bhn92rcd13ifvqgrg","pricing_plan_id":"cebpf4jnsgd1na2vs0mg"},{"bike_id":"92ebb0c7-5af7-4a2e-9123-243848744d6d","system_id":"levelo_inurba_marseille","lat":43.27969,"lon":5.38742,"is_reserved":false,"is_disabled":false,"rental_uris":{"android":"levelo://app?vid=92ebb0c7-5af7-4a2e-9123-243848744d6d","ios":"levelo://app?vid=92ebb0c7-5af7-4a2e-9123-243848744d6d"},"vehicle_type_id":"4","last_reported":1737709791,"current_range_meters":21600,"station_id":"ce4bhg12rcd13ifvqf80","pricing_plan_id":"cebpf4jnsgd1na2vs0mg"},{"bike_id":"6de854a3-ffe1-46b6-96bf-9ffcedf72ce7","system_id":"levelo_inurba_marseille","lat":43.30461,"lon":5.37919,"is_reserved":false,"is_disabled":false,"rental_uris":{"android":"levelo://app?vid=6de854a3-ffe1-46b6-96bf-9ffcedf72ce7","ios":"levelo://app?vid=6de854a3-ffe1-46b6-96bf-9ffcedf72ce7"},"vehicle_type_id":"4","last_reported":1737709791,"current_range_meters":20800,"station_id":"ce4bgup2rcd13ifvqcn0","pricing_plan_id":"cebpf4jnsgd1na2vs0mg"},{"bike_id":"e834d110-9757-4aa5-8921-77cbfa7c7c6e","system_id":"levelo_inurba_marseille","lat":43.28556,"lon":5.39505,"is_reserved":false,"is_disabled":true,"rental_uris":{"android":"levelo://app?vid=e834d110-9757-4aa5-8921-77cbfa7c7c6e","ios":"levelo://app?vid=e834d110-9757-4aa5-8921-77cbfa7c7c6e"},"vehicle_type_id":"4","last_reported":1737709791,"current_range_meters":38800,"station_id":"ce4bh292rcd13ifvqdg0","pricing_plan_id":"cebpf4jnsgd1na2vs0mg"},{"bike_id":"4193fc48-384c-4cc7-8a16-5c5208672efb","system_id":"levelo_inurba_marseille","lat":43.24059,"lon":5.37767,"is_reserved":false,"is_disabled":false,"rental_uris":{"android":"levelo://app?vid=4193fc48-384c-4cc7-8a16-5c5208672efb","ios":"levelo://app?vid=4193fc48-384c-4cc7-8a16-5c5208672efb"},"vehicle_type_id":"4","last_reported":1737709791,"current_range_meters":24800,"station_id":"ce4bhnp2rcd13ifvqgvg","pricing_plan_id":"cebpf4jnsgd1na2vs0mg"},{"bike_id":"696d6de7-180b-4863-8ddf-07f6ac9c6466","system_id":"levelo_inurba_marseille","lat":43.2749,"lon":5.42474,"is_reserved":false,"is_disabled":false,"rental_uris":{"android":"levelo://app?vid=696d6de7-180b-4863-8ddf-07f6ac9c6466","ios":"levelo://app?vid=696d6de7-180b-4863-8ddf-07f6ac9c6466"},"vehicle_type_id":"4","last_reported":1737709791,"current_range_meters":28800,"station_id":"ce4bhn92rcd13ifvqgrg","pricing_plan_id":"cebpf4jnsgd1na2vs0mg"},{"bike_id":"cf2395c4-7f22-48ff-a002-b5925f09d3ba","system_id":"levelo_inurba_marseille","lat":43.30878,"lon":5.3679,"is_reserved":false,"is_disabled":false,"rental_uris":{"android":"levelo://app?vid=cf2395c4-7f22-48ff-a002-b5925f09d3ba","ios":"levelo://app?vid=cf2395c4-7f22-48ff-a002-b5925f09d3ba"},"vehicle_type_id":"4","last_reported":1737709791,"current_range_meters":38000,"station_id":"","pricing_plan_id":"cebpf4jnsgd1na2vs0mg"},{"bike_id":"a0d3f15e-35a4-4f0e-8fc0-33444df6e0f8","system_id":"levelo_inurba_marseille","lat":43.30142,"lon":5.37428,"is_reserved":false,"is_disabled":false,"rental_uris":{"android":"levelo://app?vid=a0d3f15e-35a4-4f0e-8fc0-33444df6e0f8","ios":"levelo://app?vid=a0d3f15e-35a4-4f0e-8fc0-33444df6e0f8"},"vehicle_type_id":"4","last_reported":1737709791,"current_range_meters":35600,"station_id":"ce4bgs92rcd13ifvqcc0","pricing_plan_id":"cebpf4jnsgd1na2vs0mg"},{"bike_id":"a19bb87f-808a-43bd-84f6-adf5b9c94050","system_id":"levelo_inurba_marseille","lat":43.24073,"lon":5.37766,"is_reserved":false,"is_disabled":false,"rental_uris":{"android":"levelo://app?vid=a19bb87f-808a-43bd-84f6-adf5b9c94050","ios":"levelo://app?vid=a19bb87f-808a-43bd-84f6-adf5b9c94050"},"vehicle_type_id":"4","last_reported":1737709791,"current_range_meters":4000,"station_id":"ce4bhnp2rcd13ifvqgvg","pricing_plan_id":"cebpf4jnsgd1na2vs0mg"},{"bike_id":"690de51c-c5a3-4f54-bfd3-61e961c6956e","system_id":"levelo_inurba_marseille","lat":43.29306,"lon":5.37466,"is_reserved":false,"is_disabled":false,"rental_uris":{"android":"levelo://app?vid=690de51c-c5a3-4f54-bfd3-61e961c6956e","ios":"levelo://app?vid=690de51c-c5a3-4f54-bfd3-61e961c6956e"},"vehicle_type_id":"4","last_reported":1737709791,"current_range_meters":34800,"station_id":"ce4bgi12rcd13ifvqb70","pricing_plan_id":"cebpf4jnsgd1na2vs0mg"},{"bike_id":"15548f16-cd11-466c-b26f-86f3647e0f94","system_id":"levelo_inurba_marseille","lat":43.23148,"lon":5.43719,"is_reserved":false,"is_disabled":false,"rental_uris":{"android":"levelo://app?vid=15548f16-cd11-466c-b26f-86f3647e0f94","ios":"levelo://app?vid=15548f16-cd11-466c-b26f-86f3647e0f94"},"vehicle_type_id":"4","last_reported":1737709791,"current_range_meters":12400,"station_id":"ce4bhmp2rcd13ifvqgog","pricing_plan_id":"cebpf4jnsgd1na2vs0mg"},{"bike_id":"bd28a8d1-43a3-411b-8e89-e91fc33f5dc5","system_id":"levelo_inurba_marseille","lat":43.25003,"lon":5.38945,"is_reserved":false,"is_disabled":false,"rental_uris":{"android":"levelo://app?vid=bd28a8d1-43a3-411b-8e89-e91fc33f5dc5","ios":"levelo://app?vid=bd28a8d1-43a3-411b-8e89-e91fc33f5dc5"},"vehicle_type_id":"4","last_reported":1737709791,"current_range_meters":30000,"station_id":"ce4bhgp2rcd13ifvqfd0","pricing_plan_id":"cebpf4jnsgd1na2vs0mg"},{"bike_id":"4065662d-885f-4acf-ae71-f2cd999fc11e","system_id":"levelo_inurba_marseille","lat":43.29301,"lon":5.37454,"is_reserved":false,"is_disabled":false,"rental_uris":{"android":"levelo://app?vid=4065662d-885f-4acf-ae71-f2cd999fc11e","ios":"levelo://app?vid=4065662d-885f-4acf-ae71-f2cd999fc11e"},"vehicle_type_id":"4","last_reported":1737709791,"current_range_meters":39200,"station_id":"ce4bgi12rcd13ifvqb70","pricing_plan_id":"cebpf4jnsgd1na2vs0mg"},{"bike_id":"51b693ec-6376-489f-b989-9f78de29a1f3","system_id":"levelo_inurba_marseille","lat":43.24169,"lon":5.36394,"is_reserved":false,"is_disabled":false,"rental_uris":{"android":"levelo://app?vid=51b693ec-6376-489f-b989-9f78de29a1f3","ios":"levelo://app?vid=51b693ec-6376-489f-b989-9f78de29a1f3"},"vehicle_type_id":"4","last_reported":1737709791,"current_range_meters":18800,"station_id":"cpo36qri1sfpv3e86is0","pricing_plan_id":"cebpf4jnsgd1na2vs0mg"},{"bike_id":"fa6415c6-150b-448b-9709-3aca739af766","system_id":"levelo_inurba_marseille","lat":43.3047,"lon":5.37913,"is_reserved":false,"is_disabled":false,"rental_uris":{"android":"levelo://app?vid=fa6415c6-150b-448b-9709-3aca739af766","ios":"levelo://app?vid=fa6415c6-150b-448b-9709-3aca739af766"},"vehicle_type_id":"4","last_reported":1737709791,"current_range_meters":35200,"station_id":"ce4bgup2rcd13ifvqcn0","pricing_plan_id":"cebpf4jnsgd1na2vs0mg"},{"bike_id":"de6fd782-7134-4e64-b9c3-cc2cfbe12552","system_id":"levelo_inurba_marseille","lat":43.31124,"lon":5.38837,"is_reserved":false,"is_disabled":false,"rental_uris":{"android":"levelo://app?vid=de6fd782-7134-4e64-b9c3-cc2cfbe12552","ios":"levelo://app?vid=de6fd782-7134-4e64-b9c3-cc2cfbe12552"},"vehicle_type_id":"4","last_reported":1737709791,"current_range_meters":33200,"station_id":"","pricing_plan_id":"cebpf4jnsgd1na2vs0mg"},{"bike_id":"13ff516e-16cf-4543-8540-9030b8b296b4","system_id":"levelo_inurba_marseille","lat":43.23189,"lon":5.35579,"is_reserved":false,"is_disabled":false,"rental_uris":{"android":"levelo://app?vid=13ff516e-16cf-4543-8540-9030b8b296b4","ios":"levelo://app?vid=13ff516e-16cf-4543-8540-9030b8b296b4"},"vehicle_type_id":"4","last_reported":1737709791,"current_range_meters":26000,"station_id":"ce4bhu92rcd13ifvqi70","pricing_plan_id":"cebpf4jnsgd1na2vs0mg"},{"bike_id":"38f1bf28-96e2-4929-83f0-f14ae15b6051","system_id":"levelo_inurba_marseille","lat":43.31074,"lon":5.42451,"is_reserved":false,"is_disabled":false,"rental_uris":{"android":"levelo://app?vid=38f1bf28-96e2-4929-83f0-f14ae15b6051","ios":"levelo://app?vid=38f1bf28-96e2-4929-83f0-f14ae15b6051"},"vehicle_type_id":"4","last_reported":1737709791,"current_range_meters":5600,"station_id":"ce4bhp92rcd13ifvqhag","pricing_plan_id":"cebpf4jnsgd1na2vs0mg"},{"bike_id":"492c07dc-b7d3-4558-a649-9d7e1f899b97","system_id":"levelo_inurba_marseille","lat":43.24079,"lon":5.37739,"is_reserved":false,"is_disabled":false,"rental_uris":{"android":"levelo://app?vid=492c07dc-b7d3-4558-a649-9d7e1f899b97","ios":"levelo://app?vid=492c07dc-b7d3-4558-a649-9d7e1f899b97"},"vehicle_type_id":"4","last_reported":1737709791,"current_range_meters":25600,"station_id":"ce4bhnp2rcd13ifvqgvg","pricing_plan_id":"cebpf4jnsgd1na2vs0mg"},{"bike_id":"7d7398a8-7c71-4d45-bd72-1d46447c6082","system_id":"levelo_inurba_marseille","lat":43.2695,"lon":5.38629,"is_reserved":false,"is_disabled":false,"rental_uris":{"android":"levelo://app?vid=7d7398a8-7c71-4d45-bd72-1d46447c6082","ios":"levelo://app?vid=7d7398a8-7c71-4d45-bd72-1d46447c6082"},"vehicle_type_id":"4","last_reported":1737709791,"current_range_meters":30400,"station_id":"ce4bhh92rcd13ifvqfh0","pricing_plan_id":"cebpf4jnsgd1na2vs0mg"},{"bike_id":"8a151ccc-edf6-40ab-a6a3-42b4ac96f698","system_id":"levelo_inurba_marseille","lat":43.28275,"lon":5.35091,"is_reserved":false,"is_disabled":true,"rental_uris":{"android":"levelo://app?vid=8a151ccc-edf6-40ab-a6a3-42b4ac96f698","ios":"levelo://app?vid=8a151ccc-edf6-40ab-a6a3-42b4ac96f698"},"vehicle_type_id":"4","last_reported":1737709791,"current_range_meters":24400,"station_id":"ce4bhbp2rcd13ifvqerg","pricing_plan_id":"cebpf4jnsgd1na2vs0mg"},{"bike_id":"5971ad5e-a484-4d3d-bdf2-2b149d5328ab","system_id":"levelo_inurba_marseille","lat":43.29031,"lon":5.39976,"is_reserved":false,"is_disabled":false,"rental_uris":{"android":"levelo://app?vid=5971ad5e-a484-4d3d-bdf2-2b149d5328ab","ios":"levelo://app?vid=5971ad5e-a484-4d3d-bdf2-2b149d5328ab"},"vehicle_type_id":"4","last_reported":1737709791,"current_range_meters":39200,"station_id":"ce4bh392rcd13ifvqdm0","pricing_plan_id":"cebpf4jnsgd1na2vs0mg"},{"bike_id":"7f0b73c5-af9a-4c10-9ae6-a4a4e527bef1","system_id":"levelo_inurba_marseille","lat":43.25576,"lon":5.38259,"is_reserved":false,"is_disabled":false,"rental_uris":{"android":"levelo://app?vid=7f0b73c5-af9a-4c10-9ae6-a4a4e527bef1","ios":"levelo://app?vid=7f0b73c5-af9a-4c10-9ae6-a4a4e527bef1"},"vehicle_type_id":"4","last_reported":1737709791,"current_range_meters":26800,"station_id":"ce4bhih2rcd13ifvqfs0","pricing_plan_id":"cebpf4jnsgd1na2vs0mg"},{"bike_id":"d793b4cd-3d60-4b4b-8463-8a0e0497ff20","system_id":"levelo_inurba_marseille","lat":43.31076,"lon":5.42441,"is_reserved":false,"is_disabled":false,"rental_uris":{"android":"levelo://app?vid=d793b4cd-3d60-4b4b-8463-8a0e0497ff20","ios":"levelo://app?vid=d793b4cd-3d60-4b4b-8463-8a0e0497ff20"},"vehicle_type_id":"4","last_reported":1737709791,"current_range_meters":12000,"station_id":"ce4bhp92rcd13ifvqhag","pricing_plan_id":"cebpf4jnsgd1na2vs0mg"},{"bike_id":"c07ffe20-21f2-4b01-b153-b7e93fc6ba8d","system_id":"levelo_inurba_marseille","lat":43.31725,"lon":5.42394,"is_reserved":false,"is_disabled":true,"rental_uris":{"android":"levelo://app?vid=c07ffe20-21f2-4b01-b153-b7e93fc6ba8d","ios":"levelo://app?vid=c07ffe20-21f2-4b01-b153-b7e93fc6ba8d"},"vehicle_type_id":"4","last_reported":1737709791,"current_range_meters":2000,"station_id":"ce4bhp92rcd13ifvqhbg","pricing_plan_id":"cebpf4jnsgd1na2vs0mg"},{"bike_id":"7880d35a-ca2d-4408-af94-eba780a63108","system_id":"levelo_inurba_marseille","lat":43.2794,"lon":5.41049,"is_reserved":false,"is_disabled":false,"rental_uris":{"android":"levelo://app?vid=7880d35a-ca2d-4408-af94-eba780a63108","ios":"levelo://app?vid=7880d35a-ca2d-4408-af94-eba780a63108"},"vehicle_type_id":"4","last_reported":1737709791,"current_range_meters":17200,"station_id":"ce4bhnp2rcd13ifvqh0g","pricing_plan_id":"cebpf4jnsgd1na2vs0mg"},{"bike_id":"0b8a5dea-f7ae-4594-9efe-761d02ed2427","system_id":"levelo_inurba_marseille","lat":43.29567,"lon":5.37515,"is_reserved":false,"is_disabled":false,"rental_uris":{"android":"levelo://app?vid=0b8a5dea-f7ae-4594-9efe-761d02ed2427","ios":"levelo://app?vid=0b8a5dea-f7ae-4594-9efe-761d02ed2427"},"vehicle_type_id":"4","last_reported":1737709791,"current_range_meters":38800,"station_id":"ce4bgh92rcd13ifvqb50","pricing_plan_id":"cebpf4jnsgd1na2vs0mg"},{"bike_id":"50a77586-14ce-482c-8c10-f31af62a7f74","system_id":"levelo_inurba_marseille","lat":43.30313,"lon":5.36903,"is_reserved":false,"is_disabled":false,"rental_uris":{"android":"levelo://app?vid=50a77586-14ce-482c-8c10-f31af62a7f74","ios":"levelo://app?vid=50a77586-14ce-482c-8c10-f31af62a7f74"},"vehicle_type_id":"4","last_reported":1737709791,"current_range_meters":37600,"station_id":"ce4bgqh2rcd13ifvqc5g","pricing_plan_id":"cebpf4jnsgd1na2vs0mg"},{"bike_id":"e85fdea4-de8c-4edb-add2-5b90dafa9008","system_id":"levelo_inurba_marseille","lat":43.34139,"lon":5.40907,"is_reserved":false,"is_disabled":false,"rental_uris":{"android":"levelo://app?vid=e85fdea4-de8c-4edb-add2-5b90dafa9008","ios":"levelo://app?vid=e85fdea4-de8c-4edb-add2-5b90dafa9008"},"vehicle_type_id":"4","last_reported":1737709791,"current_range_meters":14800,"station_id":"ce4bhqh2rcd13ifvqhlg","pricing_plan_id":"cebpf4jnsgd1na2vs0mg"},{"bike_id":"126d0a8d-2cf5-4b94-8d01-2b3876b3297a","system_id":"levelo_inurba_marseille","lat":43.31247,"lon":5.3687,"is_reserved":false,"is_disabled":false,"rental_uris":{"android":"levelo://app?vid=126d0a8d-2cf5-4b94-8d01-2b3876b3297a","ios":"levelo://app?vid=126d0a8d-2cf5-4b94-8d01-2b3876b3297a"},"vehicle_type_id":"4","last_reported":1737709791,"current_range_meters":38800,"station_id":"ce4bgl92rcd13ifvqbq0","pricing_plan_id":"cebpf4jnsgd1na2vs0mg"},{"bike_id":"7395b426-ae3f-4aae-a5ed-080fecf1fa10","system_id":"levelo_inurba_marseille","lat":43.2784,"lon":5.39216,"is_reserved":false,"is_disabled":false,"rental_uris":{"android":"levelo://app?vid=7395b426-ae3f-4aae-a5ed-080fecf1fa10","ios":"levelo://app?vid=7395b426-ae3f-4aae-a5ed-080fecf1fa10"},"vehicle_type_id":"4","last_reported":1737709791,"current_range_meters":3600,"station_id":"ce4bhjp2rcd13ifvqga0","pricing_plan_id":"cebpf4jnsgd1na2vs0mg"},{"bike_id":"5e97af20-8afc-41e0-9f59-c3eb3474cd31","system_id":"levelo_inurba_marseille","lat":43.29041,"lon":5.39923,"is_reserved":false,"is_disabled":false,"rental_uris":{"android":"levelo://app?vid=5e97af20-8afc-41e0-9f59-c3eb3474cd31","ios":"levelo://app?vid=5e97af20-8afc-41e0-9f59-c3eb3474cd31"},"vehicle_type_id":"4","last_reported":1737709791,"current_range_meters":38800,"station_id":"ce4bh392rcd13ifvqdm0","pricing_plan_id":"cebpf4jnsgd1na2vs0mg"},{"bike_id":"421d447e-f137-48f8-b50a-3cef6ba73d00","system_id":"levelo_inurba_marseille","lat":43.32341,"lon":5.36755,"is_reserved":false,"is_disabled":false,"rental_uris":{"android":"levelo://app?vid=421d447e-f137-48f8-b50a-3cef6ba73d00","ios":"levelo://app?vid=421d447e-f137-48f8-b50a-3cef6ba73d00"},"vehicle_type_id":"4","last_reported":1737709791,"current_range_meters":10000,"station_id":"ce4bhsh2rcd13ifvqi2g","pricing_plan_id":"cebpf4jnsgd1na2vs0mg"},{"bike_id":"bfb2c12e-7516-4980-94ad-c5a449b43f74","system_id":"levelo_inurba_marseille","lat":43.26026,"lon":5.37549,"is_reserved":false,"is_disabled":false,"rental_uris":{"android":"levelo://app?vid=bfb2c12e-7516-4980-94ad-c5a449b43f74","ios":"levelo://app?vid=bfb2c12e-7516-4980-94ad-c5a449b43f74"},"vehicle_type_id":"4","last_reported":1737709791,"current_range_meters":16400,"station_id":"ce4bhgh2rcd13ifvqfa0","pricing_plan_id":"cebpf4jnsgd1na2vs0mg"},{"bike_id":"f38f63fd-8f6f-4b91-9c49-8b65f256ffe9","system_id":"levelo_inurba_marseille","lat":43.29861,"lon":5.36262,"is_reserved":false,"is_disabled":false,"rental_uris":{"android":"levelo://app?vid=f38f63fd-8f6f-4b91-9c49-8b65f256ffe9","ios":"levelo://app?vid=f38f63fd-8f6f-4b91-9c49-8b65f256ffe9"},"vehicle_type_id":"4","last_reported":1737709791,"current_range_meters":36800,"station_id":"ce4bgpp2rcd13ifvqc3g","pricing_plan_id":"cebpf4jnsgd1na2vs0mg"},{"bike_id":"75495e7c-20bd-4569-84c6-35df34ab244d","system_id":"levelo_inurba_marseille","lat":43.29894,"lon":5.43679,"is_reserved":false,"is_disabled":true,"rental_uris":{"android":"levelo://app?vid=75495e7c-20bd-4569-84c6-35df34ab244d","ios":"levelo://app?vid=75495e7c-20bd-4569-84c6-35df34ab244d"},"vehicle_type_id":"4","last_reported":1737709791,"current_range_meters":0,"station_id":"ce4bhpp2rcd13ifvqhfg","pricing_plan_id":"cebpf4jnsgd1na2vs0mg"},{"bike_id":"02db2a21-4ac1-4df6-b318-a872f6f69430","system_id":"levelo_inurba_marseille","lat":43.29377,"lon":5.37856,"is_reserved":false,"is_disabled":false,"rental_uris":{"android":"levelo://app?vid=02db2a21-4ac1-4df6-b318-a872f6f69430","ios":"levelo://app?vid=02db2a21-4ac1-4df6-b318-a872f6f69430"},"vehicle_type_id":"4","last_reported":1737709791,"current_range_meters":39200,"station_id":"ce4bgjh2rcd13ifvqbf0","pricing_plan_id":"cebpf4jnsgd1na2vs0mg"},{"bike_id":"f78fd4fb-8ee7-4083-a40b-c012f8f853b8","system_id":"levelo_inurba_marseille","lat":43.33722,"lon":5.39205,"is_reserved":false,"is_disabled":false,"rental_uris":{"android":"levelo://app?vid=f78fd4fb-8ee7-4083-a40b-c012f8f853b8","ios":"levelo://app?vid=f78fd4fb-8ee7-4083-a40b-c012f8f853b8"},"vehicle_type_id":"4","last_reported":1737709791,"current_range_meters":38000,"station_id":"ce4bhr92rcd13ifvqhsg","pricing_plan_id":"cebpf4jnsgd1na2vs0mg"},{"bike_id":"2693e099-578a-4462-b03c-cb6a658dc0f3","system_id":"levelo_inurba_marseille","lat":43.29886,"lon":5.43658,"is_reserved":false,"is_disabled":false,"rental_uris":{"android":"levelo://app?vid=2693e099-578a-4462-b03c-cb6a658dc0f3","ios":"levelo://app?vid=2693e099-578a-4462-b03c-cb6a658dc0f3"},"vehicle_type_id":"4","last_reported":1737709791,"current_range_meters":38800,"station_id":"ce4bhpp2rcd13ifvqhfg","pricing_plan_id":"cebpf4jnsgd1na2vs0mg"},{"bike_id":"f15a3926-03ea-4c4b-9f1b-6e7324acfe94","system_id":"levelo_inurba_marseille","lat":43.29523,"lon":5.37464,"is_reserved":false,"is_disabled":true,"rental_uris":{"android":"levelo://app?vid=f15a3926-03ea-4c4b-9f1b-6e7324acfe94","ios":"levelo://app?vid=f15a3926-03ea-4c4b-9f1b-6e7324acfe94"},"vehicle_type_id":"4","last_reported":1737709791,"current_range_meters":7200,"station_id":"ce4bgkp2rcd13ifvqbmg","pricing_plan_id":"cebpf4jnsgd1na2vs0mg"},{"bike_id":"699b6387-ff7d-4935-a6d8-a8b530735722","system_id":"levelo_inurba_marseille","lat":43.28925,"lon":5.36383,"is_reserved":false,"is_disabled":true,"rental_uris":{"android":"levelo://app?vid=699b6387-ff7d-4935-a6d8-a8b530735722","ios":"levelo://app?vid=699b6387-ff7d-4935-a6d8-a8b530735722"},"vehicle_type_id":"4","last_reported":1737709791,"current_range_meters":19600,"station_id":"ce4bhc92rcd13ifvqetg","pricing_plan_id":"cebpf4jnsgd1na2vs0mg"},{"bike_id":"660d0dee-67f8-4389-a4c0-cb619c6acd7a","system_id":"levelo_inurba_marseille","lat":43.30464,"lon":5.37912,"is_reserved":false,"is_disabled":false,"rental_uris":{"android":"levelo://app?vid=660d0dee-67f8-4389-a4c0-cb619c6acd7a","ios":"levelo://app?vid=660d0dee-67f8-4389-a4c0-cb619c6acd7a"},"vehicle_type_id":"4","last_reported":1737709791,"current_range_meters":38800,"station_id":"ce4bgup2rcd13ifvqcn0","pricing_plan_id":"cebpf4jnsgd1na2vs0mg"},{"bike_id":"0683b8fa-bf66-4a85-b23f-305b1ef8e2c5","system_id":"levelo_inurba_marseille","lat":43.29882,"lon":5.43673,"is_reserved":false,"is_disabled":false,"rental_uris":{"android":"levelo://app?vid=0683b8fa-bf66-4a85-b23f-305b1ef8e2c5","ios":"levelo://app?vid=0683b8fa-bf66-4a85-b23f-305b1ef8e2c5"},"vehicle_type_id":"4","last_reported":1737709791,"current_range_meters":4000,"station_id":"ce4bhpp2rcd13ifvqhfg","pricing_plan_id":"cebpf4jnsgd1na2vs0mg"},{"bike_id":"6724d907-def9-40c0-b439-a702b1be2699","system_id":"levelo_inurba_marseille","lat":43.3133,"lon":5.36733,"is_reserved":false,"is_disabled":false,"rental_uris":{"android":"levelo://app?vid=6724d907-def9-40c0-b439-a702b1be2699","ios":"levelo://app?vid=6724d907-def9-40c0-b439-a702b1be2699"},"vehicle_type_id":"4","last_reported":1737709791,"current_range_meters":20000,"station_id":"ce4bgr92rcd13ifvqc6g","pricing_plan_id":"cebpf4jnsgd1na2vs0mg"},{"bike_id":"d757f11f-162f-43a3-b26c-af3f9ab81bf7","system_id":"levelo_inurba_marseille","lat":43.27323,"lon":5.39078,"is_reserved":false,"is_disabled":true,"rental_uris":{"android":"levelo://app?vid=d757f11f-162f-43a3-b26c-af3f9ab81bf7","ios":"levelo://app?vid=d757f11f-162f-43a3-b26c-af3f9ab81bf7"},"vehicle_type_id":"4","last_reported":1737709791,"current_range_meters":25200,"station_id":"ce4bhgp2rcd13ifvqfe0","pricing_plan_id":"cebpf4jnsgd1na2vs0mg"},{"bike_id":"c5d7f5f3-8f98-4adc-96dd-0e8daf570476","system_id":"levelo_inurba_marseille","lat":43.29297,"lon":5.37453,"is_reserved":false,"is_disabled":false,"rental_uris":{"android":"levelo://app?vid=c5d7f5f3-8f98-4adc-96dd-0e8daf570476","ios":"levelo://app?vid=c5d7f5f3-8f98-4adc-96dd-0e8daf570476"},"vehicle_type_id":"4","last_reported":1737709791,"current_range_meters":14000,"station_id":"ce4bgi12rcd13ifvqb70","pricing_plan_id":"cebpf4jnsgd1na2vs0mg"},{"bike_id":"ce9b6775-622a-4006-8fb5-f269869a0dfc","system_id":"levelo_inurba_marseille","lat":43.31358,"lon":5.38517,"is_reserved":false,"is_disabled":false,"rental_uris":{"android":"levelo://app?vid=ce9b6775-622a-4006-8fb5-f269869a0dfc","ios":"levelo://app?vid=ce9b6775-622a-4006-8fb5-f269869a0dfc"},"vehicle_type_id":"4","last_reported":1737709791,"current_range_meters":26800,"station_id":"ce4bgt92rcd13ifvqcf0","pricing_plan_id":"cebpf4jnsgd1na2vs0mg"},{"bike_id":"8312c050-c712-4508-bdb5-09784a3da066","system_id":"levelo_inurba_marseille","lat":43.28723,"lon":5.37941,"is_reserved":false,"is_disabled":false,"rental_uris":{"android":"levelo://app?vid=8312c050-c712-4508-bdb5-09784a3da066","ios":"levelo://app?vid=8312c050-c712-4508-bdb5-09784a3da066"},"vehicle_type_id":"4","last_reported":1737709791,"current_range_meters":38400,"station_id":"ce4bh9p2rcd13ifvqec0","pricing_plan_id":"cebpf4jnsgd1na2vs0mg"},{"bike_id":"55fa9a63-1046-4c0c-8d88-973abc543598","system_id":"levelo_inurba_marseille","lat":43.24958,"lon":5.38933,"is_reserved":false,"is_disabled":false,"rental_uris":{"android":"levelo://app?vid=55fa9a63-1046-4c0c-8d88-973abc543598","ios":"levelo://app?vid=55fa9a63-1046-4c0c-8d88-973abc543598"},"vehicle_type_id":"4","last_reported":1737709791,"current_range_meters":16400,"station_id":"ce4bhgp2rcd13ifvqfd0","pricing_plan_id":"cebpf4jnsgd1na2vs0mg"},{"bike_id":"776e3bd5-52ba-4861-9054-4a287de44a1a","system_id":"levelo_inurba_marseille","lat":43.27439,"lon":5.39377,"is_reserved":false,"is_disabled":false,"rental_uris":{"android":"levelo://app?vid=776e3bd5-52ba-4861-9054-4a287de44a1a","ios":"levelo://app?vid=776e3bd5-52ba-4861-9054-4a287de44a1a"},"vehicle_type_id":"4","last_reported":1737709791,"current_range_meters":17200,"station_id":"ce4bhdp2rcd13ifvqf20","pricing_plan_id":"cebpf4jnsgd1na2vs0mg"},{"bike_id":"1a01aff7-fff2-4217-8aa4-838677373331","system_id":"levelo_inurba_marseille","lat":43.25947,"lon":5.40865,"is_reserved":false,"is_disabled":false,"rental_uris":{"android":"levelo://app?vid=1a01aff7-fff2-4217-8aa4-838677373331","ios":"levelo://app?vid=1a01aff7-fff2-4217-8aa4-838677373331"},"vehicle_type_id":"4","last_reported":1737709791,"current_range_meters":8400,"station_id":"ce4bhm92rcd13ifvqglg","pricing_plan_id":"cebpf4jnsgd1na2vs0mg"},{"bike_id":"d329303f-6240-4c29-9328-ff67ecae168f","system_id":"levelo_inurba_marseille","lat":43.29306,"lon":5.37178,"is_reserved":false,"is_disabled":false,"rental_uris":{"android":"levelo://app?vid=d329303f-6240-4c29-9328-ff67ecae168f","ios":"levelo://app?vid=d329303f-6240-4c29-9328-ff67ecae168f"},"vehicle_type_id":"4","last_reported":1737709791,"current_range_meters":38800,"station_id":"ce4bgh92rcd13ifvqb40","pricing_plan_id":"cebpf4jnsgd1na2vs0mg"},{"bike_id":"f3e1e0cc-e386-4335-a525-4da71585ccf5","system_id":"levelo_inurba_marseille","lat":43.32535,"lon":5.4143,"is_reserved":false,"is_disabled":false,"rental_uris":{"android":"levelo://app?vid=f3e1e0cc-e386-4335-a525-4da71585ccf5","ios":"levelo://app?vid=f3e1e0cc-e386-4335-a525-4da71585ccf5"},"vehicle_type_id":"4","last_reported":1737709791,"current_range_meters":3600,"station_id":"ce4bhq12rcd13ifvqhhg","pricing_plan_id":"cebpf4jnsgd1na2vs0mg"},{"bike_id":"001ae69c-22d4-4e88-9b82-ce2932068dff","system_id":"levelo_inurba_marseille","lat":43.28716,"lon":5.37932,"is_reserved":false,"is_disabled":false,"rental_uris":{"android":"levelo://app?vid=001ae69c-22d4-4e88-9b82-ce2932068dff","ios":"levelo://app?vid=001ae69c-22d4-4e88-9b82-ce2932068dff"},"vehicle_type_id":"4","last_reported":1737709791,"current_range_meters":16400,"station_id":"ce4bh9p2rcd13ifvqec0","pricing_plan_id":"cebpf4jnsgd1na2vs0mg"},{"bike_id":"6a8a43a8-6ca9-4ca5-8079-ff2d04c51966","system_id":"levelo_inurba_marseille","lat":43.27491,"lon":5.42463,"is_reserved":false,"is_disabled":false,"rental_uris":{"android":"levelo://app?vid=6a8a43a8-6ca9-4ca5-8079-ff2d04c51966","ios":"levelo://app?vid=6a8a43a8-6ca9-4ca5-8079-ff2d04c51966"},"vehicle_type_id":"4","last_reported":1737709791,"current_range_meters":28400,"station_id":"ce4bhn92rcd13ifvqgrg","pricing_plan_id":"cebpf4jnsgd1na2vs0mg"},{"bike_id":"c617128d-a2a6-43a8-97b2-0a53e3467f9f","system_id":"levelo_inurba_marseille","lat":43.29041,"lon":5.39953,"is_reserved":false,"is_disabled":false,"rental_uris":{"android":"levelo://app?vid=c617128d-a2a6-43a8-97b2-0a53e3467f9f","ios":"levelo://app?vid=c617128d-a2a6-43a8-97b2-0a53e3467f9f"},"vehicle_type_id":"4","last_reported":1737709791,"current_range_meters":5600,"station_id":"ce4bh392rcd13ifvqdm0","pricing_plan_id":"cebpf4jnsgd1na2vs0mg"},{"bike_id":"9f96a6ef-90ba-459b-a7c6-c72748d14d4e","system_id":"levelo_inurba_marseille","lat":43.31707,"lon":5.40469,"is_reserved":false,"is_disabled":false,"rental_uris":{"android":"levelo://app?vid=9f96a6ef-90ba-459b-a7c6-c72748d14d4e","ios":"levelo://app?vid=9f96a6ef-90ba-459b-a7c6-c72748d14d4e"},"vehicle_type_id":"4","last_reported":1737709791,"current_range_meters":27600,"station_id":"ce4bh012rcd13ifvqd00","pricing_plan_id":"cebpf4jnsgd1na2vs0mg"},{"bike_id":"6a8bf9db-e0a5-474d-bdce-1b2d10b00dac","system_id":"levelo_inurba_marseille","lat":43.30465,"lon":5.37901,"is_reserved":false,"is_disabled":false,"rental_uris":{"android":"levelo://app?vid=6a8bf9db-e0a5-474d-bdce-1b2d10b00dac","ios":"levelo://app?vid=6a8bf9db-e0a5-474d-bdce-1b2d10b00dac"},"vehicle_type_id":"4","last_reported":1737709791,"current_range_meters":38000,"station_id":"ce4bgup2rcd13ifvqcn0","pricing_plan_id":"cebpf4jnsgd1na2vs0mg"},