{"last_updated":1752281962,"ttl":60,"version":"2.2","data":{"bikes":[{"bike_id":"b14d0d78-8635-433f-8305-8e2ed857c830","system_id":"levelo_inurba_marseille","lat":43.307982,"lon":5.381564,"is_reserved":false,"is_disabled":true,"rental_uris":{"android":"levelo://app?vid=b14d0d78-8635-433f-8305-8e2ed857c830","ios":"levelo://app?vid=b14d0d78-8635-433f-8305-8e2ed857c830"},"vehicle_type_id":"4","last_reported":1752281962,"current_range_meters":2800,"station_id":"","pricing_plan_id":"cebpf4jnsgd1na2vs0mg"},{"bike_id":"feec9ca5-eb53-4205-a29d-3d797c986952","system_id":"levelo_inurba_marseille","lat":43.289433,"lon":5.366422,"is_reserved":false,"is_disabled":true,"rental_uris":{"android":"levelo://app?vid=feec9ca5-eb53-4205-a29d-3d797c986952","ios":"levelo://app?vid=feec9ca5-eb53-4205-a29d-3d797c986952"},"vehicle_type_id":"4","last_reported":1752281962,"current_range_meters":2800,"station_id":"ce4bhpp2rcd13ifvqhfg","pricing_plan_id":"cebpf4jnsgd1na2vs0mg"},{"bike_id":"be81af2c-3723-45df-be8b-8d9f231eee70","system_id":"levelo_inurba_marseille","lat":43.309615,"lon":5.390465,"is_reserved":false,"is_disabled":true,"rental_uris":{"android":"levelo://app?vid=be81af2c-3723-45df-be8b-8d9f231eee70","ios":"levelo://app?vid=be81af2c-3723-45df-be8b-8d9f231eee70"},"vehicle_type_id":"4","last_reported":1752281962,"current_range_meters":3600,"station_id":"ce4bgup2rcd13ifvqco0","pricing_plan_id":"cebpf4jnsgd1na2vs0mg"},{"bike_id":"bc0ba58e-06a3-432d-8c35-ebe9130c41f9","system_id":"levelo_inurba_marseille","lat":43.337444,"lon":5.374475,"is_reserved":false,"is_disabled":false,"rental_uris":{"android":"levelo://app?vid=bc0ba58e-06a3-432d-8c35-ebe9130c41f9","ios":"levelo://app?vid=bc0ba58e-06a3-432d-8c35-ebe9130c41f9"},"vehicle_type_id":"4","last_reported":1752281962,"current_range_meters":3600,"station_id":"","pricing_plan_id":"cebpf4jnsgd1na2vs0mg"},{"bike_id":"6a5b119e-7cf2-4dc4-b7fa-68080f35defe","system_id":"levelo_inurba_marseille","lat":43.31757,"lon":5.39013,"is_reserved":false,"is_disabled":true,"rental_uris":{"android":"levelo://app?vid=6a5b119e-7cf2-4dc4-b7fa-68080f35defe","ios":"levelo://app?vid=6a5b119e-7cf2-4dc4-b7fa-68080f35defe"},"vehicle_type_id":"4","last_reported":1752281962,"current_range_meters":4400,"station_id":"ce4bhqp2rcd13ifvqhng","pricing_plan_id":"cebpf4jnsgd1na2vs0mg"},{"bike_id":"45b351f2-8383-46da-b9c2-731130944b98","system_id":"levelo_inurba_marseille","lat":43.29901,"lon":5.43673,"is_reserved":false,"is_disabled":false,"rental_uris":{"android":"levelo://app?vid=45b351f2-8383-46da-b9c2-731130944b98","ios":"levelo://app?vid=45b351f2-8383-46da-b9c2-731130944b98"},"vehicle_type_id":"4","last_reported":1752281962,"current_range_meters":4000,"station_id":"ce4bhpp2rcd13ifvqhfg","pricing_plan_id":"cebpf4jnsgd1na2vs0mg"},{"bike_id":"b757ffbb-2b71-4330-9f60-5f8a9d46d16e","system_id":"levelo_inurba_marseille","lat":43.29659,"lon":5.37112,"is_reserved":false,"is_disabled":false,"rental_uris":{"android":"levelo://app?vid=b757ffbb-2b71-4330-9f60-5f8a9d46d16e","ios":"levelo://app?vid=b757ffbb-2b71-4330-9f60-5f8a9d46d16e"},"vehicle_type_id":"4","last_reported":1752281962,"current_range_meters":4800,"station_id":"","pricing_plan_id":"cebpf4jnsgd1na2vs0mg"},{"bike_id":"4a23bc60-e73d-433b-aa0f-1298c8f411ef","system_id":"levelo_inurba_marseille","lat":43.30592,"lon":5.37235,"is_reserved":false,"is_disabled":false,"rental_uris":{"android":"levelo://app?vid=4a23bc60-e73d-433b-aa0f-1298c8f411ef","ios":"levelo://app?vid=4a23bc60-e73d-433b-aa0f-1298c8f411ef"},"vehicle_type_id":"4","last_reported":1752281962,"current_range_meters":6000,"station_id":"ce4bgqh2rcd13ifvqc4g","pricing_plan_id":"cebpf4jnsgd1na2vs0mg"},{"bike_id":"1d4ba1d0-bac3-411a-abd8-5c0db677601b","system_id":"levelo_inurba_marseille","lat":43.30604,"lon":5.37236,"is_reserved":false,"is_disabled":false,"rental_uris":{"android":"levelo://app?vid=1d4ba1d0-bac3-411a-abd8-5c0db677601b","ios":"levelo://app?vid=1d4ba1d0-bac3-411a-abd8-5c0db677601b"},"vehicle_type_id":"4","last_reported":1752281962,"current_range_meters":6000,"station_id":"ce4bgqh2rcd13ifvqc4g","pricing_plan_id":"cebpf4jnsgd1na2vs0mg"},{"bike_id":"d8f33195-93cb-4919-8fab-bd796498b905","system_id":"levelo_inurba_marseille","lat":43.265578,"lon":5.390004,"is_reserved":false,"is_disabled":true,"rental_uris":{"android":"levelo://app?vid=d8f33195-93cb-4919-8fab-bd796498b905","ios":"levelo://app?vid=d8f33195-93cb-4919-8fab-bd796498b905"},"vehicle_type_id":"4","last_reported":1752281962,"current_range_meters":6800,"station_id":"ce4bhhp2rcd13ifvqfm0","pricing_plan_id":"cebpf4jnsgd1na2vs0mg"},{"bike_id":"0f40ed7e-4e3e-41f1-98b7-ecc556063775","system_id":"levelo_inurba_marseille","lat":43.29256,"lon":5.40907,"is_reserved":false,"is_disabled":false,"rental_uris":{"android":"levelo://app?vid=0f40ed7e-4e3e-41f1-98b7-ecc556063775","ios":"levelo://app?vid=0f40ed7e-4e3e-41f1-98b7-ecc556063775"},"vehicle_type_id":"4","last_reported":1752281962,"current_range_meters":6800,"station_id":"","pricing_plan_id":"cebpf4jnsgd1na2vs0mg"},{"bike_id":"5a0df6e6-9014-4842-97ce-cc8b31757240","system_id":"levelo_inurba_marseille","lat":43.29255,"lon":5.38415,"is_reserved":false,"is_disabled":false,"rental_uris":{"android":"levelo://app?vid=5a0df6e6-9014-4842-97ce-cc8b31757240","ios":"levelo://app?vid=5a0df6e6-9014-4842-97ce-cc8b31757240"},"vehicle_type_id":"4","last_reported":1752281962,"current_range_meters":7200,"station_id":"ce4bh692rcd13ifvqea0","pricing_plan_id":"cebpf4jnsgd1na2vs0mg"},{"bike_id":"80572c0e-dd76-4996-8857-92f8eabf8fca","system_id":"levelo_inurba_marseille","lat":43.310616,"lon":5.383544,"is_reserved":false,"is_disabled":true,"rental_uris":{"android":"levelo://app?vid=80572c0e-dd76-4996-8857-92f8eabf8fca","ios":"levelo://app?vid=80572c0e-dd76-4996-8857-92f8eabf8fca"},"vehicle_type_id":"4","last_reported":1752281962,"current_range_meters":8000,"station_id":"ce4bgv92rcd13ifvqcr0","pricing_plan_id":"cebpf4jnsgd1na2vs0mg"},{"bike_id":"b84efe8f-b40a-4e55-b7c2-d1e60451fba9","system_id":"levelo_inurba_marseille","lat":43.30773,"lon":5.37715,"is_reserved":false,"is_disabled":false,"rental_uris":{"android":"levelo://app?vid=b84efe8f-b40a-4e55-b7c2-d1e60451fba9","ios":"levelo://app?vid=b84efe8f-b40a-4e55-b7c2-d1e60451fba9"},"vehicle_type_id":"4","last_reported":1752281962,"current_range_meters":8400,"station_id":"","pricing_plan_id":"cebpf4jnsgd1na2vs0mg"},{"bike_id":"8a8548c8-5024-4ee6-ba3e-a02d35e313f5","system_id":"levelo_inurba_marseille","lat":43.28595,"lon":5.37055,"is_reserved":false,"is_disabled":false,"rental_uris":{"android":"levelo://app?vid=8a8548c8-5024-4ee6-ba3e-a02d35e313f5","ios":"levelo://app?vid=8a8548c8-5024-4ee6-ba3e-a02d35e313f5"},"vehicle_type_id":"4","last_reported":1752281962,"current_range_meters":8400,"station_id":"ce4bht12rcd13ifvqi60","pricing_plan_id":"cebpf4jnsgd1na2vs0mg"},{"bike_id":"f6379f47-d054-43a8-bf41-72c2d3a2fa59","system_id":"levelo_inurba_marseille","lat":43.23974,"lon":5.36617,"is_reserved":false,"is_disabled":true,"rental_uris":{"android":"levelo://app?vid=f6379f47-d054-43a8-bf41-72c2d3a2fa59","ios":"levelo://app?vid=f6379f47-d054-43a8-bf41-72c2d3a2fa59"},"vehicle_type_id":"4","last_reported":1752281962,"current_range_meters":8400,"station_id":"ce4bhi12rcd13ifvqfp0","pricing_plan_id":"cebpf4jnsgd1na2vs0mg"},{"bike_id":"2711e2df-4467-499e-8fe3-b15ecca6968c","system_id":"levelo_inurba_marseille","lat":43.30635,"lon":5.40081,"is_reserved":false,"is_disabled":true,"rental_uris":{"android":"levelo://app?vid=2711e2df-4467-499e-8fe3-b15ecca6968c","ios":"levelo://app?vid=2711e2df-4467-499e-8fe3-b15ecca6968c"},"vehicle_type_id":"4","last_reported":1752281962,"current_range_meters":8400,"station_id":"ce4bh112rcd13ifvqda0","pricing_plan_id":"cebpf4jnsgd1na2vs0mg"},{"bike_id":"ac6fa144-a58e-4c9c-88eb-747201fb9c31","system_id":"levelo_inurba_marseille","lat":43.30784,"lon":5.39292,"is_reserved":false,"is_disabled":false,"rental_uris":{"android":"levelo://app?vid=ac6fa144-a58e-4c9c-88eb-747201fb9c31","ios":"levelo://app?vid=ac6fa144-a58e-4c9c-88eb-747201fb9c31"},"vehicle_type_id":"4","last_reported":1752281962,"current_range_meters":8400,"station_id":"","pricing_plan_id":"cebpf4jnsgd1na2vs0mg"},{"bike_id":"b4544312-64e4-4dd2-bd6d-e1d3f6243b40","system_id":"levelo_inurba_marseille","lat":43.28849,"lon":5.38466,"is_reserved":false,"is_disabled":false,"rental_uris":{"android":"levelo://app?vid=b4544312-64e4-4dd2-bd6d-e1d3f6243b40","ios":"levelo://app?vid=b4544312-64e4-4dd2-bd6d-e1d3f6243b40"},"vehicle_type_id":"4","last_reported":1752281962,"current_range_meters":8400,"station_id":"","pricing_plan_id":"cebpf4jnsgd1na2vs0mg"},{"bike_id":"eea44b83-c165-49dd-a23a-29cb59d8d866","system_id":"levelo_inurba_marseille","lat":43.30831,"lon":5.37427,"is_reserved":false,"is_disabled":false,"rental_uris":{"android":"levelo://app?vid=eea44b83-c165-49dd-a23a-29cb59d8d866","ios":"levelo://app?vid=eea44b83-c165-49dd-a23a-29cb59d8d866"},"vehicle_type_id":"4","last_reported":1752281962,"current_range_meters":8800,"station_id":"","pricing_plan_id":"cebpf4jnsgd1na2vs0mg"},{"bike_id":"e3e456c4-b90b-4273-a549-897888733807","system_id":"levelo_inurba_marseille","lat":43.33018,"lon":5.39051,"is_reserved":false,"is_disabled":true,"rental_uris":{"android":"levelo://app?vid=e3e456c4-b90b-4273-a549-897888733807","ios":"levelo://app?vid=e3e456c4-b90b-4273-a549-897888733807"},"vehicle_type_id":"4","last_reported":1752281962,"current_range_meters":8800,"station_id":"ce4bhr92rcd13ifvqhrg","pricing_plan_id":"cebpf4jnsgd1na2vs0mg"},{"bike_id":"9a8e319c-fe49-4ee7-a0fd-d353eda34cc6","system_id":"levelo_inurba_marseille","lat":43.29571,"lon":5.39985,"is_reserved":false,"is_disabled":false,"rental_uris":{"android":"levelo://app?vid=9a8e319c-fe49-4ee7-a0fd-d353eda34cc6","ios":"levelo://app?vid=9a8e319c-fe49-4ee7-a0fd-d353eda34cc6"},"vehicle_type_id":"4","last_reported":1752281962,"current_range_meters":8800,"station_id":"ce4bh312rcd13ifvqdj0","pricing_plan_id":"cebpf4jnsgd1na2vs0mg"},{"bike_id":"4e209b0c-855f-4b51-8120-2faef8673853","system_id":"levelo_inurba_marseille","lat":43.30599,"lon":5.3691,"is_reserved":false,"is_disabled":false,"rental_uris":{"android":"levelo://app?vid=4e209b0c-855f-4b51-8120-2faef8673853","ios":"levelo://app?vid=4e209b0c-855f-4b51-8120-2faef8673853"},"vehicle_type_id":"4","last_reported":1752281962,"current_range_meters":8800,"station_id":"","pricing_plan_id":"cebpf4jnsgd1na2vs0mg"},{"bike_id":"5a7b57ef-a00d-4d19-853c-d49c119db95f","system_id":"levelo_inurba_marseille","lat":43.24566,"lon":5.3734,"is_reserved":false,"is_disabled":true,"rental_uris":{"android":"levelo://app?vid=5a7b57ef-a00d-4d19-853c-d49c119db95f","ios":"levelo://app?vid=5a7b57ef-a00d-4d19-853c-d49c119db95f"},"vehicle_type_id":"4","last_reported":1752281962,"current_range_meters":9200,"station_id":"","pricing_plan_id":"cebpf4jnsgd1na2vs0mg"},{"bike_id":"fab33990-a786-445e-9523-e9b95bbf1c3f","system_id":"levelo_inurba_marseille","lat":43.30544,"lon":5.38439,"is_reserved":false,"is_disabled":false,"rental_uris":{"android":"levelo://app?vid=fab33990-a786-445e-9523-e9b95bbf1c3f","ios":"levelo://app?vid=fab33990-a786-445e-9523-e9b95bbf1c3f"},"vehicle_type_id":"4","last_reported":1752281962,"current_range_meters":9200,"station_id":"ce4bgg92rcd13ifvqb30","pricing_plan_id":"cebpf4jnsgd1na2vs0mg"},{"bike_id":"441b79d5-77e2-4b78-96b0-3c288b7605b0","system_id":"levelo_inurba_marseille","lat":43.30302,"lon":5.39229,"is_reserved":false,"is_disabled":false,"rental_uris":{"android":"levelo://app?vid=441b79d5-77e2-4b78-96b0-3c288b7605b0","ios":"levelo://app?vid=441b79d5-77e2-4b78-96b0-3c288b7605b0"},"vehicle_type_id":"4","last_reported":1752281962,"current_range_meters":9200,"station_id":"ce4bgkh2rcd13ifvqbk0","pricing_plan_id":"cebpf4jnsgd1na2vs0mg"},{"bike_id":"65a06680-c24b-4270-b8c9-254a39a1150b","system_id":"levelo_inurba_marseille","lat":43.303736,"lon":5.424932,"is_reserved":false,"is_disabled":false,"rental_uris":{"android":"levelo://app?vid=65a06680-c24b-4270-b8c9-254a39a1150b","ios":"levelo://app?vid=65a06680-c24b-4270-b8c9-254a39a1150b"},"vehicle_type_id":"4","last_reported":1752281962,"current_range_meters":9200,"station_id":"ce4bhoh2rcd13ifvqh6g","pricing_plan_id":"cebpf4jnsgd1na2vs0mg"},{"bike_id":"95601f02-61a1-41bf-99b3-0232c2b8a8c9","system_id":"levelo_inurba_marseille","lat":43.30959,"lon":5.3906,"is_reserved":false,"is_disabled":false,"rental_uris":{"android":"levelo://app?vid=95601f02-61a1-41bf-99b3-0232c2b8a8c9","ios":"levelo://app?vid=95601f02-61a1-41bf-99b3-0232c2b8a8c9"},"vehicle_type_id":"4","last_reported":1752281962,"current_range_meters":9600,"station_id":"ce4bgup2rcd13ifvqco0","pricing_plan_id":"cebpf4jnsgd1na2vs0mg"},{"bike_id":"8330a68f-2f6e-4337-9657-35d7d87c04ca","system_id":"levelo_inurba_marseille","lat":43.25451,"lon":5.37946,"is_reserved":false,"is_disabled":true,"rental_uris":{"android":"levelo://app?vid=8330a68f-2f6e-4337-9657-35d7d87c04ca","ios":"levelo://app?vid=8330a68f-2f6e-4337-9657-35d7d87c04ca"},"vehicle_type_id":"4","last_reported":1752281962,"current_range_meters":9600,"station_id":"","pricing_plan_id":"cebpf4jnsgd1na2vs0mg"},{"bike_id":"e83614b7-1234-4bc3-b14a-b5635492649e","system_id":"levelo_inurba_marseille","lat":43.28678,"lon":5.38484,"is_reserved":false,"is_disabled":false,"rental_uris":{"android":"levelo://app?vid=e83614b7-1234-4bc3-b14a-b5635492649e","ios":"levelo://app?vid=e83614b7-1234-4bc3-b14a-b5635492649e"},"vehicle_type_id":"4","last_reported":1752281962,"current_range_meters":9600,"station_id":"","pricing_plan_id":"cebpf4jnsgd1na2vs0mg"},{"bike_id":"534ed68d-5ceb-43a8-968b-be30f01dfa74","system_id":"levelo_inurba_marseille","lat":43.28216,"lon":5.39055,"is_reserved":false,"is_disabled":true,"rental_uris":{"android":"levelo://app?vid=534ed68d-5ceb-43a8-968b-be30f01dfa74","ios":"levelo://app?vid=534ed68d-5ceb-43a8-968b-be30f01dfa74"},"vehicle_type_id":"4","last_reported":1752281962,"current_range_meters":10000,"station_id":"","pricing_plan_id":"cebpf4jnsgd1na2vs0mg"},{"bike_id":"e43fe009-2bcb-43ae-8a1b-2633b06c91fd","system_id":"levelo_inurba_marseille","lat":43.28331,"lon":5.38109,"is_reserved":false,"is_disabled":false,"rental_uris":{"android":"levelo://app?vid=e43fe009-2bcb-43ae-8a1b-2633b06c91fd","ios":"levelo://app?vid=e43fe009-2bcb-43ae-8a1b-2633b06c91fd"},"vehicle_type_id":"4","last_reported":1752281962,"current_range_meters":10000,"station_id":"ce4bh412rcd13ifvqdr0","pricing_plan_id":"cebpf4jnsgd1na2vs0mg"},{"bike_id":"12962c22-c999-46c4-b70d-26925ea9fc72","system_id":"levelo_inurba_marseille","lat":43.29753,"lon":5.38371,"is_reserved":false,"is_disabled":false,"rental_uris":{"android":"levelo://app?vid=12962c22-c999-46c4-b70d-26925ea9fc72","ios":"levelo://app?vid=12962c22-c999-46c4-b70d-26925ea9fc72"},"vehicle_type_id":"4","last_reported":1752281962,"current_range_meters":10000,"station_id":"","pricing_plan_id":"cebpf4jnsgd1na2vs0mg"},{"bike_id":"d849a247-c2c0-4619-bac8-f5a6994e0014","system_id":"levelo_inurba_marseille","lat":43.320432,"lon":5.415662,"is_reserved":false,"is_disabled":true,"rental_uris":{"android":"levelo://app?vid=d849a247-c2c0-4619-bac8-f5a6994e0014","ios":"levelo://app?vid=d849a247-c2c0-4619-bac8-f5a6994e0014"},"vehicle_type_id":"4","last_reported":1752281962,"current_range_meters":10800,"station_id":"ce4bhq92rcd13ifvqhkg","pricing_plan_id":"cebpf4jnsgd1na2vs0mg"},{"bike_id":"e80e9a57-5e81-4b14-8bfd-dc924ee16f86","system_id":"levelo_inurba_marseille","lat":43.3361,"lon":5.41037,"is_reserved":false,"is_disabled":false,"rental_uris":{"android":"levelo://app?vid=e80e9a57-5e81-4b14-8bfd-dc924ee16f86","ios":"levelo://app?vid=e80e9a57-5e81-4b14-8bfd-dc924ee16f86"},"vehicle_type_id":"4","last_reported":1752281962,"current_range_meters":10800,"station_id":"ce4bhqh2rcd13ifvqhmg","pricing_plan_id":"cebpf4jnsgd1na2vs0mg"},{"bike_id":"6e44525d-ed45-445a-a877-081b94eb5813","system_id":"levelo_inurba_marseille","lat":43.30372,"lon":5.41896,"is_reserved":false,"is_disabled":true,"rental_uris":{"android":"levelo://app?vid=6e44525d-ed45-445a-a877-081b94eb5813","ios":"levelo://app?vid=6e44525d-ed45-445a-a877-081b94eb5813"},"vehicle_type_id":"4","last_reported":1752281962,"current_range_meters":11200,"station_id":"ce4bhop2rcd13ifvqh7g","pricing_plan_id":"cebpf4jnsgd1na2vs0mg"},{"bike_id":"6bb7937c-e6c5-45e2-bd92-fade593d2f3c","system_id":"levelo_inurba_marseille","lat":43.25118,"lon":5.39515,"is_reserved":false,"is_disabled":false,"rental_uris":{"android":"levelo://app?vid=6bb7937c-e6c5-45e2-bd92-fade593d2f3c","ios":"levelo://app?vid=6bb7937c-e6c5-45e2-bd92-fade593d2f3c"},"vehicle_type_id":"4","last_reported":1752281962,"current_range_meters":11200,"station_id":"ce4bhm12rcd13ifvqgkg","pricing_plan_id":"cebpf4jnsgd1na2vs0mg"},{"bike_id":"492822e9-b40c-4824-8594-38c8605e1a47","system_id":"levelo_inurba_marseille","lat":43.301434,"lon":5.398683,"is_reserved":false,"is_disabled":false,"rental_uris":{"android":"levelo://app?vid=492822e9-b40c-4824-8594-38c8605e1a47","ios":"levelo://app?vid=492822e9-b40c-4824-8594-38c8605e1a47"},"vehicle_type_id":"4","last_reported":1752281962,"current_range_meters":11200,"station_id":"ce4bh0h2rcd13ifvqd40","pricing_plan_id":"cebpf4jnsgd1na2vs0mg"},{"bike_id":"46398dfb-c483-4a99-82e0-09eb86052d5b","system_id":"levelo_inurba_marseille","lat":43.2847,"lon":5.3859,"is_reserved":false,"is_disabled":false,"rental_uris":{"android":"levelo://app?vid=46398dfb-c483-4a99-82e0-09eb86052d5b","ios":"levelo://app?vid=46398dfb-c483-4a99-82e0-09eb86052d5b"},"vehicle_type_id":"4","last_reported":1752281962,"current_range_meters":11200,"station_id":"ce4bh8p2rcd13ifvqeb0","pricing_plan_id":"cebpf4jnsgd1na2vs0mg"},{"bike_id":"856544c0-e5d7-47aa-a3f8-087b8d04ab18","system_id":"levelo_inurba_marseille","lat":43.279444,"lon":5.410566,"is_reserved":false,"is_disabled":false,"rental_uris":{"android":"levelo://app?vid=856544c0-e5d7-47aa-a3f8-087b8d04ab18","ios":"levelo://app?vid=856544c0-e5d7-47aa-a3f8-087b8d04ab18"},"vehicle_type_id":"4","last_reported":1752281962,"current_range_meters":11600,"station_id":"ce4bhnp2rcd13ifvqh0g","pricing_plan_id":"cebpf4jnsgd1na2vs0mg"},{"bike_id":"a10e0144-bf27-4147-9fee-8b9a8705f4ee","system_id":"levelo_inurba_marseille","lat":43.27615,"lon":5.36107,"is_reserved":false,"is_disabled":false,"rental_uris":{"android":"levelo://app?vid=a10e0144-bf27-4147-9fee-8b9a8705f4ee","ios":"levelo://app?vid=a10e0144-bf27-4147-9fee-8b9a8705f4ee"},"vehicle_type_id":"4","last_reported":1752281962,"current_range_meters":11600,"station_id":"ce4bgj92rcd13ifvqbe0","pricing_plan_id":"cebpf4jnsgd1na2vs0mg"},{"bike_id":"e87ebf92-9f2a-47b1-a4d2-d4688fefaa87","system_id":"levelo_inurba_marseille","lat":43.30316,"lon":5.4044,"is_reserved":false,"is_disabled":false,"rental_uris":{"android":"levelo://app?vid=e87ebf92-9f2a-47b1-a4d2-d4688fefaa87","ios":"levelo://app?vid=e87ebf92-9f2a-47b1-a4d2-d4688fefaa87"},"vehicle_type_id":"4","last_reported":1752281962,"current_range_meters":11600,"station_id":"ce4bh012rcd13ifvqd10","pricing_plan_id":"cebpf4jnsgd1na2vs0mg"},{"bike_id":"5076ad93-b7e2-4902-b566-655c2183f3e6","system_id":"levelo_inurba_marseille","lat":43.27983,"lon":5.38702,"is_reserved":false,"is_disabled":true,"rental_uris":{"android":"levelo://app?vid=5076ad93-b7e2-4902-b566-655c2183f3e6","ios":"levelo://app?vid=5076ad93-b7e2-4902-b566-655c2183f3e6"},"vehicle_type_id":"4","last_reported":1752281962,"current_range_meters":11600,"station_id":"ce4bhg12rcd13ifvqf80","pricing_plan_id":"cebpf4jnsgd1na2vs0mg"},{"bike_id":"d92e3bb2-3150-4cf8-b0e8-12e0e60fe5e7","system_id":"levelo_inurba_marseille","lat":43.28407,"lon":5.3753,"is_reserved":false,"is_disabled":false,"rental_uris":{"android":"levelo://app?vid=d92e3bb2-3150-4cf8-b0e8-12e0e60fe5e7","ios":"levelo://app?vid=d92e3bb2-3150-4cf8-b0e8-12e0e60fe5e7"},"vehicle_type_id":"4","last_reported":1752281962,"current_range_meters":11600,"station_id":"ce4bh412rcd13ifvqds0","pricing_plan_id":"cebpf4jnsgd1na2vs0mg"},{"bike_id":"6145e0d4-1b01-4570-bfd0-4fe34ecb56a5","system_id":"levelo_inurba_marseille","lat":43.28436,"lon":5.39199,"is_reserved":false,"is_disabled":false,"rental_uris":{"android":"levelo://app?vid=6145e0d4-1b01-4570-bfd0-4fe34ecb56a5","ios":"levelo://app?vid=6145e0d4-1b01-4570-bfd0-4fe34ecb56a5"},"vehicle_type_id":"4","last_reported":1752281962,"current_range_meters":11600,"station_id":"ce4bhoh2rcd13ifvqh5g","pricing_plan_id":"cebpf4jnsgd1na2vs0mg"},{"bike_id":"7392143f-a48d-4d17-918a-2d49b0cf2786","system_id":"levelo_inurba_marseille","lat":43.316884,"lon":5.404819,"is_reserved":false,"is_disabled":true,"rental_uris":{"android":"levelo://app?vid=7392143f-a48d-4d17-918a-2d49b0cf2786","ios":"levelo://app?vid=7392143f-a48d-4d17-918a-2d49b0cf2786"},"vehicle_type_id":"4","last_reported":1752281962,"current_range_meters":11600,"station_id":"ce4bh012rcd13ifvqd00","pricing_plan_id":"cebpf4jnsgd1na2vs0mg"},{"bike_id":"6135e0b5-ca26-482d-b669-c42225ef8f73","system_id":"levelo_inurba_marseille","lat":43.337444,"lon":5.374475,"is_reserved":false,"is_disabled":false,"rental_uris":{"android":"levelo://app?vid=6135e0b5-ca26-482d-b669-c42225ef8f73","ios":"levelo://app?vid=6135e0b5-ca26-482d-b669-c42225ef8f73"},"vehicle_type_id":"4","last_reported":1752281962,"current_range_meters":12000,"station_id":"","pricing_plan_id":"cebpf4jnsgd1na2vs0mg"},{"bike_id":"fd9f5c27-5d58-42e5-badc-a12a0344229e","system_id":"levelo_inurba_marseille","lat":43.28926,"lon":5.36083,"is_reserved":false,"is_disabled":false,"rental_uris":{"android":"levelo://app?vid=fd9f5c27-5d58-42e5-badc-a12a0344229e","ios":"levelo://app?vid=fd9f5c27-5d58-42e5-badc-a12a0344229e"},"vehicle_type_id":"4","last_reported":1752281962,"current_range_meters":12000,"station_id":"","pricing_plan_id":"cebpf4jnsgd1na2vs0mg"},{"bike_id":"99a46a9e-d8eb-45e7-b7fe-193ce4befa5b","system_id":"levelo_inurba_marseille","lat":43.30094,"lon":5.390863,"is_reserved":false,"is_disabled":false,"rental_uris":{"android":"levelo://app?vid=99a46a9e-d8eb-45e7-b7fe-193ce4befa5b","ios":"levelo://app?vid=99a46a9e-d8eb-45e7-b7fe-193ce4befa5b"},"vehicle_type_id":"4","last_reported":1752281962,"current_range_meters":12000,"station_id":"ce4bh192rcd13ifvqdb0","pricing_plan_id":"cebpf4jnsgd1na2vs0mg"},{"bike_id":"4d4b9e28-a4f6-4d45-ac6b-64a63a768bd8","system_id":"levelo_inurba_marseille","lat":43.315131,"lon":5.374074,"is_reserved":false,"is_disabled":false,"rental_uris":{"android":"levelo://app?vid=4d4b9e28-a4f6-4d45-ac6b-64a63a768bd8","ios":"levelo://app?vid=4d4b9e28-a4f6-4d45-ac6b-64a63a768bd8"},"vehicle_type_id":"4","last_reported":1752281962,"current_range_meters":12000,"station_id":"","pricing_plan_id":"cebpf4jnsgd1na2vs0mg"},{"bike_id":"595e9351-a7ce-45de-8995-771f7d9fe86e","system_id":"levelo_inurba_marseille","lat":43.309243,"lon":5.378088,"is_reserved":false,"is_disabled":false,"rental_uris":{"android":"levelo://app?vid=595e9351-a7ce-45de-8995-771f7d9fe86e","ios":"levelo://app?vid=595e9351-a7ce-45de-8995-771f7d9fe86e"},"vehicle_type_id":"4","last_reported":1752281962,"current_range_meters":12000,"station_id":"","pricing_plan_id":"cebpf4jnsgd1na2vs0mg"},{"bike_id":"080f57f3-a8d5-4466-97ef-f4f40d547d09","system_id":"levelo_inurba_marseille","lat":43.313654,"lon":5.3851,"is_reserved":false,"is_disabled":false,"rental_uris":{"android":"levelo://app?vid=080f57f3-a8d5-4466-97ef-f4f40d547d09","ios":"levelo://app?vid=080f57f3-a8d5-4466-97ef-f4f40d547d09"},"vehicle_type_id":"4","last_reported":1752281962,"current_range_meters":12400,"station_id":"ce4bgt92rcd13ifvqcf0","pricing_plan_id":"cebpf4jnsgd1na2vs0mg"},{"bike_id":"65fe0d74-9b8b-4bab-a851-ccb0ef5ca223","system_id":"levelo_inurba_marseille","lat":43.2655,"lon":5.390555,"is_reserved":false,"is_disabled":false,"rental_uris":{"android":"levelo://app?vid=65fe0d74-9b8b-4bab-a851-ccb0ef5ca223","ios":"levelo://app?vid=65fe0d74-9b8b-4bab-a851-ccb0ef5ca223"},"vehicle_type_id":"4","last_reported":1752281962,"current_range_meters":12400,"station_id":"ce4bhe12rcd13ifvqf30","pricing_plan_id":"cebpf4jnsgd1na2vs0mg"},{"bike_id":"647a1903-1834-4730-b34e-6397917620f0","system_id":"levelo_inurba_marseille","lat":43.316723,"lon":5.370241,"is_reserved":false,"is_disabled":false,"rental_uris":{"android":"levelo://app?vid=647a1903-1834-4730-b34e-6397917620f0","ios":"levelo://app?vid=647a1903-1834-4730-b34e-6397917620f0"},"vehicle_type_id":"4","last_reported":1752281962,"current_range_meters":12400,"station_id":"","pricing_plan_id":"cebpf4jnsgd1na2vs0mg"},{"bike_id":"ef698040-cffd-4a0c-9a91-bf557274de35","system_id":"levelo_inurba_marseille","lat":43.31703,"lon":5.3777,"is_reserved":false,"is_disabled":false,"rental_uris":{"android":"levelo://app?vid=ef698040-cffd-4a0c-9a91-bf557274de35","ios":"levelo://app?vid=ef698040-cffd-4a0c-9a91-bf557274de35"},"vehicle_type_id":"4","last_reported":1752281962,"current_range_meters":12400,"station_id":"ce4bgth2rcd13ifvqch0","pricing_plan_id":"cebpf4jnsgd1na2vs0mg"},{"bike_id":"592f9295-9d69-4cd1-bacc-848e791603b4","system_id":"levelo_inurba_marseille","lat":43.32482,"lon":5.36574,"is_reserved":false,"is_disabled":false,"rental_uris":{"android":"levelo://app?vid=592f9295-9d69-4cd1-bacc-848e791603b4","ios":"levelo://app?vid=592f9295-9d69-4cd1-bacc-848e791603b4"},"vehicle_type_id":"4","last_reported":1752281962,"current_range_meters":12400,"station_id":"ce4bhs12rcd13ifvqhvg","pricing_plan_id":"cebpf4jnsgd1na2vs0mg"},{"bike_id":"e3a75ee9-c614-467b-8cc2-f813bcef2ab1","system_id":"levelo_inurba_marseille","lat":43.33743,"lon":5.3919,"is_reserved":false,"is_disabled":false,"rental_uris":{"android":"levelo://app?vid=e3a75ee9-c614-467b-8cc2-f813bcef2ab1","ios":"levelo://app?vid=e3a75ee9-c614-467b-8cc2-f813bcef2ab1"},"vehicle_type_id":"4","last_reported":1752281962,"current_range_meters":12400,"station_id":"ce4bhr92rcd13ifvqhsg","pricing_plan_id":"cebpf4jnsgd1na2vs0mg"},{"bike_id":"eda0ea69-6404-43e6-9ede-2655d170d444","system_id":"levelo_inurba_marseille","lat":43.288479,"lon":5.358476,"is_reserved":false,"is_disabled":true,"rental_uris":{"android":"levelo://app?vid=eda0ea69-6404-43e6-9ede-2655d170d444","ios":"levelo://app?vid=eda0ea69-6404-43e6-9ede-2655d170d444"},"vehicle_type_id":"4","last_reported":1752281962,"current_range_meters":12400,"station_id":"ce4bhb12rcd13ifvqem0","pricing_plan_id":"cebpf4jnsgd1na2vs0mg"},{"bike_id":"e8e03632-b9d1-480f-a4da-da482a543464","system_id":"levelo_inurba_marseille","lat":43.29021,"lon":5.37574,"is_reserved":false,"is_disabled":true,"rental_uris":{"android":"levelo://app?vid=e8e03632-b9d1-480f-a4da-da482a543464","ios":"levelo://app?vid=e8e03632-b9d1-480f-a4da-da482a543464"},"vehicle_type_id":"4","last_reported":1752281962,"current_range_meters":12800,"station_id":"ce4bh692rcd13ifvqe90","pricing_plan_id":"cebpf4jnsgd1na2vs0mg"},{"bike_id":"c1b25357-5d0b-4895-b90e-dff6a6d44ad5","system_id":"levelo_inurba_marseille","lat":43.31269,"lon":5.40173,"is_reserved":false,"is_disabled":false,"rental_uris":{"android":"levelo://app?vid=c1b25357-5d0b-4895-b90e-dff6a6d44ad5","ios":"levelo://app?vid=c1b25357-5d0b-4895-b90e-dff6a6d44ad5"},"vehicle_type_id":"4","last_reported":1752281962,"current_range_meters":12800,"station_id":"ce4bh092rcd13ifvqd30","pricing_plan_id":"cebpf4jnsgd1na2vs0mg"},{"bike_id":"85758837-e8e8-429b-9b62-411361adebf1","system_id":"levelo_inurba_marseille","lat":43.31759,"lon":5.39041,"is_reserved":false,"is_disabled":true,"rental_uris":{"android":"levelo://app?vid=85758837-e8e8-429b-9b62-411361adebf1","ios":"levelo://app?vid=85758837-e8e8-429b-9b62-411361adebf1"},"vehicle_type_id":"4","last_reported":1752281962,"current_range_meters":12800,"station_id":"ce4bhqp2rcd13ifvqhng","pricing_plan_id":"cebpf4jnsgd1na2vs0mg"},{"bike_id":"7b5cd6ce-df57-4328-854d-cb2d1407ab18","system_id":"levelo_inurba_marseille","lat":43.330363,"lon":5.390471,"is_reserved":false,"is_disabled":false,"rental_uris":{"android":"levelo://app?vid=7b5cd6ce-df57-4328-854d-cb2d1407ab18","ios":"levelo://app?vid=7b5cd6ce-df57-4328-854d-cb2d1407ab18"},"vehicle_type_id":"4","last_reported":1752281962,"current_range_meters":12800,"station_id":"ce4bhr92rcd13ifvqhrg","pricing_plan_id":"cebpf4jnsgd1na2vs0mg"},{"bike_id":"ceb8bcf8-9e11-4102-bd78-9a687c0c96d2","system_id":"levelo_inurba_marseille","lat":43.28908,"lon":5.38412,"is_reserved":false,"is_disabled":true,"rental_uris":{"android":"levelo://app?vid=ceb8bcf8-9e11-4102-bd78-9a687c0c96d2","ios":"levelo://app?vid=ceb8bcf8-9e11-4102-bd78-9a687c0c96d2"},"vehicle_type_id":"4","last_reported":1752281962,"current_range_meters":13600,"station_id":"ce4bh612rcd13ifvqe6g","pricing_plan_id":"cebpf4jnsgd1na2vs0mg"},{"bike_id":"8929c1bf-fd4d-44e4-aa66-b3eb6538c998","system_id":"levelo_inurba_marseille","lat":43.2857,"lon":5.42969,"is_reserved":false,"is_disabled":false,"rental_uris":{"android":"levelo://app?vid=8929c1bf-fd4d-44e4-aa66-b3eb6538c998","ios":"levelo://app?vid=8929c1bf-fd4d-44e4-aa66-b3eb6538c998"},"vehicle_type_id":"4","last_reported":1752281962,"current_range_meters":13600,"station_id":"","pricing_plan_id":"cebpf4jnsgd1na2vs0mg"},{"bike_id":"d70f3e21-e354-48ae-88ce-ac52cf88884e","system_id":"levelo_inurba_marseille","lat":43.28637,"lon":5.36351,"is_reserved":false,"is_disabled":false,"rental_uris":{"android":"levelo://app?vid=d70f3e21-e354-48ae-88ce-ac52cf88884e","ios":"levelo://app?vid=d70f3e21-e354-48ae-88ce-ac52cf88884e"},"vehicle_type_id":"4","last_reported":1752281962,"current_range_meters":12800,"station_id":"ce4bhah2rcd13ifvqej0","pricing_plan_id":"cebpf4jnsgd1na2vs0mg"},{"bike_id":"97d4bafb-1703-482a-9af9-9c0328bf232e","system_id":"levelo_inurba_marseille","lat":43.29542,"lon":5.375,"is_reserved":false,"is_disabled":true,"rental_uris":{"android":"levelo://app?vid=97d4bafb-1703-482a-9af9-9c0328bf232e","ios":"levelo://app?vid=97d4bafb-1703-482a-9af9-9c0328bf232e"},"vehicle_type_id":"4","last_reported":1752281962,"current_range_meters":13600,"station_id":"ce4bgkp2rcd13ifvqbmg","pricing_plan_id":"cebpf4jnsgd1na2vs0mg"},{"bike_id":"abb0acc4-71df-4998-bb59-1e7e60195447","system_id":"levelo_inurba_marseille","lat":43.29415,"lon":5.38614,"is_reserved":false,"is_disabled":true,"rental_uris":{"android":"levelo://app?vid=abb0acc4-71df-4998-bb59-1e7e60195447","ios":"levelo://app?vid=abb0acc4-71df-4998-bb59-1e7e60195447"},"vehicle_type_id":"4","last_reported":1752281962,"current_range_meters":13600,"station_id":"ce4bh2h2rcd13ifvqdh0","pricing_plan_id":"cebpf4jnsgd1na2vs0mg"},{"bike_id":"5d1b1cdc-f1d7-4672-8dd6-2b6abe79a380","system_id":"levelo_inurba_marseille","lat":43.29712,"lon":5.36604,"is_reserved":false,"is_disabled":false,"rental_uris":{"android":"levelo://app?vid=5d1b1cdc-f1d7-4672-8dd6-2b6abe79a380","ios":"levelo://app?vid=5d1b1cdc-f1d7-4672-8dd6-2b6abe79a380"},"vehicle_type_id":"4","last_reported":1752281962,"current_range_meters":13600,"station_id":"ce4bgn12rcd13ifvqbt0","pricing_plan_id":"cebpf4jnsgd1na2vs0mg"},{"bike_id":"dafa5a87-b26d-4379-9a6b-1f02133b78a6","system_id":"levelo_inurba_marseille","lat":43.21197,"lon":5.35084,"is_reserved":false,"is_disabled":false,"rental_uris":{"android":"levelo://app?vid=dafa5a87-b26d-4379-9a6b-1f02133b78a6","ios":"levelo://app?vid=dafa5a87-b26d-4379-9a6b-1f02133b78a6"},"vehicle_type_id":"4","last_reported":1752281962,"current_range_meters":13600,"station_id":"","pricing_plan_id":"cebpf4jnsgd1na2vs0mg"},{"bike_id":"c113b6ca-3c24-4b48-97e0-49e6db25d076","system_id":"levelo_inurba_marseille","lat":43.24178,"lon":5.39726,"is_reserved":false,"is_disabled":false,"rental_uris":{"android":"levelo://app?vid=c113b6ca-3c24-4b48-97e0-49e6db25d076","ios":"levelo://app?vid=c113b6ca-3c24-4b48-97e0-49e6db25d076"},"vehicle_type_id":"4","last_reported":1752281962,"current_range_meters":13600,"station_id":"ce4bhn12rcd13ifvqgpg","pricing_plan_id":"cebpf4jnsgd1na2vs0mg"},{"bike_id":"f94ffa1a-9f6b-44fe-ad32-3c4c92b3d69a","system_id":"levelo_inurba_marseille","lat":43.30142,"lon":5.39881,"is_reserved":false,"is_disabled":false,"rental_uris":{"android":"levelo://app?vid=f94ffa1a-9f6b-44fe-ad32-3c4c92b3d69a","ios":"levelo://app?vid=f94ffa1a-9f6b-44fe-ad32-3c4c92b3d69a"},"vehicle_type_id":"4","last_reported":1752281962,"current_range_meters":13600,"station_id":"ce4bh0h2rcd13ifvqd40","pricing_plan_id":"cebpf4jnsgd1na2vs0mg"},{"bike_id":"9a8048d4-46f2-4ef7-aa23-5310e4dbfdd4","system_id":"levelo_inurba_marseille","lat":43.27904,"lon":5.39592,"is_reserved":false,"is_disabled":false,"rental_uris":{"android":"levelo://app?vid=9a8048d4-46f2-4ef7-aa23-5310e4dbfdd4","ios":"levelo://app?vid=9a8048d4-46f2-4ef7-aa23-5310e4dbfdd4"},"vehicle_type_id":"4","last_reported":1752281962,"current_range_meters":14000,"station_id":"ce4bhf92rcd13ifvqf40","pricing_plan_id":"cebpf4jnsgd1na2vs0mg"},{"bike_id":"8fccf46e-4269-459a-bd9a-cdd93f6b32bc","system_id":"levelo_inurba_marseille","lat":43.30372,"lon":5.41892,"is_reserved":false,"is_disabled":true,"rental_uris":{"android":"levelo://app?vid=8fccf46e-4269-459a-bd9a-cdd93f6b32bc","ios":"levelo://app?vid=8fccf46e-4269-459a-bd9a-cdd93f6b32bc"},"vehicle_type_id":"4","last_reported":1752281962,"current_range_meters":14400,"station_id":"ce4bhop2rcd13ifvqh7g","pricing_plan_id":"cebpf4jnsgd1na2vs0mg"},{"bike_id":"14c75ebd-aa77-4ec2-b9d4-2651b4f829f9","system_id":"levelo_inurba_marseille","lat":43.30646,"lon":5.40099,"is_reserved":false,"is_disabled":false,"rental_uris":{"android":"levelo://app?vid=14c75ebd-aa77-4ec2-b9d4-2651b4f829f9","ios":"levelo://app?vid=14c75ebd-aa77-4ec2-b9d4-2651b4f829f9"},"vehicle_type_id":"4","last_reported":1752281962,"current_range_meters":14400,"station_id":"ce4bh112rcd13ifvqda0","pricing_plan_id":"cebpf4jnsgd1na2vs0mg"},{"bike_id":"e9fd0cf8-573b-4177-88a6-f1faf33e8aca","system_id":"levelo_inurba_marseille","lat":43.28998,"lon":5.35619,"is_reserved":false,"is_disabled":true,"rental_uris":{"android":"levelo://app?vid=e9fd0cf8-573b-4177-88a6-f1faf33e8aca","ios":"levelo://app?vid=e9fd0cf8-573b-4177-88a6-f1faf33e8aca"},"vehicle_type_id":"4","last_reported":1752281962,"current_range_meters":14400,"station_id":"ce4bhb92rcd13ifvqen0","pricing_plan_id":"cebpf4jnsgd1na2vs0mg"},{"bike_id":"43b90c82-97e0-4fa7-8b67-2448f07d529e","system_id":"levelo_inurba_marseille","lat":43.21192,"lon":5.35075,"is_reserved":false,"is_disabled":false,"rental_uris":{"android":"levelo://app?vid=43b90c82-97e0-4fa7-8b67-2448f07d529e","ios":"levelo://app?vid=43b90c82-97e0-4fa7-8b67-2448f07d529e"},"vehicle_type_id":"4","last_reported":1752281962,"current_range_meters":14400,"station_id":"","pricing_plan_id":"cebpf4jnsgd1na2vs0mg"},{"bike_id":"e51da3c1-8ab5-47c5-abee-45829a7c0aac","system_id":"levelo_inurba_marseille","lat":43.27263,"lon":5.39167,"is_reserved":false,"is_disabled":true,"rental_uris":{"android":"levelo://app?vid=e51da3c1-8ab5-47c5-abee-45829a7c0aac","ios":"levelo://app?vid=e51da3c1-8ab5-47c5-abee-45829a7c0aac"},"vehicle_type_id":"4","last_reported":1752281962,"current_range_meters":14400,"station_id":"ce4bhhp2rcd13ifvqfm0","pricing_plan_id":"cebpf4jnsgd1na2vs0mg"},{"bike_id":"d9d1fd9b-ea93-4b1d-b937-5a9fe33714df","system_id":"levelo_inurba_marseille","lat":43.23961,"lon":5.36629,"is_reserved":false,"is_disabled":false,"rental_uris":{"android":"levelo://app?vid=d9d1fd9b-ea93-4b1d-b937-5a9fe33714df","ios":"levelo://app?vid=d9d1fd9b-ea93-4b1d-b937-5a9fe33714df"},"vehicle_type_id":"4","last_reported":1752281962,"current_range_meters":14000,"station_id":"ce4bhi12rcd13ifvqfp0","pricing_plan_id":"cebpf4jnsgd1na2vs0mg"},{"bike_id":"5c09517d-9b0e-404d-8685-192cc354edb9","system_id":"levelo_inurba_marseille","lat":43.31073,"lon":5.38348,"is_reserved":false,"is_disabled":false,"rental_uris":{"android":"levelo://app?vid=5c09517d-9b0e-404d-8685-192cc354edb9","ios":"levelo://app?vid=5c09517d-9b0e-404d-8685-192cc354edb9"},"vehicle_type_id":"4","last_reported":1752281962,"current_range_meters":14400,"station_id":"ce4bgv92rcd13ifvqcr0","pricing_plan_id":"cebpf4jnsgd1na2vs0mg"},{"bike_id":"5cd74eda-833d-42c9-9173-69f518999a0c","system_id":"levelo_inurba_marseille","lat":43.341333,"lon":5.409213,"is_reserved":false,"is_disabled":false,"rental_uris":{"android":"levelo://app?vid=5cd74eda-833d-42c9-9173-69f518999a0c","ios":"levelo://app?vid=5cd74eda-833d-42c9-9173-69f518999a0c"},"vehicle_type_id":"4","last_reported":1752281962,"current_range_meters":14800,"station_id":"ce4bhqh2rcd13ifvqhlg","pricing_plan_id":"cebpf4jnsgd1na2vs0mg"},{"bike_id":"37b84a38-055a-4a6e-a56a-8ff3d0c1b2ec","system_id":"levelo_inurba_marseille","lat":43.212,"lon":5.35083,"is_reserved":false,"is_disabled":false,"rental_uris":{"android":"levelo://app?vid=37b84a38-055a-4a6e-a56a-8ff3d0c1b2ec","ios":"levelo://app?vid=37b84a38-055a-4a6e-a56a-8ff3d0c1b2ec"},"vehicle_type_id":"4","last_reported":1752281962,"current_range_meters":14800,"station_id":"st_cvj6sg6p6f1abm77japg","pricing_plan_id":"cebpf4jnsgd1na2vs0mg"},{"bike_id":"dbba3321-20c7-4989-a7b5-ea9ab2c4b3e8","system_id":"levelo_inurba_marseille","lat":43.261935,"lon":5.374477,"is_reserved":false,"is_disabled":false,"rental_uris":{"android":"levelo://app?vid=dbba3321-20c7-4989-a7b5-ea9ab2c4b3e8","ios":"levelo://app?vid=dbba3321-20c7-4989-a7b5-ea9ab2c4b3e8"},"vehicle_type_id":"4","last_reported":1752281962,"current_range_meters":14800,"station_id":"ce4bhgp2rcd13ifvqfc0","pricing_plan_id":"cebpf4jnsgd1na2vs0mg"},{"bike_id":"7cb8dc88-6904-47d4-8b31-16c1de8144c9","system_id":"levelo_inurba_marseille","lat":43.23152,"lon":5.43706,"is_reserved":false,"is_disabled":false,"rental_uris":{"android":"levelo://app?vid=7cb8dc88-6904-47d4-8b31-16c1de8144c9","ios":"levelo://app?vid=7cb8dc88-6904-47d4-8b31-16c1de8144c9"},"vehicle_type_id":"4","last_reported":1752281962,"current_range_meters":14800,"station_id":"ce4bhmp2rcd13ifvqgog","pricing_plan_id":"cebpf4jnsgd1na2vs0mg"},{"bike_id":"9d3805d9-aa86-410f-968a-fa15bc0ff0ab","system_id":"levelo_inurba_marseille","lat":43.308937,"lon":5.371887,"is_reserved":false,"is_disabled":false,"rental_uris":{"android":"levelo://app?vid=9d3805d9-aa86-410f-968a-fa15bc0ff0ab","ios":"levelo://app?vid=9d3805d9-aa86-410f-968a-fa15bc0ff0ab"},"vehicle_type_id":"4","last_reported":1752281962,"current_range_meters":14800,"station_id":"ce4bguh2rcd13ifvqckg","pricing_plan_id":"cebpf4jnsgd1na2vs0mg"},{"bike_id":"c453155a-5220-48fc-922b-600ca54f8ab5","system_id":"levelo_inurba_marseille","lat":43.28682,"lon":5.36362,"is_reserved":false,"is_disabled":true,"rental_uris":{"android":"levelo://app?vid=c453155a-5220-48fc-922b-600ca54f8ab5","ios":"levelo://app?vid=c453155a-5220-48fc-922b-600ca54f8ab5"},"vehicle_type_id":"4","last_reported":1752281962,"current_range_meters":15200,"station_id":"ce4bhah2rcd13ifvqej0","pricing_plan_id":"cebpf4jnsgd1na2vs0mg"},{"bike_id":"1aaa7326-b490-4c84-ac2e-a2dca829f21b","system_id":"levelo_inurba_marseille","lat":43.33719,"lon":5.39206,"is_reserved":false,"is_disabled":false,"rental_uris":{"android":"levelo://app?vid=1aaa7326-b490-4c84-ac2e-a2dca829f21b","ios":"levelo://app?vid=1aaa7326-b490-4c84-ac2e-a2dca829f21b"},"vehicle_type_id":"4","last_reported":1752281962,"current_range_meters":15200,"station_id":"ce4bhr92rcd13ifvqhsg","pricing_plan_id":"cebpf4jnsgd1na2vs0mg"},{"bike_id":"61198919-e72c-4fce-bc96-126627987dc0","system_id":"levelo_inurba_marseille","lat":43.29579,"lon":5.37896,"is_reserved":false,"is_disabled":false,"rental_uris":{"android":"levelo://app?vid=61198919-e72c-4fce-bc96-126627987dc0","ios":"levelo://app?vid=61198919-e72c-4fce-bc96-126627987dc0"},"vehicle_type_id":"4","last_reported":1752281962,"current_range_meters":15200,"station_id":"","pricing_plan_id":"cebpf4jnsgd1na2vs0mg"},{"bike_id":"7f064164-3173-43bd-aad9-1c0cd37d4c96","system_id":"levelo_inurba_marseille","lat":43.29281,"lon":5.40121,"is_reserved":false,"is_disabled":false,"rental_uris":{"android":"levelo://app?vid=7f064164-3173-43bd-aad9-1c0cd37d4c96","ios":"levelo://app?vid=7f064164-3173-43bd-aad9-1c0cd37d4c96"},"vehicle_type_id":"4","last_reported":1752281962,"current_range_meters":15200,"station_id":"ce4bh312rcd13ifvqdk0","pricing_plan_id":"cebpf4jnsgd1na2vs0mg"},{"bike_id":"eb6a2290-40e2-4780-bdeb-a149c699215d","system_id":"levelo_inurba_marseille","lat":43.27954,"lon":5.41032,"is_reserved":false,"is_disabled":false,"rental_uris":{"android":"levelo://app?vid=eb6a2290-40e2-4780-bdeb-a149c699215d","ios":"levelo://app?vid=eb6a2290-40e2-4780-bdeb-a149c699215d"},"vehicle_type_id":"4","last_reported":1752281962,"current_range_meters":15200,"station_id":"ce4bhnp2rcd13ifvqh0g","pricing_plan_id":"cebpf4jnsgd1na2vs0mg"},{"bike_id":"e595027d-84dc-4325-8fea-df2b8a9e12d0","system_id":"levelo_inurba_marseille","lat":43.28707,"lon":5.39992,"is_reserved":false,"is_disabled":false,"rental_uris":{"android":"levelo://app?vid=e595027d-84dc-4325-8fea-df2b8a9e12d0","ios":"levelo://app?vid=e595027d-84dc-4325-8fea-df2b8a9e12d0"},"vehicle_type_id":"4","last_reported":1752281962,"current_range_meters":15200,"station_id":"ce4bho92rcd13ifvqh3g","pricing_plan_id":"cebpf4jnsgd1na2vs0mg"},{"bike_id":"452e8211-4f44-45d0-814a-3e9e25b8c44e","system_id":"levelo_inurba_marseille","lat":43.21193,"lon":5.35073,"is_reserved":false,"is_disabled":false,"rental_uris":{"android":"levelo://app?vid=452e8211-4f44-45d0-814a-3e9e25b8c44e","ios":"levelo://app?vid=452e8211-4f44-45d0-814a-3e9e25b8c44e"},"vehicle_type_id":"4","last_reported":1752281962,"current_range_meters":15200,"station_id":"st_cvj6sg6p6f1abm77japg","pricing_plan_id":"cebpf4jnsgd1na2vs0mg"},{"bike_id":"e86ba8c9-208d-482c-a826-4c100938472a","system_id":"levelo_inurba_marseille","lat":43.21187,"lon":5.35078,"is_reserved":false,"is_disabled":false,"rental_uris":{"android":"levelo://app?vid=e86ba8c9-208d-482c-a826-4c100938472a","ios":"levelo://app?vid=e86ba8c9-208d-482c-a826-4c100938472a"},"vehicle_type_id":"4","last_reported":1752281962,"current_range_meters":15200,"station_id":"st_cvj6sg6p6f1abm77japg","pricing_plan_id":"cebpf4jnsgd1na2vs0mg"},{"bike_id":"ed019ecd-f4ca-470f-953e-821f34892065","system_id":"levelo_inurba_marseille","lat":43.30525,"lon":5.36723,"is_reserved":false,"is_disabled":true,"rental_uris":{"android":"levelo://app?vid=ed019ecd-f4ca-470f-953e-821f34892065","ios":"levelo://app?vid=ed019ecd-f4ca-470f-953e-821f34892065"},"vehicle_type_id":"4","last_reported":1752281962,"current_range_meters":16000,"station_id":"ce4bgrp2rcd13ifvqc9g","pricing_plan_id":"cebpf4jnsgd1na2vs0mg"},{"bike_id":"042461e1-66c6-43d1-9f02-79b7d6b213c2","system_id":"levelo_inurba_marseille","lat":43.31344,"lon":5.38526,"is_reserved":false,"is_disabled":false,"rental_uris":{"android":"levelo://app?vid=042461e1-66c6-43d1-9f02-79b7d6b213c2","ios":"levelo://app?vid=042461e1-66c6-43d1-9f02-79b7d6b213c2"},"vehicle_type_id":"4","last_reported":1752281962,"current_range_meters":16000,"station_id":"ce4bgt92rcd13ifvqcf0","pricing_plan_id":"cebpf4jnsgd1na2vs0mg"},{"bike_id":"a100566b-d122-47f7-b059-1aae620ff9b3","system_id":"levelo_inurba_marseille","lat":43.24057,"lon":5.37767,"is_reserved":false,"is_disabled":false,"rental_uris":{"android":"levelo://app?vid=a100566b-d122-47f7-b059-1aae620ff9b3","ios":"levelo://app?vid=a100566b-d122-47f7-b059-1aae620ff9b3"},"vehicle_type_id":"4","last_reported":1752281962,"current_range_meters":16000,"station_id":"ce4bhnp2rcd13ifvqgvg","pricing_plan_id":"cebpf4jnsgd1na2vs0mg"},{"bike_id":"780f127a-a57f-4698-84c8-ba7c41c4ee14","system_id":"levelo_inurba_marseille","lat":43.28931,"lon":5.36644,"is_reserved":false,"is_disabled":false,"rental_uris":{"android":"levelo://app?vid=780f127a-a57f-4698-84c8-ba7c41c4ee14","ios":"levelo://app?vid=780f127a-a57f-4698-84c8-ba7c41c4ee14"},"vehicle_type_id":"4","last_reported":1752281962,"current_range_meters":16000,"station_id":"ce4bhap2rcd13ifvqek0","pricing_plan_id":"cebpf4jnsgd1na2vs0mg"},{"bike_id":"7d4e73db-071f-473e-86d9-50fa1d48b328","system_id":"levelo_inurba_marseille","lat":43.28586,"lon":5.37072,"is_reserved":false,"is_disabled":false,"rental_uris":{"android":"levelo://app?vid=7d4e73db-071f-473e-86d9-50fa1d48b328","ios":"levelo://app?vid=7d4e73db-071f-473e-86d9-50fa1d48b328"},"vehicle_type_id":"4","last_reported":1752281962,"current_range_meters":16000,"station_id":"ce4bht12rcd13ifvqi60","pricing_plan_id":"cebpf4jnsgd1na2vs0mg"},{"bike_id":"a81ede20-43a9-47cd-942d-8fb15c54f5f7","system_id":"levelo_inurba_marseille","lat":43.30067,"lon":5.45187,"is_reserved":false,"is_disabled":false,"rental_uris":{"android":"levelo://app?vid=a81ede20-43a9-47cd-942d-8fb15c54f5f7","ios":"levelo://app?vid=a81ede20-43a9-47cd-942d-8fb15c54f5f7"},"vehicle_type_id":"4","last_reported":1752281962,"current_range_meters":16400,"station_id":"","pricing_plan_id":"cebpf4jnsgd1na2vs0mg"},{"bike_id":"58c86ff8-b444-4637-8b8c-414b4195493a","system_id":"levelo_inurba_marseille","lat":43.28089,"lon":5.39671,"is_reserved":false,"is_disabled":false,"rental_uris":{"android":"levelo://app?vid=58c86ff8-b444-4637-8b8c-414b4195493a","ios":"levelo://app?vid=58c86ff8-b444-4637-8b8c-414b4195493a"},"vehicle_type_id":"4","last_reported":1752281962,"current_range_meters":16400,"station_id":"ce4bho12rcd13ifvqh2g","pricing_plan_id":"cebpf4jnsgd1na2vs0mg"},{"bike_id":"aaa3b10e-8c10-48cf-933e-220b9a468a85","system_id":"levelo_inurba_marseille","lat":43.21744,"lon":5.34612,"is_reserved":false,"is_disabled":false,"rental_uris":{"android":"levelo://app?vid=aaa3b10e-8c10-48cf-933e-220b9a468a85","ios":"levelo://app?vid=aaa3b10e-8c10-48cf-933e-220b9a468a85"},"vehicle_type_id":"4","last_reported":1752281962,"current_range_meters":16400,"station_id":"","pricing_plan_id":"cebpf4jnsgd1na2vs0mg"},{"bike_id":"a581eef9-f0fb-4e5d-8be0-84b96bfd2d41","system_id":"levelo_inurba_marseille","lat":43.29373,"lon":5.37851,"is_reserved":false,"is_disabled":true,"rental_uris":{"android":"levelo://app?vid=a581eef9-f0fb-4e5d-8be0-84b96bfd2d41","ios":"levelo://app?vid=a581eef9-f0fb-4e5d-8be0-84b96bfd2d41"},"vehicle_type_id":"4","last_reported":1752281962,"current_range_meters":16400,"station_id":"ce4bgjh2rcd13ifvqbf0","pricing_plan_id":"cebpf4jnsgd1na2vs0mg"},{"bike_id":"40968cb4-b083-48ec-b148-14ca52f95cef","system_id":"levelo_inurba_marseille","lat":43.292986,"lon":5.374656,"is_reserved":false,"is_disabled":false,"rental_uris":{"android":"levelo://app?vid=40968cb4-b083-48ec-b148-14ca52f95cef","ios":"levelo://app?vid=40968cb4-b083-48ec-b148-14ca52f95cef"},"vehicle_type_id":"4","last_reported":1752281962,"current_range_meters":16400,"station_id":"","pricing_plan_id":"cebpf4jnsgd1na2vs0mg"},{"bike_id":"dc534a28-259f-45be-93ed-2fa217eb3cda","system_id":"levelo_inurba_marseille","lat":43.30789,"lon":5.3817,"is_reserved":false,"is_disabled":false,"rental_uris":{"android":"levelo://app?vid=dc534a28-259f-45be-93ed-2fa217eb3cda","ios":"levelo://app?vid=dc534a28-259f-45be-93ed-2fa217eb3cda"},"vehicle_type_id":"4","last_reported":1752281962,"current_range_meters":16400,"station_id":"ce4bgt12rcd13ifvqce0","pricing_plan_id":"cebpf4jnsgd1na2vs0mg"},{"bike_id":"25e5f971-a9c9-4b07-bb3b-bff8f5b484ea","system_id":"levelo_inurba_marseille","lat":43.309292,"lon":5.401552,"is_reserved":false,"is_disabled":false,"rental_uris":{"android":"levelo://app?vid=25e5f971-a9c9-4b07-bb3b-bff8f5b484ea","ios":"levelo://app?vid=25e5f971-a9c9-4b07-bb3b-bff8f5b484ea"},"vehicle_type_id":"4","last_reported":1752281962,"current_range_meters":16400,"station_id":"ce4bgvp2rcd13ifvqct0","pricing_plan_id":"cebpf4jnsgd1na2vs0mg"},{"bike_id":"ba7e3217-8069-471e-8907-7c5152d45243","system_id":"levelo_inurba_marseille","lat":43.26226,"lon":5.40483,"is_reserved":false,"is_disabled":false,"rental_uris":{"android":"levelo://app?vid=ba7e3217-8069-471e-8907-7c5152d45243","ios":"levelo://app?vid=ba7e3217-8069-471e-8907-7c5152d45243"},"vehicle_type_id":"4","last_reported":1752281962,"current_range_meters":16800,"station_id":"ce4bhmh2rcd13ifvqgmg","pricing_plan_id":"cebpf4jnsgd1na2vs0mg"},{"bike_id":"530fdaa0-3dcf-48bd-ae6d-18f67ca1c283","system_id":"levelo_inurba_marseille","lat":43.297111,"lon":5.366155,"is_reserved":false,"is_disabled":false,"rental_uris":{"android":"levelo://app?vid=530fdaa0-3dcf-48bd-ae6d-18f67ca1c283","ios":"levelo://app?vid=530fdaa0-3dcf-48bd-ae6d-18f67ca1c283"},"vehicle_type_id":"4","last_reported":1752281962,"current_range_meters":16800,"station_id":"ce4bgm92rcd13ifvqbr0","pricing_plan_id":"cebpf4jnsgd1na2vs0mg"},{"bike_id":"709c9beb-13f1-45e2-bbd1-0f71d60cf8b2","system_id":"levelo_inurba_marseille","lat":43.30922,"lon":5.401555,"is_reserved":false,"is_disabled":true,"rental_uris":{"android":"levelo://app?vid=709c9beb-13f1-45e2-bbd1-0f71d60cf8b2","ios":"levelo://app?vid=709c9beb-13f1-45e2-bbd1-0f71d60cf8b2"},"vehicle_type_id":"4","last_reported":1752281962,"current_range_meters":16800,"station_id":"ce4bgvp2rcd13ifvqct0","pricing_plan_id":"cebpf4jnsgd1na2vs0mg"},{"bike_id":"f05b8bfe-6934-41c1-8e7b-6912b26dbed6","system_id":"levelo_inurba_marseille","lat":43.26561,"lon":5.39043,"is_reserved":false,"is_disabled":false,"rental_uris":{"android":"levelo://app?vid=f05b8bfe-6934-41c1-8e7b-6912b26dbed6","ios":"levelo://app?vid=f05b8bfe-6934-41c1-8e7b-6912b26dbed6"},"vehicle_type_id":"4","last_reported":1752281962,"current_range_meters":16800,"station_id":"ce4bhe12rcd13ifvqf30","pricing_plan_id":"cebpf4jnsgd1na2vs0mg"},{"bike_id":"7ae3c05b-b3f8-4752-80d6-117d478c59d0","system_id":"levelo_inurba_marseille","lat":43.3088,"lon":5.39648,"is_reserved":false,"is_disabled":false,"rental_uris":{"android":"levelo://app?vid=7ae3c05b-b3f8-4752-80d6-117d478c59d0","ios":"levelo://app?vid=7ae3c05b-b3f8-4752-80d6-117d478c59d0"},"vehicle_type_id":"4","last_reported":1752281962,"current_range_meters":16800,"station_id":"ce4bh012rcd13ifvqcv0","pricing_plan_id":"cebpf4jnsgd1na2vs0mg"},{"bike_id":"a259e39e-0666-4dee-aa02-5b472bfbb7b0","system_id":"levelo_inurba_marseille","lat":43.3013,"lon":5.39868,"is_reserved":false,"is_disabled":false,"rental_uris":{"android":"levelo://app?vid=a259e39e-0666-4dee-aa02-5b472bfbb7b0","ios":"levelo://app?vid=a259e39e-0666-4dee-aa02-5b472bfbb7b0"},"vehicle_type_id":"4","last_reported":1752281962,"current_range_meters":16800,"station_id":"ce4bh0h2rcd13ifvqd40","pricing_plan_id":"cebpf4jnsgd1na2vs0mg"},{"bike_id":"94041aa2-1754-4746-a1a4-f32c3e0de584","system_id":"levelo_inurba_marseille","lat":43.25086,"lon":5.39525,"is_reserved":false,"is_disabled":false,"rental_uris":{"android":"levelo://app?vid=94041aa2-1754-4746-a1a4-f32c3e0de584","ios":"levelo://app?vid=94041aa2-1754-4746-a1a4-f32c3e0de584"},"vehicle_type_id":"4","last_reported":1752281962,"current_range_meters":16800,"station_id":"ce4bhm12rcd13ifvqgkg","pricing_plan_id":"cebpf4jnsgd1na2vs0mg"},{"bike_id":"c30b5666-7a33-4108-ae65-b0d60d868a84","system_id":"levelo_inurba_marseille","lat":43.29175,"lon":5.39308,"is_reserved":false,"is_disabled":false,"rental_uris":{"android":"levelo://app?vid=c30b5666-7a33-4108-ae65-b0d60d868a84","ios":"levelo://app?vid=c30b5666-7a33-4108-ae65-b0d60d868a84"},"vehicle_type_id":"4","last_reported":1752281962,"current_range_meters":16800,"station_id":"ce4bh192rcd13ifvqdd0","pricing_plan_id":"cebpf4jnsgd1na2vs0mg"},{"bike_id":"ad023729-3d33-44a6-99ca-a047715b7f88","system_id":"levelo_inurba_marseille","lat":43.21183,"lon":5.35075,"is_reserved":false,"is_disabled":false,"rental_uris":{"android":"levelo://app?vid=ad023729-3d33-44a6-99ca-a047715b7f88","ios":"levelo://app?vid=ad023729-3d33-44a6-99ca-a047715b7f88"},"vehicle_type_id":"4","last_reported":1752281962,"current_range_meters":16800,"station_id":"st_cvj6sg6p6f1abm77japg","pricing_plan_id":"cebpf4jnsgd1na2vs0mg"},{"bike_id":"f2770ea1-d1a3-4b88-95ee-a5994bbb099d","system_id":"levelo_inurba_marseille","lat":43.287121,"lon":5.399911,"is_reserved":false,"is_disabled":false,"rental_uris":{"android":"levelo://app?vid=f2770ea1-d1a3-4b88-95ee-a5994bbb099d","ios":"levelo://app?vid=f2770ea1-d1a3-4b88-95ee-a5994bbb099d"},"vehicle_type_id":"4","last_reported":1752281962,"current_range_meters":16800,"station_id":"ce4bho92rcd13ifvqh3g","pricing_plan_id":"cebpf4jnsgd1na2vs0mg"},{"bike_id":"de66b8a7-0531-49db-91a9-781cfbdccc21","system_id":"levelo_inurba_marseille","lat":43.28836,"lon":5.35866,"is_reserved":false,"is_disabled":false,"rental_uris":{"android":"levelo://app?vid=de66b8a7-0531-49db-91a9-781cfbdccc21","ios":"levelo://app?vid=de66b8a7-0531-49db-91a9-781cfbdccc21"},"vehicle_type_id":"4","last_reported":1752281962,"current_range_meters":16800,"station_id":"ce4bhb12rcd13ifvqem0","pricing_plan_id":"cebpf4jnsgd1na2vs0mg"},{"bike_id":"dfb324bb-b3fa-42ac-af97-fcb3ac59c854","system_id":"levelo_inurba_marseille","lat":43.297808,"lon":5.371112,"is_reserved":false,"is_disabled":false,"rental_uris":{"android":"levelo://app?vid=dfb324bb-b3fa-42ac-af97-fcb3ac59c854","ios":"levelo://app?vid=dfb324bb-b3fa-42ac-af97-fcb3ac59c854"},"vehicle_type_id":"4","last_reported":1752281962,"current_range_meters":17200,"station_id":"ce4bgop2rcd13ifvqc1g","pricing_plan_id":"cebpf4jnsgd1na2vs0mg"},{"bike_id":"945ee497-716d-4428-8e06-654204cd1360","system_id":"levelo_inurba_marseille","lat":43.27558,"lon":5.38439,"is_reserved":false,"is_disabled":false,"rental_uris":{"android":"levelo://app?vid=945ee497-716d-4428-8e06-654204cd1360","ios":"levelo://app?vid=945ee497-716d-4428-8e06-654204cd1360"},"vehicle_type_id":"4","last_reported":1752281962,"current_range_meters":17200,"station_id":"ce4bhh92rcd13ifvqfi0","pricing_plan_id":"cebpf4jnsgd1na2vs0mg"},{"bike_id":"2d98c144-979b-4cdc-9c63-d39d433bf790","system_id":"levelo_inurba_marseille","lat":43.267799,"lon":5.394426,"is_reserved":false,"is_disabled":true,"rental_uris":{"android":"levelo://app?vid=2d98c144-979b-4cdc-9c63-d39d433bf790","ios":"levelo://app?vid=2d98c144-979b-4cdc-9c63-d39d433bf790"},"vehicle_type_id":"4","last_reported":1752281962,"current_range_meters":17200,"station_id":"ce4bhh12rcd13ifvqfg0","pricing_plan_id":"cebpf4jnsgd1na2vs0mg"},{"bike_id":"ed35d618-f357-4055-9d4e-9fed8855119e","system_id":"levelo_inurba_marseille","lat":43.27566,"lon":5.38433,"is_reserved":false,"is_disabled":false,"rental_uris":{"android":"levelo://app?vid=ed35d618-f357-4055-9d4e-9fed8855119e","ios":"levelo://app?vid=ed35d618-f357-4055-9d4e-9fed8855119e"},"vehicle_type_id":"4","last_reported":1752281962,"current_range_meters":17200,"station_id":"ce4bhh92rcd13ifvqfi0","pricing_plan_id":"cebpf4jnsgd1na2vs0mg"},{"bike_id":"ab747595-1a47-46ae-8ea5-f266a6b4d45c","system_id":"levelo_inurba_marseille","lat":43.29888,"lon":5.43672,"is_reserved":false,"is_disabled":false,"rental_uris":{"android":"levelo://app?vid=ab747595-1a47-46ae-8ea5-f266a6b4d45c","ios":"levelo://app?vid=ab747595-1a47-46ae-8ea5-f266a6b4d45c"},"vehicle_type_id":"4","last_reported":1752281962,"current_range_meters":17200,"station_id":"ce4bhpp2rcd13ifvqhfg","pricing_plan_id":"cebpf4jnsgd1na2vs0mg"},{"bike_id":"470d1e9d-8c05-40b8-a6b2-039f183b9f6a","system_id":"levelo_inurba_marseille","lat":43.23193,"lon":5.35578,"is_reserved":false,"is_disabled":true,"rental_uris":{"android":"levelo://app?vid=470d1e9d-8c05-40b8-a6b2-039f183b9f6a","ios":"levelo://app?vid=470d1e9d-8c05-40b8-a6b2-039f183b9f6a"},"vehicle_type_id":"4","last_reported":1752281962,"current_range_meters":17200,"station_id":"ce4bhu92rcd13ifvqi70","pricing_plan_id":"cebpf4jnsgd1na2vs0mg"},{"bike_id":"888bd7d8-4ec5-4282-97cb-63503f2485c0","system_id":"levelo_inurba_marseille","lat":43.30802,"lon":5.38146,"is_reserved":false,"is_disabled":false,"rental_uris":{"android":"levelo://app?vid=888bd7d8-4ec5-4282-97cb-63503f2485c0","ios":"levelo://app?vid=888bd7d8-4ec5-4282-97cb-63503f2485c0"},"vehicle_type_id":"4","last_reported":1752281962,"current_range_meters":17600,"station_id":"ce4bgt12rcd13ifvqce0","pricing_plan_id":"cebpf4jnsgd1na2vs0mg"},{"bike_id":"412afb4e-4f76-4025-a6ca-7f64bda83e72","system_id":"levelo_inurba_marseille","lat":43.245494,"lon":5.395302,"is_reserved":false,"is_disabled":false,"rental_uris":{"android":"levelo://app?vid=412afb4e-4f76-4025-a6ca-7f64bda83e72","ios":"levelo://app?vid=412afb4e-4f76-4025-a6ca-7f64bda83e72"},"vehicle_type_id":"4","last_reported":1752281962,"current_range_meters":17600,"station_id":"ce4bhlp2rcd13ifvqgjg","pricing_plan_id":"cebpf4jnsgd1na2vs0mg"},{"bike_id":"bc764bd5-7cb2-454a-9663-a76a9304a0c4","system_id":"levelo_inurba_marseille","lat":43.30932,"lon":5.40155,"is_reserved":false,"is_disabled":false,"rental_uris":{"android":"levelo://app?vid=bc764bd5-7cb2-454a-9663-a76a9304a0c4","ios":"levelo://app?vid=bc764bd5-7cb2-454a-9663-a76a9304a0c4"},"vehicle_type_id":"4","last_reported":1752281962,"current_range_meters":17200,"station_id":"ce4bgvp2rcd13ifvqct0","pricing_plan_id":"cebpf4jnsgd1na2vs0mg"},{"bike_id":"44cb55d7-0a6b-4498-9996-58505fae2254","system_id":"levelo_inurba_marseille","lat":43.3063,"lon":5.40032,"is_reserved":false,"is_disabled":false,"rental_uris":{"android":"levelo://app?vid=44cb55d7-0a6b-4498-9996-58505fae2254","ios":"levelo://app?vid=44cb55d7-0a6b-4498-9996-58505fae2254"},"vehicle_type_id":"4","last_reported":1752281962,"current_range_meters":17600,"station_id":"","pricing_plan_id":"cebpf4jnsgd1na2vs0mg"},{"bike_id":"919e600e-ebda-4ca0-9126-38ed65a36143","system_id":"levelo_inurba_marseille","lat":43.21184,"lon":5.3508,"is_reserved":false,"is_disabled":false,"rental_uris":{"android":"levelo://app?vid=919e600e-ebda-4ca0-9126-38ed65a36143","ios":"levelo://app?vid=919e600e-ebda-4ca0-9126-38ed65a36143"},"vehicle_type_id":"4","last_reported":1752281962,"current_range_meters":17600,"station_id":"st_cvj6sg6p6f1abm77japg","pricing_plan_id":"cebpf4jnsgd1na2vs0mg"},{"bike_id":"a88ad0f9-4dc9-4f3f-841b-ae01ad57516a","system_id":"levelo_inurba_marseille","lat":43.266891,"lon":5.382693,"is_reserved":false,"is_disabled":true,"rental_uris":{"android":"levelo://app?vid=a88ad0f9-4dc9-4f3f-841b-ae01ad57516a","ios":"levelo://app?vid=a88ad0f9-4dc9-4f3f-841b-ae01ad57516a"},"vehicle_type_id":"4","last_reported":1752281962,"current_range_meters":18000,"station_id":"ce4bhg92rcd13ifvqf90","pricing_plan_id":"cebpf4jnsgd1na2vs0mg"},{"bike_id":"2359f3f7-38ee-46af-9b03-857508499f94","system_id":"levelo_inurba_marseille","lat":43.30261,"lon":5.40072,"is_reserved":false,"is_disabled":false,"rental_uris":{"android":"levelo://app?vid=2359f3f7-38ee-46af-9b03-857508499f94","ios":"levelo://app?vid=2359f3f7-38ee-46af-9b03-857508499f94"},"vehicle_type_id":"4","last_reported":1752281962,"current_range_meters":18000,"station_id":"ce4bgvh2rcd13ifvqcs0","pricing_plan_id":"cebpf4jnsgd1na2vs0mg"},{"bike_id":"607eff80-7879-4cd4-802a-27da59b17290","system_id":"levelo_inurba_marseille","lat":43.30874,"lon":5.39632,"is_reserved":false,"is_disabled":false,"rental_uris":{"android":"levelo://app?vid=607eff80-7879-4cd4-802a-27da59b17290","ios":"levelo://app?vid=607eff80-7879-4cd4-802a-27da59b17290"},"vehicle_type_id":"4","last_reported":1752281962,"current_range_meters":18000,"station_id":"ce4bh012rcd13ifvqcv0","pricing_plan_id":"cebpf4jnsgd1na2vs0mg"},{"bike_id":"3efad7fc-3bae-4b01-b6d8-edd7c4aa748e","system_id":"levelo_inurba_marseille","lat":43.26554,"lon":5.39046,"is_reserved":false,"is_disabled":false,"rental_uris":{"android":"levelo://app?vid=3efad7fc-3bae-4b01-b6d8-edd7c4aa748e","ios":"levelo://app?vid=3efad7fc-3bae-4b01-b6d8-edd7c4aa748e"},"vehicle_type_id":"4","last_reported":1752281962,"current_range_meters":18000,"station_id":"ce4bhe12rcd13ifvqf30","pricing_plan_id":"cebpf4jnsgd1na2vs0mg"},{"bike_id":"f20dc79a-7198-418a-9671-1d3f28b0b615","system_id":"levelo_inurba_marseille","lat":43.25106,"lon":5.40325,"is_reserved":false,"is_disabled":false,"rental_uris":{"android":"levelo://app?vid=f20dc79a-7198-418a-9671-1d3f28b0b615","ios":"levelo://app?vid=f20dc79a-7198-418a-9671-1d3f28b0b615"},"vehicle_type_id":"4","last_reported":1752281962,"current_range_meters":18000,"station_id":"ce4bhlh2rcd13ifvqgig","pricing_plan_id":"cebpf4jnsgd1na2vs0mg"},{"bike_id":"51890362-46b0-4ee7-9f02-afbf036d064e","system_id":"levelo_inurba_marseille","lat":43.21206,"lon":5.35033,"is_reserved":false,"is_disabled":false,"rental_uris":{"android":"levelo://app?vid=51890362-46b0-4ee7-9f02-afbf036d064e","ios":"levelo://app?vid=51890362-46b0-4ee7-9f02-afbf036d064e"},"vehicle_type_id":"4","last_reported":1752281962,"current_range_meters":18000,"station_id":"st_cvj6sg6p6f1abm77japg","pricing_plan_id":"cebpf4jnsgd1na2vs0mg"},{"bike_id":"c6f7dabd-b092-4554-a710-07eb4af96a4c","system_id":"levelo_inurba_marseille","lat":43.21192,"lon":5.35083,"is_reserved":false,"is_disabled":false,"rental_uris":{"android":"levelo://app?vid=c6f7dabd-b092-4554-a710-07eb4af96a4c","ios":"levelo://app?vid=c6f7dabd-b092-4554-a710-07eb4af96a4c"},"vehicle_type_id":"4","last_reported":1752281962,"current_range_meters":18000,"station_id":"st_cvj6sg6p6f1abm77japg","pricing_plan_id":"cebpf4jnsgd1na2vs0mg"},{"bike_id":"ded1613d-37f4-4636-b9a1-5b3ab463f128","system_id":"levelo_inurba_marseille","lat":43.30138,"lon":5.39881,"is_reserved":false,"is_disabled":false,"rental_uris":{"android":"levelo://app?vid=ded1613d-37f4-4636-b9a1-5b3ab463f128","ios":"levelo://app?vid=ded1613d-37f4-4636-b9a1-5b3ab463f128"},"vehicle_type_id":"4","last_reported":1752281962,"current_range_meters":18000,"station_id":"ce4bh0h2rcd13ifvqd40","pricing_plan_id":"cebpf4jnsgd1na2vs0mg"},{"bike_id":"2a66106d-d0c2-4fdb-a0d3-33bcad5edb0d","system_id":"levelo_inurba_marseille","lat":43.32105,"lon":5.36791,"is_reserved":false,"is_disabled":false,"rental_uris":{"android":"levelo://app?vid=2a66106d-d0c2-4fdb-a0d3-33bcad5edb0d","ios":"levelo://app?vid=2a66106d-d0c2-4fdb-a0d3-33bcad5edb0d"},"vehicle_type_id":"4","last_reported":1752281962,"current_range_meters":18000,"station_id":"ce4bhrh2rcd13ifvqhug","pricing_plan_id":"cebpf4jnsgd1na2vs0mg"},{"bike_id":"00bc0b3b-e317-4a17-a011-a3a9a29d816a","system_id":"levelo_inurba_marseille","lat":43.21199,"lon":5.35097,"is_reserved":false,"is_disabled":false,"rental_uris":{"android":"levelo://app?vid=00bc0b3b-e317-4a17-a011-a3a9a29d816a","ios":"levelo://app?vid=00bc0b3b-e317-4a17-a011-a3a9a29d816a"},"vehicle_type_id":"4","last_reported":1752281962,"current_range_meters":18800,"station_id":"st_cvj6sg6p6f1abm77japg","pricing_plan_id":"cebpf4jnsgd1na2vs0mg"},{"bike_id":"ee5338dd-18a1-4b48-a5b0-f8c72f7b1319","system_id":"levelo_inurba_marseille","lat":43.31798,"lon":5.36861,"is_reserved":false,"is_disabled":false,"rental_uris":{"android":"levelo://app?vid=ee5338dd-18a1-4b48-a5b0-f8c72f7b1319","ios":"levelo://app?vid=ee5338dd-18a1-4b48-a5b0-f8c72f7b1319"},"vehicle_type_id":"4","last_reported":1752281962,"current_range_meters":18800,"station_id":"","pricing_plan_id":"cebpf4jnsgd1na2vs0mg"},{"bike_id":"3e01e98e-784c-40cc-9a58-943021295c96","system_id":"levelo_inurba_marseille","lat":43.265,"lon":5.39548,"is_reserved":false,"is_disabled":false,"rental_uris":{"android":"levelo://app?vid=3e01e98e-784c-40cc-9a58-943021295c96","ios":"levelo://app?vid=3e01e98e-784c-40cc-9a58-943021295c96"},"vehicle_type_id":"4","last_reported":1752281962,"current_range_meters":18800,"station_id":"ce4bhi12rcd13ifvqfq0","pricing_plan_id":"cebpf4jnsgd1na2vs0mg"},{"bike_id":"fe9d49e1-a07a-4343-a1f5-cbcd31489875","system_id":"levelo_inurba_marseille","lat":43.25112,"lon":5.40324,"is_reserved":false,"is_disabled":false,"rental_uris":{"android":"levelo://app?vid=fe9d49e1-a07a-4343-a1f5-cbcd31489875","ios":"levelo://app?vid=fe9d49e1-a07a-4343-a1f5-cbcd31489875"},"vehicle_type_id":"4","last_reported":1752281962,"current_range_meters":18800,"station_id":"ce4bhlh2rcd13ifvqgig","pricing_plan_id":"cebpf4jnsgd1na2vs0mg"},{"bike_id":"e37a2d08-72ed-4015-b714-186e1a332d22","system_id":"levelo_inurba_marseille","lat":43.28666,"lon":5.38655,"is_reserved":false,"is_disabled":false,"rental_uris":{"android":"levelo://app?vid=e37a2d08-72ed-4015-b714-186e1a332d22","ios":"levelo://app?vid=e37a2d08-72ed-4015-b714-186e1a332d22"},"vehicle_type_id":"4","last_reported":1752281962,"current_range_meters":18800,"station_id":"ce4bh492rcd13ifvqdug","pricing_plan_id":"cebpf4jnsgd1na2vs0mg"},{"bike_id":"aa8a00b9-2491-4c8f-8db3-eb96ac3f63f5","system_id":"levelo_inurba_marseille","lat":43.30932,"lon":5.40166,"is_reserved":false,"is_disabled":false,"rental_uris":{"android":"levelo://app?vid=aa8a00b9-2491-4c8f-8db3-eb96ac3f63f5","ios":"levelo://app?vid=aa8a00b9-2491-4c8f-8db3-eb96ac3f63f5"},"vehicle_type_id":"4","last_reported":1752281962,"current_range_meters":18800,"station_id":"ce4bgvp2rcd13ifvqct0","pricing_plan_id":"cebpf4jnsgd1na2vs0mg"},{"bike_id":"486ee436-dc2c-4cbf-b133-565f554ddb1e","system_id":"levelo_inurba_marseille","lat":43.25101,"lon":5.40311,"is_reserved":false,"is_disabled":false,"rental_uris":{"android":"levelo://app?vid=486ee436-dc2c-4cbf-b133-565f554ddb1e","ios":"levelo://app?vid=486ee436-dc2c-4cbf-b133-565f554ddb1e"},"vehicle_type_id":"4","last_reported":1752281962,"current_range_meters":18800,"station_id":"ce4bhlh2rcd13ifvqgig","pricing_plan_id":"cebpf4jnsgd1na2vs0mg"},{"bike_id":"8e96cc1c-7c1c-42f1-8e93-5f09751459d9","system_id":"levelo_inurba_marseille","lat":43.29287,"lon":5.37423,"is_reserved":false,"is_disabled":true,"rental_uris":{"android":"levelo://app?vid=8e96cc1c-7c1c-42f1-8e93-5f09751459d9","ios":"levelo://app?vid=8e96cc1c-7c1c-42f1-8e93-5f09751459d9"},"vehicle_type_id":"4","last_reported":1752281962,"current_range_meters":18800,"station_id":"ce4bgi12rcd13ifvqb70","pricing_plan_id":"cebpf4jnsgd1na2vs0mg"},{"bike_id":"a0137104-c9f4-434a-a5e3-80725cd5a2b4","system_id":"levelo_inurba_marseille","lat":43.21193,"lon":5.35075,"is_reserved":false,"is_disabled":false,"rental_uris":{"android":"levelo://app?vid=a0137104-c9f4-434a-a5e3-80725cd5a2b4","ios":"levelo://app?vid=a0137104-c9f4-434a-a5e3-80725cd5a2b4"},"vehicle_type_id":"4","last_reported":1752281962,"current_range_meters":18800,"station_id":"st_cvj6sg6p6f1abm77japg","pricing_plan_id":"cebpf4jnsgd1na2vs0mg"},{"bike_id":"00bb04d2-087b-4ba0-958b-5c83f2321f0a","system_id":"levelo_inurba_marseille","lat":43.295486,"lon":5.423132,"is_reserved":false,"is_disabled":false,"rental_uris":{"android":"levelo://app?vid=00bb04d2-087b-4ba0-958b-5c83f2321f0a","ios":"levelo://app?vid=00bb04d2-087b-4ba0-958b-5c83f2321f0a"},"vehicle_type_id":"4","last_reported":1752281962,"current_range_meters":19200,"station_id":"ce4bhph2rcd13ifvqhdg","pricing_plan_id":"cebpf4jnsgd1na2vs0mg"},{"bike_id":"8b37f03f-f226-4bbc-8648-b109da7ba145","system_id":"levelo_inurba_marseille","lat":43.30536,"lon":5.366999,"is_reserved":false,"is_disabled":false,"rental_uris":{"android":"levelo://app?vid=8b37f03f-f226-4bbc-8648-b109da7ba145","ios":"levelo://app?vid=8b37f03f-f226-4bbc-8648-b109da7ba145"},"vehicle_type_id":"4","last_reported":1752281962,"current_range_meters":19200,"station_id":"","pricing_plan_id":"cebpf4jnsgd1na2vs0mg"},{"bike_id":"bad267d6-0acd-4756-b930-3bfe47036978","system_id":"levelo_inurba_marseille","lat":43.29025,"lon":5.38634,"is_reserved":false,"is_disabled":false,"rental_uris":{"android":"levelo://app?vid=bad267d6-0acd-4756-b930-3bfe47036978","ios":"levelo://app?vid=bad267d6-0acd-4756-b930-3bfe47036978"},"vehicle_type_id":"4","last_reported":1752281962,"current_range_meters":19200,"station_id":"ce4bh4p2rcd13ifvqe0g","pricing_plan_id":"cebpf4jnsgd1na2vs0mg"},{"bike_id":"d799b321-3a7d-4201-b46e-ffe2ad124f19","system_id":"levelo_inurba_marseille","lat":43.32873,"lon":5.38406,"is_reserved":false,"is_disabled":false,"rental_uris":{"android":"levelo://app?vid=d799b321-3a7d-4201-b46e-ffe2ad124f19","ios":"levelo://app?vid=d799b321-3a7d-4201-b46e-ffe2ad124f19"},"vehicle_type_id":"4","last_reported":1752281962,"current_range_meters":19200,"station_id":"","pricing_plan_id":"cebpf4jnsgd1na2vs0mg"},{"bike_id":"d1174286-7c20-4cec-9521-e1fe98b8de7e","system_id":"levelo_inurba_marseille","lat":43.3064,"lon":5.40093,"is_reserved":false,"is_disabled":false,"rental_uris":{"android":"levelo://app?vid=d1174286-7c20-4cec-9521-e1fe98b8de7e","ios":"levelo://app?vid=d1174286-7c20-4cec-9521-e1fe98b8de7e"},"vehicle_type_id":"4","last_reported":1752281962,"current_range_meters":19200,"station_id":"ce4bh112rcd13ifvqda0","pricing_plan_id":"cebpf4jnsgd1na2vs0mg"},{"bike_id":"38e70852-2f7a-4b34-a55f-7175aa6a06f9","system_id":"levelo_inurba_marseille","lat":43.279126,"lon":5.380062,"is_reserved":false,"is_disabled":false,"rental_uris":{"android":"levelo://app?vid=38e70852-2f7a-4b34-a55f-7175aa6a06f9","ios":"levelo://app?vid=38e70852-2f7a-4b34-a55f-7175aa6a06f9"},"vehicle_type_id":"4","last_reported":1752281962,"current_range_meters":19600,"station_id":"ce4bhf92rcd13ifvqf50","pricing_plan_id":"cebpf4jnsgd1na2vs0mg"},{"bike_id":"5969eab6-8ad4-4fde-ac4c-daf15a686651","system_id":"levelo_inurba_marseille","lat":43.28721,"lon":5.40003,"is_reserved":false,"is_disabled":false,"rental_uris":{"android":"levelo://app?vid=5969eab6-8ad4-4fde-ac4c-daf15a686651","ios":"levelo://app?vid=5969eab6-8ad4-4fde-ac4c-daf15a686651"},"vehicle_type_id":"4","last_reported":1752281962,"current_range_meters":19600,"station_id":"ce4bho92rcd13ifvqh3g","pricing_plan_id":"cebpf4jnsgd1na2vs0mg"},{"bike_id":"df87bdcd-46a7-4b0e-8da7-fe811f9445f8","system_id":"levelo_inurba_marseille","lat":43.27059,"lon":5.40261,"is_reserved":false,"is_disabled":false,"rental_uris":{"android":"levelo://app?vid=df87bdcd-46a7-4b0e-8da7-fe811f9445f8","ios":"levelo://app?vid=df87bdcd-46a7-4b0e-8da7-fe811f9445f8"},"vehicle_type_id":"4","last_reported":1752281962,"current_range_meters":19600,"station_id":"ce4bhk92rcd13ifvqgc0","pricing_plan_id":"cebpf4jnsgd1na2vs0mg"},{"bike_id":"d52165fe-acbf-4377-a8a3-01db8604f89e","system_id":"levelo_inurba_marseille","lat":43.30643,"lon":5.40065,"is_reserved":false,"is_disabled":false,"rental_uris":{"android":"levelo://app?vid=d52165fe-acbf-4377-a8a3-01db8604f89e","ios":"levelo://app?vid=d52165fe-acbf-4377-a8a3-01db8604f89e"},"vehicle_type_id":"4","last_reported":1752281962,"current_range_meters":19600,"station_id":"ce4bh112rcd13ifvqda0","pricing_plan_id":"cebpf4jnsgd1na2vs0mg"},{"bike_id":"775fc0d3-6cde-492b-b703-b78970571f1a","system_id":"levelo_inurba_marseille","lat":43.32365,"lon":5.36764,"is_reserved":false,"is_disabled":false,"rental_uris":{"android":"levelo://app?vid=775fc0d3-6cde-492b-b703-b78970571f1a","ios":"levelo://app?vid=775fc0d3-6cde-492b-b703-b78970571f1a"},"vehicle_type_id":"4","last_reported":1752281962,"current_range_meters":19600,"station_id":"ce4bhsh2rcd13ifvqi2g","pricing_plan_id":"cebpf4jnsgd1na2vs0mg"},{"bike_id":"844b44b6-4e33-4917-878d-a3c647561239","system_id":"levelo_inurba_marseille","lat":43.30732,"lon":5.42451,"is_reserved":false,"is_disabled":false,"rental_uris":{"android":"levelo://app?vid=844b44b6-4e33-4917-878d-a3c647561239","ios":"levelo://app?vid=844b44b6-4e33-4917-878d-a3c647561239"},"vehicle_type_id":"4","last_reported":1752281962,"current_range_meters":19600,"station_id":"st_cvj6ca6bvosntc0bfgr0","pricing_plan_id":"cebpf4jnsgd1na2vs0mg"},{"bike_id":"141acd88-7ba0-4bed-8068-c3249a5b1382","system_id":"levelo_inurba_marseille","lat":43.275594,"lon":5.384292,"is_reserved":false,"is_disabled":false,"rental_uris":{"android":"levelo://app?vid=141acd88-7ba0-4bed-8068-c3249a5b1382","ios":"levelo://app?vid=141acd88-7ba0-4bed-8068-c3249a5b1382"},"vehicle_type_id":"4","last_reported":1752281962,"current_range_meters":19600,"station_id":"ce4bhh92rcd13ifvqfi0","pricing_plan_id":"cebpf4jnsgd1na2vs0mg"},{"bike_id":"05fb12bc-b52e-4c69-9ccd-3d99cc736a42","system_id":"levelo_inurba_marseille","lat":43.29203,"lon":5.39334,"is_reserved":false,"is_disabled":false,"rental_uris":{"android":"levelo://app?vid=05fb12bc-b52e-4c69-9ccd-3d99cc736a42","ios":"levelo://app?vid=05fb12bc-b52e-4c69-9ccd-3d99cc736a42"},"vehicle_type_id":"4","last_reported":1752281962,"current_range_meters":19600,"station_id":"ce4bh192rcd13ifvqdd0","pricing_plan_id":"cebpf4jnsgd1na2vs0mg"},{"bike_id":"15c005ca-52e7-4b89-8afe-4bc56f68590a","system_id":"levelo_inurba_marseille","lat":43.26536,"lon":5.39034,"is_reserved":false,"is_disabled":false,"rental_uris":{"android":"levelo://app?vid=15c005ca-52e7-4b89-8afe-4bc56f68590a","ios":"levelo://app?vid=15c005ca-52e7-4b89-8afe-4bc56f68590a"},"vehicle_type_id":"4","last_reported":1752281962,"current_range_meters":19600,"station_id":"ce4bhe12rcd13ifvqf30","pricing_plan_id":"cebpf4jnsgd1na2vs0mg"},{"bike_id":"5af35bc3-c835-45dc-8089-0d78e9c38b02","system_id":"levelo_inurba_marseille","lat":43.27904,"lon":5.37992,"is_reserved":false,"is_disabled":false,"rental_uris":{"android":"levelo://app?vid=5af35bc3-c835-45dc-8089-0d78e9c38b02","ios":"levelo://app?vid=5af35bc3-c835-45dc-8089-0d78e9c38b02"},"vehicle_type_id":"4","last_reported":1752281962,"current_range_meters":19600,"station_id":"ce4bhf92rcd13ifvqf50","pricing_plan_id":"cebpf4jnsgd1na2vs0mg"},{"bike_id":"b59e51ca-d910-4846-ae9d-c6b0b3ae1ac3","system_id":"levelo_inurba_marseille","lat":43.283148,"lon":5.350235,"is_reserved":false,"is_disabled":false,"rental_uris":{"android":"levelo://app?vid=b59e51ca-d910-4846-ae9d-c6b0b3ae1ac3","ios":"levelo://app?vid=b59e51ca-d910-4846-ae9d-c6b0b3ae1ac3"},"vehicle_type_id":"4","last_reported":1752281962,"current_range_meters":19600,"station_id":"","pricing_plan_id":"cebpf4jnsgd1na2vs0mg"},{"bike_id":"9d0d85e3-ee19-452d-93c5-fbfc98a09acf","system_id":"levelo_inurba_marseille","lat":43.29506,"lon":5.43849,"is_reserved":false,"is_disabled":false,"rental_uris":{"android":"levelo://app?vid=9d0d85e3-ee19-452d-93c5-fbfc98a09acf","ios":"levelo://app?vid=9d0d85e3-ee19-452d-93c5-fbfc98a09acf"},"vehicle_type_id":"4","last_reported":1752281962,"current_range_meters":19600,"station_id":"","pricing_plan_id":"cebpf4jnsgd1na2vs0mg"},{"bike_id":"f4416027-e963-4c80-b245-a13d63ab71b8","system_id":"levelo_inurba_marseille","lat":43.30255,"lon":5.40057,"is_reserved":false,"is_disabled":false,"rental_uris":{"android":"levelo://app?vid=f4416027-e963-4c80-b245-a13d63ab71b8","ios":"levelo://app?vid=f4416027-e963-4c80-b245-a13d63ab71b8"},"vehicle_type_id":"4","last_reported":1752281962,"current_range_meters":19600,"station_id":"ce4bgvh2rcd13ifvqcs0","pricing_plan_id":"cebpf4jnsgd1na2vs0mg"},{"bike_id":"57fc5e30-a2a9-43b9-9ddb-6048756c8f1a","system_id":"levelo_inurba_marseille","lat":43.28702,"lon":5.39984,"is_reserved":false,"is_disabled":false,"rental_uris":{"android":"levelo://app?vid=57fc5e30-a2a9-43b9-9ddb-6048756c8f1a","ios":"levelo://app?vid=57fc5e30-a2a9-43b9-9ddb-6048756c8f1a"},"vehicle_type_id":"4","last_reported":1752281962,"current_range_meters":20000,"station_id":"ce4bho92rcd13ifvqh3g","pricing_plan_id":"cebpf4jnsgd1na2vs0mg"},{"bike_id":"72b39aad-c91e-4545-8fe5-aa395b7d62ba","system_id":"levelo_inurba_marseille","lat":43.31378,"lon":5.36773,"is_reserved":false,"is_disabled":false,"rental_uris":{"android":"levelo://app?vid=72b39aad-c91e-4545-8fe5-aa395b7d62ba","ios":"levelo://app?vid=72b39aad-c91e-4545-8fe5-aa395b7d62ba"},"vehicle_type_id":"4","last_reported":1752281962,"current_range_meters":20000,"station_id":"","pricing_plan_id":"cebpf4jnsgd1na2vs0mg"},{"bike_id":"c0c04a68-4ac8-4a58-a480-1d588e902c66","system_id":"levelo_inurba_marseille","lat":43.27424,"lon":5.39421,"is_reserved":false,"is_disabled":false,"rental_uris":{"android":"levelo://app?vid=c0c04a68-4ac8-4a58-a480-1d588e902c66","ios":"levelo://app?vid=c0c04a68-4ac8-4a58-a480-1d588e902c66"},"vehicle_type_id":"4","last_reported":1752281962,"current_range_meters":20000,"station_id":"ce4bhdp2rcd13ifvqf20","pricing_plan_id":"cebpf4jnsgd1na2vs0mg"},{"bike_id":"5784d6e8-83a7-4951-8669-e055553e1b92","system_id":"levelo_inurba_marseille","lat":43.30587,"lon":5.39364,"is_reserved":false,"is_disabled":false,"rental_uris":{"android":"levelo://app?vid=5784d6e8-83a7-4951-8669-e055553e1b92","ios":"levelo://app?vid=5784d6e8-83a7-4951-8669-e055553e1b92"},"vehicle_type_id":"4","last_reported":1752281962,"current_range_meters":20000,"station_id":"ce4bh0p2rcd13ifvqd80","pricing_plan_id":"cebpf4jnsgd1na2vs0mg"},{"bike_id":"fca7f33a-4f3d-44ac-bf6b-be967adaabdb","system_id":"levelo_inurba_marseille","lat":43.24078,"lon":5.37743,"is_reserved":false,"is_disabled":false,"rental_uris":{"android":"levelo://app?vid=fca7f33a-4f3d-44ac-bf6b-be967adaabdb","ios":"levelo://app?vid=fca7f33a-4f3d-44ac-bf6b-be967adaabdb"},"vehicle_type_id":"4","last_reported":1752281962,"current_range_meters":20000,"station_id":"ce4bhnp2rcd13ifvqgvg","pricing_plan_id":"cebpf4jnsgd1na2vs0mg"},{"bike_id":"9495bc52-7b34-46f9-a02e-5095ef29cb81","system_id":"levelo_inurba_marseille","lat":43.33602,"lon":5.41001,"is_reserved":false,"is_disabled":false,"rental_uris":{"android":"levelo://app?vid=9495bc52-7b34-46f9-a02e-5095ef29cb81","ios":"levelo://app?vid=9495bc52-7b34-46f9-a02e-5095ef29cb81"},"vehicle_type_id":"4","last_reported":1752281962,"current_range_meters":20000,"station_id":"ce4bhqh2rcd13ifvqhmg","pricing_plan_id":"cebpf4jnsgd1na2vs0mg"},{"bike_id":"57692aae-9841-41ad-bc01-254866eaf8b0","system_id":"levelo_inurba_marseille","lat":43.323454,"lon":5.406394,"is_reserved":false,"is_disabled":false,"rental_uris":{"android":"levelo://app?vid=57692aae-9841-41ad-bc01-254866eaf8b0","ios":"levelo://app?vid=57692aae-9841-41ad-bc01-254866eaf8b0"},"vehicle_type_id":"4","last_reported":1752281962,"current_range_meters":20000,"station_id":"ce4bhq92rcd13ifvqhjg","pricing_plan_id":"cebpf4jnsgd1na2vs0mg"},{"bike_id":"d79a699f-219a-4276-9165-07d645cadd36","system_id":"levelo_inurba_marseille","lat":43.27954,"lon":5.38709,"is_reserved":false,"is_disabled":true,"rental_uris":{"android":"levelo://app?vid=d79a699f-219a-4276-9165-07d645cadd36","ios":"levelo://app?vid=d79a699f-219a-4276-9165-07d645cadd36"},"vehicle_type_id":"4","last_reported":1752281962,"current_range_meters":20000,"station_id":"ce4bhg12rcd13ifvqf80","pricing_plan_id":"cebpf4jnsgd1na2vs0mg"},{"bike_id":"e817dbcf-1eb6-4edb-9c23-a648f327672e","system_id":"levelo_inurba_marseille","lat":43.30323,"lon":5.40444,"is_reserved":false,"is_disabled":false,"rental_uris":{"android":"levelo://app?vid=e817dbcf-1eb6-4edb-9c23-a648f327672e","ios":"levelo://app?vid=e817dbcf-1eb6-4edb-9c23-a648f327672e"},"vehicle_type_id":"4","last_reported":1752281962,"current_range_meters":20000,"station_id":"ce4bh012rcd13ifvqd10","pricing_plan_id":"cebpf4jnsgd1na2vs0mg"},{"bike_id":"f062f3f8-6747-4d90-b0fe-3c9e94933ab7","system_id":"levelo_inurba_marseille","lat":43.27061,"lon":5.42283,"is_reserved":false,"is_disabled":false,"rental_uris":{"android":"levelo://app?vid=f062f3f8-6747-4d90-b0fe-3c9e94933ab7","ios":"levelo://app?vid=f062f3f8-6747-4d90-b0fe-3c9e94933ab7"},"vehicle_type_id":"4","last_reported":1752281962,"current_range_meters":20000,"station_id":"ce4bhk92rcd13ifvqgb0","pricing_plan_id":"cebpf4jnsgd1na2vs0mg"},{"bike_id":"ea0b71b9-c983-41ab-a4e2-348913bc76df","system_id":"levelo_inurba_marseille","lat":43.2694,"lon":5.40261,"is_reserved":false,"is_disabled":false,"rental_uris":{"android":"levelo://app?vid=ea0b71b9-c983-41ab-a4e2-348913bc76df","ios":"levelo://app?vid=ea0b71b9-c983-41ab-a4e2-348913bc76df"},"vehicle_type_id":"4","last_reported":1752281962,"current_range_meters":20000,"station_id":"cjm6bp8fraef2m0cb0m0","pricing_plan_id":"cebpf4jnsgd1na2vs0mg"},{"bike_id":"cdf43cd5-317e-4133-92d1-72261db0c111","system_id":"levelo_inurba_marseille","lat":43.2408,"lon":5.37762,"is_reserved":false,"is_disabled":false,"rental_uris":{"android":"levelo://app?vid=cdf43cd5-317e-4133-92d1-72261db0c111","ios":"levelo://app?vid=cdf43cd5-317e-4133-92d1-72261db0c111"},"vehicle_type_id":"4","last_reported":1752281962,"current_range_meters":20400,"station_id":"ce4bhnp2rcd13ifvqgvg","pricing_plan_id":"cebpf4jnsgd1na2vs0mg"},{"bike_id":"81a7968c-76d4-40a6-9015-2ce2ddcae4c6","system_id":"levelo_inurba_marseille","lat":43.28454,"lon":5.39191,"is_reserved":false,"is_disabled":false,"rental_uris":{"android":"levelo://app?vid=81a7968c-76d4-40a6-9015-2ce2ddcae4c6","ios":"levelo://app?vid=81a7968c-76d4-40a6-9015-2ce2ddcae4c6"},"vehicle_type_id":"4","last_reported":1752281962,"current_range_meters":20400,"station_id":"ce4bhoh2rcd13ifvqh5g","pricing_plan_id":"cebpf4jnsgd1na2vs0mg"},{"bike_id":"4b8da722-ee9e-48a4-a5e5-3a8a10364708","system_id":"levelo_inurba_marseille","lat":43.31229,"lon":5.37823,"is_reserved":false,"is_disabled":false,"rental_uris":{"android":"levelo://app?vid=4b8da722-ee9e-48a4-a5e5-3a8a10364708","ios":"levelo://app?vid=4b8da722-ee9e-48a4-a5e5-3a8a10364708"},"vehicle_type_id":"4","last_reported":1752281962,"current_range_meters":20400,"station_id":"","pricing_plan_id":"cebpf4jnsgd1na2vs0mg"},{"bike_id":"cfee0657-6493-4e9d-b55a-affdef745be3","system_id":"levelo_inurba_marseille","lat":43.29067,"lon":5.35861,"is_reserved":false,"is_disabled":false,"rental_uris":{"android":"levelo://app?vid=cfee0657-6493-4e9d-b55a-affdef745be3","ios":"levelo://app?vid=cfee0657-6493-4e9d-b55a-affdef745be3"},"vehicle_type_id":"4","last_reported":1752281962,"current_range_meters":20400,"station_id":"","pricing_plan_id":"cebpf4jnsgd1na2vs0mg"},{"bike_id":"d1d4b08a-c358-40ed-98da-1ef6d91c6b9e","system_id":"levelo_inurba_marseille","lat":43.28733,"lon":5.36078,"is_reserved":false,"is_disabled":false,"rental_uris":{"android":"levelo://app?vid=d1d4b08a-c358-40ed-98da-1ef6d91c6b9e","ios":"levelo://app?vid=d1d4b08a-c358-40ed-98da-1ef6d91c6b9e"},"vehicle_type_id":"4","last_reported":1752281962,"current_range_meters":20000,"station_id":"cki0cbj6b192h4jlfktg","pricing_plan_id":"cebpf4jnsgd1na2vs0mg"},{"bike_id":"49a25542-5ccc-437e-a925-aba2deda045d","system_id":"levelo_inurba_marseille","lat":43.32002,"lon":5.38176,"is_reserved":false,"is_disabled":false,"rental_uris":{"android":"levelo://app?vid=49a25542-5ccc-437e-a925-aba2deda045d","ios":"levelo://app?vid=49a25542-5ccc-437e-a925-aba2deda045d"},"vehicle_type_id":"4","last_reported":1752281962,"current_range_meters":20400,"station_id":"ce4bhr12rcd13ifvqhpg","pricing_plan_id":"cebpf4jnsgd1na2vs0mg"},{"bike_id":"a46b9dfb-4db3-4551-a2f5-a8c981c35f1f","system_id":"levelo_inurba_marseille","lat":43.28857,"lon":5.39345,"is_reserved":false,"is_disabled":true,"rental_uris":{"android":"levelo://app?vid=a46b9dfb-4db3-4551-a2f5-a8c981c35f1f","ios":"levelo://app?vid=a46b9dfb-4db3-4551-a2f5-a8c981c35f1f"},"vehicle_type_id":"4","last_reported":1752281962,"current_range_meters":20800,"station_id":"ce4bh2p2rcd13ifvqdi0","pricing_plan_id":"cebpf4jnsgd1na2vs0mg"},{"bike_id":"7483bc1c-6513-4e1d-b514-bf210d2c79f5","system_id":"levelo_inurba_marseille","lat":43.27181,"lon":5.40998,"is_reserved":false,"is_disabled":false,"rental_uris":{"android":"levelo://app?vid=7483bc1c-6513-4e1d-b514-bf210d2c79f5","ios":"levelo://app?vid=7483bc1c-6513-4e1d-b514-bf210d2c79f5"},"vehicle_type_id":"4","last_reported":1752281962,"current_range_meters":20800,"station_id":"ce4bhl12rcd13ifvqgf0","pricing_plan_id":"cebpf4jnsgd1na2vs0mg"},{"bike_id":"58b6f68f-38be-4bcd-bd5c-38d33fd60f98","system_id":"levelo_inurba_marseille","lat":43.25085,"lon":5.39527,"is_reserved":false,"is_disabled":false,"rental_uris":{"android":"levelo://app?vid=58b6f68f-38be-4bcd-bd5c-38d33fd60f98","ios":"levelo://app?vid=58b6f68f-38be-4bcd-bd5c-38d33fd60f98"},"vehicle_type_id":"4","last_reported":1752281962,"current_range_meters":20800,"station_id":"ce4bhm12rcd13ifvqgkg","pricing_plan_id":"cebpf4jnsgd1na2vs0mg"},{"bike_id":"f55db503-e37c-40fa-8d18-07649a05cd74","system_id":"levelo_inurba_marseille","lat":43.29273,"lon":5.40899,"is_reserved":false,"is_disabled":false,"rental_uris":{"android":"levelo://app?vid=f55db503-e37c-40fa-8d18-07649a05cd74","ios":"levelo://app?vid=f55db503-e37c-40fa-8d18-07649a05cd74"},"vehicle_type_id":"4","last_reported":1752281962,"current_range_meters":20800,"station_id":"ce4bh192rcd13ifvqdc0","pricing_plan_id":"cebpf4jnsgd1na2vs0mg"},{"bike_id":"f9924005-c8ac-4086-8e25-9a21391f65ea","system_id":"levelo_inurba_marseille","lat":43.21189,"lon":5.35077,"is_reserved":false,"is_disabled":false,"rental_uris":{"android":"levelo://app?vid=f9924005-c8ac-4086-8e25-9a21391f65ea","ios":"levelo://app?vid=f9924005-c8ac-4086-8e25-9a21391f65ea"},"vehicle_type_id":"4","last_reported":1752281962,"current_range_meters":20800,"station_id":"st_cvj6sg6p6f1abm77japg","pricing_plan_id":"cebpf4jnsgd1na2vs0mg"},{"bike_id":"93736004-e478-41dc-b796-7360599bf429","system_id":"levelo_inurba_marseille","lat":43.32042,"lon":5.41595,"is_reserved":false,"is_disabled":true,"rental_uris":{"android":"levelo://app?vid=93736004-e478-41dc-b796-7360599bf429","ios":"levelo://app?vid=93736004-e478-41dc-b796-7360599bf429"},"vehicle_type_id":"4","last_reported":1752281962,"current_range_meters":20800,"station_id":"ce4bhq92rcd13ifvqhkg","pricing_plan_id":"cebpf4jnsgd1na2vs0mg"},{"bike_id":"4fca0cc4-d924-45aa-a1a3-8643e5ece2e2","system_id":"levelo_inurba_marseille","lat":43.246628,"lon":5.381618,"is_reserved":false,"is_disabled":false,"rental_uris":{"android":"levelo://app?vid=4fca0cc4-d924-45aa-a1a3-8643e5ece2e2","ios":"levelo://app?vid=4fca0cc4-d924-45aa-a1a3-8643e5ece2e2"},"vehicle_type_id":"4","last_reported":1752281962,"current_range_meters":20800,"station_id":"ce4bhih2rcd13ifvqfr0","pricing_plan_id":"cebpf4jnsgd1na2vs0mg"},{"bike_id":"9ea6597c-0104-4523-a2ba-d3c315c27859","system_id":"levelo_inurba_marseille","lat":43.2315,"lon":5.43714,"is_reserved":false,"is_disabled":false,"rental_uris":{"android":"levelo://app?vid=9ea6597c-0104-4523-a2ba-d3c315c27859","ios":"levelo://app?vid=9ea6597c-0104-4523-a2ba-d3c315c27859"},"vehicle_type_id":"4","last_reported":1752281962,"current_range_meters":21600,"station_id":"ce4bhmp2rcd13ifvqgog","pricing_plan_id":"cebpf4jnsgd1na2vs0mg"},{"bike_id":"ece5e006-0a29-4a34-88d5-2dde675964aa","system_id":"levelo_inurba_marseille","lat":43.276186,"lon":5.361146,"is_reserved":false,"is_disabled":false,"rental_uris":{"android":"levelo://app?vid=ece5e006-0a29-4a34-88d5-2dde675964aa","ios":"levelo://app?vid=ece5e006-0a29-4a34-88d5-2dde675964aa"},"vehicle_type_id":"4","last_reported":1752281962,"current_range_meters":21600,"station_id":"ce4bgj92rcd13ifvqbe0","pricing_plan_id":"cebpf4jnsgd1na2vs0mg"},{"bike_id":"2afd10ce-5f23-4122-9c7a-a3416be941b2","system_id":"levelo_inurba_marseille","lat":43.26027,"lon":5.37555,"is_reserved":false,"is_disabled":true,"rental_uris":{"android":"levelo://app?vid=2afd10ce-5f23-4122-9c7a-a3416be941b2","ios":"levelo://app?vid=2afd10ce-5f23-4122-9c7a-a3416be941b2"},"vehicle_type_id":"4","last_reported":1752281962,"current_range_meters":21600,"station_id":"ce4bhgh2rcd13ifvqfa0","pricing_plan_id":"cebpf4jnsgd1na2vs0mg"},{"bike_id":"96743d52-937f-4826-8924-38fc8c385246","system_id":"levelo_inurba_marseille","lat":43.30928,"lon":5.401593,"is_reserved":false,"is_disabled":false,"rental_uris":{"android":"levelo://app?vid=96743d52-937f-4826-8924-38fc8c385246","ios":"levelo://app?vid=96743d52-937f-4826-8924-38fc8c385246"},"vehicle_type_id":"4","last_reported":1752281962,"current_range_meters":21600,"station_id":"ce4bgvp2rcd13ifvqct0","pricing_plan_id":"cebpf4jnsgd1na2vs0mg"},{"bike_id":"392001b3-7d0f-4dee-8589-6eb3a3c8c939","system_id":"levelo_inurba_marseille","lat":43.24803,"lon":5.37452,"is_reserved":false,"is_disabled":false,"rental_uris":{"android":"levelo://app?vid=392001b3-7d0f-4dee-8589-6eb3a3c8c939","ios":"levelo://app?vid=392001b3-7d0f-4dee-8589-6eb3a3c8c939"},"vehicle_type_id":"4","last_reported":1752281962,"current_range_meters":21600,"station_id":"ce4bhgh2rcd13ifvqfb0","pricing_plan_id":"cebpf4jnsgd1na2vs0mg"},{"bike_id":"adcc9ae0-a9a8-4cbc-892d-3748d0a338d6","system_id":"levelo_inurba_marseille","lat":43.298737,"lon":5.397449,"is_reserved":false,"is_disabled":true,"rental_uris":{"android":"levelo://app?vid=adcc9ae0-a9a8-4cbc-892d-3748d0a338d6","ios":"levelo://app?vid=adcc9ae0-a9a8-4cbc-892d-3748d0a338d6"},"vehicle_type_id":"4","last_reported":1752281962,"current_range_meters":21600,"station_id":"ce4bh0h2rcd13ifvqd50","pricing_plan_id":"cebpf4jnsgd1na2vs0mg"},{"bike_id":"4d3af36c-d94a-4b76-9ec6-5fb0bfd9bdf1","system_id":"levelo_inurba_marseille","lat":43.286,"lon":5.35047,"is_reserved":false,"is_disabled":false,"rental_uris":{"android":"levelo://app?vid=4d3af36c-d94a-4b76-9ec6-5fb0bfd9bdf1","ios":"levelo://app?vid=4d3af36c-d94a-4b76-9ec6-5fb0bfd9bdf1"},"vehicle_type_id":"4","last_reported":1752281962,"current_range_meters":22000,"station_id":"","pricing_plan_id":"cebpf4jnsgd1na2vs0mg"},{"bike_id":"6865ba0c-a3ce-4380-858b-bc7d6b3ec678","system_id":"levelo_inurba_marseille","lat":43.28691,"lon":5.39989,"is_reserved":false,"is_disabled":false,"rental_uris":{"android":"levelo://app?vid=6865ba0c-a3ce-4380-858b-bc7d6b3ec678","ios":"levelo://app?vid=6865ba0c-a3ce-4380-858b-bc7d6b3ec678"},"vehicle_type_id":"4","last_reported":1752281962,"current_range_meters":22000,"station_id":"ce4bho92rcd13ifvqh3g","pricing_plan_id":"cebpf4jnsgd1na2vs0mg"},{"bike_id":"06c941b6-ccf0-438e-96c1-752265e3672d","system_id":"levelo_inurba_marseille","lat":43.31266,"lon":5.40172,"is_reserved":false,"is_disabled":false,"rental_uris":{"android":"levelo://app?vid=06c941b6-ccf0-438e-96c1-752265e3672d","ios":"levelo://app?vid=06c941b6-ccf0-438e-96c1-752265e3672d"},"vehicle_type_id":"4","last_reported":1752281962,"current_range_meters":22000,"station_id":"ce4bh092rcd13ifvqd30","pricing_plan_id":"cebpf4jnsgd1na2vs0mg"},{"bike_id":"06a0c75e-8427-4237-8ff4-39691db9e85b","system_id":"levelo_inurba_marseille","lat":43.29035,"lon":5.35931,"is_reserved":false,"is_disabled":false,"rental_uris":{"android":"levelo://app?vid=06a0c75e-8427-4237-8ff4-39691db9e85b","ios":"levelo://app?vid=06a0c75e-8427-4237-8ff4-39691db9e85b"},"vehicle_type_id":"4","last_reported":1752281962,"current_range_meters":21600,"station_id":"ce4bha92rcd13ifvqeg0","pricing_plan_id":"cebpf4jnsgd1na2vs0mg"},{"bike_id":"02c71304-9c4f-4ebf-b265-2eb94afb5a95","system_id":"levelo_inurba_marseille","lat":43.30932,"lon":5.36832,"is_reserved":false,"is_disabled":false,"rental_uris":{"android":"levelo://app?vid=02c71304-9c4f-4ebf-b265-2eb94afb5a95","ios":"levelo://app?vid=02c71304-9c4f-4ebf-b265-2eb94afb5a95"},"vehicle_type_id":"4","last_reported":1752281962,"current_range_meters":22400,"station_id":"","pricing_plan_id":"cebpf4jnsgd1na2vs0mg"},{"bike_id":"0276da14-5819-49e3-a9d9-36e49e1c2205","system_id":"levelo_inurba_marseille","lat":43.29892,"lon":5.43669,"is_reserved":false,"is_disabled":false,"rental_uris":{"android":"levelo://app?vid=0276da14-5819-49e3-a9d9-36e49e1c2205","ios":"levelo://app?vid=0276da14-5819-49e3-a9d9-36e49e1c2205"},"vehicle_type_id":"4","last_reported":1752281962,"current_range_meters":22400,"station_id":"ce4bhpp2rcd13ifvqhfg","pricing_plan_id":"cebpf4jnsgd1na2vs0mg"},{"bike_id":"69e04c82-feaa-4455-a918-fbb51efec30e","system_id":"levelo_inurba_marseille","lat":43.30565,"lon":5.38146,"is_reserved":false,"is_disabled":false,"rental_uris":{"android":"levelo://app?vid=69e04c82-feaa-4455-a918-fbb51efec30e","ios":"levelo://app?vid=69e04c82-feaa-4455-a918-fbb51efec30e"},"vehicle_type_id":"4","last_reported":1752281962,"current_range_meters":22400,"station_id":"","pricing_plan_id":"cebpf4jnsgd1na2vs0mg"},{"bike_id":"f0f0a2bc-677a-429d-b1d8-9b1ce7281356","system_id":"levelo_inurba_marseille","lat":43.249889,"lon":5.389296,"is_reserved":false,"is_disabled":false,"rental_uris":{"android":"levelo://app?vid=f0f0a2bc-677a-429d-b1d8-9b1ce7281356","ios":"levelo://app?vid=f0f0a2bc-677a-429d-b1d8-9b1ce7281356"},"vehicle_type_id":"4","last_reported":1752281962,"current_range_meters":22400,"station_id":"","pricing_plan_id":"cebpf4jnsgd1na2vs0mg"},{"bike_id":"6ab47a3b-33be-43a3-9be5-22544c2b0721","system_id":"levelo_inurba_marseille","lat":43.29529,"lon":5.38538,"is_reserved":false,"is_disabled":true,"rental_uris":{"android":"levelo://app?vid=6ab47a3b-33be-43a3-9be5-22544c2b0721","ios":"levelo://app?vid=6ab47a3b-33be-43a3-9be5-22544c2b0721"},"vehicle_type_id":"4","last_reported":1752281962,"current_range_meters":22400,"station_id":"ce4bgih2rcd13ifvqba0","pricing_plan_id":"cebpf4jnsgd1na2vs0mg"},{"bike_id":"a97283a8-00c1-4a88-b765-2d0c83f0c3b3","system_id":"levelo_inurba_marseille","lat":43.25007,"lon":5.38913,"is_reserved":false,"is_disabled":false,"rental_uris":{"android":"levelo://app?vid=a97283a8-00c1-4a88-b765-2d0c83f0c3b3","ios":"levelo://app?vid=a97283a8-00c1-4a88-b765-2d0c83f0c3b3"},"vehicle_type_id":"4","last_reported":1752281962,"current_range_meters":22400,"station_id":"ce4bhgp2rcd13ifvqfd0","pricing_plan_id":"cebpf4jnsgd1na2vs0mg"},{"bike_id":"71ffafe8-ba4f-4329-9795-1b18b71c34dd","system_id":"levelo_inurba_marseille","lat":43.2976,"lon":5.37091,"is_reserved":false,"is_disabled":false,"rental_uris":{"android":"levelo://app?vid=71ffafe8-ba4f-4329-9795-1b18b71c34dd","ios":"levelo://app?vid=71ffafe8-ba4f-4329-9795-1b18b71c34dd"},"vehicle_type_id":"4","last_reported":1752281962,"current_range_meters":22800,"station_id":"ce4bgop2rcd13ifvqc1g","pricing_plan_id":"cebpf4jnsgd1na2vs0mg"},{"bike_id":"9b40dc73-509b-4d2f-8a27-44696719b175","system_id":"levelo_inurba_marseille","lat":43.27059,"lon":5.42294,"is_reserved":false,"is_disabled":false,"rental_uris":{"android":"levelo://app?vid=9b40dc73-509b-4d2f-8a27-44696719b175","ios":"levelo://app?vid=9b40dc73-509b-4d2f-8a27-44696719b175"},"vehicle_type_id":"4","last_reported":1752281962,"current_range_meters":22800,"station_id":"ce4bhk92rcd13ifvqgb0","pricing_plan_id":"cebpf4jnsgd1na2vs0mg"},{"bike_id":"e21d2192-ff02-473d-a467-892f79f6d210","system_id":"levelo_inurba_marseille","lat":43.3078,"lon":5.37651,"is_reserved":false,"is_disabled":false,"rental_uris":{"android":"levelo://app?vid=e21d2192-ff02-473d-a467-892f79f6d210","ios":"levelo://app?vid=e21d2192-ff02-473d-a467-892f79f6d210"},"vehicle_type_id":"4","last_reported":1752281962,"current_range_meters":22800,"station_id":"ce4bgv92rcd13ifvqcq0","pricing_plan_id":"cebpf4jnsgd1na2vs0mg"},{"bike_id":"45be3528-fd16-498e-8434-e30e29d5ac2e","system_id":"levelo_inurba_marseille","lat":43.303898,"lon":5.397867,"is_reserved":false,"is_disabled":false,"rental_uris":{"android":"levelo://app?vid=45be3528-fd16-498e-8434-e30e29d5ac2e","ios":"levelo://app?vid=45be3528-fd16-498e-8434-e30e29d5ac2e"},"vehicle_type_id":"4","last_reported":1752281962,"current_range_meters":22800,"station_id":"","pricing_plan_id":"cebpf4jnsgd1na2vs0mg"},{"bike_id":"2d5ece50-7b5e-4b8c-b259-cb04f9b7d133","system_id":"levelo_inurba_marseille","lat":43.31366,"lon":5.38502,"is_reserved":false,"is_disabled":false,"rental_uris":{"android":"levelo://app?vid=2d5ece50-7b5e-4b8c-b259-cb04f9b7d133","ios":"levelo://app?vid=2d5ece50-7b5e-4b8c-b259-cb04f9b7d133"},"vehicle_type_id":"4","last_reported":1752281962,"current_range_meters":22800,"station_id":"ce4bgt92rcd13ifvqcf0","pricing_plan_id":"cebpf4jnsgd1na2vs0mg"},{"bike_id":"760e7858-c0b8-4554-a613-7f2d68de507f","system_id":"levelo_inurba_marseille","lat":43.301447,"lon":5.37194,"is_reserved":false,"is_disabled":false,"rental_uris":{"android":"levelo://app?vid=760e7858-c0b8-4554-a613-7f2d68de507f","ios":"levelo://app?vid=760e7858-c0b8-4554-a613-7f2d68de507f"},"vehicle_type_id":"4","last_reported":1752281962,"current_range_meters":22800,"station_id":"","pricing_plan_id":"cebpf4jnsgd1na2vs0mg"},{"bike_id":"5ac1cc19-1bc3-4f55-9cc0-4d45c0e83a3a","system_id":"levelo_inurba_marseille","lat":43.29272,"lon":5.40118,"is_reserved":false,"is_disabled":false,"rental_uris":{"android":"levelo://app?vid=5ac1cc19-1bc3-4f55-9cc0-4d45c0e83a3a","ios":"levelo://app?vid=5ac1cc19-1bc3-4f55-9cc0-4d45c0e83a3a"},"vehicle_type_id":"4","last_reported":1752281962,"current_range_meters":22800,"station_id":"ce4bh312rcd13ifvqdk0","pricing_plan_id":"cebpf4jnsgd1na2vs0mg"},{"bike_id":"3194e511-7eaa-423b-8037-0a4e779bf4e7","system_id":"levelo_inurba_marseille","lat":43.30785,"lon":5.37655,"is_reserved":false,"is_disabled":true,"rental_uris":{"android":"levelo://app?vid=3194e511-7eaa-423b-8037-0a4e779bf4e7","ios":"levelo://app?vid=3194e511-7eaa-423b-8037-0a4e779bf4e7"},"vehicle_type_id":"4","last_reported":1752281962,"current_range_meters":23200,"station_id":"ce4bgv92rcd13ifvqcq0","pricing_plan_id":"cebpf4jnsgd1na2vs0mg"},{"bike_id":"73f504f0-19cd-4a14-99c3-bcf8bea116fa","system_id":"levelo_inurba_marseille","lat":43.25111,"lon":5.40324,"is_reserved":false,"is_disabled":false,"rental_uris":{"android":"levelo://app?vid=73f504f0-19cd-4a14-99c3-bcf8bea116fa","ios":"levelo://app?vid=73f504f0-19cd-4a14-99c3-bcf8bea116fa"},"vehicle_type_id":"4","last_reported":1752281962,"current_range_meters":23200,"station_id":"ce4bhlh2rcd13ifvqgig","pricing_plan_id":"cebpf4jnsgd1na2vs0mg"},{"bike_id":"f587c43e-220e-4425-b4a8-9d7ee7db7adf","system_id":"levelo_inurba_marseille","lat":43.30882,"lon":5.37201,"is_reserved":false,"is_disabled":false,"rental_uris":{"android":"levelo://app?vid=f587c43e-220e-4425-b4a8-9d7ee7db7adf","ios":"levelo://app?vid=f587c43e-220e-4425-b4a8-9d7ee7db7adf"},"vehicle_type_id":"4","last_reported":1752281962,"current_range_meters":23200,"station_id":"ce4bguh2rcd13ifvqckg","pricing_plan_id":"cebpf4jnsgd1na2vs0mg"},{"bike_id":"f5a47db5-6fb2-46bd-a2de-efa4ad13bf60","system_id":"levelo_inurba_marseille","lat":43.21222,"lon":5.35092,"is_reserved":false,"is_disabled":false,"rental_uris":{"android":"levelo://app?vid=f5a47db5-6fb2-46bd-a2de-efa4ad13bf60","ios":"levelo://app?vid=f5a47db5-6fb2-46bd-a2de-efa4ad13bf60"},"vehicle_type_id":"4","last_reported":1752281962,"current_range_meters":23200,"station_id":"st_cvj6sg6p6f1abm77japg","pricing_plan_id":"cebpf4jnsgd1na2vs0mg"},{"bike_id":"3c63f5da-da28-472a-995e-353cd4964dd5","system_id":"levelo_inurba_marseille","lat":43.30604,"lon":5.37214,"is_reserved":false,"is_disabled":false,"rental_uris":{"android":"levelo://app?vid=3c63f5da-da28-472a-995e-353cd4964dd5","ios":"levelo://app?vid=3c63f5da-da28-472a-995e-353cd4964dd5"},"vehicle_type_id":"4","last_reported":1752281962,"current_range_meters":23200,"station_id":"ce4bgqh2rcd13ifvqc4g","pricing_plan_id":"cebpf4jnsgd1na2vs0mg"},{"bike_id":"d1525ed6-830f-4070-9bc9-21a2c4f17cc9","system_id":"levelo_inurba_marseille","lat":43.30796,"lon":5.43537,"is_reserved":false,"is_disabled":false,"rental_uris":{"android":"levelo://app?vid=d1525ed6-830f-4070-9bc9-21a2c4f17cc9","ios":"levelo://app?vid=d1525ed6-830f-4070-9bc9-21a2c4f17cc9"},"vehicle_type_id":"4","last_reported":1752281962,"current_range_meters":23200,"station_id":"ce4bhph2rcd13ifvqheg","pricing_plan_id":"cebpf4jnsgd1na2vs0mg"},{"bike_id":"7f8239f6-49ce-42e0-a2e5-983000e48522","system_id":"levelo_inurba_marseille","lat":43.25121,"lon":5.40332,"is_reserved":false,"is_disabled":false,"rental_uris":{"android":"levelo://app?vid=7f8239f6-49ce-42e0-a2e5-983000e48522","ios":"levelo://app?vid=7f8239f6-49ce-42e0-a2e5-983000e48522"},"vehicle_type_id":"4","last_reported":1752281962,"current_range_meters":23200,"station_id":"ce4bhlh2rcd13ifvqgig","pricing_plan_id":"cebpf4jnsgd1na2vs0mg"},{"bike_id":"91a5348d-1996-4338-8fbd-12c576d3f361","system_id":"levelo_inurba_marseille","lat":43.30806,"lon":5.38155,"is_reserved":false,"is_disabled":false,"rental_uris":{"android":"levelo://app?vid=91a5348d-1996-4338-8fbd-12c576d3f361","ios":"levelo://app?vid=91a5348d-1996-4338-8fbd-12c576d3f361"},"vehicle_type_id":"4","last_reported":1752281962,"current_range_meters":23200,"station_id":"ce4bgt12rcd13ifvqce0","pricing_plan_id":"cebpf4jnsgd1na2vs0mg"},{"bike_id":"37e04037-4751-45cc-9e56-db1728107dad","system_id":"levelo_inurba_marseille","lat":43.31112,"lon":5.37772,"is_reserved":false,"is_disabled":false,"rental_uris":{"android":"levelo://app?vid=37e04037-4751-45cc-9e56-db1728107dad","ios":"levelo://app?vid=37e04037-4751-45cc-9e56-db1728107dad"},"vehicle_type_id":"4","last_reported":1752281962,"current_range_meters":23200,"station_id":"ce4bgt92rcd13ifvqcg0","pricing_plan_id":"cebpf4jnsgd1na2vs0mg"},{"bike_id":"14bd388a-460e-488f-af3a-d6fc123137a9","system_id":"levelo_inurba_marseille","lat":43.24658,"lon":5.38167,"is_reserved":false,"is_disabled":false,"rental_uris":{"android":"levelo://app?vid=14bd388a-460e-488f-af3a-d6fc123137a9","ios":"levelo://app?vid=14bd388a-460e-488f-af3a-d6fc123137a9"},"vehicle_type_id":"4","last_reported":1752281962,"current_range_meters":24000,"station_id":"ce4bhih2rcd13ifvqfr0","pricing_plan_id":"cebpf4jnsgd1na2vs0mg"},{"bike_id":"80706ed8-34fd-4666-9e3e-8aacbb0a19ea","system_id":"levelo_inurba_marseille","lat":43.267966,"lon":5.402679,"is_reserved":false,"is_disabled":false,"rental_uris":{"android":"levelo://app?vid=80706ed8-34fd-4666-9e3e-8aacbb0a19ea","ios":"levelo://app?vid=80706ed8-34fd-4666-9e3e-8aacbb0a19ea"},"vehicle_type_id":"4","last_reported":1752281962,"current_range_meters":23200,"station_id":"ce501612rcd8frsf0b60","pricing_plan_id":"cebpf4jnsgd1na2vs0mg"},