{"last_updated":1703055941,"ttl":30,"version":"2.2","data":{"bikes":[{"bike_id":"dc02301a-e25b-4088-96c9-2c95bbdc42aa","system_id":"levelo_inurba_marseille","lat":43.31341,"lon":5.367098,"is_reserved":false,"is_disabled":false,"rental_uris":{"android":"levelo://app?vid=dc02301a-e25b-4088-96c9-2c95bbdc42aa","ios":"levelo://app?vid=dc02301a-e25b-4088-96c9-2c95bbdc42aa"},"vehicle_type_id":"4","last_reported":1703055941,"current_range_meters":28400,"station_id":"ce4bgr92rcd13ifvqc6g","pricing_plan_id":"free"},{"bike_id":"9d52a925-323b-4a5e-9c24-9e0718f8c66b","system_id":"levelo_inurba_marseille","lat":43.313391,"lon":5.36706,"is_reserved":false,"is_disabled":false,"rental_uris":{"android":"levelo://app?vid=9d52a925-323b-4a5e-9c24-9e0718f8c66b","ios":"levelo://app?vid=9d52a925-323b-4a5e-9c24-9e0718f8c66b"},"vehicle_type_id":"4","last_reported":1703055941,"current_range_meters":31600,"station_id":"ce4bgr92rcd13ifvqc6g","pricing_plan_id":"free"},{"bike_id":"385c4116-b7eb-4dc1-8ab8-4cd9cad30c5b","system_id":"levelo_inurba_marseille","lat":43.31341,"lon":5.367098,"is_reserved":false,"is_disabled":false,"rental_uris":{"android":"levelo://app?vid=385c4116-b7eb-4dc1-8ab8-4cd9cad30c5b","ios":"levelo://app?vid=385c4116-b7eb-4dc1-8ab8-4cd9cad30c5b"},"vehicle_type_id":"4","last_reported":1703055941,"current_range_meters":28000,"station_id":"ce4bgr92rcd13ifvqc6g","pricing_plan_id":"free"},{"bike_id":"15c7edea-86ab-4b62-9286-30eaeca9bae0","system_id":"levelo_inurba_marseille","lat":43.31341,"lon":5.367098,"is_reserved":false,"is_disabled":false,"rental_uris":{"android":"levelo://app?vid=15c7edea-86ab-4b62-9286-30eaeca9bae0","ios":"levelo://app?vid=15c7edea-86ab-4b62-9286-30eaeca9bae0"},"vehicle_type_id":"4","last_reported":1703055941,"current_range_meters":31200,"station_id":"ce4bgr92rcd13ifvqc6g","pricing_plan_id":"free"},{"bike_id":"3c9c6e5a-e9b6-48f6-83bf-05f293c07807","system_id":"levelo_inurba_marseille","lat":43.314811,"lon":5.373103,"is_reserved":false,"is_disabled":false,"rental_uris":{"android":"levelo://app?vid=3c9c6e5a-e9b6-48f6-83bf-05f293c07807","ios":"levelo://app?vid=3c9c6e5a-e9b6-48f6-83bf-05f293c07807"},"vehicle_type_id":"4","last_reported":1703055941,"current_range_meters":23200,"station_id":"ce4bgt12rcd13ifvqcd0","pricing_plan_id":"free"},{"bike_id":"85c44f6f-cb73-4d8c-9cd0-d46d6fdda1f9","system_id":"levelo_inurba_marseille","lat":43.314811,"lon":5.373103,"is_reserved":false,"is_disabled":false,"rental_uris":{"android":"levelo://app?vid=85c44f6f-cb73-4d8c-9cd0-d46d6fdda1f9","ios":"levelo://app?vid=85c44f6f-cb73-4d8c-9cd0-d46d6fdda1f9"},"vehicle_type_id":"4","last_reported":1703055941,"current_range_meters":29200,"station_id":"ce4bgt12rcd13ifvqcd0","pricing_plan_id":"free"},{"bike_id":"593c1dc1-26e5-463a-8077-e04d3db402a6","system_id":"levelo_inurba_marseille","lat":43.309039,"lon":5.371797,"is_reserved":false,"is_disabled":false,"rental_uris":{"android":"levelo://app?vid=593c1dc1-26e5-463a-8077-e04d3db402a6","ios":"levelo://app?vid=593c1dc1-26e5-463a-8077-e04d3db402a6"},"vehicle_type_id":"4","last_reported":1703055941,"current_range_meters":25600,"station_id":"ce4bguh2rcd13ifvqckg","pricing_plan_id":"free"},{"bike_id":"aced0418-eb37-4db3-b952-16bf19b70e83","system_id":"levelo_inurba_marseille","lat":43.305714,"lon":5.365633,"is_reserved":false,"is_disabled":false,"rental_uris":{"android":"levelo://app?vid=aced0418-eb37-4db3-b952-16bf19b70e83","ios":"levelo://app?vid=aced0418-eb37-4db3-b952-16bf19b70e83"},"vehicle_type_id":"4","last_reported":1703055941,"current_range_meters":18000,"station_id":"ce4bgs12rcd13ifvqcag","pricing_plan_id":"free"},{"bike_id":"3e9cade6-c977-4838-93dd-bd5a4cee1b7d","system_id":"levelo_inurba_marseille","lat":43.305989,"lon":5.37225,"is_reserved":false,"is_disabled":false,"rental_uris":{"android":"levelo://app?vid=3e9cade6-c977-4838-93dd-bd5a4cee1b7d","ios":"levelo://app?vid=3e9cade6-c977-4838-93dd-bd5a4cee1b7d"},"vehicle_type_id":"4","last_reported":1703055941,"current_range_meters":24800,"station_id":"ce4bgqh2rcd13ifvqc4g","pricing_plan_id":"free"},{"bike_id":"de4a27c9-84f8-41ad-a15e-e1f4c0790c0c","system_id":"levelo_inurba_marseille","lat":43.311125,"lon":5.377624,"is_reserved":false,"is_disabled":false,"rental_uris":{"android":"levelo://app?vid=de4a27c9-84f8-41ad-a15e-e1f4c0790c0c","ios":"levelo://app?vid=de4a27c9-84f8-41ad-a15e-e1f4c0790c0c"},"vehicle_type_id":"4","last_reported":1703055941,"current_range_meters":30800,"station_id":"ce4bgt92rcd13ifvqcg0","pricing_plan_id":"free"},{"bike_id":"76f57f91-7dd0-4af1-9e81-19a996735e29","system_id":"levelo_inurba_marseille","lat":43.311131,"lon":5.377651,"is_reserved":false,"is_disabled":false,"rental_uris":{"android":"levelo://app?vid=76f57f91-7dd0-4af1-9e81-19a996735e29","ios":"levelo://app?vid=76f57f91-7dd0-4af1-9e81-19a996735e29"},"vehicle_type_id":"4","last_reported":1703055941,"current_range_meters":31200,"station_id":"ce4bgt92rcd13ifvqcg0","pricing_plan_id":"free"},{"bike_id":"bfadb25c-718a-4a10-9c53-838486816890","system_id":"levelo_inurba_marseille","lat":43.311125,"lon":5.377624,"is_reserved":false,"is_disabled":false,"rental_uris":{"android":"levelo://app?vid=bfadb25c-718a-4a10-9c53-838486816890","ios":"levelo://app?vid=bfadb25c-718a-4a10-9c53-838486816890"},"vehicle_type_id":"4","last_reported":1703055941,"current_range_meters":29200,"station_id":"ce4bgt92rcd13ifvqcg0","pricing_plan_id":"free"},{"bike_id":"449f2ed1-d59a-42dd-8d4f-846ca4b999d5","system_id":"levelo_inurba_marseille","lat":43.311131,"lon":5.377651,"is_reserved":false,"is_disabled":false,"rental_uris":{"android":"levelo://app?vid=449f2ed1-d59a-42dd-8d4f-846ca4b999d5","ios":"levelo://app?vid=449f2ed1-d59a-42dd-8d4f-846ca4b999d5"},"vehicle_type_id":"4","last_reported":1703055941,"current_range_meters":30400,"station_id":"ce4bgt92rcd13ifvqcg0","pricing_plan_id":"free"},{"bike_id":"8f7c2e78-0046-4a76-b5fc-377d945e71d8","system_id":"levelo_inurba_marseille","lat":43.317075,"lon":5.377367,"is_reserved":false,"is_disabled":false,"rental_uris":{"android":"levelo://app?vid=8f7c2e78-0046-4a76-b5fc-377d945e71d8","ios":"levelo://app?vid=8f7c2e78-0046-4a76-b5fc-377d945e71d8"},"vehicle_type_id":"4","last_reported":1703055941,"current_range_meters":4400,"station_id":"ce4bgth2rcd13ifvqch0","pricing_plan_id":"free"},{"bike_id":"434ac7bc-c4ee-4178-8066-57cd65d9dfc7","system_id":"levelo_inurba_marseille","lat":43.31245,"lon":5.379707,"is_reserved":false,"is_disabled":false,"rental_uris":{"android":"levelo://app?vid=434ac7bc-c4ee-4178-8066-57cd65d9dfc7","ios":"levelo://app?vid=434ac7bc-c4ee-4178-8066-57cd65d9dfc7"},"vehicle_type_id":"4","last_reported":1703055941,"current_range_meters":0,"station_id":"","pricing_plan_id":"free"},{"bike_id":"d12fd4df-1bbd-4a53-8fca-bb071d75c073","system_id":"levelo_inurba_marseille","lat":43.303046,"lon":5.368981,"is_reserved":false,"is_disabled":false,"rental_uris":{"android":"levelo://app?vid=d12fd4df-1bbd-4a53-8fca-bb071d75c073","ios":"levelo://app?vid=d12fd4df-1bbd-4a53-8fca-bb071d75c073"},"vehicle_type_id":"4","last_reported":1703055941,"current_range_meters":26000,"station_id":"ce4bgqh2rcd13ifvqc5g","pricing_plan_id":"free"},{"bike_id":"33f437bb-f466-4a98-8ee3-c2cc9dc360a1","system_id":"levelo_inurba_marseille","lat":43.303046,"lon":5.368981,"is_reserved":false,"is_disabled":false,"rental_uris":{"android":"levelo://app?vid=33f437bb-f466-4a98-8ee3-c2cc9dc360a1","ios":"levelo://app?vid=33f437bb-f466-4a98-8ee3-c2cc9dc360a1"},"vehicle_type_id":"4","last_reported":1703055941,"current_range_meters":12000,"station_id":"ce4bgqh2rcd13ifvqc5g","pricing_plan_id":"free"},{"bike_id":"0cd1f06f-d8ed-436f-8c8f-12741932c229","system_id":"levelo_inurba_marseille","lat":43.304606,"lon":5.379026,"is_reserved":false,"is_disabled":false,"rental_uris":{"android":"levelo://app?vid=0cd1f06f-d8ed-436f-8c8f-12741932c229","ios":"levelo://app?vid=0cd1f06f-d8ed-436f-8c8f-12741932c229"},"vehicle_type_id":"4","last_reported":1703055941,"current_range_meters":28800,"station_id":"ce4bgup2rcd13ifvqcn0","pricing_plan_id":"free"},{"bike_id":"21714c2b-eb1f-47c2-a70c-09272768f50e","system_id":"levelo_inurba_marseille","lat":43.304606,"lon":5.379026,"is_reserved":false,"is_disabled":false,"rental_uris":{"android":"levelo://app?vid=21714c2b-eb1f-47c2-a70c-09272768f50e","ios":"levelo://app?vid=21714c2b-eb1f-47c2-a70c-09272768f50e"},"vehicle_type_id":"4","last_reported":1703055941,"current_range_meters":30800,"station_id":"ce4bgup2rcd13ifvqcn0","pricing_plan_id":"free"},{"bike_id":"4f124387-bf64-4ba1-8133-e7c9ab25a1e6","system_id":"levelo_inurba_marseille","lat":43.304606,"lon":5.379026,"is_reserved":false,"is_disabled":false,"rental_uris":{"android":"levelo://app?vid=4f124387-bf64-4ba1-8133-e7c9ab25a1e6","ios":"levelo://app?vid=4f124387-bf64-4ba1-8133-e7c9ab25a1e6"},"vehicle_type_id":"4","last_reported":1703055941,"current_range_meters":16800,"station_id":"ce4bgup2rcd13ifvqcn0","pricing_plan_id":"free"},{"bike_id":"18143920-cf74-422f-8569-6f8fb0145086","system_id":"levelo_inurba_marseille","lat":43.3048,"lon":5.37913,"is_reserved":false,"is_disabled":false,"rental_uris":{"android":"levelo://app?vid=18143920-cf74-422f-8569-6f8fb0145086","ios":"levelo://app?vid=18143920-cf74-422f-8569-6f8fb0145086"},"vehicle_type_id":"4","last_reported":1703055941,"current_range_meters":2800,"station_id":"ce4bgup2rcd13ifvqcn0","pricing_plan_id":"free"},{"bike_id":"798afb3c-16c4-4ead-9599-120231732d83","system_id":"levelo_inurba_marseille","lat":43.304606,"lon":5.379026,"is_reserved":false,"is_disabled":false,"rental_uris":{"android":"levelo://app?vid=798afb3c-16c4-4ead-9599-120231732d83","ios":"levelo://app?vid=798afb3c-16c4-4ead-9599-120231732d83"},"vehicle_type_id":"4","last_reported":1703055941,"current_range_meters":31600,"station_id":"ce4bgup2rcd13ifvqcn0","pricing_plan_id":"free"},{"bike_id":"68dd7e93-9433-4939-b76e-26fb77860b72","system_id":"levelo_inurba_marseille","lat":43.304606,"lon":5.379026,"is_reserved":false,"is_disabled":false,"rental_uris":{"android":"levelo://app?vid=68dd7e93-9433-4939-b76e-26fb77860b72","ios":"levelo://app?vid=68dd7e93-9433-4939-b76e-26fb77860b72"},"vehicle_type_id":"4","last_reported":1703055941,"current_range_meters":27600,"station_id":"ce4bgup2rcd13ifvqcn0","pricing_plan_id":"free"},{"bike_id":"8ae19b2c-3abe-4d96-9b91-4687555d1f8c","system_id":"levelo_inurba_marseille","lat":43.30671,"lon":5.38107,"is_reserved":false,"is_disabled":false,"rental_uris":{"android":"levelo://app?vid=8ae19b2c-3abe-4d96-9b91-4687555d1f8c","ios":"levelo://app?vid=8ae19b2c-3abe-4d96-9b91-4687555d1f8c"},"vehicle_type_id":"4","last_reported":1703055941,"current_range_meters":30000,"station_id":"","pricing_plan_id":"free"},{"bike_id":"53549a77-b50f-4eb8-8399-26d8008d8453","system_id":"levelo_inurba_marseille","lat":43.304606,"lon":5.379026,"is_reserved":false,"is_disabled":false,"rental_uris":{"android":"levelo://app?vid=53549a77-b50f-4eb8-8399-26d8008d8453","ios":"levelo://app?vid=53549a77-b50f-4eb8-8399-26d8008d8453"},"vehicle_type_id":"4","last_reported":1703055941,"current_range_meters":20800,"station_id":"ce4bgup2rcd13ifvqcn0","pricing_plan_id":"free"},{"bike_id":"9e1690d6-6904-499f-b5b2-4dfcb8c1af52","system_id":"levelo_inurba_marseille","lat":43.304606,"lon":5.379026,"is_reserved":false,"is_disabled":false,"rental_uris":{"android":"levelo://app?vid=9e1690d6-6904-499f-b5b2-4dfcb8c1af52","ios":"levelo://app?vid=9e1690d6-6904-499f-b5b2-4dfcb8c1af52"},"vehicle_type_id":"4","last_reported":1703055941,"current_range_meters":19200,"station_id":"ce4bgup2rcd13ifvqcn0","pricing_plan_id":"free"},{"bike_id":"9313c12c-f2ef-4a10-8249-8f305aa30d1a","system_id":"levelo_inurba_marseille","lat":43.304606,"lon":5.379026,"is_reserved":false,"is_disabled":false,"rental_uris":{"android":"levelo://app?vid=9313c12c-f2ef-4a10-8249-8f305aa30d1a","ios":"levelo://app?vid=9313c12c-f2ef-4a10-8249-8f305aa30d1a"},"vehicle_type_id":"4","last_reported":1703055941,"current_range_meters":400,"station_id":"ce4bgup2rcd13ifvqcn0","pricing_plan_id":"free"},{"bike_id":"8ded22ee-b92a-4490-827c-70a872d5f44e","system_id":"levelo_inurba_marseille","lat":43.304606,"lon":5.379026,"is_reserved":false,"is_disabled":false,"rental_uris":{"android":"levelo://app?vid=8ded22ee-b92a-4490-827c-70a872d5f44e","ios":"levelo://app?vid=8ded22ee-b92a-4490-827c-70a872d5f44e"},"vehicle_type_id":"4","last_reported":1703055941,"current_range_meters":25200,"station_id":"ce4bgup2rcd13ifvqcn0","pricing_plan_id":"free"},{"bike_id":"792bd518-d235-4bd9-8622-0b611a1e03b0","system_id":"levelo_inurba_marseille","lat":43.302784,"lon":5.377158,"is_reserved":false,"is_disabled":false,"rental_uris":{"android":"levelo://app?vid=792bd518-d235-4bd9-8622-0b611a1e03b0","ios":"levelo://app?vid=792bd518-d235-4bd9-8622-0b611a1e03b0"},"vehicle_type_id":"4","last_reported":1703055941,"current_range_meters":28400,"station_id":"ce4bguh2rcd13ifvqcj0","pricing_plan_id":"free"},{"bike_id":"73ec7247-bcd3-4193-9351-c056112d3952","system_id":"levelo_inurba_marseille","lat":43.319939,"lon":5.381531,"is_reserved":false,"is_disabled":false,"rental_uris":{"android":"levelo://app?vid=73ec7247-bcd3-4193-9351-c056112d3952","ios":"levelo://app?vid=73ec7247-bcd3-4193-9351-c056112d3952"},"vehicle_type_id":"4","last_reported":1703055941,"current_range_meters":27600,"station_id":"ce4bhr12rcd13ifvqhpg","pricing_plan_id":"free"},{"bike_id":"28e6ef66-93b9-4fe7-9561-b03094f4e31d","system_id":"levelo_inurba_marseille","lat":43.319998,"lon":5.381508,"is_reserved":false,"is_disabled":false,"rental_uris":{"android":"levelo://app?vid=28e6ef66-93b9-4fe7-9561-b03094f4e31d","ios":"levelo://app?vid=28e6ef66-93b9-4fe7-9561-b03094f4e31d"},"vehicle_type_id":"4","last_reported":1703055941,"current_range_meters":0,"station_id":"ce4bhr12rcd13ifvqhpg","pricing_plan_id":"free"},{"bike_id":"570aaa23-85e6-496b-86f9-6537f1090459","system_id":"levelo_inurba_marseille","lat":43.313571,"lon":5.384829,"is_reserved":false,"is_disabled":false,"rental_uris":{"android":"levelo://app?vid=570aaa23-85e6-496b-86f9-6537f1090459","ios":"levelo://app?vid=570aaa23-85e6-496b-86f9-6537f1090459"},"vehicle_type_id":"4","last_reported":1703055941,"current_range_meters":20800,"station_id":"ce4bgt92rcd13ifvqcf0","pricing_plan_id":"free"},{"bike_id":"5a28df3d-a607-4118-a3d2-309ff0bb131b","system_id":"levelo_inurba_marseille","lat":43.313571,"lon":5.384829,"is_reserved":false,"is_disabled":false,"rental_uris":{"android":"levelo://app?vid=5a28df3d-a607-4118-a3d2-309ff0bb131b","ios":"levelo://app?vid=5a28df3d-a607-4118-a3d2-309ff0bb131b"},"vehicle_type_id":"4","last_reported":1703055941,"current_range_meters":28000,"station_id":"ce4bgt92rcd13ifvqcf0","pricing_plan_id":"free"},{"bike_id":"8fae39fe-f351-4775-bf17-ce9800288018","system_id":"levelo_inurba_marseille","lat":43.313571,"lon":5.384829,"is_reserved":false,"is_disabled":false,"rental_uris":{"android":"levelo://app?vid=8fae39fe-f351-4775-bf17-ce9800288018","ios":"levelo://app?vid=8fae39fe-f351-4775-bf17-ce9800288018"},"vehicle_type_id":"4","last_reported":1703055941,"current_range_meters":30400,"station_id":"ce4bgt92rcd13ifvqcf0","pricing_plan_id":"free"},{"bike_id":"af18f2c3-4fa5-4a41-afde-d34403368d5c","system_id":"levelo_inurba_marseille","lat":43.313571,"lon":5.384829,"is_reserved":false,"is_disabled":false,"rental_uris":{"android":"levelo://app?vid=af18f2c3-4fa5-4a41-afde-d34403368d5c","ios":"levelo://app?vid=af18f2c3-4fa5-4a41-afde-d34403368d5c"},"vehicle_type_id":"4","last_reported":1703055941,"current_range_meters":19200,"station_id":"ce4bgt92rcd13ifvqcf0","pricing_plan_id":"free"},{"bike_id":"1d405565-81fe-483d-b06d-9ddd014114e3","system_id":"levelo_inurba_marseille","lat":43.313571,"lon":5.384829,"is_reserved":false,"is_disabled":false,"rental_uris":{"android":"levelo://app?vid=1d405565-81fe-483d-b06d-9ddd014114e3","ios":"levelo://app?vid=1d405565-81fe-483d-b06d-9ddd014114e3"},"vehicle_type_id":"4","last_reported":1703055941,"current_range_meters":31200,"station_id":"ce4bgt92rcd13ifvqcf0","pricing_plan_id":"free"},{"bike_id":"01ee7429-cfde-4b62-856f-75cf388216af","system_id":"levelo_inurba_marseille","lat":43.313571,"lon":5.384829,"is_reserved":false,"is_disabled":false,"rental_uris":{"android":"levelo://app?vid=01ee7429-cfde-4b62-856f-75cf388216af","ios":"levelo://app?vid=01ee7429-cfde-4b62-856f-75cf388216af"},"vehicle_type_id":"4","last_reported":1703055941,"current_range_meters":28800,"station_id":"ce4bgt92rcd13ifvqcf0","pricing_plan_id":"free"},{"bike_id":"93e3f275-51de-4ff5-beb2-171840114c6c","system_id":"levelo_inurba_marseille","lat":43.313635,"lon":5.385009,"is_reserved":false,"is_disabled":false,"rental_uris":{"android":"levelo://app?vid=93e3f275-51de-4ff5-beb2-171840114c6c","ios":"levelo://app?vid=93e3f275-51de-4ff5-beb2-171840114c6c"},"vehicle_type_id":"4","last_reported":1703055941,"current_range_meters":18400,"station_id":"ce4bgt92rcd13ifvqcf0","pricing_plan_id":"free"},{"bike_id":"70eb36af-de42-4fb1-a432-324b2faa8d96","system_id":"levelo_inurba_marseille","lat":43.31367,"lon":5.385022,"is_reserved":false,"is_disabled":false,"rental_uris":{"android":"levelo://app?vid=70eb36af-de42-4fb1-a432-324b2faa8d96","ios":"levelo://app?vid=70eb36af-de42-4fb1-a432-324b2faa8d96"},"vehicle_type_id":"4","last_reported":1703055941,"current_range_meters":21600,"station_id":"ce4bgt92rcd13ifvqcf0","pricing_plan_id":"free"},{"bike_id":"3a298406-f8b9-4de2-9560-9e66ccd483d8","system_id":"levelo_inurba_marseille","lat":43.299724,"lon":5.371829,"is_reserved":false,"is_disabled":false,"rental_uris":{"android":"levelo://app?vid=3a298406-f8b9-4de2-9560-9e66ccd483d8","ios":"levelo://app?vid=3a298406-f8b9-4de2-9560-9e66ccd483d8"},"vehicle_type_id":"4","last_reported":1703055941,"current_range_meters":31200,"station_id":"ce4bgr92rcd13ifvqc7g","pricing_plan_id":"free"},{"bike_id":"3051d7fe-9d3b-4e1d-a3cd-0cdb7dd1aae0","system_id":"levelo_inurba_marseille","lat":43.299222,"lon":5.365554,"is_reserved":false,"is_disabled":false,"rental_uris":{"android":"levelo://app?vid=3051d7fe-9d3b-4e1d-a3cd-0cdb7dd1aae0","ios":"levelo://app?vid=3051d7fe-9d3b-4e1d-a3cd-0cdb7dd1aae0"},"vehicle_type_id":"4","last_reported":1703055941,"current_range_meters":27600,"station_id":"ce4bgm92rcd13ifvqbr0","pricing_plan_id":"free"},{"bike_id":"64e2f4b3-8653-4ace-af4b-79233ffb0a98","system_id":"levelo_inurba_marseille","lat":43.299222,"lon":5.365554,"is_reserved":false,"is_disabled":false,"rental_uris":{"android":"levelo://app?vid=64e2f4b3-8653-4ace-af4b-79233ffb0a98","ios":"levelo://app?vid=64e2f4b3-8653-4ace-af4b-79233ffb0a98"},"vehicle_type_id":"4","last_reported":1703055941,"current_range_meters":6400,"station_id":"ce4bgm92rcd13ifvqbr0","pricing_plan_id":"free"},{"bike_id":"ef587b47-3561-47ab-b8ee-e3619d701f59","system_id":"levelo_inurba_marseille","lat":43.305364,"lon":5.384119,"is_reserved":false,"is_disabled":false,"rental_uris":{"android":"levelo://app?vid=ef587b47-3561-47ab-b8ee-e3619d701f59","ios":"levelo://app?vid=ef587b47-3561-47ab-b8ee-e3619d701f59"},"vehicle_type_id":"4","last_reported":1703055941,"current_range_meters":20400,"station_id":"ce4bgg92rcd13ifvqb30","pricing_plan_id":"free"},{"bike_id":"fee7c1b1-61b1-4135-98bd-0f24c3d0a164","system_id":"levelo_inurba_marseille","lat":43.305364,"lon":5.384119,"is_reserved":false,"is_disabled":false,"rental_uris":{"android":"levelo://app?vid=fee7c1b1-61b1-4135-98bd-0f24c3d0a164","ios":"levelo://app?vid=fee7c1b1-61b1-4135-98bd-0f24c3d0a164"},"vehicle_type_id":"4","last_reported":1703055941,"current_range_meters":31200,"station_id":"ce4bgg92rcd13ifvqb30","pricing_plan_id":"free"},{"bike_id":"ca0834b0-077b-48e5-8d61-d563b65c06e3","system_id":"levelo_inurba_marseille","lat":43.305511,"lon":5.384469,"is_reserved":false,"is_disabled":false,"rental_uris":{"android":"levelo://app?vid=ca0834b0-077b-48e5-8d61-d563b65c06e3","ios":"levelo://app?vid=ca0834b0-077b-48e5-8d61-d563b65c06e3"},"vehicle_type_id":"4","last_reported":1703055941,"current_range_meters":0,"station_id":"ce4bgg92rcd13ifvqb30","pricing_plan_id":"free"},{"bike_id":"04742fce-b899-4dfe-ab52-a05d5116e83a","system_id":"levelo_inurba_marseille","lat":43.322872,"lon":5.382756,"is_reserved":false,"is_disabled":false,"rental_uris":{"android":"levelo://app?vid=04742fce-b899-4dfe-ab52-a05d5116e83a","ios":"levelo://app?vid=04742fce-b899-4dfe-ab52-a05d5116e83a"},"vehicle_type_id":"4","last_reported":1703055941,"current_range_meters":29200,"station_id":"ce4bhr12rcd13ifvqhqg","pricing_plan_id":"free"},{"bike_id":"eb8ebe7d-6983-4780-997c-9447c3c0c6e2","system_id":"levelo_inurba_marseille","lat":43.32829,"lon":5.36685,"is_reserved":false,"is_disabled":false,"rental_uris":{"android":"levelo://app?vid=eb8ebe7d-6983-4780-997c-9447c3c0c6e2","ios":"levelo://app?vid=eb8ebe7d-6983-4780-997c-9447c3c0c6e2"},"vehicle_type_id":"4","last_reported":1703055941,"current_range_meters":29600,"station_id":"ce4bhs92rcd13ifvqi0g","pricing_plan_id":"free"},{"bike_id":"c22e4b9f-ba20-4a7c-a7c8-fd0a73d903e0","system_id":"levelo_inurba_marseille","lat":43.328295,"lon":5.3668,"is_reserved":false,"is_disabled":false,"rental_uris":{"android":"levelo://app?vid=c22e4b9f-ba20-4a7c-a7c8-fd0a73d903e0","ios":"levelo://app?vid=c22e4b9f-ba20-4a7c-a7c8-fd0a73d903e0"},"vehicle_type_id":"4","last_reported":1703055941,"current_range_meters":24400,"station_id":"ce4bhs92rcd13ifvqi0g","pricing_plan_id":"free"},{"bike_id":"cb97846c-9508-4ec4-82fd-1a637ef7dd90","system_id":"levelo_inurba_marseille","lat":43.32831,"lon":5.36673,"is_reserved":false,"is_disabled":false,"rental_uris":{"android":"levelo://app?vid=cb97846c-9508-4ec4-82fd-1a637ef7dd90","ios":"levelo://app?vid=cb97846c-9508-4ec4-82fd-1a637ef7dd90"},"vehicle_type_id":"4","last_reported":1703055941,"current_range_meters":2400,"station_id":"ce4bhs92rcd13ifvqi0g","pricing_plan_id":"free"},{"bike_id":"48ebe570-3797-4c11-9550-8036b565ccb1","system_id":"levelo_inurba_marseille","lat":43.328316,"lon":5.366705,"is_reserved":false,"is_disabled":false,"rental_uris":{"android":"levelo://app?vid=48ebe570-3797-4c11-9550-8036b565ccb1","ios":"levelo://app?vid=48ebe570-3797-4c11-9550-8036b565ccb1"},"vehicle_type_id":"4","last_reported":1703055941,"current_range_meters":28800,"station_id":"ce4bhs92rcd13ifvqi0g","pricing_plan_id":"free"},{"bike_id":"2a8a59a2-86cc-48a9-8714-ae0edcb4d489","system_id":"levelo_inurba_marseille","lat":43.32833,"lon":5.36683,"is_reserved":false,"is_disabled":false,"rental_uris":{"android":"levelo://app?vid=2a8a59a2-86cc-48a9-8714-ae0edcb4d489","ios":"levelo://app?vid=2a8a59a2-86cc-48a9-8714-ae0edcb4d489"},"vehicle_type_id":"4","last_reported":1703055941,"current_range_meters":4000,"station_id":"ce4bhs92rcd13ifvqi0g","pricing_plan_id":"free"},{"bike_id":"c12df297-168e-4ca3-95d9-a300ff1ffbd9","system_id":"levelo_inurba_marseille","lat":43.328371,"lon":5.366909,"is_reserved":false,"is_disabled":false,"rental_uris":{"android":"levelo://app?vid=c12df297-168e-4ca3-95d9-a300ff1ffbd9","ios":"levelo://app?vid=c12df297-168e-4ca3-95d9-a300ff1ffbd9"},"vehicle_type_id":"4","last_reported":1703055941,"current_range_meters":30800,"station_id":"ce4bhs92rcd13ifvqi0g","pricing_plan_id":"free"},{"bike_id":"3f4a7c0a-9bb3-46c1-bd5c-d0138c78b4a3","system_id":"levelo_inurba_marseille","lat":43.328341,"lon":5.366903,"is_reserved":false,"is_disabled":false,"rental_uris":{"android":"levelo://app?vid=3f4a7c0a-9bb3-46c1-bd5c-d0138c78b4a3","ios":"levelo://app?vid=3f4a7c0a-9bb3-46c1-bd5c-d0138c78b4a3"},"vehicle_type_id":"4","last_reported":1703055941,"current_range_meters":5600,"station_id":"ce4bhs92rcd13ifvqi0g","pricing_plan_id":"free"},{"bike_id":"3faedbce-6f97-4dd1-b634-b79be13e0471","system_id":"levelo_inurba_marseille","lat":43.2968,"lon":5.37291,"is_reserved":false,"is_disabled":false,"rental_uris":{"android":"levelo://app?vid=3faedbce-6f97-4dd1-b634-b79be13e0471","ios":"levelo://app?vid=3faedbce-6f97-4dd1-b634-b79be13e0471"},"vehicle_type_id":"4","last_reported":1703055941,"current_range_meters":27200,"station_id":"ce4bgk12rcd13ifvqbj0","pricing_plan_id":"free"},{"bike_id":"bd8cd30c-0e9e-479d-8a7e-36daf5144330","system_id":"levelo_inurba_marseille","lat":43.299028,"lon":5.381509,"is_reserved":false,"is_disabled":false,"rental_uris":{"android":"levelo://app?vid=bd8cd30c-0e9e-479d-8a7e-36daf5144330","ios":"levelo://app?vid=bd8cd30c-0e9e-479d-8a7e-36daf5144330"},"vehicle_type_id":"4","last_reported":1703055941,"current_range_meters":20400,"station_id":"ce4bgj12rcd13ifvqbc0","pricing_plan_id":"free"},{"bike_id":"e7775650-af25-404c-95a5-6e920f6afe4b","system_id":"levelo_inurba_marseille","lat":43.296921,"lon":5.376579,"is_reserved":false,"is_disabled":false,"rental_uris":{"android":"levelo://app?vid=e7775650-af25-404c-95a5-6e920f6afe4b","ios":"levelo://app?vid=e7775650-af25-404c-95a5-6e920f6afe4b"},"vehicle_type_id":"4","last_reported":1703055941,"current_range_meters":24000,"station_id":"ce4bgkh2rcd13ifvqbl0","pricing_plan_id":"free"},{"bike_id":"8c4fa6df-927a-41b1-8fb1-9dac069dd028","system_id":"levelo_inurba_marseille","lat":43.317557,"lon":5.390173,"is_reserved":false,"is_disabled":false,"rental_uris":{"android":"levelo://app?vid=8c4fa6df-927a-41b1-8fb1-9dac069dd028","ios":"levelo://app?vid=8c4fa6df-927a-41b1-8fb1-9dac069dd028"},"vehicle_type_id":"4","last_reported":1703055941,"current_range_meters":31200,"station_id":"ce4bhqp2rcd13ifvqhng","pricing_plan_id":"free"},{"bike_id":"40554fe8-87bf-41d5-b75a-7fd0e2ec929c","system_id":"levelo_inurba_marseille","lat":43.317557,"lon":5.390173,"is_reserved":false,"is_disabled":false,"rental_uris":{"android":"levelo://app?vid=40554fe8-87bf-41d5-b75a-7fd0e2ec929c","ios":"levelo://app?vid=40554fe8-87bf-41d5-b75a-7fd0e2ec929c"},"vehicle_type_id":"4","last_reported":1703055941,"current_range_meters":31200,"station_id":"ce4bhqp2rcd13ifvqhng","pricing_plan_id":"free"},{"bike_id":"e96c70c6-fe52-48c9-a55a-05f43fe64110","system_id":"levelo_inurba_marseille","lat":43.298037,"lon":5.381066,"is_reserved":false,"is_disabled":false,"rental_uris":{"android":"levelo://app?vid=e96c70c6-fe52-48c9-a55a-05f43fe64110","ios":"levelo://app?vid=e96c70c6-fe52-48c9-a55a-05f43fe64110"},"vehicle_type_id":"4","last_reported":1703055941,"current_range_meters":31200,"station_id":"ce4bgip2rcd13ifvqbb0","pricing_plan_id":"free"},{"bike_id":"b4244d9b-d496-4ca5-b1e4-303c412961b3","system_id":"levelo_inurba_marseille","lat":43.29808,"lon":5.3809,"is_reserved":false,"is_disabled":false,"rental_uris":{"android":"levelo://app?vid=b4244d9b-d496-4ca5-b1e4-303c412961b3","ios":"levelo://app?vid=b4244d9b-d496-4ca5-b1e4-303c412961b3"},"vehicle_type_id":"4","last_reported":1703055941,"current_range_meters":18400,"station_id":"ce4bgip2rcd13ifvqbb0","pricing_plan_id":"free"},{"bike_id":"2b31f596-4ecd-404c-9a07-02f2a69a33cf","system_id":"levelo_inurba_marseille","lat":43.298037,"lon":5.381066,"is_reserved":false,"is_disabled":false,"rental_uris":{"android":"levelo://app?vid=2b31f596-4ecd-404c-9a07-02f2a69a33cf","ios":"levelo://app?vid=2b31f596-4ecd-404c-9a07-02f2a69a33cf"},"vehicle_type_id":"4","last_reported":1703055941,"current_range_meters":27200,"station_id":"ce4bgip2rcd13ifvqbb0","pricing_plan_id":"free"},{"bike_id":"b15acf14-ffa0-44c3-847e-c412b7258624","system_id":"levelo_inurba_marseille","lat":43.304274,"lon":5.388873,"is_reserved":false,"is_disabled":false,"rental_uris":{"android":"levelo://app?vid=b15acf14-ffa0-44c3-847e-c412b7258624","ios":"levelo://app?vid=b15acf14-ffa0-44c3-847e-c412b7258624"},"vehicle_type_id":"4","last_reported":1703055941,"current_range_meters":26800,"station_id":"ce4bgk12rcd13ifvqbi0","pricing_plan_id":"free"},{"bike_id":"8eb183b1-06f0-44ac-9c0b-50286e7f55ef","system_id":"levelo_inurba_marseille","lat":43.304278,"lon":5.388868,"is_reserved":false,"is_disabled":false,"rental_uris":{"android":"levelo://app?vid=8eb183b1-06f0-44ac-9c0b-50286e7f55ef","ios":"levelo://app?vid=8eb183b1-06f0-44ac-9c0b-50286e7f55ef"},"vehicle_type_id":"4","last_reported":1703055941,"current_range_meters":19600,"station_id":"ce4bgk12rcd13ifvqbi0","pricing_plan_id":"free"},{"bike_id":"3d1d3c26-3eee-4f46-8b83-98834acf6735","system_id":"levelo_inurba_marseille","lat":43.32367,"lon":5.388836,"is_reserved":false,"is_disabled":false,"rental_uris":{"android":"levelo://app?vid=3d1d3c26-3eee-4f46-8b83-98834acf6735","ios":"levelo://app?vid=3d1d3c26-3eee-4f46-8b83-98834acf6735"},"vehicle_type_id":"4","last_reported":1703055941,"current_range_meters":11600,"station_id":"ce4bhqp2rcd13ifvqhog","pricing_plan_id":"free"},{"bike_id":"f6c944ac-76c5-4af7-bad2-2080808a45f4","system_id":"levelo_inurba_marseille","lat":43.32367,"lon":5.388836,"is_reserved":false,"is_disabled":false,"rental_uris":{"android":"levelo://app?vid=f6c944ac-76c5-4af7-bad2-2080808a45f4","ios":"levelo://app?vid=f6c944ac-76c5-4af7-bad2-2080808a45f4"},"vehicle_type_id":"4","last_reported":1703055941,"current_range_meters":28800,"station_id":"ce4bhqp2rcd13ifvqhog","pricing_plan_id":"free"},{"bike_id":"70fda661-87d6-419e-9b40-f9c4076436b5","system_id":"levelo_inurba_marseille","lat":43.32367,"lon":5.388836,"is_reserved":false,"is_disabled":false,"rental_uris":{"android":"levelo://app?vid=70fda661-87d6-419e-9b40-f9c4076436b5","ios":"levelo://app?vid=70fda661-87d6-419e-9b40-f9c4076436b5"},"vehicle_type_id":"4","last_reported":1703055941,"current_range_meters":29600,"station_id":"ce4bhqp2rcd13ifvqhog","pricing_plan_id":"free"},{"bike_id":"a3ee76da-1ad1-45d1-b6fd-ed592dec388c","system_id":"levelo_inurba_marseille","lat":43.29601,"lon":5.381084,"is_reserved":false,"is_disabled":false,"rental_uris":{"android":"levelo://app?vid=a3ee76da-1ad1-45d1-b6fd-ed592dec388c","ios":"levelo://app?vid=a3ee76da-1ad1-45d1-b6fd-ed592dec388c"},"vehicle_type_id":"4","last_reported":1703055941,"current_range_meters":26800,"station_id":"ce4bgl12rcd13ifvqbo0","pricing_plan_id":"free"},{"bike_id":"fbc6d149-509b-4ea3-b3e0-e9aaa269747b","system_id":"levelo_inurba_marseille","lat":43.29601,"lon":5.381084,"is_reserved":false,"is_disabled":false,"rental_uris":{"android":"levelo://app?vid=fbc6d149-509b-4ea3-b3e0-e9aaa269747b","ios":"levelo://app?vid=fbc6d149-509b-4ea3-b3e0-e9aaa269747b"},"vehicle_type_id":"4","last_reported":1703055941,"current_range_meters":14000,"station_id":"ce4bgl12rcd13ifvqbo0","pricing_plan_id":"free"},{"bike_id":"801a1273-a948-4786-a988-d66ed48ae7a9","system_id":"levelo_inurba_marseille","lat":43.29602,"lon":5.381084,"is_reserved":false,"is_disabled":false,"rental_uris":{"android":"levelo://app?vid=801a1273-a948-4786-a988-d66ed48ae7a9","ios":"levelo://app?vid=801a1273-a948-4786-a988-d66ed48ae7a9"},"vehicle_type_id":"4","last_reported":1703055941,"current_range_meters":26400,"station_id":"ce4bgl12rcd13ifvqbo0","pricing_plan_id":"free"},{"bike_id":"41bd1f63-ff2c-4352-91e5-974d96057c7d","system_id":"levelo_inurba_marseille","lat":43.29601,"lon":5.381084,"is_reserved":false,"is_disabled":false,"rental_uris":{"android":"levelo://app?vid=41bd1f63-ff2c-4352-91e5-974d96057c7d","ios":"levelo://app?vid=41bd1f63-ff2c-4352-91e5-974d96057c7d"},"vehicle_type_id":"4","last_reported":1703055941,"current_range_meters":13600,"station_id":"ce4bgl12rcd13ifvqbo0","pricing_plan_id":"free"},{"bike_id":"ed3ff1d9-d65d-4656-ae9a-2c0cd9411f9a","system_id":"levelo_inurba_marseille","lat":43.292749,"lon":5.368398,"is_reserved":false,"is_disabled":false,"rental_uris":{"android":"levelo://app?vid=ed3ff1d9-d65d-4656-ae9a-2c0cd9411f9a","ios":"levelo://app?vid=ed3ff1d9-d65d-4656-ae9a-2c0cd9411f9a"},"vehicle_type_id":"4","last_reported":1703055941,"current_range_meters":18000,"station_id":"ce4bhbp2rcd13ifvqesg","pricing_plan_id":"free"},{"bike_id":"fcb50914-abed-4809-95eb-4497ea6de9b4","system_id":"levelo_inurba_marseille","lat":43.30594,"lon":5.39355,"is_reserved":false,"is_disabled":false,"rental_uris":{"android":"levelo://app?vid=fcb50914-abed-4809-95eb-4497ea6de9b4","ios":"levelo://app?vid=fcb50914-abed-4809-95eb-4497ea6de9b4"},"vehicle_type_id":"4","last_reported":1703055941,"current_range_meters":0,"station_id":"ce4bh0p2rcd13ifvqd80","pricing_plan_id":"free"},{"bike_id":"b15f0f47-b461-4726-8e04-c7effe1406e3","system_id":"levelo_inurba_marseille","lat":43.305994,"lon":5.393687,"is_reserved":false,"is_disabled":false,"rental_uris":{"android":"levelo://app?vid=b15f0f47-b461-4726-8e04-c7effe1406e3","ios":"levelo://app?vid=b15f0f47-b461-4726-8e04-c7effe1406e3"},"vehicle_type_id":"4","last_reported":1703055941,"current_range_meters":0,"station_id":"ce4bh0p2rcd13ifvqd80","pricing_plan_id":"free"},{"bike_id":"9c329339-03a5-4b1a-84a6-2ccfc4065cd1","system_id":"levelo_inurba_marseille","lat":43.305994,"lon":5.393687,"is_reserved":false,"is_disabled":false,"rental_uris":{"android":"levelo://app?vid=9c329339-03a5-4b1a-84a6-2ccfc4065cd1","ios":"levelo://app?vid=9c329339-03a5-4b1a-84a6-2ccfc4065cd1"},"vehicle_type_id":"4","last_reported":1703055941,"current_range_meters":12800,"station_id":"ce4bh0p2rcd13ifvqd80","pricing_plan_id":"free"},{"bike_id":"12ef07e3-5139-440a-b8ca-a44156b9ac3d","system_id":"levelo_inurba_marseille","lat":43.305994,"lon":5.393687,"is_reserved":false,"is_disabled":false,"rental_uris":{"android":"levelo://app?vid=12ef07e3-5139-440a-b8ca-a44156b9ac3d","ios":"levelo://app?vid=12ef07e3-5139-440a-b8ca-a44156b9ac3d"},"vehicle_type_id":"4","last_reported":1703055941,"current_range_meters":27200,"station_id":"ce4bh0p2rcd13ifvqd80","pricing_plan_id":"free"},{"bike_id":"33d566bd-5932-4df4-adfa-efd845cffe17","system_id":"levelo_inurba_marseille","lat":43.305994,"lon":5.393687,"is_reserved":false,"is_disabled":false,"rental_uris":{"android":"levelo://app?vid=33d566bd-5932-4df4-adfa-efd845cffe17","ios":"levelo://app?vid=33d566bd-5932-4df4-adfa-efd845cffe17"},"vehicle_type_id":"4","last_reported":1703055941,"current_range_meters":20800,"station_id":"ce4bh0p2rcd13ifvqd80","pricing_plan_id":"free"},{"bike_id":"180168ab-a8d0-4c15-9c25-e9af923be4a1","system_id":"levelo_inurba_marseille","lat":43.30598,"lon":5.39359,"is_reserved":false,"is_disabled":false,"rental_uris":{"android":"levelo://app?vid=180168ab-a8d0-4c15-9c25-e9af923be4a1","ios":"levelo://app?vid=180168ab-a8d0-4c15-9c25-e9af923be4a1"},"vehicle_type_id":"4","last_reported":1703055941,"current_range_meters":2400,"station_id":"ce4bh0p2rcd13ifvqd80","pricing_plan_id":"free"},{"bike_id":"f94d3866-5780-4f0a-b4ef-86629d279a3a","system_id":"levelo_inurba_marseille","lat":43.305994,"lon":5.393687,"is_reserved":false,"is_disabled":false,"rental_uris":{"android":"levelo://app?vid=f94d3866-5780-4f0a-b4ef-86629d279a3a","ios":"levelo://app?vid=f94d3866-5780-4f0a-b4ef-86629d279a3a"},"vehicle_type_id":"4","last_reported":1703055941,"current_range_meters":29200,"station_id":"ce4bh0p2rcd13ifvqd80","pricing_plan_id":"free"},{"bike_id":"c6ce1c49-7e1f-4035-8ede-954fb5c0a799","system_id":"levelo_inurba_marseille","lat":43.305994,"lon":5.393687,"is_reserved":false,"is_disabled":false,"rental_uris":{"android":"levelo://app?vid=c6ce1c49-7e1f-4035-8ede-954fb5c0a799","ios":"levelo://app?vid=c6ce1c49-7e1f-4035-8ede-954fb5c0a799"},"vehicle_type_id":"4","last_reported":1703055941,"current_range_meters":25200,"station_id":"ce4bh0p2rcd13ifvqd80","pricing_plan_id":"free"},{"bike_id":"c07d7c9f-82b0-4fcd-b8af-3ac08377cea0","system_id":"levelo_inurba_marseille","lat":43.30597,"lon":5.39363,"is_reserved":false,"is_disabled":false,"rental_uris":{"android":"levelo://app?vid=c07d7c9f-82b0-4fcd-b8af-3ac08377cea0","ios":"levelo://app?vid=c07d7c9f-82b0-4fcd-b8af-3ac08377cea0"},"vehicle_type_id":"4","last_reported":1703055941,"current_range_meters":31200,"station_id":"ce4bh0p2rcd13ifvqd80","pricing_plan_id":"free"},{"bike_id":"de55f5f4-925e-4df6-a58f-bedaa99d99d5","system_id":"levelo_inurba_marseille","lat":43.305996,"lon":5.393643,"is_reserved":false,"is_disabled":false,"rental_uris":{"android":"levelo://app?vid=de55f5f4-925e-4df6-a58f-bedaa99d99d5","ios":"levelo://app?vid=de55f5f4-925e-4df6-a58f-bedaa99d99d5"},"vehicle_type_id":"4","last_reported":1703055941,"current_range_meters":24400,"station_id":"ce4bh0p2rcd13ifvqd80","pricing_plan_id":"free"},{"bike_id":"73b0e48e-0c1b-4da2-accb-07992d19f3ef","system_id":"levelo_inurba_marseille","lat":43.2936,"lon":5.37835,"is_reserved":false,"is_disabled":false,"rental_uris":{"android":"levelo://app?vid=73b0e48e-0c1b-4da2-accb-07992d19f3ef","ios":"levelo://app?vid=73b0e48e-0c1b-4da2-accb-07992d19f3ef"},"vehicle_type_id":"4","last_reported":1703055941,"current_range_meters":24800,"station_id":"ce4bgjh2rcd13ifvqbf0","pricing_plan_id":"free"},{"bike_id":"df19c642-d951-45ad-bbc5-2de0941cb2db","system_id":"levelo_inurba_marseille","lat":43.293752,"lon":5.378545,"is_reserved":false,"is_disabled":false,"rental_uris":{"android":"levelo://app?vid=df19c642-d951-45ad-bbc5-2de0941cb2db","ios":"levelo://app?vid=df19c642-d951-45ad-bbc5-2de0941cb2db"},"vehicle_type_id":"4","last_reported":1703055941,"current_range_meters":30800,"station_id":"ce4bgjh2rcd13ifvqbf0","pricing_plan_id":"free"},{"bike_id":"cfaac9a0-cfc8-4028-b31a-57a35c943a92","system_id":"levelo_inurba_marseille","lat":43.292311,"lon":5.360731,"is_reserved":false,"is_disabled":false,"rental_uris":{"android":"levelo://app?vid=cfaac9a0-cfc8-4028-b31a-57a35c943a92","ios":"levelo://app?vid=cfaac9a0-cfc8-4028-b31a-57a35c943a92"},"vehicle_type_id":"4","last_reported":1703055941,"current_range_meters":21600,"station_id":"ce4bhbh2rcd13ifvqeqg","pricing_plan_id":"free"},{"bike_id":"7e339665-9ffa-4fa0-b56e-7538e45b27ae","system_id":"levelo_inurba_marseille","lat":43.300961,"lon":5.390836,"is_reserved":false,"is_disabled":false,"rental_uris":{"android":"levelo://app?vid=7e339665-9ffa-4fa0-b56e-7538e45b27ae","ios":"levelo://app?vid=7e339665-9ffa-4fa0-b56e-7538e45b27ae"},"vehicle_type_id":"4","last_reported":1703055941,"current_range_meters":26000,"station_id":"","pricing_plan_id":"free"},{"bike_id":"67dbc710-e248-4701-92da-b94e6f063a32","system_id":"levelo_inurba_marseille","lat":43.32297,"lon":5.39239,"is_reserved":false,"is_disabled":false,"rental_uris":{"android":"levelo://app?vid=67dbc710-e248-4701-92da-b94e6f063a32","ios":"levelo://app?vid=67dbc710-e248-4701-92da-b94e6f063a32"},"vehicle_type_id":"4","last_reported":1703055941,"current_range_meters":5600,"station_id":"","pricing_plan_id":"free"},{"bike_id":"7927d826-8348-4394-a374-6e260f1823b0","system_id":"levelo_inurba_marseille","lat":43.291675,"lon":5.371583,"is_reserved":false,"is_disabled":false,"rental_uris":{"android":"levelo://app?vid=7927d826-8348-4394-a374-6e260f1823b0","ios":"levelo://app?vid=7927d826-8348-4394-a374-6e260f1823b0"},"vehicle_type_id":"4","last_reported":1703055941,"current_range_meters":15600,"station_id":"ce4bha92rcd13ifvqeh0","pricing_plan_id":"free"},{"bike_id":"4acccf0c-6807-4021-a9ca-6e9d91df88e9","system_id":"levelo_inurba_marseille","lat":43.291675,"lon":5.371583,"is_reserved":false,"is_disabled":false,"rental_uris":{"android":"levelo://app?vid=4acccf0c-6807-4021-a9ca-6e9d91df88e9","ios":"levelo://app?vid=4acccf0c-6807-4021-a9ca-6e9d91df88e9"},"vehicle_type_id":"4","last_reported":1703055941,"current_range_meters":30800,"station_id":"ce4bha92rcd13ifvqeh0","pricing_plan_id":"free"},{"bike_id":"f01b7913-d3e2-4790-84af-919cebf057d0","system_id":"levelo_inurba_marseille","lat":43.313291,"lon":5.396838,"is_reserved":false,"is_disabled":false,"rental_uris":{"android":"levelo://app?vid=f01b7913-d3e2-4790-84af-919cebf057d0","ios":"levelo://app?vid=f01b7913-d3e2-4790-84af-919cebf057d0"},"vehicle_type_id":"4","last_reported":1703055941,"current_range_meters":3600,"station_id":"ce4bgvp2rcd13ifvqcu0","pricing_plan_id":"free"},{"bike_id":"93a7f955-5141-4f99-8a1c-eb0d18a7a74f","system_id":"levelo_inurba_marseille","lat":43.313291,"lon":5.396838,"is_reserved":false,"is_disabled":false,"rental_uris":{"android":"levelo://app?vid=93a7f955-5141-4f99-8a1c-eb0d18a7a74f","ios":"levelo://app?vid=93a7f955-5141-4f99-8a1c-eb0d18a7a74f"},"vehicle_type_id":"4","last_reported":1703055941,"current_range_meters":20000,"station_id":"ce4bgvp2rcd13ifvqcu0","pricing_plan_id":"free"},{"bike_id":"123f6846-4316-4d20-a0b1-d9640ea3a43d","system_id":"levelo_inurba_marseille","lat":43.313291,"lon":5.396838,"is_reserved":false,"is_disabled":false,"rental_uris":{"android":"levelo://app?vid=123f6846-4316-4d20-a0b1-d9640ea3a43d","ios":"levelo://app?vid=123f6846-4316-4d20-a0b1-d9640ea3a43d"},"vehicle_type_id":"4","last_reported":1703055941,"current_range_meters":31200,"station_id":"ce4bgvp2rcd13ifvqcu0","pricing_plan_id":"free"},{"bike_id":"c376ed8d-7d11-4af4-96fa-774d41172371","system_id":"levelo_inurba_marseille","lat":43.313291,"lon":5.396838,"is_reserved":false,"is_disabled":false,"rental_uris":{"android":"levelo://app?vid=c376ed8d-7d11-4af4-96fa-774d41172371","ios":"levelo://app?vid=c376ed8d-7d11-4af4-96fa-774d41172371"},"vehicle_type_id":"4","last_reported":1703055941,"current_range_meters":31200,"station_id":"ce4bgvp2rcd13ifvqcu0","pricing_plan_id":"free"},{"bike_id":"571d4b46-385e-4362-acd3-3551c89d7e0a","system_id":"levelo_inurba_marseille","lat":43.309038,"lon":5.396546,"is_reserved":false,"is_disabled":false,"rental_uris":{"android":"levelo://app?vid=571d4b46-385e-4362-acd3-3551c89d7e0a","ios":"levelo://app?vid=571d4b46-385e-4362-acd3-3551c89d7e0a"},"vehicle_type_id":"4","last_reported":1703055941,"current_range_meters":25600,"station_id":"ce4bh012rcd13ifvqcv0","pricing_plan_id":"free"},{"bike_id":"71f40a5e-c9f4-43c3-8ccd-542905db1e5a","system_id":"levelo_inurba_marseille","lat":43.313291,"lon":5.396838,"is_reserved":false,"is_disabled":false,"rental_uris":{"android":"levelo://app?vid=71f40a5e-c9f4-43c3-8ccd-542905db1e5a","ios":"levelo://app?vid=71f40a5e-c9f4-43c3-8ccd-542905db1e5a"},"vehicle_type_id":"4","last_reported":1703055941,"current_range_meters":31200,"station_id":"ce4bgvp2rcd13ifvqcu0","pricing_plan_id":"free"},{"bike_id":"925ce6c3-26df-4393-a7bb-4f7191d8e6ac","system_id":"levelo_inurba_marseille","lat":43.29529,"lon":5.385581,"is_reserved":false,"is_disabled":false,"rental_uris":{"android":"levelo://app?vid=925ce6c3-26df-4393-a7bb-4f7191d8e6ac","ios":"levelo://app?vid=925ce6c3-26df-4393-a7bb-4f7191d8e6ac"},"vehicle_type_id":"4","last_reported":1703055941,"current_range_meters":19200,"station_id":"ce4bgih2rcd13ifvqba0","pricing_plan_id":"free"},{"bike_id":"41c7d62d-f5b8-4f47-bb75-2cfb6fb137e3","system_id":"levelo_inurba_marseille","lat":43.29529,"lon":5.385581,"is_reserved":false,"is_disabled":false,"rental_uris":{"android":"levelo://app?vid=41c7d62d-f5b8-4f47-bb75-2cfb6fb137e3","ios":"levelo://app?vid=41c7d62d-f5b8-4f47-bb75-2cfb6fb137e3"},"vehicle_type_id":"4","last_reported":1703055941,"current_range_meters":20000,"station_id":"ce4bgih2rcd13ifvqba0","pricing_plan_id":"free"},{"bike_id":"85b1326c-917b-4317-af11-fa12084ce887","system_id":"levelo_inurba_marseille","lat":43.29529,"lon":5.385581,"is_reserved":false,"is_disabled":false,"rental_uris":{"android":"levelo://app?vid=85b1326c-917b-4317-af11-fa12084ce887","ios":"levelo://app?vid=85b1326c-917b-4317-af11-fa12084ce887"},"vehicle_type_id":"4","last_reported":1703055941,"current_range_meters":26000,"station_id":"ce4bgih2rcd13ifvqba0","pricing_plan_id":"free"},{"bike_id":"57b9d906-c11c-49ea-8efc-4c36c910ce89","system_id":"levelo_inurba_marseille","lat":43.302008,"lon":5.394694,"is_reserved":false,"is_disabled":false,"rental_uris":{"android":"levelo://app?vid=57b9d906-c11c-49ea-8efc-4c36c910ce89","ios":"levelo://app?vid=57b9d906-c11c-49ea-8efc-4c36c910ce89"},"vehicle_type_id":"4","last_reported":1703055941,"current_range_meters":27600,"station_id":"ce4bh0p2rcd13ifvqd70","pricing_plan_id":"free"},{"bike_id":"d14460ed-123f-414f-a089-5eb6d69dfed6","system_id":"levelo_inurba_marseille","lat":43.290339,"lon":5.359204,"is_reserved":false,"is_disabled":false,"rental_uris":{"android":"levelo://app?vid=d14460ed-123f-414f-a089-5eb6d69dfed6","ios":"levelo://app?vid=d14460ed-123f-414f-a089-5eb6d69dfed6"},"vehicle_type_id":"4","last_reported":1703055941,"current_range_meters":17600,"station_id":"ce4bha92rcd13ifvqeg0","pricing_plan_id":"free"},{"bike_id":"489bc90d-c541-4258-9648-6c18efbc42df","system_id":"levelo_inurba_marseille","lat":43.289184,"lon":5.366408,"is_reserved":false,"is_disabled":false,"rental_uris":{"android":"levelo://app?vid=489bc90d-c541-4258-9648-6c18efbc42df","ios":"levelo://app?vid=489bc90d-c541-4258-9648-6c18efbc42df"},"vehicle_type_id":"4","last_reported":1703055941,"current_range_meters":22000,"station_id":"ce4bhap2rcd13ifvqek0","pricing_plan_id":"free"},{"bike_id":"41c86c4b-ced2-49df-b516-5672f881f338","system_id":"levelo_inurba_marseille","lat":43.289184,"lon":5.366408,"is_reserved":false,"is_disabled":false,"rental_uris":{"android":"levelo://app?vid=41c86c4b-ced2-49df-b516-5672f881f338","ios":"levelo://app?vid=41c86c4b-ced2-49df-b516-5672f881f338"},"vehicle_type_id":"4","last_reported":1703055941,"current_range_meters":29200,"station_id":"ce4bhap2rcd13ifvqek0","pricing_plan_id":"free"},{"bike_id":"f84866ed-6942-4c8c-8dd3-e5c645251d48","system_id":"levelo_inurba_marseille","lat":43.2927,"lon":5.38435,"is_reserved":false,"is_disabled":false,"rental_uris":{"android":"levelo://app?vid=f84866ed-6942-4c8c-8dd3-e5c645251d48","ios":"levelo://app?vid=f84866ed-6942-4c8c-8dd3-e5c645251d48"},"vehicle_type_id":"4","last_reported":1703055941,"current_range_meters":26400,"station_id":"ce4bh692rcd13ifvqea0","pricing_plan_id":"free"},{"bike_id":"446cc1f1-d2b0-46d4-8148-f62024f68088","system_id":"levelo_inurba_marseille","lat":43.292644,"lon":5.384257,"is_reserved":false,"is_disabled":false,"rental_uris":{"android":"levelo://app?vid=446cc1f1-d2b0-46d4-8148-f62024f68088","ios":"levelo://app?vid=446cc1f1-d2b0-46d4-8148-f62024f68088"},"vehicle_type_id":"4","last_reported":1703055941,"current_range_meters":31200,"station_id":"ce4bh692rcd13ifvqea0","pricing_plan_id":"free"},{"bike_id":"a80dab61-ba07-481d-b7c3-6a1e2b82b2df","system_id":"levelo_inurba_marseille","lat":43.290103,"lon":5.356114,"is_reserved":false,"is_disabled":false,"rental_uris":{"android":"levelo://app?vid=a80dab61-ba07-481d-b7c3-6a1e2b82b2df","ios":"levelo://app?vid=a80dab61-ba07-481d-b7c3-6a1e2b82b2df"},"vehicle_type_id":"4","last_reported":1703055941,"current_range_meters":22800,"station_id":"ce4bhb92rcd13ifvqen0","pricing_plan_id":"free"},{"bike_id":"f598315f-7535-4fb8-a924-a6b01789a256","system_id":"levelo_inurba_marseille","lat":43.3304,"lon":5.38919,"is_reserved":false,"is_disabled":false,"rental_uris":{"android":"levelo://app?vid=f598315f-7535-4fb8-a924-a6b01789a256","ios":"levelo://app?vid=f598315f-7535-4fb8-a924-a6b01789a256"},"vehicle_type_id":"4","last_reported":1703055941,"current_range_meters":0,"station_id":"ce4bhr92rcd13ifvqhrg","pricing_plan_id":"free"},{"bike_id":"7bc09cea-7633-4e85-99b4-75c504d27a28","system_id":"levelo_inurba_marseille","lat":43.29004,"lon":5.35616,"is_reserved":false,"is_disabled":false,"rental_uris":{"android":"levelo://app?vid=7bc09cea-7633-4e85-99b4-75c504d27a28","ios":"levelo://app?vid=7bc09cea-7633-4e85-99b4-75c504d27a28"},"vehicle_type_id":"4","last_reported":1703055941,"current_range_meters":28000,"station_id":"ce4bhb92rcd13ifvqen0","pricing_plan_id":"free"},{"bike_id":"139260d1-46c3-425b-97cf-9e28d36f744b","system_id":"levelo_inurba_marseille","lat":43.297865,"lon":5.393429,"is_reserved":false,"is_disabled":false,"rental_uris":{"android":"levelo://app?vid=139260d1-46c3-425b-97cf-9e28d36f744b","ios":"levelo://app?vid=139260d1-46c3-425b-97cf-9e28d36f744b"},"vehicle_type_id":"4","last_reported":1703055941,"current_range_meters":30400,"station_id":"chh1huq6cuj3fo74tm60","pricing_plan_id":"free"},{"bike_id":"bc290e3b-0b7d-4bb7-9285-7f4ba2574b39","system_id":"levelo_inurba_marseille","lat":43.289741,"lon":5.378306,"is_reserved":false,"is_disabled":false,"rental_uris":{"android":"levelo://app?vid=bc290e3b-0b7d-4bb7-9285-7f4ba2574b39","ios":"levelo://app?vid=bc290e3b-0b7d-4bb7-9285-7f4ba2574b39"},"vehicle_type_id":"4","last_reported":1703055941,"current_range_meters":31200,"station_id":"ce4bh9p2rcd13ifvqed0","pricing_plan_id":"free"},{"bike_id":"0c5e8d9d-410f-464f-afb3-7453334555c8","system_id":"levelo_inurba_marseille","lat":43.2901,"lon":5.381269,"is_reserved":false,"is_disabled":false,"rental_uris":{"android":"levelo://app?vid=0c5e8d9d-410f-464f-afb3-7453334555c8","ios":"levelo://app?vid=0c5e8d9d-410f-464f-afb3-7453334555c8"},"vehicle_type_id":"4","last_reported":1703055941,"current_range_meters":13600,"station_id":"ce4bh4p2rcd13ifvqe1g","pricing_plan_id":"free"},{"bike_id":"490a40be-414e-4d15-8eee-c5afbe71b950","system_id":"levelo_inurba_marseille","lat":43.28856,"lon":5.358371,"is_reserved":false,"is_disabled":false,"rental_uris":{"android":"levelo://app?vid=490a40be-414e-4d15-8eee-c5afbe71b950","ios":"levelo://app?vid=490a40be-414e-4d15-8eee-c5afbe71b950"},"vehicle_type_id":"4","last_reported":1703055941,"current_range_meters":8400,"station_id":"ce4bhb12rcd13ifvqem0","pricing_plan_id":"free"},{"bike_id":"2d19a8fb-59d1-433e-8c91-599ec7948d0c","system_id":"levelo_inurba_marseille","lat":43.28856,"lon":5.358371,"is_reserved":false,"is_disabled":false,"rental_uris":{"android":"levelo://app?vid=2d19a8fb-59d1-433e-8c91-599ec7948d0c","ios":"levelo://app?vid=2d19a8fb-59d1-433e-8c91-599ec7948d0c"},"vehicle_type_id":"4","last_reported":1703055941,"current_range_meters":29200,"station_id":"ce4bhb12rcd13ifvqem0","pricing_plan_id":"free"},{"bike_id":"7cd9bc95-cdf4-4168-89a3-a4c1cd772a29","system_id":"levelo_inurba_marseille","lat":43.28856,"lon":5.358371,"is_reserved":false,"is_disabled":false,"rental_uris":{"android":"levelo://app?vid=7cd9bc95-cdf4-4168-89a3-a4c1cd772a29","ios":"levelo://app?vid=7cd9bc95-cdf4-4168-89a3-a4c1cd772a29"},"vehicle_type_id":"4","last_reported":1703055941,"current_range_meters":16800,"station_id":"ce4bhb12rcd13ifvqem0","pricing_plan_id":"free"},{"bike_id":"efc8b483-666b-48da-afa0-0447382868fd","system_id":"levelo_inurba_marseille","lat":43.337449,"lon":5.374762,"is_reserved":false,"is_disabled":false,"rental_uris":{"android":"levelo://app?vid=efc8b483-666b-48da-afa0-0447382868fd","ios":"levelo://app?vid=efc8b483-666b-48da-afa0-0447382868fd"},"vehicle_type_id":"4","last_reported":1703055941,"current_range_meters":28000,"station_id":"","pricing_plan_id":"free"},{"bike_id":"8253abcd-b52e-4650-a2af-38e920e76174","system_id":"levelo_inurba_marseille","lat":43.33756,"lon":5.37432,"is_reserved":false,"is_disabled":false,"rental_uris":{"android":"levelo://app?vid=8253abcd-b52e-4650-a2af-38e920e76174","ios":"levelo://app?vid=8253abcd-b52e-4650-a2af-38e920e76174"},"vehicle_type_id":"4","last_reported":1703055941,"current_range_meters":29600,"station_id":"","pricing_plan_id":"free"},{"bike_id":"d64b345a-ab76-464c-b19e-7cdd51407aa2","system_id":"levelo_inurba_marseille","lat":43.337535,"lon":5.374547,"is_reserved":false,"is_disabled":false,"rental_uris":{"android":"levelo://app?vid=d64b345a-ab76-464c-b19e-7cdd51407aa2","ios":"levelo://app?vid=d64b345a-ab76-464c-b19e-7cdd51407aa2"},"vehicle_type_id":"4","last_reported":1703055941,"current_range_meters":30000,"station_id":"","pricing_plan_id":"free"},{"bike_id":"403c1361-abc8-4268-a3c9-bcc5633b980b","system_id":"levelo_inurba_marseille","lat":43.337543,"lon":5.374657,"is_reserved":false,"is_disabled":false,"rental_uris":{"android":"levelo://app?vid=403c1361-abc8-4268-a3c9-bcc5633b980b","ios":"levelo://app?vid=403c1361-abc8-4268-a3c9-bcc5633b980b"},"vehicle_type_id":"4","last_reported":1703055941,"current_range_meters":18400,"station_id":"","pricing_plan_id":"free"},{"bike_id":"b928e8f0-5cfc-4105-a69d-8b07fd154e70","system_id":"levelo_inurba_marseille","lat":43.337594,"lon":5.374521,"is_reserved":false,"is_disabled":false,"rental_uris":{"android":"levelo://app?vid=b928e8f0-5cfc-4105-a69d-8b07fd154e70","ios":"levelo://app?vid=b928e8f0-5cfc-4105-a69d-8b07fd154e70"},"vehicle_type_id":"4","last_reported":1703055941,"current_range_meters":26400,"station_id":"","pricing_plan_id":"free"},{"bike_id":"088146c4-68d1-4d15-964b-03879b0208c3","system_id":"levelo_inurba_marseille","lat":43.28727,"lon":5.36078,"is_reserved":false,"is_disabled":false,"rental_uris":{"android":"levelo://app?vid=088146c4-68d1-4d15-964b-03879b0208c3","ios":"levelo://app?vid=088146c4-68d1-4d15-964b-03879b0208c3"},"vehicle_type_id":"4","last_reported":1703055941,"current_range_meters":25200,"station_id":"cki0cbj6b192h4jlfktg","pricing_plan_id":"free"},{"bike_id":"3609f89c-3889-45c6-9aaa-45f614634c53","system_id":"levelo_inurba_marseille","lat":43.28727,"lon":5.36078,"is_reserved":false,"is_disabled":false,"rental_uris":{"android":"levelo://app?vid=3609f89c-3889-45c6-9aaa-45f614634c53","ios":"levelo://app?vid=3609f89c-3889-45c6-9aaa-45f614634c53"},"vehicle_type_id":"4","last_reported":1703055941,"current_range_meters":0,"station_id":"cki0cbj6b192h4jlfktg","pricing_plan_id":"free"},{"bike_id":"07379bb9-a786-4320-ac9b-9ac434d14534","system_id":"levelo_inurba_marseille","lat":43.290345,"lon":5.38646,"is_reserved":false,"is_disabled":false,"rental_uris":{"android":"levelo://app?vid=07379bb9-a786-4320-ac9b-9ac434d14534","ios":"levelo://app?vid=07379bb9-a786-4320-ac9b-9ac434d14534"},"vehicle_type_id":"4","last_reported":1703055941,"current_range_meters":29200,"station_id":"ce4bh4p2rcd13ifvqe0g","pricing_plan_id":"free"},{"bike_id":"21523d28-caf9-4011-b058-d58aba495192","system_id":"levelo_inurba_marseille","lat":43.290345,"lon":5.38646,"is_reserved":false,"is_disabled":false,"rental_uris":{"android":"levelo://app?vid=21523d28-caf9-4011-b058-d58aba495192","ios":"levelo://app?vid=21523d28-caf9-4011-b058-d58aba495192"},"vehicle_type_id":"4","last_reported":1703055941,"current_range_meters":28400,"station_id":"ce4bh4p2rcd13ifvqe0g","pricing_plan_id":"free"},{"bike_id":"8c5a9bff-8aa1-44ce-8ca5-cedeee372bff","system_id":"levelo_inurba_marseille","lat":43.290345,"lon":5.38646,"is_reserved":false,"is_disabled":false,"rental_uris":{"android":"levelo://app?vid=8c5a9bff-8aa1-44ce-8ca5-cedeee372bff","ios":"levelo://app?vid=8c5a9bff-8aa1-44ce-8ca5-cedeee372bff"},"vehicle_type_id":"4","last_reported":1703055941,"current_range_meters":2800,"station_id":"ce4bh4p2rcd13ifvqe0g","pricing_plan_id":"free"},{"bike_id":"7e138249-98d6-4060-a433-df290a16deb1","system_id":"levelo_inurba_marseille","lat":43.290345,"lon":5.38646,"is_reserved":false,"is_disabled":false,"rental_uris":{"android":"levelo://app?vid=7e138249-98d6-4060-a433-df290a16deb1","ios":"levelo://app?vid=7e138249-98d6-4060-a433-df290a16deb1"},"vehicle_type_id":"4","last_reported":1703055941,"current_range_meters":18000,"station_id":"ce4bh4p2rcd13ifvqe0g","pricing_plan_id":"free"},{"bike_id":"a5ab0f6e-cb1e-43c6-8bca-1c02e17f1b90","system_id":"levelo_inurba_marseille","lat":43.286039,"lon":5.370679,"is_reserved":false,"is_disabled":false,"rental_uris":{"android":"levelo://app?vid=a5ab0f6e-cb1e-43c6-8bca-1c02e17f1b90","ios":"levelo://app?vid=a5ab0f6e-cb1e-43c6-8bca-1c02e17f1b90"},"vehicle_type_id":"4","last_reported":1703055941,"current_range_meters":28400,"station_id":"ce4bht12rcd13ifvqi60","pricing_plan_id":"free"},{"bike_id":"23882e80-c593-4c12-a50e-f6bfdeaf443d","system_id":"levelo_inurba_marseille","lat":43.287184,"lon":5.37937,"is_reserved":false,"is_disabled":false,"rental_uris":{"android":"levelo://app?vid=23882e80-c593-4c12-a50e-f6bfdeaf443d","ios":"levelo://app?vid=23882e80-c593-4c12-a50e-f6bfdeaf443d"},"vehicle_type_id":"4","last_reported":1703055941,"current_range_meters":16800,"station_id":"ce4bh9p2rcd13ifvqec0","pricing_plan_id":"free"},{"bike_id":"bc08b091-bdc4-45ba-8927-2f0730486a93","system_id":"levelo_inurba_marseille","lat":43.28465,"lon":5.35885,"is_reserved":false,"is_disabled":false,"rental_uris":{"android":"levelo://app?vid=bc08b091-bdc4-45ba-8927-2f0730486a93","ios":"levelo://app?vid=bc08b091-bdc4-45ba-8927-2f0730486a93"},"vehicle_type_id":"4","last_reported":1703055941,"current_range_meters":31200,"station_id":"ce4bhah2rcd13ifvqei0","pricing_plan_id":"free"},{"bike_id":"12c43f26-ce93-4288-82f5-858edd0411ec","system_id":"levelo_inurba_marseille","lat":43.284548,"lon":5.358876,"is_reserved":false,"is_disabled":false,"rental_uris":{"android":"levelo://app?vid=12c43f26-ce93-4288-82f5-858edd0411ec","ios":"levelo://app?vid=12c43f26-ce93-4288-82f5-858edd0411ec"},"vehicle_type_id":"4","last_reported":1703055941,"current_range_meters":17600,"station_id":"ce4bhah2rcd13ifvqei0","pricing_plan_id":"free"},{"bike_id":"4f946f46-741c-4d61-bd02-7a44d1e81d43","system_id":"levelo_inurba_marseille","lat":43.28454,"lon":5.35889,"is_reserved":false,"is_disabled":false,"rental_uris":{"android":"levelo://app?vid=4f946f46-741c-4d61-bd02-7a44d1e81d43","ios":"levelo://app?vid=4f946f46-741c-4d61-bd02-7a44d1e81d43"},"vehicle_type_id":"4","last_reported":1703055941,"current_range_meters":30000,"station_id":"ce4bhah2rcd13ifvqei0","pricing_plan_id":"free"},{"bike_id":"abb97eaa-26df-4b6b-a3c4-e5a55b75ec4c","system_id":"levelo_inurba_marseille","lat":43.285856,"lon":5.350771,"is_reserved":false,"is_disabled":false,"rental_uris":{"android":"levelo://app?vid=abb97eaa-26df-4b6b-a3c4-e5a55b75ec4c","ios":"levelo://app?vid=abb97eaa-26df-4b6b-a3c4-e5a55b75ec4c"},"vehicle_type_id":"4","last_reported":1703055941,"current_range_meters":30000,"station_id":"ce4bhch2rcd13ifvqeug","pricing_plan_id":"free"},{"bike_id":"4a3bf0b1-66fa-4ba1-95be-5c0a76ccad27","system_id":"levelo_inurba_marseille","lat":43.285848,"lon":5.350787,"is_reserved":false,"is_disabled":false,"rental_uris":{"android":"levelo://app?vid=4a3bf0b1-66fa-4ba1-95be-5c0a76ccad27","ios":"levelo://app?vid=4a3bf0b1-66fa-4ba1-95be-5c0a76ccad27"},"vehicle_type_id":"4","last_reported":1703055941,"current_range_meters":21200,"station_id":"ce4bhch2rcd13ifvqeug","pricing_plan_id":"free"},{"bike_id":"f3b85f34-8342-42b3-9689-e6718d9bce90","system_id":"levelo_inurba_marseille","lat":43.285856,"lon":5.350771,"is_reserved":false,"is_disabled":false,"rental_uris":{"android":"levelo://app?vid=f3b85f34-8342-42b3-9689-e6718d9bce90","ios":"levelo://app?vid=f3b85f34-8342-42b3-9689-e6718d9bce90"},"vehicle_type_id":"4","last_reported":1703055941,"current_range_meters":11200,"station_id":"ce4bhch2rcd13ifvqeug","pricing_plan_id":"free"},{"bike_id":"0580321c-c7a6-4918-9819-3a0401ca1af4","system_id":"levelo_inurba_marseille","lat":43.283998,"lon":5.375062,"is_reserved":false,"is_disabled":false,"rental_uris":{"android":"levelo://app?vid=0580321c-c7a6-4918-9819-3a0401ca1af4","ios":"levelo://app?vid=0580321c-c7a6-4918-9819-3a0401ca1af4"},"vehicle_type_id":"4","last_reported":1703055941,"current_range_meters":31200,"station_id":"ce4bh412rcd13ifvqds0","pricing_plan_id":"free"},{"bike_id":"8538e6dd-dbef-4a5a-a119-9a857fd021ad","system_id":"levelo_inurba_marseille","lat":43.33218,"lon":5.397067,"is_reserved":false,"is_disabled":false,"rental_uris":{"android":"levelo://app?vid=8538e6dd-dbef-4a5a-a119-9a857fd021ad","ios":"levelo://app?vid=8538e6dd-dbef-4a5a-a119-9a857fd021ad"},"vehicle_type_id":"4","last_reported":1703055941,"current_range_meters":0,"station_id":"","pricing_plan_id":"free"},{"bike_id":"373c991c-ac75-4d04-a7ff-93138f0d4fe8","system_id":"levelo_inurba_marseille","lat":43.295677,"lon":5.399712,"is_reserved":false,"is_disabled":false,"rental_uris":{"android":"levelo://app?vid=373c991c-ac75-4d04-a7ff-93138f0d4fe8","ios":"levelo://app?vid=373c991c-ac75-4d04-a7ff-93138f0d4fe8"},"vehicle_type_id":"4","last_reported":1703055941,"current_range_meters":16400,"station_id":"","pricing_plan_id":"free"},{"bike_id":"0e6bbc92-cec6-497f-ad89-d75d7e889db3","system_id":"levelo_inurba_marseille","lat":43.33717,"lon":5.391857,"is_reserved":false,"is_disabled":false,"rental_uris":{"android":"levelo://app?vid=0e6bbc92-cec6-497f-ad89-d75d7e889db3","ios":"levelo://app?vid=0e6bbc92-cec6-497f-ad89-d75d7e889db3"},"vehicle_type_id":"4","last_reported":1703055941,"current_range_meters":28800,"station_id":"ce4bhr92rcd13ifvqhsg","pricing_plan_id":"free"},{"bike_id":"ba39ecb4-b984-477f-87cf-fcce02f73044","system_id":"levelo_inurba_marseille","lat":43.323464,"lon":5.406297,"is_reserved":false,"is_disabled":false,"rental_uris":{"android":"levelo://app?vid=ba39ecb4-b984-477f-87cf-fcce02f73044","ios":"levelo://app?vid=ba39ecb4-b984-477f-87cf-fcce02f73044"},"vehicle_type_id":"4","last_reported":1703055941,"current_range_meters":22000,"station_id":"ce4bhq92rcd13ifvqhjg","pricing_plan_id":"free"},{"bike_id":"69705908-4b6a-4709-a265-798e5697b8bf","system_id":"levelo_inurba_marseille","lat":43.323464,"lon":5.406297,"is_reserved":false,"is_disabled":false,"rental_uris":{"android":"levelo://app?vid=69705908-4b6a-4709-a265-798e5697b8bf","ios":"levelo://app?vid=69705908-4b6a-4709-a265-798e5697b8bf"},"vehicle_type_id":"4","last_reported":1703055941,"current_range_meters":31200,"station_id":"ce4bhq92rcd13ifvqhjg","pricing_plan_id":"free"},{"bike_id":"48c26f68-8e4e-48e8-9d62-a6e759f89761","system_id":"levelo_inurba_marseille","lat":43.323464,"lon":5.406297,"is_reserved":false,"is_disabled":false,"rental_uris":{"android":"levelo://app?vid=48c26f68-8e4e-48e8-9d62-a6e759f89761","ios":"levelo://app?vid=48c26f68-8e4e-48e8-9d62-a6e759f89761"},"vehicle_type_id":"4","last_reported":1703055941,"current_range_meters":6000,"station_id":"ce4bhq92rcd13ifvqhjg","pricing_plan_id":"free"},{"bike_id":"19eeb833-ee13-497f-8f31-96f35869f4be","system_id":"levelo_inurba_marseille","lat":43.284793,"lon":5.384113,"is_reserved":false,"is_disabled":false,"rental_uris":{"android":"levelo://app?vid=19eeb833-ee13-497f-8f31-96f35869f4be","ios":"levelo://app?vid=19eeb833-ee13-497f-8f31-96f35869f4be"},"vehicle_type_id":"4","last_reported":1703055941,"current_range_meters":26400,"station_id":"ce4bh512rcd13ifvqe3g","pricing_plan_id":"free"},{"bike_id":"819230fc-23c7-4d2c-a00e-ab937f741d4f","system_id":"levelo_inurba_marseille","lat":43.284793,"lon":5.384113,"is_reserved":false,"is_disabled":false,"rental_uris":{"android":"levelo://app?vid=819230fc-23c7-4d2c-a00e-ab937f741d4f","ios":"levelo://app?vid=819230fc-23c7-4d2c-a00e-ab937f741d4f"},"vehicle_type_id":"4","last_reported":1703055941,"current_range_meters":20400,"station_id":"ce4bh512rcd13ifvqe3g","pricing_plan_id":"free"},{"bike_id":"825f8b6f-32a2-494e-9f3a-4bf3f9f17028","system_id":"levelo_inurba_marseille","lat":43.288501,"lon":5.393087,"is_reserved":false,"is_disabled":false,"rental_uris":{"android":"levelo://app?vid=825f8b6f-32a2-494e-9f3a-4bf3f9f17028","ios":"levelo://app?vid=825f8b6f-32a2-494e-9f3a-4bf3f9f17028"},"vehicle_type_id":"4","last_reported":1703055941,"current_range_meters":24000,"station_id":"ce4bh2p2rcd13ifvqdi0","pricing_plan_id":"free"},{"bike_id":"d8743ad8-39d9-4dcb-8e81-b2abbbe3b182","system_id":"levelo_inurba_marseille","lat":43.283494,"lon":5.380945,"is_reserved":false,"is_disabled":false,"rental_uris":{"android":"levelo://app?vid=d8743ad8-39d9-4dcb-8e81-b2abbbe3b182","ios":"levelo://app?vid=d8743ad8-39d9-4dcb-8e81-b2abbbe3b182"},"vehicle_type_id":"4","last_reported":1703055941,"current_range_meters":25600,"station_id":"ce4bh412rcd13ifvqdr0","pricing_plan_id":"free"},{"bike_id":"f251c644-cb80-4e9e-88f3-78bb6e7f6ded","system_id":"levelo_inurba_marseille","lat":43.28851,"lon":5.393292,"is_reserved":false,"is_disabled":false,"rental_uris":{"android":"levelo://app?vid=f251c644-cb80-4e9e-88f3-78bb6e7f6ded","ios":"levelo://app?vid=f251c644-cb80-4e9e-88f3-78bb6e7f6ded"},"vehicle_type_id":"4","last_reported":1703055941,"current_range_meters":10400,"station_id":"ce4bh2p2rcd13ifvqdi0","pricing_plan_id":"free"},{"bike_id":"fb6fd961-af65-4ae2-9ce9-2c29f586bbdf","system_id":"levelo_inurba_marseille","lat":43.283494,"lon":5.380945,"is_reserved":false,"is_disabled":false,"rental_uris":{"android":"levelo://app?vid=fb6fd961-af65-4ae2-9ce9-2c29f586bbdf","ios":"levelo://app?vid=fb6fd961-af65-4ae2-9ce9-2c29f586bbdf"},"vehicle_type_id":"4","last_reported":1703055941,"current_range_meters":22400,"station_id":"ce4bh412rcd13ifvqdr0","pricing_plan_id":"free"},{"bike_id":"afd31c0b-ce3b-4a4b-a067-dc976e49ef47","system_id":"levelo_inurba_marseille","lat":43.283494,"lon":5.380945,"is_reserved":false,"is_disabled":false,"rental_uris":{"android":"levelo://app?vid=afd31c0b-ce3b-4a4b-a067-dc976e49ef47","ios":"levelo://app?vid=afd31c0b-ce3b-4a4b-a067-dc976e49ef47"},"vehicle_type_id":"4","last_reported":1703055941,"current_range_meters":16000,"station_id":"ce4bh412rcd13ifvqdr0","pricing_plan_id":"free"},{"bike_id":"bd6ff93b-c9b2-43f7-ad78-1db73cc7bd6b","system_id":"levelo_inurba_marseille","lat":43.283498,"lon":5.380948,"is_reserved":false,"is_disabled":false,"rental_uris":{"android":"levelo://app?vid=bd6ff93b-c9b2-43f7-ad78-1db73cc7bd6b","ios":"levelo://app?vid=bd6ff93b-c9b2-43f7-ad78-1db73cc7bd6b"},"vehicle_type_id":"4","last_reported":1703055941,"current_range_meters":25600,"station_id":"ce4bh412rcd13ifvqdr0","pricing_plan_id":"free"},{"bike_id":"ea0b4880-8c14-4b98-bdad-a78f72d39153","system_id":"levelo_inurba_marseille","lat":43.283494,"lon":5.380945,"is_reserved":false,"is_disabled":false,"rental_uris":{"android":"levelo://app?vid=ea0b4880-8c14-4b98-bdad-a78f72d39153","ios":"levelo://app?vid=ea0b4880-8c14-4b98-bdad-a78f72d39153"},"vehicle_type_id":"4","last_reported":1703055941,"current_range_meters":30800,"station_id":"ce4bh412rcd13ifvqdr0","pricing_plan_id":"free"},{"bike_id":"b30b4287-5c16-4334-981c-465c24c05d06","system_id":"levelo_inurba_marseille","lat":43.288386,"lon":5.393188,"is_reserved":false,"is_disabled":false,"rental_uris":{"android":"levelo://app?vid=b30b4287-5c16-4334-981c-465c24c05d06","ios":"levelo://app?vid=b30b4287-5c16-4334-981c-465c24c05d06"},"vehicle_type_id":"4","last_reported":1703055941,"current_range_meters":24800,"station_id":"ce4bh2p2rcd13ifvqdi0","pricing_plan_id":"free"},{"bike_id":"8e623a0e-c345-473a-bb6a-91c6636ec071","system_id":"levelo_inurba_marseille","lat":43.283498,"lon":5.380948,"is_reserved":false,"is_disabled":false,"rental_uris":{"android":"levelo://app?vid=8e623a0e-c345-473a-bb6a-91c6636ec071","ios":"levelo://app?vid=8e623a0e-c345-473a-bb6a-91c6636ec071"},"vehicle_type_id":"4","last_reported":1703055941,"current_range_meters":14000,"station_id":"ce4bh412rcd13ifvqdr0","pricing_plan_id":"free"},{"bike_id":"f5940298-e5f3-4a25-a2cc-3b6936173db7","system_id":"levelo_inurba_marseille","lat":43.283494,"lon":5.380945,"is_reserved":false,"is_disabled":false,"rental_uris":{"android":"levelo://app?vid=f5940298-e5f3-4a25-a2cc-3b6936173db7","ios":"levelo://app?vid=f5940298-e5f3-4a25-a2cc-3b6936173db7"},"vehicle_type_id":"4","last_reported":1703055941,"current_range_meters":24000,"station_id":"ce4bh412rcd13ifvqdr0","pricing_plan_id":"free"},{"bike_id":"eed03dce-e6cc-46b1-8527-45439af6f114","system_id":"levelo_inurba_marseille","lat":43.284214,"lon":5.349706,"is_reserved":false,"is_disabled":false,"rental_uris":{"android":"levelo://app?vid=eed03dce-e6cc-46b1-8527-45439af6f114","ios":"levelo://app?vid=eed03dce-e6cc-46b1-8527-45439af6f114"},"vehicle_type_id":"4","last_reported":1703055941,"current_range_meters":21600,"station_id":"ce4bhbh2rcd13ifvqepg","pricing_plan_id":"free"},{"bike_id":"35e5c977-c3ec-4302-85e4-7f44ba15ca6f","system_id":"levelo_inurba_marseille","lat":43.306412,"lon":5.401035,"is_reserved":false,"is_disabled":false,"rental_uris":{"android":"levelo://app?vid=35e5c977-c3ec-4302-85e4-7f44ba15ca6f","ios":"levelo://app?vid=35e5c977-c3ec-4302-85e4-7f44ba15ca6f"},"vehicle_type_id":"4","last_reported":1703055941,"current_range_meters":20400,"station_id":"ce4bh112rcd13ifvqda0","pricing_plan_id":"free"},{"bike_id":"be2b393b-ed35-4dda-9627-00ae99e8070a","system_id":"levelo_inurba_marseille","lat":43.289363,"lon":5.396322,"is_reserved":false,"is_disabled":false,"rental_uris":{"android":"levelo://app?vid=be2b393b-ed35-4dda-9627-00ae99e8070a","ios":"levelo://app?vid=be2b393b-ed35-4dda-9627-00ae99e8070a"},"vehicle_type_id":"4","last_reported":1703055941,"current_range_meters":28800,"station_id":"ce4bh3h2rcd13ifvqdn0","pricing_plan_id":"free"},{"bike_id":"fe6a90d7-dd4f-4b8c-bdec-93bbe0b27e87","system_id":"levelo_inurba_marseille","lat":43.289363,"lon":5.396322,"is_reserved":false,"is_disabled":false,"rental_uris":{"android":"levelo://app?vid=fe6a90d7-dd4f-4b8c-bdec-93bbe0b27e87","ios":"levelo://app?vid=fe6a90d7-dd4f-4b8c-bdec-93bbe0b27e87"},"vehicle_type_id":"4","last_reported":1703055941,"current_range_meters":17200,"station_id":"ce4bh3h2rcd13ifvqdn0","pricing_plan_id":"free"},{"bike_id":"fb4c09ec-5467-458b-822f-1c1974692bf2","system_id":"levelo_inurba_marseille","lat":43.283502,"lon":5.386471,"is_reserved":false,"is_disabled":false,"rental_uris":{"android":"levelo://app?vid=fb4c09ec-5467-458b-822f-1c1974692bf2","ios":"levelo://app?vid=fb4c09ec-5467-458b-822f-1c1974692bf2"},"vehicle_type_id":"4","last_reported":1703055941,"current_range_meters":23200,"station_id":"ce4bh492rcd13ifvqdvg","pricing_plan_id":"free"},{"bike_id":"2fe4c2f8-c94b-46f7-b569-e5e3379780c6","system_id":"levelo_inurba_marseille","lat":43.282754,"lon":5.350519,"is_reserved":false,"is_disabled":false,"rental_uris":{"android":"levelo://app?vid=2fe4c2f8-c94b-46f7-b569-e5e3379780c6","ios":"levelo://app?vid=2fe4c2f8-c94b-46f7-b569-e5e3379780c6"},"vehicle_type_id":"4","last_reported":1703055941,"current_range_meters":26400,"station_id":"ce4bhbp2rcd13ifvqerg","pricing_plan_id":"free"},{"bike_id":"7415b361-4875-4231-90b5-c9caee2a9d88","system_id":"levelo_inurba_marseille","lat":43.282754,"lon":5.350519,"is_reserved":false,"is_disabled":false,"rental_uris":{"android":"levelo://app?vid=7415b361-4875-4231-90b5-c9caee2a9d88","ios":"levelo://app?vid=7415b361-4875-4231-90b5-c9caee2a9d88"},"vehicle_type_id":"4","last_reported":1703055941,"current_range_meters":23600,"station_id":"ce4bhbp2rcd13ifvqerg","pricing_plan_id":"free"},{"bike_id":"3c7e21be-52ca-4f31-b25a-94d45be13004","system_id":"levelo_inurba_marseille","lat":43.282689,"lon":5.350726,"is_reserved":false,"is_disabled":false,"rental_uris":{"android":"levelo://app?vid=3c7e21be-52ca-4f31-b25a-94d45be13004","ios":"levelo://app?vid=3c7e21be-52ca-4f31-b25a-94d45be13004"},"vehicle_type_id":"4","last_reported":1703055941,"current_range_meters":29600,"station_id":"ce4bhbp2rcd13ifvqerg","pricing_plan_id":"free"},{"bike_id":"7a9c501a-a88f-4b20-a3be-0f05afe0b8e1","system_id":"levelo_inurba_marseille","lat":43.282754,"lon":5.350519,"is_reserved":false,"is_disabled":false,"rental_uris":{"android":"levelo://app?vid=7a9c501a-a88f-4b20-a3be-0f05afe0b8e1","ios":"levelo://app?vid=7a9c501a-a88f-4b20-a3be-0f05afe0b8e1"},"vehicle_type_id":"4","last_reported":1703055941,"current_range_meters":24000,"station_id":"ce4bhbp2rcd13ifvqerg","pricing_plan_id":"free"},{"bike_id":"3893f7e2-448d-4607-bfb6-f15637357b83","system_id":"levelo_inurba_marseille","lat":43.282674,"lon":5.350735,"is_reserved":false,"is_disabled":false,"rental_uris":{"android":"levelo://app?vid=3893f7e2-448d-4607-bfb6-f15637357b83","ios":"levelo://app?vid=3893f7e2-448d-4607-bfb6-f15637357b83"},"vehicle_type_id":"4","last_reported":1703055941,"current_range_meters":31200,"station_id":"ce4bhbp2rcd13ifvqerg","pricing_plan_id":"free"},{"bike_id":"725c62a2-53d1-4c72-8be5-a3f6a6bd9459","system_id":"levelo_inurba_marseille","lat":43.282744,"lon":5.350533,"is_reserved":false,"is_disabled":false,"rental_uris":{"android":"levelo://app?vid=725c62a2-53d1-4c72-8be5-a3f6a6bd9459","ios":"levelo://app?vid=725c62a2-53d1-4c72-8be5-a3f6a6bd9459"},"vehicle_type_id":"4","last_reported":1703055941,"current_range_meters":28400,"station_id":"ce4bhbp2rcd13ifvqerg","pricing_plan_id":"free"},{"bike_id":"dff73551-36cc-49c0-b1df-9396c5826617","system_id":"levelo_inurba_marseille","lat":43.326605,"lon":5.409903,"is_reserved":false,"is_disabled":false,"rental_uris":{"android":"levelo://app?vid=dff73551-36cc-49c0-b1df-9396c5826617","ios":"levelo://app?vid=dff73551-36cc-49c0-b1df-9396c5826617"},"vehicle_type_id":"4","last_reported":1703055941,"current_range_meters":28400,"station_id":"ce4bhpp2rcd13ifvqhgg","pricing_plan_id":"free"},{"bike_id":"ba8ccf0d-1720-4419-8ea4-e40b7c0c1f2d","system_id":"levelo_inurba_marseille","lat":43.304188,"lon":5.412904,"is_reserved":false,"is_disabled":false,"rental_uris":{"android":"levelo://app?vid=ba8ccf0d-1720-4419-8ea4-e40b7c0c1f2d","ios":"levelo://app?vid=ba8ccf0d-1720-4419-8ea4-e40b7c0c1f2d"},"vehicle_type_id":"4","last_reported":1703055941,"current_range_meters":4800,"station_id":"ce4bhop2rcd13ifvqh8g","pricing_plan_id":"free"},{"bike_id":"d876af96-5744-47cb-86eb-5a0ecfae3873","system_id":"levelo_inurba_marseille","lat":43.304188,"lon":5.412904,"is_reserved":false,"is_disabled":false,"rental_uris":{"android":"levelo://app?vid=d876af96-5744-47cb-86eb-5a0ecfae3873","ios":"levelo://app?vid=d876af96-5744-47cb-86eb-5a0ecfae3873"},"vehicle_type_id":"4","last_reported":1703055941,"current_range_meters":31200,"station_id":"ce4bhop2rcd13ifvqh8g","pricing_plan_id":"free"},{"bike_id":"11af8c0c-f130-426a-bd52-51e7a92e1866","system_id":"levelo_inurba_marseille","lat":43.304188,"lon":5.412904,"is_reserved":false,"is_disabled":false,"rental_uris":{"android":"levelo://app?vid=11af8c0c-f130-426a-bd52-51e7a92e1866","ios":"levelo://app?vid=11af8c0c-f130-426a-bd52-51e7a92e1866"},"vehicle_type_id":"4","last_reported":1703055941,"current_range_meters":20800,"station_id":"ce4bhop2rcd13ifvqh8g","pricing_plan_id":"free"},{"bike_id":"cb0668d4-d46c-4efe-a7e0-185ebe495ab4","system_id":"levelo_inurba_marseille","lat":43.280547,"lon":5.389201,"is_reserved":false,"is_disabled":false,"rental_uris":{"android":"levelo://app?vid=cb0668d4-d46c-4efe-a7e0-185ebe495ab4","ios":"levelo://app?vid=cb0668d4-d46c-4efe-a7e0-185ebe495ab4"},"vehicle_type_id":"4","last_reported":1703055941,"current_range_meters":8800,"station_id":"","pricing_plan_id":"free"},{"bike_id":"57d0dbc7-d639-49dc-b967-7050d0ba0ae5","system_id":"levelo_inurba_marseille","lat":43.32045,"lon":5.4154,"is_reserved":false,"is_disabled":false,"rental_uris":{"android":"levelo://app?vid=57d0dbc7-d639-49dc-b967-7050d0ba0ae5","ios":"levelo://app?vid=57d0dbc7-d639-49dc-b967-7050d0ba0ae5"},"vehicle_type_id":"4","last_reported":1703055941,"current_range_meters":30800,"station_id":"ce4bhq92rcd13ifvqhkg","pricing_plan_id":"free"},{"bike_id":"067e4013-863f-4f7f-8206-d057a414c3dd","system_id":"levelo_inurba_marseille","lat":43.299579,"lon":5.413255,"is_reserved":false,"is_disabled":false,"rental_uris":{"android":"levelo://app?vid=067e4013-863f-4f7f-8206-d057a414c3dd","ios":"levelo://app?vid=067e4013-863f-4f7f-8206-d057a414c3dd"},"vehicle_type_id":"4","last_reported":1703055941,"current_range_meters":27200,"station_id":"ce4bhp12rcd13ifvqh9g","pricing_plan_id":"free"},{"bike_id":"2fcf580a-df27-4585-9e05-400e1ee75436","system_id":"levelo_inurba_marseille","lat":43.279742,"lon":5.38744,"is_reserved":false,"is_disabled":false,"rental_uris":{"android":"levelo://app?vid=2fcf580a-df27-4585-9e05-400e1ee75436","ios":"levelo://app?vid=2fcf580a-df27-4585-9e05-400e1ee75436"},"vehicle_type_id":"4","last_reported":1703055941,"current_range_meters":22000,"station_id":"ce4bhg12rcd13ifvqf80","pricing_plan_id":"free"},{"bike_id":"869d9bfc-d88b-4084-b1cc-3830ccf3d31c","system_id":"levelo_inurba_marseille","lat":43.325243,"lon":5.414326,"is_reserved":false,"is_disabled":false,"rental_uris":{"android":"levelo://app?vid=869d9bfc-d88b-4084-b1cc-3830ccf3d31c","ios":"levelo://app?vid=869d9bfc-d88b-4084-b1cc-3830ccf3d31c"},"vehicle_type_id":"4","last_reported":1703055941,"current_range_meters":26800,"station_id":"ce4bhq12rcd13ifvqhhg","pricing_plan_id":"free"},{"bike_id":"30969f41-666e-4fa7-98fc-9a50f431d74c","system_id":"levelo_inurba_marseille","lat":43.325233,"lon":5.414318,"is_reserved":false,"is_disabled":false,"rental_uris":{"android":"levelo://app?vid=30969f41-666e-4fa7-98fc-9a50f431d74c","ios":"levelo://app?vid=30969f41-666e-4fa7-98fc-9a50f431d74c"},"vehicle_type_id":"4","last_reported":1703055941,"current_range_meters":400,"station_id":"ce4bhq12rcd13ifvqhhg","pricing_plan_id":"free"},{"bike_id":"6f33ed31-2cf3-4c0d-986d-ea050982e803","system_id":"levelo_inurba_marseille","lat":43.325243,"lon":5.414326,"is_reserved":false,"is_disabled":false,"rental_uris":{"android":"levelo://app?vid=6f33ed31-2cf3-4c0d-986d-ea050982e803","ios":"levelo://app?vid=6f33ed31-2cf3-4c0d-986d-ea050982e803"},"vehicle_type_id":"4","last_reported":1703055941,"current_range_meters":31200,"station_id":"ce4bhq12rcd13ifvqhhg","pricing_plan_id":"free"},{"bike_id":"c1d748db-f68c-4271-a026-3613d0168b40","system_id":"levelo_inurba_marseille","lat":43.303837,"lon":5.418724,"is_reserved":false,"is_disabled":false,"rental_uris":{"android":"levelo://app?vid=c1d748db-f68c-4271-a026-3613d0168b40","ios":"levelo://app?vid=c1d748db-f68c-4271-a026-3613d0168b40"},"vehicle_type_id":"4","last_reported":1703055941,"current_range_meters":29200,"station_id":"ce4bhop2rcd13ifvqh7g","pricing_plan_id":"free"},{"bike_id":"7d73ff2c-c34b-486c-830d-d69fca9bdccb","system_id":"levelo_inurba_marseille","lat":43.30357,"lon":5.4188,"is_reserved":false,"is_disabled":false,"rental_uris":{"android":"levelo://app?vid=7d73ff2c-c34b-486c-830d-d69fca9bdccb","ios":"levelo://app?vid=7d73ff2c-c34b-486c-830d-d69fca9bdccb"},"vehicle_type_id":"4","last_reported":1703055941,"current_range_meters":31200,"station_id":"ce4bhop2rcd13ifvqh7g","pricing_plan_id":"free"},{"bike_id":"cf4aa21e-f609-4270-9917-2804f2ea2a23","system_id":"levelo_inurba_marseille","lat":43.30354,"lon":5.4188,"is_reserved":false,"is_disabled":false,"rental_uris":{"android":"levelo://app?vid=cf4aa21e-f609-4270-9917-2804f2ea2a23","ios":"levelo://app?vid=cf4aa21e-f609-4270-9917-2804f2ea2a23"},"vehicle_type_id":"4","last_reported":1703055941,"current_range_meters":30400,"station_id":"ce4bhop2rcd13ifvqh7g","pricing_plan_id":"free"},{"bike_id":"a453e506-6946-4623-9512-82735d696064","system_id":"levelo_inurba_marseille","lat":43.273609,"lon":5.362708,"is_reserved":false,"is_disabled":false,"rental_uris":{"android":"levelo://app?vid=a453e506-6946-4623-9512-82735d696064","ios":"levelo://app?vid=a453e506-6946-4623-9512-82735d696064"},"vehicle_type_id":"4","last_reported":1703055941,"current_range_meters":28400,"station_id":"ce4bhbh2rcd13ifvqeo0","pricing_plan_id":"free"},{"bike_id":"6a0e8636-e388-4a49-a1a2-2406f8b7f504","system_id":"levelo_inurba_marseille","lat":43.336148,"lon":5.410349,"is_reserved":false,"is_disabled":false,"rental_uris":{"android":"levelo://app?vid=6a0e8636-e388-4a49-a1a2-2406f8b7f504","ios":"levelo://app?vid=6a0e8636-e388-4a49-a1a2-2406f8b7f504"},"vehicle_type_id":"4","last_reported":1703055941,"current_range_meters":5200,"station_id":"ce4bhqh2rcd13ifvqhmg","pricing_plan_id":"free"},{"bike_id":"6aeb72c6-7795-421e-8c99-8e89a08bfac6","system_id":"levelo_inurba_marseille","lat":43.317121,"lon":5.423936,"is_reserved":false,"is_disabled":false,"rental_uris":{"android":"levelo://app?vid=6aeb72c6-7795-421e-8c99-8e89a08bfac6","ios":"levelo://app?vid=6aeb72c6-7795-421e-8c99-8e89a08bfac6"},"vehicle_type_id":"4","last_reported":1703055941,"current_range_meters":30800,"station_id":"ce4bhp92rcd13ifvqhbg","pricing_plan_id":"free"},{"bike_id":"a186b623-a02e-4b49-b9f8-d08ed118be67","system_id":"levelo_inurba_marseille","lat":43.310785,"lon":5.424305,"is_reserved":false,"is_disabled":false,"rental_uris":{"android":"levelo://app?vid=a186b623-a02e-4b49-b9f8-d08ed118be67","ios":"levelo://app?vid=a186b623-a02e-4b49-b9f8-d08ed118be67"},"vehicle_type_id":"4","last_reported":1703055941,"current_range_meters":28800,"station_id":"ce4bhp92rcd13ifvqhag","pricing_plan_id":"free"},{"bike_id":"af2bfa4a-dd0b-4ea4-a7b9-5a41e65701bc","system_id":"levelo_inurba_marseille","lat":43.340804,"lon":5.410219,"is_reserved":false,"is_disabled":false,"rental_uris":{"android":"levelo://app?vid=af2bfa4a-dd0b-4ea4-a7b9-5a41e65701bc","ios":"levelo://app?vid=af2bfa4a-dd0b-4ea4-a7b9-5a41e65701bc"},"vehicle_type_id":"4","last_reported":1703055941,"current_range_meters":31200,"station_id":"ce4bhqh2rcd13ifvqhlg","pricing_plan_id":"free"},{"bike_id":"974dc7db-ff3c-4554-8964-132f9db52d9b","system_id":"levelo_inurba_marseille","lat":43.276092,"lon":5.395289,"is_reserved":false,"is_disabled":false,"rental_uris":{"android":"levelo://app?vid=974dc7db-ff3c-4554-8964-132f9db52d9b","ios":"levelo://app?vid=974dc7db-ff3c-4554-8964-132f9db52d9b"},"vehicle_type_id":"4","last_reported":1703055941,"current_range_meters":4800,"station_id":"","pricing_plan_id":"free"},{"bike_id":"385d53f3-391a-467c-8962-4e8a18cc0814","system_id":"levelo_inurba_marseille","lat":43.304096,"lon":5.425385,"is_reserved":false,"is_disabled":false,"rental_uris":{"android":"levelo://app?vid=385d53f3-391a-467c-8962-4e8a18cc0814","ios":"levelo://app?vid=385d53f3-391a-467c-8962-4e8a18cc0814"},"vehicle_type_id":"4","last_reported":1703055941,"current_range_meters":28400,"station_id":"ce4bhoh2rcd13ifvqh6g","pricing_plan_id":"free"},{"bike_id":"74ad3ea7-7faf-459c-94a5-6416f79bac0d","system_id":"levelo_inurba_marseille","lat":43.304096,"lon":5.425385,"is_reserved":false,"is_disabled":false,"rental_uris":{"android":"levelo://app?vid=74ad3ea7-7faf-459c-94a5-6416f79bac0d","ios":"levelo://app?vid=74ad3ea7-7faf-459c-94a5-6416f79bac0d"},"vehicle_type_id":"4","last_reported":1703055941,"current_range_meters":28400,"station_id":"ce4bhoh2rcd13ifvqh6g","pricing_plan_id":"free"},{"bike_id":"cc6f4ccb-a02c-4c62-8f36-93c11fae1473","system_id":"levelo_inurba_marseille","lat":43.304096,"lon":5.425385,"is_reserved":false,"is_disabled":false,"rental_uris":{"android":"levelo://app?vid=cc6f4ccb-a02c-4c62-8f36-93c11fae1473","ios":"levelo://app?vid=cc6f4ccb-a02c-4c62-8f36-93c11fae1473"},"vehicle_type_id":"4","last_reported":1703055941,"current_range_meters":1200,"station_id":"ce4bhoh2rcd13ifvqh6g","pricing_plan_id":"free"},{"bike_id":"33e9525d-ba3e-4536-91b0-71b7f8684d82","system_id":"levelo_inurba_marseille","lat":43.295523,"lon":5.422926,"is_reserved":false,"is_disabled":false,"rental_uris":{"android":"levelo://app?vid=33e9525d-ba3e-4536-91b0-71b7f8684d82","ios":"levelo://app?vid=33e9525d-ba3e-4536-91b0-71b7f8684d82"},"vehicle_type_id":"4","last_reported":1703055941,"current_range_meters":30800,"station_id":"ce4bhph2rcd13ifvqhdg","pricing_plan_id":"free"},{"bike_id":"ca314493-3848-477b-95b3-e1722a7aef04","system_id":"levelo_inurba_marseille","lat":43.295153,"lon":5.422676,"is_reserved":false,"is_disabled":false,"rental_uris":{"android":"levelo://app?vid=ca314493-3848-477b-95b3-e1722a7aef04","ios":"levelo://app?vid=ca314493-3848-477b-95b3-e1722a7aef04"},"vehicle_type_id":"4","last_reported":1703055941,"current_range_meters":12000,"station_id":"ce4bhph2rcd13ifvqhdg","pricing_plan_id":"free"},{"bike_id":"156cf87a-c100-42b3-8e71-aaf0ee219a1e","system_id":"levelo_inurba_marseille","lat":43.27188,"lon":5.39224,"is_reserved":false,"is_disabled":false,"rental_uris":{"android":"levelo://app?vid=156cf87a-c100-42b3-8e71-aaf0ee219a1e","ios":"levelo://app?vid=156cf87a-c100-42b3-8e71-aaf0ee219a1e"},"vehicle_type_id":"4","last_reported":1703055941,"current_range_meters":7600,"station_id":"ce4bhhp2rcd13ifvqfm0","pricing_plan_id":"free"},{"bike_id":"d5376276-dc65-4c8c-866e-39db1bed816c","system_id":"levelo_inurba_marseille","lat":43.278128,"lon":5.407195,"is_reserved":false,"is_disabled":false,"rental_uris":{"android":"levelo://app?vid=d5376276-dc65-4c8c-866e-39db1bed816c","ios":"levelo://app?vid=d5376276-dc65-4c8c-866e-39db1bed816c"},"vehicle_type_id":"4","last_reported":1703055941,"current_range_meters":31200,"station_id":"ce4bhnh2rcd13ifvqgtg","pricing_plan_id":"free"},{"bike_id":"a8fcc8a6-5665-4904-b944-4f0d966a182a","system_id":"levelo_inurba_marseille","lat":43.278128,"lon":5.407195,"is_reserved":false,"is_disabled":false,"rental_uris":{"android":"levelo://app?vid=a8fcc8a6-5665-4904-b944-4f0d966a182a","ios":"levelo://app?vid=a8fcc8a6-5665-4904-b944-4f0d966a182a"},"vehicle_type_id":"4","last_reported":1703055941,"current_range_meters":31200,"station_id":"ce4bhnh2rcd13ifvqgtg","pricing_plan_id":"free"},{"bike_id":"86ba771b-8036-4328-8521-cd352f9677c5","system_id":"levelo_inurba_marseille","lat":43.27812,"lon":5.40707,"is_reserved":false,"is_disabled":false,"rental_uris":{"android":"levelo://app?vid=86ba771b-8036-4328-8521-cd352f9677c5","ios":"levelo://app?vid=86ba771b-8036-4328-8521-cd352f9677c5"},"vehicle_type_id":"4","last_reported":1703055941,"current_range_meters":0,"station_id":"ce4bhnh2rcd13ifvqgtg","pricing_plan_id":"free"},{"bike_id":"f596a590-84ac-41b5-b90a-16b857317e28","system_id":"levelo_inurba_marseille","lat":43.27812,"lon":5.40708,"is_reserved":false,"is_disabled":false,"rental_uris":{"android":"levelo://app?vid=f596a590-84ac-41b5-b90a-16b857317e28","ios":"levelo://app?vid=f596a590-84ac-41b5-b90a-16b857317e28"},"vehicle_type_id":"4","last_reported":1703055941,"current_range_meters":0,"station_id":"ce4bhnh2rcd13ifvqgtg","pricing_plan_id":"free"},{"bike_id":"bc189b87-8668-47c9-8db2-ae4d264c2ea9","system_id":"levelo_inurba_marseille","lat":43.278128,"lon":5.407195,"is_reserved":false,"is_disabled":false,"rental_uris":{"android":"levelo://app?vid=bc189b87-8668-47c9-8db2-ae4d264c2ea9","ios":"levelo://app?vid=bc189b87-8668-47c9-8db2-ae4d264c2ea9"},"vehicle_type_id":"4","last_reported":1703055941,"current_range_meters":0,"station_id":"ce4bhnh2rcd13ifvqgtg","pricing_plan_id":"free"},{"bike_id":"52a7e9e2-a069-4ce0-9de6-06ae9cb1eec8","system_id":"levelo_inurba_marseille","lat":43.265638,"lon":5.372931,"is_reserved":false,"is_disabled":false,"rental_uris":{"android":"levelo://app?vid=52a7e9e2-a069-4ce0-9de6-06ae9cb1eec8","ios":"levelo://app?vid=52a7e9e2-a069-4ce0-9de6-06ae9cb1eec8"},"vehicle_type_id":"4","last_reported":1703055941,"current_range_meters":20800,"station_id":"ce4bhg12rcd13ifvqf70","pricing_plan_id":"free"},{"bike_id":"645c7307-be30-4ea3-b9ba-658e7b2a1180","system_id":"levelo_inurba_marseille","lat":43.265714,"lon":5.372891,"is_reserved":false,"is_disabled":false,"rental_uris":{"android":"levelo://app?vid=645c7307-be30-4ea3-b9ba-658e7b2a1180","ios":"levelo://app?vid=645c7307-be30-4ea3-b9ba-658e7b2a1180"},"vehicle_type_id":"4","last_reported":1703055941,"current_range_meters":20400,"station_id":"ce4bhg12rcd13ifvqf70","pricing_plan_id":"free"},{"bike_id":"bff86de4-20fc-4d8b-ad9c-4ba419fa426f","system_id":"levelo_inurba_marseille","lat":43.265714,"lon":5.372891,"is_reserved":false,"is_disabled":false,"rental_uris":{"android":"levelo://app?vid=bff86de4-20fc-4d8b-ad9c-4ba419fa426f","ios":"levelo://app?vid=bff86de4-20fc-4d8b-ad9c-4ba419fa426f"},"vehicle_type_id":"4","last_reported":1703055941,"current_range_meters":28000,"station_id":"ce4bhg12rcd13ifvqf70","pricing_plan_id":"free"},{"bike_id":"b7443be0-7d9e-4c29-816c-f5674e53c6dd","system_id":"levelo_inurba_marseille","lat":43.2655,"lon":5.37295,"is_reserved":false,"is_disabled":false,"rental_uris":{"android":"levelo://app?vid=b7443be0-7d9e-4c29-816c-f5674e53c6dd","ios":"levelo://app?vid=b7443be0-7d9e-4c29-816c-f5674e53c6dd"},"vehicle_type_id":"4","last_reported":1703055941,"current_range_meters":28000,"station_id":"ce4bhg12rcd13ifvqf70","pricing_plan_id":"free"},{"bike_id":"20d24d8f-e0a6-4c49-afb4-dfd01309b431","system_id":"levelo_inurba_marseille","lat":43.304096,"lon":5.425385,"is_reserved":false,"is_disabled":false,"rental_uris":{"android":"levelo://app?vid=20d24d8f-e0a6-4c49-afb4-dfd01309b431","ios":"levelo://app?vid=20d24d8f-e0a6-4c49-afb4-dfd01309b431"},"vehicle_type_id":"4","last_reported":1703055941,"current_range_meters":24400,"station_id":"ce4bhoh2rcd13ifvqh6g","pricing_plan_id":"free"},{"bike_id":"02c55a47-17fb-4a62-ae38-c5e925a326f0","system_id":"levelo_inurba_marseille","lat":43.26466,"lon":5.36907,"is_reserved":false,"is_disabled":false,"rental_uris":{"android":"levelo://app?vid=02c55a47-17fb-4a62-ae38-c5e925a326f0","ios":"levelo://app?vid=02c55a47-17fb-4a62-ae38-c5e925a326f0"},"vehicle_type_id":"4","last_reported":1703055941,"current_range_meters":8400,"station_id":"","pricing_plan_id":"free"},{"bike_id":"0177a8dd-9f85-4a80-b9e4-741ff4504e03","system_id":"levelo_inurba_marseille","lat":43.267966,"lon":5.393976,"is_reserved":false,"is_disabled":false,"rental_uris":{"android":"levelo://app?vid=0177a8dd-9f85-4a80-b9e4-741ff4504e03","ios":"levelo://app?vid=0177a8dd-9f85-4a80-b9e4-741ff4504e03"},"vehicle_type_id":"4","last_reported":1703055941,"current_range_meters":26800,"station_id":"ce4bhh12rcd13ifvqfg0","pricing_plan_id":"free"},{"bike_id":"39da26c7-b5e9-46d0-87a8-dcf9151a0f2b","system_id":"levelo_inurba_marseille","lat":43.267966,"lon":5.393976,"is_reserved":false,"is_disabled":false,"rental_uris":{"android":"levelo://app?vid=39da26c7-b5e9-46d0-87a8-dcf9151a0f2b","ios":"levelo://app?vid=39da26c7-b5e9-46d0-87a8-dcf9151a0f2b"},"vehicle_type_id":"4","last_reported":1703055941,"current_range_meters":21600,"station_id":"ce4bhh12rcd13ifvqfg0","pricing_plan_id":"free"},{"bike_id":"8b4d8969-0cf2-49ba-b21f-de347ab68f48","system_id":"levelo_inurba_marseille","lat":43.267966,"lon":5.393976,"is_reserved":false,"is_disabled":false,"rental_uris":{"android":"levelo://app?vid=8b4d8969-0cf2-49ba-b21f-de347ab68f48","ios":"levelo://app?vid=8b4d8969-0cf2-49ba-b21f-de347ab68f48"},"vehicle_type_id":"4","last_reported":1703055941,"current_range_meters":28800,"station_id":"ce4bhh12rcd13ifvqfg0","pricing_plan_id":"free"},{"bike_id":"9871c83b-d40a-4e62-8a03-aa7be3435061","system_id":"levelo_inurba_marseille","lat":43.26571,"lon":5.38999,"is_reserved":false,"is_disabled":false,"rental_uris":{"android":"levelo://app?vid=9871c83b-d40a-4e62-8a03-aa7be3435061","ios":"levelo://app?vid=9871c83b-d40a-4e62-8a03-aa7be3435061"},"vehicle_type_id":"4","last_reported":1703055941,"current_range_meters":18000,"station_id":"ce4bhe12rcd13ifvqf30","pricing_plan_id":"free"},{"bike_id":"9259c489-cbec-44bf-a48a-67a51409fea6","system_id":"levelo_inurba_marseille","lat":43.308051,"lon":5.43527,"is_reserved":false,"is_disabled":false,"rental_uris":{"android":"levelo://app?vid=9259c489-cbec-44bf-a48a-67a51409fea6","ios":"levelo://app?vid=9259c489-cbec-44bf-a48a-67a51409fea6"},"vehicle_type_id":"4","last_reported":1703055941,"current_range_meters":0,"station_id":"ce4bhph2rcd13ifvqheg","pricing_plan_id":"free"},{"bike_id":"f1272dff-1862-45cc-bd1a-3bd362830af7","system_id":"levelo_inurba_marseille","lat":43.26569,"lon":5.39004,"is_reserved":false,"is_disabled":false,"rental_uris":{"android":"levelo://app?vid=f1272dff-1862-45cc-bd1a-3bd362830af7","ios":"levelo://app?vid=f1272dff-1862-45cc-bd1a-3bd362830af7"},"vehicle_type_id":"4","last_reported":1703055941,"current_range_meters":17600,"station_id":"ce4bhe12rcd13ifvqf30","pricing_plan_id":"free"},{"bike_id":"8a80415f-c97a-4218-a2ef-b79455f4bc69","system_id":"levelo_inurba_marseille","lat":43.308051,"lon":5.43527,"is_reserved":false,"is_disabled":false,"rental_uris":{"android":"levelo://app?vid=8a80415f-c97a-4218-a2ef-b79455f4bc69","ios":"levelo://app?vid=8a80415f-c97a-4218-a2ef-b79455f4bc69"},"vehicle_type_id":"4","last_reported":1703055941,"current_range_meters":31200,"station_id":"ce4bhph2rcd13ifvqheg","pricing_plan_id":"free"},{"bike_id":"0050c690-daac-42f0-9c4a-ecd7bbaf0be8","system_id":"levelo_inurba_marseille","lat":43.26568,"lon":5.390117,"is_reserved":false,"is_disabled":false,"rental_uris":{"android":"levelo://app?vid=0050c690-daac-42f0-9c4a-ecd7bbaf0be8","ios":"levelo://app?vid=0050c690-daac-42f0-9c4a-ecd7bbaf0be8"},"vehicle_type_id":"4","last_reported":1703055941,"current_range_meters":22000,"station_id":"","pricing_plan_id":"free"},{"bike_id":"90fd052f-f607-44a2-a493-08e89853bdc5","system_id":"levelo_inurba_marseille","lat":43.265569,"lon":5.390047,"is_reserved":false,"is_disabled":false,"rental_uris":{"android":"levelo://app?vid=90fd052f-f607-44a2-a493-08e89853bdc5","ios":"levelo://app?vid=90fd052f-f607-44a2-a493-08e89853bdc5"},"vehicle_type_id":"4","last_reported":1703055941,"current_range_meters":29600,"station_id":"ce4bhe12rcd13ifvqf30","pricing_plan_id":"free"},{"bike_id":"33ba9e0c-5c3f-414b-aadd-20c2c715e34b","system_id":"levelo_inurba_marseille","lat":43.26564,"lon":5.39011,"is_reserved":false,"is_disabled":false,"rental_uris":{"android":"levelo://app?vid=33ba9e0c-5c3f-414b-aadd-20c2c715e34b","ios":"levelo://app?vid=33ba9e0c-5c3f-414b-aadd-20c2c715e34b"},"vehicle_type_id":"4","last_reported":1703055941,"current_range_meters":26000,"station_id":"ce4bhe12rcd13ifvqf30","pricing_plan_id":"free"},{"bike_id":"517c6402-9095-484b-a849-54f224f689f5","system_id":"levelo_inurba_marseille","lat":43.265585,"lon":5.390075,"is_reserved":false,"is_disabled":false,"rental_uris":{"android":"levelo://app?vid=517c6402-9095-484b-a849-54f224f689f5","ios":"levelo://app?vid=517c6402-9095-484b-a849-54f224f689f5"},"vehicle_type_id":"4","last_reported":1703055941,"current_range_meters":31200,"station_id":"ce4bhe12rcd13ifvqf30","pricing_plan_id":"free"},{"bike_id":"06672185-f266-4841-b0a5-58e28e0bf288","system_id":"levelo_inurba_marseille","lat":43.26949,"lon":5.40262,"is_reserved":false,"is_disabled":false,"rental_uris":{"android":"levelo://app?vid=06672185-f266-4841-b0a5-58e28e0bf288","ios":"levelo://app?vid=06672185-f266-4841-b0a5-58e28e0bf288"},"vehicle_type_id":"4","last_reported":1703055941,"current_range_meters":25600,"station_id":"cjm6bp8fraef2m0cb0m0","pricing_plan_id":"free"},{"bike_id":"a73b7a63-e980-4b88-bf40-f2e9740622bb","system_id":"levelo_inurba_marseille","lat":43.26187,"lon":5.37438,"is_reserved":false,"is_disabled":false,"rental_uris":{"android":"levelo://app?vid=a73b7a63-e980-4b88-bf40-f2e9740622bb","ios":"levelo://app?vid=a73b7a63-e980-4b88-bf40-f2e9740622bb"},"vehicle_type_id":"4","last_reported":1703055941,"current_range_meters":17600,"station_id":"ce4bhgp2rcd13ifvqfc0","pricing_plan_id":"free"},{"bike_id":"2935b89d-3131-47ca-bc2d-e678e39066e8","system_id":"levelo_inurba_marseille","lat":43.317104,"lon":5.436818,"is_reserved":false,"is_disabled":false,"rental_uris":{"android":"levelo://app?vid=2935b89d-3131-47ca-bc2d-e678e39066e8","ios":"levelo://app?vid=2935b89d-3131-47ca-bc2d-e678e39066e8"},"vehicle_type_id":"4","last_reported":1703055941,"current_range_meters":31200,"station_id":"ce4bhp92rcd13ifvqhcg","pricing_plan_id":"free"},{"bike_id":"8e180a3b-3993-43d3-a094-9d9f7f8ee14a","system_id":"levelo_inurba_marseille","lat":43.317104,"lon":5.436818,"is_reserved":false,"is_disabled":false,"rental_uris":{"android":"levelo://app?vid=8e180a3b-3993-43d3-a094-9d9f7f8ee14a","ios":"levelo://app?vid=8e180a3b-3993-43d3-a094-9d9f7f8ee14a"},"vehicle_type_id":"4","last_reported":1703055941,"current_range_meters":26800,"station_id":"ce4bhp92rcd13ifvqhcg","pricing_plan_id":"free"},{"bike_id":"4570cf9c-b464-4d60-83f7-852a14c48e93","system_id":"levelo_inurba_marseille","lat":43.271388,"lon":5.409269,"is_reserved":false,"is_disabled":false,"rental_uris":{"android":"levelo://app?vid=4570cf9c-b464-4d60-83f7-852a14c48e93","ios":"levelo://app?vid=4570cf9c-b464-4d60-83f7-852a14c48e93"},"vehicle_type_id":"4","last_reported":1703055941,"current_range_meters":31200,"station_id":"ce4bhl12rcd13ifvqgf0","pricing_plan_id":"free"},{"bike_id":"ca145c0a-3270-45ab-9873-a7326eb010b0","system_id":"levelo_inurba_marseille","lat":43.2718,"lon":5.40984,"is_reserved":false,"is_disabled":false,"rental_uris":{"android":"levelo://app?vid=ca145c0a-3270-45ab-9873-a7326eb010b0","ios":"levelo://app?vid=ca145c0a-3270-45ab-9873-a7326eb010b0"},"vehicle_type_id":"4","last_reported":1703055941,"current_range_meters":24400,"station_id":"ce4bhl12rcd13ifvqgf0","pricing_plan_id":"free"},{"bike_id":"a1737239-074a-48ff-925e-03345e784648","system_id":"levelo_inurba_marseille","lat":43.271388,"lon":5.409269,"is_reserved":false,"is_disabled":false,"rental_uris":{"android":"levelo://app?vid=a1737239-074a-48ff-925e-03345e784648","ios":"levelo://app?vid=a1737239-074a-48ff-925e-03345e784648"},"vehicle_type_id":"4","last_reported":1703055941,"current_range_meters":31200,"station_id":"ce4bhl12rcd13ifvqgf0","pricing_plan_id":"free"},{"bike_id":"b0e3b8c2-d655-4eb6-bf1d-08fcce5c4be2","system_id":"levelo_inurba_marseille","lat":43.271715,"lon":5.409822,"is_reserved":false,"is_disabled":false,"rental_uris":{"android":"levelo://app?vid=b0e3b8c2-d655-4eb6-bf1d-08fcce5c4be2","ios":"levelo://app?vid=b0e3b8c2-d655-4eb6-bf1d-08fcce5c4be2"},"vehicle_type_id":"4","last_reported":1703055941,"current_range_meters":30400,"station_id":"ce4bhl12rcd13ifvqgf0","pricing_plan_id":"free"},{"bike_id":"5241cf9a-d97b-465d-95ef-bcbaa01ed582","system_id":"levelo_inurba_marseille","lat":43.271388,"lon":5.409269,"is_reserved":false,"is_disabled":false,"rental_uris":{"android":"levelo://app?vid=5241cf9a-d97b-465d-95ef-bcbaa01ed582","ios":"levelo://app?vid=5241cf9a-d97b-465d-95ef-bcbaa01ed582"},"vehicle_type_id":"4","last_reported":1703055941,"current_range_meters":29200,"station_id":"ce4bhl12rcd13ifvqgf0","pricing_plan_id":"free"},{"bike_id":"6db845f7-a0d8-4498-9983-65971254c0bf","system_id":"levelo_inurba_marseille","lat":43.26202,"lon":5.379299,"is_reserved":false,"is_disabled":false,"rental_uris":{"android":"levelo://app?vid=6db845f7-a0d8-4498-9983-65971254c0bf","ios":"levelo://app?vid=6db845f7-a0d8-4498-9983-65971254c0bf"},"vehicle_type_id":"4","last_reported":1703055941,"current_range_meters":31200,"station_id":"ce4bhjp2rcd13ifvqg90","pricing_plan_id":"free"},{"bike_id":"26fc4576-442e-4443-bb0b-6506185b2806","system_id":"levelo_inurba_marseille","lat":43.281548,"lon":5.42643,"is_reserved":false,"is_disabled":false,"rental_uris":{"android":"levelo://app?vid=26fc4576-442e-4443-bb0b-6506185b2806","ios":"levelo://app?vid=26fc4576-442e-4443-bb0b-6506185b2806"},"vehicle_type_id":"4","last_reported":1703055941,"current_range_meters":22800,"station_id":"ce4bhnh2rcd13ifvqgug","pricing_plan_id":"free"},{"bike_id":"9813e35e-0432-47c0-aea0-77b90f04d4ab","system_id":"levelo_inurba_marseille","lat":43.281548,"lon":5.42643,"is_reserved":false,"is_disabled":false,"rental_uris":{"android":"levelo://app?vid=9813e35e-0432-47c0-aea0-77b90f04d4ab","ios":"levelo://app?vid=9813e35e-0432-47c0-aea0-77b90f04d4ab"},"vehicle_type_id":"4","last_reported":1703055941,"current_range_meters":27600,"station_id":"ce4bhnh2rcd13ifvqgug","pricing_plan_id":"free"},{"bike_id":"1e7f2fff-e4e6-4ae1-8513-a11aab4f98f3","system_id":"levelo_inurba_marseille","lat":43.281548,"lon":5.42643,"is_reserved":false,"is_disabled":false,"rental_uris":{"android":"levelo://app?vid=1e7f2fff-e4e6-4ae1-8513-a11aab4f98f3","ios":"levelo://app?vid=1e7f2fff-e4e6-4ae1-8513-a11aab4f98f3"},"vehicle_type_id":"4","last_reported":1703055941,"current_range_meters":26000,"station_id":"ce4bhnh2rcd13ifvqgug","pricing_plan_id":"free"},{"bike_id":"00f8273d-4682-4e65-962c-ee6ea9bd1a5b","system_id":"levelo_inurba_marseille","lat":43.281548,"lon":5.42643,"is_reserved":false,"is_disabled":false,"rental_uris":{"android":"levelo://app?vid=00f8273d-4682-4e65-962c-ee6ea9bd1a5b","ios":"levelo://app?vid=00f8273d-4682-4e65-962c-ee6ea9bd1a5b"},"vehicle_type_id":"4","last_reported":1703055941,"current_range_meters":24800,"station_id":"ce4bhnh2rcd13ifvqgug","pricing_plan_id":"free"},{"bike_id":"c19ec7be-7ef0-4212-b41f-5bdcd0c24469","system_id":"levelo_inurba_marseille","lat":43.281548,"lon":5.42643,"is_reserved":false,"is_disabled":false,"rental_uris":{"android":"levelo://app?vid=c19ec7be-7ef0-4212-b41f-5bdcd0c24469","ios":"levelo://app?vid=c19ec7be-7ef0-4212-b41f-5bdcd0c24469"},"vehicle_type_id":"4","last_reported":1703055941,"current_range_meters":25600,"station_id":"ce4bhnh2rcd13ifvqgug","pricing_plan_id":"free"},{"bike_id":"e185aa0c-8ae3-43cc-b9b9-13819d575a7f","system_id":"levelo_inurba_marseille","lat":43.26067,"lon":5.39393,"is_reserved":false,"is_disabled":false,"rental_uris":{"android":"levelo://app?vid=e185aa0c-8ae3-43cc-b9b9-13819d575a7f","ios":"levelo://app?vid=e185aa0c-8ae3-43cc-b9b9-13819d575a7f"},"vehicle_type_id":"4","last_reported":1703055941,"current_range_meters":30000,"station_id":"ce4bhh92rcd13ifvqfj0","pricing_plan_id":"free"},{"bike_id":"3c959548-c43f-4e1b-95bc-c6b2df3d9e8a","system_id":"levelo_inurba_marseille","lat":43.275028,"lon":5.424534,"is_reserved":false,"is_disabled":false,"rental_uris":{"android":"levelo://app?vid=3c959548-c43f-4e1b-95bc-c6b2df3d9e8a","ios":"levelo://app?vid=3c959548-c43f-4e1b-95bc-c6b2df3d9e8a"},"vehicle_type_id":"4","last_reported":1703055941,"current_range_meters":22800,"station_id":"ce4bhn92rcd13ifvqgrg","pricing_plan_id":"free"},{"bike_id":"d3649ec2-1ebf-4f9c-be7b-62da3a5b4ed8","system_id":"levelo_inurba_marseille","lat":43.275028,"lon":5.424534,"is_reserved":false,"is_disabled":false,"rental_uris":{"android":"levelo://app?vid=d3649ec2-1ebf-4f9c-be7b-62da3a5b4ed8","ios":"levelo://app?vid=d3649ec2-1ebf-4f9c-be7b-62da3a5b4ed8"},