{"last_updated":1743462551,"ttl":60,"version":"2.2","data":{"bikes":[{"bike_id":"a76c6e3c-8e9f-4c5d-8b35-56113571ae05","system_id":"levelo_inurba_marseille","lat":43.28416,"lon":5.34997,"is_reserved":false,"is_disabled":false,"rental_uris":{"android":"levelo://app?vid=a76c6e3c-8e9f-4c5d-8b35-56113571ae05","ios":"levelo://app?vid=a76c6e3c-8e9f-4c5d-8b35-56113571ae05"},"vehicle_type_id":"4","last_reported":1743462552,"current_range_meters":2800,"station_id":"ce4bhbh2rcd13ifvqepg","pricing_plan_id":"cebpf4jnsgd1na2vs0mg"},{"bike_id":"318025ec-0e1f-4c9b-9049-d13c8df16fb5","system_id":"levelo_inurba_marseille","lat":43.28853,"lon":5.3934,"is_reserved":false,"is_disabled":false,"rental_uris":{"android":"levelo://app?vid=318025ec-0e1f-4c9b-9049-d13c8df16fb5","ios":"levelo://app?vid=318025ec-0e1f-4c9b-9049-d13c8df16fb5"},"vehicle_type_id":"4","last_reported":1743462552,"current_range_meters":2800,"station_id":"ce4bh2p2rcd13ifvqdi0","pricing_plan_id":"cebpf4jnsgd1na2vs0mg"},{"bike_id":"384b53be-0dd1-4ff6-96b3-76e22c52ec3c","system_id":"levelo_inurba_marseille","lat":43.27682,"lon":5.41873,"is_reserved":false,"is_disabled":false,"rental_uris":{"android":"levelo://app?vid=384b53be-0dd1-4ff6-96b3-76e22c52ec3c","ios":"levelo://app?vid=384b53be-0dd1-4ff6-96b3-76e22c52ec3c"},"vehicle_type_id":"4","last_reported":1743462552,"current_range_meters":2800,"station_id":"","pricing_plan_id":"cebpf4jnsgd1na2vs0mg"},{"bike_id":"440a93b2-f654-4bdc-b05a-1106bcdfe1f3","system_id":"levelo_inurba_marseille","lat":43.33606,"lon":5.410304,"is_reserved":false,"is_disabled":false,"rental_uris":{"android":"levelo://app?vid=440a93b2-f654-4bdc-b05a-1106bcdfe1f3","ios":"levelo://app?vid=440a93b2-f654-4bdc-b05a-1106bcdfe1f3"},"vehicle_type_id":"4","last_reported":1743462552,"current_range_meters":3200,"station_id":"ce4bhqh2rcd13ifvqhmg","pricing_plan_id":"cebpf4jnsgd1na2vs0mg"},{"bike_id":"e1f716f9-3964-4667-9c1c-de1fb2331134","system_id":"levelo_inurba_marseille","lat":43.30619,"lon":5.37211,"is_reserved":false,"is_disabled":false,"rental_uris":{"android":"levelo://app?vid=e1f716f9-3964-4667-9c1c-de1fb2331134","ios":"levelo://app?vid=e1f716f9-3964-4667-9c1c-de1fb2331134"},"vehicle_type_id":"4","last_reported":1743462552,"current_range_meters":3200,"station_id":"ce4bgqh2rcd13ifvqc4g","pricing_plan_id":"cebpf4jnsgd1na2vs0mg"},{"bike_id":"76d4ed16-8625-4a14-a5f1-d28ac2574c13","system_id":"levelo_inurba_marseille","lat":43.24543,"lon":5.39528,"is_reserved":false,"is_disabled":false,"rental_uris":{"android":"levelo://app?vid=76d4ed16-8625-4a14-a5f1-d28ac2574c13","ios":"levelo://app?vid=76d4ed16-8625-4a14-a5f1-d28ac2574c13"},"vehicle_type_id":"4","last_reported":1743462552,"current_range_meters":3600,"station_id":"ce4bhlp2rcd13ifvqgjg","pricing_plan_id":"cebpf4jnsgd1na2vs0mg"},{"bike_id":"3b8b5fcf-ba11-4a94-a416-2c8fbad336ed","system_id":"levelo_inurba_marseille","lat":43.29882,"lon":5.3891,"is_reserved":false,"is_disabled":false,"rental_uris":{"android":"levelo://app?vid=3b8b5fcf-ba11-4a94-a416-2c8fbad336ed","ios":"levelo://app?vid=3b8b5fcf-ba11-4a94-a416-2c8fbad336ed"},"vehicle_type_id":"4","last_reported":1743462552,"current_range_meters":3600,"station_id":"ce4bh392rcd13ifvqdl0","pricing_plan_id":"cebpf4jnsgd1na2vs0mg"},{"bike_id":"d18560b4-f408-4d7a-9702-c71e23cf5416","system_id":"levelo_inurba_marseille","lat":43.27934,"lon":5.41039,"is_reserved":false,"is_disabled":false,"rental_uris":{"android":"levelo://app?vid=d18560b4-f408-4d7a-9702-c71e23cf5416","ios":"levelo://app?vid=d18560b4-f408-4d7a-9702-c71e23cf5416"},"vehicle_type_id":"4","last_reported":1743462552,"current_range_meters":3600,"station_id":"ce4bhnp2rcd13ifvqh0g","pricing_plan_id":"cebpf4jnsgd1na2vs0mg"},{"bike_id":"35a0bc23-3944-454c-8e5d-730541c8b664","system_id":"levelo_inurba_marseille","lat":43.26199,"lon":5.37457,"is_reserved":false,"is_disabled":true,"rental_uris":{"android":"levelo://app?vid=35a0bc23-3944-454c-8e5d-730541c8b664","ios":"levelo://app?vid=35a0bc23-3944-454c-8e5d-730541c8b664"},"vehicle_type_id":"4","last_reported":1743462552,"current_range_meters":3600,"station_id":"ce4bhgp2rcd13ifvqfc0","pricing_plan_id":"cebpf4jnsgd1na2vs0mg"},{"bike_id":"60f2c1d0-6f74-4669-9e8b-65b7793536c4","system_id":"levelo_inurba_marseille","lat":43.26574,"lon":5.37309,"is_reserved":false,"is_disabled":false,"rental_uris":{"android":"levelo://app?vid=60f2c1d0-6f74-4669-9e8b-65b7793536c4","ios":"levelo://app?vid=60f2c1d0-6f74-4669-9e8b-65b7793536c4"},"vehicle_type_id":"4","last_reported":1743462552,"current_range_meters":3600,"station_id":"ce4bhg12rcd13ifvqf70","pricing_plan_id":"cebpf4jnsgd1na2vs0mg"},{"bike_id":"f54d2675-8e28-47f7-9724-c44470c8c9d5","system_id":"levelo_inurba_marseille","lat":43.2885,"lon":5.39316,"is_reserved":false,"is_disabled":false,"rental_uris":{"android":"levelo://app?vid=f54d2675-8e28-47f7-9724-c44470c8c9d5","ios":"levelo://app?vid=f54d2675-8e28-47f7-9724-c44470c8c9d5"},"vehicle_type_id":"4","last_reported":1743462552,"current_range_meters":4000,"station_id":"ce4bh2p2rcd13ifvqdi0","pricing_plan_id":"cebpf4jnsgd1na2vs0mg"},{"bike_id":"603c7ddf-1ae6-4347-8502-69031aba0af5","system_id":"levelo_inurba_marseille","lat":43.28435,"lon":5.39185,"is_reserved":false,"is_disabled":false,"rental_uris":{"android":"levelo://app?vid=603c7ddf-1ae6-4347-8502-69031aba0af5","ios":"levelo://app?vid=603c7ddf-1ae6-4347-8502-69031aba0af5"},"vehicle_type_id":"4","last_reported":1743462552,"current_range_meters":4000,"station_id":"ce4bhoh2rcd13ifvqh5g","pricing_plan_id":"cebpf4jnsgd1na2vs0mg"},{"bike_id":"a38ba8ba-3bed-4c88-9957-2c802ee7027f","system_id":"levelo_inurba_marseille","lat":43.26239,"lon":5.40435,"is_reserved":false,"is_disabled":false,"rental_uris":{"android":"levelo://app?vid=a38ba8ba-3bed-4c88-9957-2c802ee7027f","ios":"levelo://app?vid=a38ba8ba-3bed-4c88-9957-2c802ee7027f"},"vehicle_type_id":"4","last_reported":1743462552,"current_range_meters":4000,"station_id":"ce4bhmh2rcd13ifvqgmg","pricing_plan_id":"cebpf4jnsgd1na2vs0mg"},{"bike_id":"ff4a7313-e2a1-4c12-aa31-b9ac4b53cafc","system_id":"levelo_inurba_marseille","lat":43.31706,"lon":5.40457,"is_reserved":false,"is_disabled":false,"rental_uris":{"android":"levelo://app?vid=ff4a7313-e2a1-4c12-aa31-b9ac4b53cafc","ios":"levelo://app?vid=ff4a7313-e2a1-4c12-aa31-b9ac4b53cafc"},"vehicle_type_id":"4","last_reported":1743462552,"current_range_meters":4000,"station_id":"ce4bh012rcd13ifvqd00","pricing_plan_id":"cebpf4jnsgd1na2vs0mg"},{"bike_id":"82d8e203-da64-466b-9b1d-e9f0a9bfebfe","system_id":"levelo_inurba_marseille","lat":43.32549,"lon":5.41447,"is_reserved":false,"is_disabled":true,"rental_uris":{"android":"levelo://app?vid=82d8e203-da64-466b-9b1d-e9f0a9bfebfe","ios":"levelo://app?vid=82d8e203-da64-466b-9b1d-e9f0a9bfebfe"},"vehicle_type_id":"4","last_reported":1743462552,"current_range_meters":4400,"station_id":"ce4bhq12rcd13ifvqhhg","pricing_plan_id":"cebpf4jnsgd1na2vs0mg"},{"bike_id":"02bd81a4-edff-4e87-9f1e-480c71810ef6","system_id":"levelo_inurba_marseille","lat":43.2774,"lon":5.42016,"is_reserved":false,"is_disabled":false,"rental_uris":{"android":"levelo://app?vid=02bd81a4-edff-4e87-9f1e-480c71810ef6","ios":"levelo://app?vid=02bd81a4-edff-4e87-9f1e-480c71810ef6"},"vehicle_type_id":"4","last_reported":1743462552,"current_range_meters":4400,"station_id":"","pricing_plan_id":"cebpf4jnsgd1na2vs0mg"},{"bike_id":"75d56f98-6c75-4a8c-a312-88f4710b478a","system_id":"levelo_inurba_marseille","lat":43.29267,"lon":5.37607,"is_reserved":false,"is_disabled":true,"rental_uris":{"android":"levelo://app?vid=75d56f98-6c75-4a8c-a312-88f4710b478a","ios":"levelo://app?vid=75d56f98-6c75-4a8c-a312-88f4710b478a"},"vehicle_type_id":"4","last_reported":1743462552,"current_range_meters":4400,"station_id":"ce4bgi12rcd13ifvqb80","pricing_plan_id":"cebpf4jnsgd1na2vs0mg"},{"bike_id":"d1379a4b-7d1c-4a20-9b6a-00a7778584be","system_id":"levelo_inurba_marseille","lat":43.260727,"lon":5.394113,"is_reserved":false,"is_disabled":false,"rental_uris":{"android":"levelo://app?vid=d1379a4b-7d1c-4a20-9b6a-00a7778584be","ios":"levelo://app?vid=d1379a4b-7d1c-4a20-9b6a-00a7778584be"},"vehicle_type_id":"4","last_reported":1743462552,"current_range_meters":4400,"station_id":"ce4bhh92rcd13ifvqfj0","pricing_plan_id":"cebpf4jnsgd1na2vs0mg"},{"bike_id":"e1c2e27d-9122-4c19-8269-7d0af48e0063","system_id":"levelo_inurba_marseille","lat":43.30469,"lon":5.39723,"is_reserved":false,"is_disabled":false,"rental_uris":{"android":"levelo://app?vid=e1c2e27d-9122-4c19-8269-7d0af48e0063","ios":"levelo://app?vid=e1c2e27d-9122-4c19-8269-7d0af48e0063"},"vehicle_type_id":"4","last_reported":1743462552,"current_range_meters":4400,"station_id":"ce4bh092rcd13ifvqd20","pricing_plan_id":"cebpf4jnsgd1na2vs0mg"},{"bike_id":"56539414-9d2e-42ce-8f9a-64675f5255e9","system_id":"levelo_inurba_marseille","lat":43.29274,"lon":5.40138,"is_reserved":false,"is_disabled":false,"rental_uris":{"android":"levelo://app?vid=56539414-9d2e-42ce-8f9a-64675f5255e9","ios":"levelo://app?vid=56539414-9d2e-42ce-8f9a-64675f5255e9"},"vehicle_type_id":"4","last_reported":1743462552,"current_range_meters":4800,"station_id":"ce4bh312rcd13ifvqdk0","pricing_plan_id":"cebpf4jnsgd1na2vs0mg"},{"bike_id":"0909e6e7-119a-43a8-b285-33eb860b8051","system_id":"levelo_inurba_marseille","lat":43.30247,"lon":5.40031,"is_reserved":false,"is_disabled":false,"rental_uris":{"android":"levelo://app?vid=0909e6e7-119a-43a8-b285-33eb860b8051","ios":"levelo://app?vid=0909e6e7-119a-43a8-b285-33eb860b8051"},"vehicle_type_id":"4","last_reported":1743462552,"current_range_meters":5600,"station_id":"","pricing_plan_id":"cebpf4jnsgd1na2vs0mg"},{"bike_id":"33c55660-0541-469b-a476-383fff04337f","system_id":"levelo_inurba_marseille","lat":43.22928,"lon":5.35373,"is_reserved":false,"is_disabled":false,"rental_uris":{"android":"levelo://app?vid=33c55660-0541-469b-a476-383fff04337f","ios":"levelo://app?vid=33c55660-0541-469b-a476-383fff04337f"},"vehicle_type_id":"4","last_reported":1743462552,"current_range_meters":5600,"station_id":"cpo3532slgdg3j2ikp40","pricing_plan_id":"cebpf4jnsgd1na2vs0mg"},{"bike_id":"cbd09a99-2de5-419e-ba79-b7b06f7b27e4","system_id":"levelo_inurba_marseille","lat":43.3064,"lon":5.40072,"is_reserved":false,"is_disabled":false,"rental_uris":{"android":"levelo://app?vid=cbd09a99-2de5-419e-ba79-b7b06f7b27e4","ios":"levelo://app?vid=cbd09a99-2de5-419e-ba79-b7b06f7b27e4"},"vehicle_type_id":"4","last_reported":1743462552,"current_range_meters":6000,"station_id":"ce4bh112rcd13ifvqda0","pricing_plan_id":"cebpf4jnsgd1na2vs0mg"},{"bike_id":"0b2d8a57-fad8-4ef5-86f0-7d32a18f7c29","system_id":"levelo_inurba_marseille","lat":43.33015,"lon":5.39028,"is_reserved":false,"is_disabled":false,"rental_uris":{"android":"levelo://app?vid=0b2d8a57-fad8-4ef5-86f0-7d32a18f7c29","ios":"levelo://app?vid=0b2d8a57-fad8-4ef5-86f0-7d32a18f7c29"},"vehicle_type_id":"4","last_reported":1743462552,"current_range_meters":6000,"station_id":"ce4bhr92rcd13ifvqhrg","pricing_plan_id":"cebpf4jnsgd1na2vs0mg"},{"bike_id":"0d2d994d-a02d-4e68-96bc-d1a2c0e84f7d","system_id":"levelo_inurba_marseille","lat":43.27946,"lon":5.41044,"is_reserved":false,"is_disabled":false,"rental_uris":{"android":"levelo://app?vid=0d2d994d-a02d-4e68-96bc-d1a2c0e84f7d","ios":"levelo://app?vid=0d2d994d-a02d-4e68-96bc-d1a2c0e84f7d"},"vehicle_type_id":"4","last_reported":1743462552,"current_range_meters":6000,"station_id":"ce4bhnp2rcd13ifvqh0g","pricing_plan_id":"cebpf4jnsgd1na2vs0mg"},{"bike_id":"85fad29d-07fa-4834-92ea-a24165516ebf","system_id":"levelo_inurba_marseille","lat":43.230654,"lon":5.354922,"is_reserved":false,"is_disabled":false,"rental_uris":{"android":"levelo://app?vid=85fad29d-07fa-4834-92ea-a24165516ebf","ios":"levelo://app?vid=85fad29d-07fa-4834-92ea-a24165516ebf"},"vehicle_type_id":"4","last_reported":1743462552,"current_range_meters":6000,"station_id":"cpo3342slgdg3j2ifvpg","pricing_plan_id":"cebpf4jnsgd1na2vs0mg"},{"bike_id":"248029c6-2454-473a-9b69-0f66c750cc08","system_id":"levelo_inurba_marseille","lat":43.25083,"lon":5.39531,"is_reserved":false,"is_disabled":false,"rental_uris":{"android":"levelo://app?vid=248029c6-2454-473a-9b69-0f66c750cc08","ios":"levelo://app?vid=248029c6-2454-473a-9b69-0f66c750cc08"},"vehicle_type_id":"4","last_reported":1743462552,"current_range_meters":6000,"station_id":"ce4bhm12rcd13ifvqgkg","pricing_plan_id":"cebpf4jnsgd1na2vs0mg"},{"bike_id":"cb2686ef-95ab-40e0-9530-722782e6b951","system_id":"levelo_inurba_marseille","lat":43.31251,"lon":5.40118,"is_reserved":false,"is_disabled":false,"rental_uris":{"android":"levelo://app?vid=cb2686ef-95ab-40e0-9530-722782e6b951","ios":"levelo://app?vid=cb2686ef-95ab-40e0-9530-722782e6b951"},"vehicle_type_id":"4","last_reported":1743462552,"current_range_meters":6000,"station_id":"ce4bh092rcd13ifvqd30","pricing_plan_id":"cebpf4jnsgd1na2vs0mg"},{"bike_id":"bcead3f1-2898-48f6-b07c-b20a32f7bedc","system_id":"levelo_inurba_marseille","lat":43.30955,"lon":5.39049,"is_reserved":false,"is_disabled":false,"rental_uris":{"android":"levelo://app?vid=bcead3f1-2898-48f6-b07c-b20a32f7bedc","ios":"levelo://app?vid=bcead3f1-2898-48f6-b07c-b20a32f7bedc"},"vehicle_type_id":"4","last_reported":1743462552,"current_range_meters":6000,"station_id":"ce4bgup2rcd13ifvqco0","pricing_plan_id":"cebpf4jnsgd1na2vs0mg"},{"bike_id":"4f6f1efc-f7b1-425e-9bfd-5e5a50ad59b5","system_id":"levelo_inurba_marseille","lat":43.2844,"lon":5.39188,"is_reserved":false,"is_disabled":false,"rental_uris":{"android":"levelo://app?vid=4f6f1efc-f7b1-425e-9bfd-5e5a50ad59b5","ios":"levelo://app?vid=4f6f1efc-f7b1-425e-9bfd-5e5a50ad59b5"},"vehicle_type_id":"4","last_reported":1743462552,"current_range_meters":6000,"station_id":"ce4bhoh2rcd13ifvqh5g","pricing_plan_id":"cebpf4jnsgd1na2vs0mg"},{"bike_id":"0ce29fe3-4a0d-4ccf-858a-3574f2c7d9b8","system_id":"levelo_inurba_marseille","lat":43.28949,"lon":5.3962,"is_reserved":false,"is_disabled":false,"rental_uris":{"android":"levelo://app?vid=0ce29fe3-4a0d-4ccf-858a-3574f2c7d9b8","ios":"levelo://app?vid=0ce29fe3-4a0d-4ccf-858a-3574f2c7d9b8"},"vehicle_type_id":"4","last_reported":1743462552,"current_range_meters":6000,"station_id":"ce4bh3h2rcd13ifvqdn0","pricing_plan_id":"cebpf4jnsgd1na2vs0mg"},{"bike_id":"5194817e-e68d-400d-9e3c-99501829c1ca","system_id":"levelo_inurba_marseille","lat":43.30572,"lon":5.39319,"is_reserved":false,"is_disabled":false,"rental_uris":{"android":"levelo://app?vid=5194817e-e68d-400d-9e3c-99501829c1ca","ios":"levelo://app?vid=5194817e-e68d-400d-9e3c-99501829c1ca"},"vehicle_type_id":"4","last_reported":1743462552,"current_range_meters":6400,"station_id":"ce4bh0p2rcd13ifvqd80","pricing_plan_id":"cebpf4jnsgd1na2vs0mg"},{"bike_id":"1da808a6-36fb-434e-b2cb-2df77d77936e","system_id":"levelo_inurba_marseille","lat":43.27379,"lon":5.36251,"is_reserved":false,"is_disabled":false,"rental_uris":{"android":"levelo://app?vid=1da808a6-36fb-434e-b2cb-2df77d77936e","ios":"levelo://app?vid=1da808a6-36fb-434e-b2cb-2df77d77936e"},"vehicle_type_id":"4","last_reported":1743462552,"current_range_meters":6400,"station_id":"ce4bhbh2rcd13ifvqeo0","pricing_plan_id":"cebpf4jnsgd1na2vs0mg"},{"bike_id":"7bf19f0f-ccb7-4e2d-8151-5b3b43d672b1","system_id":"levelo_inurba_marseille","lat":43.26045,"lon":5.41741,"is_reserved":false,"is_disabled":false,"rental_uris":{"android":"levelo://app?vid=7bf19f0f-ccb7-4e2d-8151-5b3b43d672b1","ios":"levelo://app?vid=7bf19f0f-ccb7-4e2d-8151-5b3b43d672b1"},"vehicle_type_id":"4","last_reported":1743462552,"current_range_meters":6400,"station_id":"","pricing_plan_id":"cebpf4jnsgd1na2vs0mg"},{"bike_id":"0a408d6a-7d36-4610-acf8-5da8dd0451b6","system_id":"levelo_inurba_marseille","lat":43.30937,"lon":5.40146,"is_reserved":false,"is_disabled":false,"rental_uris":{"android":"levelo://app?vid=0a408d6a-7d36-4610-acf8-5da8dd0451b6","ios":"levelo://app?vid=0a408d6a-7d36-4610-acf8-5da8dd0451b6"},"vehicle_type_id":"4","last_reported":1743462552,"current_range_meters":6400,"station_id":"ce4bgvp2rcd13ifvqct0","pricing_plan_id":"cebpf4jnsgd1na2vs0mg"},{"bike_id":"726a709a-5eac-46c0-b5a4-8f16cce1cfbb","system_id":"levelo_inurba_marseille","lat":43.31493,"lon":5.37309,"is_reserved":false,"is_disabled":false,"rental_uris":{"android":"levelo://app?vid=726a709a-5eac-46c0-b5a4-8f16cce1cfbb","ios":"levelo://app?vid=726a709a-5eac-46c0-b5a4-8f16cce1cfbb"},"vehicle_type_id":"4","last_reported":1743462552,"current_range_meters":6400,"station_id":"ce4bgt12rcd13ifvqcd0","pricing_plan_id":"cebpf4jnsgd1na2vs0mg"},{"bike_id":"04de5b41-79cf-4c38-a131-868cfdfc11f9","system_id":"levelo_inurba_marseille","lat":43.306493,"lon":5.400852,"is_reserved":false,"is_disabled":false,"rental_uris":{"android":"levelo://app?vid=04de5b41-79cf-4c38-a131-868cfdfc11f9","ios":"levelo://app?vid=04de5b41-79cf-4c38-a131-868cfdfc11f9"},"vehicle_type_id":"4","last_reported":1743462552,"current_range_meters":6400,"station_id":"ce4bh112rcd13ifvqda0","pricing_plan_id":"cebpf4jnsgd1na2vs0mg"},{"bike_id":"deb3d6fe-ad0a-4a2c-8dad-a1a3b606d3f1","system_id":"levelo_inurba_marseille","lat":43.27052,"lon":5.40267,"is_reserved":false,"is_disabled":false,"rental_uris":{"android":"levelo://app?vid=deb3d6fe-ad0a-4a2c-8dad-a1a3b606d3f1","ios":"levelo://app?vid=deb3d6fe-ad0a-4a2c-8dad-a1a3b606d3f1"},"vehicle_type_id":"4","last_reported":1743462552,"current_range_meters":6400,"station_id":"ce4bhk92rcd13ifvqgc0","pricing_plan_id":"cebpf4jnsgd1na2vs0mg"},{"bike_id":"00d61976-17e0-440b-8586-301c5d1b91c1","system_id":"levelo_inurba_marseille","lat":43.29261,"lon":5.38441,"is_reserved":false,"is_disabled":true,"rental_uris":{"android":"levelo://app?vid=00d61976-17e0-440b-8586-301c5d1b91c1","ios":"levelo://app?vid=00d61976-17e0-440b-8586-301c5d1b91c1"},"vehicle_type_id":"4","last_reported":1743462552,"current_range_meters":6800,"station_id":"ce4bh692rcd13ifvqea0","pricing_plan_id":"cebpf4jnsgd1na2vs0mg"},{"bike_id":"21791e2f-185e-4410-87b6-2e2167f88d3a","system_id":"levelo_inurba_marseille","lat":43.31327,"lon":5.39703,"is_reserved":false,"is_disabled":false,"rental_uris":{"android":"levelo://app?vid=21791e2f-185e-4410-87b6-2e2167f88d3a","ios":"levelo://app?vid=21791e2f-185e-4410-87b6-2e2167f88d3a"},"vehicle_type_id":"4","last_reported":1743462552,"current_range_meters":6800,"station_id":"ce4bgvp2rcd13ifvqcu0","pricing_plan_id":"cebpf4jnsgd1na2vs0mg"},{"bike_id":"1115aca5-6e9e-4faf-b9a7-ceadf7eb4ba5","system_id":"levelo_inurba_marseille","lat":43.2872,"lon":5.37943,"is_reserved":false,"is_disabled":false,"rental_uris":{"android":"levelo://app?vid=1115aca5-6e9e-4faf-b9a7-ceadf7eb4ba5","ios":"levelo://app?vid=1115aca5-6e9e-4faf-b9a7-ceadf7eb4ba5"},"vehicle_type_id":"4","last_reported":1743462552,"current_range_meters":6800,"station_id":"ce4bh9p2rcd13ifvqec0","pricing_plan_id":"cebpf4jnsgd1na2vs0mg"},{"bike_id":"6165c5e1-15f4-4779-ba2f-91df8ba3f8c0","system_id":"levelo_inurba_marseille","lat":43.28902,"lon":5.42969,"is_reserved":false,"is_disabled":false,"rental_uris":{"android":"levelo://app?vid=6165c5e1-15f4-4779-ba2f-91df8ba3f8c0","ios":"levelo://app?vid=6165c5e1-15f4-4779-ba2f-91df8ba3f8c0"},"vehicle_type_id":"4","last_reported":1743462552,"current_range_meters":6800,"station_id":"","pricing_plan_id":"cebpf4jnsgd1na2vs0mg"},{"bike_id":"a04aca5b-0988-449d-a9cf-43ccbda2f34b","system_id":"levelo_inurba_marseille","lat":43.32,"lon":5.38149,"is_reserved":false,"is_disabled":false,"rental_uris":{"android":"levelo://app?vid=a04aca5b-0988-449d-a9cf-43ccbda2f34b","ios":"levelo://app?vid=a04aca5b-0988-449d-a9cf-43ccbda2f34b"},"vehicle_type_id":"4","last_reported":1743462552,"current_range_meters":6800,"station_id":"ce4bhr12rcd13ifvqhpg","pricing_plan_id":"cebpf4jnsgd1na2vs0mg"},{"bike_id":"aba38133-cf74-4a48-8d93-293c77f9ac46","system_id":"levelo_inurba_marseille","lat":43.30931,"lon":5.40153,"is_reserved":false,"is_disabled":false,"rental_uris":{"android":"levelo://app?vid=aba38133-cf74-4a48-8d93-293c77f9ac46","ios":"levelo://app?vid=aba38133-cf74-4a48-8d93-293c77f9ac46"},"vehicle_type_id":"4","last_reported":1743462552,"current_range_meters":6800,"station_id":"ce4bgvp2rcd13ifvqct0","pricing_plan_id":"cebpf4jnsgd1na2vs0mg"},{"bike_id":"9a2af466-2aa8-49f7-bfd5-fc815a2aa07c","system_id":"levelo_inurba_marseille","lat":43.30666,"lon":5.40085,"is_reserved":false,"is_disabled":true,"rental_uris":{"android":"levelo://app?vid=9a2af466-2aa8-49f7-bfd5-fc815a2aa07c","ios":"levelo://app?vid=9a2af466-2aa8-49f7-bfd5-fc815a2aa07c"},"vehicle_type_id":"4","last_reported":1743462552,"current_range_meters":6800,"station_id":"ce4bh112rcd13ifvqda0","pricing_plan_id":"cebpf4jnsgd1na2vs0mg"},{"bike_id":"970d4a28-2e4b-453e-912d-59e6f284b811","system_id":"levelo_inurba_marseille","lat":43.3235,"lon":5.38902,"is_reserved":false,"is_disabled":true,"rental_uris":{"android":"levelo://app?vid=970d4a28-2e4b-453e-912d-59e6f284b811","ios":"levelo://app?vid=970d4a28-2e4b-453e-912d-59e6f284b811"},"vehicle_type_id":"4","last_reported":1743462552,"current_range_meters":7200,"station_id":"ce4bhqp2rcd13ifvqhog","pricing_plan_id":"cebpf4jnsgd1na2vs0mg"},{"bike_id":"eb2cf3c0-31cf-4194-b222-00299873048c","system_id":"levelo_inurba_marseille","lat":43.28473,"lon":5.38561,"is_reserved":false,"is_disabled":false,"rental_uris":{"android":"levelo://app?vid=eb2cf3c0-31cf-4194-b222-00299873048c","ios":"levelo://app?vid=eb2cf3c0-31cf-4194-b222-00299873048c"},"vehicle_type_id":"4","last_reported":1743462552,"current_range_meters":7200,"station_id":"ce4bh8p2rcd13ifvqeb0","pricing_plan_id":"cebpf4jnsgd1na2vs0mg"},{"bike_id":"407b633a-987e-4722-b77a-993eaa06a6b7","system_id":"levelo_inurba_marseille","lat":43.315733,"lon":5.388361,"is_reserved":false,"is_disabled":false,"rental_uris":{"android":"levelo://app?vid=407b633a-987e-4722-b77a-993eaa06a6b7","ios":"levelo://app?vid=407b633a-987e-4722-b77a-993eaa06a6b7"},"vehicle_type_id":"4","last_reported":1743462552,"current_range_meters":7200,"station_id":"","pricing_plan_id":"cebpf4jnsgd1na2vs0mg"},{"bike_id":"775818d0-28d4-4c3e-be05-0d2144d65eeb","system_id":"levelo_inurba_marseille","lat":43.30889,"lon":5.37208,"is_reserved":false,"is_disabled":false,"rental_uris":{"android":"levelo://app?vid=775818d0-28d4-4c3e-be05-0d2144d65eeb","ios":"levelo://app?vid=775818d0-28d4-4c3e-be05-0d2144d65eeb"},"vehicle_type_id":"4","last_reported":1743462552,"current_range_meters":7200,"station_id":"ce4bguh2rcd13ifvqckg","pricing_plan_id":"cebpf4jnsgd1na2vs0mg"},{"bike_id":"fde0fc64-e9e3-4076-aa0c-a6ed9097029a","system_id":"levelo_inurba_marseille","lat":43.32343,"lon":5.40618,"is_reserved":false,"is_disabled":false,"rental_uris":{"android":"levelo://app?vid=fde0fc64-e9e3-4076-aa0c-a6ed9097029a","ios":"levelo://app?vid=fde0fc64-e9e3-4076-aa0c-a6ed9097029a"},"vehicle_type_id":"4","last_reported":1743462552,"current_range_meters":7200,"station_id":"ce4bhq92rcd13ifvqhjg","pricing_plan_id":"cebpf4jnsgd1na2vs0mg"},{"bike_id":"b104286b-ad75-4d03-8a4d-319e0d6523a6","system_id":"levelo_inurba_marseille","lat":43.28416,"lon":5.3753,"is_reserved":false,"is_disabled":false,"rental_uris":{"android":"levelo://app?vid=b104286b-ad75-4d03-8a4d-319e0d6523a6","ios":"levelo://app?vid=b104286b-ad75-4d03-8a4d-319e0d6523a6"},"vehicle_type_id":"4","last_reported":1743462552,"current_range_meters":7200,"station_id":"ce4bh412rcd13ifvqds0","pricing_plan_id":"cebpf4jnsgd1na2vs0mg"},{"bike_id":"3e6f399e-ea99-4bee-bf19-68240615b5e1","system_id":"levelo_inurba_marseille","lat":43.29028,"lon":5.38627,"is_reserved":false,"is_disabled":true,"rental_uris":{"android":"levelo://app?vid=3e6f399e-ea99-4bee-bf19-68240615b5e1","ios":"levelo://app?vid=3e6f399e-ea99-4bee-bf19-68240615b5e1"},"vehicle_type_id":"4","last_reported":1743462552,"current_range_meters":7200,"station_id":"ce4bh4p2rcd13ifvqe0g","pricing_plan_id":"cebpf4jnsgd1na2vs0mg"},{"bike_id":"d78f4182-89a3-4c8c-8d77-5ef713c7dd04","system_id":"levelo_inurba_marseille","lat":43.308646,"lon":5.377879,"is_reserved":false,"is_disabled":false,"rental_uris":{"android":"levelo://app?vid=d78f4182-89a3-4c8c-8d77-5ef713c7dd04","ios":"levelo://app?vid=d78f4182-89a3-4c8c-8d77-5ef713c7dd04"},"vehicle_type_id":"4","last_reported":1743462552,"current_range_meters":7200,"station_id":"","pricing_plan_id":"cebpf4jnsgd1na2vs0mg"},{"bike_id":"fe1afd43-ba0d-4cfa-be08-1e14b89f64ab","system_id":"levelo_inurba_marseille","lat":43.30441,"lon":5.39742,"is_reserved":false,"is_disabled":false,"rental_uris":{"android":"levelo://app?vid=fe1afd43-ba0d-4cfa-be08-1e14b89f64ab","ios":"levelo://app?vid=fe1afd43-ba0d-4cfa-be08-1e14b89f64ab"},"vehicle_type_id":"4","last_reported":1743462552,"current_range_meters":7200,"station_id":"ce4bh092rcd13ifvqd20","pricing_plan_id":"cebpf4jnsgd1na2vs0mg"},{"bike_id":"318d6f0c-86ac-457d-b7f6-de8d209b70bd","system_id":"levelo_inurba_marseille","lat":43.29191,"lon":5.39311,"is_reserved":false,"is_disabled":false,"rental_uris":{"android":"levelo://app?vid=318d6f0c-86ac-457d-b7f6-de8d209b70bd","ios":"levelo://app?vid=318d6f0c-86ac-457d-b7f6-de8d209b70bd"},"vehicle_type_id":"4","last_reported":1743462552,"current_range_meters":8000,"station_id":"ce4bh192rcd13ifvqdd0","pricing_plan_id":"cebpf4jnsgd1na2vs0mg"},{"bike_id":"6b7f2b11-03ac-4a0c-9fb1-71dc0bbdd506","system_id":"levelo_inurba_marseille","lat":43.32001,"lon":5.38151,"is_reserved":false,"is_disabled":false,"rental_uris":{"android":"levelo://app?vid=6b7f2b11-03ac-4a0c-9fb1-71dc0bbdd506","ios":"levelo://app?vid=6b7f2b11-03ac-4a0c-9fb1-71dc0bbdd506"},"vehicle_type_id":"4","last_reported":1743462552,"current_range_meters":8000,"station_id":"ce4bhr12rcd13ifvqhpg","pricing_plan_id":"cebpf4jnsgd1na2vs0mg"},{"bike_id":"2f5e2af1-338f-4448-ae16-13afa5dc47f0","system_id":"levelo_inurba_marseille","lat":43.3078,"lon":5.37662,"is_reserved":false,"is_disabled":false,"rental_uris":{"android":"levelo://app?vid=2f5e2af1-338f-4448-ae16-13afa5dc47f0","ios":"levelo://app?vid=2f5e2af1-338f-4448-ae16-13afa5dc47f0"},"vehicle_type_id":"4","last_reported":1743462552,"current_range_meters":8000,"station_id":"ce4bgv92rcd13ifvqcq0","pricing_plan_id":"cebpf4jnsgd1na2vs0mg"},{"bike_id":"aca0b16f-b8c7-4211-8f8e-a779668b706f","system_id":"levelo_inurba_marseille","lat":43.28412,"lon":5.37525,"is_reserved":false,"is_disabled":false,"rental_uris":{"android":"levelo://app?vid=aca0b16f-b8c7-4211-8f8e-a779668b706f","ios":"levelo://app?vid=aca0b16f-b8c7-4211-8f8e-a779668b706f"},"vehicle_type_id":"4","last_reported":1743462552,"current_range_meters":8000,"station_id":"ce4bh412rcd13ifvqds0","pricing_plan_id":"cebpf4jnsgd1na2vs0mg"},{"bike_id":"688e6748-9269-4b95-9b40-7ca08fd40822","system_id":"levelo_inurba_marseille","lat":43.30303,"lon":5.39211,"is_reserved":false,"is_disabled":false,"rental_uris":{"android":"levelo://app?vid=688e6748-9269-4b95-9b40-7ca08fd40822","ios":"levelo://app?vid=688e6748-9269-4b95-9b40-7ca08fd40822"},"vehicle_type_id":"4","last_reported":1743462552,"current_range_meters":8000,"station_id":"ce4bgkh2rcd13ifvqbk0","pricing_plan_id":"cebpf4jnsgd1na2vs0mg"},{"bike_id":"c9833ca0-4063-46bb-bc7f-ee03b697e422","system_id":"levelo_inurba_marseille","lat":43.29933,"lon":5.36543,"is_reserved":false,"is_disabled":false,"rental_uris":{"android":"levelo://app?vid=c9833ca0-4063-46bb-bc7f-ee03b697e422","ios":"levelo://app?vid=c9833ca0-4063-46bb-bc7f-ee03b697e422"},"vehicle_type_id":"4","last_reported":1743462552,"current_range_meters":8000,"station_id":"ce4bgm92rcd13ifvqbr0","pricing_plan_id":"cebpf4jnsgd1na2vs0mg"},{"bike_id":"44db82ce-b275-4e27-87d3-c219b4b05dc8","system_id":"levelo_inurba_marseille","lat":43.32101,"lon":5.36791,"is_reserved":false,"is_disabled":false,"rental_uris":{"android":"levelo://app?vid=44db82ce-b275-4e27-87d3-c219b4b05dc8","ios":"levelo://app?vid=44db82ce-b275-4e27-87d3-c219b4b05dc8"},"vehicle_type_id":"4","last_reported":1743462552,"current_range_meters":8000,"station_id":"ce4bhrh2rcd13ifvqhug","pricing_plan_id":"cebpf4jnsgd1na2vs0mg"},{"bike_id":"f50dd1be-9ee4-480d-920f-0721f0997798","system_id":"levelo_inurba_marseille","lat":43.23191,"lon":5.3997,"is_reserved":false,"is_disabled":false,"rental_uris":{"android":"levelo://app?vid=f50dd1be-9ee4-480d-920f-0721f0997798","ios":"levelo://app?vid=f50dd1be-9ee4-480d-920f-0721f0997798"},"vehicle_type_id":"4","last_reported":1743462552,"current_range_meters":8000,"station_id":"ce4bhn12rcd13ifvqgqg","pricing_plan_id":"cebpf4jnsgd1na2vs0mg"},{"bike_id":"2bf31f9f-c5c0-434c-ab3b-b017d7dc966d","system_id":"levelo_inurba_marseille","lat":43.23055,"lon":5.35489,"is_reserved":false,"is_disabled":false,"rental_uris":{"android":"levelo://app?vid=2bf31f9f-c5c0-434c-ab3b-b017d7dc966d","ios":"levelo://app?vid=2bf31f9f-c5c0-434c-ab3b-b017d7dc966d"},"vehicle_type_id":"4","last_reported":1743462552,"current_range_meters":8000,"station_id":"cpo3342slgdg3j2ifvpg","pricing_plan_id":"cebpf4jnsgd1na2vs0mg"},{"bike_id":"99d055d7-9012-4bd5-ad15-1482d25b2f4d","system_id":"levelo_inurba_marseille","lat":43.30254,"lon":5.40081,"is_reserved":false,"is_disabled":false,"rental_uris":{"android":"levelo://app?vid=99d055d7-9012-4bd5-ad15-1482d25b2f4d","ios":"levelo://app?vid=99d055d7-9012-4bd5-ad15-1482d25b2f4d"},"vehicle_type_id":"4","last_reported":1743462552,"current_range_meters":8000,"station_id":"ce4bgvh2rcd13ifvqcs0","pricing_plan_id":"cebpf4jnsgd1na2vs0mg"},{"bike_id":"3ab15c66-4d42-48a5-a0c6-9f7dd042b421","system_id":"levelo_inurba_marseille","lat":43.31725,"lon":5.42396,"is_reserved":false,"is_disabled":false,"rental_uris":{"android":"levelo://app?vid=3ab15c66-4d42-48a5-a0c6-9f7dd042b421","ios":"levelo://app?vid=3ab15c66-4d42-48a5-a0c6-9f7dd042b421"},"vehicle_type_id":"4","last_reported":1743462552,"current_range_meters":8000,"station_id":"","pricing_plan_id":"cebpf4jnsgd1na2vs0mg"},{"bike_id":"12514587-c98e-4063-aac8-25cd351ba7fd","system_id":"levelo_inurba_marseille","lat":43.30257,"lon":5.40074,"is_reserved":false,"is_disabled":false,"rental_uris":{"android":"levelo://app?vid=12514587-c98e-4063-aac8-25cd351ba7fd","ios":"levelo://app?vid=12514587-c98e-4063-aac8-25cd351ba7fd"},"vehicle_type_id":"4","last_reported":1743462552,"current_range_meters":8000,"station_id":"ce4bgvh2rcd13ifvqcs0","pricing_plan_id":"cebpf4jnsgd1na2vs0mg"},{"bike_id":"45af4554-ab6c-474c-b01a-dc6c7c1cd8fa","system_id":"levelo_inurba_marseille","lat":43.309253,"lon":5.401477,"is_reserved":false,"is_disabled":false,"rental_uris":{"android":"levelo://app?vid=45af4554-ab6c-474c-b01a-dc6c7c1cd8fa","ios":"levelo://app?vid=45af4554-ab6c-474c-b01a-dc6c7c1cd8fa"},"vehicle_type_id":"4","last_reported":1743462552,"current_range_meters":8000,"station_id":"ce4bgvp2rcd13ifvqct0","pricing_plan_id":"cebpf4jnsgd1na2vs0mg"},{"bike_id":"121010d1-d0ea-475b-97a6-f9054736109c","system_id":"levelo_inurba_marseille","lat":43.23182,"lon":5.39989,"is_reserved":false,"is_disabled":false,"rental_uris":{"android":"levelo://app?vid=121010d1-d0ea-475b-97a6-f9054736109c","ios":"levelo://app?vid=121010d1-d0ea-475b-97a6-f9054736109c"},"vehicle_type_id":"4","last_reported":1743462552,"current_range_meters":8400,"station_id":"ce4bhn12rcd13ifvqgqg","pricing_plan_id":"cebpf4jnsgd1na2vs0mg"},{"bike_id":"d2f2ddd5-8dd4-436f-ba30-fd70dfe59da3","system_id":"levelo_inurba_marseille","lat":43.32086,"lon":5.36763,"is_reserved":false,"is_disabled":false,"rental_uris":{"android":"levelo://app?vid=d2f2ddd5-8dd4-436f-ba30-fd70dfe59da3","ios":"levelo://app?vid=d2f2ddd5-8dd4-436f-ba30-fd70dfe59da3"},"vehicle_type_id":"4","last_reported":1743462552,"current_range_meters":8400,"station_id":"ce4bhrh2rcd13ifvqhug","pricing_plan_id":"cebpf4jnsgd1na2vs0mg"},{"bike_id":"49810080-90c1-49b4-921f-dc96b27343ff","system_id":"levelo_inurba_marseille","lat":43.26109,"lon":5.4147,"is_reserved":false,"is_disabled":false,"rental_uris":{"android":"levelo://app?vid=49810080-90c1-49b4-921f-dc96b27343ff","ios":"levelo://app?vid=49810080-90c1-49b4-921f-dc96b27343ff"},"vehicle_type_id":"4","last_reported":1743462552,"current_range_meters":8400,"station_id":"","pricing_plan_id":"cebpf4jnsgd1na2vs0mg"},{"bike_id":"59b3e666-7fa2-48e6-bfd8-15740fad04fc","system_id":"levelo_inurba_marseille","lat":43.30954,"lon":5.39043,"is_reserved":false,"is_disabled":false,"rental_uris":{"android":"levelo://app?vid=59b3e666-7fa2-48e6-bfd8-15740fad04fc","ios":"levelo://app?vid=59b3e666-7fa2-48e6-bfd8-15740fad04fc"},"vehicle_type_id":"4","last_reported":1743462552,"current_range_meters":8400,"station_id":"ce4bgup2rcd13ifvqco0","pricing_plan_id":"cebpf4jnsgd1na2vs0mg"},{"bike_id":"3f0d1461-cfe6-40a2-8957-3d56ad6b3a3f","system_id":"levelo_inurba_marseille","lat":43.27061,"lon":5.40251,"is_reserved":false,"is_disabled":false,"rental_uris":{"android":"levelo://app?vid=3f0d1461-cfe6-40a2-8957-3d56ad6b3a3f","ios":"levelo://app?vid=3f0d1461-cfe6-40a2-8957-3d56ad6b3a3f"},"vehicle_type_id":"4","last_reported":1743462552,"current_range_meters":8400,"station_id":"ce4bhk92rcd13ifvqgc0","pricing_plan_id":"cebpf4jnsgd1na2vs0mg"},{"bike_id":"20f5d5b6-da1b-4ad8-8de5-42887a69d068","system_id":"levelo_inurba_marseille","lat":43.290027,"lon":5.356094,"is_reserved":false,"is_disabled":true,"rental_uris":{"android":"levelo://app?vid=20f5d5b6-da1b-4ad8-8de5-42887a69d068","ios":"levelo://app?vid=20f5d5b6-da1b-4ad8-8de5-42887a69d068"},"vehicle_type_id":"4","last_reported":1743462552,"current_range_meters":8400,"station_id":"ce4bhb92rcd13ifvqen0","pricing_plan_id":"cebpf4jnsgd1na2vs0mg"},{"bike_id":"8d79ddc6-bb5a-48c1-97dc-ddda0b0b6831","system_id":"levelo_inurba_marseille","lat":43.2982,"lon":5.4039,"is_reserved":false,"is_disabled":false,"rental_uris":{"android":"levelo://app?vid=8d79ddc6-bb5a-48c1-97dc-ddda0b0b6831","ios":"levelo://app?vid=8d79ddc6-bb5a-48c1-97dc-ddda0b0b6831"},"vehicle_type_id":"4","last_reported":1743462552,"current_range_meters":8400,"station_id":"ce4bh112rcd13ifvqd90","pricing_plan_id":"cebpf4jnsgd1na2vs0mg"},{"bike_id":"6794ae83-daba-4611-956d-2c9dffa4f52f","system_id":"levelo_inurba_marseille","lat":43.30308,"lon":5.39227,"is_reserved":false,"is_disabled":false,"rental_uris":{"android":"levelo://app?vid=6794ae83-daba-4611-956d-2c9dffa4f52f","ios":"levelo://app?vid=6794ae83-daba-4611-956d-2c9dffa4f52f"},"vehicle_type_id":"4","last_reported":1743462552,"current_range_meters":8400,"station_id":"ce4bgkh2rcd13ifvqbk0","pricing_plan_id":"cebpf4jnsgd1na2vs0mg"},{"bike_id":"254cf3a8-60b2-4ed4-a216-d337b7fda730","system_id":"levelo_inurba_marseille","lat":43.32341,"lon":5.40614,"is_reserved":false,"is_disabled":false,"rental_uris":{"android":"levelo://app?vid=254cf3a8-60b2-4ed4-a216-d337b7fda730","ios":"levelo://app?vid=254cf3a8-60b2-4ed4-a216-d337b7fda730"},"vehicle_type_id":"4","last_reported":1743462552,"current_range_meters":8400,"station_id":"ce4bhq92rcd13ifvqhjg","pricing_plan_id":"cebpf4jnsgd1na2vs0mg"},{"bike_id":"d8f70170-4924-47d8-bca2-902eeb07f843","system_id":"levelo_inurba_marseille","lat":43.30952,"lon":5.39048,"is_reserved":false,"is_disabled":false,"rental_uris":{"android":"levelo://app?vid=d8f70170-4924-47d8-bca2-902eeb07f843","ios":"levelo://app?vid=d8f70170-4924-47d8-bca2-902eeb07f843"},"vehicle_type_id":"4","last_reported":1743462552,"current_range_meters":8400,"station_id":"ce4bgup2rcd13ifvqco0","pricing_plan_id":"cebpf4jnsgd1na2vs0mg"},{"bike_id":"2d3ddf82-fb7a-4286-b25a-457905416bb5","system_id":"levelo_inurba_marseille","lat":43.27868,"lon":5.39217,"is_reserved":false,"is_disabled":false,"rental_uris":{"android":"levelo://app?vid=2d3ddf82-fb7a-4286-b25a-457905416bb5","ios":"levelo://app?vid=2d3ddf82-fb7a-4286-b25a-457905416bb5"},"vehicle_type_id":"4","last_reported":1743462552,"current_range_meters":8400,"station_id":"ce4bhjp2rcd13ifvqga0","pricing_plan_id":"cebpf4jnsgd1na2vs0mg"},{"bike_id":"0f8f638f-6c59-4dfb-ab4f-882d40e453aa","system_id":"levelo_inurba_marseille","lat":43.29291,"lon":5.42781,"is_reserved":false,"is_disabled":false,"rental_uris":{"android":"levelo://app?vid=0f8f638f-6c59-4dfb-ab4f-882d40e453aa","ios":"levelo://app?vid=0f8f638f-6c59-4dfb-ab4f-882d40e453aa"},"vehicle_type_id":"4","last_reported":1743462552,"current_range_meters":8400,"station_id":"","pricing_plan_id":"cebpf4jnsgd1na2vs0mg"},{"bike_id":"24266bfd-b99e-4535-a99b-f33256eac950","system_id":"levelo_inurba_marseille","lat":43.29569,"lon":5.39972,"is_reserved":false,"is_disabled":false,"rental_uris":{"android":"levelo://app?vid=24266bfd-b99e-4535-a99b-f33256eac950","ios":"levelo://app?vid=24266bfd-b99e-4535-a99b-f33256eac950"},"vehicle_type_id":"4","last_reported":1743462552,"current_range_meters":8400,"station_id":"ce4bh312rcd13ifvqdj0","pricing_plan_id":"cebpf4jnsgd1na2vs0mg"},{"bike_id":"0dbd373c-e1ce-47d4-81d9-c5988ae94519","system_id":"levelo_inurba_marseille","lat":43.31719,"lon":5.40479,"is_reserved":false,"is_disabled":false,"rental_uris":{"android":"levelo://app?vid=0dbd373c-e1ce-47d4-81d9-c5988ae94519","ios":"levelo://app?vid=0dbd373c-e1ce-47d4-81d9-c5988ae94519"},"vehicle_type_id":"4","last_reported":1743462552,"current_range_meters":8400,"station_id":"ce4bh012rcd13ifvqd00","pricing_plan_id":"cebpf4jnsgd1na2vs0mg"},{"bike_id":"81dd399d-4106-41b7-ba18-371b943d676e","system_id":"levelo_inurba_marseille","lat":43.25108,"lon":5.40331,"is_reserved":false,"is_disabled":false,"rental_uris":{"android":"levelo://app?vid=81dd399d-4106-41b7-ba18-371b943d676e","ios":"levelo://app?vid=81dd399d-4106-41b7-ba18-371b943d676e"},"vehicle_type_id":"4","last_reported":1743462552,"current_range_meters":8400,"station_id":"ce4bhlh2rcd13ifvqgig","pricing_plan_id":"cebpf4jnsgd1na2vs0mg"},{"bike_id":"672d4500-3325-45a5-9b08-ac625495a4fb","system_id":"levelo_inurba_marseille","lat":43.28341,"lon":5.38112,"is_reserved":false,"is_disabled":true,"rental_uris":{"android":"levelo://app?vid=672d4500-3325-45a5-9b08-ac625495a4fb","ios":"levelo://app?vid=672d4500-3325-45a5-9b08-ac625495a4fb"},"vehicle_type_id":"4","last_reported":1743462552,"current_range_meters":8400,"station_id":"ce4bh412rcd13ifvqdr0","pricing_plan_id":"cebpf4jnsgd1na2vs0mg"},{"bike_id":"23a2997f-acca-44d1-a72c-cccdd94a796c","system_id":"levelo_inurba_marseille","lat":43.3094,"lon":5.40128,"is_reserved":false,"is_disabled":true,"rental_uris":{"android":"levelo://app?vid=23a2997f-acca-44d1-a72c-cccdd94a796c","ios":"levelo://app?vid=23a2997f-acca-44d1-a72c-cccdd94a796c"},"vehicle_type_id":"4","last_reported":1743462552,"current_range_meters":8800,"station_id":"ce4bgvp2rcd13ifvqct0","pricing_plan_id":"cebpf4jnsgd1na2vs0mg"},{"bike_id":"5203ccbe-ce3c-4351-a8e9-f9ee5ad38a9c","system_id":"levelo_inurba_marseille","lat":43.23194,"lon":5.39998,"is_reserved":false,"is_disabled":false,"rental_uris":{"android":"levelo://app?vid=5203ccbe-ce3c-4351-a8e9-f9ee5ad38a9c","ios":"levelo://app?vid=5203ccbe-ce3c-4351-a8e9-f9ee5ad38a9c"},"vehicle_type_id":"4","last_reported":1743462552,"current_range_meters":8800,"station_id":"ce4bhn12rcd13ifvqgqg","pricing_plan_id":"cebpf4jnsgd1na2vs0mg"},{"bike_id":"3ab314e7-e4bf-4e0b-9284-54d4788dc18e","system_id":"levelo_inurba_marseille","lat":43.29539,"lon":5.37502,"is_reserved":false,"is_disabled":false,"rental_uris":{"android":"levelo://app?vid=3ab314e7-e4bf-4e0b-9284-54d4788dc18e","ios":"levelo://app?vid=3ab314e7-e4bf-4e0b-9284-54d4788dc18e"},"vehicle_type_id":"4","last_reported":1743462552,"current_range_meters":8400,"station_id":"ce4bgkp2rcd13ifvqbmg","pricing_plan_id":"cebpf4jnsgd1na2vs0mg"},{"bike_id":"a8ee3528-3749-4b9c-a12f-543461fb364d","system_id":"levelo_inurba_marseille","lat":43.28632,"lon":5.35091,"is_reserved":false,"is_disabled":false,"rental_uris":{"android":"levelo://app?vid=a8ee3528-3749-4b9c-a12f-543461fb364d","ios":"levelo://app?vid=a8ee3528-3749-4b9c-a12f-543461fb364d"},"vehicle_type_id":"4","last_reported":1743462552,"current_range_meters":8800,"station_id":"ce4bhch2rcd13ifvqeug","pricing_plan_id":"cebpf4jnsgd1na2vs0mg"},{"bike_id":"cb92d210-dac8-4d1c-8901-d5e680e11885","system_id":"levelo_inurba_marseille","lat":43.28701,"lon":5.39996,"is_reserved":false,"is_disabled":false,"rental_uris":{"android":"levelo://app?vid=cb92d210-dac8-4d1c-8901-d5e680e11885","ios":"levelo://app?vid=cb92d210-dac8-4d1c-8901-d5e680e11885"},"vehicle_type_id":"4","last_reported":1743462552,"current_range_meters":8800,"station_id":"ce4bho92rcd13ifvqh3g","pricing_plan_id":"cebpf4jnsgd1na2vs0mg"},{"bike_id":"5aec9c6d-5a51-41a0-a4bf-50707d0bd2f1","system_id":"levelo_inurba_marseille","lat":43.289336,"lon":5.383997,"is_reserved":false,"is_disabled":false,"rental_uris":{"android":"levelo://app?vid=5aec9c6d-5a51-41a0-a4bf-50707d0bd2f1","ios":"levelo://app?vid=5aec9c6d-5a51-41a0-a4bf-50707d0bd2f1"},"vehicle_type_id":"4","last_reported":1743462552,"current_range_meters":8800,"station_id":"ce4bh612rcd13ifvqe6g","pricing_plan_id":"cebpf4jnsgd1na2vs0mg"},{"bike_id":"b8661507-47d2-4a06-962f-bb7b7b6e122c","system_id":"levelo_inurba_marseille","lat":43.29605,"lon":5.38088,"is_reserved":false,"is_disabled":false,"rental_uris":{"android":"levelo://app?vid=b8661507-47d2-4a06-962f-bb7b7b6e122c","ios":"levelo://app?vid=b8661507-47d2-4a06-962f-bb7b7b6e122c"},"vehicle_type_id":"4","last_reported":1743462552,"current_range_meters":8800,"station_id":"ce4bgl12rcd13ifvqbo0","pricing_plan_id":"cebpf4jnsgd1na2vs0mg"},{"bike_id":"2b2b6bf6-5208-4052-816b-cbb36c66fee8","system_id":"levelo_inurba_marseille","lat":43.28937,"lon":5.38408,"is_reserved":false,"is_disabled":false,"rental_uris":{"android":"levelo://app?vid=2b2b6bf6-5208-4052-816b-cbb36c66fee8","ios":"levelo://app?vid=2b2b6bf6-5208-4052-816b-cbb36c66fee8"},"vehicle_type_id":"4","last_reported":1743462552,"current_range_meters":9200,"station_id":"ce4bh612rcd13ifvqe6g","pricing_plan_id":"cebpf4jnsgd1na2vs0mg"},{"bike_id":"0e5cf204-cc2e-4385-8d19-42195cfe1d22","system_id":"levelo_inurba_marseille","lat":43.3064,"lon":5.4007,"is_reserved":false,"is_disabled":false,"rental_uris":{"android":"levelo://app?vid=0e5cf204-cc2e-4385-8d19-42195cfe1d22","ios":"levelo://app?vid=0e5cf204-cc2e-4385-8d19-42195cfe1d22"},"vehicle_type_id":"4","last_reported":1743462552,"current_range_meters":9200,"station_id":"ce4bh112rcd13ifvqda0","pricing_plan_id":"cebpf4jnsgd1na2vs0mg"},{"bike_id":"31e0dca4-6817-4d10-bbf9-bc0b60767326","system_id":"levelo_inurba_marseille","lat":43.27175,"lon":5.40995,"is_reserved":false,"is_disabled":false,"rental_uris":{"android":"levelo://app?vid=31e0dca4-6817-4d10-bbf9-bc0b60767326","ios":"levelo://app?vid=31e0dca4-6817-4d10-bbf9-bc0b60767326"},"vehicle_type_id":"4","last_reported":1743462552,"current_range_meters":9200,"station_id":"ce4bhl12rcd13ifvqgf0","pricing_plan_id":"cebpf4jnsgd1na2vs0mg"},{"bike_id":"2726bfdb-4638-4364-9f4e-00c2e4c7a44d","system_id":"levelo_inurba_marseille","lat":43.32105,"lon":5.36784,"is_reserved":false,"is_disabled":false,"rental_uris":{"android":"levelo://app?vid=2726bfdb-4638-4364-9f4e-00c2e4c7a44d","ios":"levelo://app?vid=2726bfdb-4638-4364-9f4e-00c2e4c7a44d"},"vehicle_type_id":"4","last_reported":1743462552,"current_range_meters":9200,"station_id":"ce4bhrh2rcd13ifvqhug","pricing_plan_id":"cebpf4jnsgd1na2vs0mg"},{"bike_id":"e1892c40-ae37-45d4-bf2c-99665a9e5e63","system_id":"levelo_inurba_marseille","lat":43.2293,"lon":5.3539,"is_reserved":false,"is_disabled":false,"rental_uris":{"android":"levelo://app?vid=e1892c40-ae37-45d4-bf2c-99665a9e5e63","ios":"levelo://app?vid=e1892c40-ae37-45d4-bf2c-99665a9e5e63"},"vehicle_type_id":"4","last_reported":1743462552,"current_range_meters":9200,"station_id":"cpo3532slgdg3j2ikp40","pricing_plan_id":"cebpf4jnsgd1na2vs0mg"},{"bike_id":"2de1050b-8808-4018-94c2-5f9d98630754","system_id":"levelo_inurba_marseille","lat":43.30655,"lon":5.4008,"is_reserved":false,"is_disabled":false,"rental_uris":{"android":"levelo://app?vid=2de1050b-8808-4018-94c2-5f9d98630754","ios":"levelo://app?vid=2de1050b-8808-4018-94c2-5f9d98630754"},"vehicle_type_id":"4","last_reported":1743462552,"current_range_meters":9200,"station_id":"ce4bh112rcd13ifvqda0","pricing_plan_id":"cebpf4jnsgd1na2vs0mg"},{"bike_id":"2d44d096-1d5d-4978-91de-46d1316493e8","system_id":"levelo_inurba_marseille","lat":43.2869,"lon":5.40004,"is_reserved":false,"is_disabled":false,"rental_uris":{"android":"levelo://app?vid=2d44d096-1d5d-4978-91de-46d1316493e8","ios":"levelo://app?vid=2d44d096-1d5d-4978-91de-46d1316493e8"},"vehicle_type_id":"4","last_reported":1743462552,"current_range_meters":9200,"station_id":"ce4bho92rcd13ifvqh3g","pricing_plan_id":"cebpf4jnsgd1na2vs0mg"},{"bike_id":"98116208-f0d9-448e-914d-e1f5219f8c07","system_id":"levelo_inurba_marseille","lat":43.30935,"lon":5.39108,"is_reserved":false,"is_disabled":false,"rental_uris":{"android":"levelo://app?vid=98116208-f0d9-448e-914d-e1f5219f8c07","ios":"levelo://app?vid=98116208-f0d9-448e-914d-e1f5219f8c07"},"vehicle_type_id":"4","last_reported":1743462552,"current_range_meters":9200,"station_id":"","pricing_plan_id":"cebpf4jnsgd1na2vs0mg"},{"bike_id":"98e9e043-0694-4ee2-86f8-2f735dfd7edb","system_id":"levelo_inurba_marseille","lat":43.29096,"lon":5.38188,"is_reserved":false,"is_disabled":false,"rental_uris":{"android":"levelo://app?vid=98e9e043-0694-4ee2-86f8-2f735dfd7edb","ios":"levelo://app?vid=98e9e043-0694-4ee2-86f8-2f735dfd7edb"},"vehicle_type_id":"4","last_reported":1743462552,"current_range_meters":9200,"station_id":"ce4bh512rcd13ifvqe2g","pricing_plan_id":"cebpf4jnsgd1na2vs0mg"},{"bike_id":"f40d69cc-6f50-4ceb-9b4f-f381c9b49e25","system_id":"levelo_inurba_marseille","lat":43.30953,"lon":5.40135,"is_reserved":false,"is_disabled":false,"rental_uris":{"android":"levelo://app?vid=f40d69cc-6f50-4ceb-9b4f-f381c9b49e25","ios":"levelo://app?vid=f40d69cc-6f50-4ceb-9b4f-f381c9b49e25"},"vehicle_type_id":"4","last_reported":1743462552,"current_range_meters":9200,"station_id":"ce4bgvp2rcd13ifvqct0","pricing_plan_id":"cebpf4jnsgd1na2vs0mg"},{"bike_id":"dc2ebcaf-070a-47ba-9fbc-c5c2215094b3","system_id":"levelo_inurba_marseille","lat":43.28735,"lon":5.37929,"is_reserved":false,"is_disabled":false,"rental_uris":{"android":"levelo://app?vid=dc2ebcaf-070a-47ba-9fbc-c5c2215094b3","ios":"levelo://app?vid=dc2ebcaf-070a-47ba-9fbc-c5c2215094b3"},"vehicle_type_id":"4","last_reported":1743462552,"current_range_meters":9200,"station_id":"ce4bh9p2rcd13ifvqec0","pricing_plan_id":"cebpf4jnsgd1na2vs0mg"},{"bike_id":"668c01cb-7bea-48c9-8f15-6bcc0c19c832","system_id":"levelo_inurba_marseille","lat":43.26217,"lon":5.37924,"is_reserved":false,"is_disabled":true,"rental_uris":{"android":"levelo://app?vid=668c01cb-7bea-48c9-8f15-6bcc0c19c832","ios":"levelo://app?vid=668c01cb-7bea-48c9-8f15-6bcc0c19c832"},"vehicle_type_id":"4","last_reported":1743462552,"current_range_meters":9600,"station_id":"ce4bhjp2rcd13ifvqg90","pricing_plan_id":"cebpf4jnsgd1na2vs0mg"},{"bike_id":"de103d50-bc8d-4d45-9b12-9997f6b9381f","system_id":"levelo_inurba_marseille","lat":43.30644,"lon":5.40088,"is_reserved":false,"is_disabled":false,"rental_uris":{"android":"levelo://app?vid=de103d50-bc8d-4d45-9b12-9997f6b9381f","ios":"levelo://app?vid=de103d50-bc8d-4d45-9b12-9997f6b9381f"},"vehicle_type_id":"4","last_reported":1743462552,"current_range_meters":9600,"station_id":"ce4bh112rcd13ifvqda0","pricing_plan_id":"cebpf4jnsgd1na2vs0mg"},{"bike_id":"0853aa8e-072a-490b-8bfe-d1d8487ceaa2","system_id":"levelo_inurba_marseille","lat":43.31117,"lon":5.3776,"is_reserved":false,"is_disabled":false,"rental_uris":{"android":"levelo://app?vid=0853aa8e-072a-490b-8bfe-d1d8487ceaa2","ios":"levelo://app?vid=0853aa8e-072a-490b-8bfe-d1d8487ceaa2"},"vehicle_type_id":"4","last_reported":1743462552,"current_range_meters":9600,"station_id":"ce4bgt92rcd13ifvqcg0","pricing_plan_id":"cebpf4jnsgd1na2vs0mg"},{"bike_id":"22cdc40d-189c-487e-af1b-7619d9d52c4e","system_id":"levelo_inurba_marseille","lat":43.29625,"lon":5.40601,"is_reserved":false,"is_disabled":false,"rental_uris":{"android":"levelo://app?vid=22cdc40d-189c-487e-af1b-7619d9d52c4e","ios":"levelo://app?vid=22cdc40d-189c-487e-af1b-7619d9d52c4e"},"vehicle_type_id":"4","last_reported":1743462552,"current_range_meters":9600,"station_id":"ce4bh0h2rcd13ifvqd60","pricing_plan_id":"cebpf4jnsgd1na2vs0mg"},{"bike_id":"397156ba-a229-438d-859c-42be5a8ad922","system_id":"levelo_inurba_marseille","lat":43.246567,"lon":5.38174,"is_reserved":false,"is_disabled":false,"rental_uris":{"android":"levelo://app?vid=397156ba-a229-438d-859c-42be5a8ad922","ios":"levelo://app?vid=397156ba-a229-438d-859c-42be5a8ad922"},"vehicle_type_id":"4","last_reported":1743462552,"current_range_meters":9600,"station_id":"ce4bhih2rcd13ifvqfr0","pricing_plan_id":"cebpf4jnsgd1na2vs0mg"},{"bike_id":"722b18b3-c8a7-4fa7-88f6-bead613f090f","system_id":"levelo_inurba_marseille","lat":43.322805,"lon":5.383099,"is_reserved":false,"is_disabled":false,"rental_uris":{"android":"levelo://app?vid=722b18b3-c8a7-4fa7-88f6-bead613f090f","ios":"levelo://app?vid=722b18b3-c8a7-4fa7-88f6-bead613f090f"},"vehicle_type_id":"4","last_reported":1743462552,"current_range_meters":9600,"station_id":"ce4bhr12rcd13ifvqhqg","pricing_plan_id":"cebpf4jnsgd1na2vs0mg"},{"bike_id":"a30dcd82-9ac1-4bb5-8f9d-4fcbc81af0b8","system_id":"levelo_inurba_marseille","lat":43.284878,"lon":5.385465,"is_reserved":false,"is_disabled":false,"rental_uris":{"android":"levelo://app?vid=a30dcd82-9ac1-4bb5-8f9d-4fcbc81af0b8","ios":"levelo://app?vid=a30dcd82-9ac1-4bb5-8f9d-4fcbc81af0b8"},"vehicle_type_id":"4","last_reported":1743462552,"current_range_meters":9600,"station_id":"ce4bh8p2rcd13ifvqeb0","pricing_plan_id":"cebpf4jnsgd1na2vs0mg"},{"bike_id":"70b1412a-5466-45ee-b0f6-f4bf77f2d89c","system_id":"levelo_inurba_marseille","lat":43.32017,"lon":5.3817,"is_reserved":false,"is_disabled":false,"rental_uris":{"android":"levelo://app?vid=70b1412a-5466-45ee-b0f6-f4bf77f2d89c","ios":"levelo://app?vid=70b1412a-5466-45ee-b0f6-f4bf77f2d89c"},"vehicle_type_id":"4","last_reported":1743462552,"current_range_meters":9600,"station_id":"ce4bhr12rcd13ifvqhpg","pricing_plan_id":"cebpf4jnsgd1na2vs0mg"},{"bike_id":"fe1bccc7-3458-42e9-a74c-85dbbae754c6","system_id":"levelo_inurba_marseille","lat":43.27194,"lon":5.40977,"is_reserved":false,"is_disabled":false,"rental_uris":{"android":"levelo://app?vid=fe1bccc7-3458-42e9-a74c-85dbbae754c6","ios":"levelo://app?vid=fe1bccc7-3458-42e9-a74c-85dbbae754c6"},"vehicle_type_id":"4","last_reported":1743462552,"current_range_meters":9600,"station_id":"ce4bhl12rcd13ifvqgf0","pricing_plan_id":"cebpf4jnsgd1na2vs0mg"},{"bike_id":"63c65619-9d19-4821-af6e-c6107244ae19","system_id":"levelo_inurba_marseille","lat":43.31995,"lon":5.38143,"is_reserved":false,"is_disabled":false,"rental_uris":{"android":"levelo://app?vid=63c65619-9d19-4821-af6e-c6107244ae19","ios":"levelo://app?vid=63c65619-9d19-4821-af6e-c6107244ae19"},"vehicle_type_id":"4","last_reported":1743462552,"current_range_meters":9600,"station_id":"ce4bhr12rcd13ifvqhpg","pricing_plan_id":"cebpf4jnsgd1na2vs0mg"},{"bike_id":"60f3c81c-d1a3-4b58-98c9-504f8a0ffc50","system_id":"levelo_inurba_marseille","lat":43.29784,"lon":5.39359,"is_reserved":false,"is_disabled":false,"rental_uris":{"android":"levelo://app?vid=60f3c81c-d1a3-4b58-98c9-504f8a0ffc50","ios":"levelo://app?vid=60f3c81c-d1a3-4b58-98c9-504f8a0ffc50"},"vehicle_type_id":"4","last_reported":1743462552,"current_range_meters":9600,"station_id":"chh1huq6cuj3fo74tm60","pricing_plan_id":"cebpf4jnsgd1na2vs0mg"},{"bike_id":"3f1fe141-9337-41c0-9139-0555bfd1ba33","system_id":"levelo_inurba_marseille","lat":43.27056,"lon":5.40268,"is_reserved":false,"is_disabled":false,"rental_uris":{"android":"levelo://app?vid=3f1fe141-9337-41c0-9139-0555bfd1ba33","ios":"levelo://app?vid=3f1fe141-9337-41c0-9139-0555bfd1ba33"},"vehicle_type_id":"4","last_reported":1743462552,"current_range_meters":10000,"station_id":"ce4bhk92rcd13ifvqgc0","pricing_plan_id":"cebpf4jnsgd1na2vs0mg"},{"bike_id":"e05eadd8-8b4e-4e63-87fd-b6c49a0a374a","system_id":"levelo_inurba_marseille","lat":43.30661,"lon":5.40078,"is_reserved":false,"is_disabled":false,"rental_uris":{"android":"levelo://app?vid=e05eadd8-8b4e-4e63-87fd-b6c49a0a374a","ios":"levelo://app?vid=e05eadd8-8b4e-4e63-87fd-b6c49a0a374a"},"vehicle_type_id":"4","last_reported":1743462552,"current_range_meters":10000,"station_id":"ce4bh112rcd13ifvqda0","pricing_plan_id":"cebpf4jnsgd1na2vs0mg"},{"bike_id":"2e457e3d-fe13-42b1-b80f-5d6c116678d1","system_id":"levelo_inurba_marseille","lat":43.25085,"lon":5.39517,"is_reserved":false,"is_disabled":false,"rental_uris":{"android":"levelo://app?vid=2e457e3d-fe13-42b1-b80f-5d6c116678d1","ios":"levelo://app?vid=2e457e3d-fe13-42b1-b80f-5d6c116678d1"},"vehicle_type_id":"4","last_reported":1743462552,"current_range_meters":10000,"station_id":"ce4bhm12rcd13ifvqgkg","pricing_plan_id":"cebpf4jnsgd1na2vs0mg"},{"bike_id":"384b6dc4-816b-4240-a4a9-53e77134aeab","system_id":"levelo_inurba_marseille","lat":43.31309,"lon":5.39726,"is_reserved":false,"is_disabled":false,"rental_uris":{"android":"levelo://app?vid=384b6dc4-816b-4240-a4a9-53e77134aeab","ios":"levelo://app?vid=384b6dc4-816b-4240-a4a9-53e77134aeab"},"vehicle_type_id":"4","last_reported":1743462552,"current_range_meters":10000,"station_id":"ce4bgvp2rcd13ifvqcu0","pricing_plan_id":"cebpf4jnsgd1na2vs0mg"},{"bike_id":"f7249966-2e0f-4bcd-abc8-0c337d0533fb","system_id":"levelo_inurba_marseille","lat":43.2903,"lon":5.38656,"is_reserved":false,"is_disabled":false,"rental_uris":{"android":"levelo://app?vid=f7249966-2e0f-4bcd-abc8-0c337d0533fb","ios":"levelo://app?vid=f7249966-2e0f-4bcd-abc8-0c337d0533fb"},"vehicle_type_id":"4","last_reported":1743462552,"current_range_meters":10000,"station_id":"ce4bh4p2rcd13ifvqe0g","pricing_plan_id":"cebpf4jnsgd1na2vs0mg"},{"bike_id":"6a39c09e-727f-470e-a3f3-1703ebd7cbd2","system_id":"levelo_inurba_marseille","lat":43.31158,"lon":5.38718,"is_reserved":false,"is_disabled":false,"rental_uris":{"android":"levelo://app?vid=6a39c09e-727f-470e-a3f3-1703ebd7cbd2","ios":"levelo://app?vid=6a39c09e-727f-470e-a3f3-1703ebd7cbd2"},"vehicle_type_id":"4","last_reported":1743462552,"current_range_meters":10000,"station_id":"ce4bgv12rcd13ifvqcp0","pricing_plan_id":"cebpf4jnsgd1na2vs0mg"},{"bike_id":"a52886ef-e99c-46a0-bac7-a6dde5da8cba","system_id":"levelo_inurba_marseille","lat":43.30845,"lon":5.37239,"is_reserved":false,"is_disabled":false,"rental_uris":{"android":"levelo://app?vid=a52886ef-e99c-46a0-bac7-a6dde5da8cba","ios":"levelo://app?vid=a52886ef-e99c-46a0-bac7-a6dde5da8cba"},"vehicle_type_id":"4","last_reported":1743462552,"current_range_meters":10000,"station_id":"","pricing_plan_id":"cebpf4jnsgd1na2vs0mg"},{"bike_id":"32786654-e0a5-4ead-8bb5-f56016b6a3a0","system_id":"levelo_inurba_marseille","lat":43.26061,"lon":5.39375,"is_reserved":false,"is_disabled":false,"rental_uris":{"android":"levelo://app?vid=32786654-e0a5-4ead-8bb5-f56016b6a3a0","ios":"levelo://app?vid=32786654-e0a5-4ead-8bb5-f56016b6a3a0"},"vehicle_type_id":"4","last_reported":1743462552,"current_range_meters":10000,"station_id":"ce4bhh92rcd13ifvqfj0","pricing_plan_id":"cebpf4jnsgd1na2vs0mg"},{"bike_id":"75eb16ac-b755-478d-bfb5-2e22abc751f6","system_id":"levelo_inurba_marseille","lat":43.2963,"lon":5.37169,"is_reserved":false,"is_disabled":true,"rental_uris":{"android":"levelo://app?vid=75eb16ac-b755-478d-bfb5-2e22abc751f6","ios":"levelo://app?vid=75eb16ac-b755-478d-bfb5-2e22abc751f6"},"vehicle_type_id":"4","last_reported":1743462552,"current_range_meters":9600,"station_id":"ce4bgnh2rcd13ifvqc0g","pricing_plan_id":"cebpf4jnsgd1na2vs0mg"},{"bike_id":"89f14a2e-f909-46bf-89b6-d2ed50054f92","system_id":"levelo_inurba_marseille","lat":43.30885,"lon":5.39632,"is_reserved":false,"is_disabled":false,"rental_uris":{"android":"levelo://app?vid=89f14a2e-f909-46bf-89b6-d2ed50054f92","ios":"levelo://app?vid=89f14a2e-f909-46bf-89b6-d2ed50054f92"},"vehicle_type_id":"4","last_reported":1743462552,"current_range_meters":10000,"station_id":"ce4bh012rcd13ifvqcv0","pricing_plan_id":"cebpf4jnsgd1na2vs0mg"},{"bike_id":"86e7c5d2-239a-43b2-919b-3596cc9c3410","system_id":"levelo_inurba_marseille","lat":43.30677,"lon":5.40077,"is_reserved":false,"is_disabled":false,"rental_uris":{"android":"levelo://app?vid=86e7c5d2-239a-43b2-919b-3596cc9c3410","ios":"levelo://app?vid=86e7c5d2-239a-43b2-919b-3596cc9c3410"},"vehicle_type_id":"4","last_reported":1743462552,"current_range_meters":10000,"station_id":"ce4bh112rcd13ifvqda0","pricing_plan_id":"cebpf4jnsgd1na2vs0mg"},{"bike_id":"27b37e08-22ae-4043-9a13-a7f5dbc7b6a4","system_id":"levelo_inurba_marseille","lat":43.287167,"lon":5.379439,"is_reserved":false,"is_disabled":false,"rental_uris":{"android":"levelo://app?vid=27b37e08-22ae-4043-9a13-a7f5dbc7b6a4","ios":"levelo://app?vid=27b37e08-22ae-4043-9a13-a7f5dbc7b6a4"},"vehicle_type_id":"4","last_reported":1743462552,"current_range_meters":10000,"station_id":"ce4bh9p2rcd13ifvqec0","pricing_plan_id":"cebpf4jnsgd1na2vs0mg"},{"bike_id":"42f1f9f3-ea4c-491b-8788-c0c28b0e842b","system_id":"levelo_inurba_marseille","lat":43.28353,"lon":5.38105,"is_reserved":false,"is_disabled":false,"rental_uris":{"android":"levelo://app?vid=42f1f9f3-ea4c-491b-8788-c0c28b0e842b","ios":"levelo://app?vid=42f1f9f3-ea4c-491b-8788-c0c28b0e842b"},"vehicle_type_id":"4","last_reported":1743462552,"current_range_meters":10000,"station_id":"ce4bh412rcd13ifvqdr0","pricing_plan_id":"cebpf4jnsgd1na2vs0mg"},{"bike_id":"cb00972d-76f4-47c1-9d22-8e09d6a767a7","system_id":"levelo_inurba_marseille","lat":43.29258,"lon":5.40901,"is_reserved":false,"is_disabled":false,"rental_uris":{"android":"levelo://app?vid=cb00972d-76f4-47c1-9d22-8e09d6a767a7","ios":"levelo://app?vid=cb00972d-76f4-47c1-9d22-8e09d6a767a7"},"vehicle_type_id":"4","last_reported":1743462552,"current_range_meters":9600,"station_id":"ce4bh192rcd13ifvqdc0","pricing_plan_id":"cebpf4jnsgd1na2vs0mg"},{"bike_id":"52cd09a3-04ad-4d13-ace6-73de63efe0a4","system_id":"levelo_inurba_marseille","lat":43.288367,"lon":5.39338,"is_reserved":false,"is_disabled":false,"rental_uris":{"android":"levelo://app?vid=52cd09a3-04ad-4d13-ace6-73de63efe0a4","ios":"levelo://app?vid=52cd09a3-04ad-4d13-ace6-73de63efe0a4"},"vehicle_type_id":"4","last_reported":1743462552,"current_range_meters":10000,"station_id":"ce4bh2p2rcd13ifvqdi0","pricing_plan_id":"cebpf4jnsgd1na2vs0mg"},{"bike_id":"241d62a7-84d0-4eb8-ab17-fd67306a391c","system_id":"levelo_inurba_marseille","lat":43.30953,"lon":5.39044,"is_reserved":false,"is_disabled":false,"rental_uris":{"android":"levelo://app?vid=241d62a7-84d0-4eb8-ab17-fd67306a391c","ios":"levelo://app?vid=241d62a7-84d0-4eb8-ab17-fd67306a391c"},"vehicle_type_id":"4","last_reported":1743462552,"current_range_meters":10800,"station_id":"ce4bgup2rcd13ifvqco0","pricing_plan_id":"cebpf4jnsgd1na2vs0mg"},{"bike_id":"a084075d-c0a8-4d64-81bf-469ecf6ea4a5","system_id":"levelo_inurba_marseille","lat":43.30434,"lon":5.38887,"is_reserved":false,"is_disabled":false,"rental_uris":{"android":"levelo://app?vid=a084075d-c0a8-4d64-81bf-469ecf6ea4a5","ios":"levelo://app?vid=a084075d-c0a8-4d64-81bf-469ecf6ea4a5"},"vehicle_type_id":"4","last_reported":1743462552,"current_range_meters":10800,"station_id":"ce4bgk12rcd13ifvqbi0","pricing_plan_id":"cebpf4jnsgd1na2vs0mg"},{"bike_id":"5e428940-6766-4832-b323-293da8b49cf1","system_id":"levelo_inurba_marseille","lat":43.28703,"lon":5.3999,"is_reserved":false,"is_disabled":false,"rental_uris":{"android":"levelo://app?vid=5e428940-6766-4832-b323-293da8b49cf1","ios":"levelo://app?vid=5e428940-6766-4832-b323-293da8b49cf1"},"vehicle_type_id":"4","last_reported":1743462552,"current_range_meters":10800,"station_id":"ce4bho92rcd13ifvqh3g","pricing_plan_id":"cebpf4jnsgd1na2vs0mg"},{"bike_id":"5ca081d7-239a-4dca-849c-1114f0d7a43d","system_id":"levelo_inurba_marseille","lat":43.28117,"lon":5.37812,"is_reserved":false,"is_disabled":false,"rental_uris":{"android":"levelo://app?vid=5ca081d7-239a-4dca-849c-1114f0d7a43d","ios":"levelo://app?vid=5ca081d7-239a-4dca-849c-1114f0d7a43d"},"vehicle_type_id":"4","last_reported":1743462552,"current_range_meters":10800,"station_id":"ce4bha12rcd13ifvqee0","pricing_plan_id":"cebpf4jnsgd1na2vs0mg"},{"bike_id":"bc2731c5-d1f1-4f43-bf16-ed3324b6f121","system_id":"levelo_inurba_marseille","lat":43.27968,"lon":5.41055,"is_reserved":false,"is_disabled":true,"rental_uris":{"android":"levelo://app?vid=bc2731c5-d1f1-4f43-bf16-ed3324b6f121","ios":"levelo://app?vid=bc2731c5-d1f1-4f43-bf16-ed3324b6f121"},"vehicle_type_id":"4","last_reported":1743462552,"current_range_meters":10800,"station_id":"ce4bhnp2rcd13ifvqh0g","pricing_plan_id":"cebpf4jnsgd1na2vs0mg"},{"bike_id":"e17a58a5-51bf-4851-bfb1-af43aba1efb7","system_id":"levelo_inurba_marseille","lat":43.30441,"lon":5.3889,"is_reserved":false,"is_disabled":false,"rental_uris":{"android":"levelo://app?vid=e17a58a5-51bf-4851-bfb1-af43aba1efb7","ios":"levelo://app?vid=e17a58a5-51bf-4851-bfb1-af43aba1efb7"},"vehicle_type_id":"4","last_reported":1743462552,"current_range_meters":10800,"station_id":"ce4bgk12rcd13ifvqbi0","pricing_plan_id":"cebpf4jnsgd1na2vs0mg"},{"bike_id":"5e3e154d-81f7-454f-823c-b78370a0c23d","system_id":"levelo_inurba_marseille","lat":43.28843,"lon":5.39336,"is_reserved":false,"is_disabled":false,"rental_uris":{"android":"levelo://app?vid=5e3e154d-81f7-454f-823c-b78370a0c23d","ios":"levelo://app?vid=5e3e154d-81f7-454f-823c-b78370a0c23d"},"vehicle_type_id":"4","last_reported":1743462552,"current_range_meters":10800,"station_id":"ce4bh2p2rcd13ifvqdi0","pricing_plan_id":"cebpf4jnsgd1na2vs0mg"},{"bike_id":"92965aee-9710-4f32-a1eb-71f668b078b0","system_id":"levelo_inurba_marseille","lat":43.28085,"lon":5.39658,"is_reserved":false,"is_disabled":false,"rental_uris":{"android":"levelo://app?vid=92965aee-9710-4f32-a1eb-71f668b078b0","ios":"levelo://app?vid=92965aee-9710-4f32-a1eb-71f668b078b0"},"vehicle_type_id":"4","last_reported":1743462552,"current_range_meters":10800,"station_id":"ce4bho12rcd13ifvqh2g","pricing_plan_id":"cebpf4jnsgd1na2vs0mg"},{"bike_id":"8c8d3d0e-ed82-4216-8b97-0a440989315a","system_id":"levelo_inurba_marseille","lat":43.251167,"lon":5.403335,"is_reserved":false,"is_disabled":false,"rental_uris":{"android":"levelo://app?vid=8c8d3d0e-ed82-4216-8b97-0a440989315a","ios":"levelo://app?vid=8c8d3d0e-ed82-4216-8b97-0a440989315a"},"vehicle_type_id":"4","last_reported":1743462552,"current_range_meters":10800,"station_id":"ce4bhlh2rcd13ifvqgig","pricing_plan_id":"cebpf4jnsgd1na2vs0mg"},{"bike_id":"815910d3-cdb3-46ab-98fc-2d2728e873cd","system_id":"levelo_inurba_marseille","lat":43.28703,"lon":5.399937,"is_reserved":false,"is_disabled":false,"rental_uris":{"android":"levelo://app?vid=815910d3-cdb3-46ab-98fc-2d2728e873cd","ios":"levelo://app?vid=815910d3-cdb3-46ab-98fc-2d2728e873cd"},"vehicle_type_id":"4","last_reported":1743462552,"current_range_meters":10800,"station_id":"ce4bho92rcd13ifvqh3g","pricing_plan_id":"cebpf4jnsgd1na2vs0mg"},{"bike_id":"737a212c-a001-4149-9302-90fc94e69abc","system_id":"levelo_inurba_marseille","lat":43.285,"lon":5.38562,"is_reserved":false,"is_disabled":false,"rental_uris":{"android":"levelo://app?vid=737a212c-a001-4149-9302-90fc94e69abc","ios":"levelo://app?vid=737a212c-a001-4149-9302-90fc94e69abc"},"vehicle_type_id":"4","last_reported":1743462552,"current_range_meters":11200,"station_id":"ce4bh8p2rcd13ifvqeb0","pricing_plan_id":"cebpf4jnsgd1na2vs0mg"},{"bike_id":"09500f20-ee1d-4932-abbf-188a230c5b27","system_id":"levelo_inurba_marseille","lat":43.25119,"lon":5.40334,"is_reserved":false,"is_disabled":false,"rental_uris":{"android":"levelo://app?vid=09500f20-ee1d-4932-abbf-188a230c5b27","ios":"levelo://app?vid=09500f20-ee1d-4932-abbf-188a230c5b27"},"vehicle_type_id":"4","last_reported":1743462552,"current_range_meters":11200,"station_id":"ce4bhlh2rcd13ifvqgig","pricing_plan_id":"cebpf4jnsgd1na2vs0mg"},{"bike_id":"2286499e-afb3-42f0-be29-239621d5e7b7","system_id":"levelo_inurba_marseille","lat":43.24168,"lon":5.39691,"is_reserved":false,"is_disabled":false,"rental_uris":{"android":"levelo://app?vid=2286499e-afb3-42f0-be29-239621d5e7b7","ios":"levelo://app?vid=2286499e-afb3-42f0-be29-239621d5e7b7"},"vehicle_type_id":"4","last_reported":1743462552,"current_range_meters":11200,"station_id":"ce4bhn12rcd13ifvqgpg","pricing_plan_id":"cebpf4jnsgd1na2vs0mg"},{"bike_id":"dc297725-0296-4ce0-9507-f76decf87853","system_id":"levelo_inurba_marseille","lat":43.29279,"lon":5.368407,"is_reserved":false,"is_disabled":false,"rental_uris":{"android":"levelo://app?vid=dc297725-0296-4ce0-9507-f76decf87853","ios":"levelo://app?vid=dc297725-0296-4ce0-9507-f76decf87853"},"vehicle_type_id":"4","last_reported":1743462552,"current_range_meters":11200,"station_id":"ce4bhbp2rcd13ifvqesg","pricing_plan_id":"cebpf4jnsgd1na2vs0mg"},{"bike_id":"5cc440f5-ef99-4d00-a21f-c27a02158329","system_id":"levelo_inurba_marseille","lat":43.27905,"lon":5.38013,"is_reserved":false,"is_disabled":false,"rental_uris":{"android":"levelo://app?vid=5cc440f5-ef99-4d00-a21f-c27a02158329","ios":"levelo://app?vid=5cc440f5-ef99-4d00-a21f-c27a02158329"},"vehicle_type_id":"4","last_reported":1743462552,"current_range_meters":11200,"station_id":"ce4bhf92rcd13ifvqf50","pricing_plan_id":"cebpf4jnsgd1na2vs0mg"},{"bike_id":"c5f908d3-4610-4cae-8aeb-e89ca0e64cc1","system_id":"levelo_inurba_marseille","lat":43.33605,"lon":5.41026,"is_reserved":false,"is_disabled":false,"rental_uris":{"android":"levelo://app?vid=c5f908d3-4610-4cae-8aeb-e89ca0e64cc1","ios":"levelo://app?vid=c5f908d3-4610-4cae-8aeb-e89ca0e64cc1"},"vehicle_type_id":"4","last_reported":1743462552,"current_range_meters":11200,"station_id":"ce4bhqh2rcd13ifvqhmg","pricing_plan_id":"cebpf4jnsgd1na2vs0mg"},{"bike_id":"af85c2a4-0c98-452d-aad1-94c6ca70939c","system_id":"levelo_inurba_marseille","lat":43.288522,"lon":5.393244,"is_reserved":false,"is_disabled":false,"rental_uris":{"android":"levelo://app?vid=af85c2a4-0c98-452d-aad1-94c6ca70939c","ios":"levelo://app?vid=af85c2a4-0c98-452d-aad1-94c6ca70939c"},"vehicle_type_id":"4","last_reported":1743462552,"current_range_meters":11200,"station_id":"ce4bh2p2rcd13ifvqdi0","pricing_plan_id":"cebpf4jnsgd1na2vs0mg"},{"bike_id":"c9bd637b-43ac-4a64-968e-26036745ac7f","system_id":"levelo_inurba_marseille","lat":43.29793,"lon":5.39352,"is_reserved":false,"is_disabled":false,"rental_uris":{"android":"levelo://app?vid=c9bd637b-43ac-4a64-968e-26036745ac7f","ios":"levelo://app?vid=c9bd637b-43ac-4a64-968e-26036745ac7f"},"vehicle_type_id":"4","last_reported":1743462552,"current_range_meters":11200,"station_id":"chh1huq6cuj3fo74tm60","pricing_plan_id":"cebpf4jnsgd1na2vs0mg"},{"bike_id":"87304c8a-53f6-45f9-98cc-415e4d7a95a5","system_id":"levelo_inurba_marseille","lat":43.23166,"lon":5.39991,"is_reserved":false,"is_disabled":false,"rental_uris":{"android":"levelo://app?vid=87304c8a-53f6-45f9-98cc-415e4d7a95a5","ios":"levelo://app?vid=87304c8a-53f6-45f9-98cc-415e4d7a95a5"},"vehicle_type_id":"4","last_reported":1743462552,"current_range_meters":11200,"station_id":"ce4bhn12rcd13ifvqgqg","pricing_plan_id":"cebpf4jnsgd1na2vs0mg"},{"bike_id":"7a894edd-a4a4-40de-8b70-ca9fb3d5e3fd","system_id":"levelo_inurba_marseille","lat":43.31095,"lon":5.4244,"is_reserved":false,"is_disabled":false,"rental_uris":{"android":"levelo://app?vid=7a894edd-a4a4-40de-8b70-ca9fb3d5e3fd","ios":"levelo://app?vid=7a894edd-a4a4-40de-8b70-ca9fb3d5e3fd"},"vehicle_type_id":"4","last_reported":1743462552,"current_range_meters":11600,"station_id":"ce4bhp92rcd13ifvqhag","pricing_plan_id":"cebpf4jnsgd1na2vs0mg"},{"bike_id":"99d86cd7-48d6-44e2-aeb6-7e4526af1ce0","system_id":"levelo_inurba_marseille","lat":43.246701,"lon":5.381634,"is_reserved":false,"is_disabled":false,"rental_uris":{"android":"levelo://app?vid=99d86cd7-48d6-44e2-aeb6-7e4526af1ce0","ios":"levelo://app?vid=99d86cd7-48d6-44e2-aeb6-7e4526af1ce0"},"vehicle_type_id":"4","last_reported":1743462552,"current_range_meters":11600,"station_id":"ce4bhih2rcd13ifvqfr0","pricing_plan_id":"cebpf4jnsgd1na2vs0mg"},{"bike_id":"7fd0bb1f-c1e0-43c4-9968-70acce305c52","system_id":"levelo_inurba_marseille","lat":43.28942,"lon":5.36637,"is_reserved":false,"is_disabled":false,"rental_uris":{"android":"levelo://app?vid=7fd0bb1f-c1e0-43c4-9968-70acce305c52","ios":"levelo://app?vid=7fd0bb1f-c1e0-43c4-9968-70acce305c52"},"vehicle_type_id":"4","last_reported":1743462552,"current_range_meters":11600,"station_id":"ce4bhap2rcd13ifvqek0","pricing_plan_id":"cebpf4jnsgd1na2vs0mg"},{"bike_id":"998efeee-6a11-4da2-b1ff-a541c84e18f4","system_id":"levelo_inurba_marseille","lat":43.29635,"lon":5.40599,"is_reserved":false,"is_disabled":false,"rental_uris":{"android":"levelo://app?vid=998efeee-6a11-4da2-b1ff-a541c84e18f4","ios":"levelo://app?vid=998efeee-6a11-4da2-b1ff-a541c84e18f4"},"vehicle_type_id":"4","last_reported":1743462552,"current_range_meters":12000,"station_id":"ce4bgj92rcd13ifvqbd0","pricing_plan_id":"cebpf4jnsgd1na2vs0mg"},{"bike_id":"e8a75bd9-f259-49f6-979a-26dd47f7e629","system_id":"levelo_inurba_marseille","lat":43.30138,"lon":5.39858,"is_reserved":false,"is_disabled":false,"rental_uris":{"android":"levelo://app?vid=e8a75bd9-f259-49f6-979a-26dd47f7e629","ios":"levelo://app?vid=e8a75bd9-f259-49f6-979a-26dd47f7e629"},"vehicle_type_id":"4","last_reported":1743462552,"current_range_meters":12000,"station_id":"ce4bh0h2rcd13ifvqd40","pricing_plan_id":"cebpf4jnsgd1na2vs0mg"},{"bike_id":"c38cccd4-7aa8-45e2-b7ef-b935585b49f9","system_id":"levelo_inurba_marseille","lat":43.30896,"lon":5.372,"is_reserved":false,"is_disabled":false,"rental_uris":{"android":"levelo://app?vid=c38cccd4-7aa8-45e2-b7ef-b935585b49f9","ios":"levelo://app?vid=c38cccd4-7aa8-45e2-b7ef-b935585b49f9"},"vehicle_type_id":"4","last_reported":1743462552,"current_range_meters":12000,"station_id":"ce4bguh2rcd13ifvqckg","pricing_plan_id":"cebpf4jnsgd1na2vs0mg"},{"bike_id":"c2d4e0b5-ceb1-4ab0-a7d9-4352ad8ca6db","system_id":"levelo_inurba_marseille","lat":43.290277,"lon":5.386483,"is_reserved":false,"is_disabled":false,"rental_uris":{"android":"levelo://app?vid=c2d4e0b5-ceb1-4ab0-a7d9-4352ad8ca6db","ios":"levelo://app?vid=c2d4e0b5-ceb1-4ab0-a7d9-4352ad8ca6db"},"vehicle_type_id":"4","last_reported":1743462552,"current_range_meters":12000,"station_id":"ce4bh4p2rcd13ifvqe0g","pricing_plan_id":"cebpf4jnsgd1na2vs0mg"},{"bike_id":"27832434-6d21-4d70-ae5e-4b04a84e0b7c","system_id":"levelo_inurba_marseille","lat":43.27195,"lon":5.40982,"is_reserved":false,"is_disabled":false,"rental_uris":{"android":"levelo://app?vid=27832434-6d21-4d70-ae5e-4b04a84e0b7c","ios":"levelo://app?vid=27832434-6d21-4d70-ae5e-4b04a84e0b7c"},"vehicle_type_id":"4","last_reported":1743462552,"current_range_meters":12000,"station_id":"ce4bhl12rcd13ifvqgf0","pricing_plan_id":"cebpf4jnsgd1na2vs0mg"},{"bike_id":"b663fca8-ee5e-4400-aee7-4ccc4565ac4a","system_id":"levelo_inurba_marseille","lat":43.24544,"lon":5.39524,"is_reserved":false,"is_disabled":false,"rental_uris":{"android":"levelo://app?vid=b663fca8-ee5e-4400-aee7-4ccc4565ac4a","ios":"levelo://app?vid=b663fca8-ee5e-4400-aee7-4ccc4565ac4a"},"vehicle_type_id":"4","last_reported":1743462552,"current_range_meters":11600,"station_id":"ce4bhlp2rcd13ifvqgjg","pricing_plan_id":"cebpf4jnsgd1na2vs0mg"},{"bike_id":"2fd06dfb-e920-42ce-b41b-c2db35773356","system_id":"levelo_inurba_marseille","lat":43.30599,"lon":5.37222,"is_reserved":false,"is_disabled":false,"rental_uris":{"android":"levelo://app?vid=2fd06dfb-e920-42ce-b41b-c2db35773356","ios":"levelo://app?vid=2fd06dfb-e920-42ce-b41b-c2db35773356"},"vehicle_type_id":"4","last_reported":1743462552,"current_range_meters":12400,"station_id":"ce4bgqh2rcd13ifvqc4g","pricing_plan_id":"cebpf4jnsgd1na2vs0mg"},{"bike_id":"f6571233-39a3-4868-910d-68083aeff8a8","system_id":"levelo_inurba_marseille","lat":43.309063,"lon":5.368578,"is_reserved":false,"is_disabled":false,"rental_uris":{"android":"levelo://app?vid=f6571233-39a3-4868-910d-68083aeff8a8","ios":"levelo://app?vid=f6571233-39a3-4868-910d-68083aeff8a8"},"vehicle_type_id":"4","last_reported":1743462552,"current_range_meters":12400,"station_id":"ce4bgn92rcd13ifvqbvg","pricing_plan_id":"cebpf4jnsgd1na2vs0mg"},{"bike_id":"0c308ff7-9027-4d5a-9468-e5b6ff32487c","system_id":"levelo_inurba_marseille","lat":43.29097,"lon":5.38152,"is_reserved":false,"is_disabled":false,"rental_uris":{"android":"levelo://app?vid=0c308ff7-9027-4d5a-9468-e5b6ff32487c","ios":"levelo://app?vid=0c308ff7-9027-4d5a-9468-e5b6ff32487c"},"vehicle_type_id":"4","last_reported":1743462552,"current_range_meters":12400,"station_id":"ce4bh512rcd13ifvqe2g","pricing_plan_id":"cebpf4jnsgd1na2vs0mg"},{"bike_id":"5ef810b0-4f41-4eb3-88c9-4b8e8c5c945f","system_id":"levelo_inurba_marseille","lat":43.3117,"lon":5.38721,"is_reserved":false,"is_disabled":false,"rental_uris":{"android":"levelo://app?vid=5ef810b0-4f41-4eb3-88c9-4b8e8c5c945f","ios":"levelo://app?vid=5ef810b0-4f41-4eb3-88c9-4b8e8c5c945f"},"vehicle_type_id":"4","last_reported":1743462552,"current_range_meters":12400,"station_id":"ce4bgv12rcd13ifvqcp0","pricing_plan_id":"cebpf4jnsgd1na2vs0mg"},{"bike_id":"6b83c631-a8ab-4fa5-8872-ee254e4941ef","system_id":"levelo_inurba_marseille","lat":43.28607,"lon":5.3707,"is_reserved":false,"is_disabled":false,"rental_uris":{"android":"levelo://app?vid=6b83c631-a8ab-4fa5-8872-ee254e4941ef","ios":"levelo://app?vid=6b83c631-a8ab-4fa5-8872-ee254e4941ef"},"vehicle_type_id":"4","last_reported":1743462552,"current_range_meters":12400,"station_id":"ce4bht12rcd13ifvqi60","pricing_plan_id":"cebpf4jnsgd1na2vs0mg"},{"bike_id":"cdb2e7a3-c999-497e-a9de-b43472b97dae","system_id":"levelo_inurba_marseille","lat":43.28721,"lon":5.37958,"is_reserved":false,"is_disabled":false,"rental_uris":{"android":"levelo://app?vid=cdb2e7a3-c999-497e-a9de-b43472b97dae","ios":"levelo://app?vid=cdb2e7a3-c999-497e-a9de-b43472b97dae"},"vehicle_type_id":"4","last_reported":1743462552,"current_range_meters":12400,"station_id":"ce4bh9p2rcd13ifvqec0","pricing_plan_id":"cebpf4jnsgd1na2vs0mg"},{"bike_id":"3ef7ec7b-5e60-4a41-8f8a-c82f3f4749ff","system_id":"levelo_inurba_marseille","lat":43.319897,"lon":5.381521,"is_reserved":false,"is_disabled":false,"rental_uris":{"android":"levelo://app?vid=3ef7ec7b-5e60-4a41-8f8a-c82f3f4749ff","ios":"levelo://app?vid=3ef7ec7b-5e60-4a41-8f8a-c82f3f4749ff"},"vehicle_type_id":"4","last_reported":1743462552,"current_range_meters":12800,"station_id":"ce4bhr12rcd13ifvqhpg","pricing_plan_id":"cebpf4jnsgd1na2vs0mg"},{"bike_id":"4d1ef574-507a-4fec-a6d9-b5b49b8c445e","system_id":"levelo_inurba_marseille","lat":43.29277,"lon":5.3684,"is_reserved":false,"is_disabled":true,"rental_uris":{"android":"levelo://app?vid=4d1ef574-507a-4fec-a6d9-b5b49b8c445e","ios":"levelo://app?vid=4d1ef574-507a-4fec-a6d9-b5b49b8c445e"},"vehicle_type_id":"4","last_reported":1743462552,"current_range_meters":12800,"station_id":"ce4bhbp2rcd13ifvqesg","pricing_plan_id":"cebpf4jnsgd1na2vs0mg"},{"bike_id":"9ab8336d-5f4c-41a1-9447-7f231e54d8f9","system_id":"levelo_inurba_marseille","lat":43.30261,"lon":5.40061,"is_reserved":false,"is_disabled":false,"rental_uris":{"android":"levelo://app?vid=9ab8336d-5f4c-41a1-9447-7f231e54d8f9","ios":"levelo://app?vid=9ab8336d-5f4c-41a1-9447-7f231e54d8f9"},"vehicle_type_id":"4","last_reported":1743462552,"current_range_meters":12800,"station_id":"ce4bgvh2rcd13ifvqcs0","pricing_plan_id":"cebpf4jnsgd1na2vs0mg"},{"bike_id":"1bf7d99d-3eed-478d-8e7a-6aba633e08bc","system_id":"levelo_inurba_marseille","lat":43.26809,"lon":5.40262,"is_reserved":false,"is_disabled":false,"rental_uris":{"android":"levelo://app?vid=1bf7d99d-3eed-478d-8e7a-6aba633e08bc","ios":"levelo://app?vid=1bf7d99d-3eed-478d-8e7a-6aba633e08bc"},"vehicle_type_id":"4","last_reported":1743462552,"current_range_meters":12800,"station_id":"ce501612rcd8frsf0b60","pricing_plan_id":"cebpf4jnsgd1na2vs0mg"},{"bike_id":"910d974a-6c6b-4750-862a-3e97d4be206a","system_id":"levelo_inurba_marseille","lat":43.24808,"lon":5.37456,"is_reserved":false,"is_disabled":false,"rental_uris":{"android":"levelo://app?vid=910d974a-6c6b-4750-862a-3e97d4be206a","ios":"levelo://app?vid=910d974a-6c6b-4750-862a-3e97d4be206a"},"vehicle_type_id":"4","last_reported":1743462552,"current_range_meters":12400,"station_id":"ce4bhgh2rcd13ifvqfb0","pricing_plan_id":"cebpf4jnsgd1na2vs0mg"},{"bike_id":"93d9b8e2-a474-496e-a76e-ffcfe6d6d2ab","system_id":"levelo_inurba_marseille","lat":43.30814,"lon":5.38159,"is_reserved":false,"is_disabled":false,"rental_uris":{"android":"levelo://app?vid=93d9b8e2-a474-496e-a76e-ffcfe6d6d2ab","ios":"levelo://app?vid=93d9b8e2-a474-496e-a76e-ffcfe6d6d2ab"},"vehicle_type_id":"4","last_reported":1743462552,"current_range_meters":12800,"station_id":"ce4bgt12rcd13ifvqce0","pricing_plan_id":"cebpf4jnsgd1na2vs0mg"},{"bike_id":"19d31a38-0140-4912-a979-4764caac8f22","system_id":"levelo_inurba_marseille","lat":43.30929,"lon":5.40153,"is_reserved":false,"is_disabled":false,"rental_uris":{"android":"levelo://app?vid=19d31a38-0140-4912-a979-4764caac8f22","ios":"levelo://app?vid=19d31a38-0140-4912-a979-4764caac8f22"},"vehicle_type_id":"4","last_reported":1743462552,"current_range_meters":12800,"station_id":"ce4bgvp2rcd13ifvqct0","pricing_plan_id":"cebpf4jnsgd1na2vs0mg"},{"bike_id":"0febd71e-62ff-47b8-9471-2cebe3cfd511","system_id":"levelo_inurba_marseille","lat":43.23954,"lon":5.36648,"is_reserved":false,"is_disabled":false,"rental_uris":{"android":"levelo://app?vid=0febd71e-62ff-47b8-9471-2cebe3cfd511","ios":"levelo://app?vid=0febd71e-62ff-47b8-9471-2cebe3cfd511"},"vehicle_type_id":"4","last_reported":1743462552,"current_range_meters":12800,"station_id":"ce4bhi12rcd13ifvqfp0","pricing_plan_id":"cebpf4jnsgd1na2vs0mg"},{"bike_id":"2c567be4-626d-4614-8796-6c92d09d2fa1","system_id":"levelo_inurba_marseille","lat":43.289014,"lon":5.371152,"is_reserved":false,"is_disabled":false,"rental_uris":{"android":"levelo://app?vid=2c567be4-626d-4614-8796-6c92d09d2fa1","ios":"levelo://app?vid=2c567be4-626d-4614-8796-6c92d09d2fa1"},"vehicle_type_id":"4","last_reported":1743462552,"current_range_meters":13600,"station_id":"","pricing_plan_id":"cebpf4jnsgd1na2vs0mg"},{"bike_id":"ed14a198-8d50-4dc1-8082-24e54833312b","system_id":"levelo_inurba_marseille","lat":43.30922,"lon":5.4016,"is_reserved":false,"is_disabled":false,"rental_uris":{"android":"levelo://app?vid=ed14a198-8d50-4dc1-8082-24e54833312b","ios":"levelo://app?vid=ed14a198-8d50-4dc1-8082-24e54833312b"},"vehicle_type_id":"4","last_reported":1743462552,"current_range_meters":13600,"station_id":"ce4bgvp2rcd13ifvqct0","pricing_plan_id":"cebpf4jnsgd1na2vs0mg"},{"bike_id":"cf5d5c80-0d8e-4da6-baa3-65a22ff79e2f","system_id":"levelo_inurba_marseille","lat":43.30887,"lon":5.39622,"is_reserved":false,"is_disabled":false,"rental_uris":{"android":"levelo://app?vid=cf5d5c80-0d8e-4da6-baa3-65a22ff79e2f","ios":"levelo://app?vid=cf5d5c80-0d8e-4da6-baa3-65a22ff79e2f"},"vehicle_type_id":"4","last_reported":1743462552,"current_range_meters":13600,"station_id":"ce4bh012rcd13ifvqcv0","pricing_plan_id":"cebpf4jnsgd1na2vs0mg"},{"bike_id":"19788dd2-c382-40d7-b181-509f4b4d313c","system_id":"levelo_inurba_marseille","lat":43.27943,"lon":5.41053,"is_reserved":false,"is_disabled":false,"rental_uris":{"android":"levelo://app?vid=19788dd2-c382-40d7-b181-509f4b4d313c","ios":"levelo://app?vid=19788dd2-c382-40d7-b181-509f4b4d313c"},"vehicle_type_id":"4","last_reported":1743462552,"current_range_meters":13600,"station_id":"ce4bhnp2rcd13ifvqh0g","pricing_plan_id":"cebpf4jnsgd1na2vs0mg"},{"bike_id":"f4effe16-451d-457d-acbb-b3d591e469cd","system_id":"levelo_inurba_marseille","lat":43.27316,"lon":5.39105,"is_reserved":false,"is_disabled":true,"rental_uris":{"android":"levelo://app?vid=f4effe16-451d-457d-acbb-b3d591e469cd","ios":"levelo://app?vid=f4effe16-451d-457d-acbb-b3d591e469cd"},"vehicle_type_id":"4","last_reported":1743462552,"current_range_meters":13600,"station_id":"ce4bhgp2rcd13ifvqfe0","pricing_plan_id":"cebpf4jnsgd1na2vs0mg"},{"bike_id":"59a6c261-a019-4353-bad2-fa201fdd48b8","system_id":"levelo_inurba_marseille","lat":43.3042,"lon":5.39745,"is_reserved":false,"is_disabled":false,"rental_uris":{"android":"levelo://app?vid=59a6c261-a019-4353-bad2-fa201fdd48b8","ios":"levelo://app?vid=59a6c261-a019-4353-bad2-fa201fdd48b8"},"vehicle_type_id":"4","last_reported":1743462552,"current_range_meters":13600,"station_id":"ce4bh092rcd13ifvqd20","pricing_plan_id":"cebpf4jnsgd1na2vs0mg"},{"bike_id":"ac38269a-3560-46fc-890f-598451d5f253","system_id":"levelo_inurba_marseille","lat":43.29519,"lon":5.39046,"is_reserved":false,"is_disabled":false,"rental_uris":{"android":"levelo://app?vid=ac38269a-3560-46fc-890f-598451d5f253","ios":"levelo://app?vid=ac38269a-3560-46fc-890f-598451d5f253"},"vehicle_type_id":"4","last_reported":1743462552,"current_range_meters":13600,"station_id":"ce4bh3p2rcd13ifvqdp0","pricing_plan_id":"cebpf4jnsgd1na2vs0mg"},{"bike_id":"a61d69b6-c682-4e51-b65c-90e9332cb9b6","system_id":"levelo_inurba_marseille","lat":43.29265,"lon":5.37621,"is_reserved":false,"is_disabled":false,"rental_uris":{"android":"levelo://app?vid=a61d69b6-c682-4e51-b65c-90e9332cb9b6","ios":"levelo://app?vid=a61d69b6-c682-4e51-b65c-90e9332cb9b6"},"vehicle_type_id":"4","last_reported":1743462552,"current_range_meters":13600,"station_id":"ce4bgi12rcd13ifvqb80","pricing_plan_id":"cebpf4jnsgd1na2vs0mg"},{"bike_id":"113ede65-b1f6-4626-b25b-286b34c111c2","system_id":"levelo_inurba_marseille","lat":43.28943,"lon":5.36635,"is_reserved":false,"is_disabled":true,"rental_uris":{"android":"levelo://app?vid=113ede65-b1f6-4626-b25b-286b34c111c2","ios":"levelo://app?vid=113ede65-b1f6-4626-b25b-286b34c111c2"},"vehicle_type_id":"4","last_reported":1743462552,"current_range_meters":13600,"station_id":"ce4bhap2rcd13ifvqek0","pricing_plan_id":"cebpf4jnsgd1na2vs0mg"},{"bike_id":"c53e0b04-ccee-433f-b384-1e1a990e1413","system_id":"levelo_inurba_marseille","lat":43.29001,"lon":5.38178,"is_reserved":false,"is_disabled":false,"rental_uris":{"android":"levelo://app?vid=c53e0b04-ccee-433f-b384-1e1a990e1413","ios":"levelo://app?vid=c53e0b04-ccee-433f-b384-1e1a990e1413"},"vehicle_type_id":"4","last_reported":1743462552,"current_range_meters":13600,"station_id":"ce4bh4p2rcd13ifvqe1g","pricing_plan_id":"cebpf4jnsgd1na2vs0mg"},{"bike_id":"c76670c3-fac5-4fb2-adb2-85618d2a6a50","system_id":"levelo_inurba_marseille","lat":43.30207,"lon":5.39463,"is_reserved":false,"is_disabled":false,"rental_uris":{"android":"levelo://app?vid=c76670c3-fac5-4fb2-adb2-85618d2a6a50","ios":"levelo://app?vid=c76670c3-fac5-4fb2-adb2-85618d2a6a50"},"vehicle_type_id":"4","last_reported":1743462552,"current_range_meters":13600,"station_id":"ce4bh0p2rcd13ifvqd70","pricing_plan_id":"cebpf4jnsgd1na2vs0mg"},{"bike_id":"e5d8a459-b4e3-4a2c-9460-970df4580143","system_id":"levelo_inurba_marseille","lat":43.2847,"lon":5.35885,"is_reserved":false,"is_disabled":false,"rental_uris":{"android":"levelo://app?vid=e5d8a459-b4e3-4a2c-9460-970df4580143","ios":"levelo://app?vid=e5d8a459-b4e3-4a2c-9460-970df4580143"},"vehicle_type_id":"4","last_reported":1743462552,"current_range_meters":13600,"station_id":"ce4bhah2rcd13ifvqei0","pricing_plan_id":"cebpf4jnsgd1na2vs0mg"},{"bike_id":"05cce8b5-e04d-46f0-83d1-107eef27d8ef","system_id":"levelo_inurba_marseille","lat":43.32286,"lon":5.38268,"is_reserved":false,"is_disabled":false,"rental_uris":{"android":"levelo://app?vid=05cce8b5-e04d-46f0-83d1-107eef27d8ef","ios":"levelo://app?vid=05cce8b5-e04d-46f0-83d1-107eef27d8ef"},"vehicle_type_id":"4","last_reported":1743462552,"current_range_meters":14000,"station_id":"ce4bhr12rcd13ifvqhqg","pricing_plan_id":"cebpf4jnsgd1na2vs0mg"},{"bike_id":"07b1d2f2-d14d-406b-8829-82b48c79818d","system_id":"levelo_inurba_marseille","lat":43.3026,"lon":5.40077,"is_reserved":false,"is_disabled":false,"rental_uris":{"android":"levelo://app?vid=07b1d2f2-d14d-406b-8829-82b48c79818d","ios":"levelo://app?vid=07b1d2f2-d14d-406b-8829-82b48c79818d"},"vehicle_type_id":"4","last_reported":1743462552,"current_range_meters":14000,"station_id":"ce4bgvh2rcd13ifvqcs0","pricing_plan_id":"cebpf4jnsgd1na2vs0mg"},{"bike_id":"7deb499c-11ac-4a5b-bc88-ec43d75e191d","system_id":"levelo_inurba_marseille","lat":43.26579,"lon":5.3728,"is_reserved":false,"is_disabled":false,"rental_uris":{"android":"levelo://app?vid=7deb499c-11ac-4a5b-bc88-ec43d75e191d","ios":"levelo://app?vid=7deb499c-11ac-4a5b-bc88-ec43d75e191d"},"vehicle_type_id":"4","last_reported":1743462552,"current_range_meters":14000,"station_id":"ce4bhg12rcd13ifvqf70","pricing_plan_id":"cebpf4jnsgd1na2vs0mg"},{"bike_id":"281591db-90b3-4721-b1fe-ac6c6c7e611c","system_id":"levelo_inurba_marseille","lat":43.29277,"lon":5.40146,"is_reserved":false,"is_disabled":false,"rental_uris":{"android":"levelo://app?vid=281591db-90b3-4721-b1fe-ac6c6c7e611c","ios":"levelo://app?vid=281591db-90b3-4721-b1fe-ac6c6c7e611c"},"vehicle_type_id":"4","last_reported":1743462552,"current_range_meters":14000,"station_id":"ce4bh312rcd13ifvqdk0","pricing_plan_id":"cebpf4jnsgd1na2vs0mg"},{"bike_id":"14c6f955-5601-4536-bf1a-199a9389832d","system_id":"levelo_inurba_marseille","lat":43.284599,"lon":5.358954,"is_reserved":false,"is_disabled":false,"rental_uris":{"android":"levelo://app?vid=14c6f955-5601-4536-bf1a-199a9389832d","ios":"levelo://app?vid=14c6f955-5601-4536-bf1a-199a9389832d"},"vehicle_type_id":"4","last_reported":1743462552,"current_range_meters":14000,"station_id":"ce4bhah2rcd13ifvqei0","pricing_plan_id":"cebpf4jnsgd1na2vs0mg"},{"bike_id":"c7f99555-9bb9-46de-b35d-237f01680bb5","system_id":"levelo_inurba_marseille","lat":43.31754,"lon":5.3901,"is_reserved":false,"is_disabled":false,"rental_uris":{"android":"levelo://app?vid=c7f99555-9bb9-46de-b35d-237f01680bb5","ios":"levelo://app?vid=c7f99555-9bb9-46de-b35d-237f01680bb5"},"vehicle_type_id":"4","last_reported":1743462552,"current_range_meters":14000,"station_id":"ce4bhqp2rcd13ifvqhng","pricing_plan_id":"cebpf4jnsgd1na2vs0mg"},{"bike_id":"be4caf2a-3445-406d-981b-0c866302569e","system_id":"levelo_inurba_marseille","lat":43.317393,"lon":5.42365,"is_reserved":false,"is_disabled":false,"rental_uris":{"android":"levelo://app?vid=be4caf2a-3445-406d-981b-0c866302569e","ios":"levelo://app?vid=be4caf2a-3445-406d-981b-0c866302569e"},"vehicle_type_id":"4","last_reported":1743462552,"current_range_meters":14000,"station_id":"ce4bhp92rcd13ifvqhbg","pricing_plan_id":"cebpf4jnsgd1na2vs0mg"},{"bike_id":"e90190bf-3342-43b0-b16e-594c3a332304","system_id":"levelo_inurba_marseille","lat":43.30932,"lon":5.40149,"is_reserved":false,"is_disabled":false,"rental_uris":{"android":"levelo://app?vid=e90190bf-3342-43b0-b16e-594c3a332304","ios":"levelo://app?vid=e90190bf-3342-43b0-b16e-594c3a332304"},"vehicle_type_id":"4","last_reported":1743462552,"current_range_meters":14000,"station_id":"ce4bgvp2rcd13ifvqct0","pricing_plan_id":"cebpf4jnsgd1na2vs0mg"},{"bike_id":"e47bc61d-df2d-41b3-b26b-dd94e6e5e301","system_id":"levelo_inurba_marseille","lat":43.26254,"lon":5.42133,"is_reserved":false,"is_disabled":false,"rental_uris":{"android":"levelo://app?vid=e47bc61d-df2d-41b3-b26b-dd94e6e5e301","ios":"levelo://app?vid=e47bc61d-df2d-41b3-b26b-dd94e6e5e301"},"vehicle_type_id":"4","last_reported":1743462552,"current_range_meters":14000,"station_id":"","pricing_plan_id":"cebpf4jnsgd1na2vs0mg"},{"bike_id":"c4309e96-2b99-44ab-8879-0256a8334749","system_id":"levelo_inurba_marseille","lat":43.30199,"lon":5.39454,"is_reserved":false,"is_disabled":false,"rental_uris":{"android":"levelo://app?vid=c4309e96-2b99-44ab-8879-0256a8334749","ios":"levelo://app?vid=c4309e96-2b99-44ab-8879-0256a8334749"},"vehicle_type_id":"4","last_reported":1743462552,"current_range_meters":14000,"station_id":"ce4bh0p2rcd13ifvqd70","pricing_plan_id":"cebpf4jnsgd1na2vs0mg"},{"bike_id":"278a572e-c3f1-410c-a7c4-1fe23200e33e","system_id":"levelo_inurba_marseille","lat":43.30246,"lon":5.40044,"is_reserved":false,"is_disabled":false,"rental_uris":{"android":"levelo://app?vid=278a572e-c3f1-410c-a7c4-1fe23200e33e","ios":"levelo://app?vid=278a572e-c3f1-410c-a7c4-1fe23200e33e"},"vehicle_type_id":"4","last_reported":1743462552,"current_range_meters":14000,"station_id":"ce4bgvh2rcd13ifvqcs0","pricing_plan_id":"cebpf4jnsgd1na2vs0mg"},{"bike_id":"9d8b51bf-fd65-426c-9799-839498b24ee9","system_id":"levelo_inurba_marseille","lat":43.30667,"lon":5.36625,"is_reserved":false,"is_disabled":true,"rental_uris":{"android":"levelo://app?vid=9d8b51bf-fd65-426c-9799-839498b24ee9","ios":"levelo://app?vid=9d8b51bf-fd65-426c-9799-839498b24ee9"},"vehicle_type_id":"4","last_reported":1743462552,"current_range_meters":14400,"station_id":"","pricing_plan_id":"cebpf4jnsgd1na2vs0mg"},{"bike_id":"3d86ad96-3521-40eb-981c-8a33e7f58498","system_id":"levelo_inurba_marseille","lat":43.30025,"lon":5.37394,"is_reserved":false,"is_disabled":false,"rental_uris":{"android":"levelo://app?vid=3d86ad96-3521-40eb-981c-8a33e7f58498","ios":"levelo://app?vid=3d86ad96-3521-40eb-981c-8a33e7f58498"},"vehicle_type_id":"4","last_reported":1743462552,"current_range_meters":14400,"station_id":"","pricing_plan_id":"cebpf4jnsgd1na2vs0mg"},{"bike_id":"06357cc9-b5a2-4479-a20a-541038310ad8","system_id":"levelo_inurba_marseille","lat":43.268014,"lon":5.402673,"is_reserved":false,"is_disabled":true,"rental_uris":{"android":"levelo://app?vid=06357cc9-b5a2-4479-a20a-541038310ad8","ios":"levelo://app?vid=06357cc9-b5a2-4479-a20a-541038310ad8"},"vehicle_type_id":"4","last_reported":1743462552,"current_range_meters":14400,"station_id":"ce501612rcd8frsf0b60","pricing_plan_id":"cebpf4jnsgd1na2vs0mg"},{"bike_id":"1b63ccb2-1298-4d96-b7f3-6ad6cace00e9","system_id":"levelo_inurba_marseille","lat":43.2612,"lon":5.40098,"is_reserved":false,"is_disabled":false,"rental_uris":{"android":"levelo://app?vid=1b63ccb2-1298-4d96-b7f3-6ad6cace00e9","ios":"levelo://app?vid=1b63ccb2-1298-4d96-b7f3-6ad6cace00e9"},"vehicle_type_id":"4","last_reported":1743462552,"current_range_meters":14400,"station_id":"","pricing_plan_id":"cebpf4jnsgd1na2vs0mg"},{"bike_id":"08b0071e-1463-4449-89b6-94f7cf804781","system_id":"levelo_inurba_marseille","lat":43.31239,"lon":5.36863,"is_reserved":false,"is_disabled":true,"rental_uris":{"android":"levelo://app?vid=08b0071e-1463-4449-89b6-94f7cf804781","ios":"levelo://app?vid=08b0071e-1463-4449-89b6-94f7cf804781"},"vehicle_type_id":"4","last_reported":1743462552,"current_range_meters":14400,"station_id":"ce4bgl92rcd13ifvqbq0","pricing_plan_id":"cebpf4jnsgd1na2vs0mg"},{"bike_id":"ab3717f3-b435-42f8-98d9-8703f94c52c3","system_id":"levelo_inurba_marseille","lat":43.28403,"lon":5.3755,"is_reserved":false,"is_disabled":false,"rental_uris":{"android":"levelo://app?vid=ab3717f3-b435-42f8-98d9-8703f94c52c3","ios":"levelo://app?vid=ab3717f3-b435-42f8-98d9-8703f94c52c3"},"vehicle_type_id":"4","last_reported":1743462552,"current_range_meters":14400,"station_id":"ce4bh412rcd13ifvqds0","pricing_plan_id":"cebpf4jnsgd1na2vs0mg"},{"bike_id":"27773214-4312-4127-aa54-e74cba3d6d07","system_id":"levelo_inurba_marseille","lat":43.27815,"lon":5.40767,"is_reserved":false,"is_disabled":false,"rental_uris":{"android":"levelo://app?vid=27773214-4312-4127-aa54-e74cba3d6d07","ios":"levelo://app?vid=27773214-4312-4127-aa54-e74cba3d6d07"},"vehicle_type_id":"4","last_reported":1743462552,"current_range_meters":14400,"station_id":"ce4bhnh2rcd13ifvqgtg","pricing_plan_id":"cebpf4jnsgd1na2vs0mg"},{"bike_id":"4b8e5d31-3809-462d-88d7-526ab452e4a6","system_id":"levelo_inurba_marseille","lat":43.28476,"lon":5.35886,"is_reserved":false,"is_disabled":false,"rental_uris":{"android":"levelo://app?vid=4b8e5d31-3809-462d-88d7-526ab452e4a6","ios":"levelo://app?vid=4b8e5d31-3809-462d-88d7-526ab452e4a6"},"vehicle_type_id":"4","last_reported":1743462552,"current_range_meters":14400,"station_id":"ce4bhah2rcd13ifvqei0","pricing_plan_id":"cebpf4jnsgd1na2vs0mg"},{"bike_id":"ab789467-5397-4859-aede-1a452b069c78","system_id":"levelo_inurba_marseille","lat":43.23193,"lon":5.39982,"is_reserved":false,"is_disabled":false,"rental_uris":{"android":"levelo://app?vid=ab789467-5397-4859-aede-1a452b069c78","ios":"levelo://app?vid=ab789467-5397-4859-aede-1a452b069c78"},"vehicle_type_id":"4","last_reported":1743462552,"current_range_meters":14400,"station_id":"ce4bhn12rcd13ifvqgqg","pricing_plan_id":"cebpf4jnsgd1na2vs0mg"},{"bike_id":"7fea0c13-4dba-40d8-a6fc-3d6e31ad9361","system_id":"levelo_inurba_marseille","lat":43.30654,"lon":5.40096,"is_reserved":false,"is_disabled":false,"rental_uris":{"android":"levelo://app?vid=7fea0c13-4dba-40d8-a6fc-3d6e31ad9361","ios":"levelo://app?vid=7fea0c13-4dba-40d8-a6fc-3d6e31ad9361"},"vehicle_type_id":"4","last_reported":1743462552,"current_range_meters":14800,"station_id":"ce4bh112rcd13ifvqda0","pricing_plan_id":"cebpf4jnsgd1na2vs0mg"},{"bike_id":"243a7f39-cdb9-4572-b41f-6c914b169e37","system_id":"levelo_inurba_marseille","lat":43.28435,"lon":5.37484,"is_reserved":false,"is_disabled":false,"rental_uris":{"android":"levelo://app?vid=243a7f39-cdb9-4572-b41f-6c914b169e37","ios":"levelo://app?vid=243a7f39-cdb9-4572-b41f-6c914b169e37"},"vehicle_type_id":"4","last_reported":1743462552,"current_range_meters":14800,"station_id":"ce4bh412rcd13ifvqds0","pricing_plan_id":"cebpf4jnsgd1na2vs0mg"},{"bike_id":"e664c24c-d524-431a-88e3-2336a75dbc15","system_id":"levelo_inurba_marseille","lat":43.29102,"lon":5.38154,"is_reserved":false,"is_disabled":false,"rental_uris":{"android":"levelo://app?vid=e664c24c-d524-431a-88e3-2336a75dbc15","ios":"levelo://app?vid=e664c24c-d524-431a-88e3-2336a75dbc15"},"vehicle_type_id":"4","last_reported":1743462552,"current_range_meters":14800,"station_id":"ce4bh512rcd13ifvqe2g","pricing_plan_id":"cebpf4jnsgd1na2vs0mg"},{"bike_id":"b18d61be-1314-4787-bdc3-677619cdb9f9","system_id":"levelo_inurba_marseille","lat":43.29924,"lon":5.37048,"is_reserved":false,"is_disabled":false,"rental_uris":{"android":"levelo://app?vid=b18d61be-1314-4787-bdc3-677619cdb9f9","ios":"levelo://app?vid=b18d61be-1314-4787-bdc3-677619cdb9f9"},"vehicle_type_id":"4","last_reported":1743462552,"current_range_meters":14800,"station_id":"","pricing_plan_id":"cebpf4jnsgd1na2vs0mg"},{"bike_id":"ba1b02a3-4ffa-4852-86d1-1aedd00fb6ea","system_id":"levelo_inurba_marseille","lat":43.28727,"lon":5.36094,"is_reserved":false,"is_disabled":false,"rental_uris":{"android":"levelo://app?vid=ba1b02a3-4ffa-4852-86d1-1aedd00fb6ea","ios":"levelo://app?vid=ba1b02a3-4ffa-4852-86d1-1aedd00fb6ea"},"vehicle_type_id":"4","last_reported":1743462552,"current_range_meters":14800,"station_id":"cki0cbj6b192h4jlfktg","pricing_plan_id":"cebpf4jnsgd1na2vs0mg"},{"bike_id":"9ef34a2b-2324-476e-957c-d915473487fe","system_id":"levelo_inurba_marseille","lat":43.28846,"lon":5.3931,"is_reserved":false,"is_disabled":false,"rental_uris":{"android":"levelo://app?vid=9ef34a2b-2324-476e-957c-d915473487fe","ios":"levelo://app?vid=9ef34a2b-2324-476e-957c-d915473487fe"},"vehicle_type_id":"4","last_reported":1743462552,"current_range_meters":14800,"station_id":"ce4bh2p2rcd13ifvqdi0","pricing_plan_id":"cebpf4jnsgd1na2vs0mg"},{"bike_id":"3aca6e3a-05ff-4ee1-a18c-210479e8ce1c","system_id":"levelo_inurba_marseille","lat":43.28467,"lon":5.35889,"is_reserved":false,"is_disabled":false,"rental_uris":{"android":"levelo://app?vid=3aca6e3a-05ff-4ee1-a18c-210479e8ce1c","ios":"levelo://app?vid=3aca6e3a-05ff-4ee1-a18c-210479e8ce1c"},"vehicle_type_id":"4","last_reported":1743462552,"current_range_meters":14800,"station_id":"ce4bhah2rcd13ifvqei0","pricing_plan_id":"cebpf4jnsgd1na2vs0mg"},{"bike_id":"4d2f5fe4-3b25-4e13-a779-6112f195a428","system_id":"levelo_inurba_marseille","lat":43.2791,"lon":5.38002,"is_reserved":false,"is_disabled":false,"rental_uris":{"android":"levelo://app?vid=4d2f5fe4-3b25-4e13-a779-6112f195a428","ios":"levelo://app?vid=4d2f5fe4-3b25-4e13-a779-6112f195a428"},"vehicle_type_id":"4","last_reported":1743462552,"current_range_meters":15200,"station_id":"ce4bhf92rcd13ifvqf50","pricing_plan_id":"cebpf4jnsgd1na2vs0mg"},{"bike_id":"3df6eeaa-d5c4-45c9-ab50-3ad98a619e68","system_id":"levelo_inurba_marseille","lat":43.303205,"lon":5.404383,"is_reserved":false,"is_disabled":false,"rental_uris":{"android":"levelo://app?vid=3df6eeaa-d5c4-45c9-ab50-3ad98a619e68","ios":"levelo://app?vid=3df6eeaa-d5c4-45c9-ab50-3ad98a619e68"},"vehicle_type_id":"4","last_reported":1743462552,"current_range_meters":15200,"station_id":"ce4bh012rcd13ifvqd10","pricing_plan_id":"cebpf4jnsgd1na2vs0mg"},{"bike_id":"9803795d-6b5b-4b7d-a8c2-32fcbe1605b1","system_id":"levelo_inurba_marseille","lat":43.30299,"lon":5.39206,"is_reserved":false,"is_disabled":false,"rental_uris":{"android":"levelo://app?vid=9803795d-6b5b-4b7d-a8c2-32fcbe1605b1","ios":"levelo://app?vid=9803795d-6b5b-4b7d-a8c2-32fcbe1605b1"},"vehicle_type_id":"4","last_reported":1743462552,"current_range_meters":15200,"station_id":"ce4bgkh2rcd13ifvqbk0","pricing_plan_id":"cebpf4jnsgd1na2vs0mg"},{"bike_id":"6e6a66e5-58ca-4db1-9695-b46ed5c28827","system_id":"levelo_inurba_marseille","lat":43.31839,"lon":5.36882,"is_reserved":false,"is_disabled":false,"rental_uris":{"android":"levelo://app?vid=6e6a66e5-58ca-4db1-9695-b46ed5c28827","ios":"levelo://app?vid=6e6a66e5-58ca-4db1-9695-b46ed5c28827"},"vehicle_type_id":"4","last_reported":1743462552,"current_range_meters":16000,"station_id":"","pricing_plan_id":"cebpf4jnsgd1na2vs0mg"},{"bike_id":"16dd592e-7732-47c3-a664-305413913b8b","system_id":"levelo_inurba_marseille","lat":43.2846,"lon":5.35894,"is_reserved":false,"is_disabled":true,"rental_uris":{"android":"levelo://app?vid=16dd592e-7732-47c3-a664-305413913b8b","ios":"levelo://app?vid=16dd592e-7732-47c3-a664-305413913b8b"},"vehicle_type_id":"4","last_reported":1743462552,"current_range_meters":15200,"station_id":"ce4bhah2rcd13ifvqei0","pricing_plan_id":"cebpf4jnsgd1na2vs0mg"},{"bike_id":"57e6fa07-fefa-483c-a064-ec27c42d9afd","system_id":"levelo_inurba_marseille","lat":43.28847,"lon":5.39353,"is_reserved":false,"is_disabled":true,"rental_uris":{"android":"levelo://app?vid=57e6fa07-fefa-483c-a064-ec27c42d9afd","ios":"levelo://app?vid=57e6fa07-fefa-483c-a064-ec27c42d9afd"},"vehicle_type_id":"4","last_reported":1743462552,"current_range_meters":15200,"station_id":"ce4bh2p2rcd13ifvqdi0","pricing_plan_id":"cebpf4jnsgd1na2vs0mg"},{"bike_id":"a32f7781-a1b5-44a3-aa6b-479ac097cd80","system_id":"levelo_inurba_marseille","lat":43.26685,"lon":5.38274,"is_reserved":false,"is_disabled":true,"rental_uris":{"android":"levelo://app?vid=a32f7781-a1b5-44a3-aa6b-479ac097cd80","ios":"levelo://app?vid=a32f7781-a1b5-44a3-aa6b-479ac097cd80"},"vehicle_type_id":"4","last_reported":1743462552,"current_range_meters":15200,"station_id":"ce4bhg92rcd13ifvqf90","pricing_plan_id":"cebpf4jnsgd1na2vs0mg"},{"bike_id":"7999efbb-5f94-4303-b5a4-6904ca7a9597","system_id":"levelo_inurba_marseille","lat":43.25583,"lon":5.38233,"is_reserved":false,"is_disabled":false,"rental_uris":{"android":"levelo://app?vid=7999efbb-5f94-4303-b5a4-6904ca7a9597","ios":"levelo://app?vid=7999efbb-5f94-4303-b5a4-6904ca7a9597"},"vehicle_type_id":"4","last_reported":1743462552,"current_range_meters":14800,"station_id":"ce4bhih2rcd13ifvqfs0","pricing_plan_id":"cebpf4jnsgd1na2vs0mg"},{"bike_id":"c7485cb9-acb3-4ac8-a00d-865050d40519","system_id":"levelo_inurba_marseille","lat":43.28466,"lon":5.35878,"is_reserved":false,"is_disabled":false,"rental_uris":{"android":"levelo://app?vid=c7485cb9-acb3-4ac8-a00d-865050d40519","ios":"levelo://app?vid=c7485cb9-acb3-4ac8-a00d-865050d40519"},"vehicle_type_id":"4","last_reported":1743462552,"current_range_meters":15200,"station_id":"ce4bhah2rcd13ifvqei0","pricing_plan_id":"cebpf4jnsgd1na2vs0mg"},{"bike_id":"de194f33-8e71-473c-835b-7af21b97267c","system_id":"levelo_inurba_marseille","lat":43.24647,"lon":5.38907,"is_reserved":false,"is_disabled":false,"rental_uris":{"android":"levelo://app?vid=de194f33-8e71-473c-835b-7af21b97267c","ios":"levelo://app?vid=de194f33-8e71-473c-835b-7af21b97267c"},"vehicle_type_id":"4","last_reported":1743462552,"current_range_meters":15200,"station_id":"ce4bhg12rcd13ifvqf60","pricing_plan_id":"cebpf4jnsgd1na2vs0mg"},{"bike_id":"7d24f7f3-5a91-46ae-971d-a7a715309919","system_id":"levelo_inurba_marseille","lat":43.23196,"lon":5.39995,"is_reserved":false,"is_disabled":false,"rental_uris":{"android":"levelo://app?vid=7d24f7f3-5a91-46ae-971d-a7a715309919","ios":"levelo://app?vid=7d24f7f3-5a91-46ae-971d-a7a715309919"},"vehicle_type_id":"4","last_reported":1743462552,"current_range_meters":15200,"station_id":"ce4bhn12rcd13ifvqgqg","pricing_plan_id":"cebpf4jnsgd1na2vs0mg"},{"bike_id":"251367a8-4aba-4182-ad3f-ddb311347114","system_id":"levelo_inurba_marseille","lat":43.31491,"lon":5.37305,"is_reserved":false,"is_disabled":false,"rental_uris":{"android":"levelo://app?vid=251367a8-4aba-4182-ad3f-ddb311347114","ios":"levelo://app?vid=251367a8-4aba-4182-ad3f-ddb311347114"},