{"last_updated":1687716535,"ttl":30,"version":"2.2","data":{"bikes":[{"bike_id":"f17a4990-562f-4401-a0dc-8464098a819c","system_id":"levelo_inurba_marseille","lat":43.31237,"lon":5.36922,"is_reserved":false,"is_disabled":false,"rental_uris":{"android":"levelo://app?vid=f17a4990-562f-4401-a0dc-8464098a819c","ios":"levelo://app?vid=f17a4990-562f-4401-a0dc-8464098a819c"},"vehicle_type_id":"4","last_reported":1687716536,"current_range_meters":19200,"station_id":"","pricing_plan_id":"free"},{"bike_id":"2362d78b-e06a-4866-a0a1-7346cde59c6d","system_id":"levelo_inurba_marseille","lat":43.31629,"lon":5.36639,"is_reserved":false,"is_disabled":false,"rental_uris":{"android":"levelo://app?vid=2362d78b-e06a-4866-a0a1-7346cde59c6d","ios":"levelo://app?vid=2362d78b-e06a-4866-a0a1-7346cde59c6d"},"vehicle_type_id":"4","last_reported":1687716536,"current_range_meters":15600,"station_id":"","pricing_plan_id":"free"},{"bike_id":"9a8949b8-fe67-46d5-a9c5-fcca0e41d858","system_id":"levelo_inurba_marseille","lat":43.309076,"lon":5.368465,"is_reserved":false,"is_disabled":false,"rental_uris":{"android":"levelo://app?vid=9a8949b8-fe67-46d5-a9c5-fcca0e41d858","ios":"levelo://app?vid=9a8949b8-fe67-46d5-a9c5-fcca0e41d858"},"vehicle_type_id":"4","last_reported":1687716536,"current_range_meters":16400,"station_id":"ce4bgn92rcd13ifvqbvg","pricing_plan_id":"free"},{"bike_id":"95e1225a-7851-4cf8-a194-a5ebc7a7e9c6","system_id":"levelo_inurba_marseille","lat":43.314811,"lon":5.373103,"is_reserved":false,"is_disabled":false,"rental_uris":{"android":"levelo://app?vid=95e1225a-7851-4cf8-a194-a5ebc7a7e9c6","ios":"levelo://app?vid=95e1225a-7851-4cf8-a194-a5ebc7a7e9c6"},"vehicle_type_id":"4","last_reported":1687716536,"current_range_meters":14400,"station_id":"ce4bgt12rcd13ifvqcd0","pricing_plan_id":"free"},{"bike_id":"f9ef7448-1ed2-49e6-9d19-d85a5c7f0d6b","system_id":"levelo_inurba_marseille","lat":43.314811,"lon":5.373104,"is_reserved":false,"is_disabled":false,"rental_uris":{"android":"levelo://app?vid=f9ef7448-1ed2-49e6-9d19-d85a5c7f0d6b","ios":"levelo://app?vid=f9ef7448-1ed2-49e6-9d19-d85a5c7f0d6b"},"vehicle_type_id":"4","last_reported":1687716536,"current_range_meters":24000,"station_id":"ce4bgt12rcd13ifvqcd0","pricing_plan_id":"free"},{"bike_id":"7e8e8daa-d367-45de-a104-cca0a4b3e79d","system_id":"levelo_inurba_marseille","lat":43.308606,"lon":5.372099,"is_reserved":false,"is_disabled":false,"rental_uris":{"android":"levelo://app?vid=7e8e8daa-d367-45de-a104-cca0a4b3e79d","ios":"levelo://app?vid=7e8e8daa-d367-45de-a104-cca0a4b3e79d"},"vehicle_type_id":"4","last_reported":1687716536,"current_range_meters":22000,"station_id":"ce4bguh2rcd13ifvqckg","pricing_plan_id":"free"},{"bike_id":"9fe2dbc6-8940-4354-9241-daa0a9e6ff51","system_id":"levelo_inurba_marseille","lat":43.305714,"lon":5.365633,"is_reserved":false,"is_disabled":false,"rental_uris":{"android":"levelo://app?vid=9fe2dbc6-8940-4354-9241-daa0a9e6ff51","ios":"levelo://app?vid=9fe2dbc6-8940-4354-9241-daa0a9e6ff51"},"vehicle_type_id":"4","last_reported":1687716536,"current_range_meters":5600,"station_id":"ce4bgs12rcd13ifvqcag","pricing_plan_id":"free"},{"bike_id":"65fb1434-b79a-46b1-bc0f-c7734bf6f91a","system_id":"levelo_inurba_marseille","lat":43.317075,"lon":5.377367,"is_reserved":false,"is_disabled":false,"rental_uris":{"android":"levelo://app?vid=65fb1434-b79a-46b1-bc0f-c7734bf6f91a","ios":"levelo://app?vid=65fb1434-b79a-46b1-bc0f-c7734bf6f91a"},"vehicle_type_id":"4","last_reported":1687716536,"current_range_meters":14000,"station_id":"ce4bgth2rcd13ifvqch0","pricing_plan_id":"free"},{"bike_id":"91aed326-9ce1-4c97-8ef6-7fd7be6e778c","system_id":"levelo_inurba_marseille","lat":43.317075,"lon":5.377367,"is_reserved":false,"is_disabled":false,"rental_uris":{"android":"levelo://app?vid=91aed326-9ce1-4c97-8ef6-7fd7be6e778c","ios":"levelo://app?vid=91aed326-9ce1-4c97-8ef6-7fd7be6e778c"},"vehicle_type_id":"4","last_reported":1687716536,"current_range_meters":26400,"station_id":"ce4bgth2rcd13ifvqch0","pricing_plan_id":"free"},{"bike_id":"4263af41-84c7-42b8-92e0-504085a7ee0c","system_id":"levelo_inurba_marseille","lat":43.317075,"lon":5.377367,"is_reserved":false,"is_disabled":false,"rental_uris":{"android":"levelo://app?vid=4263af41-84c7-42b8-92e0-504085a7ee0c","ios":"levelo://app?vid=4263af41-84c7-42b8-92e0-504085a7ee0c"},"vehicle_type_id":"4","last_reported":1687716536,"current_range_meters":30000,"station_id":"ce4bgth2rcd13ifvqch0","pricing_plan_id":"free"},{"bike_id":"cb8b1387-d8af-42e0-b4a9-acc526dd9ff5","system_id":"levelo_inurba_marseille","lat":43.31766,"lon":5.37778,"is_reserved":false,"is_disabled":false,"rental_uris":{"android":"levelo://app?vid=cb8b1387-d8af-42e0-b4a9-acc526dd9ff5","ios":"levelo://app?vid=cb8b1387-d8af-42e0-b4a9-acc526dd9ff5"},"vehicle_type_id":"4","last_reported":1687716536,"current_range_meters":23200,"station_id":"","pricing_plan_id":"free"},{"bike_id":"8ac07899-4bb4-4313-9483-81a704dc96c0","system_id":"levelo_inurba_marseille","lat":43.30306,"lon":5.36905,"is_reserved":false,"is_disabled":false,"rental_uris":{"android":"levelo://app?vid=8ac07899-4bb4-4313-9483-81a704dc96c0","ios":"levelo://app?vid=8ac07899-4bb4-4313-9483-81a704dc96c0"},"vehicle_type_id":"4","last_reported":1687716536,"current_range_meters":31200,"station_id":"ce4bgqh2rcd13ifvqc5g","pricing_plan_id":"free"},{"bike_id":"d839a604-60cf-448c-9561-63c392637d77","system_id":"levelo_inurba_marseille","lat":43.303,"lon":5.36887,"is_reserved":false,"is_disabled":false,"rental_uris":{"android":"levelo://app?vid=d839a604-60cf-448c-9561-63c392637d77","ios":"levelo://app?vid=d839a604-60cf-448c-9561-63c392637d77"},"vehicle_type_id":"4","last_reported":1687716536,"current_range_meters":5600,"station_id":"ce4bgqh2rcd13ifvqc5g","pricing_plan_id":"free"},{"bike_id":"911d31be-aa81-4874-8417-522c9144851a","system_id":"levelo_inurba_marseille","lat":43.315289,"lon":5.380349,"is_reserved":false,"is_disabled":false,"rental_uris":{"android":"levelo://app?vid=911d31be-aa81-4874-8417-522c9144851a","ios":"levelo://app?vid=911d31be-aa81-4874-8417-522c9144851a"},"vehicle_type_id":"4","last_reported":1687716536,"current_range_meters":0,"station_id":"ce4bhsp2rcd13ifvqi50","pricing_plan_id":"free"},{"bike_id":"2ae4c695-3a04-437f-83c0-20dac3188f7a","system_id":"levelo_inurba_marseille","lat":43.315289,"lon":5.380349,"is_reserved":false,"is_disabled":false,"rental_uris":{"android":"levelo://app?vid=2ae4c695-3a04-437f-83c0-20dac3188f7a","ios":"levelo://app?vid=2ae4c695-3a04-437f-83c0-20dac3188f7a"},"vehicle_type_id":"4","last_reported":1687716536,"current_range_meters":24400,"station_id":"ce4bhsp2rcd13ifvqi50","pricing_plan_id":"free"},{"bike_id":"61ed560a-9784-49e7-ab1d-5f7f3c6348b9","system_id":"levelo_inurba_marseille","lat":43.30194,"lon":5.36623,"is_reserved":false,"is_disabled":false,"rental_uris":{"android":"levelo://app?vid=61ed560a-9784-49e7-ab1d-5f7f3c6348b9","ios":"levelo://app?vid=61ed560a-9784-49e7-ab1d-5f7f3c6348b9"},"vehicle_type_id":"4","last_reported":1687716536,"current_range_meters":7200,"station_id":"ce4bgrh2rcd13ifvqc8g","pricing_plan_id":"free"},{"bike_id":"c5a127ea-cb34-4f44-9f59-042d22b9c191","system_id":"levelo_inurba_marseille","lat":43.308012,"lon":5.381511,"is_reserved":false,"is_disabled":false,"rental_uris":{"android":"levelo://app?vid=c5a127ea-cb34-4f44-9f59-042d22b9c191","ios":"levelo://app?vid=c5a127ea-cb34-4f44-9f59-042d22b9c191"},"vehicle_type_id":"4","last_reported":1687716536,"current_range_meters":23600,"station_id":"ce4bgt12rcd13ifvqce0","pricing_plan_id":"free"},{"bike_id":"76673b40-0874-4bc4-aa92-1c6754da06d1","system_id":"levelo_inurba_marseille","lat":43.308012,"lon":5.381511,"is_reserved":false,"is_disabled":false,"rental_uris":{"android":"levelo://app?vid=76673b40-0874-4bc4-aa92-1c6754da06d1","ios":"levelo://app?vid=76673b40-0874-4bc4-aa92-1c6754da06d1"},"vehicle_type_id":"4","last_reported":1687716536,"current_range_meters":800,"station_id":"ce4bgt12rcd13ifvqce0","pricing_plan_id":"free"},{"bike_id":"7961c058-6bbf-43fe-9e62-f3ba9264f471","system_id":"levelo_inurba_marseille","lat":43.30221,"lon":5.37396,"is_reserved":false,"is_disabled":false,"rental_uris":{"android":"levelo://app?vid=7961c058-6bbf-43fe-9e62-f3ba9264f471","ios":"levelo://app?vid=7961c058-6bbf-43fe-9e62-f3ba9264f471"},"vehicle_type_id":"4","last_reported":1687716536,"current_range_meters":4400,"station_id":"","pricing_plan_id":"free"},{"bike_id":"9fb2af00-a3bb-4d59-9a9c-bf6fb58d47f0","system_id":"levelo_inurba_marseille","lat":43.319935,"lon":5.381699,"is_reserved":false,"is_disabled":false,"rental_uris":{"android":"levelo://app?vid=9fb2af00-a3bb-4d59-9a9c-bf6fb58d47f0","ios":"levelo://app?vid=9fb2af00-a3bb-4d59-9a9c-bf6fb58d47f0"},"vehicle_type_id":"4","last_reported":1687716536,"current_range_meters":29200,"station_id":"ce4bhr12rcd13ifvqhpg","pricing_plan_id":"free"},{"bike_id":"8d8e0424-a554-44d1-aac7-2925f426b147","system_id":"levelo_inurba_marseille","lat":43.319935,"lon":5.381699,"is_reserved":false,"is_disabled":false,"rental_uris":{"android":"levelo://app?vid=8d8e0424-a554-44d1-aac7-2925f426b147","ios":"levelo://app?vid=8d8e0424-a554-44d1-aac7-2925f426b147"},"vehicle_type_id":"4","last_reported":1687716536,"current_range_meters":6400,"station_id":"ce4bhr12rcd13ifvqhpg","pricing_plan_id":"free"},{"bike_id":"e5564a1b-7eaa-42d7-9eac-0b69cc97b61e","system_id":"levelo_inurba_marseille","lat":43.319935,"lon":5.381699,"is_reserved":false,"is_disabled":false,"rental_uris":{"android":"levelo://app?vid=e5564a1b-7eaa-42d7-9eac-0b69cc97b61e","ios":"levelo://app?vid=e5564a1b-7eaa-42d7-9eac-0b69cc97b61e"},"vehicle_type_id":"4","last_reported":1687716536,"current_range_meters":14400,"station_id":"ce4bhr12rcd13ifvqhpg","pricing_plan_id":"free"},{"bike_id":"25bcc21c-84b0-43f8-8ed1-2713382bd734","system_id":"levelo_inurba_marseille","lat":43.319935,"lon":5.381699,"is_reserved":false,"is_disabled":false,"rental_uris":{"android":"levelo://app?vid=25bcc21c-84b0-43f8-8ed1-2713382bd734","ios":"levelo://app?vid=25bcc21c-84b0-43f8-8ed1-2713382bd734"},"vehicle_type_id":"4","last_reported":1687716536,"current_range_meters":21600,"station_id":"ce4bhr12rcd13ifvqhpg","pricing_plan_id":"free"},{"bike_id":"7e9a47a8-5d6c-4e19-9cd5-24ee65ebc02d","system_id":"levelo_inurba_marseille","lat":43.319935,"lon":5.381699,"is_reserved":false,"is_disabled":false,"rental_uris":{"android":"levelo://app?vid=7e9a47a8-5d6c-4e19-9cd5-24ee65ebc02d","ios":"levelo://app?vid=7e9a47a8-5d6c-4e19-9cd5-24ee65ebc02d"},"vehicle_type_id":"4","last_reported":1687716536,"current_range_meters":26800,"station_id":"ce4bhr12rcd13ifvqhpg","pricing_plan_id":"free"},{"bike_id":"4c3e94bd-efcb-4b2a-b353-ed59bef50e6f","system_id":"levelo_inurba_marseille","lat":43.313571,"lon":5.384829,"is_reserved":false,"is_disabled":false,"rental_uris":{"android":"levelo://app?vid=4c3e94bd-efcb-4b2a-b353-ed59bef50e6f","ios":"levelo://app?vid=4c3e94bd-efcb-4b2a-b353-ed59bef50e6f"},"vehicle_type_id":"4","last_reported":1687716536,"current_range_meters":9600,"station_id":"ce4bgt92rcd13ifvqcf0","pricing_plan_id":"free"},{"bike_id":"885fb6ec-a6a0-4881-8d5b-a8e74141b88d","system_id":"levelo_inurba_marseille","lat":43.31354,"lon":5.38499,"is_reserved":false,"is_disabled":false,"rental_uris":{"android":"levelo://app?vid=885fb6ec-a6a0-4881-8d5b-a8e74141b88d","ios":"levelo://app?vid=885fb6ec-a6a0-4881-8d5b-a8e74141b88d"},"vehicle_type_id":"4","last_reported":1687716536,"current_range_meters":27600,"station_id":"ce4bgt92rcd13ifvqcf0","pricing_plan_id":"free"},{"bike_id":"2b63543c-1172-43c6-8760-28ac4d085a37","system_id":"levelo_inurba_marseille","lat":43.31364,"lon":5.3851,"is_reserved":false,"is_disabled":false,"rental_uris":{"android":"levelo://app?vid=2b63543c-1172-43c6-8760-28ac4d085a37","ios":"levelo://app?vid=2b63543c-1172-43c6-8760-28ac4d085a37"},"vehicle_type_id":"4","last_reported":1687716536,"current_range_meters":4800,"station_id":"ce4bgt92rcd13ifvqcf0","pricing_plan_id":"free"},{"bike_id":"ec574fc3-d088-4880-8bc1-90b3364ab82b","system_id":"levelo_inurba_marseille","lat":43.317075,"lon":5.377367,"is_reserved":false,"is_disabled":false,"rental_uris":{"android":"levelo://app?vid=ec574fc3-d088-4880-8bc1-90b3364ab82b","ios":"levelo://app?vid=ec574fc3-d088-4880-8bc1-90b3364ab82b"},"vehicle_type_id":"4","last_reported":1687716536,"current_range_meters":3200,"station_id":"ce4bgth2rcd13ifvqch0","pricing_plan_id":"free"},{"bike_id":"d55e08b8-3d51-4b1f-aa84-b3215933f850","system_id":"levelo_inurba_marseille","lat":43.298433,"lon":5.362774,"is_reserved":false,"is_disabled":false,"rental_uris":{"android":"levelo://app?vid=d55e08b8-3d51-4b1f-aa84-b3215933f850","ios":"levelo://app?vid=d55e08b8-3d51-4b1f-aa84-b3215933f850"},"vehicle_type_id":"4","last_reported":1687716536,"current_range_meters":0,"station_id":"ce4bgpp2rcd13ifvqc3g","pricing_plan_id":"free"},{"bike_id":"f4e8b283-3cd7-448e-98f0-e0b363e04039","system_id":"levelo_inurba_marseille","lat":43.311722,"lon":5.387247,"is_reserved":false,"is_disabled":false,"rental_uris":{"android":"levelo://app?vid=f4e8b283-3cd7-448e-98f0-e0b363e04039","ios":"levelo://app?vid=f4e8b283-3cd7-448e-98f0-e0b363e04039"},"vehicle_type_id":"4","last_reported":1687716536,"current_range_meters":30000,"station_id":"ce4bgv12rcd13ifvqcp0","pricing_plan_id":"free"},{"bike_id":"1580a472-182f-4d91-8a6c-4c3a23a9c034","system_id":"levelo_inurba_marseille","lat":43.302,"lon":5.3821,"is_reserved":false,"is_disabled":false,"rental_uris":{"android":"levelo://app?vid=1580a472-182f-4d91-8a6c-4c3a23a9c034","ios":"levelo://app?vid=1580a472-182f-4d91-8a6c-4c3a23a9c034"},"vehicle_type_id":"4","last_reported":1687716536,"current_range_meters":12800,"station_id":"","pricing_plan_id":"free"},{"bike_id":"84310711-9ffd-45bf-a8e1-79683581878e","system_id":"levelo_inurba_marseille","lat":43.328371,"lon":5.366909,"is_reserved":false,"is_disabled":false,"rental_uris":{"android":"levelo://app?vid=84310711-9ffd-45bf-a8e1-79683581878e","ios":"levelo://app?vid=84310711-9ffd-45bf-a8e1-79683581878e"},"vehicle_type_id":"4","last_reported":1687716536,"current_range_meters":20800,"station_id":"ce4bhs92rcd13ifvqi0g","pricing_plan_id":"free"},{"bike_id":"9823f69b-7618-447c-88b9-9a8290da0996","system_id":"levelo_inurba_marseille","lat":43.32829,"lon":5.36672,"is_reserved":false,"is_disabled":false,"rental_uris":{"android":"levelo://app?vid=9823f69b-7618-447c-88b9-9a8290da0996","ios":"levelo://app?vid=9823f69b-7618-447c-88b9-9a8290da0996"},"vehicle_type_id":"4","last_reported":1687716536,"current_range_meters":8800,"station_id":"ce4bhs92rcd13ifvqi0g","pricing_plan_id":"free"},{"bike_id":"8b17aad1-d072-4063-bcd5-d1dd5ac05981","system_id":"levelo_inurba_marseille","lat":43.3283,"lon":5.36678,"is_reserved":false,"is_disabled":false,"rental_uris":{"android":"levelo://app?vid=8b17aad1-d072-4063-bcd5-d1dd5ac05981","ios":"levelo://app?vid=8b17aad1-d072-4063-bcd5-d1dd5ac05981"},"vehicle_type_id":"4","last_reported":1687716536,"current_range_meters":30000,"station_id":"ce4bhs92rcd13ifvqi0g","pricing_plan_id":"free"},{"bike_id":"8cd194c3-4946-47d4-8472-6a93aa928d08","system_id":"levelo_inurba_marseille","lat":43.32831,"lon":5.36677,"is_reserved":false,"is_disabled":false,"rental_uris":{"android":"levelo://app?vid=8cd194c3-4946-47d4-8472-6a93aa928d08","ios":"levelo://app?vid=8cd194c3-4946-47d4-8472-6a93aa928d08"},"vehicle_type_id":"4","last_reported":1687716536,"current_range_meters":24800,"station_id":"ce4bhs92rcd13ifvqi0g","pricing_plan_id":"free"},{"bike_id":"8d98417a-cbe4-4269-8bc9-598373a7d5de","system_id":"levelo_inurba_marseille","lat":43.32858,"lon":5.3628,"is_reserved":false,"is_disabled":false,"rental_uris":{"android":"levelo://app?vid=8d98417a-cbe4-4269-8bc9-598373a7d5de","ios":"levelo://app?vid=8d98417a-cbe4-4269-8bc9-598373a7d5de"},"vehicle_type_id":"4","last_reported":1687716536,"current_range_meters":16400,"station_id":"","pricing_plan_id":"free"},{"bike_id":"9f59b092-c451-49a4-870f-a9213b90e767","system_id":"levelo_inurba_marseille","lat":43.32945,"lon":5.36654,"is_reserved":false,"is_disabled":false,"rental_uris":{"android":"levelo://app?vid=9f59b092-c451-49a4-870f-a9213b90e767","ios":"levelo://app?vid=9f59b092-c451-49a4-870f-a9213b90e767"},"vehicle_type_id":"4","last_reported":1687716536,"current_range_meters":0,"station_id":"","pricing_plan_id":"free"},{"bike_id":"7c78b8c5-5ffd-47bb-bf8b-51a9a134e28c","system_id":"levelo_inurba_marseille","lat":43.296129,"lon":5.370777,"is_reserved":false,"is_disabled":false,"rental_uris":{"android":"levelo://app?vid=7c78b8c5-5ffd-47bb-bf8b-51a9a134e28c","ios":"levelo://app?vid=7c78b8c5-5ffd-47bb-bf8b-51a9a134e28c"},"vehicle_type_id":"4","last_reported":1687716536,"current_range_meters":8800,"station_id":"ce4bgnh2rcd13ifvqc0g","pricing_plan_id":"free"},{"bike_id":"9f019de7-f33e-466b-bd81-05ebdba249a5","system_id":"levelo_inurba_marseille","lat":43.309589,"lon":5.390258,"is_reserved":false,"is_disabled":false,"rental_uris":{"android":"levelo://app?vid=9f019de7-f33e-466b-bd81-05ebdba249a5","ios":"levelo://app?vid=9f019de7-f33e-466b-bd81-05ebdba249a5"},"vehicle_type_id":"4","last_reported":1687716536,"current_range_meters":4800,"station_id":"ce4bgup2rcd13ifvqco0","pricing_plan_id":"free"},{"bike_id":"041bc147-ef2f-419b-bb81-deca3bdf89e2","system_id":"levelo_inurba_marseille","lat":43.29611,"lon":5.36046,"is_reserved":false,"is_disabled":false,"rental_uris":{"android":"levelo://app?vid=041bc147-ef2f-419b-bb81-deca3bdf89e2","ios":"levelo://app?vid=041bc147-ef2f-419b-bb81-deca3bdf89e2"},"vehicle_type_id":"4","last_reported":1687716536,"current_range_meters":2000,"station_id":"","pricing_plan_id":"free"},{"bike_id":"dd0ad48f-1f47-4b7c-9f76-510d05519993","system_id":"levelo_inurba_marseille","lat":43.30057,"lon":5.38401,"is_reserved":false,"is_disabled":false,"rental_uris":{"android":"levelo://app?vid=dd0ad48f-1f47-4b7c-9f76-510d05519993","ios":"levelo://app?vid=dd0ad48f-1f47-4b7c-9f76-510d05519993"},"vehicle_type_id":"4","last_reported":1687716536,"current_range_meters":7600,"station_id":"","pricing_plan_id":"free"},{"bike_id":"3ecb1419-ec96-4c17-8e0a-de207f3a5e04","system_id":"levelo_inurba_marseille","lat":43.3176,"lon":5.39012,"is_reserved":false,"is_disabled":false,"rental_uris":{"android":"levelo://app?vid=3ecb1419-ec96-4c17-8e0a-de207f3a5e04","ios":"levelo://app?vid=3ecb1419-ec96-4c17-8e0a-de207f3a5e04"},"vehicle_type_id":"4","last_reported":1687716536,"current_range_meters":27600,"station_id":"ce4bhqp2rcd13ifvqhng","pricing_plan_id":"free"},{"bike_id":"ac95b105-7f02-4b47-9abf-0230e64e9d09","system_id":"levelo_inurba_marseille","lat":43.317557,"lon":5.390173,"is_reserved":false,"is_disabled":false,"rental_uris":{"android":"levelo://app?vid=ac95b105-7f02-4b47-9abf-0230e64e9d09","ios":"levelo://app?vid=ac95b105-7f02-4b47-9abf-0230e64e9d09"},"vehicle_type_id":"4","last_reported":1687716536,"current_range_meters":15200,"station_id":"ce4bhqp2rcd13ifvqhng","pricing_plan_id":"free"},{"bike_id":"bb56cd24-7030-46cb-a52c-0de63c9ebeeb","system_id":"levelo_inurba_marseille","lat":43.298037,"lon":5.381066,"is_reserved":false,"is_disabled":false,"rental_uris":{"android":"levelo://app?vid=bb56cd24-7030-46cb-a52c-0de63c9ebeeb","ios":"levelo://app?vid=bb56cd24-7030-46cb-a52c-0de63c9ebeeb"},"vehicle_type_id":"4","last_reported":1687716536,"current_range_meters":11600,"station_id":"ce4bgip2rcd13ifvqbb0","pricing_plan_id":"free"},{"bike_id":"e0d90551-edf4-48dc-b605-7c3da9d0157a","system_id":"levelo_inurba_marseille","lat":43.304278,"lon":5.388868,"is_reserved":false,"is_disabled":false,"rental_uris":{"android":"levelo://app?vid=e0d90551-edf4-48dc-b605-7c3da9d0157a","ios":"levelo://app?vid=e0d90551-edf4-48dc-b605-7c3da9d0157a"},"vehicle_type_id":"4","last_reported":1687716536,"current_range_meters":19600,"station_id":"ce4bgk12rcd13ifvqbi0","pricing_plan_id":"free"},{"bike_id":"0a8a3e2b-906f-4bcb-bb5e-bf7da87e6cb8","system_id":"levelo_inurba_marseille","lat":43.296277,"lon":5.377108,"is_reserved":false,"is_disabled":false,"rental_uris":{"android":"levelo://app?vid=0a8a3e2b-906f-4bcb-bb5e-bf7da87e6cb8","ios":"levelo://app?vid=0a8a3e2b-906f-4bcb-bb5e-bf7da87e6cb8"},"vehicle_type_id":"4","last_reported":1687716536,"current_range_meters":25600,"station_id":"ce4bgi92rcd13ifvqb90","pricing_plan_id":"free"},{"bike_id":"83cef3a1-9d7c-43ab-8feb-cd9b92a512b1","system_id":"levelo_inurba_marseille","lat":43.296131,"lon":5.370791,"is_reserved":false,"is_disabled":false,"rental_uris":{"android":"levelo://app?vid=83cef3a1-9d7c-43ab-8feb-cd9b92a512b1","ios":"levelo://app?vid=83cef3a1-9d7c-43ab-8feb-cd9b92a512b1"},"vehicle_type_id":"4","last_reported":1687716536,"current_range_meters":5600,"station_id":"ce4bgnh2rcd13ifvqc0g","pricing_plan_id":"free"},{"bike_id":"cc63e03e-82e9-4c6b-9d3a-55bdb3cbcaff","system_id":"levelo_inurba_marseille","lat":43.32364,"lon":5.38876,"is_reserved":false,"is_disabled":false,"rental_uris":{"android":"levelo://app?vid=cc63e03e-82e9-4c6b-9d3a-55bdb3cbcaff","ios":"levelo://app?vid=cc63e03e-82e9-4c6b-9d3a-55bdb3cbcaff"},"vehicle_type_id":"4","last_reported":1687716536,"current_range_meters":0,"station_id":"ce4bhqp2rcd13ifvqhog","pricing_plan_id":"free"},{"bike_id":"a6b543df-b29f-4057-a17b-ece9e8918f86","system_id":"levelo_inurba_marseille","lat":43.32368,"lon":5.38878,"is_reserved":false,"is_disabled":false,"rental_uris":{"android":"levelo://app?vid=a6b543df-b29f-4057-a17b-ece9e8918f86","ios":"levelo://app?vid=a6b543df-b29f-4057-a17b-ece9e8918f86"},"vehicle_type_id":"4","last_reported":1687716536,"current_range_meters":14000,"station_id":"ce4bhqp2rcd13ifvqhog","pricing_plan_id":"free"},{"bike_id":"228378a3-e0ba-427a-9a36-5789a7b6bb76","system_id":"levelo_inurba_marseille","lat":43.32363,"lon":5.38887,"is_reserved":false,"is_disabled":false,"rental_uris":{"android":"levelo://app?vid=228378a3-e0ba-427a-9a36-5789a7b6bb76","ios":"levelo://app?vid=228378a3-e0ba-427a-9a36-5789a7b6bb76"},"vehicle_type_id":"4","last_reported":1687716536,"current_range_meters":10000,"station_id":"ce4bhqp2rcd13ifvqhog","pricing_plan_id":"free"},{"bike_id":"d23a0ec1-0253-41d1-9d6e-53cf55f9c703","system_id":"levelo_inurba_marseille","lat":43.305994,"lon":5.393687,"is_reserved":false,"is_disabled":false,"rental_uris":{"android":"levelo://app?vid=d23a0ec1-0253-41d1-9d6e-53cf55f9c703","ios":"levelo://app?vid=d23a0ec1-0253-41d1-9d6e-53cf55f9c703"},"vehicle_type_id":"4","last_reported":1687716536,"current_range_meters":14400,"station_id":"ce4bh0p2rcd13ifvqd80","pricing_plan_id":"free"},{"bike_id":"14b84d77-1aae-4284-94b8-9bc9e3189292","system_id":"levelo_inurba_marseille","lat":43.302992,"lon":5.392136,"is_reserved":false,"is_disabled":false,"rental_uris":{"android":"levelo://app?vid=14b84d77-1aae-4284-94b8-9bc9e3189292","ios":"levelo://app?vid=14b84d77-1aae-4284-94b8-9bc9e3189292"},"vehicle_type_id":"4","last_reported":1687716536,"current_range_meters":15600,"station_id":"ce4bgkh2rcd13ifvqbk0","pricing_plan_id":"free"},{"bike_id":"9b31ba1e-28f1-4e55-a18e-672a018958cb","system_id":"levelo_inurba_marseille","lat":43.29267,"lon":5.35979,"is_reserved":false,"is_disabled":false,"rental_uris":{"android":"levelo://app?vid=9b31ba1e-28f1-4e55-a18e-672a018958cb","ios":"levelo://app?vid=9b31ba1e-28f1-4e55-a18e-672a018958cb"},"vehicle_type_id":"4","last_reported":1687716536,"current_range_meters":14800,"station_id":"","pricing_plan_id":"free"},{"bike_id":"90234cb0-4671-498e-80b8-963bae4019f6","system_id":"levelo_inurba_marseille","lat":43.292311,"lon":5.360731,"is_reserved":false,"is_disabled":false,"rental_uris":{"android":"levelo://app?vid=90234cb0-4671-498e-80b8-963bae4019f6","ios":"levelo://app?vid=90234cb0-4671-498e-80b8-963bae4019f6"},"vehicle_type_id":"4","last_reported":1687716536,"current_range_meters":3200,"station_id":"ce4bhbh2rcd13ifvqeqg","pricing_plan_id":"free"},{"bike_id":"cc9ba006-9a2b-4a45-896e-050a7b52d556","system_id":"levelo_inurba_marseille","lat":43.30085,"lon":5.390856,"is_reserved":false,"is_disabled":false,"rental_uris":{"android":"levelo://app?vid=cc9ba006-9a2b-4a45-896e-050a7b52d556","ios":"levelo://app?vid=cc9ba006-9a2b-4a45-896e-050a7b52d556"},"vehicle_type_id":"4","last_reported":1687716536,"current_range_meters":0,"station_id":"ce4bh192rcd13ifvqdb0","pricing_plan_id":"free"},{"bike_id":"d0ae49c0-fd60-4d90-a422-c928c1b1c05d","system_id":"levelo_inurba_marseille","lat":43.284219,"lon":5.3497,"is_reserved":false,"is_disabled":false,"rental_uris":{"android":"levelo://app?vid=d0ae49c0-fd60-4d90-a422-c928c1b1c05d","ios":"levelo://app?vid=d0ae49c0-fd60-4d90-a422-c928c1b1c05d"},"vehicle_type_id":"4","last_reported":1687716536,"current_range_meters":2400,"station_id":"ce4bhbh2rcd13ifvqepg","pricing_plan_id":"free"},{"bike_id":"02eb0304-2f77-4c85-a6fd-96e90a67d317","system_id":"levelo_inurba_marseille","lat":43.302008,"lon":5.394694,"is_reserved":false,"is_disabled":false,"rental_uris":{"android":"levelo://app?vid=02eb0304-2f77-4c85-a6fd-96e90a67d317","ios":"levelo://app?vid=02eb0304-2f77-4c85-a6fd-96e90a67d317"},"vehicle_type_id":"4","last_reported":1687716536,"current_range_meters":18800,"station_id":"ce4bh0p2rcd13ifvqd70","pricing_plan_id":"free"},{"bike_id":"784f5d88-b592-4dbe-98e2-424c036e40e3","system_id":"levelo_inurba_marseille","lat":43.302008,"lon":5.394694,"is_reserved":false,"is_disabled":false,"rental_uris":{"android":"levelo://app?vid=784f5d88-b592-4dbe-98e2-424c036e40e3","ios":"levelo://app?vid=784f5d88-b592-4dbe-98e2-424c036e40e3"},"vehicle_type_id":"4","last_reported":1687716536,"current_range_meters":0,"station_id":"ce4bh0p2rcd13ifvqd70","pricing_plan_id":"free"},{"bike_id":"e3bfa19a-e3b6-416c-a0f3-f07592a853b5","system_id":"levelo_inurba_marseille","lat":43.294153,"lon":5.386305,"is_reserved":false,"is_disabled":false,"rental_uris":{"android":"levelo://app?vid=e3bfa19a-e3b6-416c-a0f3-f07592a853b5","ios":"levelo://app?vid=e3bfa19a-e3b6-416c-a0f3-f07592a853b5"},"vehicle_type_id":"4","last_reported":1687716536,"current_range_meters":12400,"station_id":"ce4bh2h2rcd13ifvqdh0","pricing_plan_id":"free"},{"bike_id":"20b2702a-2cf1-439f-b7da-41f192fa1a0a","system_id":"levelo_inurba_marseille","lat":43.29411,"lon":5.38614,"is_reserved":false,"is_disabled":false,"rental_uris":{"android":"levelo://app?vid=20b2702a-2cf1-439f-b7da-41f192fa1a0a","ios":"levelo://app?vid=20b2702a-2cf1-439f-b7da-41f192fa1a0a"},"vehicle_type_id":"4","last_reported":1687716536,"current_range_meters":14400,"station_id":"","pricing_plan_id":"free"},{"bike_id":"21d3857a-1673-413d-ae7f-6813e85b405e","system_id":"levelo_inurba_marseille","lat":43.30429,"lon":5.39749,"is_reserved":false,"is_disabled":false,"rental_uris":{"android":"levelo://app?vid=21d3857a-1673-413d-ae7f-6813e85b405e","ios":"levelo://app?vid=21d3857a-1673-413d-ae7f-6813e85b405e"},"vehicle_type_id":"4","last_reported":1687716536,"current_range_meters":0,"station_id":"ce4bh092rcd13ifvqd20","pricing_plan_id":"free"},{"bike_id":"de88daa4-e82e-4158-aea0-8a766af6d69e","system_id":"levelo_inurba_marseille","lat":43.30431,"lon":5.39751,"is_reserved":false,"is_disabled":false,"rental_uris":{"android":"levelo://app?vid=de88daa4-e82e-4158-aea0-8a766af6d69e","ios":"levelo://app?vid=de88daa4-e82e-4158-aea0-8a766af6d69e"},"vehicle_type_id":"4","last_reported":1687716536,"current_range_meters":15200,"station_id":"ce4bh092rcd13ifvqd20","pricing_plan_id":"free"},{"bike_id":"7eb9888a-bba4-43ab-b13c-2bb5e3cffa17","system_id":"levelo_inurba_marseille","lat":43.304274,"lon":5.397513,"is_reserved":false,"is_disabled":false,"rental_uris":{"android":"levelo://app?vid=7eb9888a-bba4-43ab-b13c-2bb5e3cffa17","ios":"levelo://app?vid=7eb9888a-bba4-43ab-b13c-2bb5e3cffa17"},"vehicle_type_id":"4","last_reported":1687716536,"current_range_meters":4400,"station_id":"ce4bh092rcd13ifvqd20","pricing_plan_id":"free"},{"bike_id":"20d90010-72c2-4583-8238-2bb2d18f1c7e","system_id":"levelo_inurba_marseille","lat":43.290995,"lon":5.381361,"is_reserved":false,"is_disabled":false,"rental_uris":{"android":"levelo://app?vid=20d90010-72c2-4583-8238-2bb2d18f1c7e","ios":"levelo://app?vid=20d90010-72c2-4583-8238-2bb2d18f1c7e"},"vehicle_type_id":"4","last_reported":1687716536,"current_range_meters":0,"station_id":"ce4bh512rcd13ifvqe2g","pricing_plan_id":"free"},{"bike_id":"11de851f-2cca-423a-a566-d3ea217f4a63","system_id":"levelo_inurba_marseille","lat":43.295169,"lon":5.390426,"is_reserved":false,"is_disabled":false,"rental_uris":{"android":"levelo://app?vid=11de851f-2cca-423a-a566-d3ea217f4a63","ios":"levelo://app?vid=11de851f-2cca-423a-a566-d3ea217f4a63"},"vehicle_type_id":"4","last_reported":1687716536,"current_range_meters":16800,"station_id":"ce4bh3p2rcd13ifvqdp0","pricing_plan_id":"free"},{"bike_id":"87b1df15-ffe4-4c81-80c6-2b9135af80c5","system_id":"levelo_inurba_marseille","lat":43.297815,"lon":5.393548,"is_reserved":false,"is_disabled":false,"rental_uris":{"android":"levelo://app?vid=87b1df15-ffe4-4c81-80c6-2b9135af80c5","ios":"levelo://app?vid=87b1df15-ffe4-4c81-80c6-2b9135af80c5"},"vehicle_type_id":"4","last_reported":1687716536,"current_range_meters":22400,"station_id":"chh1huq6cuj3fo74tm60","pricing_plan_id":"free"},{"bike_id":"3f8a925a-6a54-4259-a38f-9cf091aab246","system_id":"levelo_inurba_marseille","lat":43.29253,"lon":5.38757,"is_reserved":false,"is_disabled":false,"rental_uris":{"android":"levelo://app?vid=3f8a925a-6a54-4259-a38f-9cf091aab246","ios":"levelo://app?vid=3f8a925a-6a54-4259-a38f-9cf091aab246"},"vehicle_type_id":"4","last_reported":1687716536,"current_range_meters":15200,"station_id":"","pricing_plan_id":"free"},{"bike_id":"c180ae38-f769-441f-8a55-5a6e4930e6ad","system_id":"levelo_inurba_marseille","lat":43.3375,"lon":5.37439,"is_reserved":false,"is_disabled":false,"rental_uris":{"android":"levelo://app?vid=c180ae38-f769-441f-8a55-5a6e4930e6ad","ios":"levelo://app?vid=c180ae38-f769-441f-8a55-5a6e4930e6ad"},"vehicle_type_id":"4","last_reported":1687716536,"current_range_meters":20000,"station_id":"","pricing_plan_id":"free"},{"bike_id":"d30aa884-9673-4d52-8927-b54e5bb4419b","system_id":"levelo_inurba_marseille","lat":43.309371,"lon":5.401449,"is_reserved":false,"is_disabled":false,"rental_uris":{"android":"levelo://app?vid=d30aa884-9673-4d52-8927-b54e5bb4419b","ios":"levelo://app?vid=d30aa884-9673-4d52-8927-b54e5bb4419b"},"vehicle_type_id":"4","last_reported":1687716536,"current_range_meters":31200,"station_id":"ce4bgvp2rcd13ifvqct0","pricing_plan_id":"free"},{"bike_id":"42467928-9718-4905-a83f-4a0a594fb894","system_id":"levelo_inurba_marseille","lat":43.33756,"lon":5.37464,"is_reserved":false,"is_disabled":false,"rental_uris":{"android":"levelo://app?vid=42467928-9718-4905-a83f-4a0a594fb894","ios":"levelo://app?vid=42467928-9718-4905-a83f-4a0a594fb894"},"vehicle_type_id":"4","last_reported":1687716536,"current_range_meters":25600,"station_id":"","pricing_plan_id":"free"},{"bike_id":"c506a433-7813-48ae-9235-f43fc68a8f88","system_id":"levelo_inurba_marseille","lat":43.28708,"lon":5.36252,"is_reserved":false,"is_disabled":false,"rental_uris":{"android":"levelo://app?vid=c506a433-7813-48ae-9235-f43fc68a8f88","ios":"levelo://app?vid=c506a433-7813-48ae-9235-f43fc68a8f88"},"vehicle_type_id":"4","last_reported":1687716536,"current_range_meters":7200,"station_id":"","pricing_plan_id":"free"},{"bike_id":"521a72aa-9054-432e-a3d4-37d1117e9198","system_id":"levelo_inurba_marseille","lat":43.295196,"lon":5.39397,"is_reserved":false,"is_disabled":false,"rental_uris":{"android":"levelo://app?vid=521a72aa-9054-432e-a3d4-37d1117e9198","ios":"levelo://app?vid=521a72aa-9054-432e-a3d4-37d1117e9198"},"vehicle_type_id":"4","last_reported":1687716536,"current_range_meters":17600,"station_id":"ce4bh292rcd13ifvqdf0","pricing_plan_id":"free"},{"bike_id":"243c517b-9d93-4bed-bafa-aba57387b4c5","system_id":"levelo_inurba_marseille","lat":43.295194,"lon":5.39397,"is_reserved":false,"is_disabled":false,"rental_uris":{"android":"levelo://app?vid=243c517b-9d93-4bed-bafa-aba57387b4c5","ios":"levelo://app?vid=243c517b-9d93-4bed-bafa-aba57387b4c5"},"vehicle_type_id":"4","last_reported":1687716536,"current_range_meters":10400,"station_id":"ce4bh292rcd13ifvqdf0","pricing_plan_id":"free"},{"bike_id":"971555f0-f32c-4103-b26f-9585bb0b67c6","system_id":"levelo_inurba_marseille","lat":43.287184,"lon":5.37937,"is_reserved":false,"is_disabled":false,"rental_uris":{"android":"levelo://app?vid=971555f0-f32c-4103-b26f-9585bb0b67c6","ios":"levelo://app?vid=971555f0-f32c-4103-b26f-9585bb0b67c6"},"vehicle_type_id":"4","last_reported":1687716536,"current_range_meters":22800,"station_id":"ce4bh9p2rcd13ifvqec0","pricing_plan_id":"free"},{"bike_id":"e28a144c-7b76-4698-b455-435d6c7efee8","system_id":"levelo_inurba_marseille","lat":43.2861,"lon":5.37061,"is_reserved":false,"is_disabled":false,"rental_uris":{"android":"levelo://app?vid=e28a144c-7b76-4698-b455-435d6c7efee8","ios":"levelo://app?vid=e28a144c-7b76-4698-b455-435d6c7efee8"},"vehicle_type_id":"4","last_reported":1687716536,"current_range_meters":0,"station_id":"ce4bht12rcd13ifvqi60","pricing_plan_id":"free"},{"bike_id":"7d024650-5431-4595-9821-68a45a66cc6d","system_id":"levelo_inurba_marseille","lat":43.28609,"lon":5.37065,"is_reserved":false,"is_disabled":false,"rental_uris":{"android":"levelo://app?vid=7d024650-5431-4595-9821-68a45a66cc6d","ios":"levelo://app?vid=7d024650-5431-4595-9821-68a45a66cc6d"},"vehicle_type_id":"4","last_reported":1687716536,"current_range_meters":20400,"station_id":"ce4bht12rcd13ifvqi60","pricing_plan_id":"free"},{"bike_id":"a199ae5e-44c6-416e-acdf-5b3a6e2e997d","system_id":"levelo_inurba_marseille","lat":43.286039,"lon":5.370679,"is_reserved":false,"is_disabled":false,"rental_uris":{"android":"levelo://app?vid=a199ae5e-44c6-416e-acdf-5b3a6e2e997d","ios":"levelo://app?vid=a199ae5e-44c6-416e-acdf-5b3a6e2e997d"},"vehicle_type_id":"4","last_reported":1687716536,"current_range_meters":8000,"station_id":"ce4bht12rcd13ifvqi60","pricing_plan_id":"free"},{"bike_id":"ac59bce7-5ac7-4247-80d0-d4fe6ebdfb3b","system_id":"levelo_inurba_marseille","lat":43.28608,"lon":5.37066,"is_reserved":false,"is_disabled":false,"rental_uris":{"android":"levelo://app?vid=ac59bce7-5ac7-4247-80d0-d4fe6ebdfb3b","ios":"levelo://app?vid=ac59bce7-5ac7-4247-80d0-d4fe6ebdfb3b"},"vehicle_type_id":"4","last_reported":1687716536,"current_range_meters":18000,"station_id":"ce4bht12rcd13ifvqi60","pricing_plan_id":"free"},{"bike_id":"7abd4e6e-cc14-4878-9e39-bd58e6552738","system_id":"levelo_inurba_marseille","lat":43.287184,"lon":5.37937,"is_reserved":false,"is_disabled":false,"rental_uris":{"android":"levelo://app?vid=7abd4e6e-cc14-4878-9e39-bd58e6552738","ios":"levelo://app?vid=7abd4e6e-cc14-4878-9e39-bd58e6552738"},"vehicle_type_id":"4","last_reported":1687716536,"current_range_meters":26800,"station_id":"ce4bh9p2rcd13ifvqec0","pricing_plan_id":"free"},{"bike_id":"0b29b46a-f838-47b1-b899-f785d87eefe0","system_id":"levelo_inurba_marseille","lat":43.28723,"lon":5.37951,"is_reserved":false,"is_disabled":false,"rental_uris":{"android":"levelo://app?vid=0b29b46a-f838-47b1-b899-f785d87eefe0","ios":"levelo://app?vid=0b29b46a-f838-47b1-b899-f785d87eefe0"},"vehicle_type_id":"4","last_reported":1687716536,"current_range_meters":21200,"station_id":"ce4bh9p2rcd13ifvqec0","pricing_plan_id":"free"},{"bike_id":"a96b0e1c-f3d8-44a9-ad17-53f6ba123fd2","system_id":"levelo_inurba_marseille","lat":43.316517,"lon":5.404375,"is_reserved":false,"is_disabled":false,"rental_uris":{"android":"levelo://app?vid=a96b0e1c-f3d8-44a9-ad17-53f6ba123fd2","ios":"levelo://app?vid=a96b0e1c-f3d8-44a9-ad17-53f6ba123fd2"},"vehicle_type_id":"4","last_reported":1687716536,"current_range_meters":18000,"station_id":"ce4bh012rcd13ifvqd00","pricing_plan_id":"free"},{"bike_id":"d69fed3a-efe9-46fb-b1dc-1240b8978d3e","system_id":"levelo_inurba_marseille","lat":43.316517,"lon":5.404375,"is_reserved":false,"is_disabled":false,"rental_uris":{"android":"levelo://app?vid=d69fed3a-efe9-46fb-b1dc-1240b8978d3e","ios":"levelo://app?vid=d69fed3a-efe9-46fb-b1dc-1240b8978d3e"},"vehicle_type_id":"4","last_reported":1687716536,"current_range_meters":13200,"station_id":"ce4bh012rcd13ifvqd00","pricing_plan_id":"free"},{"bike_id":"dfc6180d-7458-4eb0-8b9e-f2bbc6e99b6e","system_id":"levelo_inurba_marseille","lat":43.291994,"lon":5.392907,"is_reserved":false,"is_disabled":false,"rental_uris":{"android":"levelo://app?vid=dfc6180d-7458-4eb0-8b9e-f2bbc6e99b6e","ios":"levelo://app?vid=dfc6180d-7458-4eb0-8b9e-f2bbc6e99b6e"},"vehicle_type_id":"4","last_reported":1687716536,"current_range_meters":7200,"station_id":"ce4bh192rcd13ifvqdd0","pricing_plan_id":"free"},{"bike_id":"65e98612-9c3c-4242-8f1f-f3a3abf93ed3","system_id":"levelo_inurba_marseille","lat":43.292011,"lon":5.393279,"is_reserved":false,"is_disabled":false,"rental_uris":{"android":"levelo://app?vid=65e98612-9c3c-4242-8f1f-f3a3abf93ed3","ios":"levelo://app?vid=65e98612-9c3c-4242-8f1f-f3a3abf93ed3"},"vehicle_type_id":"4","last_reported":1687716536,"current_range_meters":14400,"station_id":"","pricing_plan_id":"free"},{"bike_id":"55220dc4-f969-4c58-a4ec-7e2e9c7dd7e4","system_id":"levelo_inurba_marseille","lat":43.284534,"lon":5.358662,"is_reserved":false,"is_disabled":false,"rental_uris":{"android":"levelo://app?vid=55220dc4-f969-4c58-a4ec-7e2e9c7dd7e4","ios":"levelo://app?vid=55220dc4-f969-4c58-a4ec-7e2e9c7dd7e4"},"vehicle_type_id":"4","last_reported":1687716536,"current_range_meters":20000,"station_id":"ce4bhah2rcd13ifvqei0","pricing_plan_id":"free"},{"bike_id":"67c034dc-d404-475f-9533-cb925b0cd9bf","system_id":"levelo_inurba_marseille","lat":43.284534,"lon":5.358662,"is_reserved":false,"is_disabled":false,"rental_uris":{"android":"levelo://app?vid=67c034dc-d404-475f-9533-cb925b0cd9bf","ios":"levelo://app?vid=67c034dc-d404-475f-9533-cb925b0cd9bf"},"vehicle_type_id":"4","last_reported":1687716536,"current_range_meters":16000,"station_id":"ce4bhah2rcd13ifvqei0","pricing_plan_id":"free"},{"bike_id":"263f85a5-a58f-4539-9899-8a25f3698679","system_id":"levelo_inurba_marseille","lat":43.28609,"lon":5.35114,"is_reserved":false,"is_disabled":false,"rental_uris":{"android":"levelo://app?vid=263f85a5-a58f-4539-9899-8a25f3698679","ios":"levelo://app?vid=263f85a5-a58f-4539-9899-8a25f3698679"},"vehicle_type_id":"4","last_reported":1687716536,"current_range_meters":2000,"station_id":"ce4bhch2rcd13ifvqeug","pricing_plan_id":"free"},{"bike_id":"517577dd-a3f3-4259-8a49-6db1eaa25a8c","system_id":"levelo_inurba_marseille","lat":43.283998,"lon":5.375062,"is_reserved":false,"is_disabled":false,"rental_uris":{"android":"levelo://app?vid=517577dd-a3f3-4259-8a49-6db1eaa25a8c","ios":"levelo://app?vid=517577dd-a3f3-4259-8a49-6db1eaa25a8c"},"vehicle_type_id":"4","last_reported":1687716536,"current_range_meters":14000,"station_id":"ce4bh412rcd13ifvqds0","pricing_plan_id":"free"},{"bike_id":"b9590462-568c-4dce-8a83-4144ec009af3","system_id":"levelo_inurba_marseille","lat":43.29572,"lon":5.39973,"is_reserved":false,"is_disabled":false,"rental_uris":{"android":"levelo://app?vid=b9590462-568c-4dce-8a83-4144ec009af3","ios":"levelo://app?vid=b9590462-568c-4dce-8a83-4144ec009af3"},"vehicle_type_id":"4","last_reported":1687716536,"current_range_meters":2800,"station_id":"ce4bh312rcd13ifvqdj0","pricing_plan_id":"free"},{"bike_id":"eeed4cf8-2fc2-45aa-99e9-80f98041ba3f","system_id":"levelo_inurba_marseille","lat":43.28399,"lon":5.37524,"is_reserved":false,"is_disabled":false,"rental_uris":{"android":"levelo://app?vid=eeed4cf8-2fc2-45aa-99e9-80f98041ba3f","ios":"levelo://app?vid=eeed4cf8-2fc2-45aa-99e9-80f98041ba3f"},"vehicle_type_id":"4","last_reported":1687716536,"current_range_meters":25600,"station_id":"ce4bh412rcd13ifvqds0","pricing_plan_id":"free"},{"bike_id":"eab0e61c-eb79-48a3-bbe1-7f5315c1a8b4","system_id":"levelo_inurba_marseille","lat":43.286595,"lon":5.386795,"is_reserved":false,"is_disabled":false,"rental_uris":{"android":"levelo://app?vid=eab0e61c-eb79-48a3-bbe1-7f5315c1a8b4","ios":"levelo://app?vid=eab0e61c-eb79-48a3-bbe1-7f5315c1a8b4"},"vehicle_type_id":"4","last_reported":1687716536,"current_range_meters":3600,"station_id":"ce4bh492rcd13ifvqdug","pricing_plan_id":"free"},{"bike_id":"ed7bb570-fb4d-4125-967c-90fbdb6fff46","system_id":"levelo_inurba_marseille","lat":43.286595,"lon":5.386795,"is_reserved":false,"is_disabled":false,"rental_uris":{"android":"levelo://app?vid=ed7bb570-fb4d-4125-967c-90fbdb6fff46","ios":"levelo://app?vid=ed7bb570-fb4d-4125-967c-90fbdb6fff46"},"vehicle_type_id":"4","last_reported":1687716536,"current_range_meters":0,"station_id":"ce4bh492rcd13ifvqdug","pricing_plan_id":"free"},{"bike_id":"1dbfac4a-5e90-45d5-87e9-f9009d3e353b","system_id":"levelo_inurba_marseille","lat":43.323464,"lon":5.406297,"is_reserved":false,"is_disabled":false,"rental_uris":{"android":"levelo://app?vid=1dbfac4a-5e90-45d5-87e9-f9009d3e353b","ios":"levelo://app?vid=1dbfac4a-5e90-45d5-87e9-f9009d3e353b"},"vehicle_type_id":"4","last_reported":1687716536,"current_range_meters":7600,"station_id":"ce4bhq92rcd13ifvqhjg","pricing_plan_id":"free"},{"bike_id":"7c0bbcf9-4499-4a1e-be6b-effe1f6db7d4","system_id":"levelo_inurba_marseille","lat":43.323464,"lon":5.406297,"is_reserved":false,"is_disabled":false,"rental_uris":{"android":"levelo://app?vid=7c0bbcf9-4499-4a1e-be6b-effe1f6db7d4","ios":"levelo://app?vid=7c0bbcf9-4499-4a1e-be6b-effe1f6db7d4"},"vehicle_type_id":"4","last_reported":1687716536,"current_range_meters":31200,"station_id":"ce4bhq92rcd13ifvqhjg","pricing_plan_id":"free"},{"bike_id":"08d3a3af-9562-4b2d-9a1b-c76ad44060dc","system_id":"levelo_inurba_marseille","lat":43.284787,"lon":5.384116,"is_reserved":false,"is_disabled":false,"rental_uris":{"android":"levelo://app?vid=08d3a3af-9562-4b2d-9a1b-c76ad44060dc","ios":"levelo://app?vid=08d3a3af-9562-4b2d-9a1b-c76ad44060dc"},"vehicle_type_id":"4","last_reported":1687716536,"current_range_meters":800,"station_id":"ce4bh512rcd13ifvqe3g","pricing_plan_id":"free"},{"bike_id":"b4c950db-352f-4a1a-8e3c-c05101a6dad0","system_id":"levelo_inurba_marseille","lat":43.288501,"lon":5.393087,"is_reserved":false,"is_disabled":false,"rental_uris":{"android":"levelo://app?vid=b4c950db-352f-4a1a-8e3c-c05101a6dad0","ios":"levelo://app?vid=b4c950db-352f-4a1a-8e3c-c05101a6dad0"},"vehicle_type_id":"4","last_reported":1687716536,"current_range_meters":31200,"station_id":"ce4bh2p2rcd13ifvqdi0","pricing_plan_id":"free"},{"bike_id":"93ef2c7a-d717-470b-95bb-e0e2768eb2f9","system_id":"levelo_inurba_marseille","lat":43.292724,"lon":5.401131,"is_reserved":false,"is_disabled":false,"rental_uris":{"android":"levelo://app?vid=93ef2c7a-d717-470b-95bb-e0e2768eb2f9","ios":"levelo://app?vid=93ef2c7a-d717-470b-95bb-e0e2768eb2f9"},"vehicle_type_id":"4","last_reported":1687716536,"current_range_meters":0,"station_id":"ce4bh312rcd13ifvqdk0","pricing_plan_id":"free"},{"bike_id":"dd518b78-b7d6-4460-afb4-5b95044e0cc9","system_id":"levelo_inurba_marseille","lat":43.282744,"lon":5.350533,"is_reserved":false,"is_disabled":false,"rental_uris":{"android":"levelo://app?vid=dd518b78-b7d6-4460-afb4-5b95044e0cc9","ios":"levelo://app?vid=dd518b78-b7d6-4460-afb4-5b95044e0cc9"},"vehicle_type_id":"4","last_reported":1687716536,"current_range_meters":15200,"station_id":"ce4bhbp2rcd13ifvqerg","pricing_plan_id":"free"},{"bike_id":"b925b3df-1051-49f0-8bc1-74e166077e03","system_id":"levelo_inurba_marseille","lat":43.28039,"lon":5.369297,"is_reserved":false,"is_disabled":false,"rental_uris":{"android":"levelo://app?vid=b925b3df-1051-49f0-8bc1-74e166077e03","ios":"levelo://app?vid=b925b3df-1051-49f0-8bc1-74e166077e03"},"vehicle_type_id":"4","last_reported":1687716536,"current_range_meters":24000,"station_id":"ce4bha12rcd13ifvqef0","pricing_plan_id":"free"},{"bike_id":"72221b60-63f3-46ef-bcd7-5703eade6db6","system_id":"levelo_inurba_marseille","lat":43.282744,"lon":5.350533,"is_reserved":false,"is_disabled":false,"rental_uris":{"android":"levelo://app?vid=72221b60-63f3-46ef-bcd7-5703eade6db6","ios":"levelo://app?vid=72221b60-63f3-46ef-bcd7-5703eade6db6"},"vehicle_type_id":"4","last_reported":1687716536,"current_range_meters":2400,"station_id":"ce4bhbp2rcd13ifvqerg","pricing_plan_id":"free"},{"bike_id":"e4e503e0-dbae-40f2-8435-6894193ce805","system_id":"levelo_inurba_marseille","lat":43.280382,"lon":5.369291,"is_reserved":false,"is_disabled":false,"rental_uris":{"android":"levelo://app?vid=e4e503e0-dbae-40f2-8435-6894193ce805","ios":"levelo://app?vid=e4e503e0-dbae-40f2-8435-6894193ce805"},"vehicle_type_id":"4","last_reported":1687716536,"current_range_meters":2000,"station_id":"ce4bha12rcd13ifvqef0","pricing_plan_id":"free"},{"bike_id":"04b1bbc8-8334-4c62-9e6a-436da8363505","system_id":"levelo_inurba_marseille","lat":43.296263,"lon":5.40601,"is_reserved":false,"is_disabled":false,"rental_uris":{"android":"levelo://app?vid=04b1bbc8-8334-4c62-9e6a-436da8363505","ios":"levelo://app?vid=04b1bbc8-8334-4c62-9e6a-436da8363505"},"vehicle_type_id":"4","last_reported":1687716536,"current_range_meters":22400,"station_id":"ce4bh0h2rcd13ifvqd60","pricing_plan_id":"free"},{"bike_id":"4a98cd46-f1a7-438a-b818-41dc03fa5e30","system_id":"levelo_inurba_marseille","lat":43.281044,"lon":5.378308,"is_reserved":false,"is_disabled":false,"rental_uris":{"android":"levelo://app?vid=4a98cd46-f1a7-438a-b818-41dc03fa5e30","ios":"levelo://app?vid=4a98cd46-f1a7-438a-b818-41dc03fa5e30"},"vehicle_type_id":"4","last_reported":1687716536,"current_range_meters":2000,"station_id":"ce4bha12rcd13ifvqee0","pricing_plan_id":"free"},{"bike_id":"dbbdcd29-cf64-4ed3-9f2e-c0b1f5a533a0","system_id":"levelo_inurba_marseille","lat":43.284462,"lon":5.392121,"is_reserved":false,"is_disabled":false,"rental_uris":{"android":"levelo://app?vid=dbbdcd29-cf64-4ed3-9f2e-c0b1f5a533a0","ios":"levelo://app?vid=dbbdcd29-cf64-4ed3-9f2e-c0b1f5a533a0"},"vehicle_type_id":"4","last_reported":1687716536,"current_range_meters":5200,"station_id":"ce4bhoh2rcd13ifvqh5g","pricing_plan_id":"free"},{"bike_id":"1fbd765e-5a15-46ed-9232-6ae9530b9de3","system_id":"levelo_inurba_marseille","lat":43.28573,"lon":5.394992,"is_reserved":false,"is_disabled":false,"rental_uris":{"android":"levelo://app?vid=1fbd765e-5a15-46ed-9232-6ae9530b9de3","ios":"levelo://app?vid=1fbd765e-5a15-46ed-9232-6ae9530b9de3"},"vehicle_type_id":"4","last_reported":1687716536,"current_range_meters":5200,"station_id":"ce4bh292rcd13ifvqdg0","pricing_plan_id":"free"},{"bike_id":"ff60adae-f71a-4e2f-9c03-c28e9ecc3c45","system_id":"levelo_inurba_marseille","lat":43.326605,"lon":5.409903,"is_reserved":false,"is_disabled":false,"rental_uris":{"android":"levelo://app?vid=ff60adae-f71a-4e2f-9c03-c28e9ecc3c45","ios":"levelo://app?vid=ff60adae-f71a-4e2f-9c03-c28e9ecc3c45"},"vehicle_type_id":"4","last_reported":1687716536,"current_range_meters":31200,"station_id":"ce4bhpp2rcd13ifvqhgg","pricing_plan_id":"free"},{"bike_id":"ebeb8ff5-e51c-4b18-b07a-c62304e88b17","system_id":"levelo_inurba_marseille","lat":43.326605,"lon":5.409903,"is_reserved":false,"is_disabled":false,"rental_uris":{"android":"levelo://app?vid=ebeb8ff5-e51c-4b18-b07a-c62304e88b17","ios":"levelo://app?vid=ebeb8ff5-e51c-4b18-b07a-c62304e88b17"},"vehicle_type_id":"4","last_reported":1687716536,"current_range_meters":31200,"station_id":"ce4bhpp2rcd13ifvqhgg","pricing_plan_id":"free"},{"bike_id":"7f4e5f33-3d6b-4470-b773-9bb881f7fc86","system_id":"levelo_inurba_marseille","lat":43.326576,"lon":5.409933,"is_reserved":false,"is_disabled":false,"rental_uris":{"android":"levelo://app?vid=7f4e5f33-3d6b-4470-b773-9bb881f7fc86","ios":"levelo://app?vid=7f4e5f33-3d6b-4470-b773-9bb881f7fc86"},"vehicle_type_id":"4","last_reported":1687716536,"current_range_meters":0,"station_id":"ce4bhpp2rcd13ifvqhgg","pricing_plan_id":"free"},{"bike_id":"b29f0795-eb87-4ea6-adae-590366243afb","system_id":"levelo_inurba_marseille","lat":43.326605,"lon":5.409903,"is_reserved":false,"is_disabled":false,"rental_uris":{"android":"levelo://app?vid=b29f0795-eb87-4ea6-adae-590366243afb","ios":"levelo://app?vid=b29f0795-eb87-4ea6-adae-590366243afb"},"vehicle_type_id":"4","last_reported":1687716536,"current_range_meters":26400,"station_id":"ce4bhpp2rcd13ifvqhgg","pricing_plan_id":"free"},{"bike_id":"97777373-e4b7-4859-9719-b75e519a9ae6","system_id":"levelo_inurba_marseille","lat":43.326605,"lon":5.409903,"is_reserved":false,"is_disabled":false,"rental_uris":{"android":"levelo://app?vid=97777373-e4b7-4859-9719-b75e519a9ae6","ios":"levelo://app?vid=97777373-e4b7-4859-9719-b75e519a9ae6"},"vehicle_type_id":"4","last_reported":1687716536,"current_range_meters":4400,"station_id":"ce4bhpp2rcd13ifvqhgg","pricing_plan_id":"free"},{"bike_id":"a07e02d6-db57-4692-9971-fc077a19d0a2","system_id":"levelo_inurba_marseille","lat":43.304188,"lon":5.412904,"is_reserved":false,"is_disabled":false,"rental_uris":{"android":"levelo://app?vid=a07e02d6-db57-4692-9971-fc077a19d0a2","ios":"levelo://app?vid=a07e02d6-db57-4692-9971-fc077a19d0a2"},"vehicle_type_id":"4","last_reported":1687716536,"current_range_meters":11600,"station_id":"ce4bhop2rcd13ifvqh8g","pricing_plan_id":"free"},{"bike_id":"e2909745-5335-4913-b05e-aff179272771","system_id":"levelo_inurba_marseille","lat":43.279087,"lon":5.380114,"is_reserved":false,"is_disabled":false,"rental_uris":{"android":"levelo://app?vid=e2909745-5335-4913-b05e-aff179272771","ios":"levelo://app?vid=e2909745-5335-4913-b05e-aff179272771"},"vehicle_type_id":"4","last_reported":1687716536,"current_range_meters":21200,"station_id":"ce4bhf92rcd13ifvqf50","pricing_plan_id":"free"},{"bike_id":"738c286a-a6ad-4c29-93a7-9c37b39eb575","system_id":"levelo_inurba_marseille","lat":43.279087,"lon":5.380114,"is_reserved":false,"is_disabled":false,"rental_uris":{"android":"levelo://app?vid=738c286a-a6ad-4c29-93a7-9c37b39eb575","ios":"levelo://app?vid=738c286a-a6ad-4c29-93a7-9c37b39eb575"},"vehicle_type_id":"4","last_reported":1687716536,"current_range_meters":6400,"station_id":"ce4bhf92rcd13ifvqf50","pricing_plan_id":"free"},{"bike_id":"50fd953c-9754-45f4-aec7-ae52bb9eb6fe","system_id":"levelo_inurba_marseille","lat":43.287154,"lon":5.399979,"is_reserved":false,"is_disabled":false,"rental_uris":{"android":"levelo://app?vid=50fd953c-9754-45f4-aec7-ae52bb9eb6fe","ios":"levelo://app?vid=50fd953c-9754-45f4-aec7-ae52bb9eb6fe"},"vehicle_type_id":"4","last_reported":1687716536,"current_range_meters":31200,"station_id":"ce4bho92rcd13ifvqh3g","pricing_plan_id":"free"},{"bike_id":"c9ac0a54-36c8-475f-95b3-12b03321e331","system_id":"levelo_inurba_marseille","lat":43.279742,"lon":5.38744,"is_reserved":false,"is_disabled":false,"rental_uris":{"android":"levelo://app?vid=c9ac0a54-36c8-475f-95b3-12b03321e331","ios":"levelo://app?vid=c9ac0a54-36c8-475f-95b3-12b03321e331"},"vehicle_type_id":"4","last_reported":1687716536,"current_range_meters":13600,"station_id":"ce4bhg12rcd13ifvqf80","pricing_plan_id":"free"},{"bike_id":"64d36a45-140b-414a-a0f7-bcd397309a34","system_id":"levelo_inurba_marseille","lat":43.299579,"lon":5.413255,"is_reserved":false,"is_disabled":false,"rental_uris":{"android":"levelo://app?vid=64d36a45-140b-414a-a0f7-bcd397309a34","ios":"levelo://app?vid=64d36a45-140b-414a-a0f7-bcd397309a34"},"vehicle_type_id":"4","last_reported":1687716536,"current_range_meters":18800,"station_id":"ce4bhp12rcd13ifvqh9g","pricing_plan_id":"free"},{"bike_id":"66f969a7-0688-487b-b895-18f097b4024d","system_id":"levelo_inurba_marseille","lat":43.320045,"lon":5.415046,"is_reserved":false,"is_disabled":false,"rental_uris":{"android":"levelo://app?vid=66f969a7-0688-487b-b895-18f097b4024d","ios":"levelo://app?vid=66f969a7-0688-487b-b895-18f097b4024d"},"vehicle_type_id":"4","last_reported":1687716536,"current_range_meters":14800,"station_id":"ce4bhq92rcd13ifvqhkg","pricing_plan_id":"free"},{"bike_id":"d2260bbc-39a1-4ce8-ba20-29567252b501","system_id":"levelo_inurba_marseille","lat":43.320045,"lon":5.415046,"is_reserved":false,"is_disabled":false,"rental_uris":{"android":"levelo://app?vid=d2260bbc-39a1-4ce8-ba20-29567252b501","ios":"levelo://app?vid=d2260bbc-39a1-4ce8-ba20-29567252b501"},"vehicle_type_id":"4","last_reported":1687716536,"current_range_meters":18800,"station_id":"ce4bhq92rcd13ifvqhkg","pricing_plan_id":"free"},{"bike_id":"eed820d9-f2b7-4b38-8a48-485fe25ba1ca","system_id":"levelo_inurba_marseille","lat":43.279742,"lon":5.38744,"is_reserved":false,"is_disabled":false,"rental_uris":{"android":"levelo://app?vid=eed820d9-f2b7-4b38-8a48-485fe25ba1ca","ios":"levelo://app?vid=eed820d9-f2b7-4b38-8a48-485fe25ba1ca"},"vehicle_type_id":"4","last_reported":1687716536,"current_range_meters":15600,"station_id":"ce4bhg12rcd13ifvqf80","pricing_plan_id":"free"},{"bike_id":"d7370853-686b-4ed8-b4fe-4368b9a08294","system_id":"levelo_inurba_marseille","lat":43.279742,"lon":5.38744,"is_reserved":false,"is_disabled":false,"rental_uris":{"android":"levelo://app?vid=d7370853-686b-4ed8-b4fe-4368b9a08294","ios":"levelo://app?vid=d7370853-686b-4ed8-b4fe-4368b9a08294"},"vehicle_type_id":"4","last_reported":1687716536,"current_range_meters":6800,"station_id":"ce4bhg12rcd13ifvqf80","pricing_plan_id":"free"},{"bike_id":"330cf6e9-42d1-4fd6-afbc-da023a3c3ef0","system_id":"levelo_inurba_marseille","lat":43.292569,"lon":5.409107,"is_reserved":false,"is_disabled":false,"rental_uris":{"android":"levelo://app?vid=330cf6e9-42d1-4fd6-afbc-da023a3c3ef0","ios":"levelo://app?vid=330cf6e9-42d1-4fd6-afbc-da023a3c3ef0"},"vehicle_type_id":"4","last_reported":1687716536,"current_range_meters":16400,"station_id":"ce4bh192rcd13ifvqdc0","pricing_plan_id":"free"},{"bike_id":"6b081579-5bc6-4147-a52b-60a25fbaf4d1","system_id":"levelo_inurba_marseille","lat":43.325233,"lon":5.414318,"is_reserved":false,"is_disabled":false,"rental_uris":{"android":"levelo://app?vid=6b081579-5bc6-4147-a52b-60a25fbaf4d1","ios":"levelo://app?vid=6b081579-5bc6-4147-a52b-60a25fbaf4d1"},"vehicle_type_id":"4","last_reported":1687716536,"current_range_meters":29600,"station_id":"ce4bhq12rcd13ifvqhhg","pricing_plan_id":"free"},{"bike_id":"adf0ea61-0d73-49a9-81f8-7ebe6388818f","system_id":"levelo_inurba_marseille","lat":43.325243,"lon":5.414326,"is_reserved":false,"is_disabled":false,"rental_uris":{"android":"levelo://app?vid=adf0ea61-0d73-49a9-81f8-7ebe6388818f","ios":"levelo://app?vid=adf0ea61-0d73-49a9-81f8-7ebe6388818f"},"vehicle_type_id":"4","last_reported":1687716536,"current_range_meters":20400,"station_id":"ce4bhq12rcd13ifvqhhg","pricing_plan_id":"free"},{"bike_id":"ae91b6fc-3cda-4972-9cf3-63edfd3ee558","system_id":"levelo_inurba_marseille","lat":43.276179,"lon":5.361009,"is_reserved":false,"is_disabled":false,"rental_uris":{"android":"levelo://app?vid=ae91b6fc-3cda-4972-9cf3-63edfd3ee558","ios":"levelo://app?vid=ae91b6fc-3cda-4972-9cf3-63edfd3ee558"},"vehicle_type_id":"4","last_reported":1687716536,"current_range_meters":0,"station_id":"ce4bgj92rcd13ifvqbe0","pricing_plan_id":"free"},{"bike_id":"8006fed1-1663-44d5-8c2f-3eb912bcc9e3","system_id":"levelo_inurba_marseille","lat":43.276179,"lon":5.361009,"is_reserved":false,"is_disabled":false,"rental_uris":{"android":"levelo://app?vid=8006fed1-1663-44d5-8c2f-3eb912bcc9e3","ios":"levelo://app?vid=8006fed1-1663-44d5-8c2f-3eb912bcc9e3"},"vehicle_type_id":"4","last_reported":1687716536,"current_range_meters":0,"station_id":"ce4bgj92rcd13ifvqbe0","pricing_plan_id":"free"},{"bike_id":"0889cdea-dd64-40f1-ad77-be74036f1f76","system_id":"levelo_inurba_marseille","lat":43.27703,"lon":5.38283,"is_reserved":false,"is_disabled":false,"rental_uris":{"android":"levelo://app?vid=0889cdea-dd64-40f1-ad77-be74036f1f76","ios":"levelo://app?vid=0889cdea-dd64-40f1-ad77-be74036f1f76"},"vehicle_type_id":"4","last_reported":1687716536,"current_range_meters":12800,"station_id":"","pricing_plan_id":"free"},{"bike_id":"78fe2fbb-6a1e-49d0-b4fa-cf9910acecd8","system_id":"levelo_inurba_marseille","lat":43.280784,"lon":5.396622,"is_reserved":false,"is_disabled":false,"rental_uris":{"android":"levelo://app?vid=78fe2fbb-6a1e-49d0-b4fa-cf9910acecd8","ios":"levelo://app?vid=78fe2fbb-6a1e-49d0-b4fa-cf9910acecd8"},"vehicle_type_id":"4","last_reported":1687716536,"current_range_meters":28000,"station_id":"ce4bho12rcd13ifvqh2g","pricing_plan_id":"free"},{"bike_id":"c2e91a31-73bd-4044-8317-1659adab25e5","system_id":"levelo_inurba_marseille","lat":43.275625,"lon":5.384392,"is_reserved":false,"is_disabled":false,"rental_uris":{"android":"levelo://app?vid=c2e91a31-73bd-4044-8317-1659adab25e5","ios":"levelo://app?vid=c2e91a31-73bd-4044-8317-1659adab25e5"},"vehicle_type_id":"4","last_reported":1687716536,"current_range_meters":22000,"station_id":"ce4bhh92rcd13ifvqfi0","pricing_plan_id":"free"},{"bike_id":"4b1e9158-e017-4f8b-8c60-6c23a7774c43","system_id":"levelo_inurba_marseille","lat":43.273609,"lon":5.362708,"is_reserved":false,"is_disabled":false,"rental_uris":{"android":"levelo://app?vid=4b1e9158-e017-4f8b-8c60-6c23a7774c43","ios":"levelo://app?vid=4b1e9158-e017-4f8b-8c60-6c23a7774c43"},"vehicle_type_id":"4","last_reported":1687716536,"current_range_meters":16000,"station_id":"ce4bhbh2rcd13ifvqeo0","pricing_plan_id":"free"},{"bike_id":"9d0c88a7-de70-4d37-a099-038761772c30","system_id":"levelo_inurba_marseille","lat":43.273609,"lon":5.362708,"is_reserved":false,"is_disabled":false,"rental_uris":{"android":"levelo://app?vid=9d0c88a7-de70-4d37-a099-038761772c30","ios":"levelo://app?vid=9d0c88a7-de70-4d37-a099-038761772c30"},"vehicle_type_id":"4","last_reported":1687716536,"current_range_meters":22400,"station_id":"ce4bhbh2rcd13ifvqeo0","pricing_plan_id":"free"},{"bike_id":"4e94bad8-caaa-4bad-9505-f27c37119699","system_id":"levelo_inurba_marseille","lat":43.273609,"lon":5.362708,"is_reserved":false,"is_disabled":false,"rental_uris":{"android":"levelo://app?vid=4e94bad8-caaa-4bad-9505-f27c37119699","ios":"levelo://app?vid=4e94bad8-caaa-4bad-9505-f27c37119699"},"vehicle_type_id":"4","last_reported":1687716536,"current_range_meters":10400,"station_id":"ce4bhbh2rcd13ifvqeo0","pricing_plan_id":"free"},{"bike_id":"825c7b25-6b34-466d-8e20-00a65ea0f447","system_id":"levelo_inurba_marseille","lat":43.33612,"lon":5.410321,"is_reserved":false,"is_disabled":false,"rental_uris":{"android":"levelo://app?vid=825c7b25-6b34-466d-8e20-00a65ea0f447","ios":"levelo://app?vid=825c7b25-6b34-466d-8e20-00a65ea0f447"},"vehicle_type_id":"4","last_reported":1687716536,"current_range_meters":20000,"station_id":"ce4bhqh2rcd13ifvqhmg","pricing_plan_id":"free"},{"bike_id":"01208fbe-9431-4ed6-ac1f-e90329c35bdb","system_id":"levelo_inurba_marseille","lat":43.26955,"lon":5.36633,"is_reserved":false,"is_disabled":false,"rental_uris":{"android":"levelo://app?vid=01208fbe-9431-4ed6-ac1f-e90329c35bdb","ios":"levelo://app?vid=01208fbe-9431-4ed6-ac1f-e90329c35bdb"},"vehicle_type_id":"4","last_reported":1687716536,"current_range_meters":0,"station_id":"","pricing_plan_id":"free"},{"bike_id":"18259177-6ddf-4947-bb56-31cee10c2644","system_id":"levelo_inurba_marseille","lat":43.304096,"lon":5.425385,"is_reserved":false,"is_disabled":false,"rental_uris":{"android":"levelo://app?vid=18259177-6ddf-4947-bb56-31cee10c2644","ios":"levelo://app?vid=18259177-6ddf-4947-bb56-31cee10c2644"},"vehicle_type_id":"4","last_reported":1687716536,"current_range_meters":20800,"station_id":"ce4bhoh2rcd13ifvqh6g","pricing_plan_id":"free"},{"bike_id":"7ba2fd51-8a33-46e6-bdfa-ebc37cad61ba","system_id":"levelo_inurba_marseille","lat":43.295523,"lon":5.422926,"is_reserved":false,"is_disabled":false,"rental_uris":{"android":"levelo://app?vid=7ba2fd51-8a33-46e6-bdfa-ebc37cad61ba","ios":"levelo://app?vid=7ba2fd51-8a33-46e6-bdfa-ebc37cad61ba"},"vehicle_type_id":"4","last_reported":1687716536,"current_range_meters":11600,"station_id":"ce4bhph2rcd13ifvqhdg","pricing_plan_id":"free"},{"bike_id":"4fa21102-9c5c-4785-8da0-3d7f957b0c31","system_id":"levelo_inurba_marseille","lat":43.272118,"lon":5.391758,"is_reserved":false,"is_disabled":false,"rental_uris":{"android":"levelo://app?vid=4fa21102-9c5c-4785-8da0-3d7f957b0c31","ios":"levelo://app?vid=4fa21102-9c5c-4785-8da0-3d7f957b0c31"},"vehicle_type_id":"4","last_reported":1687716536,"current_range_meters":28800,"station_id":"ce4bhhp2rcd13ifvqfm0","pricing_plan_id":"free"},{"bike_id":"8a8c969b-2e3a-4eba-8e9a-d7a4678d6147","system_id":"levelo_inurba_marseille","lat":43.278128,"lon":5.407195,"is_reserved":false,"is_disabled":false,"rental_uris":{"android":"levelo://app?vid=8a8c969b-2e3a-4eba-8e9a-d7a4678d6147","ios":"levelo://app?vid=8a8c969b-2e3a-4eba-8e9a-d7a4678d6147"},"vehicle_type_id":"4","last_reported":1687716536,"current_range_meters":21200,"station_id":"ce4bhnh2rcd13ifvqgtg","pricing_plan_id":"free"},{"bike_id":"22f28d4a-e3e3-4a3b-a5e2-2f69cc51eae0","system_id":"levelo_inurba_marseille","lat":43.278128,"lon":5.407195,"is_reserved":false,"is_disabled":false,"rental_uris":{"android":"levelo://app?vid=22f28d4a-e3e3-4a3b-a5e2-2f69cc51eae0","ios":"levelo://app?vid=22f28d4a-e3e3-4a3b-a5e2-2f69cc51eae0"},"vehicle_type_id":"4","last_reported":1687716536,"current_range_meters":6400,"station_id":"ce4bhnh2rcd13ifvqgtg","pricing_plan_id":"free"},{"bike_id":"5b9d566d-72d3-4bdd-b82f-c3ece0f87570","system_id":"levelo_inurba_marseille","lat":43.278128,"lon":5.407195,"is_reserved":false,"is_disabled":false,"rental_uris":{"android":"levelo://app?vid=5b9d566d-72d3-4bdd-b82f-c3ece0f87570","ios":"levelo://app?vid=5b9d566d-72d3-4bdd-b82f-c3ece0f87570"},"vehicle_type_id":"4","last_reported":1687716536,"current_range_meters":4800,"station_id":"ce4bhnh2rcd13ifvqgtg","pricing_plan_id":"free"},{"bike_id":"ae48766c-6c0d-4da9-9196-f1c972db2e46","system_id":"levelo_inurba_marseille","lat":43.278128,"lon":5.407195,"is_reserved":false,"is_disabled":false,"rental_uris":{"android":"levelo://app?vid=ae48766c-6c0d-4da9-9196-f1c972db2e46","ios":"levelo://app?vid=ae48766c-6c0d-4da9-9196-f1c972db2e46"},"vehicle_type_id":"4","last_reported":1687716536,"current_range_meters":26400,"station_id":"ce4bhnh2rcd13ifvqgtg","pricing_plan_id":"free"},{"bike_id":"999562b3-a1ef-4057-a040-33c73b134c97","system_id":"levelo_inurba_marseille","lat":43.269467,"lon":5.386439,"is_reserved":false,"is_disabled":false,"rental_uris":{"android":"levelo://app?vid=999562b3-a1ef-4057-a040-33c73b134c97","ios":"levelo://app?vid=999562b3-a1ef-4057-a040-33c73b134c97"},"vehicle_type_id":"4","last_reported":1687716536,"current_range_meters":26800,"station_id":"ce4bhh92rcd13ifvqfh0","pricing_plan_id":"free"},{"bike_id":"3344b3fb-bb37-4d4b-8736-6bb9a1b600a4","system_id":"levelo_inurba_marseille","lat":43.27985,"lon":5.41662,"is_reserved":false,"is_disabled":false,"rental_uris":{"android":"levelo://app?vid=3344b3fb-bb37-4d4b-8736-6bb9a1b600a4","ios":"levelo://app?vid=3344b3fb-bb37-4d4b-8736-6bb9a1b600a4"},"vehicle_type_id":"4","last_reported":1687716536,"current_range_meters":26000,"station_id":"ce4bho12rcd13ifvqh1g","pricing_plan_id":"free"},{"bike_id":"9528387d-c7fb-4336-be26-86af6bf69545","system_id":"levelo_inurba_marseille","lat":43.267966,"lon":5.393976,"is_reserved":false,"is_disabled":false,"rental_uris":{"android":"levelo://app?vid=9528387d-c7fb-4336-be26-86af6bf69545","ios":"levelo://app?vid=9528387d-c7fb-4336-be26-86af6bf69545"},"vehicle_type_id":"4","last_reported":1687716536,"current_range_meters":23200,"station_id":"ce4bhh12rcd13ifvqfg0","pricing_plan_id":"free"},{"bike_id":"d4f264e3-ecf8-4f1c-bc2e-778acd680520","system_id":"levelo_inurba_marseille","lat":43.30799,"lon":5.43519,"is_reserved":false,"is_disabled":false,"rental_uris":{"android":"levelo://app?vid=d4f264e3-ecf8-4f1c-bc2e-778acd680520","ios":"levelo://app?vid=d4f264e3-ecf8-4f1c-bc2e-778acd680520"},"vehicle_type_id":"4","last_reported":1687716536,"current_range_meters":11200,"station_id":"ce4bhph2rcd13ifvqheg","pricing_plan_id":"free"},{"bike_id":"46e67c8b-b6c3-4c76-8fb1-57c130e6fc17","system_id":"levelo_inurba_marseille","lat":43.308051,"lon":5.43527,"is_reserved":false,"is_disabled":false,"rental_uris":{"android":"levelo://app?vid=46e67c8b-b6c3-4c76-8fb1-57c130e6fc17","ios":"levelo://app?vid=46e67c8b-b6c3-4c76-8fb1-57c130e6fc17"},"vehicle_type_id":"4","last_reported":1687716536,"current_range_meters":17200,"station_id":"ce4bhph2rcd13ifvqheg","pricing_plan_id":"free"},{"bike_id":"13631c65-d3b1-4288-a4ac-e6b4c1736476","system_id":"levelo_inurba_marseille","lat":43.30798,"lon":5.43522,"is_reserved":false,"is_disabled":false,"rental_uris":{"android":"levelo://app?vid=13631c65-d3b1-4288-a4ac-e6b4c1736476","ios":"levelo://app?vid=13631c65-d3b1-4288-a4ac-e6b4c1736476"},"vehicle_type_id":"4","last_reported":1687716536,"current_range_meters":9600,"station_id":"ce4bhph2rcd13ifvqheg","pricing_plan_id":"free"},{"bike_id":"d2e70966-95eb-489f-8366-135354866108","system_id":"levelo_inurba_marseille","lat":43.30798,"lon":5.43522,"is_reserved":false,"is_disabled":false,"rental_uris":{"android":"levelo://app?vid=d2e70966-95eb-489f-8366-135354866108","ios":"levelo://app?vid=d2e70966-95eb-489f-8366-135354866108"},"vehicle_type_id":"4","last_reported":1687716536,"current_range_meters":16400,"station_id":"ce4bhph2rcd13ifvqheg","pricing_plan_id":"free"},{"bike_id":"edc3ebe4-9a7c-43b9-bd79-3b964ef5926b","system_id":"levelo_inurba_marseille","lat":43.30795,"lon":5.43524,"is_reserved":false,"is_disabled":false,"rental_uris":{"android":"levelo://app?vid=edc3ebe4-9a7c-43b9-bd79-3b964ef5926b","ios":"levelo://app?vid=edc3ebe4-9a7c-43b9-bd79-3b964ef5926b"},"vehicle_type_id":"4","last_reported":1687716536,"current_range_meters":27200,"station_id":"ce4bhph2rcd13ifvqheg","pricing_plan_id":"free"},{"bike_id":"4d209566-1427-47ac-9d19-9043b349909c","system_id":"levelo_inurba_marseille","lat":43.30792,"lon":5.43526,"is_reserved":false,"is_disabled":false,"rental_uris":{"android":"levelo://app?vid=4d209566-1427-47ac-9d19-9043b349909c","ios":"levelo://app?vid=4d209566-1427-47ac-9d19-9043b349909c"},"vehicle_type_id":"4","last_reported":1687716536,"current_range_meters":20400,"station_id":"ce4bhph2rcd13ifvqheg","pricing_plan_id":"free"},{"bike_id":"aaa33133-70e1-4c3f-bf8e-228a94afcaa1","system_id":"levelo_inurba_marseille","lat":43.30795,"lon":5.43527,"is_reserved":false,"is_disabled":false,"rental_uris":{"android":"levelo://app?vid=aaa33133-70e1-4c3f-bf8e-228a94afcaa1","ios":"levelo://app?vid=aaa33133-70e1-4c3f-bf8e-228a94afcaa1"},"vehicle_type_id":"4","last_reported":1687716536,"current_range_meters":15200,"station_id":"ce4bhph2rcd13ifvqheg","pricing_plan_id":"free"},{"bike_id":"21d02a48-92db-4d2e-98b3-51908c5dcde7","system_id":"levelo_inurba_marseille","lat":43.261782,"lon":5.374515,"is_reserved":false,"is_disabled":false,"rental_uris":{"android":"levelo://app?vid=21d02a48-92db-4d2e-98b3-51908c5dcde7","ios":"levelo://app?vid=21d02a48-92db-4d2e-98b3-51908c5dcde7"},"vehicle_type_id":"4","last_reported":1687716536,"current_range_meters":4400,"station_id":"ce4bhgp2rcd13ifvqfc0","pricing_plan_id":"free"},{"bike_id":"b3c3d0e9-231f-4c5c-ba42-9d4a36bbf17b","system_id":"levelo_inurba_marseille","lat":43.261782,"lon":5.374515,"is_reserved":false,"is_disabled":false,"rental_uris":{"android":"levelo://app?vid=b3c3d0e9-231f-4c5c-ba42-9d4a36bbf17b","ios":"levelo://app?vid=b3c3d0e9-231f-4c5c-ba42-9d4a36bbf17b"},"vehicle_type_id":"4","last_reported":1687716536,"current_range_meters":0,"station_id":"ce4bhgp2rcd13ifvqfc0","pricing_plan_id":"free"},{"bike_id":"7fd605c7-f18e-4db5-b2e9-326c1e9b9dbd","system_id":"levelo_inurba_marseille","lat":43.261782,"lon":5.374515,"is_reserved":false,"is_disabled":false,"rental_uris":{"android":"levelo://app?vid=7fd605c7-f18e-4db5-b2e9-326c1e9b9dbd","ios":"levelo://app?vid=7fd605c7-f18e-4db5-b2e9-326c1e9b9dbd"},"vehicle_type_id":"4","last_reported":1687716536,"current_range_meters":12000,"station_id":"ce4bhgp2rcd13ifvqfc0","pricing_plan_id":"free"},{"bike_id":"7bd8514d-fba6-463c-9580-f634c6bb8446","system_id":"levelo_inurba_marseille","lat":43.26202,"lon":5.379299,"is_reserved":false,"is_disabled":false,"rental_uris":{"android":"levelo://app?vid=7bd8514d-fba6-463c-9580-f634c6bb8446","ios":"levelo://app?vid=7bd8514d-fba6-463c-9580-f634c6bb8446"},"vehicle_type_id":"4","last_reported":1687716536,"current_range_meters":800,"station_id":"ce4bhjp2rcd13ifvqg90","pricing_plan_id":"free"},{"bike_id":"2e08fba1-ff2d-47b0-8469-f2b4dfcf3b94","system_id":"levelo_inurba_marseille","lat":43.271368,"lon":5.40928,"is_reserved":false,"is_disabled":false,"rental_uris":{"android":"levelo://app?vid=2e08fba1-ff2d-47b0-8469-f2b4dfcf3b94","ios":"levelo://app?vid=2e08fba1-ff2d-47b0-8469-f2b4dfcf3b94"},"vehicle_type_id":"4","last_reported":1687716536,"current_range_meters":24000,"station_id":"ce4bhl12rcd13ifvqgf0","pricing_plan_id":"free"},{"bike_id":"29a01a01-df37-4aba-b39c-3c95e49c3d74","system_id":"levelo_inurba_marseille","lat":43.239588,"lon":5.366238,"is_reserved":false,"is_disabled":false,"rental_uris":{"android":"levelo://app?vid=29a01a01-df37-4aba-b39c-3c95e49c3d74","ios":"levelo://app?vid=29a01a01-df37-4aba-b39c-3c95e49c3d74"},"vehicle_type_id":"4","last_reported":1687716536,"current_range_meters":8000,"station_id":"ce4bhi12rcd13ifvqfp0","pricing_plan_id":"free"},{"bike_id":"a073aa98-bf1f-43da-a227-bb4d859360f3","system_id":"levelo_inurba_marseille","lat":43.271388,"lon":5.409269,"is_reserved":false,"is_disabled":false,"rental_uris":{"android":"levelo://app?vid=a073aa98-bf1f-43da-a227-bb4d859360f3","ios":"levelo://app?vid=a073aa98-bf1f-43da-a227-bb4d859360f3"},"vehicle_type_id":"4","last_reported":1687716536,"current_range_meters":3600,"station_id":"ce4bhl12rcd13ifvqgf0","pricing_plan_id":"free"},{"bike_id":"7e2c5cd5-9f42-468e-8ffc-f54a7fb9de79","system_id":"levelo_inurba_marseille","lat":43.26811,"lon":5.40273,"is_reserved":false,"is_disabled":false,"rental_uris":{"android":"levelo://app?vid=7e2c5cd5-9f42-468e-8ffc-f54a7fb9de79","ios":"levelo://app?vid=7e2c5cd5-9f42-468e-8ffc-f54a7fb9de79"},"vehicle_type_id":"4","last_reported":1687716536,"current_range_meters":28000,"station_id":"","pricing_plan_id":"free"},{"bike_id":"2397ed9f-2cbd-41d9-9c4e-5d7540b6365d","system_id":"levelo_inurba_marseille","lat":43.26106,"lon":5.37292,"is_reserved":false,"is_disabled":false,"rental_uris":{"android":"levelo://app?vid=2397ed9f-2cbd-41d9-9c4e-5d7540b6365d","ios":"levelo://app?vid=2397ed9f-2cbd-41d9-9c4e-5d7540b6365d"},"vehicle_type_id":"4","last_reported":1687716536,"current_range_meters":22400,"station_id":"","pricing_plan_id":"free"},{"bike_id":"055a308f-85c6-45cf-b61e-a1cb9037d321","system_id":"levelo_inurba_marseille","lat":43.26039,"lon":5.37421,"is_reserved":false,"is_disabled":false,"rental_uris":{"android":"levelo://app?vid=055a308f-85c6-45cf-b61e-a1cb9037d321","ios":"levelo://app?vid=055a308f-85c6-45cf-b61e-a1cb9037d321"},"vehicle_type_id":"4","last_reported":1687716536,"current_range_meters":800,"station_id":"","pricing_plan_id":"free"},{"bike_id":"6078cd24-5711-409a-8ffa-29bd26ad9c29","system_id":"levelo_inurba_marseille","lat":43.298768,"lon":5.43643,"is_reserved":false,"is_disabled":false,"rental_uris":{"android":"levelo://app?vid=6078cd24-5711-409a-8ffa-29bd26ad9c29","ios":"levelo://app?vid=6078cd24-5711-409a-8ffa-29bd26ad9c29"},"vehicle_type_id":"4","last_reported":1687716536,"current_range_meters":30000,"station_id":"ce4bhpp2rcd13ifvqhfg","pricing_plan_id":"free"},{"bike_id":"cc492621-d1ac-4f1e-9c90-ba6414587a2b","system_id":"levelo_inurba_marseille","lat":43.260225,"lon":5.375455,"is_reserved":false,"is_disabled":false,"rental_uris":{"android":"levelo://app?vid=cc492621-d1ac-4f1e-9c90-ba6414587a2b","ios":"levelo://app?vid=cc492621-d1ac-4f1e-9c90-ba6414587a2b"},"vehicle_type_id":"4","last_reported":1687716536,"current_range_meters":4400,"station_id":"ce4bhgh2rcd13ifvqfa0","pricing_plan_id":"free"},{"bike_id":"47e5a4fd-8a40-4871-8e5f-f389dcb47ecd","system_id":"levelo_inurba_marseille","lat":43.260225,"lon":5.375455,"is_reserved":false,"is_disabled":false,"rental_uris":{"android":"levelo://app?vid=47e5a4fd-8a40-4871-8e5f-f389dcb47ecd","ios":"levelo://app?vid=47e5a4fd-8a40-4871-8e5f-f389dcb47ecd"},"vehicle_type_id":"4","last_reported":1687716536,"current_range_meters":13200,"station_id":"ce4bhgh2rcd13ifvqfa0","pricing_plan_id":"free"},{"bike_id":"b7cb3028-73dc-4eb9-959d-ee45d007cdb6","system_id":"levelo_inurba_marseille","lat":43.26066,"lon":5.39398,"is_reserved":false,"is_disabled":false,"rental_uris":{"android":"levelo://app?vid=b7cb3028-73dc-4eb9-959d-ee45d007cdb6","ios":"levelo://app?vid=b7cb3028-73dc-4eb9-959d-ee45d007cdb6"},"vehicle_type_id":"4","last_reported":1687716536,"current_range_meters":7200,"station_id":"ce4bhh92rcd13ifvqfj0","pricing_plan_id":"free"},{"bike_id":"005af640-b834-44b2-bf96-5140f83b42ef","system_id":"levelo_inurba_marseille","lat":43.26065,"lon":5.39399,"is_reserved":false,"is_disabled":false,"rental_uris":{"android":"levelo://app?vid=005af640-b834-44b2-bf96-5140f83b42ef","ios":"levelo://app?vid=005af640-b834-44b2-bf96-5140f83b42ef"},"vehicle_type_id":"4","last_reported":1687716536,"current_range_meters":400,"station_id":"ce4bhh92rcd13ifvqfj0","pricing_plan_id":"free"},{"bike_id":"abe207a3-4e0e-434c-afba-c5a243bfe3d5","system_id":"levelo_inurba_marseille","lat":43.27498,"lon":5.42452,"is_reserved":false,"is_disabled":false,"rental_uris":{"android":"levelo://app?vid=abe207a3-4e0e-434c-afba-c5a243bfe3d5","ios":"levelo://app?vid=abe207a3-4e0e-434c-afba-c5a243bfe3d5"},"vehicle_type_id":"4","last_reported":1687716536,"current_range_meters":31200,"station_id":"ce4bhn92rcd13ifvqgrg","pricing_plan_id":"free"},{"bike_id":"20076950-2fe6-4aa5-b729-757599d33e96","system_id":"levelo_inurba_marseille","lat":43.26093,"lon":5.39762,"is_reserved":false,"is_disabled":false,"rental_uris":{"android":"levelo://app?vid=20076950-2fe6-4aa5-b729-757599d33e96","ios":"levelo://app?vid=20076950-2fe6-4aa5-b729-757599d33e96"},"vehicle_type_id":"4","last_reported":1687716536,"current_range_meters":0,"station_id":"ce4bhi12rcd13ifvqfq0","pricing_plan_id":"free"},{"bike_id":"bff03d5d-ed33-491b-bcd6-53aabff4767d","system_id":"levelo_inurba_marseille","lat":43.27494,"lon":5.42451,"is_reserved":false,"is_disabled":false,"rental_uris":{"android":"levelo://app?vid=bff03d5d-ed33-491b-bcd6-53aabff4767d","ios":"levelo://app?vid=bff03d5d-ed33-491b-bcd6-53aabff4767d"},"vehicle_type_id":"4","last_reported":1687716536,"current_range_meters":28400,"station_id":"ce4bhn92rcd13ifvqgrg","pricing_plan_id":"free"},{"bike_id":"5ed48503-2b52-46de-a729-48b3f094656b","system_id":"levelo_inurba_marseille","lat":43.27493,"lon":5.42452,"is_reserved":false,"is_disabled":false,"rental_uris":{"android":"levelo://app?vid=5ed48503-2b52-46de-a729-48b3f094656b","ios":"levelo://app?vid=5ed48503-2b52-46de-a729-48b3f094656b"},"vehicle_type_id":"4","last_reported":1687716536,"current_range_meters":26400,"station_id":"ce4bhn92rcd13ifvqgrg","pricing_plan_id":"free"},{"bike_id":"90c910d3-59b0-47a4-af54-68c084e3189d","system_id":"levelo_inurba_marseille","lat":43.27495,"lon":5.42455,"is_reserved":false,"is_disabled":false,"rental_uris":{"android":"levelo://app?vid=90c910d3-59b0-47a4-af54-68c084e3189d","ios":"levelo://app?vid=90c910d3-59b0-47a4-af54-68c084e3189d"},"vehicle_type_id":"4","last_reported":1687716536,"current_range_meters":31200,"station_id":"ce4bhn92rcd13ifvqgrg","pricing_plan_id":"free"},{"bike_id":"1f0605bb-09e4-4cd0-bc5d-aef39b79467d","system_id":"levelo_inurba_marseille","lat":43.27489,"lon":5.42454,"is_reserved":false,"is_disabled":false,"rental_uris":{"android":"levelo://app?vid=1f0605bb-09e4-4cd0-bc5d-aef39b79467d","ios":"levelo://app?vid=1f0605bb-09e4-4cd0-bc5d-aef39b79467d"},"vehicle_type_id":"4","last_reported":1687716536,"current_range_meters":10000,"station_id":"ce4bhn92rcd13ifvqgrg","pricing_plan_id":"free"},{"bike_id":"f0e36f38-b379-47bb-b642-6fcc01682ff1","system_id":"levelo_inurba_marseille","lat":43.27488,"lon":5.42454,"is_reserved":false,"is_disabled":false,"rental_uris":{"android":"levelo://app?vid=f0e36f38-b379-47bb-b642-6fcc01682ff1","ios":"levelo://app?vid=f0e36f38-b379-47bb-b642-6fcc01682ff1"},"vehicle_type_id":"4","last_reported":1687716536,"current_range_meters":10400,"station_id":"ce4bhn92rcd13ifvqgrg","pricing_plan_id":"free"},{"bike_id":"0d03610b-e8f5-40a4-bb6f-9e1c224d9bde","system_id":"levelo_inurba_marseille","lat":43.2749,"lon":5.42459,"is_reserved":false,"is_disabled":false,"rental_uris":{"android":"levelo://app?vid=0d03610b-e8f5-40a4-bb6f-9e1c224d9bde","ios":"levelo://app?vid=0d03610b-e8f5-40a4-bb6f-9e1c224d9bde"},"vehicle_type_id":"4","last_reported":1687716536,"current_range_meters":20400,"station_id":"ce4bhn92rcd13ifvqgrg","pricing_plan_id":"free"},{"bike_id":"506216f7-e4d7-4d4e-81ab-65b2d25f11b9","system_id":"levelo_inurba_marseille","lat":43.27481,"lon":5.42448,"is_reserved":false,"is_disabled":false,"rental_uris":{"android":"levelo://app?vid=506216f7-e4d7-4d4e-81ab-65b2d25f11b9","ios":"levelo://app?vid=506216f7-e4d7-4d4e-81ab-65b2d25f11b9"},"vehicle_type_id":"4","last_reported":1687716536,"current_range_meters":27600,"station_id":"ce4bhn92rcd13ifvqgrg","pricing_plan_id":"free"},{"bike_id":"27cb7428-83ee-4abf-8164-300f5f3ff7fb","system_id":"levelo_inurba_marseille","lat":43.254945,"lon":5.376454,"is_reserved":false,"is_disabled":false,"rental_uris":{"android":"levelo://app?vid=27cb7428-83ee-4abf-8164-300f5f3ff7fb","ios":"levelo://app?vid=27cb7428-83ee-4abf-8164-300f5f3ff7fb"},"vehicle_type_id":"4","last_reported":1687716536,"current_range_meters":0,"station_id":"ce4bhh12rcd13ifvqff0","pricing_plan_id":"free"},{"bike_id":"554c20e9-a989-40fc-a77b-5e12f8e2fc52","system_id":"levelo_inurba_marseille","lat":43.254947,"lon":5.376454,"is_reserved":false,"is_disabled":false,"rental_uris":{"android":"levelo://app?vid=554c20e9-a989-40fc-a77b-5e12f8e2fc52","ios":"levelo://app?vid=554c20e9-a989-40fc-a77b-5e12f8e2fc52"},"vehicle_type_id":"4","last_reported":1687716536,"current_range_meters":0,"station_id":"ce4bhh12rcd13ifvqff0","pricing_plan_id":"free"},{"bike_id":"4fa8796e-8a35-4bc6-a4f6-2afc3bc3b410","system_id":"levelo_inurba_marseille","lat":43.258658,"lon":5.398935,"is_reserved":false,"is_disabled":false,"rental_uris":{"android":"levelo://app?vid=4fa8796e-8a35-4bc6-a4f6-2afc3bc3b410","ios":"levelo://app?vid=4fa8796e-8a35-4bc6-a4f6-2afc3bc3b410"},"vehicle_type_id":"4","last_reported":1687716536,"current_range_meters":5200,"station_id":"ce4bhl92rcd13ifvqghg","pricing_plan_id":"free"},{"bike_id":"264e0a5c-fa9e-4d8d-8a10-ce9bd8d7519f","system_id":"levelo_inurba_marseille","lat":43.25936,"lon":5.40897,"is_reserved":false,"is_disabled":false,"rental_uris":{"android":"levelo://app?vid=264e0a5c-fa9e-4d8d-8a10-ce9bd8d7519f","ios":"levelo://app?vid=264e0a5c-fa9e-4d8d-8a10-ce9bd8d7519f"},"vehicle_type_id":"4","last_reported":1687716536,"current_range_meters":10800,"station_id":"","pricing_plan_id":"free"},{"bike_id":"95ceb0c9-73bd-4dd2-ac06-4b987681f4e8","system_id":"levelo_inurba_marseille","lat":43.25937,"lon":5.40903,"is_reserved":false,"is_disabled":false,"rental_uris":{"android":"levelo://app?vid=95ceb0c9-73bd-4dd2-ac06-4b987681f4e8","ios":"levelo://app?vid=95ceb0c9-73bd-4dd2-ac06-4b987681f4e8"},"vehicle_type_id":"4","last_reported":1687716536,"current_range_meters":26800,"station_id":"","pricing_plan_id":"free"},{"bike_id":"2851acfb-00ba-460d-8311-a74e1238fc2c","system_id":"levelo_inurba_marseille","lat":43.25936,"lon":5.40901,"is_reserved":false,"is_disabled":false,"rental_uris":{"android":"levelo://app?vid=2851acfb-00ba-460d-8311-a74e1238fc2c","ios":"levelo://app?vid=2851acfb-00ba-460d-8311-a74e1238fc2c"},"vehicle_type_id":"4","last_reported":1687716536,"current_range_meters":29600,"station_id":"","pricing_plan_id":"free"},{"bike_id":"d8724d74-6425-43b6-b950-a607cbc8e74b","system_id":"levelo_inurba_marseille","lat":43.25936,"lon":5.40902,"is_reserved":false,"is_disabled":false,"rental_uris":{"android":"levelo://app?vid=d8724d74-6425-43b6-b950-a607cbc8e74b","ios":"levelo://app?vid=d8724d74-6425-43b6-b950-a607cbc8e74b"},"vehicle_type_id":"4","last_reported":1687716536,"current_range_meters":29600,"station_id":"","pricing_plan_id":"free"},{"bike_id":"0e8e8af7-8203-423a-b718-ed54280dcbb0","system_id":"levelo_inurba_marseille","lat":43.25936,"lon":5.40904,"is_reserved":false,"is_disabled":false,"rental_uris":{"android":"levelo://app?vid=0e8e8af7-8203-423a-b718-ed54280dcbb0","ios":"levelo://app?vid=0e8e8af7-8203-423a-b718-ed54280dcbb0"},"vehicle_type_id":"4","last_reported":1687716536,"current_range_meters":31200,"station_id":"","pricing_plan_id":"free"},{"bike_id":"de4cb364-48ad-4c5b-ae30-85f5bb7b705a","system_id":"levelo_inurba_marseille","lat":43.25932,"lon":5.40915,"is_reserved":false,"is_disabled":false,"rental_uris":{"android":"levelo://app?vid=de4cb364-48ad-4c5b-ae30-85f5bb7b705a","ios":"levelo://app?vid=de4cb364-48ad-4c5b-ae30-85f5bb7b705a"},"vehicle_type_id":"4","last_reported":1687716536,"current_range_meters":31200,"station_id":"","pricing_plan_id":"free"},{"bike_id":"d5d70e4b-d1b3-4328-a263-76f143318fbc","system_id":"levelo_inurba_marseille","lat":43.28078,"lon":5.43962,"is_reserved":false,"is_disabled":false,"rental_uris":{"android":"levelo://app?vid=d5d70e4b-d1b3-4328-a263-76f143318fbc","ios":"levelo://app?vid=d5d70e4b-d1b3-4328-a263-76f143318fbc"},"vehicle_type_id":"4","last_reported":1687716536,"current_range_meters":16800,"station_id":"","pricing_plan_id":"free"},{"bike_id":"74dd8b5d-7630-4f6a-a7dd-a2db18097386","system_id":"levelo_inurba_marseille","lat":43.28071,"lon":5.43957,"is_reserved":false,"is_disabled":false,"rental_uris":{"android":"levelo://app?vid=74dd8b5d-7630-4f6a-a7dd-a2db18097386","ios":"levelo://app?vid=74dd8b5d-7630-4f6a-a7dd-a2db18097386"},"vehicle_type_id":"4","last_reported":1687716536,"current_range_meters":29200,"station_id":"","pricing_plan_id":"free"},{"bike_id":"48ee2da0-8814-4b4d-af88-cc9fa7fc5340","system_id":"levelo_inurba_marseille","lat":43.250009,"lon":5.389195,"is_reserved":false,"is_disabled":false,"rental_uris":{"android":"levelo://app?vid=48ee2da0-8814-4b4d-af88-cc9fa7fc5340","ios":"levelo://app?vid=48ee2da0-8814-4b4d-af88-cc9fa7fc5340"},"vehicle_type_id":"4","last_reported":1687716536,"current_range_meters":20800,"station_id":"ce4bhgp2rcd13ifvqfd0","pricing_plan_id":"free"},{"bike_id":"460662d5-490f-4c2e-9604-81e1818986fa","system_id":"levelo_inurba_marseille","lat":43.2479,"lon":5.374457,"is_reserved":false,"is_disabled":false,"rental_uris":{"android":"levelo://app?vid=460662d5-490f-4c2e-9604-81e1818986fa","ios":"levelo://app?vid=460662d5-490f-4c2e-9604-81e1818986fa"},"vehicle_type_id":"4","last_reported":1687716536,"current_range_meters":9200,"station_id":"ce4bhgh2rcd13ifvqfb0","pricing_plan_id":"free"},{"bike_id":"a360101c-c2b0-47d5-b546-3a44a700c008","system_id":"levelo_inurba_marseille","lat":43.2481,"lon":5.37463,"is_reserved":false,"is_disabled":false,"rental_uris":{"android":"levelo://app?vid=a360101c-c2b0-47d5-b546-3a44a700c008","ios":"levelo://app?vid=a360101c-c2b0-47d5-b546-3a44a700c008"},"vehicle_type_id":"4","last_reported":1687716536,"current_range_meters":24000,"station_id":"ce4bhgh2rcd13ifvqfb0","pricing_plan_id":"free"},{"bike_id":"e7b021fa-fed1-4a48-bb73-3713ecfcf1b7","system_id":"levelo_inurba_marseille","lat":43.24809,"lon":5.37452,"is_reserved":false,"is_disabled":false,"rental_uris":{"android":"levelo://app?vid=e7b021fa-fed1-4a48-bb73-3713ecfcf1b7","ios":"levelo://app?vid=e7b021fa-fed1-4a48-bb73-3713ecfcf1b7"},"vehicle_type_id":"4","last_reported":1687716536,"current_range_meters":14400,"station_id":"ce4bhgh2rcd13ifvqfb0","pricing_plan_id":"free"},{"bike_id":"20223a4d-d9d6-48c2-aa59-4a9fe4efa2ec","system_id":"levelo_inurba_marseille","lat":43.2479,"lon":5.374457,"is_reserved":false,"is_disabled":false,"rental_uris":{"android":"levelo://app?vid=20223a4d-d9d6-48c2-aa59-4a9fe4efa2ec","ios":"levelo://app?vid=20223a4d-d9d6-48c2-aa59-4a9fe4efa2ec"},"vehicle_type_id":"4","last_reported":1687716536,"current_range_meters":25600,"station_id":"ce4bhgh2rcd13ifvqfb0","pricing_plan_id":"free"},{"bike_id":"f93e93a9-43b0-46be-bc15-f1ad0ef6a1ea","system_id":"levelo_inurba_marseille","lat":43.2479,"lon":5.374457,"is_reserved":false,"is_disabled":false,"rental_uris":{"android":"levelo://app?vid=f93e93a9-43b0-46be-bc15-f1ad0ef6a1ea","ios":"levelo://app?vid=f93e93a9-43b0-46be-bc15-f1ad0ef6a1ea"},"vehicle_type_id":"4","last_reported":1687716536,"current_range_meters":31200,"station_id":"ce4bhgh2rcd13ifvqfb0","pricing_plan_id":"free"},{"bike_id":"5105272b-c868-4bd3-8c3d-7c05b42b83f2","system_id":"levelo_inurba_marseille","lat":43.24806,"lon":5.37465,"is_reserved":false,"is_disabled":false,"rental_uris":{"android":"levelo://app?vid=5105272b-c868-4bd3-8c3d-7c05b42b83f2","ios":"levelo://app?vid=5105272b-c868-4bd3-8c3d-7c05b42b83f2"},"vehicle_type_id":"4","last_reported":1687716536,"current_range_meters":4800,"station_id":"ce4bhgh2rcd13ifvqfb0","pricing_plan_id":"free"},{"bike_id":"d90bb7d9-9222-42eb-9587-3abccea5ef52","system_id":"levelo_inurba_marseille","lat":43.2479,"lon":5.374457,"is_reserved":false,"is_disabled":false,"rental_uris":{"android":"levelo://app?vid=d90bb7d9-9222-42eb-9587-3abccea5ef52","ios":"levelo://app?vid=d90bb7d9-9222-42eb-9587-3abccea5ef52"},"vehicle_type_id":"4","last_reported":1687716536,"current_range_meters":29600,"station_id":"ce4bhgh2rcd13ifvqfb0","pricing_plan_id":"free"},{"bike_id":"4766898a-98d9-4de0-a0c9-5c3a14dda109","system_id":"levelo_inurba_marseille","lat":43.2479,"lon":5.374457,"is_reserved":false,"is_disabled":false,"rental_uris":{"android":"levelo://app?vid=4766898a-98d9-4de0-a0c9-5c3a14dda109","ios":"levelo://app?vid=4766898a-98d9-4de0-a0c9-5c3a14dda109"},"vehicle_type_id":"4","last_reported":1687716536,"current_range_meters":31200,"station_id":"ce4bhgh2rcd13ifvqfb0","pricing_plan_id":"free"},{"bike_id":"090c318e-ade4-46d4-b373-d845d5d19dd9","system_id":"levelo_inurba_marseille","lat":43.2479,"lon":5.374457,"is_reserved":false,"is_disabled":false,"rental_uris":{"android":"levelo://app?vid=090c318e-ade4-46d4-b373-d845d5d19dd9","ios":"levelo://app?vid=090c318e-ade4-46d4-b373-d845d5d19dd9"},"vehicle_type_id":"4","last_reported":1687716536,"current_range_meters":0,"station_id":"ce4bhgh2rcd13ifvqfb0","pricing_plan_id":"free"},{"bike_id":"607d9f75-8b7b-4a80-abd1-adcac0d0cf07","system_id":"levelo_inurba_marseille","lat":43.250966,"lon":5.395186,"is_reserved":false,"is_disabled":false,"rental_uris":{"android":"levelo://app?vid=607d9f75-8b7b-4a80-abd1-adcac0d0cf07","ios":"levelo://app?vid=607d9f75-8b7b-4a80-abd1-adcac0d0cf07"},"vehicle_type_id":"4","last_reported":1687716536,"current_range_meters":29600,"station_id":"ce4bhm12rcd13ifvqgkg","pricing_plan_id":"free"},{"bike_id":"12decce2-1245-43b9-bc3f-becb0c87a56a","system_id":"levelo_inurba_marseille","lat":43.250966,"lon":5.395186,"is_reserved":false,"is_disabled":false,"rental_uris":{"android":"levelo://app?vid=12decce2-1245-43b9-bc3f-becb0c87a56a","ios":"levelo://app?vid=12decce2-1245-43b9-bc3f-becb0c87a56a"},"vehicle_type_id":"4","last_reported":1687716536,"current_range_meters":29600,"station_id":"ce4bhm12rcd13ifvqgkg","pricing_plan_id":"free"},{"bike_id":"9aca8ee5-88bb-429f-ad3d-186aa54b053f","system_id":"levelo_inurba_marseille","lat":43.25011,"lon":5.39604,"is_reserved":false,"is_disabled":false,"rental_uris":{"android":"levelo://app?vid=9aca8ee5-88bb-429f-ad3d-186aa54b053f","ios":"levelo://app?vid=9aca8ee5-88bb-429f-ad3d-186aa54b053f"},"vehicle_type_id":"4","last_reported":1687716536,"current_range_meters":27600,"station_id":"","pricing_plan_id":"free"},{"bike_id":"bde26292-7353-4379-80df-957b08491a7f","system_id":"levelo_inurba_marseille","lat":43.24693,"lon":5.382096,"is_reserved":false,"is_disabled":false,"rental_uris":{"android":"levelo://app?vid=bde26292-7353-4379-80df-957b08491a7f","ios":"levelo://app?vid=bde26292-7353-4379-80df-957b08491a7f"},"vehicle_type_id":"4","last_reported":1687716536,"current_range_meters":2800,"station_id":"ce4bhih2rcd13ifvqfr0","pricing_plan_id":"free"},{"bike_id":"fffb3254-857b-47ae-aced-1cf02488aa39","system_id":"levelo_inurba_marseille","lat":43.25102,"lon":5.403214,"is_reserved":false,"is_disabled":false,"rental_uris":{"android":"levelo://app?vid=fffb3254-857b-47ae-aced-1cf02488aa39","ios":"levelo://app?vid=fffb3254-857b-47ae-aced-1cf02488aa39"},"vehicle_type_id":"4","last_reported":1687716536,"current_range_meters":13600,"station_id":"ce4bhlh2rcd13ifvqgig","pricing_plan_id":"free"},{"bike_id":"5c794cad-4020-4299-bee4-208fe8375453","system_id":"levelo_inurba_marseille","lat":43.25102,"lon":5.403214,"is_reserved":false,"is_disabled":false,"rental_uris":{"android":"levelo://app?vid=5c794cad-4020-4299-bee4-208fe8375453","ios":"levelo://app?vid=5c794cad-4020-4299-bee4-208fe8375453"},"vehicle_type_id":"4","last_reported":1687716536,"current_range_meters":25200,"station_id":"ce4bhlh2rcd13ifvqgig","pricing_plan_id":"free"},{"bike_id":"a012929a-2645-4fa2-b2a9-b7592f0582c4","system_id":"levelo_inurba_marseille","lat":43.24693,"lon":5.382096,"is_reserved":false,"is_disabled":false,"rental_uris":{"android":"levelo://app?vid=a012929a-2645-4fa2-b2a9-b7592f0582c4","ios":"levelo://app?vid=a012929a-2645-4fa2-b2a9-b7592f0582c4"},"vehicle_type_id":"4","last_reported":1687716536,"current_range_meters":11200,"station_id":"ce4bhih2rcd13ifvqfr0","pricing_plan_id":"free"},{"bike_id":"f4a624ec-2326-4744-994a-bac7525a670e","system_id":"levelo_inurba_marseille","lat":43.24693,"lon":5.382096,"is_reserved":false,"is_disabled":false,"rental_uris":{"android":"levelo://app?vid=f4a624ec-2326-4744-994a-bac7525a670e","ios":"levelo://app?vid=f4a624ec-2326-4744-994a-bac7525a670e"},"vehicle_type_id":"4","last_reported":1687716536,"current_range_meters":8400,"station_id":"ce4bhih2rcd13ifvqfr0","pricing_plan_id":"free"},{"bike_id":"8f8949b9-b7bb-40bf-83d1-8b2f5e473f9f","system_id":"levelo_inurba_marseille","lat":43.24693,"lon":5.382096,"is_reserved":false,"is_disabled":false,"rental_uris":{"android":"levelo://app?vid=8f8949b9-b7bb-40bf-83d1-8b2f5e473f9f","ios":"levelo://app?vid=8f8949b9-b7bb-40bf-83d1-8b2f5e473f9f"},"vehicle_type_id":"4","last_reported":1687716536,"current_range_meters":6800,"station_id":"ce4bhih2rcd13ifvqfr0","pricing_plan_id":"free"},{"bike_id":"6c2b68f2-38a4-4b52-bb0d-94dc5a414f7b","system_id":"levelo_inurba_marseille","lat":43.25102,"lon":5.403214,"is_reserved":false,"is_disabled":false,"rental_uris":{"android":"levelo://app?vid=6c2b68f2-38a4-4b52-bb0d-94dc5a414f7b","ios":"levelo://app?vid=6c2b68f2-38a4-4b52-bb0d-94dc5a414f7b"},"vehicle_type_id":"4","last_reported":1687716536,"current_range_meters":30400,"station_id":"ce4bhlh2rcd13ifvqgig","pricing_plan_id":"free"},{"bike_id":"b4897044-cf41-460a-a40b-70552c21d159","system_id":"levelo_inurba_marseille","lat":43.25102,"lon":5.403214,"is_reserved":false,"is_disabled":false,"rental_uris":{"android":"levelo://app?vid=b4897044-cf41-460a-a40b-70552c21d159","ios":"levelo://app?vid=b4897044-cf41-460a-a40b-70552c21d159"},"vehicle_type_id":"4","last_reported":1687716536,"current_range_meters":11600,"station_id":"ce4bhlh2rcd13ifvqgig","pricing_plan_id":"free"},{"bike_id":"52f567a2-7b93-4cde-97df-c1f27d3f24c5","system_id":"levelo_inurba_marseille","lat":43.25102,"lon":5.403214,"is_reserved":false,"is_disabled":false,"rental_uris":{"android":"levelo://app?vid=52f567a2-7b93-4cde-97df-c1f27d3f24c5","ios":"levelo://app?vid=52f567a2-7b93-4cde-97df-c1f27d3f24c5"},"vehicle_type_id":"4","last_reported":1687716536,"current_range_meters":8800,"station_id":"ce4bhlh2rcd13ifvqgig","pricing_plan_id":"free"},{"bike_id":"1afde723-facd-41d4-a760-41edfabe395e","system_id":"levelo_inurba_marseille","lat":43.25102,"lon":5.403214,"is_reserved":false,"is_disabled":false,"rental_uris":{"android":"levelo://app?vid=1afde723-facd-41d4-a760-41edfabe395e","ios":"levelo://app?vid=1afde723-facd-41d4-a760-41edfabe395e"},"vehicle_type_id":"4","last_reported":1687716536,"current_range_meters":23200,"station_id":"ce4bhlh2rcd13ifvqgig","pricing_plan_id":"free"},{"bike_id":"e48114f4-f239-415c-b88e-91d7d67bb17a","system_id":"levelo_inurba_marseille","lat":43.246467,"lon":5.388984,"is_reserved":false,"is_disabled":false,"rental_uris":{"android":"levelo://app?vid=e48114f4-f239-415c-b88e-91d7d67bb17a","ios":"levelo://app?vid=e48114f4-f239-415c-b88e-91d7d67bb17a"},"vehicle_type_id":"4","last_reported":1687716536,"current_range_meters":30000,"station_id":"ce4bhg12rcd13ifvqf60","pricing_plan_id":"free"},{"bike_id":"eb6b011a-6e6b-4f4c-bd04-7be30c29deac","system_id":"levelo_inurba_marseille","lat":43.24391,"lon":5.37057,"is_reserved":false,"is_disabled":false,"rental_uris":{"android":"levelo://app?vid=eb6b011a-6e6b-4f4c-bd04-7be30c29deac","ios":"levelo://app?vid=eb6b011a-6e6b-4f4c-bd04-7be30c29deac"},"vehicle_type_id":"4","last_reported":1687716536,"current_range_meters":31200,"station_id":"ce4bhhh2rcd13ifvqfk0","pricing_plan_id":"free"},{"bike_id":"290eee6c-89e5-47ce-aec8-19df27aa302a","system_id":"levelo_inurba_marseille","lat":43.24386,"lon":5.37068,"is_reserved":false,"is_disabled":false,"rental_uris":{"android":"levelo://app?vid=290eee6c-89e5-47ce-aec8-19df27aa302a","ios":"levelo://app?vid=290eee6c-89e5-47ce-aec8-19df27aa302a"},"vehicle_type_id":"4","last_reported":1687716536,"current_range_meters":24400,"station_id":"ce4bhhh2rcd13ifvqfk0","pricing_plan_id":"free"},{"bike_id":"c15f1ce1-5680-443d-b68f-cee51bc81897","system_id":"levelo_inurba_marseille","lat":43.245581,"lon":5.395069,"is_reserved":false,"is_disabled":false,"rental_uris":{"android":"levelo://app?vid=c15f1ce1-5680-443d-b68f-cee51bc81897","ios":"levelo://app?vid=c15f1ce1-5680-443d-b68f-cee51bc81897"},"vehicle_type_id":"4","last_reported":1687716536,"current_range_meters":14800,"station_id":"ce4bhlp2rcd13ifvqgjg","pricing_plan_id":"free"},{"bike_id":"1f9f2b3c-445e-4e24-a553-bf35886f461d","system_id":"levelo_inurba_marseille","lat":43.245581,"lon":5.395069,"is_reserved":false,"is_disabled":false,"rental_uris":{"android":"levelo://app?vid=1f9f2b3c-445e-4e24-a553-bf35886f461d","ios":"levelo://app?vid=1f9f2b3c-445e-4e24-a553-bf35886f461d"},"vehicle_type_id":"4","last_reported":1687716536,"current_range_meters":31200,"station_id":"ce4bhlp2rcd13ifvqgjg","pricing_plan_id":"free"},{"bike_id":"df6ee2f6-12d0-4d4c-a785-dc6f9e4911b3","system_id":"levelo_inurba_marseille","lat":43.245581,"lon":5.395069,"is_reserved":false,"is_disabled":false,"rental_uris":{"android":"levelo://app?vid=df6ee2f6-12d0-4d4c-a785-dc6f9e4911b3","ios":"levelo://app?vid=df6ee2f6-12d0-4d4c-a785-dc6f9e4911b3"},"vehicle_type_id":"4","last_reported":1687716536,"current_range_meters":0,"station_id":"ce4bhlp2rcd13ifvqgjg","pricing_plan_id":"free"},{"bike_id":"1fb8ac0d-46cb-4dea-9744-6612e88b34e5","system_id":"levelo_inurba_marseille","lat":43.245581,"lon":5.395069,"is_reserved":false,"is_disabled":false,"rental_uris":{"android":"levelo://app?vid=1fb8ac0d-46cb-4dea-9744-6612e88b34e5","ios":"levelo://app?vid=1fb8ac0d-46cb-4dea-9744-6612e88b34e5"},"vehicle_type_id":"4","last_reported":1687716536,"current_range_meters":15600,"station_id":"ce4bhlp2rcd13ifvqgjg","pricing_plan_id":"free"},{"bike_id":"93b506da-d408-4dbe-9070-2d499612e8f5","system_id":"levelo_inurba_marseille","lat":43.245581,"lon":5.395069,"is_reserved":false,"is_disabled":false,"rental_uris":{"android":"levelo://app?vid=93b506da-d408-4dbe-9070-2d499612e8f5","ios":"levelo://app?vid=93b506da-d408-4dbe-9070-2d499612e8f5"},"vehicle_type_id":"4","last_reported":1687716536,"current_range_meters":11200,"station_id":"ce4bhlp2rcd13ifvqgjg","pricing_plan_id":"free"},{"bike_id":"8c939304-3bd2-4b95-aae3-022bc8d770d1","system_id":"levelo_inurba_marseille","lat":43.245581,"lon":5.395069,"is_reserved":false,"is_disabled":false,"rental_uris":{"android":"levelo://app?vid=8c939304-3bd2-4b95-aae3-022bc8d770d1","ios":"levelo://app?vid=8c939304-3bd2-4b95-aae3-022bc8d770d1"},"vehicle_type_id":"4","last_reported":1687716536,"current_range_meters":28400,"station_id":"ce4bhlp2rcd13ifvqgjg","pricing_plan_id":"free"},{"bike_id":"33de0f3c-eae3-4a8d-9e7b-735c9fe2e419","system_id":"levelo_inurba_marseille","lat":43.245581,"lon":5.395069,"is_reserved":false,"is_disabled":false,"rental_uris":{"android":"levelo://app?vid=33de0f3c-eae3-4a8d-9e7b-735c9fe2e419","ios":"levelo://app?vid=33de0f3c-eae3-4a8d-9e7b-735c9fe2e419"},"vehicle_type_id":"4","last_reported":1687716536,"current_range_meters":10800,"station_id":"ce4bhlp2rcd13ifvqgjg","pricing_plan_id":"free"},{"bike_id":"70cdccc4-924d-4793-88ef-d63450007ff8","system_id":"levelo_inurba_marseille","lat":43.240623,"lon":5.377642,"is_reserved":false,"is_disabled":false,"rental_uris":{"android":"levelo://app?vid=70cdccc4-924d-4793-88ef-d63450007ff8","ios":"levelo://app?vid=70cdccc4-924d-4793-88ef-d63450007ff8"},"vehicle_type_id":"4","last_reported":1687716536,"current_range_meters":3200,"station_id":"ce4bhnp2rcd13ifvqgvg","pricing_plan_id":"free"},{"bike_id":"60674d3b-ba1e-4adf-a7d0-f6b34c01e98d","system_id":"levelo_inurba_marseille","lat":43.239723,"lon":5.366304,"is_reserved":false,"is_disabled":false,"rental_uris":{"android":"levelo://app?vid=60674d3b-ba1e-4adf-a7d0-f6b34c01e98d","ios":"levelo://app?vid=60674d3b-ba1e-4adf-a7d0-f6b34c01e98d"},"vehicle_type_id":"4","last_reported":1687716536,"current_range_meters":31200,"station_id":"ce4bhi12rcd13ifvqfp0","pricing_plan_id":"free"},{"bike_id":"658392b2-37b7-4275-8159-4d329a6fa45a","system_id":"levelo_inurba_marseille","lat":43.239702,"lon":5.366305,"is_reserved":false,"is_disabled":false,"rental_uris":{"android":"levelo://app?vid=658392b2-37b7-4275-8159-4d329a6fa45a","ios":"levelo://app?vid=658392b2-37b7-4275-8159-4d329a6fa45a"},"vehicle_type_id":"4","last_reported":1687716536,"current_range_meters":31200,"station_id":"ce4bhi12rcd13ifvqfp0","pricing_plan_id":"free"},{"bike_id":"e6bd621d-8e80-4fca-b5b9-705661443595","system_id":"levelo_inurba_marseille","lat":43.239701,"lon":5.366272,"is_reserved":false,"is_disabled":false,"rental_uris":{"android":"levelo://app?vid=e6bd621d-8e80-4fca-b5b9-705661443595","ios":"levelo://app?vid=e6bd621d-8e80-4fca-b5b9-705661443595"},"vehicle_type_id":"4","last_reported":1687716536,"current_range_meters":31200,"station_id":"ce4bhi12rcd13ifvqfp0","pricing_plan_id":"free"},{"bike_id":"3d8f5530-b6ac-413d-b68f-229939f43cbd","system_id":"levelo_inurba_marseille","lat":43.239698,"lon":5.366312,"is_reserved":false,"is_disabled":false,"rental_uris":{"android":"levelo://app?vid=3d8f5530-b6ac-413d-b68f-229939f43cbd","ios":"levelo://app?vid=3d8f5530-b6ac-413d-b68f-229939f43cbd"},"vehicle_type_id":"4","last_reported":1687716536,"current_range_meters":24000,"station_id":"ce4bhi12rcd13ifvqfp0","pricing_plan_id":"free"},{"bike_id":"b25bec87-ef7b-4fea-bdd1-ad767eb1c9cc","system_id":"levelo_inurba_marseille","lat":43.239588,"lon":5.366238,"is_reserved":false,"is_disabled":false,"rental_uris":{"android":"levelo://app?vid=b25bec87-ef7b-4fea-bdd1-ad767eb1c9cc","ios":"levelo://app?vid=b25bec87-ef7b-4fea-bdd1-ad767eb1c9cc"},"vehicle_type_id":"4","last_reported":1687716536,"current_range_meters":20000,"station_id":"ce4bhi12rcd13ifvqfp0","pricing_plan_id":"free"},{"bike_id":"164027ca-8792-49ed-8c3b-9f65dbd34354","system_id":"levelo_inurba_marseille","lat":43.23967,"lon":5.36636,"is_reserved":false,"is_disabled":false,"rental_uris":{"android":"levelo://app?vid=164027ca-8792-49ed-8c3b-9f65dbd34354","ios":"levelo://app?vid=164027ca-8792-49ed-8c3b-9f65dbd34354"},"vehicle_type_id":"4","last_reported":1687716536,"current_range_meters":19200,"station_id":"ce4bhi12rcd13ifvqfp0","pricing_plan_id":"free"},{"bike_id":"8031175c-7c30-47d1-a642-e446bef12b5f","system_id":"levelo_inurba_marseille","lat":43.23966,"lon":5.36627,"is_reserved":false,"is_disabled":false,"rental_uris":{"android":"levelo://app?vid=8031175c-7c30-47d1-a642-e446bef12b5f","ios":"levelo://app?vid=8031175c-7c30-47d1-a642-e446bef12b5f"},"vehicle_type_id":"4","last_reported":1687716536,"current_range_meters":10800,"station_id":"ce4bhi12rcd13ifvqfp0","pricing_plan_id":"free"},{"bike_id":"096f6d3e-8bdb-4ce2-ab1e-053225ff5e15","system_id":"levelo_inurba_marseille","lat":43.23965,"lon":5.36633,"is_reserved":false,"is_disabled":false,"rental_uris":{"android":"levelo://app?vid=096f6d3e-8bdb-4ce2-ab1e-053225ff5e15","ios":"levelo://app?vid=096f6d3e-8bdb-4ce2-ab1e-053225ff5e15"},"vehicle_type_id":"4","last_reported":1687716536,"current_range_meters":28800,"station_id":"ce4bhi12rcd13ifvqfp0","pricing_plan_id":"free"},{"bike_id":"68afe63e-2e67-457c-b454-31d3bfd9224c","system_id":"levelo_inurba_marseille","lat":43.239646,"lon":5.366219,"is_reserved":false,"is_disabled":false,"rental_uris":{"android":"levelo://app?vid=68afe63e-2e67-457c-b454-31d3bfd9224c","ios":"levelo://app?vid=68afe63e-2e67-457c-b454-31d3bfd9224c"},