{"last_updated":1685152698,"ttl":30,"version":"2.2","data":{"bikes":[{"bike_id":"0a126e65-6468-4c5e-89b7-0a0c5b6bb237","system_id":"levelo_inurba_marseille","lat":43.31341,"lon":5.367098,"is_reserved":false,"is_disabled":false,"rental_uris":{"android":"levelo://app?vid=0a126e65-6468-4c5e-89b7-0a0c5b6bb237","ios":"levelo://app?vid=0a126e65-6468-4c5e-89b7-0a0c5b6bb237"},"vehicle_type_id":"4","last_reported":1685152698,"current_range_meters":24400,"station_id":"ce4bgr92rcd13ifvqc6g","pricing_plan_id":"free"},{"bike_id":"b345635f-57a4-4d2a-bca6-fc1a6d219356","system_id":"levelo_inurba_marseille","lat":43.312239,"lon":5.368562,"is_reserved":false,"is_disabled":false,"rental_uris":{"android":"levelo://app?vid=b345635f-57a4-4d2a-bca6-fc1a6d219356","ios":"levelo://app?vid=b345635f-57a4-4d2a-bca6-fc1a6d219356"},"vehicle_type_id":"4","last_reported":1685152698,"current_range_meters":30000,"station_id":"ce4bgl92rcd13ifvqbq0","pricing_plan_id":"free"},{"bike_id":"2a33377e-1850-4eeb-8982-7e09c7ddba76","system_id":"levelo_inurba_marseille","lat":43.31232,"lon":5.36861,"is_reserved":false,"is_disabled":false,"rental_uris":{"android":"levelo://app?vid=2a33377e-1850-4eeb-8982-7e09c7ddba76","ios":"levelo://app?vid=2a33377e-1850-4eeb-8982-7e09c7ddba76"},"vehicle_type_id":"4","last_reported":1685152698,"current_range_meters":1200,"station_id":"ce4bgl92rcd13ifvqbq0","pricing_plan_id":"free"},{"bike_id":"073c43fc-4df7-407c-baac-d473b8e95a4f","system_id":"levelo_inurba_marseille","lat":43.314811,"lon":5.373103,"is_reserved":false,"is_disabled":false,"rental_uris":{"android":"levelo://app?vid=073c43fc-4df7-407c-baac-d473b8e95a4f","ios":"levelo://app?vid=073c43fc-4df7-407c-baac-d473b8e95a4f"},"vehicle_type_id":"4","last_reported":1685152698,"current_range_meters":26400,"station_id":"ce4bgt12rcd13ifvqcd0","pricing_plan_id":"free"},{"bike_id":"ae6c7a25-08fb-41ae-9c0b-fc1652089455","system_id":"levelo_inurba_marseille","lat":43.314811,"lon":5.373103,"is_reserved":false,"is_disabled":false,"rental_uris":{"android":"levelo://app?vid=ae6c7a25-08fb-41ae-9c0b-fc1652089455","ios":"levelo://app?vid=ae6c7a25-08fb-41ae-9c0b-fc1652089455"},"vehicle_type_id":"4","last_reported":1685152698,"current_range_meters":17600,"station_id":"ce4bgt12rcd13ifvqcd0","pricing_plan_id":"free"},{"bike_id":"349c46e8-67c1-4d60-9fd6-650467b3992a","system_id":"levelo_inurba_marseille","lat":43.314811,"lon":5.373104,"is_reserved":false,"is_disabled":false,"rental_uris":{"android":"levelo://app?vid=349c46e8-67c1-4d60-9fd6-650467b3992a","ios":"levelo://app?vid=349c46e8-67c1-4d60-9fd6-650467b3992a"},"vehicle_type_id":"4","last_reported":1685152698,"current_range_meters":29600,"station_id":"ce4bgt12rcd13ifvqcd0","pricing_plan_id":"free"},{"bike_id":"1c2de123-dcec-464d-97ba-bfd2d9dd076b","system_id":"levelo_inurba_marseille","lat":43.308614,"lon":5.372098,"is_reserved":false,"is_disabled":false,"rental_uris":{"android":"levelo://app?vid=1c2de123-dcec-464d-97ba-bfd2d9dd076b","ios":"levelo://app?vid=1c2de123-dcec-464d-97ba-bfd2d9dd076b"},"vehicle_type_id":"4","last_reported":1685152698,"current_range_meters":800,"station_id":"ce4bguh2rcd13ifvqckg","pricing_plan_id":"free"},{"bike_id":"931d84d1-79f0-4389-9ce3-97a2d5a0e9e2","system_id":"levelo_inurba_marseille","lat":43.308614,"lon":5.372098,"is_reserved":false,"is_disabled":false,"rental_uris":{"android":"levelo://app?vid=931d84d1-79f0-4389-9ce3-97a2d5a0e9e2","ios":"levelo://app?vid=931d84d1-79f0-4389-9ce3-97a2d5a0e9e2"},"vehicle_type_id":"4","last_reported":1685152698,"current_range_meters":3200,"station_id":"ce4bguh2rcd13ifvqckg","pricing_plan_id":"free"},{"bike_id":"26d86bba-d59a-49c0-9973-30ea71f50853","system_id":"levelo_inurba_marseille","lat":43.308614,"lon":5.372098,"is_reserved":false,"is_disabled":false,"rental_uris":{"android":"levelo://app?vid=26d86bba-d59a-49c0-9973-30ea71f50853","ios":"levelo://app?vid=26d86bba-d59a-49c0-9973-30ea71f50853"},"vehicle_type_id":"4","last_reported":1685152698,"current_range_meters":10400,"station_id":"ce4bguh2rcd13ifvqckg","pricing_plan_id":"free"},{"bike_id":"5921b083-e155-411c-bed6-98f631b3efdd","system_id":"levelo_inurba_marseille","lat":43.305989,"lon":5.37225,"is_reserved":false,"is_disabled":false,"rental_uris":{"android":"levelo://app?vid=5921b083-e155-411c-bed6-98f631b3efdd","ios":"levelo://app?vid=5921b083-e155-411c-bed6-98f631b3efdd"},"vehicle_type_id":"4","last_reported":1685152698,"current_range_meters":29600,"station_id":"ce4bgqh2rcd13ifvqc4g","pricing_plan_id":"free"},{"bike_id":"2266264b-65a5-4a24-a811-282d1ecc2634","system_id":"levelo_inurba_marseille","lat":43.305989,"lon":5.37225,"is_reserved":false,"is_disabled":false,"rental_uris":{"android":"levelo://app?vid=2266264b-65a5-4a24-a811-282d1ecc2634","ios":"levelo://app?vid=2266264b-65a5-4a24-a811-282d1ecc2634"},"vehicle_type_id":"4","last_reported":1685152698,"current_range_meters":20000,"station_id":"ce4bgqh2rcd13ifvqc4g","pricing_plan_id":"free"},{"bike_id":"b046c666-e1ca-44a1-bc5a-5b257bbc90d2","system_id":"levelo_inurba_marseille","lat":43.311131,"lon":5.377651,"is_reserved":false,"is_disabled":false,"rental_uris":{"android":"levelo://app?vid=b046c666-e1ca-44a1-bc5a-5b257bbc90d2","ios":"levelo://app?vid=b046c666-e1ca-44a1-bc5a-5b257bbc90d2"},"vehicle_type_id":"4","last_reported":1685152698,"current_range_meters":28400,"station_id":"ce4bgt92rcd13ifvqcg0","pricing_plan_id":"free"},{"bike_id":"225d8a01-bc78-4e23-af85-dbe6f04179a1","system_id":"levelo_inurba_marseille","lat":43.311131,"lon":5.377651,"is_reserved":false,"is_disabled":false,"rental_uris":{"android":"levelo://app?vid=225d8a01-bc78-4e23-af85-dbe6f04179a1","ios":"levelo://app?vid=225d8a01-bc78-4e23-af85-dbe6f04179a1"},"vehicle_type_id":"4","last_reported":1685152698,"current_range_meters":27600,"station_id":"ce4bgt92rcd13ifvqcg0","pricing_plan_id":"free"},{"bike_id":"d9b3c99c-b707-4b79-9cf4-6ccc0ecd0f60","system_id":"levelo_inurba_marseille","lat":43.31115,"lon":5.3777,"is_reserved":false,"is_disabled":false,"rental_uris":{"android":"levelo://app?vid=d9b3c99c-b707-4b79-9cf4-6ccc0ecd0f60","ios":"levelo://app?vid=d9b3c99c-b707-4b79-9cf4-6ccc0ecd0f60"},"vehicle_type_id":"4","last_reported":1685152698,"current_range_meters":9600,"station_id":"ce4bgt92rcd13ifvqcg0","pricing_plan_id":"free"},{"bike_id":"8360afca-a479-40b8-a687-59264c65abd0","system_id":"levelo_inurba_marseille","lat":43.311131,"lon":5.377651,"is_reserved":false,"is_disabled":false,"rental_uris":{"android":"levelo://app?vid=8360afca-a479-40b8-a687-59264c65abd0","ios":"levelo://app?vid=8360afca-a479-40b8-a687-59264c65abd0"},"vehicle_type_id":"4","last_reported":1685152698,"current_range_meters":2000,"station_id":"ce4bgt92rcd13ifvqcg0","pricing_plan_id":"free"},{"bike_id":"788de9eb-f4cb-4110-987b-cfe690f1663a","system_id":"levelo_inurba_marseille","lat":43.31116,"lon":5.37783,"is_reserved":false,"is_disabled":false,"rental_uris":{"android":"levelo://app?vid=788de9eb-f4cb-4110-987b-cfe690f1663a","ios":"levelo://app?vid=788de9eb-f4cb-4110-987b-cfe690f1663a"},"vehicle_type_id":"4","last_reported":1685152698,"current_range_meters":6400,"station_id":"ce4bgt92rcd13ifvqcg0","pricing_plan_id":"free"},{"bike_id":"f47b8c93-abbd-42bc-9979-f8f6f8e17204","system_id":"levelo_inurba_marseille","lat":43.31698,"lon":5.37733,"is_reserved":false,"is_disabled":false,"rental_uris":{"android":"levelo://app?vid=f47b8c93-abbd-42bc-9979-f8f6f8e17204","ios":"levelo://app?vid=f47b8c93-abbd-42bc-9979-f8f6f8e17204"},"vehicle_type_id":"4","last_reported":1685152698,"current_range_meters":11200,"station_id":"ce4bgth2rcd13ifvqch0","pricing_plan_id":"free"},{"bike_id":"c0b0d062-8275-40cf-8874-7d9d55ab7e88","system_id":"levelo_inurba_marseille","lat":43.31713,"lon":5.37832,"is_reserved":false,"is_disabled":false,"rental_uris":{"android":"levelo://app?vid=c0b0d062-8275-40cf-8874-7d9d55ab7e88","ios":"levelo://app?vid=c0b0d062-8275-40cf-8874-7d9d55ab7e88"},"vehicle_type_id":"4","last_reported":1685152698,"current_range_meters":22400,"station_id":"","pricing_plan_id":"free"},{"bike_id":"a37a3de0-3783-47d4-80b6-28504f75df73","system_id":"levelo_inurba_marseille","lat":43.30304,"lon":5.368987,"is_reserved":false,"is_disabled":false,"rental_uris":{"android":"levelo://app?vid=a37a3de0-3783-47d4-80b6-28504f75df73","ios":"levelo://app?vid=a37a3de0-3783-47d4-80b6-28504f75df73"},"vehicle_type_id":"4","last_reported":1685152698,"current_range_meters":25600,"station_id":"ce4bgqh2rcd13ifvqc5g","pricing_plan_id":"free"},{"bike_id":"5c6d3410-9c43-4d50-bb24-06969f52b17c","system_id":"levelo_inurba_marseille","lat":43.315289,"lon":5.380349,"is_reserved":false,"is_disabled":false,"rental_uris":{"android":"levelo://app?vid=5c6d3410-9c43-4d50-bb24-06969f52b17c","ios":"levelo://app?vid=5c6d3410-9c43-4d50-bb24-06969f52b17c"},"vehicle_type_id":"4","last_reported":1685152698,"current_range_meters":27200,"station_id":"ce4bhsp2rcd13ifvqi50","pricing_plan_id":"free"},{"bike_id":"871ed027-16f2-46ef-b6e2-047b2e70397b","system_id":"levelo_inurba_marseille","lat":43.315293,"lon":5.380349,"is_reserved":false,"is_disabled":false,"rental_uris":{"android":"levelo://app?vid=871ed027-16f2-46ef-b6e2-047b2e70397b","ios":"levelo://app?vid=871ed027-16f2-46ef-b6e2-047b2e70397b"},"vehicle_type_id":"4","last_reported":1685152698,"current_range_meters":18800,"station_id":"ce4bhsp2rcd13ifvqi50","pricing_plan_id":"free"},{"bike_id":"b714dea4-b159-43b7-a932-9987c86114a7","system_id":"levelo_inurba_marseille","lat":43.308012,"lon":5.381511,"is_reserved":false,"is_disabled":false,"rental_uris":{"android":"levelo://app?vid=b714dea4-b159-43b7-a932-9987c86114a7","ios":"levelo://app?vid=b714dea4-b159-43b7-a932-9987c86114a7"},"vehicle_type_id":"4","last_reported":1685152698,"current_range_meters":28400,"station_id":"ce4bgt12rcd13ifvqce0","pricing_plan_id":"free"},{"bike_id":"be40ac48-858a-4da4-a87d-5d3d0c6f70f4","system_id":"levelo_inurba_marseille","lat":43.308012,"lon":5.381511,"is_reserved":false,"is_disabled":false,"rental_uris":{"android":"levelo://app?vid=be40ac48-858a-4da4-a87d-5d3d0c6f70f4","ios":"levelo://app?vid=be40ac48-858a-4da4-a87d-5d3d0c6f70f4"},"vehicle_type_id":"4","last_reported":1685152698,"current_range_meters":21600,"station_id":"ce4bgt12rcd13ifvqce0","pricing_plan_id":"free"},{"bike_id":"5f66b5c8-c13e-4e6a-af73-99f8edb1fe4e","system_id":"levelo_inurba_marseille","lat":43.31992,"lon":5.38149,"is_reserved":false,"is_disabled":false,"rental_uris":{"android":"levelo://app?vid=5f66b5c8-c13e-4e6a-af73-99f8edb1fe4e","ios":"levelo://app?vid=5f66b5c8-c13e-4e6a-af73-99f8edb1fe4e"},"vehicle_type_id":"4","last_reported":1685152698,"current_range_meters":18800,"station_id":"ce4bhr12rcd13ifvqhpg","pricing_plan_id":"free"},{"bike_id":"15085faf-94d1-454c-8de1-c9482918e24b","system_id":"levelo_inurba_marseille","lat":43.3199,"lon":5.38154,"is_reserved":false,"is_disabled":false,"rental_uris":{"android":"levelo://app?vid=15085faf-94d1-454c-8de1-c9482918e24b","ios":"levelo://app?vid=15085faf-94d1-454c-8de1-c9482918e24b"},"vehicle_type_id":"4","last_reported":1685152698,"current_range_meters":6400,"station_id":"ce4bhr12rcd13ifvqhpg","pricing_plan_id":"free"},{"bike_id":"e5571f58-adb6-49b7-8c86-2d757ae8e1a0","system_id":"levelo_inurba_marseille","lat":43.3199,"lon":5.38154,"is_reserved":false,"is_disabled":false,"rental_uris":{"android":"levelo://app?vid=e5571f58-adb6-49b7-8c86-2d757ae8e1a0","ios":"levelo://app?vid=e5571f58-adb6-49b7-8c86-2d757ae8e1a0"},"vehicle_type_id":"4","last_reported":1685152698,"current_range_meters":16000,"station_id":"ce4bhr12rcd13ifvqhpg","pricing_plan_id":"free"},{"bike_id":"46349676-80ed-44a7-9bea-3a55a4175303","system_id":"levelo_inurba_marseille","lat":43.31997,"lon":5.38155,"is_reserved":false,"is_disabled":false,"rental_uris":{"android":"levelo://app?vid=46349676-80ed-44a7-9bea-3a55a4175303","ios":"levelo://app?vid=46349676-80ed-44a7-9bea-3a55a4175303"},"vehicle_type_id":"4","last_reported":1685152698,"current_range_meters":8000,"station_id":"ce4bhr12rcd13ifvqhpg","pricing_plan_id":"free"},{"bike_id":"edc96815-b3ab-4c58-b65b-672be6b50dea","system_id":"levelo_inurba_marseille","lat":43.31365,"lon":5.38514,"is_reserved":false,"is_disabled":false,"rental_uris":{"android":"levelo://app?vid=edc96815-b3ab-4c58-b65b-672be6b50dea","ios":"levelo://app?vid=edc96815-b3ab-4c58-b65b-672be6b50dea"},"vehicle_type_id":"4","last_reported":1685152698,"current_range_meters":21200,"station_id":"ce4bgt92rcd13ifvqcf0","pricing_plan_id":"free"},{"bike_id":"5a340519-9109-4d7c-b8d5-b7d091028b2f","system_id":"levelo_inurba_marseille","lat":43.311722,"lon":5.387247,"is_reserved":false,"is_disabled":false,"rental_uris":{"android":"levelo://app?vid=5a340519-9109-4d7c-b8d5-b7d091028b2f","ios":"levelo://app?vid=5a340519-9109-4d7c-b8d5-b7d091028b2f"},"vehicle_type_id":"4","last_reported":1685152698,"current_range_meters":20000,"station_id":"ce4bgv12rcd13ifvqcp0","pricing_plan_id":"free"},{"bike_id":"15bdd509-ac6b-486d-a3af-74b1c552f2cb","system_id":"levelo_inurba_marseille","lat":43.32828,"lon":5.36678,"is_reserved":false,"is_disabled":false,"rental_uris":{"android":"levelo://app?vid=15bdd509-ac6b-486d-a3af-74b1c552f2cb","ios":"levelo://app?vid=15bdd509-ac6b-486d-a3af-74b1c552f2cb"},"vehicle_type_id":"4","last_reported":1685152698,"current_range_meters":13600,"station_id":"ce4bhs92rcd13ifvqi0g","pricing_plan_id":"free"},{"bike_id":"6aadd20f-ee22-42f7-9c69-f3066c5dfcf1","system_id":"levelo_inurba_marseille","lat":43.328371,"lon":5.366909,"is_reserved":false,"is_disabled":false,"rental_uris":{"android":"levelo://app?vid=6aadd20f-ee22-42f7-9c69-f3066c5dfcf1","ios":"levelo://app?vid=6aadd20f-ee22-42f7-9c69-f3066c5dfcf1"},"vehicle_type_id":"4","last_reported":1685152698,"current_range_meters":17200,"station_id":"ce4bhs92rcd13ifvqi0g","pricing_plan_id":"free"},{"bike_id":"e81f44ff-674e-494f-99cb-1460a2f1d2ee","system_id":"levelo_inurba_marseille","lat":43.29573,"lon":5.367355,"is_reserved":false,"is_disabled":false,"rental_uris":{"android":"levelo://app?vid=e81f44ff-674e-494f-99cb-1460a2f1d2ee","ios":"levelo://app?vid=e81f44ff-674e-494f-99cb-1460a2f1d2ee"},"vehicle_type_id":"4","last_reported":1685152698,"current_range_meters":12400,"station_id":"ce4bgph2rcd13ifvqc2g","pricing_plan_id":"free"},{"bike_id":"8bb1d7f1-9be1-4919-8baa-9f6b422912aa","system_id":"levelo_inurba_marseille","lat":43.296921,"lon":5.376579,"is_reserved":false,"is_disabled":false,"rental_uris":{"android":"levelo://app?vid=8bb1d7f1-9be1-4919-8baa-9f6b422912aa","ios":"levelo://app?vid=8bb1d7f1-9be1-4919-8baa-9f6b422912aa"},"vehicle_type_id":"4","last_reported":1685152698,"current_range_meters":12000,"station_id":"ce4bgkh2rcd13ifvqbl0","pricing_plan_id":"free"},{"bike_id":"d7f266a6-ce15-437e-86aa-7112b7a80e12","system_id":"levelo_inurba_marseille","lat":43.30967,"lon":5.39018,"is_reserved":false,"is_disabled":false,"rental_uris":{"android":"levelo://app?vid=d7f266a6-ce15-437e-86aa-7112b7a80e12","ios":"levelo://app?vid=d7f266a6-ce15-437e-86aa-7112b7a80e12"},"vehicle_type_id":"4","last_reported":1685152698,"current_range_meters":0,"station_id":"ce4bgup2rcd13ifvqco0","pricing_plan_id":"free"},{"bike_id":"de47fb5d-9561-4e09-9040-ecabea026f0f","system_id":"levelo_inurba_marseille","lat":43.299028,"lon":5.381509,"is_reserved":false,"is_disabled":false,"rental_uris":{"android":"levelo://app?vid=de47fb5d-9561-4e09-9040-ecabea026f0f","ios":"levelo://app?vid=de47fb5d-9561-4e09-9040-ecabea026f0f"},"vehicle_type_id":"4","last_reported":1685152698,"current_range_meters":17600,"station_id":"ce4bgj12rcd13ifvqbc0","pricing_plan_id":"free"},{"bike_id":"cf3fb89a-c959-4f23-8f03-a98d306de8af","system_id":"levelo_inurba_marseille","lat":43.317557,"lon":5.390173,"is_reserved":false,"is_disabled":false,"rental_uris":{"android":"levelo://app?vid=cf3fb89a-c959-4f23-8f03-a98d306de8af","ios":"levelo://app?vid=cf3fb89a-c959-4f23-8f03-a98d306de8af"},"vehicle_type_id":"4","last_reported":1685152698,"current_range_meters":24000,"station_id":"ce4bhqp2rcd13ifvqhng","pricing_plan_id":"free"},{"bike_id":"b760dc60-6d37-49c7-8dde-1a371397cdb8","system_id":"levelo_inurba_marseille","lat":43.317557,"lon":5.390173,"is_reserved":false,"is_disabled":false,"rental_uris":{"android":"levelo://app?vid=b760dc60-6d37-49c7-8dde-1a371397cdb8","ios":"levelo://app?vid=b760dc60-6d37-49c7-8dde-1a371397cdb8"},"vehicle_type_id":"4","last_reported":1685152698,"current_range_meters":28800,"station_id":"ce4bhqp2rcd13ifvqhng","pricing_plan_id":"free"},{"bike_id":"774ce504-2767-4c7f-b9b2-adba2127074c","system_id":"levelo_inurba_marseille","lat":43.317557,"lon":5.390173,"is_reserved":false,"is_disabled":false,"rental_uris":{"android":"levelo://app?vid=774ce504-2767-4c7f-b9b2-adba2127074c","ios":"levelo://app?vid=774ce504-2767-4c7f-b9b2-adba2127074c"},"vehicle_type_id":"4","last_reported":1685152698,"current_range_meters":29200,"station_id":"ce4bhqp2rcd13ifvqhng","pricing_plan_id":"free"},{"bike_id":"0a80d5e9-ad49-415c-9ece-72c4359f066d","system_id":"levelo_inurba_marseille","lat":43.317557,"lon":5.390173,"is_reserved":false,"is_disabled":false,"rental_uris":{"android":"levelo://app?vid=0a80d5e9-ad49-415c-9ece-72c4359f066d","ios":"levelo://app?vid=0a80d5e9-ad49-415c-9ece-72c4359f066d"},"vehicle_type_id":"4","last_reported":1685152698,"current_range_meters":28800,"station_id":"ce4bhqp2rcd13ifvqhng","pricing_plan_id":"free"},{"bike_id":"2639ff4c-0b26-451c-ada6-b13ee2bfec20","system_id":"levelo_inurba_marseille","lat":43.29797,"lon":5.38121,"is_reserved":false,"is_disabled":false,"rental_uris":{"android":"levelo://app?vid=2639ff4c-0b26-451c-ada6-b13ee2bfec20","ios":"levelo://app?vid=2639ff4c-0b26-451c-ada6-b13ee2bfec20"},"vehicle_type_id":"4","last_reported":1685152698,"current_range_meters":27600,"station_id":"ce4bgip2rcd13ifvqbb0","pricing_plan_id":"free"},{"bike_id":"e1786a32-67bb-4b83-879c-4fa13b7154ce","system_id":"levelo_inurba_marseille","lat":43.29793,"lon":5.38125,"is_reserved":false,"is_disabled":false,"rental_uris":{"android":"levelo://app?vid=e1786a32-67bb-4b83-879c-4fa13b7154ce","ios":"levelo://app?vid=e1786a32-67bb-4b83-879c-4fa13b7154ce"},"vehicle_type_id":"4","last_reported":1685152698,"current_range_meters":0,"station_id":"ce4bgip2rcd13ifvqbb0","pricing_plan_id":"free"},{"bike_id":"12eb850f-3825-4061-9109-a674468c53eb","system_id":"levelo_inurba_marseille","lat":43.296277,"lon":5.377108,"is_reserved":false,"is_disabled":false,"rental_uris":{"android":"levelo://app?vid=12eb850f-3825-4061-9109-a674468c53eb","ios":"levelo://app?vid=12eb850f-3825-4061-9109-a674468c53eb"},"vehicle_type_id":"4","last_reported":1685152698,"current_range_meters":26400,"station_id":"ce4bgi92rcd13ifvqb90","pricing_plan_id":"free"},{"bike_id":"f319964b-67ea-42e7-92d0-672639f3b00a","system_id":"levelo_inurba_marseille","lat":43.29517,"lon":5.37503,"is_reserved":false,"is_disabled":false,"rental_uris":{"android":"levelo://app?vid=f319964b-67ea-42e7-92d0-672639f3b00a","ios":"levelo://app?vid=f319964b-67ea-42e7-92d0-672639f3b00a"},"vehicle_type_id":"4","last_reported":1685152698,"current_range_meters":6000,"station_id":"ce4bgkp2rcd13ifvqbmg","pricing_plan_id":"free"},{"bike_id":"3289b7bc-6138-4ebb-8d82-2b0e69f1f911","system_id":"levelo_inurba_marseille","lat":43.296556,"lon":5.381226,"is_reserved":false,"is_disabled":false,"rental_uris":{"android":"levelo://app?vid=3289b7bc-6138-4ebb-8d82-2b0e69f1f911","ios":"levelo://app?vid=3289b7bc-6138-4ebb-8d82-2b0e69f1f911"},"vehicle_type_id":"4","last_reported":1685152698,"current_range_meters":800,"station_id":"","pricing_plan_id":"free"},{"bike_id":"15b52e71-618b-4328-b7cc-4bd55cb328a8","system_id":"levelo_inurba_marseille","lat":43.32367,"lon":5.388836,"is_reserved":false,"is_disabled":false,"rental_uris":{"android":"levelo://app?vid=15b52e71-618b-4328-b7cc-4bd55cb328a8","ios":"levelo://app?vid=15b52e71-618b-4328-b7cc-4bd55cb328a8"},"vehicle_type_id":"4","last_reported":1685152698,"current_range_meters":25200,"station_id":"ce4bhqp2rcd13ifvqhog","pricing_plan_id":"free"},{"bike_id":"4b9b7cc7-b225-4a9f-bada-778cd0f0283f","system_id":"levelo_inurba_marseille","lat":43.293249,"lon":5.371578,"is_reserved":false,"is_disabled":false,"rental_uris":{"android":"levelo://app?vid=4b9b7cc7-b225-4a9f-bada-778cd0f0283f","ios":"levelo://app?vid=4b9b7cc7-b225-4a9f-bada-778cd0f0283f"},"vehicle_type_id":"4","last_reported":1685152698,"current_range_meters":6000,"station_id":"ce4bgh92rcd13ifvqb40","pricing_plan_id":"free"},{"bike_id":"315d986d-a715-4adb-aaf2-56d320044e5c","system_id":"levelo_inurba_marseille","lat":43.292311,"lon":5.360731,"is_reserved":false,"is_disabled":false,"rental_uris":{"android":"levelo://app?vid=315d986d-a715-4adb-aaf2-56d320044e5c","ios":"levelo://app?vid=315d986d-a715-4adb-aaf2-56d320044e5c"},"vehicle_type_id":"4","last_reported":1685152698,"current_range_meters":31200,"station_id":"ce4bhbh2rcd13ifvqeqg","pricing_plan_id":"free"},{"bike_id":"529cf632-b73e-499c-9a94-237f6f923f94","system_id":"levelo_inurba_marseille","lat":43.287154,"lon":5.399979,"is_reserved":false,"is_disabled":false,"rental_uris":{"android":"levelo://app?vid=529cf632-b73e-499c-9a94-237f6f923f94","ios":"levelo://app?vid=529cf632-b73e-499c-9a94-237f6f923f94"},"vehicle_type_id":"4","last_reported":1685152698,"current_range_meters":28000,"station_id":"ce4bho92rcd13ifvqh3g","pricing_plan_id":"free"},{"bike_id":"c2dfad4e-203a-4a55-a71e-d6cfd1a7defc","system_id":"levelo_inurba_marseille","lat":43.292311,"lon":5.360731,"is_reserved":false,"is_disabled":false,"rental_uris":{"android":"levelo://app?vid=c2dfad4e-203a-4a55-a71e-d6cfd1a7defc","ios":"levelo://app?vid=c2dfad4e-203a-4a55-a71e-d6cfd1a7defc"},"vehicle_type_id":"4","last_reported":1685152698,"current_range_meters":29200,"station_id":"ce4bhbh2rcd13ifvqeqg","pricing_plan_id":"free"},{"bike_id":"7a0c1491-e7d2-4a04-8ef2-607ed3e9d341","system_id":"levelo_inurba_marseille","lat":43.292311,"lon":5.360731,"is_reserved":false,"is_disabled":false,"rental_uris":{"android":"levelo://app?vid=7a0c1491-e7d2-4a04-8ef2-607ed3e9d341","ios":"levelo://app?vid=7a0c1491-e7d2-4a04-8ef2-607ed3e9d341"},"vehicle_type_id":"4","last_reported":1685152698,"current_range_meters":27600,"station_id":"ce4bhbh2rcd13ifvqeqg","pricing_plan_id":"free"},{"bike_id":"8e23444a-31c7-407b-8b1e-89757185ba86","system_id":"levelo_inurba_marseille","lat":43.29218,"lon":5.36057,"is_reserved":false,"is_disabled":false,"rental_uris":{"android":"levelo://app?vid=8e23444a-31c7-407b-8b1e-89757185ba86","ios":"levelo://app?vid=8e23444a-31c7-407b-8b1e-89757185ba86"},"vehicle_type_id":"4","last_reported":1685152698,"current_range_meters":30000,"station_id":"ce4bhbh2rcd13ifvqeqg","pricing_plan_id":"free"},{"bike_id":"fe3613ba-e557-44d4-91f9-0781c919e764","system_id":"levelo_inurba_marseille","lat":43.25102,"lon":5.403214,"is_reserved":false,"is_disabled":false,"rental_uris":{"android":"levelo://app?vid=fe3613ba-e557-44d4-91f9-0781c919e764","ios":"levelo://app?vid=fe3613ba-e557-44d4-91f9-0781c919e764"},"vehicle_type_id":"4","last_reported":1685152698,"current_range_meters":0,"station_id":"ce4bhlh2rcd13ifvqgig","pricing_plan_id":"free"},{"bike_id":"a954faba-4229-4088-83c1-30dbf2ffd26c","system_id":"levelo_inurba_marseille","lat":43.298764,"lon":5.388973,"is_reserved":false,"is_disabled":false,"rental_uris":{"android":"levelo://app?vid=a954faba-4229-4088-83c1-30dbf2ffd26c","ios":"levelo://app?vid=a954faba-4229-4088-83c1-30dbf2ffd26c"},"vehicle_type_id":"4","last_reported":1685152698,"current_range_meters":4000,"station_id":"ce4bh392rcd13ifvqdl0","pricing_plan_id":"free"},{"bike_id":"91251e0d-693c-48c7-a8af-45ec73cdd651","system_id":"levelo_inurba_marseille","lat":43.309038,"lon":5.396546,"is_reserved":false,"is_disabled":false,"rental_uris":{"android":"levelo://app?vid=91251e0d-693c-48c7-a8af-45ec73cdd651","ios":"levelo://app?vid=91251e0d-693c-48c7-a8af-45ec73cdd651"},"vehicle_type_id":"4","last_reported":1685152698,"current_range_meters":0,"station_id":"ce4bh012rcd13ifvqcv0","pricing_plan_id":"free"},{"bike_id":"18ed3bb2-12e7-491c-8c4f-55f6c405d52f","system_id":"levelo_inurba_marseille","lat":43.313291,"lon":5.396838,"is_reserved":false,"is_disabled":false,"rental_uris":{"android":"levelo://app?vid=18ed3bb2-12e7-491c-8c4f-55f6c405d52f","ios":"levelo://app?vid=18ed3bb2-12e7-491c-8c4f-55f6c405d52f"},"vehicle_type_id":"4","last_reported":1685152698,"current_range_meters":0,"station_id":"ce4bgvp2rcd13ifvqcu0","pricing_plan_id":"free"},{"bike_id":"e83efb7a-b88f-4299-9dc5-8a967077d059","system_id":"levelo_inurba_marseille","lat":43.309038,"lon":5.396546,"is_reserved":false,"is_disabled":false,"rental_uris":{"android":"levelo://app?vid=e83efb7a-b88f-4299-9dc5-8a967077d059","ios":"levelo://app?vid=e83efb7a-b88f-4299-9dc5-8a967077d059"},"vehicle_type_id":"4","last_reported":1685152698,"current_range_meters":5200,"station_id":"ce4bh012rcd13ifvqcv0","pricing_plan_id":"free"},{"bike_id":"71db31b8-daf0-4fa8-b1dc-837820a25bdf","system_id":"levelo_inurba_marseille","lat":43.309038,"lon":5.396546,"is_reserved":false,"is_disabled":false,"rental_uris":{"android":"levelo://app?vid=71db31b8-daf0-4fa8-b1dc-837820a25bdf","ios":"levelo://app?vid=71db31b8-daf0-4fa8-b1dc-837820a25bdf"},"vehicle_type_id":"4","last_reported":1685152698,"current_range_meters":800,"station_id":"ce4bh012rcd13ifvqcv0","pricing_plan_id":"free"},{"bike_id":"341e13a8-3375-47ef-b6ab-bbcc35bdf995","system_id":"levelo_inurba_marseille","lat":43.29192,"lon":5.35788,"is_reserved":false,"is_disabled":false,"rental_uris":{"android":"levelo://app?vid=341e13a8-3375-47ef-b6ab-bbcc35bdf995","ios":"levelo://app?vid=341e13a8-3375-47ef-b6ab-bbcc35bdf995"},"vehicle_type_id":"4","last_reported":1685152698,"current_range_meters":30800,"station_id":"ce4bhb12rcd13ifvqel0","pricing_plan_id":"free"},{"bike_id":"fabb0972-ab78-4b48-9ef4-05f772332cfc","system_id":"levelo_inurba_marseille","lat":43.313291,"lon":5.396838,"is_reserved":false,"is_disabled":false,"rental_uris":{"android":"levelo://app?vid=fabb0972-ab78-4b48-9ef4-05f772332cfc","ios":"levelo://app?vid=fabb0972-ab78-4b48-9ef4-05f772332cfc"},"vehicle_type_id":"4","last_reported":1685152698,"current_range_meters":11600,"station_id":"ce4bgvp2rcd13ifvqcu0","pricing_plan_id":"free"},{"bike_id":"9478e152-99c3-48df-855b-261b6cece1cc","system_id":"levelo_inurba_marseille","lat":43.313291,"lon":5.396838,"is_reserved":false,"is_disabled":false,"rental_uris":{"android":"levelo://app?vid=9478e152-99c3-48df-855b-261b6cece1cc","ios":"levelo://app?vid=9478e152-99c3-48df-855b-261b6cece1cc"},"vehicle_type_id":"4","last_reported":1685152698,"current_range_meters":12400,"station_id":"ce4bgvp2rcd13ifvqcu0","pricing_plan_id":"free"},{"bike_id":"edb52245-6968-48e1-9132-075a25aab304","system_id":"levelo_inurba_marseille","lat":43.309038,"lon":5.396546,"is_reserved":false,"is_disabled":false,"rental_uris":{"android":"levelo://app?vid=edb52245-6968-48e1-9132-075a25aab304","ios":"levelo://app?vid=edb52245-6968-48e1-9132-075a25aab304"},"vehicle_type_id":"4","last_reported":1685152698,"current_range_meters":5200,"station_id":"ce4bh012rcd13ifvqcv0","pricing_plan_id":"free"},{"bike_id":"515f3855-cae4-44cd-b341-b9ab7d93edf6","system_id":"levelo_inurba_marseille","lat":43.313291,"lon":5.396838,"is_reserved":false,"is_disabled":false,"rental_uris":{"android":"levelo://app?vid=515f3855-cae4-44cd-b341-b9ab7d93edf6","ios":"levelo://app?vid=515f3855-cae4-44cd-b341-b9ab7d93edf6"},"vehicle_type_id":"4","last_reported":1685152698,"current_range_meters":1600,"station_id":"ce4bgvp2rcd13ifvqcu0","pricing_plan_id":"free"},{"bike_id":"f11bd125-d0cf-458a-b939-a63fa0ed69bf","system_id":"levelo_inurba_marseille","lat":43.30881,"lon":5.39656,"is_reserved":false,"is_disabled":false,"rental_uris":{"android":"levelo://app?vid=f11bd125-d0cf-458a-b939-a63fa0ed69bf","ios":"levelo://app?vid=f11bd125-d0cf-458a-b939-a63fa0ed69bf"},"vehicle_type_id":"4","last_reported":1685152698,"current_range_meters":800,"station_id":"ce4bh012rcd13ifvqcv0","pricing_plan_id":"free"},{"bike_id":"c731e572-0e84-45af-b7ef-e6545a1b4c46","system_id":"levelo_inurba_marseille","lat":43.29529,"lon":5.385581,"is_reserved":false,"is_disabled":false,"rental_uris":{"android":"levelo://app?vid=c731e572-0e84-45af-b7ef-e6545a1b4c46","ios":"levelo://app?vid=c731e572-0e84-45af-b7ef-e6545a1b4c46"},"vehicle_type_id":"4","last_reported":1685152698,"current_range_meters":9600,"station_id":"ce4bgih2rcd13ifvqba0","pricing_plan_id":"free"},{"bike_id":"31229950-3d67-4323-834e-24b77ed974e6","system_id":"levelo_inurba_marseille","lat":43.289468,"lon":5.363719,"is_reserved":false,"is_disabled":false,"rental_uris":{"android":"levelo://app?vid=31229950-3d67-4323-834e-24b77ed974e6","ios":"levelo://app?vid=31229950-3d67-4323-834e-24b77ed974e6"},"vehicle_type_id":"4","last_reported":1685152698,"current_range_meters":26800,"station_id":"ce4bhc92rcd13ifvqetg","pricing_plan_id":"free"},{"bike_id":"09322ae8-72a7-4e80-962e-134a98cd9781","system_id":"levelo_inurba_marseille","lat":43.289468,"lon":5.363719,"is_reserved":false,"is_disabled":false,"rental_uris":{"android":"levelo://app?vid=09322ae8-72a7-4e80-962e-134a98cd9781","ios":"levelo://app?vid=09322ae8-72a7-4e80-962e-134a98cd9781"},"vehicle_type_id":"4","last_reported":1685152698,"current_range_meters":6000,"station_id":"ce4bhc92rcd13ifvqetg","pricing_plan_id":"free"},{"bike_id":"7d5d4173-4e35-435e-b609-6830ccb16249","system_id":"levelo_inurba_marseille","lat":43.304274,"lon":5.397513,"is_reserved":false,"is_disabled":false,"rental_uris":{"android":"levelo://app?vid=7d5d4173-4e35-435e-b609-6830ccb16249","ios":"levelo://app?vid=7d5d4173-4e35-435e-b609-6830ccb16249"},"vehicle_type_id":"4","last_reported":1685152698,"current_range_meters":27600,"station_id":"ce4bh092rcd13ifvqd20","pricing_plan_id":"free"},{"bike_id":"f445296b-8f7c-42f6-82cf-090bfc4f7485","system_id":"levelo_inurba_marseille","lat":43.33048,"lon":5.38912,"is_reserved":false,"is_disabled":false,"rental_uris":{"android":"levelo://app?vid=f445296b-8f7c-42f6-82cf-090bfc4f7485","ios":"levelo://app?vid=f445296b-8f7c-42f6-82cf-090bfc4f7485"},"vehicle_type_id":"4","last_reported":1685152698,"current_range_meters":12000,"station_id":"ce4bhr92rcd13ifvqhrg","pricing_plan_id":"free"},{"bike_id":"13febadc-ed15-4a0c-835e-7b0f87d51ec7","system_id":"levelo_inurba_marseille","lat":43.290104,"lon":5.356111,"is_reserved":false,"is_disabled":false,"rental_uris":{"android":"levelo://app?vid=13febadc-ed15-4a0c-835e-7b0f87d51ec7","ios":"levelo://app?vid=13febadc-ed15-4a0c-835e-7b0f87d51ec7"},"vehicle_type_id":"4","last_reported":1685152698,"current_range_meters":26400,"station_id":"ce4bhb92rcd13ifvqen0","pricing_plan_id":"free"},{"bike_id":"45965492-6db7-4b9c-828f-19d1b9ad4ff1","system_id":"levelo_inurba_marseille","lat":43.33049,"lon":5.38912,"is_reserved":false,"is_disabled":false,"rental_uris":{"android":"levelo://app?vid=45965492-6db7-4b9c-828f-19d1b9ad4ff1","ios":"levelo://app?vid=45965492-6db7-4b9c-828f-19d1b9ad4ff1"},"vehicle_type_id":"4","last_reported":1685152698,"current_range_meters":3600,"station_id":"ce4bhr92rcd13ifvqhrg","pricing_plan_id":"free"},{"bike_id":"90c35fe1-7f91-4b22-82fa-6290e8b1f27b","system_id":"levelo_inurba_marseille","lat":43.290103,"lon":5.356114,"is_reserved":false,"is_disabled":false,"rental_uris":{"android":"levelo://app?vid=90c35fe1-7f91-4b22-82fa-6290e8b1f27b","ios":"levelo://app?vid=90c35fe1-7f91-4b22-82fa-6290e8b1f27b"},"vehicle_type_id":"4","last_reported":1685152698,"current_range_meters":24000,"station_id":"ce4bhb92rcd13ifvqen0","pricing_plan_id":"free"},{"bike_id":"4dfab6ad-be40-4201-a8a4-8649d0116356","system_id":"levelo_inurba_marseille","lat":43.290104,"lon":5.356111,"is_reserved":false,"is_disabled":false,"rental_uris":{"android":"levelo://app?vid=4dfab6ad-be40-4201-a8a4-8649d0116356","ios":"levelo://app?vid=4dfab6ad-be40-4201-a8a4-8649d0116356"},"vehicle_type_id":"4","last_reported":1685152698,"current_range_meters":29200,"station_id":"ce4bhb92rcd13ifvqen0","pricing_plan_id":"free"},{"bike_id":"351acc09-8a17-4508-bb95-e897624cde5b","system_id":"levelo_inurba_marseille","lat":43.33051,"lon":5.38912,"is_reserved":false,"is_disabled":false,"rental_uris":{"android":"levelo://app?vid=351acc09-8a17-4508-bb95-e897624cde5b","ios":"levelo://app?vid=351acc09-8a17-4508-bb95-e897624cde5b"},"vehicle_type_id":"4","last_reported":1685152698,"current_range_meters":6000,"station_id":"ce4bhr92rcd13ifvqhrg","pricing_plan_id":"free"},{"bike_id":"59ad26f4-bea2-44d4-91c5-7ad5356ff707","system_id":"levelo_inurba_marseille","lat":43.290104,"lon":5.356111,"is_reserved":false,"is_disabled":false,"rental_uris":{"android":"levelo://app?vid=59ad26f4-bea2-44d4-91c5-7ad5356ff707","ios":"levelo://app?vid=59ad26f4-bea2-44d4-91c5-7ad5356ff707"},"vehicle_type_id":"4","last_reported":1685152698,"current_range_meters":16400,"station_id":"ce4bhb92rcd13ifvqen0","pricing_plan_id":"free"},{"bike_id":"b19fad95-b4b6-423c-b255-066fc577da61","system_id":"levelo_inurba_marseille","lat":43.28856,"lon":5.358371,"is_reserved":false,"is_disabled":false,"rental_uris":{"android":"levelo://app?vid=b19fad95-b4b6-423c-b255-066fc577da61","ios":"levelo://app?vid=b19fad95-b4b6-423c-b255-066fc577da61"},"vehicle_type_id":"4","last_reported":1685152698,"current_range_meters":21600,"station_id":"ce4bhb12rcd13ifvqem0","pricing_plan_id":"free"},{"bike_id":"f40bf423-8201-40ef-b1a6-478931c868aa","system_id":"levelo_inurba_marseille","lat":43.28856,"lon":5.358371,"is_reserved":false,"is_disabled":false,"rental_uris":{"android":"levelo://app?vid=f40bf423-8201-40ef-b1a6-478931c868aa","ios":"levelo://app?vid=f40bf423-8201-40ef-b1a6-478931c868aa"},"vehicle_type_id":"4","last_reported":1685152698,"current_range_meters":14400,"station_id":"ce4bhb12rcd13ifvqem0","pricing_plan_id":"free"},{"bike_id":"cc0b4051-9764-433e-b95a-de747eb014bb","system_id":"levelo_inurba_marseille","lat":43.28856,"lon":5.358371,"is_reserved":false,"is_disabled":false,"rental_uris":{"android":"levelo://app?vid=cc0b4051-9764-433e-b95a-de747eb014bb","ios":"levelo://app?vid=cc0b4051-9764-433e-b95a-de747eb014bb"},"vehicle_type_id":"4","last_reported":1685152698,"current_range_meters":31200,"station_id":"ce4bhb12rcd13ifvqem0","pricing_plan_id":"free"},{"bike_id":"141c14ea-594b-43ee-894e-8c44af1dcd73","system_id":"levelo_inurba_marseille","lat":43.33751,"lon":5.37443,"is_reserved":false,"is_disabled":false,"rental_uris":{"android":"levelo://app?vid=141c14ea-594b-43ee-894e-8c44af1dcd73","ios":"levelo://app?vid=141c14ea-594b-43ee-894e-8c44af1dcd73"},"vehicle_type_id":"4","last_reported":1685152698,"current_range_meters":13600,"station_id":"","pricing_plan_id":"free"},{"bike_id":"556c6db1-2600-4c2b-9521-aae8453517c1","system_id":"levelo_inurba_marseille","lat":43.33755,"lon":5.37434,"is_reserved":false,"is_disabled":false,"rental_uris":{"android":"levelo://app?vid=556c6db1-2600-4c2b-9521-aae8453517c1","ios":"levelo://app?vid=556c6db1-2600-4c2b-9521-aae8453517c1"},"vehicle_type_id":"4","last_reported":1685152698,"current_range_meters":19600,"station_id":"","pricing_plan_id":"free"},{"bike_id":"02362672-78e1-4667-9a77-d71f91f94365","system_id":"levelo_inurba_marseille","lat":43.33756,"lon":5.37436,"is_reserved":false,"is_disabled":false,"rental_uris":{"android":"levelo://app?vid=02362672-78e1-4667-9a77-d71f91f94365","ios":"levelo://app?vid=02362672-78e1-4667-9a77-d71f91f94365"},"vehicle_type_id":"4","last_reported":1685152698,"current_range_meters":17600,"station_id":"","pricing_plan_id":"free"},{"bike_id":"0db149bf-f8c9-48ec-a7e2-bc8c39f4a018","system_id":"levelo_inurba_marseille","lat":43.30642,"lon":5.401031,"is_reserved":false,"is_disabled":false,"rental_uris":{"android":"levelo://app?vid=0db149bf-f8c9-48ec-a7e2-bc8c39f4a018","ios":"levelo://app?vid=0db149bf-f8c9-48ec-a7e2-bc8c39f4a018"},"vehicle_type_id":"4","last_reported":1685152698,"current_range_meters":31600,"station_id":"ce4bh112rcd13ifvqda0","pricing_plan_id":"free"},{"bike_id":"91a34033-fdaf-4096-94b5-8b99c0e926e1","system_id":"levelo_inurba_marseille","lat":43.30642,"lon":5.401031,"is_reserved":false,"is_disabled":false,"rental_uris":{"android":"levelo://app?vid=91a34033-fdaf-4096-94b5-8b99c0e926e1","ios":"levelo://app?vid=91a34033-fdaf-4096-94b5-8b99c0e926e1"},"vehicle_type_id":"4","last_reported":1685152698,"current_range_meters":31200,"station_id":"ce4bh112rcd13ifvqda0","pricing_plan_id":"free"},{"bike_id":"5bd96745-9a19-4fe7-b597-4db9cabdc957","system_id":"levelo_inurba_marseille","lat":43.33762,"lon":5.37435,"is_reserved":false,"is_disabled":false,"rental_uris":{"android":"levelo://app?vid=5bd96745-9a19-4fe7-b597-4db9cabdc957","ios":"levelo://app?vid=5bd96745-9a19-4fe7-b597-4db9cabdc957"},"vehicle_type_id":"4","last_reported":1685152698,"current_range_meters":27200,"station_id":"","pricing_plan_id":"free"},{"bike_id":"7401fe54-02c9-4f07-95d2-62dd9e5e67dd","system_id":"levelo_inurba_marseille","lat":43.30642,"lon":5.401031,"is_reserved":false,"is_disabled":false,"rental_uris":{"android":"levelo://app?vid=7401fe54-02c9-4f07-95d2-62dd9e5e67dd","ios":"levelo://app?vid=7401fe54-02c9-4f07-95d2-62dd9e5e67dd"},"vehicle_type_id":"4","last_reported":1685152698,"current_range_meters":0,"station_id":"ce4bh112rcd13ifvqda0","pricing_plan_id":"free"},{"bike_id":"1490fad1-fe90-4399-a2f2-79545cf03a2b","system_id":"levelo_inurba_marseille","lat":43.337578,"lon":5.374791,"is_reserved":false,"is_disabled":false,"rental_uris":{"android":"levelo://app?vid=1490fad1-fe90-4399-a2f2-79545cf03a2b","ios":"levelo://app?vid=1490fad1-fe90-4399-a2f2-79545cf03a2b"},"vehicle_type_id":"4","last_reported":1685152698,"current_range_meters":29200,"station_id":"","pricing_plan_id":"free"},{"bike_id":"31f720de-218a-4b5b-b0aa-c3e6fae4c874","system_id":"levelo_inurba_marseille","lat":43.30642,"lon":5.401031,"is_reserved":false,"is_disabled":false,"rental_uris":{"android":"levelo://app?vid=31f720de-218a-4b5b-b0aa-c3e6fae4c874","ios":"levelo://app?vid=31f720de-218a-4b5b-b0aa-c3e6fae4c874"},"vehicle_type_id":"4","last_reported":1685152698,"current_range_meters":30000,"station_id":"ce4bh112rcd13ifvqda0","pricing_plan_id":"free"},{"bike_id":"0f915385-1fd5-4f54-896c-f56a11a31d3d","system_id":"levelo_inurba_marseille","lat":43.33764,"lon":5.37445,"is_reserved":false,"is_disabled":false,"rental_uris":{"android":"levelo://app?vid=0f915385-1fd5-4f54-896c-f56a11a31d3d","ios":"levelo://app?vid=0f915385-1fd5-4f54-896c-f56a11a31d3d"},"vehicle_type_id":"4","last_reported":1685152698,"current_range_meters":20800,"station_id":"","pricing_plan_id":"free"},{"bike_id":"dac15fb2-e236-46f6-9a9d-8edd29162182","system_id":"levelo_inurba_marseille","lat":43.30642,"lon":5.401031,"is_reserved":false,"is_disabled":false,"rental_uris":{"android":"levelo://app?vid=dac15fb2-e236-46f6-9a9d-8edd29162182","ios":"levelo://app?vid=dac15fb2-e236-46f6-9a9d-8edd29162182"},"vehicle_type_id":"4","last_reported":1685152698,"current_range_meters":18000,"station_id":"ce4bh112rcd13ifvqda0","pricing_plan_id":"free"},{"bike_id":"eb8ac404-8a95-4fc7-819a-ea19315069af","system_id":"levelo_inurba_marseille","lat":43.33777,"lon":5.37425,"is_reserved":false,"is_disabled":false,"rental_uris":{"android":"levelo://app?vid=eb8ac404-8a95-4fc7-819a-ea19315069af","ios":"levelo://app?vid=eb8ac404-8a95-4fc7-819a-ea19315069af"},"vehicle_type_id":"4","last_reported":1685152698,"current_range_meters":25600,"station_id":"","pricing_plan_id":"free"},{"bike_id":"15ac8984-2799-4b47-99b9-657671df0aa8","system_id":"levelo_inurba_marseille","lat":43.298681,"lon":5.397225,"is_reserved":false,"is_disabled":false,"rental_uris":{"android":"levelo://app?vid=15ac8984-2799-4b47-99b9-657671df0aa8","ios":"levelo://app?vid=15ac8984-2799-4b47-99b9-657671df0aa8"},"vehicle_type_id":"4","last_reported":1685152698,"current_range_meters":28400,"station_id":"ce4bh0h2rcd13ifvqd50","pricing_plan_id":"free"},{"bike_id":"4d10c0e5-929e-4710-8c03-e1ff207f124f","system_id":"levelo_inurba_marseille","lat":43.298681,"lon":5.397225,"is_reserved":false,"is_disabled":false,"rental_uris":{"android":"levelo://app?vid=4d10c0e5-929e-4710-8c03-e1ff207f124f","ios":"levelo://app?vid=4d10c0e5-929e-4710-8c03-e1ff207f124f"},"vehicle_type_id":"4","last_reported":1685152698,"current_range_meters":31200,"station_id":"ce4bh0h2rcd13ifvqd50","pricing_plan_id":"free"},{"bike_id":"f51f25d6-0ef6-496e-ac0a-4b6fef334b92","system_id":"levelo_inurba_marseille","lat":43.286591,"lon":5.363346,"is_reserved":false,"is_disabled":false,"rental_uris":{"android":"levelo://app?vid=f51f25d6-0ef6-496e-ac0a-4b6fef334b92","ios":"levelo://app?vid=f51f25d6-0ef6-496e-ac0a-4b6fef334b92"},"vehicle_type_id":"4","last_reported":1685152698,"current_range_meters":31200,"station_id":"ce4bhah2rcd13ifvqej0","pricing_plan_id":"free"},{"bike_id":"a2e4600b-61a0-4f77-b5b6-856eab72febd","system_id":"levelo_inurba_marseille","lat":43.298681,"lon":5.397225,"is_reserved":false,"is_disabled":false,"rental_uris":{"android":"levelo://app?vid=a2e4600b-61a0-4f77-b5b6-856eab72febd","ios":"levelo://app?vid=a2e4600b-61a0-4f77-b5b6-856eab72febd"},"vehicle_type_id":"4","last_reported":1685152698,"current_range_meters":28800,"station_id":"ce4bh0h2rcd13ifvqd50","pricing_plan_id":"free"},{"bike_id":"3c8e5171-968d-4151-bd71-cd2b36268b92","system_id":"levelo_inurba_marseille","lat":43.295194,"lon":5.39397,"is_reserved":false,"is_disabled":false,"rental_uris":{"android":"levelo://app?vid=3c8e5171-968d-4151-bd71-cd2b36268b92","ios":"levelo://app?vid=3c8e5171-968d-4151-bd71-cd2b36268b92"},"vehicle_type_id":"4","last_reported":1685152698,"current_range_meters":8000,"station_id":"ce4bh292rcd13ifvqdf0","pricing_plan_id":"free"},{"bike_id":"9723a328-d09d-4249-8021-ef338cc09f7f","system_id":"levelo_inurba_marseille","lat":43.286593,"lon":5.363346,"is_reserved":false,"is_disabled":false,"rental_uris":{"android":"levelo://app?vid=9723a328-d09d-4249-8021-ef338cc09f7f","ios":"levelo://app?vid=9723a328-d09d-4249-8021-ef338cc09f7f"},"vehicle_type_id":"4","last_reported":1685152698,"current_range_meters":31200,"station_id":"ce4bhah2rcd13ifvqej0","pricing_plan_id":"free"},{"bike_id":"8ca01983-4637-4492-8767-610c58afef78","system_id":"levelo_inurba_marseille","lat":43.295196,"lon":5.39397,"is_reserved":false,"is_disabled":false,"rental_uris":{"android":"levelo://app?vid=8ca01983-4637-4492-8767-610c58afef78","ios":"levelo://app?vid=8ca01983-4637-4492-8767-610c58afef78"},"vehicle_type_id":"4","last_reported":1685152698,"current_range_meters":28000,"station_id":"ce4bh292rcd13ifvqdf0","pricing_plan_id":"free"},{"bike_id":"6048184b-c848-443a-b794-e90d739c08fb","system_id":"levelo_inurba_marseille","lat":43.295196,"lon":5.39397,"is_reserved":false,"is_disabled":false,"rental_uris":{"android":"levelo://app?vid=6048184b-c848-443a-b794-e90d739c08fb","ios":"levelo://app?vid=6048184b-c848-443a-b794-e90d739c08fb"},"vehicle_type_id":"4","last_reported":1685152698,"current_range_meters":28000,"station_id":"ce4bh292rcd13ifvqdf0","pricing_plan_id":"free"},{"bike_id":"709f07da-ef7c-44a3-98cb-10b97d904ce4","system_id":"levelo_inurba_marseille","lat":43.302759,"lon":5.400793,"is_reserved":false,"is_disabled":false,"rental_uris":{"android":"levelo://app?vid=709f07da-ef7c-44a3-98cb-10b97d904ce4","ios":"levelo://app?vid=709f07da-ef7c-44a3-98cb-10b97d904ce4"},"vehicle_type_id":"4","last_reported":1685152698,"current_range_meters":19600,"station_id":"ce4bgvh2rcd13ifvqcs0","pricing_plan_id":"free"},{"bike_id":"c90037cd-a76f-4d3e-8909-e4e10cbd2318","system_id":"levelo_inurba_marseille","lat":43.30236,"lon":5.40059,"is_reserved":false,"is_disabled":false,"rental_uris":{"android":"levelo://app?vid=c90037cd-a76f-4d3e-8909-e4e10cbd2318","ios":"levelo://app?vid=c90037cd-a76f-4d3e-8909-e4e10cbd2318"},"vehicle_type_id":"4","last_reported":1685152698,"current_range_meters":5200,"station_id":"","pricing_plan_id":"free"},{"bike_id":"64584541-41da-458f-8589-51ee5f231232","system_id":"levelo_inurba_marseille","lat":43.3026,"lon":5.40075,"is_reserved":false,"is_disabled":false,"rental_uris":{"android":"levelo://app?vid=64584541-41da-458f-8589-51ee5f231232","ios":"levelo://app?vid=64584541-41da-458f-8589-51ee5f231232"},"vehicle_type_id":"4","last_reported":1685152698,"current_range_meters":30400,"station_id":"ce4bgvh2rcd13ifvqcs0","pricing_plan_id":"free"},{"bike_id":"01eb067c-9d65-4851-99ab-af20cba2d128","system_id":"levelo_inurba_marseille","lat":43.302759,"lon":5.400793,"is_reserved":false,"is_disabled":false,"rental_uris":{"android":"levelo://app?vid=01eb067c-9d65-4851-99ab-af20cba2d128","ios":"levelo://app?vid=01eb067c-9d65-4851-99ab-af20cba2d128"},"vehicle_type_id":"4","last_reported":1685152698,"current_range_meters":28400,"station_id":"ce4bgvh2rcd13ifvqcs0","pricing_plan_id":"free"},{"bike_id":"b83666ae-d124-4c27-bda1-8bcbe8073aec","system_id":"levelo_inurba_marseille","lat":43.287185,"lon":5.379373,"is_reserved":false,"is_disabled":false,"rental_uris":{"android":"levelo://app?vid=b83666ae-d124-4c27-bda1-8bcbe8073aec","ios":"levelo://app?vid=b83666ae-d124-4c27-bda1-8bcbe8073aec"},"vehicle_type_id":"4","last_reported":1685152698,"current_range_meters":9200,"station_id":"ce4bh9p2rcd13ifvqec0","pricing_plan_id":"free"},{"bike_id":"a2e285e5-0a8f-47cf-9eb8-d6f15b792dfe","system_id":"levelo_inurba_marseille","lat":43.316517,"lon":5.404375,"is_reserved":false,"is_disabled":false,"rental_uris":{"android":"levelo://app?vid=a2e285e5-0a8f-47cf-9eb8-d6f15b792dfe","ios":"levelo://app?vid=a2e285e5-0a8f-47cf-9eb8-d6f15b792dfe"},"vehicle_type_id":"4","last_reported":1685152698,"current_range_meters":9600,"station_id":"ce4bh012rcd13ifvqd00","pricing_plan_id":"free"},{"bike_id":"10293d08-5565-47fa-8681-6e8d5321fe00","system_id":"levelo_inurba_marseille","lat":43.29194,"lon":5.39326,"is_reserved":false,"is_disabled":false,"rental_uris":{"android":"levelo://app?vid=10293d08-5565-47fa-8681-6e8d5321fe00","ios":"levelo://app?vid=10293d08-5565-47fa-8681-6e8d5321fe00"},"vehicle_type_id":"4","last_reported":1685152698,"current_range_meters":3200,"station_id":"","pricing_plan_id":"free"},{"bike_id":"fbbe1101-31e0-4cc4-bd31-6779aafe5571","system_id":"levelo_inurba_marseille","lat":43.284534,"lon":5.358662,"is_reserved":false,"is_disabled":false,"rental_uris":{"android":"levelo://app?vid=fbbe1101-31e0-4cc4-bd31-6779aafe5571","ios":"levelo://app?vid=fbbe1101-31e0-4cc4-bd31-6779aafe5571"},"vehicle_type_id":"4","last_reported":1685152698,"current_range_meters":16400,"station_id":"ce4bhah2rcd13ifvqei0","pricing_plan_id":"free"},{"bike_id":"cf79a257-9c4f-4d20-a818-2e27263360bf","system_id":"levelo_inurba_marseille","lat":43.284534,"lon":5.358662,"is_reserved":false,"is_disabled":false,"rental_uris":{"android":"levelo://app?vid=cf79a257-9c4f-4d20-a818-2e27263360bf","ios":"levelo://app?vid=cf79a257-9c4f-4d20-a818-2e27263360bf"},"vehicle_type_id":"4","last_reported":1685152698,"current_range_meters":31200,"station_id":"ce4bhah2rcd13ifvqei0","pricing_plan_id":"free"},{"bike_id":"e64c4e4e-3d18-40a8-abc7-10b26217e348","system_id":"levelo_inurba_marseille","lat":43.284534,"lon":5.358662,"is_reserved":false,"is_disabled":false,"rental_uris":{"android":"levelo://app?vid=e64c4e4e-3d18-40a8-abc7-10b26217e348","ios":"levelo://app?vid=e64c4e4e-3d18-40a8-abc7-10b26217e348"},"vehicle_type_id":"4","last_reported":1685152698,"current_range_meters":9200,"station_id":"ce4bhah2rcd13ifvqei0","pricing_plan_id":"free"},{"bike_id":"28a6ea0c-1f23-4f97-9dc0-ed6153b0fdc2","system_id":"levelo_inurba_marseille","lat":43.284534,"lon":5.358662,"is_reserved":false,"is_disabled":false,"rental_uris":{"android":"levelo://app?vid=28a6ea0c-1f23-4f97-9dc0-ed6153b0fdc2","ios":"levelo://app?vid=28a6ea0c-1f23-4f97-9dc0-ed6153b0fdc2"},"vehicle_type_id":"4","last_reported":1685152698,"current_range_meters":31200,"station_id":"ce4bhah2rcd13ifvqei0","pricing_plan_id":"free"},{"bike_id":"7c171c01-fa60-4ea6-8dfc-5b86636faae7","system_id":"levelo_inurba_marseille","lat":43.285856,"lon":5.350771,"is_reserved":false,"is_disabled":false,"rental_uris":{"android":"levelo://app?vid=7c171c01-fa60-4ea6-8dfc-5b86636faae7","ios":"levelo://app?vid=7c171c01-fa60-4ea6-8dfc-5b86636faae7"},"vehicle_type_id":"4","last_reported":1685152698,"current_range_meters":31200,"station_id":"ce4bhch2rcd13ifvqeug","pricing_plan_id":"free"},{"bike_id":"66408b67-b677-4789-831c-b0caea45c7d9","system_id":"levelo_inurba_marseille","lat":43.285856,"lon":5.350771,"is_reserved":false,"is_disabled":false,"rental_uris":{"android":"levelo://app?vid=66408b67-b677-4789-831c-b0caea45c7d9","ios":"levelo://app?vid=66408b67-b677-4789-831c-b0caea45c7d9"},"vehicle_type_id":"4","last_reported":1685152698,"current_range_meters":31200,"station_id":"ce4bhch2rcd13ifvqeug","pricing_plan_id":"free"},{"bike_id":"e2127832-7e43-4e89-8d3d-00e9fc401535","system_id":"levelo_inurba_marseille","lat":43.285856,"lon":5.350771,"is_reserved":false,"is_disabled":false,"rental_uris":{"android":"levelo://app?vid=e2127832-7e43-4e89-8d3d-00e9fc401535","ios":"levelo://app?vid=e2127832-7e43-4e89-8d3d-00e9fc401535"},"vehicle_type_id":"4","last_reported":1685152698,"current_range_meters":31200,"station_id":"ce4bhch2rcd13ifvqeug","pricing_plan_id":"free"},{"bike_id":"fd722a03-52b2-4be0-8f69-98caaa2f1827","system_id":"levelo_inurba_marseille","lat":43.28616,"lon":5.351,"is_reserved":false,"is_disabled":false,"rental_uris":{"android":"levelo://app?vid=fd722a03-52b2-4be0-8f69-98caaa2f1827","ios":"levelo://app?vid=fd722a03-52b2-4be0-8f69-98caaa2f1827"},"vehicle_type_id":"4","last_reported":1685152698,"current_range_meters":31200,"station_id":"","pricing_plan_id":"free"},{"bike_id":"6f383150-e027-4e07-bc9a-59b36ae1822d","system_id":"levelo_inurba_marseille","lat":43.285856,"lon":5.350771,"is_reserved":false,"is_disabled":false,"rental_uris":{"android":"levelo://app?vid=6f383150-e027-4e07-bc9a-59b36ae1822d","ios":"levelo://app?vid=6f383150-e027-4e07-bc9a-59b36ae1822d"},"vehicle_type_id":"4","last_reported":1685152698,"current_range_meters":31200,"station_id":"ce4bhch2rcd13ifvqeug","pricing_plan_id":"free"},{"bike_id":"1f2bda87-9d01-43d0-8361-b4c373ea93dd","system_id":"levelo_inurba_marseille","lat":43.285856,"lon":5.350771,"is_reserved":false,"is_disabled":false,"rental_uris":{"android":"levelo://app?vid=1f2bda87-9d01-43d0-8361-b4c373ea93dd","ios":"levelo://app?vid=1f2bda87-9d01-43d0-8361-b4c373ea93dd"},"vehicle_type_id":"4","last_reported":1685152698,"current_range_meters":21600,"station_id":"ce4bhch2rcd13ifvqeug","pricing_plan_id":"free"},{"bike_id":"579eea96-b1e2-44ba-afb5-a8496e262068","system_id":"levelo_inurba_marseille","lat":43.28612,"lon":5.351,"is_reserved":false,"is_disabled":false,"rental_uris":{"android":"levelo://app?vid=579eea96-b1e2-44ba-afb5-a8496e262068","ios":"levelo://app?vid=579eea96-b1e2-44ba-afb5-a8496e262068"},"vehicle_type_id":"4","last_reported":1685152698,"current_range_meters":31200,"station_id":"","pricing_plan_id":"free"},{"bike_id":"b59e3972-bd7c-4ead-92bc-777cdd993bde","system_id":"levelo_inurba_marseille","lat":43.286595,"lon":5.386795,"is_reserved":false,"is_disabled":false,"rental_uris":{"android":"levelo://app?vid=b59e3972-bd7c-4ead-92bc-777cdd993bde","ios":"levelo://app?vid=b59e3972-bd7c-4ead-92bc-777cdd993bde"},"vehicle_type_id":"4","last_reported":1685152698,"current_range_meters":14400,"station_id":"ce4bh492rcd13ifvqdug","pricing_plan_id":"free"},{"bike_id":"313049e2-232c-4f54-9b26-81086cea8884","system_id":"levelo_inurba_marseille","lat":43.33718,"lon":5.39185,"is_reserved":false,"is_disabled":false,"rental_uris":{"android":"levelo://app?vid=313049e2-232c-4f54-9b26-81086cea8884","ios":"levelo://app?vid=313049e2-232c-4f54-9b26-81086cea8884"},"vehicle_type_id":"4","last_reported":1685152698,"current_range_meters":11200,"station_id":"","pricing_plan_id":"free"},{"bike_id":"b2b4c97d-4feb-49ce-8ac2-9614480a179c","system_id":"levelo_inurba_marseille","lat":43.323464,"lon":5.406297,"is_reserved":false,"is_disabled":false,"rental_uris":{"android":"levelo://app?vid=b2b4c97d-4feb-49ce-8ac2-9614480a179c","ios":"levelo://app?vid=b2b4c97d-4feb-49ce-8ac2-9614480a179c"},"vehicle_type_id":"4","last_reported":1685152698,"current_range_meters":31200,"station_id":"ce4bhq92rcd13ifvqhjg","pricing_plan_id":"free"},{"bike_id":"f7643fda-0266-4755-82bf-fcd27a6a7f7a","system_id":"levelo_inurba_marseille","lat":43.323464,"lon":5.406297,"is_reserved":false,"is_disabled":false,"rental_uris":{"android":"levelo://app?vid=f7643fda-0266-4755-82bf-fcd27a6a7f7a","ios":"levelo://app?vid=f7643fda-0266-4755-82bf-fcd27a6a7f7a"},"vehicle_type_id":"4","last_reported":1685152698,"current_range_meters":21600,"station_id":"ce4bhq92rcd13ifvqhjg","pricing_plan_id":"free"},{"bike_id":"d5fd31a8-b7a4-48f5-9751-f4ba7b16e78e","system_id":"levelo_inurba_marseille","lat":43.323464,"lon":5.406297,"is_reserved":false,"is_disabled":false,"rental_uris":{"android":"levelo://app?vid=d5fd31a8-b7a4-48f5-9751-f4ba7b16e78e","ios":"levelo://app?vid=d5fd31a8-b7a4-48f5-9751-f4ba7b16e78e"},"vehicle_type_id":"4","last_reported":1685152698,"current_range_meters":32000,"station_id":"ce4bhq92rcd13ifvqhjg","pricing_plan_id":"free"},{"bike_id":"5371bbd7-c92f-4fd0-bddb-eca2c7cd5808","system_id":"levelo_inurba_marseille","lat":43.323464,"lon":5.406297,"is_reserved":false,"is_disabled":false,"rental_uris":{"android":"levelo://app?vid=5371bbd7-c92f-4fd0-bddb-eca2c7cd5808","ios":"levelo://app?vid=5371bbd7-c92f-4fd0-bddb-eca2c7cd5808"},"vehicle_type_id":"4","last_reported":1685152698,"current_range_meters":31600,"station_id":"ce4bhq92rcd13ifvqhjg","pricing_plan_id":"free"},{"bike_id":"5d688962-049d-4fff-85f5-9a49fd012e0e","system_id":"levelo_inurba_marseille","lat":43.323464,"lon":5.406297,"is_reserved":false,"is_disabled":false,"rental_uris":{"android":"levelo://app?vid=5d688962-049d-4fff-85f5-9a49fd012e0e","ios":"levelo://app?vid=5d688962-049d-4fff-85f5-9a49fd012e0e"},"vehicle_type_id":"4","last_reported":1685152698,"current_range_meters":4800,"station_id":"ce4bhq92rcd13ifvqhjg","pricing_plan_id":"free"},{"bike_id":"50441a7c-bb9b-41ca-98a7-5176a7d4524e","system_id":"levelo_inurba_marseille","lat":43.33722,"lon":5.39197,"is_reserved":false,"is_disabled":false,"rental_uris":{"android":"levelo://app?vid=50441a7c-bb9b-41ca-98a7-5176a7d4524e","ios":"levelo://app?vid=50441a7c-bb9b-41ca-98a7-5176a7d4524e"},"vehicle_type_id":"4","last_reported":1685152698,"current_range_meters":19200,"station_id":"","pricing_plan_id":"free"},{"bike_id":"6939637e-15d6-4532-99c1-c88a05c70740","system_id":"levelo_inurba_marseille","lat":43.323464,"lon":5.406297,"is_reserved":false,"is_disabled":false,"rental_uris":{"android":"levelo://app?vid=6939637e-15d6-4532-99c1-c88a05c70740","ios":"levelo://app?vid=6939637e-15d6-4532-99c1-c88a05c70740"},"vehicle_type_id":"4","last_reported":1685152698,"current_range_meters":8400,"station_id":"ce4bhq92rcd13ifvqhjg","pricing_plan_id":"free"},{"bike_id":"879270a9-f3d5-4fbd-87f6-2ab604ed569b","system_id":"levelo_inurba_marseille","lat":43.323464,"lon":5.406297,"is_reserved":false,"is_disabled":false,"rental_uris":{"android":"levelo://app?vid=879270a9-f3d5-4fbd-87f6-2ab604ed569b","ios":"levelo://app?vid=879270a9-f3d5-4fbd-87f6-2ab604ed569b"},"vehicle_type_id":"4","last_reported":1685152698,"current_range_meters":19200,"station_id":"ce4bhq92rcd13ifvqhjg","pricing_plan_id":"free"},{"bike_id":"ea0b39b2-cedb-43ea-af4a-bda2113cb111","system_id":"levelo_inurba_marseille","lat":43.284793,"lon":5.384119,"is_reserved":false,"is_disabled":false,"rental_uris":{"android":"levelo://app?vid=ea0b39b2-cedb-43ea-af4a-bda2113cb111","ios":"levelo://app?vid=ea0b39b2-cedb-43ea-af4a-bda2113cb111"},"vehicle_type_id":"4","last_reported":1685152698,"current_range_meters":4800,"station_id":"ce4bh512rcd13ifvqe3g","pricing_plan_id":"free"},{"bike_id":"4080e28d-2860-42ac-839e-14f6003e611e","system_id":"levelo_inurba_marseille","lat":43.284219,"lon":5.3497,"is_reserved":false,"is_disabled":false,"rental_uris":{"android":"levelo://app?vid=4080e28d-2860-42ac-839e-14f6003e611e","ios":"levelo://app?vid=4080e28d-2860-42ac-839e-14f6003e611e"},"vehicle_type_id":"4","last_reported":1685152698,"current_range_meters":30800,"station_id":"ce4bhbh2rcd13ifvqepg","pricing_plan_id":"free"},{"bike_id":"7b113544-6eab-4044-994e-93c5a1145307","system_id":"levelo_inurba_marseille","lat":43.283494,"lon":5.380945,"is_reserved":false,"is_disabled":false,"rental_uris":{"android":"levelo://app?vid=7b113544-6eab-4044-994e-93c5a1145307","ios":"levelo://app?vid=7b113544-6eab-4044-994e-93c5a1145307"},"vehicle_type_id":"4","last_reported":1685152698,"current_range_meters":30000,"station_id":"ce4bh412rcd13ifvqdr0","pricing_plan_id":"free"},{"bike_id":"7b376725-d905-4883-8c92-3765e8ba8216","system_id":"levelo_inurba_marseille","lat":43.283498,"lon":5.380948,"is_reserved":false,"is_disabled":false,"rental_uris":{"android":"levelo://app?vid=7b376725-d905-4883-8c92-3765e8ba8216","ios":"levelo://app?vid=7b376725-d905-4883-8c92-3765e8ba8216"},"vehicle_type_id":"4","last_reported":1685152698,"current_range_meters":22000,"station_id":"ce4bh412rcd13ifvqdr0","pricing_plan_id":"free"},{"bike_id":"204b318d-2df0-4d66-ba92-9ab9c3f27acc","system_id":"levelo_inurba_marseille","lat":43.284219,"lon":5.3497,"is_reserved":false,"is_disabled":false,"rental_uris":{"android":"levelo://app?vid=204b318d-2df0-4d66-ba92-9ab9c3f27acc","ios":"levelo://app?vid=204b318d-2df0-4d66-ba92-9ab9c3f27acc"},"vehicle_type_id":"4","last_reported":1685152698,"current_range_meters":30800,"station_id":"ce4bhbh2rcd13ifvqepg","pricing_plan_id":"free"},{"bike_id":"1da85eb2-1e92-4400-b43b-c8a59fb908cc","system_id":"levelo_inurba_marseille","lat":43.28421,"lon":5.34986,"is_reserved":false,"is_disabled":false,"rental_uris":{"android":"levelo://app?vid=1da85eb2-1e92-4400-b43b-c8a59fb908cc","ios":"levelo://app?vid=1da85eb2-1e92-4400-b43b-c8a59fb908cc"},"vehicle_type_id":"4","last_reported":1685152698,"current_range_meters":31200,"station_id":"ce4bhbh2rcd13ifvqepg","pricing_plan_id":"free"},{"bike_id":"44ed831c-f698-4f5c-8811-4ec22a2d389d","system_id":"levelo_inurba_marseille","lat":43.284217,"lon":5.349697,"is_reserved":false,"is_disabled":false,"rental_uris":{"android":"levelo://app?vid=44ed831c-f698-4f5c-8811-4ec22a2d389d","ios":"levelo://app?vid=44ed831c-f698-4f5c-8811-4ec22a2d389d"},"vehicle_type_id":"4","last_reported":1685152698,"current_range_meters":22800,"station_id":"ce4bhbh2rcd13ifvqepg","pricing_plan_id":"free"},{"bike_id":"c94bd58b-8fbd-4df6-8937-d0f1424c003b","system_id":"levelo_inurba_marseille","lat":43.289363,"lon":5.396322,"is_reserved":false,"is_disabled":false,"rental_uris":{"android":"levelo://app?vid=c94bd58b-8fbd-4df6-8937-d0f1424c003b","ios":"levelo://app?vid=c94bd58b-8fbd-4df6-8937-d0f1424c003b"},"vehicle_type_id":"4","last_reported":1685152698,"current_range_meters":31600,"station_id":"ce4bh3h2rcd13ifvqdn0","pricing_plan_id":"free"},{"bike_id":"d79573db-cc1b-4793-9cad-b8447964c925","system_id":"levelo_inurba_marseille","lat":43.289363,"lon":5.396322,"is_reserved":false,"is_disabled":false,"rental_uris":{"android":"levelo://app?vid=d79573db-cc1b-4793-9cad-b8447964c925","ios":"levelo://app?vid=d79573db-cc1b-4793-9cad-b8447964c925"},"vehicle_type_id":"4","last_reported":1685152698,"current_range_meters":8400,"station_id":"ce4bh3h2rcd13ifvqdn0","pricing_plan_id":"free"},{"bike_id":"2041b5d7-4136-42c5-a6f6-e463481595d3","system_id":"levelo_inurba_marseille","lat":43.292724,"lon":5.401131,"is_reserved":false,"is_disabled":false,"rental_uris":{"android":"levelo://app?vid=2041b5d7-4136-42c5-a6f6-e463481595d3","ios":"levelo://app?vid=2041b5d7-4136-42c5-a6f6-e463481595d3"},"vehicle_type_id":"4","last_reported":1685152698,"current_range_meters":1600,"station_id":"ce4bh312rcd13ifvqdk0","pricing_plan_id":"free"},{"bike_id":"970d3671-60d6-4607-b7eb-63318cc30196","system_id":"levelo_inurba_marseille","lat":43.292724,"lon":5.401131,"is_reserved":false,"is_disabled":false,"rental_uris":{"android":"levelo://app?vid=970d3671-60d6-4607-b7eb-63318cc30196","ios":"levelo://app?vid=970d3671-60d6-4607-b7eb-63318cc30196"},"vehicle_type_id":"4","last_reported":1685152698,"current_range_meters":4800,"station_id":"ce4bh312rcd13ifvqdk0","pricing_plan_id":"free"},{"bike_id":"9119a3f0-f170-448a-9aad-c9c5a14a5eb4","system_id":"levelo_inurba_marseille","lat":43.292724,"lon":5.401131,"is_reserved":false,"is_disabled":false,"rental_uris":{"android":"levelo://app?vid=9119a3f0-f170-448a-9aad-c9c5a14a5eb4","ios":"levelo://app?vid=9119a3f0-f170-448a-9aad-c9c5a14a5eb4"},"vehicle_type_id":"4","last_reported":1685152698,"current_range_meters":20400,"station_id":"ce4bh312rcd13ifvqdk0","pricing_plan_id":"free"},{"bike_id":"df7f48d6-d3a3-4dfa-aa7a-61559b0f8ca1","system_id":"levelo_inurba_marseille","lat":43.292724,"lon":5.401131,"is_reserved":false,"is_disabled":false,"rental_uris":{"android":"levelo://app?vid=df7f48d6-d3a3-4dfa-aa7a-61559b0f8ca1","ios":"levelo://app?vid=df7f48d6-d3a3-4dfa-aa7a-61559b0f8ca1"},"vehicle_type_id":"4","last_reported":1685152698,"current_range_meters":21200,"station_id":"ce4bh312rcd13ifvqdk0","pricing_plan_id":"free"},{"bike_id":"78e0e238-b2a3-4497-840c-a5a70abc8cc4","system_id":"levelo_inurba_marseille","lat":43.292724,"lon":5.401131,"is_reserved":false,"is_disabled":false,"rental_uris":{"android":"levelo://app?vid=78e0e238-b2a3-4497-840c-a5a70abc8cc4","ios":"levelo://app?vid=78e0e238-b2a3-4497-840c-a5a70abc8cc4"},"vehicle_type_id":"4","last_reported":1685152698,"current_range_meters":20400,"station_id":"ce4bh312rcd13ifvqdk0","pricing_plan_id":"free"},{"bike_id":"17e2db0d-a71d-4155-bcda-44ae00ac7afe","system_id":"levelo_inurba_marseille","lat":43.28276,"lon":5.35073,"is_reserved":false,"is_disabled":false,"rental_uris":{"android":"levelo://app?vid=17e2db0d-a71d-4155-bcda-44ae00ac7afe","ios":"levelo://app?vid=17e2db0d-a71d-4155-bcda-44ae00ac7afe"},"vehicle_type_id":"4","last_reported":1685152698,"current_range_meters":31200,"station_id":"ce4bhbp2rcd13ifvqerg","pricing_plan_id":"free"},{"bike_id":"d45f58aa-c07c-4d88-8a3c-10477c83ff0d","system_id":"levelo_inurba_marseille","lat":43.282754,"lon":5.350519,"is_reserved":false,"is_disabled":false,"rental_uris":{"android":"levelo://app?vid=d45f58aa-c07c-4d88-8a3c-10477c83ff0d","ios":"levelo://app?vid=d45f58aa-c07c-4d88-8a3c-10477c83ff0d"},"vehicle_type_id":"4","last_reported":1685152698,"current_range_meters":32000,"station_id":"ce4bhbp2rcd13ifvqerg","pricing_plan_id":"free"},{"bike_id":"4f9a0629-93d3-4eb1-b384-e94d6dd532cf","system_id":"levelo_inurba_marseille","lat":43.282754,"lon":5.350519,"is_reserved":false,"is_disabled":false,"rental_uris":{"android":"levelo://app?vid=4f9a0629-93d3-4eb1-b384-e94d6dd532cf","ios":"levelo://app?vid=4f9a0629-93d3-4eb1-b384-e94d6dd532cf"},"vehicle_type_id":"4","last_reported":1685152698,"current_range_meters":32000,"station_id":"ce4bhbp2rcd13ifvqerg","pricing_plan_id":"free"},{"bike_id":"f0ad7a79-16c3-43df-bb4d-8e6fe7552922","system_id":"levelo_inurba_marseille","lat":43.282754,"lon":5.350519,"is_reserved":false,"is_disabled":false,"rental_uris":{"android":"levelo://app?vid=f0ad7a79-16c3-43df-bb4d-8e6fe7552922","ios":"levelo://app?vid=f0ad7a79-16c3-43df-bb4d-8e6fe7552922"},"vehicle_type_id":"4","last_reported":1685152698,"current_range_meters":32000,"station_id":"ce4bhbp2rcd13ifvqerg","pricing_plan_id":"free"},{"bike_id":"7e930153-8d6d-4d63-85b8-250eea778e1d","system_id":"levelo_inurba_marseille","lat":43.282754,"lon":5.350519,"is_reserved":false,"is_disabled":false,"rental_uris":{"android":"levelo://app?vid=7e930153-8d6d-4d63-85b8-250eea778e1d","ios":"levelo://app?vid=7e930153-8d6d-4d63-85b8-250eea778e1d"},"vehicle_type_id":"4","last_reported":1685152698,"current_range_meters":17600,"station_id":"ce4bhbp2rcd13ifvqerg","pricing_plan_id":"free"},{"bike_id":"f1184c74-8b52-4930-847d-a161e807fd5c","system_id":"levelo_inurba_marseille","lat":43.282754,"lon":5.350519,"is_reserved":false,"is_disabled":false,"rental_uris":{"android":"levelo://app?vid=f1184c74-8b52-4930-847d-a161e807fd5c","ios":"levelo://app?vid=f1184c74-8b52-4930-847d-a161e807fd5c"},"vehicle_type_id":"4","last_reported":1685152698,"current_range_meters":32000,"station_id":"ce4bhbp2rcd13ifvqerg","pricing_plan_id":"free"},{"bike_id":"5a27fdce-49b5-4293-9c77-3ef406c28893","system_id":"levelo_inurba_marseille","lat":43.282754,"lon":5.350519,"is_reserved":false,"is_disabled":false,"rental_uris":{"android":"levelo://app?vid=5a27fdce-49b5-4293-9c77-3ef406c28893","ios":"levelo://app?vid=5a27fdce-49b5-4293-9c77-3ef406c28893"},"vehicle_type_id":"4","last_reported":1685152698,"current_range_meters":32000,"station_id":"ce4bhbp2rcd13ifvqerg","pricing_plan_id":"free"},{"bike_id":"f17e88f7-bd5d-4727-86d7-703992ad4bf1","system_id":"levelo_inurba_marseille","lat":43.282744,"lon":5.350533,"is_reserved":false,"is_disabled":false,"rental_uris":{"android":"levelo://app?vid=f17e88f7-bd5d-4727-86d7-703992ad4bf1","ios":"levelo://app?vid=f17e88f7-bd5d-4727-86d7-703992ad4bf1"},"vehicle_type_id":"4","last_reported":1685152698,"current_range_meters":30000,"station_id":"ce4bhbp2rcd13ifvqerg","pricing_plan_id":"free"},{"bike_id":"bb7839f8-e0be-41be-bc82-82776e1bd2ec","system_id":"levelo_inurba_marseille","lat":43.283502,"lon":5.386471,"is_reserved":false,"is_disabled":false,"rental_uris":{"android":"levelo://app?vid=bb7839f8-e0be-41be-bc82-82776e1bd2ec","ios":"levelo://app?vid=bb7839f8-e0be-41be-bc82-82776e1bd2ec"},"vehicle_type_id":"4","last_reported":1685152698,"current_range_meters":5600,"station_id":"ce4bh492rcd13ifvqdvg","pricing_plan_id":"free"},{"bike_id":"bb484526-cfc9-4f6f-9c56-1e984839205d","system_id":"levelo_inurba_marseille","lat":43.282744,"lon":5.350533,"is_reserved":false,"is_disabled":false,"rental_uris":{"android":"levelo://app?vid=bb484526-cfc9-4f6f-9c56-1e984839205d","ios":"levelo://app?vid=bb484526-cfc9-4f6f-9c56-1e984839205d"},"vehicle_type_id":"4","last_reported":1685152698,"current_range_meters":29200,"station_id":"ce4bhbp2rcd13ifvqerg","pricing_plan_id":"free"},{"bike_id":"5be2dc27-9f4e-4fbb-bdff-00717014c0d2","system_id":"levelo_inurba_marseille","lat":43.282744,"lon":5.350533,"is_reserved":false,"is_disabled":false,"rental_uris":{"android":"levelo://app?vid=5be2dc27-9f4e-4fbb-bdff-00717014c0d2","ios":"levelo://app?vid=5be2dc27-9f4e-4fbb-bdff-00717014c0d2"},"vehicle_type_id":"4","last_reported":1685152698,"current_range_meters":14400,"station_id":"ce4bhbp2rcd13ifvqerg","pricing_plan_id":"free"},{"bike_id":"0db18a4e-4960-4f4c-ab07-178c17824c02","system_id":"levelo_inurba_marseille","lat":43.282754,"lon":5.350519,"is_reserved":false,"is_disabled":false,"rental_uris":{"android":"levelo://app?vid=0db18a4e-4960-4f4c-ab07-178c17824c02","ios":"levelo://app?vid=0db18a4e-4960-4f4c-ab07-178c17824c02"},"vehicle_type_id":"4","last_reported":1685152698,"current_range_meters":24000,"station_id":"ce4bhbp2rcd13ifvqerg","pricing_plan_id":"free"},{"bike_id":"ed71355f-7910-45c0-8dc8-23907d31d116","system_id":"levelo_inurba_marseille","lat":43.282754,"lon":5.350519,"is_reserved":false,"is_disabled":false,"rental_uris":{"android":"levelo://app?vid=ed71355f-7910-45c0-8dc8-23907d31d116","ios":"levelo://app?vid=ed71355f-7910-45c0-8dc8-23907d31d116"},"vehicle_type_id":"4","last_reported":1685152698,"current_range_meters":27200,"station_id":"ce4bhbp2rcd13ifvqerg","pricing_plan_id":"free"},{"bike_id":"55be6f43-b1e5-4bb6-b8d4-a36e15050183","system_id":"levelo_inurba_marseille","lat":43.283502,"lon":5.386471,"is_reserved":false,"is_disabled":false,"rental_uris":{"android":"levelo://app?vid=55be6f43-b1e5-4bb6-b8d4-a36e15050183","ios":"levelo://app?vid=55be6f43-b1e5-4bb6-b8d4-a36e15050183"},"vehicle_type_id":"4","last_reported":1685152698,"current_range_meters":26800,"station_id":"ce4bh492rcd13ifvqdvg","pricing_plan_id":"free"},{"bike_id":"4d86ce40-e406-44d0-9e2e-59dcfae65e59","system_id":"levelo_inurba_marseille","lat":43.29041,"lon":5.39947,"is_reserved":false,"is_disabled":false,"rental_uris":{"android":"levelo://app?vid=4d86ce40-e406-44d0-9e2e-59dcfae65e59","ios":"levelo://app?vid=4d86ce40-e406-44d0-9e2e-59dcfae65e59"},"vehicle_type_id":"4","last_reported":1685152698,"current_range_meters":0,"station_id":"ce4bh392rcd13ifvqdm0","pricing_plan_id":"free"},{"bike_id":"02ffe92c-edee-40a0-be19-efcef9dc6efd","system_id":"levelo_inurba_marseille","lat":43.281044,"lon":5.378308,"is_reserved":false,"is_disabled":false,"rental_uris":{"android":"levelo://app?vid=02ffe92c-edee-40a0-be19-efcef9dc6efd","ios":"levelo://app?vid=02ffe92c-edee-40a0-be19-efcef9dc6efd"},"vehicle_type_id":"4","last_reported":1685152698,"current_range_meters":30800,"station_id":"ce4bha12rcd13ifvqee0","pricing_plan_id":"free"},{"bike_id":"84ec1851-fafb-4168-8906-6d7a440c0fe7","system_id":"levelo_inurba_marseille","lat":43.281096,"lon":5.378293,"is_reserved":false,"is_disabled":false,"rental_uris":{"android":"levelo://app?vid=84ec1851-fafb-4168-8906-6d7a440c0fe7","ios":"levelo://app?vid=84ec1851-fafb-4168-8906-6d7a440c0fe7"},"vehicle_type_id":"4","last_reported":1685152698,"current_range_meters":31200,"station_id":"ce4bha12rcd13ifvqee0","pricing_plan_id":"free"},{"bike_id":"5196fe4d-07da-4628-99be-992a475aa033","system_id":"levelo_inurba_marseille","lat":43.29041,"lon":5.399634,"is_reserved":false,"is_disabled":false,"rental_uris":{"android":"levelo://app?vid=5196fe4d-07da-4628-99be-992a475aa033","ios":"levelo://app?vid=5196fe4d-07da-4628-99be-992a475aa033"},"vehicle_type_id":"4","last_reported":1685152698,"current_range_meters":28000,"station_id":"ce4bh392rcd13ifvqdm0","pricing_plan_id":"free"},{"bike_id":"2f42fb67-7e50-4a9a-be8a-e4b1dab1832d","system_id":"levelo_inurba_marseille","lat":43.281044,"lon":5.378308,"is_reserved":false,"is_disabled":false,"rental_uris":{"android":"levelo://app?vid=2f42fb67-7e50-4a9a-be8a-e4b1dab1832d","ios":"levelo://app?vid=2f42fb67-7e50-4a9a-be8a-e4b1dab1832d"},"vehicle_type_id":"4","last_reported":1685152698,"current_range_meters":31200,"station_id":"ce4bha12rcd13ifvqee0","pricing_plan_id":"free"},{"bike_id":"f07ac72c-d72e-4e4d-8a63-908be3e7fe0f","system_id":"levelo_inurba_marseille","lat":43.28106,"lon":5.37845,"is_reserved":false,"is_disabled":false,"rental_uris":{"android":"levelo://app?vid=f07ac72c-d72e-4e4d-8a63-908be3e7fe0f","ios":"levelo://app?vid=f07ac72c-d72e-4e4d-8a63-908be3e7fe0f"},"vehicle_type_id":"4","last_reported":1685152698,"current_range_meters":28800,"station_id":"ce4bha12rcd13ifvqee0","pricing_plan_id":"free"},{"bike_id":"996e06be-fcad-490c-82d7-11eec578cc3b","system_id":"levelo_inurba_marseille","lat":43.28106,"lon":5.37851,"is_reserved":false,"is_disabled":false,"rental_uris":{"android":"levelo://app?vid=996e06be-fcad-490c-82d7-11eec578cc3b","ios":"levelo://app?vid=996e06be-fcad-490c-82d7-11eec578cc3b"},"vehicle_type_id":"4","last_reported":1685152698,"current_range_meters":31200,"station_id":"ce4bha12rcd13ifvqee0","pricing_plan_id":"free"},{"bike_id":"d907dc81-067b-4de5-9dfa-74bdebf1946d","system_id":"levelo_inurba_marseille","lat":43.296263,"lon":5.40601,"is_reserved":false,"is_disabled":false,"rental_uris":{"android":"levelo://app?vid=d907dc81-067b-4de5-9dfa-74bdebf1946d","ios":"levelo://app?vid=d907dc81-067b-4de5-9dfa-74bdebf1946d"},"vehicle_type_id":"4","last_reported":1685152698,"current_range_meters":28800,"station_id":"ce4bh0h2rcd13ifvqd60","pricing_plan_id":"free"},{"bike_id":"d75c5d2c-e2c1-4449-83d9-e6ab0f3fbc7e","system_id":"levelo_inurba_marseille","lat":43.281044,"lon":5.378308,"is_reserved":false,"is_disabled":false,"rental_uris":{"android":"levelo://app?vid=d75c5d2c-e2c1-4449-83d9-e6ab0f3fbc7e","ios":"levelo://app?vid=d75c5d2c-e2c1-4449-83d9-e6ab0f3fbc7e"},"vehicle_type_id":"4","last_reported":1685152698,"current_range_meters":12400,"station_id":"ce4bha12rcd13ifvqee0","pricing_plan_id":"free"},{"bike_id":"325d11bc-4278-4838-8a45-806ef6eba70a","system_id":"levelo_inurba_marseille","lat":43.296263,"lon":5.40601,"is_reserved":false,"is_disabled":false,"rental_uris":{"android":"levelo://app?vid=325d11bc-4278-4838-8a45-806ef6eba70a","ios":"levelo://app?vid=325d11bc-4278-4838-8a45-806ef6eba70a"},"vehicle_type_id":"4","last_reported":1685152698,"current_range_meters":22000,"station_id":"ce4bh0h2rcd13ifvqd60","pricing_plan_id":"free"},{"bike_id":"323cfaeb-8a44-4b62-972a-ba09af835fc4","system_id":"levelo_inurba_marseille","lat":43.281044,"lon":5.378308,"is_reserved":false,"is_disabled":false,"rental_uris":{"android":"levelo://app?vid=323cfaeb-8a44-4b62-972a-ba09af835fc4","ios":"levelo://app?vid=323cfaeb-8a44-4b62-972a-ba09af835fc4"},"vehicle_type_id":"4","last_reported":1685152698,"current_range_meters":31200,"station_id":"ce4bha12rcd13ifvqee0","pricing_plan_id":"free"},{"bike_id":"b445d36b-15dd-4e14-a2de-d8a40bee3808","system_id":"levelo_inurba_marseille","lat":43.281044,"lon":5.378308,"is_reserved":false,"is_disabled":false,"rental_uris":{"android":"levelo://app?vid=b445d36b-15dd-4e14-a2de-d8a40bee3808","ios":"levelo://app?vid=b445d36b-15dd-4e14-a2de-d8a40bee3808"},"vehicle_type_id":"4","last_reported":1685152698,"current_range_meters":23600,"station_id":"ce4bha12rcd13ifvqee0","pricing_plan_id":"free"},{"bike_id":"d1cd2b19-b6fb-467c-ba45-63d99b94d985","system_id":"levelo_inurba_marseille","lat":43.281,"lon":5.37852,"is_reserved":false,"is_disabled":false,"rental_uris":{"android":"levelo://app?vid=d1cd2b19-b6fb-467c-ba45-63d99b94d985","ios":"levelo://app?vid=d1cd2b19-b6fb-467c-ba45-63d99b94d985"},"vehicle_type_id":"4","last_reported":1685152698,"current_range_meters":31200,"station_id":"ce4bha12rcd13ifvqee0","pricing_plan_id":"free"},{"bike_id":"5c99c1b8-bcbe-47d0-bc17-9adcbd1663a7","system_id":"levelo_inurba_marseille","lat":43.296263,"lon":5.40601,"is_reserved":false,"is_disabled":false,"rental_uris":{"android":"levelo://app?vid=5c99c1b8-bcbe-47d0-bc17-9adcbd1663a7","ios":"levelo://app?vid=5c99c1b8-bcbe-47d0-bc17-9adcbd1663a7"},"vehicle_type_id":"4","last_reported":1685152698,"current_range_meters":9200,"station_id":"ce4bh0h2rcd13ifvqd60","pricing_plan_id":"free"},{"bike_id":"8f41c514-aa14-4761-923e-8911f12380ae","system_id":"levelo_inurba_marseille","lat":43.281044,"lon":5.378308,"is_reserved":false,"is_disabled":false,"rental_uris":{"android":"levelo://app?vid=8f41c514-aa14-4761-923e-8911f12380ae","ios":"levelo://app?vid=8f41c514-aa14-4761-923e-8911f12380ae"},"vehicle_type_id":"4","last_reported":1685152698,"current_range_meters":31200,"station_id":"ce4bha12rcd13ifvqee0","pricing_plan_id":"free"},{"bike_id":"df03f69d-d32b-49e2-8dcc-c0beceb30041","system_id":"levelo_inurba_marseille","lat":43.281044,"lon":5.378308,"is_reserved":false,"is_disabled":false,"rental_uris":{"android":"levelo://app?vid=df03f69d-d32b-49e2-8dcc-c0beceb30041","ios":"levelo://app?vid=df03f69d-d32b-49e2-8dcc-c0beceb30041"},"vehicle_type_id":"4","last_reported":1685152698,"current_range_meters":16800,"station_id":"ce4bha12rcd13ifvqee0","pricing_plan_id":"free"},{"bike_id":"976254bc-d84c-40e7-88b6-52c03416c965","system_id":"levelo_inurba_marseille","lat":43.32136,"lon":5.41078,"is_reserved":false,"is_disabled":false,"rental_uris":{"android":"levelo://app?vid=976254bc-d84c-40e7-88b6-52c03416c965","ios":"levelo://app?vid=976254bc-d84c-40e7-88b6-52c03416c965"},"vehicle_type_id":"4","last_reported":1685152698,"current_range_meters":10400,"station_id":"","pricing_plan_id":"free"},{"bike_id":"c9890851-61ba-4366-b00a-e964dbe97002","system_id":"levelo_inurba_marseille","lat":43.284462,"lon":5.392121,"is_reserved":false,"is_disabled":false,"rental_uris":{"android":"levelo://app?vid=c9890851-61ba-4366-b00a-e964dbe97002","ios":"levelo://app?vid=c9890851-61ba-4366-b00a-e964dbe97002"},"vehicle_type_id":"4","last_reported":1685152698,"current_range_meters":800,"station_id":"ce4bhoh2rcd13ifvqh5g","pricing_plan_id":"free"},{"bike_id":"0060afdf-9274-4bc2-9e4d-85d350aca9b0","system_id":"levelo_inurba_marseille","lat":43.28443,"lon":5.39203,"is_reserved":false,"is_disabled":false,"rental_uris":{"android":"levelo://app?vid=0060afdf-9274-4bc2-9e4d-85d350aca9b0","ios":"levelo://app?vid=0060afdf-9274-4bc2-9e4d-85d350aca9b0"},"vehicle_type_id":"4","last_reported":1685152698,"current_range_meters":16800,"station_id":"ce4bhoh2rcd13ifvqh5g","pricing_plan_id":"free"},{"bike_id":"e3a68845-096f-484e-a2eb-a878577c5104","system_id":"levelo_inurba_marseille","lat":43.284462,"lon":5.392121,"is_reserved":false,"is_disabled":false,"rental_uris":{"android":"levelo://app?vid=e3a68845-096f-484e-a2eb-a878577c5104","ios":"levelo://app?vid=e3a68845-096f-484e-a2eb-a878577c5104"},"vehicle_type_id":"4","last_reported":1685152698,"current_range_meters":13200,"station_id":"ce4bhoh2rcd13ifvqh5g","pricing_plan_id":"free"},{"bike_id":"7e66b6b5-700c-4328-a5da-b67e1e8507c9","system_id":"levelo_inurba_marseille","lat":43.28431,"lon":5.39191,"is_reserved":false,"is_disabled":false,"rental_uris":{"android":"levelo://app?vid=7e66b6b5-700c-4328-a5da-b67e1e8507c9","ios":"levelo://app?vid=7e66b6b5-700c-4328-a5da-b67e1e8507c9"},"vehicle_type_id":"4","last_reported":1685152698,"current_range_meters":6800,"station_id":"ce4bhoh2rcd13ifvqh5g","pricing_plan_id":"free"},{"bike_id":"a64971d0-cbb1-4172-819f-6cbf335f6a4c","system_id":"levelo_inurba_marseille","lat":43.28573,"lon":5.394992,"is_reserved":false,"is_disabled":false,"rental_uris":{"android":"levelo://app?vid=a64971d0-cbb1-4172-819f-6cbf335f6a4c","ios":"levelo://app?vid=a64971d0-cbb1-4172-819f-6cbf335f6a4c"},"vehicle_type_id":"4","last_reported":1685152698,"current_range_meters":22400,"station_id":"ce4bh292rcd13ifvqdg0","pricing_plan_id":"free"},{"bike_id":"bb09308a-bd56-4210-b775-985e78e5e469","system_id":"levelo_inurba_marseille","lat":43.304188,"lon":5.412904,"is_reserved":false,"is_disabled":false,"rental_uris":{"android":"levelo://app?vid=bb09308a-bd56-4210-b775-985e78e5e469","ios":"levelo://app?vid=bb09308a-bd56-4210-b775-985e78e5e469"},"vehicle_type_id":"4","last_reported":1685152698,"current_range_meters":6400,"station_id":"ce4bhop2rcd13ifvqh8g","pricing_plan_id":"free"},{"bike_id":"3d6afcea-6ab8-4617-bbdf-9ad70ac4187b","system_id":"levelo_inurba_marseille","lat":43.304188,"lon":5.412904,"is_reserved":false,"is_disabled":false,"rental_uris":{"android":"levelo://app?vid=3d6afcea-6ab8-4617-bbdf-9ad70ac4187b","ios":"levelo://app?vid=3d6afcea-6ab8-4617-bbdf-9ad70ac4187b"},"vehicle_type_id":"4","last_reported":1685152698,"current_range_meters":10800,"station_id":"ce4bhop2rcd13ifvqh8g","pricing_plan_id":"free"},{"bike_id":"81e1e2b8-6542-4f6b-8f7a-9eaab41c34c8","system_id":"levelo_inurba_marseille","lat":43.287154,"lon":5.399979,"is_reserved":false,"is_disabled":false,"rental_uris":{"android":"levelo://app?vid=81e1e2b8-6542-4f6b-8f7a-9eaab41c34c8","ios":"levelo://app?vid=81e1e2b8-6542-4f6b-8f7a-9eaab41c34c8"},"vehicle_type_id":"4","last_reported":1685152698,"current_range_meters":31600,"station_id":"ce4bho92rcd13ifvqh3g","pricing_plan_id":"free"},{"bike_id":"e212094f-c117-4506-9583-05e04598e10c","system_id":"levelo_inurba_marseille","lat":43.287154,"lon":5.399979,"is_reserved":false,"is_disabled":false,"rental_uris":{"android":"levelo://app?vid=e212094f-c117-4506-9583-05e04598e10c","ios":"levelo://app?vid=e212094f-c117-4506-9583-05e04598e10c"},"vehicle_type_id":"4","last_reported":1685152698,"current_range_meters":29200,"station_id":"ce4bho92rcd13ifvqh3g","pricing_plan_id":"free"},{"bike_id":"f261c8fe-2a68-4ed6-b039-4d946d9e744a","system_id":"levelo_inurba_marseille","lat":43.28701,"lon":5.39971,"is_reserved":false,"is_disabled":false,"rental_uris":{"android":"levelo://app?vid=f261c8fe-2a68-4ed6-b039-4d946d9e744a","ios":"levelo://app?vid=f261c8fe-2a68-4ed6-b039-4d946d9e744a"},"vehicle_type_id":"4","last_reported":1685152698,"current_range_meters":0,"station_id":"","pricing_plan_id":"free"},{"bike_id":"43dcc7f7-48f1-404c-b9e5-cfdfde26f758","system_id":"levelo_inurba_marseille","lat":43.287154,"lon":5.399979,"is_reserved":false,"is_disabled":false,"rental_uris":{"android":"levelo://app?vid=43dcc7f7-48f1-404c-b9e5-cfdfde26f758","ios":"levelo://app?vid=43dcc7f7-48f1-404c-b9e5-cfdfde26f758"},"vehicle_type_id":"4","last_reported":1685152698,"current_range_meters":26800,"station_id":"ce4bho92rcd13ifvqh3g","pricing_plan_id":"free"},{"bike_id":"4fcbbd2a-fd77-4b8b-8966-4187f423eae8","system_id":"levelo_inurba_marseille","lat":43.28704,"lon":5.39982,"is_reserved":false,"is_disabled":false,"rental_uris":{"android":"levelo://app?vid=4fcbbd2a-fd77-4b8b-8966-4187f423eae8","ios":"levelo://app?vid=4fcbbd2a-fd77-4b8b-8966-4187f423eae8"},"vehicle_type_id":"4","last_reported":1685152698,"current_range_meters":4000,"station_id":"","pricing_plan_id":"free"},{"bike_id":"4208cf45-bfb2-42b4-a59e-2d870a44089d","system_id":"levelo_inurba_marseille","lat":43.287154,"lon":5.399979,"is_reserved":false,"is_disabled":false,"rental_uris":{"android":"levelo://app?vid=4208cf45-bfb2-42b4-a59e-2d870a44089d","ios":"levelo://app?vid=4208cf45-bfb2-42b4-a59e-2d870a44089d"},"vehicle_type_id":"4","last_reported":1685152698,"current_range_meters":3200,"station_id":"ce4bho92rcd13ifvqh3g","pricing_plan_id":"free"},{"bike_id":"b1f856f3-670e-4f80-9a68-a3f457d033d3","system_id":"levelo_inurba_marseille","lat":43.28705,"lon":5.39985,"is_reserved":false,"is_disabled":false,"rental_uris":{"android":"levelo://app?vid=b1f856f3-670e-4f80-9a68-a3f457d033d3","ios":"levelo://app?vid=b1f856f3-670e-4f80-9a68-a3f457d033d3"},"vehicle_type_id":"4","last_reported":1685152698,"current_range_meters":1600,"station_id":"ce4bho92rcd13ifvqh3g","pricing_plan_id":"free"},{"bike_id":"d5481f23-2e90-49e5-90f9-50629faff775","system_id":"levelo_inurba_marseille","lat":43.287154,"lon":5.399979,"is_reserved":false,"is_disabled":false,"rental_uris":{"android":"levelo://app?vid=d5481f23-2e90-49e5-90f9-50629faff775","ios":"levelo://app?vid=d5481f23-2e90-49e5-90f9-50629faff775"},"vehicle_type_id":"4","last_reported":1685152698,"current_range_meters":31200,"station_id":"ce4bho92rcd13ifvqh3g","pricing_plan_id":"free"},{"bike_id":"cb956b86-65f4-4da8-b5c5-c7452cd50080","system_id":"levelo_inurba_marseille","lat":43.28701,"lon":5.39981,"is_reserved":false,"is_disabled":false,"rental_uris":{"android":"levelo://app?vid=cb956b86-65f4-4da8-b5c5-c7452cd50080","ios":"levelo://app?vid=cb956b86-65f4-4da8-b5c5-c7452cd50080"},"vehicle_type_id":"4","last_reported":1685152698,"current_range_meters":21200,"station_id":"ce4bho92rcd13ifvqh3g","pricing_plan_id":"free"},{"bike_id":"5a42253c-099c-4c5d-859d-567872562c29","system_id":"levelo_inurba_marseille","lat":43.28704,"lon":5.39988,"is_reserved":false,"is_disabled":false,"rental_uris":{"android":"levelo://app?vid=5a42253c-099c-4c5d-859d-567872562c29","ios":"levelo://app?vid=5a42253c-099c-4c5d-859d-567872562c29"},"vehicle_type_id":"4","last_reported":1685152698,"current_range_meters":20800,"station_id":"ce4bho92rcd13ifvqh3g","pricing_plan_id":"free"},{"bike_id":"ac3963b2-be8c-498c-ae2f-09e027148ade","system_id":"levelo_inurba_marseille","lat":43.287061,"lon":5.399911,"is_reserved":false,"is_disabled":false,"rental_uris":{"android":"levelo://app?vid=ac3963b2-be8c-498c-ae2f-09e027148ade","ios":"levelo://app?vid=ac3963b2-be8c-498c-ae2f-09e027148ade"},"vehicle_type_id":"4","last_reported":1685152698,"current_range_meters":6800,"station_id":"","pricing_plan_id":"free"},{"bike_id":"ede29c99-b1e0-423e-9d45-e216622c8664","system_id":"levelo_inurba_marseille","lat":43.28699,"lon":5.39981,"is_reserved":false,"is_disabled":false,"rental_uris":{"android":"levelo://app?vid=ede29c99-b1e0-423e-9d45-e216622c8664","ios":"levelo://app?vid=ede29c99-b1e0-423e-9d45-e216622c8664"},"vehicle_type_id":"4","last_reported":1685152698,"current_range_meters":3200,"station_id":"ce4bho92rcd13ifvqh3g","pricing_plan_id":"free"},{"bike_id":"14c10f25-1cd8-479b-a190-b5803b5862fa","system_id":"levelo_inurba_marseille","lat":43.287154,"lon":5.399979,"is_reserved":false,"is_disabled":false,"rental_uris":{"android":"levelo://app?vid=14c10f25-1cd8-479b-a190-b5803b5862fa","ios":"levelo://app?vid=14c10f25-1cd8-479b-a190-b5803b5862fa"},"vehicle_type_id":"4","last_reported":1685152698,"current_range_meters":28000,"station_id":"ce4bho92rcd13ifvqh3g","pricing_plan_id":"free"},{"bike_id":"44847ab4-dd17-49a4-b33b-1745fa72cfc1","system_id":"levelo_inurba_marseille","lat":43.287154,"lon":5.399979,"is_reserved":false,"is_disabled":false,"rental_uris":{"android":"levelo://app?vid=44847ab4-dd17-49a4-b33b-1745fa72cfc1","ios":"levelo://app?vid=44847ab4-dd17-49a4-b33b-1745fa72cfc1"},"vehicle_type_id":"4","last_reported":1685152698,"current_range_meters":13200,"station_id":"ce4bho92rcd13ifvqh3g","pricing_plan_id":"free"},{"bike_id":"0080c830-8acc-4da4-9eb6-04eea0fd7cbc","system_id":"levelo_inurba_marseille","lat":43.28701,"lon":5.39988,"is_reserved":false,"is_disabled":false,"rental_uris":{"android":"levelo://app?vid=0080c830-8acc-4da4-9eb6-04eea0fd7cbc","ios":"levelo://app?vid=0080c830-8acc-4da4-9eb6-04eea0fd7cbc"},"vehicle_type_id":"4","last_reported":1685152698,"current_range_meters":17200,"station_id":"ce4bho92rcd13ifvqh3g","pricing_plan_id":"free"},{"bike_id":"c1e04982-e52a-4ba3-81eb-8addb16c8bf4","system_id":"levelo_inurba_marseille","lat":43.287154,"lon":5.399979,"is_reserved":false,"is_disabled":false,"rental_uris":{"android":"levelo://app?vid=c1e04982-e52a-4ba3-81eb-8addb16c8bf4","ios":"levelo://app?vid=c1e04982-e52a-4ba3-81eb-8addb16c8bf4"},"vehicle_type_id":"4","last_reported":1685152698,"current_range_meters":26800,"station_id":"ce4bho92rcd13ifvqh3g","pricing_plan_id":"free"},{"bike_id":"f000203d-5a2a-4150-b7b1-736fed3d9a60","system_id":"levelo_inurba_marseille","lat":43.28698,"lon":5.39988,"is_reserved":false,"is_disabled":false,"rental_uris":{"android":"levelo://app?vid=f000203d-5a2a-4150-b7b1-736fed3d9a60","ios":"levelo://app?vid=f000203d-5a2a-4150-b7b1-736fed3d9a60"},"vehicle_type_id":"4","last_reported":1685152698,"current_range_meters":20800,"station_id":"ce4bho92rcd13ifvqh3g","pricing_plan_id":"free"},{"bike_id":"af348f6a-6b42-424b-ac57-fc0b2efa170b","system_id":"levelo_inurba_marseille","lat":43.287154,"lon":5.399979,"is_reserved":false,"is_disabled":false,"rental_uris":{"android":"levelo://app?vid=af348f6a-6b42-424b-ac57-fc0b2efa170b","ios":"levelo://app?vid=af348f6a-6b42-424b-ac57-fc0b2efa170b"},"vehicle_type_id":"4","last_reported":1685152698,"current_range_meters":23600,"station_id":"ce4bho92rcd13ifvqh3g","pricing_plan_id":"free"},{"bike_id":"0e5605b8-b574-458e-b0b3-8469257a91ae","system_id":"levelo_inurba_marseille","lat":43.299579,"lon":5.413255,"is_reserved":false,"is_disabled":false,"rental_uris":{"android":"levelo://app?vid=0e5605b8-b574-458e-b0b3-8469257a91ae","ios":"levelo://app?vid=0e5605b8-b574-458e-b0b3-8469257a91ae"},"vehicle_type_id":"4","last_reported":1685152698,"current_range_meters":29200,"station_id":"ce4bhp12rcd13ifvqh9g","pricing_plan_id":"free"},{"bike_id":"ee2f0c5e-4349-4cb3-96d1-81a693a0622f","system_id":"levelo_inurba_marseille","lat":43.279742,"lon":5.38744,"is_reserved":false,"is_disabled":false,"rental_uris":{"android":"levelo://app?vid=ee2f0c5e-4349-4cb3-96d1-81a693a0622f","ios":"levelo://app?vid=ee2f0c5e-4349-4cb3-96d1-81a693a0622f"},"vehicle_type_id":"4","last_reported":1685152698,"current_range_meters":23600,"station_id":"ce4bhg12rcd13ifvqf80","pricing_plan_id":"free"},{"bike_id":"29627056-2dab-4b80-b8c7-86806dc33ee5","system_id":"levelo_inurba_marseille","lat":43.292571,"lon":5.409107,"is_reserved":false,"is_disabled":false,"rental_uris":{"android":"levelo://app?vid=29627056-2dab-4b80-b8c7-86806dc33ee5","ios":"levelo://app?vid=29627056-2dab-4b80-b8c7-86806dc33ee5"},"vehicle_type_id":"4","last_reported":1685152698,"current_range_meters":17200,"station_id":"ce4bh192rcd13ifvqdc0","pricing_plan_id":"free"},{"bike_id":"becc0f4c-a91a-411a-a84d-ac41754bb800","system_id":"levelo_inurba_marseille","lat":43.292571,"lon":5.409107,"is_reserved":false,"is_disabled":false,"rental_uris":{"android":"levelo://app?vid=becc0f4c-a91a-411a-a84d-ac41754bb800","ios":"levelo://app?vid=becc0f4c-a91a-411a-a84d-ac41754bb800"},"vehicle_type_id":"4","last_reported":1685152698,"current_range_meters":20800,"station_id":"ce4bh192rcd13ifvqdc0","pricing_plan_id":"free"},{"bike_id":"95bae754-9a80-4d20-8066-a3d3ab9bbda3","system_id":"levelo_inurba_marseille","lat":43.27615,"lon":5.36118,"is_reserved":false,"is_disabled":false,"rental_uris":{"android":"levelo://app?vid=95bae754-9a80-4d20-8066-a3d3ab9bbda3","ios":"levelo://app?vid=95bae754-9a80-4d20-8066-a3d3ab9bbda3"},"vehicle_type_id":"4","last_reported":1685152698,"current_range_meters":31200,"station_id":"ce4bgj92rcd13ifvqbe0","pricing_plan_id":"free"},{"bike_id":"cf5bbf7d-9dfb-4b88-b2d6-77f95cf91dd0","system_id":"levelo_inurba_marseille","lat":43.27611,"lon":5.36125,"is_reserved":false,"is_disabled":false,"rental_uris":{"android":"levelo://app?vid=cf5bbf7d-9dfb-4b88-b2d6-77f95cf91dd0","ios":"levelo://app?vid=cf5bbf7d-9dfb-4b88-b2d6-77f95cf91dd0"},"vehicle_type_id":"4","last_reported":1685152698,"current_range_meters":30000,"station_id":"ce4bgj92rcd13ifvqbe0","pricing_plan_id":"free"},{"bike_id":"b3909e1b-7aa4-43c6-a7ff-936dbd91b760","system_id":"levelo_inurba_marseille","lat":43.2761,"lon":5.36121,"is_reserved":false,"is_disabled":false,"rental_uris":{"android":"levelo://app?vid=b3909e1b-7aa4-43c6-a7ff-936dbd91b760","ios":"levelo://app?vid=b3909e1b-7aa4-43c6-a7ff-936dbd91b760"},"vehicle_type_id":"4","last_reported":1685152698,"current_range_meters":31200,"station_id":"ce4bgj92rcd13ifvqbe0","pricing_plan_id":"free"},{"bike_id":"855a03f7-e084-4a31-856a-7db57894630d","system_id":"levelo_inurba_marseille","lat":43.278401,"lon":5.392152,"is_reserved":false,"is_disabled":false,"rental_uris":{"android":"levelo://app?vid=855a03f7-e084-4a31-856a-7db57894630d","ios":"levelo://app?vid=855a03f7-e084-4a31-856a-7db57894630d"},"vehicle_type_id":"4","last_reported":1685152698,"current_range_meters":13200,"station_id":"ce4bhjp2rcd13ifvqga0","pricing_plan_id":"free"},{"bike_id":"65482d4b-c453-46fa-9f92-9ba7852dc226","system_id":"levelo_inurba_marseille","lat":43.278399,"lon":5.392139,"is_reserved":false,"is_disabled":false,"rental_uris":{"android":"levelo://app?vid=65482d4b-c453-46fa-9f92-9ba7852dc226","ios":"levelo://app?vid=65482d4b-c453-46fa-9f92-9ba7852dc226"},"vehicle_type_id":"4","last_reported":1685152698,"current_range_meters":23200,"station_id":"ce4bhjp2rcd13ifvqga0","pricing_plan_id":"free"},{"bike_id":"414858d9-824c-4eb4-a3dd-67c0bccd5873","system_id":"levelo_inurba_marseille","lat":43.278399,"lon":5.392139,"is_reserved":false,"is_disabled":false,"rental_uris":{"android":"levelo://app?vid=414858d9-824c-4eb4-a3dd-67c0bccd5873","ios":"levelo://app?vid=414858d9-824c-4eb4-a3dd-67c0bccd5873"},"vehicle_type_id":"4","last_reported":1685152698,"current_range_meters":18000,"station_id":"ce4bhjp2rcd13ifvqga0","pricing_plan_id":"free"},{"bike_id":"90e86482-2bfe-431f-acec-adfa925d3919","system_id":"levelo_inurba_marseille","lat":43.278399,"lon":5.392139,"is_reserved":false,"is_disabled":false,"rental_uris":{"android":"levelo://app?vid=90e86482-2bfe-431f-acec-adfa925d3919","ios":"levelo://app?vid=90e86482-2bfe-431f-acec-adfa925d3919"},"vehicle_type_id":"4","last_reported":1685152698,"current_range_meters":28000,"station_id":"ce4bhjp2rcd13ifvqga0","pricing_plan_id":"free"},{"bike_id":"04eae6dc-6ca9-4696-8385-19d7ab937650","system_id":"levelo_inurba_marseille","lat":43.273613,"lon":5.362705,"is_reserved":false,"is_disabled":false,"rental_uris":{"android":"levelo://app?vid=04eae6dc-6ca9-4696-8385-19d7ab937650","ios":"levelo://app?vid=04eae6dc-6ca9-4696-8385-19d7ab937650"},"vehicle_type_id":"4","last_reported":1685152698,"current_range_meters":31600,"station_id":"ce4bhbh2rcd13ifvqeo0","pricing_plan_id":"free"},{"bike_id":"d128b6ec-203b-4d72-a182-80620234faae","system_id":"levelo_inurba_marseille","lat":43.273613,"lon":5.362705,"is_reserved":false,"is_disabled":false,"rental_uris":{"android":"levelo://app?vid=d128b6ec-203b-4d72-a182-80620234faae","ios":"levelo://app?vid=d128b6ec-203b-4d72-a182-80620234faae"},"vehicle_type_id":"4","last_reported":1685152698,"current_range_meters":20800,"station_id":"ce4bhbh2rcd13ifvqeo0","pricing_plan_id":"free"},{"bike_id":"3d371651-ba3b-4f81-9848-4f9790ed9322","system_id":"levelo_inurba_marseille","lat":43.27376,"lon":5.36256,"is_reserved":false,"is_disabled":false,"rental_uris":{"android":"levelo://app?vid=3d371651-ba3b-4f81-9848-4f9790ed9322","ios":"levelo://app?vid=3d371651-ba3b-4f81-9848-4f9790ed9322"},"vehicle_type_id":"4","last_reported":1685152698,"current_range_meters":0,"station_id":"ce4bhbh2rcd13ifvqeo0","pricing_plan_id":"free"},{"bike_id":"72e226ff-72c1-44f5-8497-8eb002e7547b","system_id":"levelo_inurba_marseille","lat":43.273613,"lon":5.362705,"is_reserved":false,"is_disabled":false,"rental_uris":{"android":"levelo://app?vid=72e226ff-72c1-44f5-8497-8eb002e7547b","ios":"levelo://app?vid=72e226ff-72c1-44f5-8497-8eb002e7547b"},"vehicle_type_id":"4","last_reported":1685152698,"current_range_meters":32000,"station_id":"ce4bhbh2rcd13ifvqeo0","pricing_plan_id":"free"},{"bike_id":"6a132eed-2a7f-4fe7-a8d5-cd5ce5c1b469","system_id":"levelo_inurba_marseille","lat":43.273613,"lon":5.362705,"is_reserved":false,"is_disabled":false,"rental_uris":{"android":"levelo://app?vid=6a132eed-2a7f-4fe7-a8d5-cd5ce5c1b469","ios":"levelo://app?vid=6a132eed-2a7f-4fe7-a8d5-cd5ce5c1b469"},"vehicle_type_id":"4","last_reported":1685152698,"current_range_meters":32000,"station_id":"ce4bhbh2rcd13ifvqeo0","pricing_plan_id":"free"},{"bike_id":"363df828-1b47-4f37-aac3-522a662cce76","system_id":"levelo_inurba_marseille","lat":43.273613,"lon":5.362705,"is_reserved":false,"is_disabled":false,"rental_uris":{"android":"levelo://app?vid=363df828-1b47-4f37-aac3-522a662cce76","ios":"levelo://app?vid=363df828-1b47-4f37-aac3-522a662cce76"},"vehicle_type_id":"4","last_reported":1685152698,"current_range_meters":32000,"station_id":"ce4bhbh2rcd13ifvqeo0","pricing_plan_id":"free"},{"bike_id":"173ad39c-1747-40b5-b1c8-64c0d16002aa","system_id":"levelo_inurba_marseille","lat":43.273613,"lon":5.362705,"is_reserved":false,"is_disabled":false,"rental_uris":{"android":"levelo://app?vid=173ad39c-1747-40b5-b1c8-64c0d16002aa","ios":"levelo://app?vid=173ad39c-1747-40b5-b1c8-64c0d16002aa"},"vehicle_type_id":"4","last_reported":1685152698,"current_range_meters":32000,"station_id":"ce4bhbh2rcd13ifvqeo0","pricing_plan_id":"free"},{"bike_id":"0d28e2b4-76d0-43aa-aa32-13aba7c9caff","system_id":"levelo_inurba_marseille","lat":43.273609,"lon":5.362708,"is_reserved":false,"is_disabled":false,"rental_uris":{"android":"levelo://app?vid=0d28e2b4-76d0-43aa-aa32-13aba7c9caff","ios":"levelo://app?vid=0d28e2b4-76d0-43aa-aa32-13aba7c9caff"},"vehicle_type_id":"4","last_reported":1685152698,"current_range_meters":31600,"station_id":"ce4bhbh2rcd13ifvqeo0","pricing_plan_id":"free"},{"bike_id":"a36c921d-94da-4cc9-b932-c1b11d877108","system_id":"levelo_inurba_marseille","lat":43.273613,"lon":5.362705,"is_reserved":false,"is_disabled":false,"rental_uris":{"android":"levelo://app?vid=a36c921d-94da-4cc9-b932-c1b11d877108","ios":"levelo://app?vid=a36c921d-94da-4cc9-b932-c1b11d877108"},"vehicle_type_id":"4","last_reported":1685152698,"current_range_meters":16000,"station_id":"ce4bhbh2rcd13ifvqeo0","pricing_plan_id":"free"},{"bike_id":"95d501fb-a402-4293-8760-f6de1e6519e4","system_id":"levelo_inurba_marseille","lat":43.273609,"lon":5.362708,"is_reserved":false,"is_disabled":false,"rental_uris":{"android":"levelo://app?vid=95d501fb-a402-4293-8760-f6de1e6519e4","ios":"levelo://app?vid=95d501fb-a402-4293-8760-f6de1e6519e4"},"vehicle_type_id":"4","last_reported":1685152698,"current_range_meters":14800,"station_id":"ce4bhbh2rcd13ifvqeo0","pricing_plan_id":"free"},{"bike_id":"1d3c2b50-9a9d-4667-94a8-aaf5d39d9886","system_id":"levelo_inurba_marseille","lat":43.273609,"lon":5.362708,"is_reserved":false,"is_disabled":false,"rental_uris":{"android":"levelo://app?vid=1d3c2b50-9a9d-4667-94a8-aaf5d39d9886","ios":"levelo://app?vid=1d3c2b50-9a9d-4667-94a8-aaf5d39d9886"},"vehicle_type_id":"4","last_reported":1685152698,"current_range_meters":26000,"station_id":"ce4bhbh2rcd13ifvqeo0","pricing_plan_id":"free"},{"bike_id":"095bccff-b627-4c06-be29-1ad4e92bf311","system_id":"levelo_inurba_marseille","lat":43.336134,"lon":5.410341,"is_reserved":false,"is_disabled":false,"rental_uris":{"android":"levelo://app?vid=095bccff-b627-4c06-be29-1ad4e92bf311","ios":"levelo://app?vid=095bccff-b627-4c06-be29-1ad4e92bf311"},"vehicle_type_id":"4","last_reported":1685152698,"current_range_meters":10000,"station_id":"ce4bhqh2rcd13ifvqhmg","pricing_plan_id":"free"},{"bike_id":"1e03af09-67fa-44d6-b1b4-444b4b37cdf1","system_id":"levelo_inurba_marseille","lat":43.276771,"lon":5.388799,"is_reserved":false,"is_disabled":false,"rental_uris":{"android":"levelo://app?vid=1e03af09-67fa-44d6-b1b4-444b4b37cdf1","ios":"levelo://app?vid=1e03af09-67fa-44d6-b1b4-444b4b37cdf1"},"vehicle_type_id":"4","last_reported":1685152698,"current_range_meters":13200,"station_id":"ce4bhi12rcd13ifvqfo0","pricing_plan_id":"free"},{"bike_id":"163fad4d-bd56-4a07-8a23-1a46296f67f7","system_id":"levelo_inurba_marseille","lat":43.317121,"lon":5.423936,"is_reserved":false,"is_disabled":false,"rental_uris":{"android":"levelo://app?vid=163fad4d-bd56-4a07-8a23-1a46296f67f7","ios":"levelo://app?vid=163fad4d-bd56-4a07-8a23-1a46296f67f7"},"vehicle_type_id":"4","last_reported":1685152698,"current_range_meters":30000,"station_id":"ce4bhp92rcd13ifvqhbg","pricing_plan_id":"free"},{"bike_id":"25e6c62a-239c-4bb1-9cdd-05ae9326c2e5","system_id":"levelo_inurba_marseille","lat":43.31081,"lon":5.42429,"is_reserved":false,"is_disabled":false,"rental_uris":{"android":"levelo://app?vid=25e6c62a-239c-4bb1-9cdd-05ae9326c2e5","ios":"levelo://app?vid=25e6c62a-239c-4bb1-9cdd-05ae9326c2e5"},"vehicle_type_id":"4","last_reported":1685152698,"current_range_meters":17200,"station_id":"ce4bhp92rcd13ifvqhag","pricing_plan_id":"free"},{"bike_id":"1b3a9706-1d75-49da-b04f-a8d2d21f8a41","system_id":"levelo_inurba_marseille","lat":43.31077,"lon":5.42435,"is_reserved":false,"is_disabled":false,"rental_uris":{"android":"levelo://app?vid=1b3a9706-1d75-49da-b04f-a8d2d21f8a41","ios":"levelo://app?vid=1b3a9706-1d75-49da-b04f-a8d2d21f8a41"},"vehicle_type_id":"4","last_reported":1685152698,"current_range_meters":27600,"station_id":"ce4bhp92rcd13ifvqhag","pricing_plan_id":"free"},{"bike_id":"861329e4-ad11-429d-b8ea-90476abd2c56","system_id":"levelo_inurba_marseille","lat":43.317121,"lon":5.423936,"is_reserved":false,"is_disabled":false,"rental_uris":{"android":"levelo://app?vid=861329e4-ad11-429d-b8ea-90476abd2c56","ios":"levelo://app?vid=861329e4-ad11-429d-b8ea-90476abd2c56"},"vehicle_type_id":"4","last_reported":1685152698,"current_range_meters":16000,"station_id":"ce4bhp92rcd13ifvqhbg","pricing_plan_id":"free"},{"bike_id":"2f2b0a8c-81dd-402b-bd67-742dbf9c0575","system_id":"levelo_inurba_marseille","lat":43.304096,"lon":5.425385,"is_reserved":false,"is_disabled":false,"rental_uris":{"android":"levelo://app?vid=2f2b0a8c-81dd-402b-bd67-742dbf9c0575","ios":"levelo://app?vid=2f2b0a8c-81dd-402b-bd67-742dbf9c0575"},"vehicle_type_id":"4","last_reported":1685152698,"current_range_meters":1200,"station_id":"ce4bhoh2rcd13ifvqh6g","pricing_plan_id":"free"},{"bike_id":"ccf52596-28ae-426c-a62c-6ece1d77967b","system_id":"levelo_inurba_marseille","lat":43.304096,"lon":5.425385,"is_reserved":false,"is_disabled":false,"rental_uris":{"android":"levelo://app?vid=ccf52596-28ae-426c-a62c-6ece1d77967b","ios":"levelo://app?vid=ccf52596-28ae-426c-a62c-6ece1d77967b"},"vehicle_type_id":"4","last_reported":1685152698,"current_range_meters":5600,"station_id":"ce4bhoh2rcd13ifvqh6g","pricing_plan_id":"free"},{"bike_id":"7ce59235-cd9a-422a-b36a-18be9f35e7b5","system_id":"levelo_inurba_marseille","lat":43.304096,"lon":5.425385,"is_reserved":false,"is_disabled":false,"rental_uris":{"android":"levelo://app?vid=7ce59235-cd9a-422a-b36a-18be9f35e7b5","ios":"levelo://app?vid=7ce59235-cd9a-422a-b36a-18be9f35e7b5"},"vehicle_type_id":"4","last_reported":1685152698,"current_range_meters":17200,"station_id":"ce4bhoh2rcd13ifvqh6g","pricing_plan_id":"free"},{"bike_id":"b660155a-792e-4ec2-8071-a53cbfe080df","system_id":"levelo_inurba_marseille","lat":43.304096,"lon":5.425385,"is_reserved":false,"is_disabled":false,"rental_uris":{"android":"levelo://app?vid=b660155a-792e-4ec2-8071-a53cbfe080df","ios":"levelo://app?vid=b660155a-792e-4ec2-8071-a53cbfe080df"},