{"last_updated":1726729736,"ttl":30,"version":"2.2","data":{"bikes":[{"bike_id":"53f85c0f-9bc3-428d-8e67-2607741aa3ee","system_id":"levelo_inurba_marseille","lat":43.3254,"lon":5.4144,"is_reserved":false,"is_disabled":false,"rental_uris":{"android":"levelo://app?vid=53f85c0f-9bc3-428d-8e67-2607741aa3ee","ios":"levelo://app?vid=53f85c0f-9bc3-428d-8e67-2607741aa3ee"},"vehicle_type_id":"4","last_reported":1726729736,"current_range_meters":14000,"station_id":"ce4bhq12rcd13ifvqhhg","pricing_plan_id":"cebpf4jnsgd1na2vs0mg"},{"bike_id":"26c1e236-5369-4312-a058-23342ae074f4","system_id":"levelo_inurba_marseille","lat":43.29024,"lon":5.38646,"is_reserved":false,"is_disabled":false,"rental_uris":{"android":"levelo://app?vid=26c1e236-5369-4312-a058-23342ae074f4","ios":"levelo://app?vid=26c1e236-5369-4312-a058-23342ae074f4"},"vehicle_type_id":"4","last_reported":1726729736,"current_range_meters":18000,"station_id":"ce4bh4p2rcd13ifvqe0g","pricing_plan_id":"cebpf4jnsgd1na2vs0mg"},{"bike_id":"897a2a90-a513-4bc6-aa39-1ef51f15e559","system_id":"levelo_inurba_marseille","lat":43.26949,"lon":5.38638,"is_reserved":false,"is_disabled":false,"rental_uris":{"android":"levelo://app?vid=897a2a90-a513-4bc6-aa39-1ef51f15e559","ios":"levelo://app?vid=897a2a90-a513-4bc6-aa39-1ef51f15e559"},"vehicle_type_id":"4","last_reported":1726729736,"current_range_meters":28800,"station_id":"ce4bhh92rcd13ifvqfh0","pricing_plan_id":"cebpf4jnsgd1na2vs0mg"},{"bike_id":"c00c4314-d2e1-4e02-8404-1122a0cc6173","system_id":"levelo_inurba_marseille","lat":43.30886,"lon":5.37198,"is_reserved":false,"is_disabled":false,"rental_uris":{"android":"levelo://app?vid=c00c4314-d2e1-4e02-8404-1122a0cc6173","ios":"levelo://app?vid=c00c4314-d2e1-4e02-8404-1122a0cc6173"},"vehicle_type_id":"4","last_reported":1726729736,"current_range_meters":39200,"station_id":"ce4bguh2rcd13ifvqckg","pricing_plan_id":"cebpf4jnsgd1na2vs0mg"},{"bike_id":"dc514f7e-3365-4fe0-8625-e01a62660dae","system_id":"levelo_inurba_marseille","lat":43.23158,"lon":5.43696,"is_reserved":false,"is_disabled":false,"rental_uris":{"android":"levelo://app?vid=dc514f7e-3365-4fe0-8625-e01a62660dae","ios":"levelo://app?vid=dc514f7e-3365-4fe0-8625-e01a62660dae"},"vehicle_type_id":"4","last_reported":1726729736,"current_range_meters":12400,"station_id":"ce4bhmp2rcd13ifvqgog","pricing_plan_id":"cebpf4jnsgd1na2vs0mg"},{"bike_id":"fc3b8469-706a-4a1f-887e-ebbed57a71b0","system_id":"levelo_inurba_marseille","lat":43.336495,"lon":5.410593,"is_reserved":false,"is_disabled":false,"rental_uris":{"android":"levelo://app?vid=fc3b8469-706a-4a1f-887e-ebbed57a71b0","ios":"levelo://app?vid=fc3b8469-706a-4a1f-887e-ebbed57a71b0"},"vehicle_type_id":"4","last_reported":1726729736,"current_range_meters":15200,"station_id":"ce4bhqh2rcd13ifvqhmg","pricing_plan_id":"cebpf4jnsgd1na2vs0mg"},{"bike_id":"70cccf6a-6f9f-43b0-a4d2-80222d66e7df","system_id":"levelo_inurba_marseille","lat":43.33614,"lon":5.4103,"is_reserved":false,"is_disabled":false,"rental_uris":{"android":"levelo://app?vid=70cccf6a-6f9f-43b0-a4d2-80222d66e7df","ios":"levelo://app?vid=70cccf6a-6f9f-43b0-a4d2-80222d66e7df"},"vehicle_type_id":"4","last_reported":1726729736,"current_range_meters":6800,"station_id":"ce4bhqh2rcd13ifvqhmg","pricing_plan_id":"cebpf4jnsgd1na2vs0mg"},{"bike_id":"b3b4a254-0e9c-4db5-8728-4c35323ebe52","system_id":"levelo_inurba_marseille","lat":43.290284,"lon":5.39983,"is_reserved":false,"is_disabled":false,"rental_uris":{"android":"levelo://app?vid=b3b4a254-0e9c-4db5-8728-4c35323ebe52","ios":"levelo://app?vid=b3b4a254-0e9c-4db5-8728-4c35323ebe52"},"vehicle_type_id":"4","last_reported":1726729736,"current_range_meters":32000,"station_id":"ce4bh392rcd13ifvqdm0","pricing_plan_id":"cebpf4jnsgd1na2vs0mg"},{"bike_id":"6cbf7334-272b-475e-b8aa-f44f29cebaae","system_id":"levelo_inurba_marseille","lat":43.30462,"lon":5.37914,"is_reserved":false,"is_disabled":false,"rental_uris":{"android":"levelo://app?vid=6cbf7334-272b-475e-b8aa-f44f29cebaae","ios":"levelo://app?vid=6cbf7334-272b-475e-b8aa-f44f29cebaae"},"vehicle_type_id":"4","last_reported":1726729736,"current_range_meters":38800,"station_id":"ce4bgup2rcd13ifvqcn0","pricing_plan_id":"cebpf4jnsgd1na2vs0mg"},{"bike_id":"ea518a3b-2ba6-4aef-8e8b-1da3cf82019a","system_id":"levelo_inurba_marseille","lat":43.27496,"lon":5.42454,"is_reserved":false,"is_disabled":false,"rental_uris":{"android":"levelo://app?vid=ea518a3b-2ba6-4aef-8e8b-1da3cf82019a","ios":"levelo://app?vid=ea518a3b-2ba6-4aef-8e8b-1da3cf82019a"},"vehicle_type_id":"4","last_reported":1726729736,"current_range_meters":6800,"station_id":"ce4bhn92rcd13ifvqgrg","pricing_plan_id":"cebpf4jnsgd1na2vs0mg"},{"bike_id":"2550bc66-c957-4b69-aa57-b224032fd7b1","system_id":"levelo_inurba_marseille","lat":43.337444,"lon":5.374475,"is_reserved":false,"is_disabled":false,"rental_uris":{"android":"levelo://app?vid=2550bc66-c957-4b69-aa57-b224032fd7b1","ios":"levelo://app?vid=2550bc66-c957-4b69-aa57-b224032fd7b1"},"vehicle_type_id":"4","last_reported":1726729736,"current_range_meters":36400,"station_id":"","pricing_plan_id":"cebpf4jnsgd1na2vs0mg"},{"bike_id":"e532fd53-ad12-4848-82ea-70ac934c1c37","system_id":"levelo_inurba_marseille","lat":43.337444,"lon":5.374475,"is_reserved":false,"is_disabled":false,"rental_uris":{"android":"levelo://app?vid=e532fd53-ad12-4848-82ea-70ac934c1c37","ios":"levelo://app?vid=e532fd53-ad12-4848-82ea-70ac934c1c37"},"vehicle_type_id":"4","last_reported":1726729736,"current_range_meters":16800,"station_id":"","pricing_plan_id":"cebpf4jnsgd1na2vs0mg"},{"bike_id":"16aff90c-07c9-446e-b8cf-7b04ea13322c","system_id":"levelo_inurba_marseille","lat":43.28152,"lon":5.42635,"is_reserved":false,"is_disabled":false,"rental_uris":{"android":"levelo://app?vid=16aff90c-07c9-446e-b8cf-7b04ea13322c","ios":"levelo://app?vid=16aff90c-07c9-446e-b8cf-7b04ea13322c"},"vehicle_type_id":"4","last_reported":1726729736,"current_range_meters":36000,"station_id":"ce4bhnh2rcd13ifvqgug","pricing_plan_id":"cebpf4jnsgd1na2vs0mg"},{"bike_id":"9a7bef7e-aa27-4b3e-b3a0-16082888faf1","system_id":"levelo_inurba_marseille","lat":43.25935,"lon":5.40906,"is_reserved":false,"is_disabled":false,"rental_uris":{"android":"levelo://app?vid=9a7bef7e-aa27-4b3e-b3a0-16082888faf1","ios":"levelo://app?vid=9a7bef7e-aa27-4b3e-b3a0-16082888faf1"},"vehicle_type_id":"4","last_reported":1726729736,"current_range_meters":36000,"station_id":"ce4bhm92rcd13ifvqglg","pricing_plan_id":"cebpf4jnsgd1na2vs0mg"},{"bike_id":"e4cab998-54db-48bd-97e2-c759e513a790","system_id":"levelo_inurba_marseille","lat":43.29633,"lon":5.40591,"is_reserved":false,"is_disabled":false,"rental_uris":{"android":"levelo://app?vid=e4cab998-54db-48bd-97e2-c759e513a790","ios":"levelo://app?vid=e4cab998-54db-48bd-97e2-c759e513a790"},"vehicle_type_id":"4","last_reported":1726729736,"current_range_meters":8000,"station_id":"ce4bh0h2rcd13ifvqd60","pricing_plan_id":"cebpf4jnsgd1na2vs0mg"},{"bike_id":"81a185b5-9b86-4ff9-825a-85ba778364e7","system_id":"levelo_inurba_marseille","lat":43.302094,"lon":5.394587,"is_reserved":false,"is_disabled":false,"rental_uris":{"android":"levelo://app?vid=81a185b5-9b86-4ff9-825a-85ba778364e7","ios":"levelo://app?vid=81a185b5-9b86-4ff9-825a-85ba778364e7"},"vehicle_type_id":"4","last_reported":1726729736,"current_range_meters":29600,"station_id":"ce4bh0p2rcd13ifvqd70","pricing_plan_id":"cebpf4jnsgd1na2vs0mg"},{"bike_id":"ba671468-6022-443b-8c16-a1ff584a748a","system_id":"levelo_inurba_marseille","lat":43.324786,"lon":5.365603,"is_reserved":false,"is_disabled":false,"rental_uris":{"android":"levelo://app?vid=ba671468-6022-443b-8c16-a1ff584a748a","ios":"levelo://app?vid=ba671468-6022-443b-8c16-a1ff584a748a"},"vehicle_type_id":"4","last_reported":1726729736,"current_range_meters":36400,"station_id":"ce4bhs12rcd13ifvqhvg","pricing_plan_id":"cebpf4jnsgd1na2vs0mg"},{"bike_id":"a48c0f10-3a7a-4fe8-8343-dded0834619f","system_id":"levelo_inurba_marseille","lat":43.2408,"lon":5.3775,"is_reserved":false,"is_disabled":false,"rental_uris":{"android":"levelo://app?vid=a48c0f10-3a7a-4fe8-8343-dded0834619f","ios":"levelo://app?vid=a48c0f10-3a7a-4fe8-8343-dded0834619f"},"vehicle_type_id":"4","last_reported":1726729736,"current_range_meters":14800,"station_id":"ce4bhnp2rcd13ifvqgvg","pricing_plan_id":"cebpf4jnsgd1na2vs0mg"},{"bike_id":"ac9e3561-3b4d-4605-8c14-af14acce3214","system_id":"levelo_inurba_marseille","lat":43.249908,"lon":5.389314,"is_reserved":false,"is_disabled":false,"rental_uris":{"android":"levelo://app?vid=ac9e3561-3b4d-4605-8c14-af14acce3214","ios":"levelo://app?vid=ac9e3561-3b4d-4605-8c14-af14acce3214"},"vehicle_type_id":"4","last_reported":1726729736,"current_range_meters":29600,"station_id":"ce4bhgp2rcd13ifvqfd0","pricing_plan_id":"cebpf4jnsgd1na2vs0mg"},{"bike_id":"4af403ff-232e-437f-a15e-03f83dae4a86","system_id":"levelo_inurba_marseille","lat":43.3053,"lon":5.36558,"is_reserved":false,"is_disabled":false,"rental_uris":{"android":"levelo://app?vid=4af403ff-232e-437f-a15e-03f83dae4a86","ios":"levelo://app?vid=4af403ff-232e-437f-a15e-03f83dae4a86"},"vehicle_type_id":"4","last_reported":1726729736,"current_range_meters":24000,"station_id":"ce4bgs12rcd13ifvqcag","pricing_plan_id":"cebpf4jnsgd1na2vs0mg"},{"bike_id":"64b8db7b-e020-426b-bc67-cc08026eaa92","system_id":"levelo_inurba_marseille","lat":43.29837,"lon":5.36272,"is_reserved":false,"is_disabled":false,"rental_uris":{"android":"levelo://app?vid=64b8db7b-e020-426b-bc67-cc08026eaa92","ios":"levelo://app?vid=64b8db7b-e020-426b-bc67-cc08026eaa92"},"vehicle_type_id":"4","last_reported":1726729736,"current_range_meters":32800,"station_id":"ce4bgpp2rcd13ifvqc3g","pricing_plan_id":"cebpf4jnsgd1na2vs0mg"},{"bike_id":"1a679cda-f4bb-439c-805a-997b85c97342","system_id":"levelo_inurba_marseille","lat":43.28396,"lon":5.37505,"is_reserved":false,"is_disabled":false,"rental_uris":{"android":"levelo://app?vid=1a679cda-f4bb-439c-805a-997b85c97342","ios":"levelo://app?vid=1a679cda-f4bb-439c-805a-997b85c97342"},"vehicle_type_id":"4","last_reported":1726729736,"current_range_meters":4000,"station_id":"ce4bh412rcd13ifvqds0","pricing_plan_id":"cebpf4jnsgd1na2vs0mg"},{"bike_id":"422fb2d9-e531-4235-863b-a809f34dec48","system_id":"levelo_inurba_marseille","lat":43.29786,"lon":5.37103,"is_reserved":false,"is_disabled":false,"rental_uris":{"android":"levelo://app?vid=422fb2d9-e531-4235-863b-a809f34dec48","ios":"levelo://app?vid=422fb2d9-e531-4235-863b-a809f34dec48"},"vehicle_type_id":"4","last_reported":1726729736,"current_range_meters":28000,"station_id":"ce4bgop2rcd13ifvqc1g","pricing_plan_id":"cebpf4jnsgd1na2vs0mg"},{"bike_id":"e4ceb45b-ebcb-439f-b679-86d44ef39fd9","system_id":"levelo_inurba_marseille","lat":43.26934,"lon":5.38916,"is_reserved":false,"is_disabled":false,"rental_uris":{"android":"levelo://app?vid=e4ceb45b-ebcb-439f-b679-86d44ef39fd9","ios":"levelo://app?vid=e4ceb45b-ebcb-439f-b679-86d44ef39fd9"},"vehicle_type_id":"4","last_reported":1726729736,"current_range_meters":38400,"station_id":"ce4bhhh2rcd13ifvqfl0","pricing_plan_id":"cebpf4jnsgd1na2vs0mg"},{"bike_id":"cb48def0-1600-4cf2-ba39-f5cdf4ddad93","system_id":"levelo_inurba_marseille","lat":43.28859,"lon":5.39312,"is_reserved":false,"is_disabled":false,"rental_uris":{"android":"levelo://app?vid=cb48def0-1600-4cf2-ba39-f5cdf4ddad93","ios":"levelo://app?vid=cb48def0-1600-4cf2-ba39-f5cdf4ddad93"},"vehicle_type_id":"4","last_reported":1726729736,"current_range_meters":30400,"station_id":"ce4bh2p2rcd13ifvqdi0","pricing_plan_id":"cebpf4jnsgd1na2vs0mg"},{"bike_id":"842c8263-4bea-4e1b-a67b-6ac721ca3f7a","system_id":"levelo_inurba_marseille","lat":43.23155,"lon":5.43716,"is_reserved":false,"is_disabled":false,"rental_uris":{"android":"levelo://app?vid=842c8263-4bea-4e1b-a67b-6ac721ca3f7a","ios":"levelo://app?vid=842c8263-4bea-4e1b-a67b-6ac721ca3f7a"},"vehicle_type_id":"4","last_reported":1726729736,"current_range_meters":25200,"station_id":"ce4bhmp2rcd13ifvqgog","pricing_plan_id":"cebpf4jnsgd1na2vs0mg"},{"bike_id":"a39c0acb-ef92-46fc-b4b8-fa22cc587b15","system_id":"levelo_inurba_marseille","lat":43.30464,"lon":5.37899,"is_reserved":false,"is_disabled":false,"rental_uris":{"android":"levelo://app?vid=a39c0acb-ef92-46fc-b4b8-fa22cc587b15","ios":"levelo://app?vid=a39c0acb-ef92-46fc-b4b8-fa22cc587b15"},"vehicle_type_id":"4","last_reported":1726729736,"current_range_meters":2000,"station_id":"ce4bgup2rcd13ifvqcn0","pricing_plan_id":"cebpf4jnsgd1na2vs0mg"},{"bike_id":"cd22d8e8-2cc1-4209-9e3a-3735691770e6","system_id":"levelo_inurba_marseille","lat":43.24388,"lon":5.3706,"is_reserved":false,"is_disabled":false,"rental_uris":{"android":"levelo://app?vid=cd22d8e8-2cc1-4209-9e3a-3735691770e6","ios":"levelo://app?vid=cd22d8e8-2cc1-4209-9e3a-3735691770e6"},"vehicle_type_id":"4","last_reported":1726729736,"current_range_meters":38800,"station_id":"ce4bhhh2rcd13ifvqfk0","pricing_plan_id":"cebpf4jnsgd1na2vs0mg"},{"bike_id":"2bc21d36-e9c1-4ac7-aae9-a800945214f5","system_id":"levelo_inurba_marseille","lat":43.30144,"lon":5.37405,"is_reserved":false,"is_disabled":false,"rental_uris":{"android":"levelo://app?vid=2bc21d36-e9c1-4ac7-aae9-a800945214f5","ios":"levelo://app?vid=2bc21d36-e9c1-4ac7-aae9-a800945214f5"},"vehicle_type_id":"4","last_reported":1726729736,"current_range_meters":27200,"station_id":"ce4bgs92rcd13ifvqcc0","pricing_plan_id":"cebpf4jnsgd1na2vs0mg"},{"bike_id":"e9604d5a-334f-4be0-8728-9ff9198c4451","system_id":"levelo_inurba_marseille","lat":43.27429,"lon":5.3941,"is_reserved":false,"is_disabled":false,"rental_uris":{"android":"levelo://app?vid=e9604d5a-334f-4be0-8728-9ff9198c4451","ios":"levelo://app?vid=e9604d5a-334f-4be0-8728-9ff9198c4451"},"vehicle_type_id":"4","last_reported":1726729736,"current_range_meters":27600,"station_id":"ce4bhdp2rcd13ifvqf20","pricing_plan_id":"cebpf4jnsgd1na2vs0mg"},{"bike_id":"e5c18218-efc9-4d8b-9f37-977213d2e17a","system_id":"levelo_inurba_marseille","lat":43.2668,"lon":5.38277,"is_reserved":false,"is_disabled":false,"rental_uris":{"android":"levelo://app?vid=e5c18218-efc9-4d8b-9f37-977213d2e17a","ios":"levelo://app?vid=e5c18218-efc9-4d8b-9f37-977213d2e17a"},"vehicle_type_id":"4","last_reported":1726729736,"current_range_meters":27200,"station_id":"ce4bhg92rcd13ifvqf90","pricing_plan_id":"cebpf4jnsgd1na2vs0mg"},{"bike_id":"97ab6dd7-178d-4a04-b974-d241232e826a","system_id":"levelo_inurba_marseille","lat":43.30947,"lon":5.39033,"is_reserved":false,"is_disabled":false,"rental_uris":{"android":"levelo://app?vid=97ab6dd7-178d-4a04-b974-d241232e826a","ios":"levelo://app?vid=97ab6dd7-178d-4a04-b974-d241232e826a"},"vehicle_type_id":"4","last_reported":1726729736,"current_range_meters":33600,"station_id":"ce4bgup2rcd13ifvqco0","pricing_plan_id":"cebpf4jnsgd1na2vs0mg"},{"bike_id":"8985a7e5-d9b7-4ee6-9335-fd8939fcdf07","system_id":"levelo_inurba_marseille","lat":43.27496,"lon":5.4245,"is_reserved":false,"is_disabled":false,"rental_uris":{"android":"levelo://app?vid=8985a7e5-d9b7-4ee6-9335-fd8939fcdf07","ios":"levelo://app?vid=8985a7e5-d9b7-4ee6-9335-fd8939fcdf07"},"vehicle_type_id":"4","last_reported":1726729736,"current_range_meters":24800,"station_id":"ce4bhn92rcd13ifvqgrg","pricing_plan_id":"cebpf4jnsgd1na2vs0mg"},{"bike_id":"78cd0229-63f4-4790-99c6-4a9a185a91ac","system_id":"levelo_inurba_marseille","lat":43.26055,"lon":5.39393,"is_reserved":false,"is_disabled":false,"rental_uris":{"android":"levelo://app?vid=78cd0229-63f4-4790-99c6-4a9a185a91ac","ios":"levelo://app?vid=78cd0229-63f4-4790-99c6-4a9a185a91ac"},"vehicle_type_id":"4","last_reported":1726729736,"current_range_meters":39200,"station_id":"ce4bhh92rcd13ifvqfj0","pricing_plan_id":"cebpf4jnsgd1na2vs0mg"},{"bike_id":"d4af5744-a755-458d-83d4-1f58ff128224","system_id":"levelo_inurba_marseille","lat":43.23193,"lon":5.35558,"is_reserved":false,"is_disabled":false,"rental_uris":{"android":"levelo://app?vid=d4af5744-a755-458d-83d4-1f58ff128224","ios":"levelo://app?vid=d4af5744-a755-458d-83d4-1f58ff128224"},"vehicle_type_id":"4","last_reported":1726729736,"current_range_meters":34000,"station_id":"ce4bhu92rcd13ifvqi70","pricing_plan_id":"cebpf4jnsgd1na2vs0mg"},{"bike_id":"5ee72852-9360-467f-8628-81c7887b89c6","system_id":"levelo_inurba_marseille","lat":43.24016,"lon":5.37782,"is_reserved":false,"is_disabled":false,"rental_uris":{"android":"levelo://app?vid=5ee72852-9360-467f-8628-81c7887b89c6","ios":"levelo://app?vid=5ee72852-9360-467f-8628-81c7887b89c6"},"vehicle_type_id":"4","last_reported":1726729736,"current_range_meters":16800,"station_id":"","pricing_plan_id":"cebpf4jnsgd1na2vs0mg"},{"bike_id":"503364ec-3315-4abd-a585-069a4f356547","system_id":"levelo_inurba_marseille","lat":43.28465,"lon":5.35871,"is_reserved":false,"is_disabled":false,"rental_uris":{"android":"levelo://app?vid=503364ec-3315-4abd-a585-069a4f356547","ios":"levelo://app?vid=503364ec-3315-4abd-a585-069a4f356547"},"vehicle_type_id":"4","last_reported":1726729736,"current_range_meters":38000,"station_id":"ce4bhah2rcd13ifvqei0","pricing_plan_id":"cebpf4jnsgd1na2vs0mg"},{"bike_id":"036ab25f-0c34-4c45-8e88-1fc9200da6fd","system_id":"levelo_inurba_marseille","lat":43.27181,"lon":5.42705,"is_reserved":false,"is_disabled":false,"rental_uris":{"android":"levelo://app?vid=036ab25f-0c34-4c45-8e88-1fc9200da6fd","ios":"levelo://app?vid=036ab25f-0c34-4c45-8e88-1fc9200da6fd"},"vehicle_type_id":"4","last_reported":1726729736,"current_range_meters":30400,"station_id":"","pricing_plan_id":"cebpf4jnsgd1na2vs0mg"},{"bike_id":"c2272d1c-de85-40c3-8a06-70b6bf4106b7","system_id":"levelo_inurba_marseille","lat":43.30799,"lon":5.43528,"is_reserved":false,"is_disabled":false,"rental_uris":{"android":"levelo://app?vid=c2272d1c-de85-40c3-8a06-70b6bf4106b7","ios":"levelo://app?vid=c2272d1c-de85-40c3-8a06-70b6bf4106b7"},"vehicle_type_id":"4","last_reported":1726729736,"current_range_meters":38000,"station_id":"ce4bhph2rcd13ifvqheg","pricing_plan_id":"cebpf4jnsgd1na2vs0mg"},{"bike_id":"c1d8a9f0-cde4-474f-8d86-26987bae3190","system_id":"levelo_inurba_marseille","lat":43.33597,"lon":5.41032,"is_reserved":false,"is_disabled":false,"rental_uris":{"android":"levelo://app?vid=c1d8a9f0-cde4-474f-8d86-26987bae3190","ios":"levelo://app?vid=c1d8a9f0-cde4-474f-8d86-26987bae3190"},"vehicle_type_id":"4","last_reported":1726729736,"current_range_meters":22000,"station_id":"ce4bhqh2rcd13ifvqhmg","pricing_plan_id":"cebpf4jnsgd1na2vs0mg"},{"bike_id":"3a25a5b1-9593-4cec-86f9-39274f1b1719","system_id":"levelo_inurba_marseille","lat":43.27556,"lon":5.38455,"is_reserved":false,"is_disabled":false,"rental_uris":{"android":"levelo://app?vid=3a25a5b1-9593-4cec-86f9-39274f1b1719","ios":"levelo://app?vid=3a25a5b1-9593-4cec-86f9-39274f1b1719"},"vehicle_type_id":"4","last_reported":1726729736,"current_range_meters":32000,"station_id":"ce4bhh92rcd13ifvqfi0","pricing_plan_id":"cebpf4jnsgd1na2vs0mg"},{"bike_id":"6ac0eb2f-9542-4934-b248-49828bcb22c2","system_id":"levelo_inurba_marseille","lat":43.27495,"lon":5.42448,"is_reserved":false,"is_disabled":false,"rental_uris":{"android":"levelo://app?vid=6ac0eb2f-9542-4934-b248-49828bcb22c2","ios":"levelo://app?vid=6ac0eb2f-9542-4934-b248-49828bcb22c2"},"vehicle_type_id":"4","last_reported":1726729736,"current_range_meters":22000,"station_id":"ce4bhn92rcd13ifvqgrg","pricing_plan_id":"cebpf4jnsgd1na2vs0mg"},{"bike_id":"38b7aaaa-5299-4007-8e90-4889ff1d3ce7","system_id":"levelo_inurba_marseille","lat":43.23149,"lon":5.43719,"is_reserved":false,"is_disabled":false,"rental_uris":{"android":"levelo://app?vid=38b7aaaa-5299-4007-8e90-4889ff1d3ce7","ios":"levelo://app?vid=38b7aaaa-5299-4007-8e90-4889ff1d3ce7"},"vehicle_type_id":"4","last_reported":1726729736,"current_range_meters":38800,"station_id":"ce4bhmp2rcd13ifvqgog","pricing_plan_id":"cebpf4jnsgd1na2vs0mg"},{"bike_id":"41950150-e5fe-408f-b42b-d7813e5e4c51","system_id":"levelo_inurba_marseille","lat":43.28484,"lon":5.38437,"is_reserved":false,"is_disabled":false,"rental_uris":{"android":"levelo://app?vid=41950150-e5fe-408f-b42b-d7813e5e4c51","ios":"levelo://app?vid=41950150-e5fe-408f-b42b-d7813e5e4c51"},"vehicle_type_id":"4","last_reported":1726729736,"current_range_meters":8800,"station_id":"ce4bh512rcd13ifvqe3g","pricing_plan_id":"cebpf4jnsgd1na2vs0mg"},{"bike_id":"ab8b1643-9e7f-47cc-b599-33f414e2c958","system_id":"levelo_inurba_marseille","lat":43.23192,"lon":5.39986,"is_reserved":false,"is_disabled":false,"rental_uris":{"android":"levelo://app?vid=ab8b1643-9e7f-47cc-b599-33f414e2c958","ios":"levelo://app?vid=ab8b1643-9e7f-47cc-b599-33f414e2c958"},"vehicle_type_id":"4","last_reported":1726729736,"current_range_meters":37600,"station_id":"ce4bhn12rcd13ifvqgqg","pricing_plan_id":"cebpf4jnsgd1na2vs0mg"},{"bike_id":"d222c136-3911-416f-a176-d138a9984da6","system_id":"levelo_inurba_marseille","lat":43.296277,"lon":5.40585,"is_reserved":false,"is_disabled":false,"rental_uris":{"android":"levelo://app?vid=d222c136-3911-416f-a176-d138a9984da6","ios":"levelo://app?vid=d222c136-3911-416f-a176-d138a9984da6"},"vehicle_type_id":"4","last_reported":1726729736,"current_range_meters":38000,"station_id":"ce4bh0h2rcd13ifvqd60","pricing_plan_id":"cebpf4jnsgd1na2vs0mg"},{"bike_id":"26f288b7-89b9-409b-9ddf-e2b7a23a52f6","system_id":"levelo_inurba_marseille","lat":43.337444,"lon":5.374475,"is_reserved":false,"is_disabled":false,"rental_uris":{"android":"levelo://app?vid=26f288b7-89b9-409b-9ddf-e2b7a23a52f6","ios":"levelo://app?vid=26f288b7-89b9-409b-9ddf-e2b7a23a52f6"},"vehicle_type_id":"4","last_reported":1726729736,"current_range_meters":38800,"station_id":"","pricing_plan_id":"cebpf4jnsgd1na2vs0mg"},{"bike_id":"7c01414b-caf6-4ee1-85f1-2c9de71dff39","system_id":"levelo_inurba_marseille","lat":43.30956,"lon":5.39019,"is_reserved":false,"is_disabled":false,"rental_uris":{"android":"levelo://app?vid=7c01414b-caf6-4ee1-85f1-2c9de71dff39","ios":"levelo://app?vid=7c01414b-caf6-4ee1-85f1-2c9de71dff39"},"vehicle_type_id":"4","last_reported":1726729736,"current_range_meters":38400,"station_id":"ce4bgup2rcd13ifvqco0","pricing_plan_id":"cebpf4jnsgd1na2vs0mg"},{"bike_id":"ddca4962-c40e-46ba-8aef-4fa6c38b3949","system_id":"levelo_inurba_marseille","lat":43.30148,"lon":5.38086,"is_reserved":false,"is_disabled":false,"rental_uris":{"android":"levelo://app?vid=ddca4962-c40e-46ba-8aef-4fa6c38b3949","ios":"levelo://app?vid=ddca4962-c40e-46ba-8aef-4fa6c38b3949"},"vehicle_type_id":"4","last_reported":1726729736,"current_range_meters":22400,"station_id":"ce4bgjp2rcd13ifvqbh0","pricing_plan_id":"cebpf4jnsgd1na2vs0mg"},{"bike_id":"31674790-8365-40d2-bdef-19029206a5f3","system_id":"levelo_inurba_marseille","lat":43.30464,"lon":5.37913,"is_reserved":false,"is_disabled":false,"rental_uris":{"android":"levelo://app?vid=31674790-8365-40d2-bdef-19029206a5f3","ios":"levelo://app?vid=31674790-8365-40d2-bdef-19029206a5f3"},"vehicle_type_id":"4","last_reported":1726729736,"current_range_meters":34800,"station_id":"ce4bgup2rcd13ifvqcn0","pricing_plan_id":"cebpf4jnsgd1na2vs0mg"},{"bike_id":"5ebcebdf-20e4-4903-a3bb-c39478ea8679","system_id":"levelo_inurba_marseille","lat":43.29964,"lon":5.38504,"is_reserved":false,"is_disabled":false,"rental_uris":{"android":"levelo://app?vid=5ebcebdf-20e4-4903-a3bb-c39478ea8679","ios":"levelo://app?vid=5ebcebdf-20e4-4903-a3bb-c39478ea8679"},"vehicle_type_id":"4","last_reported":1726729736,"current_range_meters":17200,"station_id":"ce4bgj92rcd13ifvqbd0","pricing_plan_id":"cebpf4jnsgd1na2vs0mg"},{"bike_id":"b3d81444-f632-4a95-88b6-a30aa314cc07","system_id":"levelo_inurba_marseille","lat":43.28155,"lon":5.42632,"is_reserved":false,"is_disabled":false,"rental_uris":{"android":"levelo://app?vid=b3d81444-f632-4a95-88b6-a30aa314cc07","ios":"levelo://app?vid=b3d81444-f632-4a95-88b6-a30aa314cc07"},"vehicle_type_id":"4","last_reported":1726729736,"current_range_meters":28000,"station_id":"ce4bhnh2rcd13ifvqgug","pricing_plan_id":"cebpf4jnsgd1na2vs0mg"},{"bike_id":"1e543bff-8d11-4c7f-b24e-74e644073541","system_id":"levelo_inurba_marseille","lat":43.33604,"lon":5.41035,"is_reserved":false,"is_disabled":false,"rental_uris":{"android":"levelo://app?vid=1e543bff-8d11-4c7f-b24e-74e644073541","ios":"levelo://app?vid=1e543bff-8d11-4c7f-b24e-74e644073541"},"vehicle_type_id":"4","last_reported":1726729736,"current_range_meters":24400,"station_id":"ce4bhqh2rcd13ifvqhmg","pricing_plan_id":"cebpf4jnsgd1na2vs0mg"},{"bike_id":"c9e6ecbf-60b6-4c04-af51-f46dde936380","system_id":"levelo_inurba_marseille","lat":43.24076,"lon":5.37756,"is_reserved":false,"is_disabled":false,"rental_uris":{"android":"levelo://app?vid=c9e6ecbf-60b6-4c04-af51-f46dde936380","ios":"levelo://app?vid=c9e6ecbf-60b6-4c04-af51-f46dde936380"},"vehicle_type_id":"4","last_reported":1726729736,"current_range_meters":25600,"station_id":"ce4bhnp2rcd13ifvqgvg","pricing_plan_id":"cebpf4jnsgd1na2vs0mg"},{"bike_id":"830b1890-c404-4264-8f6d-25249c5ee739","system_id":"levelo_inurba_marseille","lat":43.290546,"lon":5.359187,"is_reserved":false,"is_disabled":false,"rental_uris":{"android":"levelo://app?vid=830b1890-c404-4264-8f6d-25249c5ee739","ios":"levelo://app?vid=830b1890-c404-4264-8f6d-25249c5ee739"},"vehicle_type_id":"4","last_reported":1726729736,"current_range_meters":37600,"station_id":"ce4bha92rcd13ifvqeg0","pricing_plan_id":"cebpf4jnsgd1na2vs0mg"},{"bike_id":"cc37381e-9335-4b4e-a554-8ca8c7c27f92","system_id":"levelo_inurba_marseille","lat":43.27488,"lon":5.4246,"is_reserved":false,"is_disabled":false,"rental_uris":{"android":"levelo://app?vid=cc37381e-9335-4b4e-a554-8ca8c7c27f92","ios":"levelo://app?vid=cc37381e-9335-4b4e-a554-8ca8c7c27f92"},"vehicle_type_id":"4","last_reported":1726729736,"current_range_meters":9200,"station_id":"ce4bhn92rcd13ifvqgrg","pricing_plan_id":"cebpf4jnsgd1na2vs0mg"},{"bike_id":"888ff640-8b2d-4406-bb74-d69912626280","system_id":"levelo_inurba_marseille","lat":43.3046,"lon":5.379,"is_reserved":false,"is_disabled":false,"rental_uris":{"android":"levelo://app?vid=888ff640-8b2d-4406-bb74-d69912626280","ios":"levelo://app?vid=888ff640-8b2d-4406-bb74-d69912626280"},"vehicle_type_id":"4","last_reported":1726729736,"current_range_meters":9600,"station_id":"ce4bgup2rcd13ifvqcn0","pricing_plan_id":"cebpf4jnsgd1na2vs0mg"},{"bike_id":"a7ba0621-91e3-4669-b4dd-c57703025c57","system_id":"levelo_inurba_marseille","lat":43.31338,"lon":5.3672,"is_reserved":false,"is_disabled":false,"rental_uris":{"android":"levelo://app?vid=a7ba0621-91e3-4669-b4dd-c57703025c57","ios":"levelo://app?vid=a7ba0621-91e3-4669-b4dd-c57703025c57"},"vehicle_type_id":"4","last_reported":1726729736,"current_range_meters":34000,"station_id":"ce4bgr92rcd13ifvqc6g","pricing_plan_id":"cebpf4jnsgd1na2vs0mg"},{"bike_id":"cea90d14-d4cd-44bb-a828-f022d2c2c276","system_id":"levelo_inurba_marseille","lat":43.26952,"lon":5.3863,"is_reserved":false,"is_disabled":false,"rental_uris":{"android":"levelo://app?vid=cea90d14-d4cd-44bb-a828-f022d2c2c276","ios":"levelo://app?vid=cea90d14-d4cd-44bb-a828-f022d2c2c276"},"vehicle_type_id":"4","last_reported":1726729736,"current_range_meters":38000,"station_id":"ce4bhh92rcd13ifvqfh0","pricing_plan_id":"cebpf4jnsgd1na2vs0mg"},{"bike_id":"2fc9f528-9b08-45bb-8413-19c2aeb1d45a","system_id":"levelo_inurba_marseille","lat":43.28264,"lon":5.3508,"is_reserved":false,"is_disabled":false,"rental_uris":{"android":"levelo://app?vid=2fc9f528-9b08-45bb-8413-19c2aeb1d45a","ios":"levelo://app?vid=2fc9f528-9b08-45bb-8413-19c2aeb1d45a"},"vehicle_type_id":"4","last_reported":1726729736,"current_range_meters":36400,"station_id":"ce4bhbp2rcd13ifvqerg","pricing_plan_id":"cebpf4jnsgd1na2vs0mg"},{"bike_id":"154787d4-03e2-4b4a-97d7-df4da2486b91","system_id":"levelo_inurba_marseille","lat":43.30471,"lon":5.3791,"is_reserved":false,"is_disabled":false,"rental_uris":{"android":"levelo://app?vid=154787d4-03e2-4b4a-97d7-df4da2486b91","ios":"levelo://app?vid=154787d4-03e2-4b4a-97d7-df4da2486b91"},"vehicle_type_id":"4","last_reported":1726729736,"current_range_meters":28400,"station_id":"ce4bgup2rcd13ifvqcn0","pricing_plan_id":"cebpf4jnsgd1na2vs0mg"},{"bike_id":"7b0e0d0e-650d-40d7-95d7-ab8fb85396b0","system_id":"levelo_inurba_marseille","lat":43.2407,"lon":5.37763,"is_reserved":false,"is_disabled":false,"rental_uris":{"android":"levelo://app?vid=7b0e0d0e-650d-40d7-95d7-ab8fb85396b0","ios":"levelo://app?vid=7b0e0d0e-650d-40d7-95d7-ab8fb85396b0"},"vehicle_type_id":"4","last_reported":1726729736,"current_range_meters":36000,"station_id":"ce4bhnp2rcd13ifvqgvg","pricing_plan_id":"cebpf4jnsgd1na2vs0mg"},{"bike_id":"a0ea4c20-eeae-4054-a4b5-699b69c4c176","system_id":"levelo_inurba_marseille","lat":43.29554,"lon":5.42276,"is_reserved":false,"is_disabled":false,"rental_uris":{"android":"levelo://app?vid=a0ea4c20-eeae-4054-a4b5-699b69c4c176","ios":"levelo://app?vid=a0ea4c20-eeae-4054-a4b5-699b69c4c176"},"vehicle_type_id":"4","last_reported":1726729736,"current_range_meters":14800,"station_id":"ce4bhph2rcd13ifvqhdg","pricing_plan_id":"cebpf4jnsgd1na2vs0mg"},{"bike_id":"f7f5db0e-acdc-46e3-a241-02bb5c5ee4fc","system_id":"levelo_inurba_marseille","lat":43.33606,"lon":5.4103,"is_reserved":false,"is_disabled":false,"rental_uris":{"android":"levelo://app?vid=f7f5db0e-acdc-46e3-a241-02bb5c5ee4fc","ios":"levelo://app?vid=f7f5db0e-acdc-46e3-a241-02bb5c5ee4fc"},"vehicle_type_id":"4","last_reported":1726729736,"current_range_meters":35600,"station_id":"ce4bhqh2rcd13ifvqhmg","pricing_plan_id":"cebpf4jnsgd1na2vs0mg"},{"bike_id":"c41f96f4-8f35-4f19-a2f5-29cc43f449ce","system_id":"levelo_inurba_marseille","lat":43.27306,"lon":5.39072,"is_reserved":false,"is_disabled":false,"rental_uris":{"android":"levelo://app?vid=c41f96f4-8f35-4f19-a2f5-29cc43f449ce","ios":"levelo://app?vid=c41f96f4-8f35-4f19-a2f5-29cc43f449ce"},"vehicle_type_id":"4","last_reported":1726729736,"current_range_meters":4800,"station_id":"ce4bhgp2rcd13ifvqfe0","pricing_plan_id":"cebpf4jnsgd1na2vs0mg"},{"bike_id":"471f5d2b-6054-4015-b2d1-3adfb1b3fc49","system_id":"levelo_inurba_marseille","lat":43.24063,"lon":5.37751,"is_reserved":false,"is_disabled":false,"rental_uris":{"android":"levelo://app?vid=471f5d2b-6054-4015-b2d1-3adfb1b3fc49","ios":"levelo://app?vid=471f5d2b-6054-4015-b2d1-3adfb1b3fc49"},"vehicle_type_id":"4","last_reported":1726729736,"current_range_meters":7200,"station_id":"ce4bhnp2rcd13ifvqgvg","pricing_plan_id":"cebpf4jnsgd1na2vs0mg"},{"bike_id":"2f8944d6-8b2a-464d-8a19-ec487b750fad","system_id":"levelo_inurba_marseille","lat":43.24078,"lon":5.37751,"is_reserved":false,"is_disabled":false,"rental_uris":{"android":"levelo://app?vid=2f8944d6-8b2a-464d-8a19-ec487b750fad","ios":"levelo://app?vid=2f8944d6-8b2a-464d-8a19-ec487b750fad"},"vehicle_type_id":"4","last_reported":1726729736,"current_range_meters":34800,"station_id":"ce4bhnp2rcd13ifvqgvg","pricing_plan_id":"cebpf4jnsgd1na2vs0mg"},{"bike_id":"065a2a60-4855-4dea-b7dd-2a45ee19806d","system_id":"levelo_inurba_marseille","lat":43.28932,"lon":5.36382,"is_reserved":false,"is_disabled":false,"rental_uris":{"android":"levelo://app?vid=065a2a60-4855-4dea-b7dd-2a45ee19806d","ios":"levelo://app?vid=065a2a60-4855-4dea-b7dd-2a45ee19806d"},"vehicle_type_id":"4","last_reported":1726729736,"current_range_meters":37600,"station_id":"ce4bhc92rcd13ifvqetg","pricing_plan_id":"cebpf4jnsgd1na2vs0mg"},{"bike_id":"3478db76-45d7-45d3-b887-36ba03898ebd","system_id":"levelo_inurba_marseille","lat":43.23152,"lon":5.43711,"is_reserved":false,"is_disabled":false,"rental_uris":{"android":"levelo://app?vid=3478db76-45d7-45d3-b887-36ba03898ebd","ios":"levelo://app?vid=3478db76-45d7-45d3-b887-36ba03898ebd"},"vehicle_type_id":"4","last_reported":1726729736,"current_range_meters":40000,"station_id":"ce4bhmp2rcd13ifvqgog","pricing_plan_id":"cebpf4jnsgd1na2vs0mg"},{"bike_id":"7c14e0ff-1fb8-42c9-8eda-0f0c8868b0a8","system_id":"levelo_inurba_marseille","lat":43.29025,"lon":5.38121,"is_reserved":false,"is_disabled":false,"rental_uris":{"android":"levelo://app?vid=7c14e0ff-1fb8-42c9-8eda-0f0c8868b0a8","ios":"levelo://app?vid=7c14e0ff-1fb8-42c9-8eda-0f0c8868b0a8"},"vehicle_type_id":"4","last_reported":1726729736,"current_range_meters":26800,"station_id":"ce4bh4p2rcd13ifvqe1g","pricing_plan_id":"cebpf4jnsgd1na2vs0mg"},{"bike_id":"853e6708-776b-4893-bf72-13102086e3de","system_id":"levelo_inurba_marseille","lat":43.26557,"lon":5.37292,"is_reserved":false,"is_disabled":false,"rental_uris":{"android":"levelo://app?vid=853e6708-776b-4893-bf72-13102086e3de","ios":"levelo://app?vid=853e6708-776b-4893-bf72-13102086e3de"},"vehicle_type_id":"4","last_reported":1726729736,"current_range_meters":24800,"station_id":"ce4bhg12rcd13ifvqf70","pricing_plan_id":"cebpf4jnsgd1na2vs0mg"},{"bike_id":"2ddac43b-c3bc-41d6-85d4-b443eb8a122b","system_id":"levelo_inurba_marseille","lat":43.3015,"lon":5.38097,"is_reserved":false,"is_disabled":false,"rental_uris":{"android":"levelo://app?vid=2ddac43b-c3bc-41d6-85d4-b443eb8a122b","ios":"levelo://app?vid=2ddac43b-c3bc-41d6-85d4-b443eb8a122b"},"vehicle_type_id":"4","last_reported":1726729736,"current_range_meters":9600,"station_id":"ce4bgjp2rcd13ifvqbh0","pricing_plan_id":"cebpf4jnsgd1na2vs0mg"},{"bike_id":"c68065d0-098d-49a1-a6e6-6b7287bf251d","system_id":"levelo_inurba_marseille","lat":43.24186,"lon":5.39735,"is_reserved":false,"is_disabled":false,"rental_uris":{"android":"levelo://app?vid=c68065d0-098d-49a1-a6e6-6b7287bf251d","ios":"levelo://app?vid=c68065d0-098d-49a1-a6e6-6b7287bf251d"},"vehicle_type_id":"4","last_reported":1726729736,"current_range_meters":3200,"station_id":"ce4bhn12rcd13ifvqgpg","pricing_plan_id":"cebpf4jnsgd1na2vs0mg"},{"bike_id":"86d2fbbc-c469-4ea8-9619-326d1c533696","system_id":"levelo_inurba_marseille","lat":43.25488,"lon":5.37648,"is_reserved":false,"is_disabled":false,"rental_uris":{"android":"levelo://app?vid=86d2fbbc-c469-4ea8-9619-326d1c533696","ios":"levelo://app?vid=86d2fbbc-c469-4ea8-9619-326d1c533696"},"vehicle_type_id":"4","last_reported":1726729736,"current_range_meters":37600,"station_id":"ce4bhh12rcd13ifvqff0","pricing_plan_id":"cebpf4jnsgd1na2vs0mg"},{"bike_id":"67e3c1fd-cc33-408d-a8d2-3988da69d6ab","system_id":"levelo_inurba_marseille","lat":43.33612,"lon":5.41031,"is_reserved":false,"is_disabled":false,"rental_uris":{"android":"levelo://app?vid=67e3c1fd-cc33-408d-a8d2-3988da69d6ab","ios":"levelo://app?vid=67e3c1fd-cc33-408d-a8d2-3988da69d6ab"},"vehicle_type_id":"4","last_reported":1726729736,"current_range_meters":20000,"station_id":"ce4bhqh2rcd13ifvqhmg","pricing_plan_id":"cebpf4jnsgd1na2vs0mg"},{"bike_id":"a7ec649a-e17d-4f88-b0c2-2dd13506f258","system_id":"levelo_inurba_marseille","lat":43.28148,"lon":5.42641,"is_reserved":false,"is_disabled":false,"rental_uris":{"android":"levelo://app?vid=a7ec649a-e17d-4f88-b0c2-2dd13506f258","ios":"levelo://app?vid=a7ec649a-e17d-4f88-b0c2-2dd13506f258"},"vehicle_type_id":"4","last_reported":1726729736,"current_range_meters":20400,"station_id":"ce4bhnh2rcd13ifvqgug","pricing_plan_id":"cebpf4jnsgd1na2vs0mg"},{"bike_id":"b89f251d-54ba-4622-88e1-64409ea67d9d","system_id":"levelo_inurba_marseille","lat":43.30144,"lon":5.39219,"is_reserved":false,"is_disabled":false,"rental_uris":{"android":"levelo://app?vid=b89f251d-54ba-4622-88e1-64409ea67d9d","ios":"levelo://app?vid=b89f251d-54ba-4622-88e1-64409ea67d9d"},"vehicle_type_id":"4","last_reported":1726729736,"current_range_meters":27200,"station_id":"ce4bh0p2rcd13ifvqd70","pricing_plan_id":"cebpf4jnsgd1na2vs0mg"},{"bike_id":"8f63ed9f-0d3a-4ab5-baf2-ef0c4ac64707","system_id":"levelo_inurba_marseille","lat":43.29557,"lon":5.42283,"is_reserved":false,"is_disabled":false,"rental_uris":{"android":"levelo://app?vid=8f63ed9f-0d3a-4ab5-baf2-ef0c4ac64707","ios":"levelo://app?vid=8f63ed9f-0d3a-4ab5-baf2-ef0c4ac64707"},"vehicle_type_id":"4","last_reported":1726729736,"current_range_meters":40000,"station_id":"ce4bhph2rcd13ifvqhdg","pricing_plan_id":"cebpf4jnsgd1na2vs0mg"},{"bike_id":"e9b45dbc-69f6-4735-bdad-5000e78ac29b","system_id":"levelo_inurba_marseille","lat":43.29028,"lon":5.39973,"is_reserved":false,"is_disabled":false,"rental_uris":{"android":"levelo://app?vid=e9b45dbc-69f6-4735-bdad-5000e78ac29b","ios":"levelo://app?vid=e9b45dbc-69f6-4735-bdad-5000e78ac29b"},"vehicle_type_id":"4","last_reported":1726729736,"current_range_meters":34800,"station_id":"ce4bh392rcd13ifvqdm0","pricing_plan_id":"cebpf4jnsgd1na2vs0mg"},{"bike_id":"beb15bd0-b449-4862-b0ef-bc6b9508122c","system_id":"levelo_inurba_marseille","lat":43.27617,"lon":5.36109,"is_reserved":false,"is_disabled":false,"rental_uris":{"android":"levelo://app?vid=beb15bd0-b449-4862-b0ef-bc6b9508122c","ios":"levelo://app?vid=beb15bd0-b449-4862-b0ef-bc6b9508122c"},"vehicle_type_id":"4","last_reported":1726729736,"current_range_meters":4400,"station_id":"ce4bgj92rcd13ifvqbe0","pricing_plan_id":"cebpf4jnsgd1na2vs0mg"},{"bike_id":"a78358d4-2e0d-4d1b-9800-f677344b73bb","system_id":"levelo_inurba_marseille","lat":43.26956,"lon":5.38627,"is_reserved":false,"is_disabled":false,"rental_uris":{"android":"levelo://app?vid=a78358d4-2e0d-4d1b-9800-f677344b73bb","ios":"levelo://app?vid=a78358d4-2e0d-4d1b-9800-f677344b73bb"},"vehicle_type_id":"4","last_reported":1726729736,"current_range_meters":36400,"station_id":"ce4bhh92rcd13ifvqfh0","pricing_plan_id":"cebpf4jnsgd1na2vs0mg"},{"bike_id":"74875dfe-56f3-4674-9984-6b38cdebd68c","system_id":"levelo_inurba_marseille","lat":43.24651,"lon":5.38892,"is_reserved":false,"is_disabled":false,"rental_uris":{"android":"levelo://app?vid=74875dfe-56f3-4674-9984-6b38cdebd68c","ios":"levelo://app?vid=74875dfe-56f3-4674-9984-6b38cdebd68c"},"vehicle_type_id":"4","last_reported":1726729736,"current_range_meters":33600,"station_id":"ce4bhg12rcd13ifvqf60","pricing_plan_id":"cebpf4jnsgd1na2vs0mg"},{"bike_id":"c4c8acd1-ff3d-4806-8174-cea36604d882","system_id":"levelo_inurba_marseille","lat":43.29949,"lon":5.41318,"is_reserved":false,"is_disabled":false,"rental_uris":{"android":"levelo://app?vid=c4c8acd1-ff3d-4806-8174-cea36604d882","ios":"levelo://app?vid=c4c8acd1-ff3d-4806-8174-cea36604d882"},"vehicle_type_id":"4","last_reported":1726729736,"current_range_meters":32000,"station_id":"ce4bhp12rcd13ifvqh9g","pricing_plan_id":"cebpf4jnsgd1na2vs0mg"},{"bike_id":"7296939a-e07b-445c-bd52-40cde8ccbba2","system_id":"levelo_inurba_marseille","lat":43.26023,"lon":5.3755,"is_reserved":false,"is_disabled":false,"rental_uris":{"android":"levelo://app?vid=7296939a-e07b-445c-bd52-40cde8ccbba2","ios":"levelo://app?vid=7296939a-e07b-445c-bd52-40cde8ccbba2"},"vehicle_type_id":"4","last_reported":1726729736,"current_range_meters":38400,"station_id":"ce4bhgh2rcd13ifvqfa0","pricing_plan_id":"cebpf4jnsgd1na2vs0mg"},{"bike_id":"9ed9a460-9271-4e06-aa0c-9eb70f42c1a7","system_id":"levelo_inurba_marseille","lat":43.2996,"lon":5.41313,"is_reserved":false,"is_disabled":false,"rental_uris":{"android":"levelo://app?vid=9ed9a460-9271-4e06-aa0c-9eb70f42c1a7","ios":"levelo://app?vid=9ed9a460-9271-4e06-aa0c-9eb70f42c1a7"},"vehicle_type_id":"4","last_reported":1726729736,"current_range_meters":14400,"station_id":"ce4bhp12rcd13ifvqh9g","pricing_plan_id":"cebpf4jnsgd1na2vs0mg"},{"bike_id":"a84ccf15-a62f-4b0b-9163-e457f54dff33","system_id":"levelo_inurba_marseille","lat":43.28156,"lon":5.42637,"is_reserved":false,"is_disabled":false,"rental_uris":{"android":"levelo://app?vid=a84ccf15-a62f-4b0b-9163-e457f54dff33","ios":"levelo://app?vid=a84ccf15-a62f-4b0b-9163-e457f54dff33"},"vehicle_type_id":"4","last_reported":1726729736,"current_range_meters":10000,"station_id":"ce4bhnh2rcd13ifvqgug","pricing_plan_id":"cebpf4jnsgd1na2vs0mg"},{"bike_id":"e669bd6c-abbe-4921-ba26-9fc661d40bbb","system_id":"levelo_inurba_marseille","lat":43.30603,"lon":5.372229,"is_reserved":false,"is_disabled":false,"rental_uris":{"android":"levelo://app?vid=e669bd6c-abbe-4921-ba26-9fc661d40bbb","ios":"levelo://app?vid=e669bd6c-abbe-4921-ba26-9fc661d40bbb"},"vehicle_type_id":"4","last_reported":1726729736,"current_range_meters":36400,"station_id":"ce4bgs12rcd13ifvqcag","pricing_plan_id":"cebpf4jnsgd1na2vs0mg"},{"bike_id":"51523a7c-bb1e-41a9-afc2-3721cc37c73c","system_id":"levelo_inurba_marseille","lat":43.2582,"lon":5.3943,"is_reserved":false,"is_disabled":false,"rental_uris":{"android":"levelo://app?vid=51523a7c-bb1e-41a9-afc2-3721cc37c73c","ios":"levelo://app?vid=51523a7c-bb1e-41a9-afc2-3721cc37c73c"},"vehicle_type_id":"4","last_reported":1726729736,"current_range_meters":38000,"station_id":"ce4bhip2rcd13ifvqft0","pricing_plan_id":"cebpf4jnsgd1na2vs0mg"},{"bike_id":"356cfe7d-8a0f-4d85-a739-7c2ea65146a0","system_id":"levelo_inurba_marseille","lat":43.24071,"lon":5.37745,"is_reserved":false,"is_disabled":false,"rental_uris":{"android":"levelo://app?vid=356cfe7d-8a0f-4d85-a739-7c2ea65146a0","ios":"levelo://app?vid=356cfe7d-8a0f-4d85-a739-7c2ea65146a0"},"vehicle_type_id":"4","last_reported":1726729736,"current_range_meters":25600,"station_id":"ce4bhnp2rcd13ifvqgvg","pricing_plan_id":"cebpf4jnsgd1na2vs0mg"},{"bike_id":"0c903ba0-b4e3-4fea-8c51-2aa3188cd2ff","system_id":"levelo_inurba_marseille","lat":43.27489,"lon":5.42459,"is_reserved":false,"is_disabled":false,"rental_uris":{"android":"levelo://app?vid=0c903ba0-b4e3-4fea-8c51-2aa3188cd2ff","ios":"levelo://app?vid=0c903ba0-b4e3-4fea-8c51-2aa3188cd2ff"},"vehicle_type_id":"4","last_reported":1726729736,"current_range_meters":30000,"station_id":"ce4bhn92rcd13ifvqgrg","pricing_plan_id":"cebpf4jnsgd1na2vs0mg"},{"bike_id":"376e4ba1-7a4d-4c07-bc97-59fafac349c4","system_id":"levelo_inurba_marseille","lat":43.25005,"lon":5.38924,"is_reserved":false,"is_disabled":false,"rental_uris":{"android":"levelo://app?vid=376e4ba1-7a4d-4c07-bc97-59fafac349c4","ios":"levelo://app?vid=376e4ba1-7a4d-4c07-bc97-59fafac349c4"},"vehicle_type_id":"4","last_reported":1726729736,"current_range_meters":20400,"station_id":"ce4bhgp2rcd13ifvqfd0","pricing_plan_id":"cebpf4jnsgd1na2vs0mg"},{"bike_id":"62d88a18-9599-41b9-b69a-13ea0d5520d5","system_id":"levelo_inurba_marseille","lat":43.29602,"lon":5.37699,"is_reserved":false,"is_disabled":false,"rental_uris":{"android":"levelo://app?vid=62d88a18-9599-41b9-b69a-13ea0d5520d5","ios":"levelo://app?vid=62d88a18-9599-41b9-b69a-13ea0d5520d5"},"vehicle_type_id":"4","last_reported":1726729736,"current_range_meters":14000,"station_id":"ce4bgi92rcd13ifvqb90","pricing_plan_id":"cebpf4jnsgd1na2vs0mg"},{"bike_id":"347897f0-b613-4602-b560-73f4c94dd261","system_id":"levelo_inurba_marseille","lat":43.2407,"lon":5.37757,"is_reserved":false,"is_disabled":false,"rental_uris":{"android":"levelo://app?vid=347897f0-b613-4602-b560-73f4c94dd261","ios":"levelo://app?vid=347897f0-b613-4602-b560-73f4c94dd261"},"vehicle_type_id":"4","last_reported":1726729736,"current_range_meters":36800,"station_id":"ce4bhnp2rcd13ifvqgvg","pricing_plan_id":"cebpf4jnsgd1na2vs0mg"},{"bike_id":"4637f38a-faa6-4c8b-ae8d-2112023d8ec3","system_id":"levelo_inurba_marseille","lat":43.25581,"lon":5.38226,"is_reserved":false,"is_disabled":false,"rental_uris":{"android":"levelo://app?vid=4637f38a-faa6-4c8b-ae8d-2112023d8ec3","ios":"levelo://app?vid=4637f38a-faa6-4c8b-ae8d-2112023d8ec3"},"vehicle_type_id":"4","last_reported":1726729736,"current_range_meters":40000,"station_id":"ce4bhih2rcd13ifvqfs0","pricing_plan_id":"cebpf4jnsgd1na2vs0mg"},{"bike_id":"938a1d8e-8f7a-4dbb-a7f7-9b765b9ff51b","system_id":"levelo_inurba_marseille","lat":43.27618,"lon":5.36109,"is_reserved":false,"is_disabled":false,"rental_uris":{"android":"levelo://app?vid=938a1d8e-8f7a-4dbb-a7f7-9b765b9ff51b","ios":"levelo://app?vid=938a1d8e-8f7a-4dbb-a7f7-9b765b9ff51b"},"vehicle_type_id":"4","last_reported":1726729736,"current_range_meters":38800,"station_id":"ce4bgj92rcd13ifvqbe0","pricing_plan_id":"cebpf4jnsgd1na2vs0mg"},{"bike_id":"c14df5ec-5654-4a36-8e67-00ca4eb77264","system_id":"levelo_inurba_marseille","lat":43.30464,"lon":5.37908,"is_reserved":false,"is_disabled":false,"rental_uris":{"android":"levelo://app?vid=c14df5ec-5654-4a36-8e67-00ca4eb77264","ios":"levelo://app?vid=c14df5ec-5654-4a36-8e67-00ca4eb77264"},"vehicle_type_id":"4","last_reported":1726729736,"current_range_meters":38000,"station_id":"ce4bgup2rcd13ifvqcn0","pricing_plan_id":"cebpf4jnsgd1na2vs0mg"},{"bike_id":"aaeae615-2194-47c5-84e0-363507d6e824","system_id":"levelo_inurba_marseille","lat":43.32287,"lon":5.38274,"is_reserved":false,"is_disabled":false,"rental_uris":{"android":"levelo://app?vid=aaeae615-2194-47c5-84e0-363507d6e824","ios":"levelo://app?vid=aaeae615-2194-47c5-84e0-363507d6e824"},"vehicle_type_id":"4","last_reported":1726729736,"current_range_meters":24800,"station_id":"ce4bhr12rcd13ifvqhqg","pricing_plan_id":"cebpf4jnsgd1na2vs0mg"},{"bike_id":"1397a30c-d848-4ca4-b952-1fb1c2bd8c48","system_id":"levelo_inurba_marseille","lat":43.30158,"lon":5.38075,"is_reserved":false,"is_disabled":false,"rental_uris":{"android":"levelo://app?vid=1397a30c-d848-4ca4-b952-1fb1c2bd8c48","ios":"levelo://app?vid=1397a30c-d848-4ca4-b952-1fb1c2bd8c48"},"vehicle_type_id":"4","last_reported":1726729736,"current_range_meters":14800,"station_id":"ce4bgjp2rcd13ifvqbh0","pricing_plan_id":"cebpf4jnsgd1na2vs0mg"},{"bike_id":"6bea07ff-b7cf-43d7-9614-efd55ed0f2d6","system_id":"levelo_inurba_marseille","lat":43.24649,"lon":5.38888,"is_reserved":false,"is_disabled":false,"rental_uris":{"android":"levelo://app?vid=6bea07ff-b7cf-43d7-9614-efd55ed0f2d6","ios":"levelo://app?vid=6bea07ff-b7cf-43d7-9614-efd55ed0f2d6"},"vehicle_type_id":"4","last_reported":1726729736,"current_range_meters":27600,"station_id":"ce4bhg12rcd13ifvqf60","pricing_plan_id":"cebpf4jnsgd1na2vs0mg"},{"bike_id":"1b0fc505-0b4f-446a-b199-efc90b409013","system_id":"levelo_inurba_marseille","lat":43.29715,"lon":5.376909,"is_reserved":false,"is_disabled":false,"rental_uris":{"android":"levelo://app?vid=1b0fc505-0b4f-446a-b199-efc90b409013","ios":"levelo://app?vid=1b0fc505-0b4f-446a-b199-efc90b409013"},"vehicle_type_id":"4","last_reported":1726729736,"current_range_meters":12000,"station_id":"ce4bgjh2rcd13ifvqbf0","pricing_plan_id":"cebpf4jnsgd1na2vs0mg"},{"bike_id":"667e0fe2-e718-4e5e-9981-7e0ecdc8ab33","system_id":"levelo_inurba_marseille","lat":43.3149,"lon":5.37306,"is_reserved":false,"is_disabled":false,"rental_uris":{"android":"levelo://app?vid=667e0fe2-e718-4e5e-9981-7e0ecdc8ab33","ios":"levelo://app?vid=667e0fe2-e718-4e5e-9981-7e0ecdc8ab33"},"vehicle_type_id":"4","last_reported":1726729736,"current_range_meters":24800,"station_id":"ce4bgt12rcd13ifvqcd0","pricing_plan_id":"cebpf4jnsgd1na2vs0mg"},{"bike_id":"9be94feb-a495-4651-8693-da9a946157ae","system_id":"levelo_inurba_marseille","lat":43.25008,"lon":5.38919,"is_reserved":false,"is_disabled":false,"rental_uris":{"android":"levelo://app?vid=9be94feb-a495-4651-8693-da9a946157ae","ios":"levelo://app?vid=9be94feb-a495-4651-8693-da9a946157ae"},"vehicle_type_id":"4","last_reported":1726729736,"current_range_meters":16400,"station_id":"ce4bhgp2rcd13ifvqfd0","pricing_plan_id":"cebpf4jnsgd1na2vs0mg"},{"bike_id":"3bfb875a-ccff-46c4-8310-56d7f1dfa5f2","system_id":"levelo_inurba_marseille","lat":43.29793,"lon":5.38104,"is_reserved":false,"is_disabled":false,"rental_uris":{"android":"levelo://app?vid=3bfb875a-ccff-46c4-8310-56d7f1dfa5f2","ios":"levelo://app?vid=3bfb875a-ccff-46c4-8310-56d7f1dfa5f2"},"vehicle_type_id":"4","last_reported":1726729736,"current_range_meters":24000,"station_id":"ce4bgip2rcd13ifvqbb0","pricing_plan_id":"cebpf4jnsgd1na2vs0mg"},{"bike_id":"5140205b-3fbb-4899-899b-f0c86015351b","system_id":"levelo_inurba_marseille","lat":43.28935,"lon":5.36399,"is_reserved":false,"is_disabled":false,"rental_uris":{"android":"levelo://app?vid=5140205b-3fbb-4899-899b-f0c86015351b","ios":"levelo://app?vid=5140205b-3fbb-4899-899b-f0c86015351b"},"vehicle_type_id":"4","last_reported":1726729736,"current_range_meters":17600,"station_id":"ce4bhc92rcd13ifvqetg","pricing_plan_id":"cebpf4jnsgd1na2vs0mg"},{"bike_id":"a5cd8307-20cc-4eb9-b57d-a4f6fffd25c4","system_id":"levelo_inurba_marseille","lat":43.26954,"lon":5.38627,"is_reserved":false,"is_disabled":false,"rental_uris":{"android":"levelo://app?vid=a5cd8307-20cc-4eb9-b57d-a4f6fffd25c4","ios":"levelo://app?vid=a5cd8307-20cc-4eb9-b57d-a4f6fffd25c4"},"vehicle_type_id":"4","last_reported":1726729736,"current_range_meters":6800,"station_id":"ce4bhh92rcd13ifvqfh0","pricing_plan_id":"cebpf4jnsgd1na2vs0mg"},{"bike_id":"5853071a-a7de-43ad-87c8-982495d79fa0","system_id":"levelo_inurba_marseille","lat":43.25009,"lon":5.38916,"is_reserved":false,"is_disabled":false,"rental_uris":{"android":"levelo://app?vid=5853071a-a7de-43ad-87c8-982495d79fa0","ios":"levelo://app?vid=5853071a-a7de-43ad-87c8-982495d79fa0"},"vehicle_type_id":"4","last_reported":1726729736,"current_range_meters":36000,"station_id":"ce4bhgp2rcd13ifvqfd0","pricing_plan_id":"cebpf4jnsgd1na2vs0mg"},{"bike_id":"ef322679-70c0-4352-b205-57ceeb11a108","system_id":"levelo_inurba_marseille","lat":43.29032,"lon":5.39971,"is_reserved":false,"is_disabled":false,"rental_uris":{"android":"levelo://app?vid=ef322679-70c0-4352-b205-57ceeb11a108","ios":"levelo://app?vid=ef322679-70c0-4352-b205-57ceeb11a108"},"vehicle_type_id":"4","last_reported":1726729736,"current_range_meters":38800,"station_id":"ce4bh392rcd13ifvqdm0","pricing_plan_id":"cebpf4jnsgd1na2vs0mg"},{"bike_id":"bb32fa81-fe19-44a2-aa6a-35c563523984","system_id":"levelo_inurba_marseille","lat":43.3046,"lon":5.37907,"is_reserved":false,"is_disabled":false,"rental_uris":{"android":"levelo://app?vid=bb32fa81-fe19-44a2-aa6a-35c563523984","ios":"levelo://app?vid=bb32fa81-fe19-44a2-aa6a-35c563523984"},"vehicle_type_id":"4","last_reported":1726729736,"current_range_meters":7200,"station_id":"ce4bgup2rcd13ifvqcn0","pricing_plan_id":"cebpf4jnsgd1na2vs0mg"},{"bike_id":"2f6944ac-d2f4-4834-9e1f-ea7af8e3011d","system_id":"levelo_inurba_marseille","lat":43.29599,"lon":5.376495,"is_reserved":false,"is_disabled":false,"rental_uris":{"android":"levelo://app?vid=2f6944ac-d2f4-4834-9e1f-ea7af8e3011d","ios":"levelo://app?vid=2f6944ac-d2f4-4834-9e1f-ea7af8e3011d"},"vehicle_type_id":"4","last_reported":1726729736,"current_range_meters":23200,"station_id":"ce4bgkp2rcd13ifvqbmg","pricing_plan_id":"cebpf4jnsgd1na2vs0mg"},{"bike_id":"51873bb7-eddc-4961-b863-ce6e85ff8c89","system_id":"levelo_inurba_marseille","lat":43.24661,"lon":5.3816,"is_reserved":false,"is_disabled":false,"rental_uris":{"android":"levelo://app?vid=51873bb7-eddc-4961-b863-ce6e85ff8c89","ios":"levelo://app?vid=51873bb7-eddc-4961-b863-ce6e85ff8c89"},"vehicle_type_id":"4","last_reported":1726729736,"current_range_meters":32400,"station_id":"ce4bhih2rcd13ifvqfr0","pricing_plan_id":"cebpf4jnsgd1na2vs0mg"},{"bike_id":"02bb3f37-0be5-4a53-8ab2-0ad1754d6f88","system_id":"levelo_inurba_marseille","lat":43.30277,"lon":5.37705,"is_reserved":false,"is_disabled":false,"rental_uris":{"android":"levelo://app?vid=02bb3f37-0be5-4a53-8ab2-0ad1754d6f88","ios":"levelo://app?vid=02bb3f37-0be5-4a53-8ab2-0ad1754d6f88"},"vehicle_type_id":"4","last_reported":1726729736,"current_range_meters":38800,"station_id":"ce4bguh2rcd13ifvqcj0","pricing_plan_id":"cebpf4jnsgd1na2vs0mg"},{"bike_id":"3d84e86d-96d9-4c86-b58d-9ab1cd7654db","system_id":"levelo_inurba_marseille","lat":43.2755,"lon":5.38436,"is_reserved":false,"is_disabled":false,"rental_uris":{"android":"levelo://app?vid=3d84e86d-96d9-4c86-b58d-9ab1cd7654db","ios":"levelo://app?vid=3d84e86d-96d9-4c86-b58d-9ab1cd7654db"},"vehicle_type_id":"4","last_reported":1726729736,"current_range_meters":35200,"station_id":"ce4bhh92rcd13ifvqfi0","pricing_plan_id":"cebpf4jnsgd1na2vs0mg"},{"bike_id":"7f85c424-76bf-4e62-aa08-945834d9fa36","system_id":"levelo_inurba_marseille","lat":43.3047,"lon":5.37903,"is_reserved":false,"is_disabled":false,"rental_uris":{"android":"levelo://app?vid=7f85c424-76bf-4e62-aa08-945834d9fa36","ios":"levelo://app?vid=7f85c424-76bf-4e62-aa08-945834d9fa36"},"vehicle_type_id":"4","last_reported":1726729736,"current_range_meters":39200,"station_id":"ce4bgup2rcd13ifvqcn0","pricing_plan_id":"cebpf4jnsgd1na2vs0mg"},{"bike_id":"5c59cc01-d461-43c5-8a64-d13f65e90a88","system_id":"levelo_inurba_marseille","lat":43.30903,"lon":5.36854,"is_reserved":false,"is_disabled":false,"rental_uris":{"android":"levelo://app?vid=5c59cc01-d461-43c5-8a64-d13f65e90a88","ios":"levelo://app?vid=5c59cc01-d461-43c5-8a64-d13f65e90a88"},"vehicle_type_id":"4","last_reported":1726729736,"current_range_meters":8800,"station_id":"ce4bgn92rcd13ifvqbvg","pricing_plan_id":"cebpf4jnsgd1na2vs0mg"},{"bike_id":"55fed244-caf4-46e6-99fc-fcd916ddb5b7","system_id":"levelo_inurba_marseille","lat":43.23189,"lon":5.35545,"is_reserved":false,"is_disabled":false,"rental_uris":{"android":"levelo://app?vid=55fed244-caf4-46e6-99fc-fcd916ddb5b7","ios":"levelo://app?vid=55fed244-caf4-46e6-99fc-fcd916ddb5b7"},"vehicle_type_id":"4","last_reported":1726729736,"current_range_meters":20400,"station_id":"ce4bhu92rcd13ifvqi70","pricing_plan_id":"cebpf4jnsgd1na2vs0mg"},{"bike_id":"180adcd2-2c07-4d51-b7cb-0c8da7c9902f","system_id":"levelo_inurba_marseille","lat":43.26206,"lon":5.37929,"is_reserved":false,"is_disabled":false,"rental_uris":{"android":"levelo://app?vid=180adcd2-2c07-4d51-b7cb-0c8da7c9902f","ios":"levelo://app?vid=180adcd2-2c07-4d51-b7cb-0c8da7c9902f"},"vehicle_type_id":"4","last_reported":1726729736,"current_range_meters":25200,"station_id":"ce4bhjp2rcd13ifvqg90","pricing_plan_id":"cebpf4jnsgd1na2vs0mg"},{"bike_id":"4d6f430e-a89c-4f5a-a87a-ca0e6d05c74c","system_id":"levelo_inurba_marseille","lat":43.25996,"lon":5.40817,"is_reserved":false,"is_disabled":false,"rental_uris":{"android":"levelo://app?vid=4d6f430e-a89c-4f5a-a87a-ca0e6d05c74c","ios":"levelo://app?vid=4d6f430e-a89c-4f5a-a87a-ca0e6d05c74c"},"vehicle_type_id":"4","last_reported":1726729736,"current_range_meters":30800,"station_id":"","pricing_plan_id":"cebpf4jnsgd1na2vs0mg"},{"bike_id":"bf9442d2-dc2d-46e0-b0a5-1cae89af23b8","system_id":"levelo_inurba_marseille","lat":43.30122,"lon":5.38788,"is_reserved":false,"is_disabled":false,"rental_uris":{"android":"levelo://app?vid=bf9442d2-dc2d-46e0-b0a5-1cae89af23b8","ios":"levelo://app?vid=bf9442d2-dc2d-46e0-b0a5-1cae89af23b8"},"vehicle_type_id":"4","last_reported":1726729736,"current_range_meters":32000,"station_id":"ce4bghh2rcd13ifvqb60","pricing_plan_id":"cebpf4jnsgd1na2vs0mg"},{"bike_id":"080f94cd-b9ba-4839-83f7-bf5668e30024","system_id":"levelo_inurba_marseille","lat":43.24075,"lon":5.37761,"is_reserved":false,"is_disabled":false,"rental_uris":{"android":"levelo://app?vid=080f94cd-b9ba-4839-83f7-bf5668e30024","ios":"levelo://app?vid=080f94cd-b9ba-4839-83f7-bf5668e30024"},"vehicle_type_id":"4","last_reported":1726729736,"current_range_meters":28400,"station_id":"ce4bhnp2rcd13ifvqgvg","pricing_plan_id":"cebpf4jnsgd1na2vs0mg"},{"bike_id":"1f1ba851-9790-4bd3-8136-42afe5898492","system_id":"levelo_inurba_marseille","lat":43.30553,"lon":5.36702,"is_reserved":false,"is_disabled":false,"rental_uris":{"android":"levelo://app?vid=1f1ba851-9790-4bd3-8136-42afe5898492","ios":"levelo://app?vid=1f1ba851-9790-4bd3-8136-42afe5898492"},"vehicle_type_id":"4","last_reported":1726729736,"current_range_meters":25200,"station_id":"ce4bgrp2rcd13ifvqc9g","pricing_plan_id":"cebpf4jnsgd1na2vs0mg"},{"bike_id":"a6ff2ad2-2726-4e8c-8205-dd5d990d28fa","system_id":"levelo_inurba_marseille","lat":43.299639,"lon":5.384923,"is_reserved":false,"is_disabled":false,"rental_uris":{"android":"levelo://app?vid=a6ff2ad2-2726-4e8c-8205-dd5d990d28fa","ios":"levelo://app?vid=a6ff2ad2-2726-4e8c-8205-dd5d990d28fa"},"vehicle_type_id":"4","last_reported":1726729736,"current_range_meters":8400,"station_id":"ce4bgj92rcd13ifvqbd0","pricing_plan_id":"cebpf4jnsgd1na2vs0mg"},{"bike_id":"ee68800c-f319-4020-b038-a34d6349dff4","system_id":"levelo_inurba_marseille","lat":43.23154,"lon":5.43708,"is_reserved":false,"is_disabled":false,"rental_uris":{"android":"levelo://app?vid=ee68800c-f319-4020-b038-a34d6349dff4","ios":"levelo://app?vid=ee68800c-f319-4020-b038-a34d6349dff4"},"vehicle_type_id":"4","last_reported":1726729736,"current_range_meters":19200,"station_id":"ce4bhmp2rcd13ifvqgog","pricing_plan_id":"cebpf4jnsgd1na2vs0mg"},{"bike_id":"709f5786-68ec-4473-86db-9cc24001e5ee","system_id":"levelo_inurba_marseille","lat":43.28168,"lon":5.42632,"is_reserved":false,"is_disabled":false,"rental_uris":{"android":"levelo://app?vid=709f5786-68ec-4473-86db-9cc24001e5ee","ios":"levelo://app?vid=709f5786-68ec-4473-86db-9cc24001e5ee"},"vehicle_type_id":"4","last_reported":1726729736,"current_range_meters":27200,"station_id":"ce4bhnh2rcd13ifvqgug","pricing_plan_id":"cebpf4jnsgd1na2vs0mg"},{"bike_id":"b1d6a91f-837f-4163-af80-6d333d9c1c9e","system_id":"levelo_inurba_marseille","lat":43.32535,"lon":5.41442,"is_reserved":false,"is_disabled":false,"rental_uris":{"android":"levelo://app?vid=b1d6a91f-837f-4163-af80-6d333d9c1c9e","ios":"levelo://app?vid=b1d6a91f-837f-4163-af80-6d333d9c1c9e"},"vehicle_type_id":"4","last_reported":1726729736,"current_range_meters":17200,"station_id":"ce4bhq12rcd13ifvqhhg","pricing_plan_id":"cebpf4jnsgd1na2vs0mg"},{"bike_id":"3e99e2ac-cdfd-4893-be50-20dbb5272dd6","system_id":"levelo_inurba_marseille","lat":43.30796,"lon":5.43534,"is_reserved":false,"is_disabled":false,"rental_uris":{"android":"levelo://app?vid=3e99e2ac-cdfd-4893-be50-20dbb5272dd6","ios":"levelo://app?vid=3e99e2ac-cdfd-4893-be50-20dbb5272dd6"},"vehicle_type_id":"4","last_reported":1726729736,"current_range_meters":38400,"station_id":"ce4bhph2rcd13ifvqheg","pricing_plan_id":"cebpf4jnsgd1na2vs0mg"},{"bike_id":"6dd65f80-bc12-4cf3-ade3-78fd80b49797","system_id":"levelo_inurba_marseille","lat":43.279394,"lon":5.410464,"is_reserved":false,"is_disabled":false,"rental_uris":{"android":"levelo://app?vid=6dd65f80-bc12-4cf3-ade3-78fd80b49797","ios":"levelo://app?vid=6dd65f80-bc12-4cf3-ade3-78fd80b49797"},"vehicle_type_id":"4","last_reported":1726729736,"current_range_meters":32400,"station_id":"ce4bhnp2rcd13ifvqh0g","pricing_plan_id":"cebpf4jnsgd1na2vs0mg"},{"bike_id":"e9c12d1b-6da0-4cc3-83bb-95bd5eb4adbb","system_id":"levelo_inurba_marseille","lat":43.30148,"lon":5.37415,"is_reserved":false,"is_disabled":false,"rental_uris":{"android":"levelo://app?vid=e9c12d1b-6da0-4cc3-83bb-95bd5eb4adbb","ios":"levelo://app?vid=e9c12d1b-6da0-4cc3-83bb-95bd5eb4adbb"},"vehicle_type_id":"4","last_reported":1726729736,"current_range_meters":38000,"station_id":"ce4bgs92rcd13ifvqcc0","pricing_plan_id":"cebpf4jnsgd1na2vs0mg"},{"bike_id":"f1790ff8-1ddc-4c5f-9bb2-716596b83d20","system_id":"levelo_inurba_marseille","lat":43.28035,"lon":5.36937,"is_reserved":false,"is_disabled":false,"rental_uris":{"android":"levelo://app?vid=f1790ff8-1ddc-4c5f-9bb2-716596b83d20","ios":"levelo://app?vid=f1790ff8-1ddc-4c5f-9bb2-716596b83d20"},"vehicle_type_id":"4","last_reported":1726729736,"current_range_meters":20000,"station_id":"ce4bha12rcd13ifvqef0","pricing_plan_id":"cebpf4jnsgd1na2vs0mg"},{"bike_id":"2cbb6dd5-2ec8-4ba5-808a-c5301f897d27","system_id":"levelo_inurba_marseille","lat":43.23957,"lon":5.36627,"is_reserved":false,"is_disabled":false,"rental_uris":{"android":"levelo://app?vid=2cbb6dd5-2ec8-4ba5-808a-c5301f897d27","ios":"levelo://app?vid=2cbb6dd5-2ec8-4ba5-808a-c5301f897d27"},"vehicle_type_id":"4","last_reported":1726729736,"current_range_meters":24400,"station_id":"ce4bhi12rcd13ifvqfp0","pricing_plan_id":"cebpf4jnsgd1na2vs0mg"},{"bike_id":"60a6f6c2-c23b-4cfd-a0cb-c3d4101e03a6","system_id":"levelo_inurba_marseille","lat":43.29845,"lon":5.36258,"is_reserved":false,"is_disabled":false,"rental_uris":{"android":"levelo://app?vid=60a6f6c2-c23b-4cfd-a0cb-c3d4101e03a6","ios":"levelo://app?vid=60a6f6c2-c23b-4cfd-a0cb-c3d4101e03a6"},"vehicle_type_id":"4","last_reported":1726729736,"current_range_meters":28400,"station_id":"ce4bgpp2rcd13ifvqc3g","pricing_plan_id":"cebpf4jnsgd1na2vs0mg"},{"bike_id":"a271a571-7400-40e0-8e71-e83076131bee","system_id":"levelo_inurba_marseille","lat":43.24074,"lon":5.37745,"is_reserved":false,"is_disabled":false,"rental_uris":{"android":"levelo://app?vid=a271a571-7400-40e0-8e71-e83076131bee","ios":"levelo://app?vid=a271a571-7400-40e0-8e71-e83076131bee"},"vehicle_type_id":"4","last_reported":1726729736,"current_range_meters":35200,"station_id":"ce4bhnp2rcd13ifvqgvg","pricing_plan_id":"cebpf4jnsgd1na2vs0mg"},{"bike_id":"92302f36-89d5-4600-9a31-638bb75a4857","system_id":"levelo_inurba_marseille","lat":43.33607,"lon":5.41033,"is_reserved":false,"is_disabled":false,"rental_uris":{"android":"levelo://app?vid=92302f36-89d5-4600-9a31-638bb75a4857","ios":"levelo://app?vid=92302f36-89d5-4600-9a31-638bb75a4857"},"vehicle_type_id":"4","last_reported":1726729736,"current_range_meters":36800,"station_id":"ce4bhqh2rcd13ifvqhmg","pricing_plan_id":"cebpf4jnsgd1na2vs0mg"},{"bike_id":"3d933b8e-67b6-4b5d-be72-7523e1cd1af2","system_id":"levelo_inurba_marseille","lat":43.28474,"lon":5.35882,"is_reserved":false,"is_disabled":false,"rental_uris":{"android":"levelo://app?vid=3d933b8e-67b6-4b5d-be72-7523e1cd1af2","ios":"levelo://app?vid=3d933b8e-67b6-4b5d-be72-7523e1cd1af2"},"vehicle_type_id":"4","last_reported":1726729736,"current_range_meters":30000,"station_id":"ce4bhah2rcd13ifvqei0","pricing_plan_id":"cebpf4jnsgd1na2vs0mg"},{"bike_id":"c470c003-119a-4e47-a69b-9c35c378ad10","system_id":"levelo_inurba_marseille","lat":43.240705,"lon":5.377591,"is_reserved":false,"is_disabled":false,"rental_uris":{"android":"levelo://app?vid=c470c003-119a-4e47-a69b-9c35c378ad10","ios":"levelo://app?vid=c470c003-119a-4e47-a69b-9c35c378ad10"},"vehicle_type_id":"4","last_reported":1726729736,"current_range_meters":37600,"station_id":"ce4bhnp2rcd13ifvqgvg","pricing_plan_id":"cebpf4jnsgd1na2vs0mg"},{"bike_id":"cbdee263-28c4-4479-ae53-620b05016a58","system_id":"levelo_inurba_marseille","lat":43.31331,"lon":5.36733,"is_reserved":false,"is_disabled":false,"rental_uris":{"android":"levelo://app?vid=cbdee263-28c4-4479-ae53-620b05016a58","ios":"levelo://app?vid=cbdee263-28c4-4479-ae53-620b05016a58"},"vehicle_type_id":"4","last_reported":1726729736,"current_range_meters":31200,"station_id":"ce4bgr92rcd13ifvqc6g","pricing_plan_id":"cebpf4jnsgd1na2vs0mg"},{"bike_id":"52fffaf1-dd98-4e0a-a39d-48011512624f","system_id":"levelo_inurba_marseille","lat":43.25498,"lon":5.3765,"is_reserved":false,"is_disabled":false,"rental_uris":{"android":"levelo://app?vid=52fffaf1-dd98-4e0a-a39d-48011512624f","ios":"levelo://app?vid=52fffaf1-dd98-4e0a-a39d-48011512624f"},"vehicle_type_id":"4","last_reported":1726729736,"current_range_meters":30000,"station_id":"ce4bhh12rcd13ifvqff0","pricing_plan_id":"cebpf4jnsgd1na2vs0mg"},{"bike_id":"f1283246-4829-4ecf-8de4-be062f983c8f","system_id":"levelo_inurba_marseille","lat":43.32366,"lon":5.38884,"is_reserved":false,"is_disabled":false,"rental_uris":{"android":"levelo://app?vid=f1283246-4829-4ecf-8de4-be062f983c8f","ios":"levelo://app?vid=f1283246-4829-4ecf-8de4-be062f983c8f"},"vehicle_type_id":"4","last_reported":1726729736,"current_range_meters":22400,"station_id":"ce4bhqp2rcd13ifvqhog","pricing_plan_id":"cebpf4jnsgd1na2vs0mg"},{"bike_id":"9c06b0ba-893a-4cb7-8edb-8678fd692799","system_id":"levelo_inurba_marseille","lat":43.2587,"lon":5.39887,"is_reserved":false,"is_disabled":false,"rental_uris":{"android":"levelo://app?vid=9c06b0ba-893a-4cb7-8edb-8678fd692799","ios":"levelo://app?vid=9c06b0ba-893a-4cb7-8edb-8678fd692799"},"vehicle_type_id":"4","last_reported":1726729736,"current_range_meters":29600,"station_id":"ce4bhl92rcd13ifvqghg","pricing_plan_id":"cebpf4jnsgd1na2vs0mg"},{"bike_id":"37804655-3b91-46a3-b91b-1ceef89e4f83","system_id":"levelo_inurba_marseille","lat":43.28461,"lon":5.35887,"is_reserved":false,"is_disabled":false,"rental_uris":{"android":"levelo://app?vid=37804655-3b91-46a3-b91b-1ceef89e4f83","ios":"levelo://app?vid=37804655-3b91-46a3-b91b-1ceef89e4f83"},"vehicle_type_id":"4","last_reported":1726729736,"current_range_meters":4400,"station_id":"ce4bhah2rcd13ifvqei0","pricing_plan_id":"cebpf4jnsgd1na2vs0mg"},{"bike_id":"d37aa318-9eec-42e5-ad66-edcb803356f0","system_id":"levelo_inurba_marseille","lat":43.27803,"lon":5.428,"is_reserved":false,"is_disabled":false,"rental_uris":{"android":"levelo://app?vid=d37aa318-9eec-42e5-ad66-edcb803356f0","ios":"levelo://app?vid=d37aa318-9eec-42e5-ad66-edcb803356f0"},"vehicle_type_id":"4","last_reported":1726729736,"current_range_meters":6400,"station_id":"","pricing_plan_id":"cebpf4jnsgd1na2vs0mg"},{"bike_id":"b51480c2-9b9c-41e3-9bfc-f3e2a0ce7444","system_id":"levelo_inurba_marseille","lat":43.23193,"lon":5.35547,"is_reserved":false,"is_disabled":false,"rental_uris":{"android":"levelo://app?vid=b51480c2-9b9c-41e3-9bfc-f3e2a0ce7444","ios":"levelo://app?vid=b51480c2-9b9c-41e3-9bfc-f3e2a0ce7444"},"vehicle_type_id":"4","last_reported":1726729736,"current_range_meters":38800,"station_id":"ce4bhu92rcd13ifvqi70","pricing_plan_id":"cebpf4jnsgd1na2vs0mg"},{"bike_id":"0d3b6246-958f-4cf8-97da-2a88493d0c87","system_id":"levelo_inurba_marseille","lat":43.30306,"lon":5.36891,"is_reserved":false,"is_disabled":false,"rental_uris":{"android":"levelo://app?vid=0d3b6246-958f-4cf8-97da-2a88493d0c87","ios":"levelo://app?vid=0d3b6246-958f-4cf8-97da-2a88493d0c87"},"vehicle_type_id":"4","last_reported":1726729736,"current_range_meters":28400,"station_id":"","pricing_plan_id":"cebpf4jnsgd1na2vs0mg"},{"bike_id":"6a2ddc38-0103-4f43-bce7-a87f29ec1c72","system_id":"levelo_inurba_marseille","lat":43.29037,"lon":5.39974,"is_reserved":false,"is_disabled":false,"rental_uris":{"android":"levelo://app?vid=6a2ddc38-0103-4f43-bce7-a87f29ec1c72","ios":"levelo://app?vid=6a2ddc38-0103-4f43-bce7-a87f29ec1c72"},"vehicle_type_id":"4","last_reported":1726729736,"current_range_meters":27200,"station_id":"ce4bh392rcd13ifvqdm0","pricing_plan_id":"cebpf4jnsgd1na2vs0mg"},{"bike_id":"011c3d55-2368-40f1-b590-0f25bc645971","system_id":"levelo_inurba_marseille","lat":43.3361,"lon":5.41029,"is_reserved":false,"is_disabled":false,"rental_uris":{"android":"levelo://app?vid=011c3d55-2368-40f1-b590-0f25bc645971","ios":"levelo://app?vid=011c3d55-2368-40f1-b590-0f25bc645971"},"vehicle_type_id":"4","last_reported":1726729736,"current_range_meters":33600,"station_id":"ce4bhqh2rcd13ifvqhmg","pricing_plan_id":"cebpf4jnsgd1na2vs0mg"},{"bike_id":"4756014a-e4f5-43d8-89fc-00c51b893cd9","system_id":"levelo_inurba_marseille","lat":43.2996,"lon":5.38494,"is_reserved":false,"is_disabled":false,"rental_uris":{"android":"levelo://app?vid=4756014a-e4f5-43d8-89fc-00c51b893cd9","ios":"levelo://app?vid=4756014a-e4f5-43d8-89fc-00c51b893cd9"},"vehicle_type_id":"4","last_reported":1726729736,"current_range_meters":39200,"station_id":"ce4bgj92rcd13ifvqbd0","pricing_plan_id":"cebpf4jnsgd1na2vs0mg"},{"bike_id":"bbf98b5f-9d4a-44dd-9803-f66613dc0499","system_id":"levelo_inurba_marseille","lat":43.27379,"lon":5.36249,"is_reserved":false,"is_disabled":false,"rental_uris":{"android":"levelo://app?vid=bbf98b5f-9d4a-44dd-9803-f66613dc0499","ios":"levelo://app?vid=bbf98b5f-9d4a-44dd-9803-f66613dc0499"},"vehicle_type_id":"4","last_reported":1726729736,"current_range_meters":36400,"station_id":"ce4bhbh2rcd13ifvqeo0","pricing_plan_id":"cebpf4jnsgd1na2vs0mg"},{"bike_id":"3fbf5658-776d-4679-8767-f7d616ba1c84","system_id":"levelo_inurba_marseille","lat":43.30143,"lon":5.37413,"is_reserved":false,"is_disabled":false,"rental_uris":{"android":"levelo://app?vid=3fbf5658-776d-4679-8767-f7d616ba1c84","ios":"levelo://app?vid=3fbf5658-776d-4679-8767-f7d616ba1c84"},"vehicle_type_id":"4","last_reported":1726729736,"current_range_meters":29600,"station_id":"ce4bgs92rcd13ifvqcc0","pricing_plan_id":"cebpf4jnsgd1na2vs0mg"},{"bike_id":"2b714e73-49f8-4f26-bb6d-7d72ce23aabc","system_id":"levelo_inurba_marseille","lat":43.23054,"lon":5.35493,"is_reserved":false,"is_disabled":false,"rental_uris":{"android":"levelo://app?vid=2b714e73-49f8-4f26-bb6d-7d72ce23aabc","ios":"levelo://app?vid=2b714e73-49f8-4f26-bb6d-7d72ce23aabc"},"vehicle_type_id":"4","last_reported":1726729736,"current_range_meters":3600,"station_id":"cpo3342slgdg3j2ifvpg","pricing_plan_id":"cebpf4jnsgd1na2vs0mg"},{"bike_id":"6abd6ed8-e9da-4163-9975-ae064d953b07","system_id":"levelo_inurba_marseille","lat":43.25937,"lon":5.40903,"is_reserved":false,"is_disabled":false,"rental_uris":{"android":"levelo://app?vid=6abd6ed8-e9da-4163-9975-ae064d953b07","ios":"levelo://app?vid=6abd6ed8-e9da-4163-9975-ae064d953b07"},"vehicle_type_id":"4","last_reported":1726729736,"current_range_meters":31200,"station_id":"ce4bhm92rcd13ifvqglg","pricing_plan_id":"cebpf4jnsgd1na2vs0mg"},{"bike_id":"87483675-10ba-4b90-9ed9-a62636228fd3","system_id":"levelo_inurba_marseille","lat":43.25938,"lon":5.40898,"is_reserved":false,"is_disabled":false,"rental_uris":{"android":"levelo://app?vid=87483675-10ba-4b90-9ed9-a62636228fd3","ios":"levelo://app?vid=87483675-10ba-4b90-9ed9-a62636228fd3"},"vehicle_type_id":"4","last_reported":1726729736,"current_range_meters":33200,"station_id":"ce4bhm92rcd13ifvqglg","pricing_plan_id":"cebpf4jnsgd1na2vs0mg"},{"bike_id":"2e64ac77-37d0-42c4-9b89-df897b66197d","system_id":"levelo_inurba_marseille","lat":43.29964,"lon":5.41321,"is_reserved":false,"is_disabled":false,"rental_uris":{"android":"levelo://app?vid=2e64ac77-37d0-42c4-9b89-df897b66197d","ios":"levelo://app?vid=2e64ac77-37d0-42c4-9b89-df897b66197d"},"vehicle_type_id":"4","last_reported":1726729736,"current_range_meters":39200,"station_id":"ce4bhp12rcd13ifvqh9g","pricing_plan_id":"cebpf4jnsgd1na2vs0mg"},{"bike_id":"12fd216c-4005-44e5-a188-d2b75f8e3663","system_id":"levelo_inurba_marseille","lat":43.29906,"lon":5.38129,"is_reserved":false,"is_disabled":false,"rental_uris":{"android":"levelo://app?vid=12fd216c-4005-44e5-a188-d2b75f8e3663","ios":"levelo://app?vid=12fd216c-4005-44e5-a188-d2b75f8e3663"},"vehicle_type_id":"4","last_reported":1726729736,"current_range_meters":36800,"station_id":"ce4bgj12rcd13ifvqbc0","pricing_plan_id":"cebpf4jnsgd1na2vs0mg"},{"bike_id":"451cd4e6-d747-4d42-b652-d593351ccec4","system_id":"levelo_inurba_marseille","lat":43.24391,"lon":5.37055,"is_reserved":false,"is_disabled":false,"rental_uris":{"android":"levelo://app?vid=451cd4e6-d747-4d42-b652-d593351ccec4","ios":"levelo://app?vid=451cd4e6-d747-4d42-b652-d593351ccec4"},"vehicle_type_id":"4","last_reported":1726729736,"current_range_meters":36400,"station_id":"ce4bhhh2rcd13ifvqfk0","pricing_plan_id":"cebpf4jnsgd1na2vs0mg"},{"bike_id":"af0e21ac-6270-4f15-9dc5-641a3e4bb08f","system_id":"levelo_inurba_marseille","lat":43.2903,"lon":5.38134,"is_reserved":false,"is_disabled":false,"rental_uris":{"android":"levelo://app?vid=af0e21ac-6270-4f15-9dc5-641a3e4bb08f","ios":"levelo://app?vid=af0e21ac-6270-4f15-9dc5-641a3e4bb08f"},"vehicle_type_id":"4","last_reported":1726729736,"current_range_meters":34000,"station_id":"ce4bh4p2rcd13ifvqe1g","pricing_plan_id":"cebpf4jnsgd1na2vs0mg"},{"bike_id":"25ba43bf-b2fc-44d5-bc8d-647d5aff5186","system_id":"levelo_inurba_marseille","lat":43.3117,"lon":5.38736,"is_reserved":false,"is_disabled":false,"rental_uris":{"android":"levelo://app?vid=25ba43bf-b2fc-44d5-bc8d-647d5aff5186","ios":"levelo://app?vid=25ba43bf-b2fc-44d5-bc8d-647d5aff5186"},"vehicle_type_id":"4","last_reported":1726729736,"current_range_meters":14400,"station_id":"ce4bgv12rcd13ifvqcp0","pricing_plan_id":"cebpf4jnsgd1na2vs0mg"},{"bike_id":"af2bef4f-9caa-4eea-a587-3f3222bd844b","system_id":"levelo_inurba_marseille","lat":43.2408,"lon":5.37749,"is_reserved":false,"is_disabled":false,"rental_uris":{"android":"levelo://app?vid=af2bef4f-9caa-4eea-a587-3f3222bd844b","ios":"levelo://app?vid=af2bef4f-9caa-4eea-a587-3f3222bd844b"},"vehicle_type_id":"4","last_reported":1726729736,"current_range_meters":35600,"station_id":"ce4bhnp2rcd13ifvqgvg","pricing_plan_id":"cebpf4jnsgd1na2vs0mg"},{"bike_id":"be5df729-f5f3-4260-8f93-c174d533b9fa","system_id":"levelo_inurba_marseille","lat":43.25,"lon":5.38919,"is_reserved":false,"is_disabled":false,"rental_uris":{"android":"levelo://app?vid=be5df729-f5f3-4260-8f93-c174d533b9fa","ios":"levelo://app?vid=be5df729-f5f3-4260-8f93-c174d533b9fa"},"vehicle_type_id":"4","last_reported":1726729736,"current_range_meters":28400,"station_id":"ce4bhgp2rcd13ifvqfd0","pricing_plan_id":"cebpf4jnsgd1na2vs0mg"},{"bike_id":"74805015-f9cd-4ff9-b7b2-618369469a08","system_id":"levelo_inurba_marseille","lat":43.28851,"lon":5.39319,"is_reserved":false,"is_disabled":false,"rental_uris":{"android":"levelo://app?vid=74805015-f9cd-4ff9-b7b2-618369469a08","ios":"levelo://app?vid=74805015-f9cd-4ff9-b7b2-618369469a08"},"vehicle_type_id":"4","last_reported":1726729736,"current_range_meters":32800,"station_id":"ce4bh2p2rcd13ifvqdi0","pricing_plan_id":"cebpf4jnsgd1na2vs0mg"},{"bike_id":"bda43ea3-dbdd-4b08-a349-4b0d86fdb032","system_id":"levelo_inurba_marseille","lat":43.24075,"lon":5.3774,"is_reserved":false,"is_disabled":false,"rental_uris":{"android":"levelo://app?vid=bda43ea3-dbdd-4b08-a349-4b0d86fdb032","ios":"levelo://app?vid=bda43ea3-dbdd-4b08-a349-4b0d86fdb032"},"vehicle_type_id":"4","last_reported":1726729736,"current_range_meters":36800,"station_id":"ce4bhnp2rcd13ifvqgvg","pricing_plan_id":"cebpf4jnsgd1na2vs0mg"},{"bike_id":"7872948f-4eb5-4217-b532-0383a06374fd","system_id":"levelo_inurba_marseille","lat":43.286646,"lon":5.386642,"is_reserved":false,"is_disabled":false,"rental_uris":{"android":"levelo://app?vid=7872948f-4eb5-4217-b532-0383a06374fd","ios":"levelo://app?vid=7872948f-4eb5-4217-b532-0383a06374fd"},"vehicle_type_id":"4","last_reported":1726729736,"current_range_meters":34800,"station_id":"ce4bh492rcd13ifvqdug","pricing_plan_id":"cebpf4jnsgd1na2vs0mg"},{"bike_id":"6ad4bd65-2018-415b-af44-c744844bc858","system_id":"levelo_inurba_marseille","lat":43.24077,"lon":5.37757,"is_reserved":false,"is_disabled":false,"rental_uris":{"android":"levelo://app?vid=6ad4bd65-2018-415b-af44-c744844bc858","ios":"levelo://app?vid=6ad4bd65-2018-415b-af44-c744844bc858"},"vehicle_type_id":"4","last_reported":1726729736,"current_range_meters":16000,"station_id":"ce4bhnp2rcd13ifvqgvg","pricing_plan_id":"cebpf4jnsgd1na2vs0mg"},{"bike_id":"5acf2563-f7e8-403e-ba91-ddced6284392","system_id":"levelo_inurba_marseille","lat":43.2992,"lon":5.36552,"is_reserved":false,"is_disabled":false,"rental_uris":{"android":"levelo://app?vid=5acf2563-f7e8-403e-ba91-ddced6284392","ios":"levelo://app?vid=5acf2563-f7e8-403e-ba91-ddced6284392"},"vehicle_type_id":"4","last_reported":1726729736,"current_range_meters":26000,"station_id":"ce4bgm92rcd13ifvqbr0","pricing_plan_id":"cebpf4jnsgd1na2vs0mg"},{"bike_id":"83ca9bd0-3343-425c-8a8c-6e8a7e31c55f","system_id":"levelo_inurba_marseille","lat":43.31353,"lon":5.36708,"is_reserved":false,"is_disabled":false,"rental_uris":{"android":"levelo://app?vid=83ca9bd0-3343-425c-8a8c-6e8a7e31c55f","ios":"levelo://app?vid=83ca9bd0-3343-425c-8a8c-6e8a7e31c55f"},"vehicle_type_id":"4","last_reported":1726729736,"current_range_meters":32800,"station_id":"ce4bgr92rcd13ifvqc6g","pricing_plan_id":"cebpf4jnsgd1na2vs0mg"},{"bike_id":"3054afe6-4c88-4656-9a5d-c31a1a4a065f","system_id":"levelo_inurba_marseille","lat":43.32455,"lon":5.3654,"is_reserved":false,"is_disabled":false,"rental_uris":{"android":"levelo://app?vid=3054afe6-4c88-4656-9a5d-c31a1a4a065f","ios":"levelo://app?vid=3054afe6-4c88-4656-9a5d-c31a1a4a065f"},"vehicle_type_id":"4","last_reported":1726729736,"current_range_meters":34800,"station_id":"ce4bhs12rcd13ifvqhvg","pricing_plan_id":"cebpf4jnsgd1na2vs0mg"},{"bike_id":"d1f14143-efae-4b31-98fa-5619d487fd4c","system_id":"levelo_inurba_marseille","lat":43.30138,"lon":5.3987,"is_reserved":false,"is_disabled":false,"rental_uris":{"android":"levelo://app?vid=d1f14143-efae-4b31-98fa-5619d487fd4c","ios":"levelo://app?vid=d1f14143-efae-4b31-98fa-5619d487fd4c"},"vehicle_type_id":"4","last_reported":1726729736,"current_range_meters":38000,"station_id":"ce4bh0h2rcd13ifvqd40","pricing_plan_id":"cebpf4jnsgd1na2vs0mg"},{"bike_id":"5e0f56f5-f149-429e-9dfd-69fe06337df6","system_id":"levelo_inurba_marseille","lat":43.3047,"lon":5.37914,"is_reserved":false,"is_disabled":false,"rental_uris":{"android":"levelo://app?vid=5e0f56f5-f149-429e-9dfd-69fe06337df6","ios":"levelo://app?vid=5e0f56f5-f149-429e-9dfd-69fe06337df6"},"vehicle_type_id":"4","last_reported":1726729736,"current_range_meters":24800,"station_id":"ce4bgup2rcd13ifvqcn0","pricing_plan_id":"cebpf4jnsgd1na2vs0mg"},{"bike_id":"e4889189-3c74-4ff5-8860-0ffbb1e05e7b","system_id":"levelo_inurba_marseille","lat":43.26952,"lon":5.38635,"is_reserved":false,"is_disabled":false,"rental_uris":{"android":"levelo://app?vid=e4889189-3c74-4ff5-8860-0ffbb1e05e7b","ios":"levelo://app?vid=e4889189-3c74-4ff5-8860-0ffbb1e05e7b"},"vehicle_type_id":"4","last_reported":1726729736,"current_range_meters":12400,"station_id":"ce4bhh92rcd13ifvqfh0","pricing_plan_id":"cebpf4jnsgd1na2vs0mg"},{"bike_id":"f2c95146-36ce-4175-8035-0c4ee99efa92","system_id":"levelo_inurba_marseille","lat":43.23194,"lon":5.35557,"is_reserved":false,"is_disabled":false,"rental_uris":{"android":"levelo://app?vid=f2c95146-36ce-4175-8035-0c4ee99efa92","ios":"levelo://app?vid=f2c95146-36ce-4175-8035-0c4ee99efa92"},"vehicle_type_id":"4","last_reported":1726729736,"current_range_meters":8800,"station_id":"ce4bhu92rcd13ifvqi70","pricing_plan_id":"cebpf4jnsgd1na2vs0mg"},{"bike_id":"1b612551-d8c7-46b4-8d2f-1954ea4f6d5b","system_id":"levelo_inurba_marseille","lat":43.29227,"lon":5.36061,"is_reserved":false,"is_disabled":false,"rental_uris":{"android":"levelo://app?vid=1b612551-d8c7-46b4-8d2f-1954ea4f6d5b","ios":"levelo://app?vid=1b612551-d8c7-46b4-8d2f-1954ea4f6d5b"},"vehicle_type_id":"4","last_reported":1726729736,"current_range_meters":38800,"station_id":"ce4bhbh2rcd13ifvqeqg","pricing_plan_id":"cebpf4jnsgd1na2vs0mg"},{"bike_id":"cef4b0d2-7a97-4074-b8c5-52c41fb39c88","system_id":"levelo_inurba_marseille","lat":43.33746,"lon":5.3745,"is_reserved":false,"is_disabled":false,"rental_uris":{"android":"levelo://app?vid=cef4b0d2-7a97-4074-b8c5-52c41fb39c88","ios":"levelo://app?vid=cef4b0d2-7a97-4074-b8c5-52c41fb39c88"},"vehicle_type_id":"4","last_reported":1726729736,"current_range_meters":38400,"station_id":"","pricing_plan_id":"cebpf4jnsgd1na2vs0mg"},{"bike_id":"43d39abc-2aa3-4872-a373-a9ccda3c2611","system_id":"levelo_inurba_marseille","lat":43.32367,"lon":5.38887,"is_reserved":false,"is_disabled":false,"rental_uris":{"android":"levelo://app?vid=43d39abc-2aa3-4872-a373-a9ccda3c2611","ios":"levelo://app?vid=43d39abc-2aa3-4872-a373-a9ccda3c2611"},"vehicle_type_id":"4","last_reported":1726729736,"current_range_meters":28000,"station_id":"ce4bhqp2rcd13ifvqhog","pricing_plan_id":"cebpf4jnsgd1na2vs0mg"},{"bike_id":"e0b9fde8-8bce-456d-bdb9-1dbe3347f9ce","system_id":"levelo_inurba_marseille","lat":43.23153,"lon":5.43719,"is_reserved":false,"is_disabled":false,"rental_uris":{"android":"levelo://app?vid=e0b9fde8-8bce-456d-bdb9-1dbe3347f9ce","ios":"levelo://app?vid=e0b9fde8-8bce-456d-bdb9-1dbe3347f9ce"},"vehicle_type_id":"4","last_reported":1726729736,"current_range_meters":8800,"station_id":"ce4bhmp2rcd13ifvqgog","pricing_plan_id":"cebpf4jnsgd1na2vs0mg"},{"bike_id":"4a8ae968-7a59-47d5-a30c-5699705ad986","system_id":"levelo_inurba_marseille","lat":43.250031,"lon":5.389121,"is_reserved":false,"is_disabled":false,"rental_uris":{"android":"levelo://app?vid=4a8ae968-7a59-47d5-a30c-5699705ad986","ios":"levelo://app?vid=4a8ae968-7a59-47d5-a30c-5699705ad986"},"vehicle_type_id":"4","last_reported":1726729736,"current_range_meters":22400,"station_id":"ce4bhgp2rcd13ifvqfd0","pricing_plan_id":"cebpf4jnsgd1na2vs0mg"},{"bike_id":"7ebee30c-c1c3-43de-b067-26a745c7927f","system_id":"levelo_inurba_marseille","lat":43.3376,"lon":5.3744,"is_reserved":false,"is_disabled":false,"rental_uris":{"android":"levelo://app?vid=7ebee30c-c1c3-43de-b067-26a745c7927f","ios":"levelo://app?vid=7ebee30c-c1c3-43de-b067-26a745c7927f"},"vehicle_type_id":"4","last_reported":1726729736,"current_range_meters":38400,"station_id":"","pricing_plan_id":"cebpf4jnsgd1na2vs0mg"},{"bike_id":"7ed6941b-afc4-460f-8af3-ab9c555ffb27","system_id":"levelo_inurba_marseille","lat":43.30537,"lon":5.36703,"is_reserved":false,"is_disabled":false,"rental_uris":{"android":"levelo://app?vid=7ed6941b-afc4-460f-8af3-ab9c555ffb27","ios":"levelo://app?vid=7ed6941b-afc4-460f-8af3-ab9c555ffb27"},"vehicle_type_id":"4","last_reported":1726729736,"current_range_meters":38800,"station_id":"ce4bgrp2rcd13ifvqc9g","pricing_plan_id":"cebpf4jnsgd1na2vs0mg"},{"bike_id":"38245c48-0ec6-4a18-b4d5-a298220e0665","system_id":"levelo_inurba_marseille","lat":43.24803,"lon":5.37451,"is_reserved":false,"is_disabled":false,"rental_uris":{"android":"levelo://app?vid=38245c48-0ec6-4a18-b4d5-a298220e0665","ios":"levelo://app?vid=38245c48-0ec6-4a18-b4d5-a298220e0665"},"vehicle_type_id":"4","last_reported":1726729736,"current_range_meters":36400,"station_id":"ce4bhgh2rcd13ifvqfb0","pricing_plan_id":"cebpf4jnsgd1na2vs0mg"},{"bike_id":"db5bed51-afb9-4548-98e9-7b7ae226c501","system_id":"levelo_inurba_marseille","lat":43.33756,"lon":5.37453,"is_reserved":false,"is_disabled":false,"rental_uris":{"android":"levelo://app?vid=db5bed51-afb9-4548-98e9-7b7ae226c501","ios":"levelo://app?vid=db5bed51-afb9-4548-98e9-7b7ae226c501"},"vehicle_type_id":"4","last_reported":1726729736,"current_range_meters":28800,"station_id":"","pricing_plan_id":"cebpf4jnsgd1na2vs0mg"},{"bike_id":"2d18bdf3-b839-4bd3-b0ec-633ade641185","system_id":"levelo_inurba_marseille","lat":43.29243,"lon":5.3992,"is_reserved":false,"is_disabled":false,"rental_uris":{"android":"levelo://app?vid=2d18bdf3-b839-4bd3-b0ec-633ade641185","ios":"levelo://app?vid=2d18bdf3-b839-4bd3-b0ec-633ade641185"},"vehicle_type_id":"4","last_reported":1726729736,"current_range_meters":36800,"station_id":"","pricing_plan_id":"cebpf4jnsgd1na2vs0mg"},{"bike_id":"6864a05c-76c0-4648-ae7c-db87fef70f83","system_id":"levelo_inurba_marseille","lat":43.27492,"lon":5.42442,"is_reserved":false,"is_disabled":false,"rental_uris":{"android":"levelo://app?vid=6864a05c-76c0-4648-ae7c-db87fef70f83","ios":"levelo://app?vid=6864a05c-76c0-4648-ae7c-db87fef70f83"},"vehicle_type_id":"4","last_reported":1726729736,"current_range_meters":6800,"station_id":"ce4bhn92rcd13ifvqgrg","pricing_plan_id":"cebpf4jnsgd1na2vs0mg"},{"bike_id":"f1925469-9217-450d-9259-fc5ba656a5ff","system_id":"levelo_inurba_marseille","lat":43.25929,"lon":5.40901,"is_reserved":false,"is_disabled":false,"rental_uris":{"android":"levelo://app?vid=f1925469-9217-450d-9259-fc5ba656a5ff","ios":"levelo://app?vid=f1925469-9217-450d-9259-fc5ba656a5ff"},"vehicle_type_id":"4","last_reported":1726729736,"current_range_meters":38400,"station_id":"ce4bhm92rcd13ifvqglg","pricing_plan_id":"cebpf4jnsgd1na2vs0mg"},{"bike_id":"69399783-5eae-4af9-ae4b-1495b2d249b1","system_id":"levelo_inurba_marseille","lat":43.24158,"lon":5.36402,"is_reserved":false,"is_disabled":false,"rental_uris":{"android":"levelo://app?vid=69399783-5eae-4af9-ae4b-1495b2d249b1","ios":"levelo://app?vid=69399783-5eae-4af9-ae4b-1495b2d249b1"},"vehicle_type_id":"4","last_reported":1726729736,"current_range_meters":34800,"station_id":"cpo36qri1sfpv3e86is0","pricing_plan_id":"cebpf4jnsgd1na2vs0mg"},{"bike_id":"3f513f49-e3b1-4c4c-bbdc-e5ae3b2b72d3","system_id":"levelo_inurba_marseille","lat":43.27485,"lon":5.42458,"is_reserved":false,"is_disabled":false,"rental_uris":{"android":"levelo://app?vid=3f513f49-e3b1-4c4c-bbdc-e5ae3b2b72d3","ios":"levelo://app?vid=3f513f49-e3b1-4c4c-bbdc-e5ae3b2b72d3"},"vehicle_type_id":"4","last_reported":1726729736,"current_range_meters":22000,"station_id":"ce4bhn92rcd13ifvqgrg","pricing_plan_id":"cebpf4jnsgd1na2vs0mg"},{"bike_id":"42fca651-4bb4-4b39-8dde-cd01124da3f6","system_id":"levelo_inurba_marseille","lat":43.26685,"lon":5.38271,"is_reserved":false,"is_disabled":false,"rental_uris":{"android":"levelo://app?vid=42fca651-4bb4-4b39-8dde-cd01124da3f6","ios":"levelo://app?vid=42fca651-4bb4-4b39-8dde-cd01124da3f6"},"vehicle_type_id":"4","last_reported":1726729736,"current_range_meters":28800,"station_id":"ce4bhg92rcd13ifvqf90","pricing_plan_id":"cebpf4jnsgd1na2vs0mg"},{"bike_id":"d06834b6-14ec-477c-92f7-a04b5630a0da","system_id":"levelo_inurba_marseille","lat":43.2655,"lon":5.37292,"is_reserved":false,"is_disabled":false,"rental_uris":{"android":"levelo://app?vid=d06834b6-14ec-477c-92f7-a04b5630a0da","ios":"levelo://app?vid=d06834b6-14ec-477c-92f7-a04b5630a0da"},"vehicle_type_id":"4","last_reported":1726729736,"current_range_meters":6800,"station_id":"ce4bhg12rcd13ifvqf70","pricing_plan_id":"cebpf4jnsgd1na2vs0mg"},{"bike_id":"c07f4740-ebab-4d5c-b22e-deddf1ddd7da","system_id":"levelo_inurba_marseille","lat":43.2984,"lon":5.36265,"is_reserved":false,"is_disabled":false,"rental_uris":{"android":"levelo://app?vid=c07f4740-ebab-4d5c-b22e-deddf1ddd7da","ios":"levelo://app?vid=c07f4740-ebab-4d5c-b22e-deddf1ddd7da"},"vehicle_type_id":"4","last_reported":1726729736,"current_range_meters":28400,"station_id":"ce4bgpp2rcd13ifvqc3g","pricing_plan_id":"cebpf4jnsgd1na2vs0mg"},{"bike_id":"2a02a26f-7ad3-47bb-a66f-dad3d347c4c9","system_id":"levelo_inurba_marseille","lat":43.25107,"lon":5.40331,"is_reserved":false,"is_disabled":false,"rental_uris":{"android":"levelo://app?vid=2a02a26f-7ad3-47bb-a66f-dad3d347c4c9","ios":"levelo://app?vid=2a02a26f-7ad3-47bb-a66f-dad3d347c4c9"},"vehicle_type_id":"4","last_reported":1726729736,"current_range_meters":12400,"station_id":"ce4bhlh2rcd13ifvqgig","pricing_plan_id":"cebpf4jnsgd1na2vs0mg"},{"bike_id":"b23c77e4-5ab9-4d27-9630-45c7610728de","system_id":"levelo_inurba_marseille","lat":43.29529,"lon":5.37504,"is_reserved":false,"is_disabled":false,"rental_uris":{"android":"levelo://app?vid=b23c77e4-5ab9-4d27-9630-45c7610728de","ios":"levelo://app?vid=b23c77e4-5ab9-4d27-9630-45c7610728de"},"vehicle_type_id":"4","last_reported":1726729736,"current_range_meters":32400,"station_id":"ce4bgkp2rcd13ifvqbmg","pricing_plan_id":"cebpf4jnsgd1na2vs0mg"},{"bike_id":"a811345e-c046-4ee5-87fd-576f86d7c458","system_id":"levelo_inurba_marseille","lat":43.25932,"lon":5.40908,"is_reserved":false,"is_disabled":false,"rental_uris":{"android":"levelo://app?vid=a811345e-c046-4ee5-87fd-576f86d7c458","ios":"levelo://app?vid=a811345e-c046-4ee5-87fd-576f86d7c458"},"vehicle_type_id":"4","last_reported":1726729736,"current_range_meters":37600,"station_id":"ce4bhm92rcd13ifvqglg","pricing_plan_id":"cebpf4jnsgd1na2vs0mg"},{"bike_id":"884b4613-2a72-46e8-b1fd-814e1222921b","system_id":"levelo_inurba_marseille","lat":43.30557,"lon":5.36702,"is_reserved":false,"is_disabled":false,"rental_uris":{"android":"levelo://app?vid=884b4613-2a72-46e8-b1fd-814e1222921b","ios":"levelo://app?vid=884b4613-2a72-46e8-b1fd-814e1222921b"},"vehicle_type_id":"4","last_reported":1726729736,"current_range_meters":12000,"station_id":"ce4bgrp2rcd13ifvqc9g","pricing_plan_id":"cebpf4jnsgd1na2vs0mg"},{"bike_id":"58014cc6-4f39-4119-a8a0-cdc0e2507820","system_id":"levelo_inurba_marseille","lat":43.32287,"lon":5.38269,"is_reserved":false,"is_disabled":false,"rental_uris":{"android":"levelo://app?vid=58014cc6-4f39-4119-a8a0-cdc0e2507820","ios":"levelo://app?vid=58014cc6-4f39-4119-a8a0-cdc0e2507820"},"vehicle_type_id":"4","last_reported":1726729736,"current_range_meters":38800,"station_id":"ce4bhr12rcd13ifvqhqg","pricing_plan_id":"cebpf4jnsgd1na2vs0mg"},{"bike_id":"c62c95b5-6f9e-42eb-9748-6689d3c1ea72","system_id":"levelo_inurba_marseille","lat":43.24179,"lon":5.39725,"is_reserved":false,"is_disabled":false,"rental_uris":{"android":"levelo://app?vid=c62c95b5-6f9e-42eb-9748-6689d3c1ea72","ios":"levelo://app?vid=c62c95b5-6f9e-42eb-9748-6689d3c1ea72"},"vehicle_type_id":"4","last_reported":1726729736,"current_range_meters":26000,"station_id":"ce4bhn12rcd13ifvqgpg","pricing_plan_id":"cebpf4jnsgd1na2vs0mg"},{"bike_id":"58a0977a-4560-4644-908f-41ef1eb01cb6","system_id":"levelo_inurba_marseille","lat":43.2695,"lon":5.38622,"is_reserved":false,"is_disabled":false,"rental_uris":{"android":"levelo://app?vid=58a0977a-4560-4644-908f-41ef1eb01cb6","ios":"levelo://app?vid=58a0977a-4560-4644-908f-41ef1eb01cb6"},"vehicle_type_id":"4","last_reported":1726729736,"current_range_meters":32400,"station_id":"ce4bhh92rcd13ifvqfh0","pricing_plan_id":"cebpf4jnsgd1na2vs0mg"},{"bike_id":"9de036c4-decb-465b-a775-32e663a8924f","system_id":"levelo_inurba_marseille","lat":43.33024,"lon":5.39039,"is_reserved":false,"is_disabled":false,"rental_uris":{"android":"levelo://app?vid=9de036c4-decb-465b-a775-32e663a8924f","ios":"levelo://app?vid=9de036c4-decb-465b-a775-32e663a8924f"},"vehicle_type_id":"4","last_reported":1726729736,"current_range_meters":38800,"station_id":"ce4bhr92rcd13ifvqhrg","pricing_plan_id":"cebpf4jnsgd1na2vs0mg"},{"bike_id":"046465f7-645e-4364-9911-7852354ad207","system_id":"levelo_inurba_marseille","lat":43.27681,"lon":5.38897,"is_reserved":false,"is_disabled":false,"rental_uris":{"android":"levelo://app?vid=046465f7-645e-4364-9911-7852354ad207","ios":"levelo://app?vid=046465f7-645e-4364-9911-7852354ad207"},"vehicle_type_id":"4","last_reported":1726729736,"current_range_meters":38400,"station_id":"ce4bhi12rcd13ifvqfo0","pricing_plan_id":"cebpf4jnsgd1na2vs0mg"},{"bike_id":"3a643a13-d852-4164-b5f1-2086ca5ef5c3","system_id":"levelo_inurba_marseille","lat":43.30292,"lon":5.36946,"is_reserved":false,"is_disabled":false,"rental_uris":{"android":"levelo://app?vid=3a643a13-d852-4164-b5f1-2086ca5ef5c3","ios":"levelo://app?vid=3a643a13-d852-4164-b5f1-2086ca5ef5c3"},"vehicle_type_id":"4","last_reported":1726729736,"current_range_meters":16000,"station_id":"ce4bgqh2rcd13ifvqc5g","pricing_plan_id":"cebpf4jnsgd1na2vs0mg"},{"bike_id":"e3025b5e-44da-4858-bda9-17fe30d7bdb9","system_id":"levelo_inurba_marseille","lat":43.31342,"lon":5.36721,"is_reserved":false,"is_disabled":false,"rental_uris":{"android":"levelo://app?vid=e3025b5e-44da-4858-bda9-17fe30d7bdb9","ios":"levelo://app?vid=e3025b5e-44da-4858-bda9-17fe30d7bdb9"},"vehicle_type_id":"4","last_reported":1726729736,"current_range_meters":16000,"station_id":"ce4bgr92rcd13ifvqc6g","pricing_plan_id":"cebpf4jnsgd1na2vs0mg"},{"bike_id":"f4a274be-07e0-43fb-97a5-f5ef7a2d6f8a","system_id":"levelo_inurba_marseille","lat":43.26956,"lon":5.38642,"is_reserved":false,"is_disabled":false,"rental_uris":{"android":"levelo://app?vid=f4a274be-07e0-43fb-97a5-f5ef7a2d6f8a","ios":"levelo://app?vid=f4a274be-07e0-43fb-97a5-f5ef7a2d6f8a"},"vehicle_type_id":"4","last_reported":1726729736,"current_range_meters":25200,"station_id":"ce4bhh92rcd13ifvqfh0","pricing_plan_id":"cebpf4jnsgd1na2vs0mg"},{"bike_id":"4e66525c-ec00-43fa-a8cb-9ab54dc5f13a","system_id":"levelo_inurba_marseille","lat":43.30797,"lon":5.38161,"is_reserved":false,"is_disabled":false,"rental_uris":{"android":"levelo://app?vid=4e66525c-ec00-43fa-a8cb-9ab54dc5f13a","ios":"levelo://app?vid=4e66525c-ec00-43fa-a8cb-9ab54dc5f13a"},"vehicle_type_id":"4","last_reported":1726729736,"current_range_meters":28000,"station_id":"ce4bgt12rcd13ifvqce0","pricing_plan_id":"cebpf4jnsgd1na2vs0mg"},{"bike_id":"30510bca-7b9e-40e5-9d19-db6d22fc9357","system_id":"levelo_inurba_marseille","lat":43.26491,"lon":5.39536,"is_reserved":false,"is_disabled":false,"rental_uris":{"android":"levelo://app?vid=30510bca-7b9e-40e5-9d19-db6d22fc9357","ios":"levelo://app?vid=30510bca-7b9e-40e5-9d19-db6d22fc9357"},"vehicle_type_id":"4","last_reported":1726729736,"current_range_meters":24800,"station_id":"ce4bhi12rcd13ifvqfq0","pricing_plan_id":"cebpf4jnsgd1na2vs0mg"},{"bike_id":"b1f51ce9-8c30-4281-804b-4c3643a2a65b","system_id":"levelo_inurba_marseille","lat":43.30278,"lon":5.37699,"is_reserved":false,"is_disabled":false,"rental_uris":{"android":"levelo://app?vid=b1f51ce9-8c30-4281-804b-4c3643a2a65b","ios":"levelo://app?vid=b1f51ce9-8c30-4281-804b-4c3643a2a65b"},"vehicle_type_id":"4","last_reported":1726729736,"current_range_meters":38800,"station_id":"ce4bguh2rcd13ifvqcj0","pricing_plan_id":"cebpf4jnsgd1na2vs0mg"},{"bike_id":"15cd0306-fc06-484f-ac40-88af11264c42","system_id":"levelo_inurba_marseille","lat":43.27493,"lon":5.42453,"is_reserved":false,"is_disabled":false,"rental_uris":{"android":"levelo://app?vid=15cd0306-fc06-484f-ac40-88af11264c42","ios":"levelo://app?vid=15cd0306-fc06-484f-ac40-88af11264c42"},"vehicle_type_id":"4","last_reported":1726729736,"current_range_meters":28400,"station_id":"ce4bhn92rcd13ifvqgrg","pricing_plan_id":"cebpf4jnsgd1na2vs0mg"},{"bike_id":"fb986fe7-8c15-4498-a389-29ce87e03bec","system_id":"levelo_inurba_marseille","lat":43.26961,"lon":5.38619,"is_reserved":false,"is_disabled":false,"rental_uris":{"android":"levelo://app?vid=fb986fe7-8c15-4498-a389-29ce87e03bec","ios":"levelo://app?vid=fb986fe7-8c15-4498-a389-29ce87e03bec"},"vehicle_type_id":"4","last_reported":1726729736,"current_range_meters":24800,"station_id":"ce4bhh92rcd13ifvqfh0","pricing_plan_id":"cebpf4jnsgd1na2vs0mg"},{"bike_id":"a5167d20-2104-475d-a982-32ed65c102d6","system_id":"levelo_inurba_marseille","lat":43.30548,"lon":5.36553,"is_reserved":false,"is_disabled":false,"rental_uris":{"android":"levelo://app?vid=a5167d20-2104-475d-a982-32ed65c102d6","ios":"levelo://app?vid=a5167d20-2104-475d-a982-32ed65c102d6"},"vehicle_type_id":"4","last_reported":1726729736,"current_range_meters":32800,"station_id":"ce4bgs12rcd13ifvqcag","pricing_plan_id":"cebpf4jnsgd1na2vs0mg"},{"bike_id":"526c2c1a-1265-49d0-a905-0aea83a07597","system_id":"levelo_inurba_marseille","lat":43.284343,"lon":5.391987,"is_reserved":false,"is_disabled":false,"rental_uris":{"android":"levelo://app?vid=526c2c1a-1265-49d0-a905-0aea83a07597","ios":"levelo://app?vid=526c2c1a-1265-49d0-a905-0aea83a07597"},"vehicle_type_id":"4","last_reported":1726729736,"current_range_meters":3600,"station_id":"ce4bgs92rcd13ifvqcc0","pricing_plan_id":"cebpf4jnsgd1na2vs0mg"},{"bike_id":"bcb7cdb4-7ba1-4986-bc10-71dce9cd7b22","system_id":"levelo_inurba_marseille","lat":43.302185,"lon":5.394715,"is_reserved":false,"is_disabled":false,"rental_uris":{"android":"levelo://app?vid=bcb7cdb4-7ba1-4986-bc10-71dce9cd7b22","ios":"levelo://app?vid=bcb7cdb4-7ba1-4986-bc10-71dce9cd7b22"},"vehicle_type_id":"4","last_reported":1726729736,"current_range_meters":30000,"station_id":"ce4bgs92rcd13ifvqcc0","pricing_plan_id":"cebpf4jnsgd1na2vs0mg"},{"bike_id":"7d54046c-3cf1-4344-8137-17101feedbd5","system_id":"levelo_inurba_marseille","lat":43.32288,"lon":5.38268,"is_reserved":false,"is_disabled":false,"rental_uris":{"android":"levelo://app?vid=7d54046c-3cf1-4344-8137-17101feedbd5","ios":"levelo://app?vid=7d54046c-3cf1-4344-8137-17101feedbd5"},"vehicle_type_id":"4","last_reported":1726729736,"current_range_meters":37600,"station_id":"ce4bhr12rcd13ifvqhqg","pricing_plan_id":"cebpf4jnsgd1na2vs0mg"},{"bike_id":"6b6c4fab-0bd1-4725-a1b7-466b87a727bc","system_id":"levelo_inurba_marseille","lat":43.30529,"lon":5.36543,"is_reserved":false,"is_disabled":false,"rental_uris":{"android":"levelo://app?vid=6b6c4fab-0bd1-4725-a1b7-466b87a727bc","ios":"levelo://app?vid=6b6c4fab-0bd1-4725-a1b7-466b87a727bc"},"vehicle_type_id":"4","last_reported":1726729736,"current_range_meters":26800,"station_id":"ce4bgs12rcd13ifvqcag","pricing_plan_id":"cebpf4jnsgd1na2vs0mg"},{"bike_id":"4018871b-e691-4492-a5fe-496f0cda8b66","system_id":"levelo_inurba_marseille","lat":43.274953,"lon":5.424204,"is_reserved":false,"is_disabled":false,"rental_uris":{"android":"levelo://app?vid=4018871b-e691-4492-a5fe-496f0cda8b66","ios":"levelo://app?vid=4018871b-e691-4492-a5fe-496f0cda8b66"},"vehicle_type_id":"4","last_reported":1726729736,"current_range_meters":35200,"station_id":"ce4bhn92rcd13ifvqgrg","pricing_plan_id":"cebpf4jnsgd1na2vs0mg"},{"bike_id":"3d60987c-b124-4c14-b227-d39bc2c8435b","system_id":"levelo_inurba_marseille","lat":43.30606,"lon":5.3722,"is_reserved":false,"is_disabled":false,"rental_uris":{"android":"levelo://app?vid=3d60987c-b124-4c14-b227-d39bc2c8435b","ios":"levelo://app?vid=3d60987c-b124-4c14-b227-d39bc2c8435b"},"vehicle_type_id":"4","last_reported":1726729736,"current_range_meters":26800,"station_id":"ce4bgqh2rcd13ifvqc4g","pricing_plan_id":"cebpf4jnsgd1na2vs0mg"},{"bike_id":"fa2e946d-01fe-4bb4-a2b0-55af60a0bcec","system_id":"levelo_inurba_marseille","lat":43.33721,"lon":5.39187,"is_reserved":false,"is_disabled":false,"rental_uris":{"android":"levelo://app?vid=fa2e946d-01fe-4bb4-a2b0-55af60a0bcec","ios":"levelo://app?vid=fa2e946d-01fe-4bb4-a2b0-55af60a0bcec"},"vehicle_type_id":"4","last_reported":1726729736,"current_range_meters":37600,"station_id":"ce4bhr92rcd13ifvqhsg","pricing_plan_id":"cebpf4jnsgd1na2vs0mg"},{"bike_id":"8d8772bd-fcaf-45e3-b5d7-2229472729ca","system_id":"levelo_inurba_marseille","lat":43.29278,"lon":5.40132,"is_reserved":false,"is_disabled":false,"rental_uris":{"android":"levelo://app?vid=8d8772bd-fcaf-45e3-b5d7-2229472729ca","ios":"levelo://app?vid=8d8772bd-fcaf-45e3-b5d7-2229472729ca"},"vehicle_type_id":"4","last_reported":1726729736,"current_range_meters":38000,"station_id":"ce4bh312rcd13ifvqdk0","pricing_plan_id":"cebpf4jnsgd1na2vs0mg"},{"bike_id":"ba4475d2-dc26-48c6-81d7-f2405336a72a","system_id":"levelo_inurba_marseille","lat":43.26949,"lon":5.38636,"is_reserved":false,"is_disabled":false,"rental_uris":{"android":"levelo://app?vid=ba4475d2-dc26-48c6-81d7-f2405336a72a","ios":"levelo://app?vid=ba4475d2-dc26-48c6-81d7-f2405336a72a"},"vehicle_type_id":"4","last_reported":1726729736,"current_range_meters":26800,"station_id":"ce4bhh92rcd13ifvqfh0","pricing_plan_id":"cebpf4jnsgd1na2vs0mg"},{"bike_id":"6f25435d-a9fe-4de6-8921-4f4064a1c012","system_id":"levelo_inurba_marseille","lat":43.25933,"lon":5.40909,"is_reserved":false,"is_disabled":false,"rental_uris":{"android":"levelo://app?vid=6f25435d-a9fe-4de6-8921-4f4064a1c012","ios":"levelo://app?vid=6f25435d-a9fe-4de6-8921-4f4064a1c012"},"vehicle_type_id":"4","last_reported":1726729736,"current_range_meters":24000,"station_id":"ce4bhm92rcd13ifvqglg","pricing_plan_id":"cebpf4jnsgd1na2vs0mg"},{"bike_id":"fb95e360-3ae5-4207-8411-772bdf0faeee","system_id":"levelo_inurba_marseille","lat":43.24072,"lon":5.37758,"is_reserved":false,"is_disabled":false,"rental_uris":{"android":"levelo://app?vid=fb95e360-3ae5-4207-8411-772bdf0faeee","ios":"levelo://app?vid=fb95e360-3ae5-4207-8411-772bdf0faeee"},"vehicle_type_id":"4","last_reported":1726729736,"current_range_meters":28800,"station_id":"ce4bhnp2rcd13ifvqgvg","pricing_plan_id":"cebpf4jnsgd1na2vs0mg"},{"bike_id":"78794c1c-9411-4c93-b65f-78f0e0d65221","system_id":"levelo_inurba_marseille","lat":43.28348,"lon":5.38108,"is_reserved":false,"is_disabled":false,"rental_uris":{"android":"levelo://app?vid=78794c1c-9411-4c93-b65f-78f0e0d65221","ios":"levelo://app?vid=78794c1c-9411-4c93-b65f-78f0e0d65221"},"vehicle_type_id":"4","last_reported":1726729736,"current_range_meters":15200,"station_id":"ce4bgn92rcd13ifvqbvg","pricing_plan_id":"cebpf4jnsgd1na2vs0mg"},{"bike_id":"2e0ce6c6-d229-4ab4-8b2a-053cf1691ba7","system_id":"levelo_inurba_marseille","lat":43.30472,"lon":5.37902,"is_reserved":false,"is_disabled":false,"rental_uris":{"android":"levelo://app?vid=2e0ce6c6-d229-4ab4-8b2a-053cf1691ba7","ios":"levelo://app?vid=2e0ce6c6-d229-4ab4-8b2a-053cf1691ba7"},"vehicle_type_id":"4","last_reported":1726729736,"current_range_meters":36400,"station_id":"ce4bgup2rcd13ifvqcn0","pricing_plan_id":"cebpf4jnsgd1na2vs0mg"},{"bike_id":"328d45f9-980e-4811-97c0-47d761861509","system_id":"levelo_inurba_marseille","lat":43.29847,"lon":5.37836,"is_reserved":false,"is_disabled":false,"rental_uris":{"android":"levelo://app?vid=328d45f9-980e-4811-97c0-47d761861509","ios":"levelo://app?vid=328d45f9-980e-4811-97c0-47d761861509"},"vehicle_type_id":"4","last_reported":1726729736,"current_range_meters":8000,"station_id":"ce4bgkh2rcd13ifvqbl0","pricing_plan_id":"cebpf4jnsgd1na2vs0mg"},{"bike_id":"25f6d39c-c414-4597-96bf-162d2136bd42","system_id":"levelo_inurba_marseille","lat":43.2836,"lon":5.38634,"is_reserved":false,"is_disabled":false,"rental_uris":{"android":"levelo://app?vid=25f6d39c-c414-4597-96bf-162d2136bd42","ios":"levelo://app?vid=25f6d39c-c414-4597-96bf-162d2136bd42"},"vehicle_type_id":"4","last_reported":1726729736,"current_range_meters":16400,"station_id":"ce4bh492rcd13ifvqdvg","pricing_plan_id":"cebpf4jnsgd1na2vs0mg"},{"bike_id":"01cd51da-b961-4bd0-adee-b192b3b29a9f","system_id":"levelo_inurba_marseille","lat":43.27483,"lon":5.42451,"is_reserved":false,"is_disabled":false,"rental_uris":{"android":"levelo://app?vid=01cd51da-b961-4bd0-adee-b192b3b29a9f","ios":"levelo://app?vid=01cd51da-b961-4bd0-adee-b192b3b29a9f"},"vehicle_type_id":"4","last_reported":1726729736,"current_range_meters":31200,"station_id":"ce4bhn92rcd13ifvqgrg","pricing_plan_id":"cebpf4jnsgd1na2vs0mg"},