{"last_updated":1714507652,"ttl":30,"version":"2.2","data":{"bikes":[{"bike_id":"fa351baa-a65f-4b6e-89d3-eb9fd6b892eb","system_id":"levelo_inurba_marseille","lat":43.313391,"lon":5.36706,"is_reserved":false,"is_disabled":false,"rental_uris":{"android":"levelo://app?vid=fa351baa-a65f-4b6e-89d3-eb9fd6b892eb","ios":"levelo://app?vid=fa351baa-a65f-4b6e-89d3-eb9fd6b892eb"},"vehicle_type_id":"4","last_reported":1714507652,"current_range_meters":16000,"station_id":"ce4bgr92rcd13ifvqc6g","pricing_plan_id":"cebpf4jnsgd1na2vs0mg"},{"bike_id":"e9a50d52-9e84-4dfd-9970-5295119879c3","system_id":"levelo_inurba_marseille","lat":43.313485,"lon":5.36706,"is_reserved":false,"is_disabled":false,"rental_uris":{"android":"levelo://app?vid=e9a50d52-9e84-4dfd-9970-5295119879c3","ios":"levelo://app?vid=e9a50d52-9e84-4dfd-9970-5295119879c3"},"vehicle_type_id":"4","last_reported":1714507652,"current_range_meters":0,"station_id":"ce4bgr92rcd13ifvqc6g","pricing_plan_id":"cebpf4jnsgd1na2vs0mg"},{"bike_id":"fdbc1cee-0c54-4a32-a01f-01f91c763bd8","system_id":"levelo_inurba_marseille","lat":43.312239,"lon":5.368562,"is_reserved":false,"is_disabled":false,"rental_uris":{"android":"levelo://app?vid=fdbc1cee-0c54-4a32-a01f-01f91c763bd8","ios":"levelo://app?vid=fdbc1cee-0c54-4a32-a01f-01f91c763bd8"},"vehicle_type_id":"4","last_reported":1714507652,"current_range_meters":24800,"station_id":"ce4bgl92rcd13ifvqbq0","pricing_plan_id":"cebpf4jnsgd1na2vs0mg"},{"bike_id":"9cc2ab5d-8719-40aa-bb16-346f7d0b219c","system_id":"levelo_inurba_marseille","lat":43.31107,"lon":5.36952,"is_reserved":false,"is_disabled":false,"rental_uris":{"android":"levelo://app?vid=9cc2ab5d-8719-40aa-bb16-346f7d0b219c","ios":"levelo://app?vid=9cc2ab5d-8719-40aa-bb16-346f7d0b219c"},"vehicle_type_id":"4","last_reported":1714507652,"current_range_meters":0,"station_id":"","pricing_plan_id":"cebpf4jnsgd1na2vs0mg"},{"bike_id":"f0bccfa0-d026-4cf1-b1ad-821dfd922513","system_id":"levelo_inurba_marseille","lat":43.309158,"lon":5.368467,"is_reserved":false,"is_disabled":false,"rental_uris":{"android":"levelo://app?vid=f0bccfa0-d026-4cf1-b1ad-821dfd922513","ios":"levelo://app?vid=f0bccfa0-d026-4cf1-b1ad-821dfd922513"},"vehicle_type_id":"4","last_reported":1714507652,"current_range_meters":0,"station_id":"ce4bgn92rcd13ifvqbvg","pricing_plan_id":"cebpf4jnsgd1na2vs0mg"},{"bike_id":"c31083b2-2ff0-4c4b-861b-e799e723e640","system_id":"levelo_inurba_marseille","lat":43.309076,"lon":5.368465,"is_reserved":false,"is_disabled":false,"rental_uris":{"android":"levelo://app?vid=c31083b2-2ff0-4c4b-861b-e799e723e640","ios":"levelo://app?vid=c31083b2-2ff0-4c4b-861b-e799e723e640"},"vehicle_type_id":"4","last_reported":1714507652,"current_range_meters":9600,"station_id":"ce4bgn92rcd13ifvqbvg","pricing_plan_id":"cebpf4jnsgd1na2vs0mg"},{"bike_id":"36e08e8c-0650-4018-90dc-af7e8a06a4e9","system_id":"levelo_inurba_marseille","lat":43.314811,"lon":5.373104,"is_reserved":false,"is_disabled":false,"rental_uris":{"android":"levelo://app?vid=36e08e8c-0650-4018-90dc-af7e8a06a4e9","ios":"levelo://app?vid=36e08e8c-0650-4018-90dc-af7e8a06a4e9"},"vehicle_type_id":"4","last_reported":1714507652,"current_range_meters":25600,"station_id":"ce4bgt12rcd13ifvqcd0","pricing_plan_id":"cebpf4jnsgd1na2vs0mg"},{"bike_id":"377944f6-f53f-4a0b-8050-f97a5f2125d4","system_id":"levelo_inurba_marseille","lat":43.314811,"lon":5.373104,"is_reserved":false,"is_disabled":false,"rental_uris":{"android":"levelo://app?vid=377944f6-f53f-4a0b-8050-f97a5f2125d4","ios":"levelo://app?vid=377944f6-f53f-4a0b-8050-f97a5f2125d4"},"vehicle_type_id":"4","last_reported":1714507652,"current_range_meters":1600,"station_id":"ce4bgt12rcd13ifvqcd0","pricing_plan_id":"cebpf4jnsgd1na2vs0mg"},{"bike_id":"9a5c3509-df11-493b-a216-25046f371f28","system_id":"levelo_inurba_marseille","lat":43.309039,"lon":5.371797,"is_reserved":false,"is_disabled":false,"rental_uris":{"android":"levelo://app?vid=9a5c3509-df11-493b-a216-25046f371f28","ios":"levelo://app?vid=9a5c3509-df11-493b-a216-25046f371f28"},"vehicle_type_id":"4","last_reported":1714507652,"current_range_meters":28400,"station_id":"ce4bguh2rcd13ifvqckg","pricing_plan_id":"cebpf4jnsgd1na2vs0mg"},{"bike_id":"9f812ea8-5bc9-4912-a103-05da4b0afe6d","system_id":"levelo_inurba_marseille","lat":43.309039,"lon":5.371797,"is_reserved":false,"is_disabled":false,"rental_uris":{"android":"levelo://app?vid=9f812ea8-5bc9-4912-a103-05da4b0afe6d","ios":"levelo://app?vid=9f812ea8-5bc9-4912-a103-05da4b0afe6d"},"vehicle_type_id":"4","last_reported":1714507652,"current_range_meters":20000,"station_id":"ce4bguh2rcd13ifvqckg","pricing_plan_id":"cebpf4jnsgd1na2vs0mg"},{"bike_id":"5708db8b-bb58-4fa9-925f-ab366bf3eb07","system_id":"levelo_inurba_marseille","lat":43.309034,"lon":5.371783,"is_reserved":false,"is_disabled":false,"rental_uris":{"android":"levelo://app?vid=5708db8b-bb58-4fa9-925f-ab366bf3eb07","ios":"levelo://app?vid=5708db8b-bb58-4fa9-925f-ab366bf3eb07"},"vehicle_type_id":"4","last_reported":1714507652,"current_range_meters":25200,"station_id":"ce4bguh2rcd13ifvqckg","pricing_plan_id":"cebpf4jnsgd1na2vs0mg"},{"bike_id":"1afa7883-dee5-40c4-a2af-7cf420d7b18b","system_id":"levelo_inurba_marseille","lat":43.30544,"lon":5.36713,"is_reserved":false,"is_disabled":false,"rental_uris":{"android":"levelo://app?vid=1afa7883-dee5-40c4-a2af-7cf420d7b18b","ios":"levelo://app?vid=1afa7883-dee5-40c4-a2af-7cf420d7b18b"},"vehicle_type_id":"4","last_reported":1714507652,"current_range_meters":18400,"station_id":"ce4bgrp2rcd13ifvqc9g","pricing_plan_id":"cebpf4jnsgd1na2vs0mg"},{"bike_id":"fa17b487-deaa-49dc-a31a-1dfe043c47fe","system_id":"levelo_inurba_marseille","lat":43.305706,"lon":5.365654,"is_reserved":false,"is_disabled":false,"rental_uris":{"android":"levelo://app?vid=fa17b487-deaa-49dc-a31a-1dfe043c47fe","ios":"levelo://app?vid=fa17b487-deaa-49dc-a31a-1dfe043c47fe"},"vehicle_type_id":"4","last_reported":1714507652,"current_range_meters":7200,"station_id":"ce4bgs12rcd13ifvqcag","pricing_plan_id":"cebpf4jnsgd1na2vs0mg"},{"bike_id":"2227583e-af68-47b0-9fe3-e2d22c4f4032","system_id":"levelo_inurba_marseille","lat":43.305989,"lon":5.37225,"is_reserved":false,"is_disabled":false,"rental_uris":{"android":"levelo://app?vid=2227583e-af68-47b0-9fe3-e2d22c4f4032","ios":"levelo://app?vid=2227583e-af68-47b0-9fe3-e2d22c4f4032"},"vehicle_type_id":"4","last_reported":1714507652,"current_range_meters":28000,"station_id":"ce4bgqh2rcd13ifvqc4g","pricing_plan_id":"cebpf4jnsgd1na2vs0mg"},{"bike_id":"0ecb4d4d-42e3-4316-b8e0-da767c7a1bcd","system_id":"levelo_inurba_marseille","lat":43.30602,"lon":5.37225,"is_reserved":false,"is_disabled":false,"rental_uris":{"android":"levelo://app?vid=0ecb4d4d-42e3-4316-b8e0-da767c7a1bcd","ios":"levelo://app?vid=0ecb4d4d-42e3-4316-b8e0-da767c7a1bcd"},"vehicle_type_id":"4","last_reported":1714507652,"current_range_meters":1600,"station_id":"ce4bgqh2rcd13ifvqc4g","pricing_plan_id":"cebpf4jnsgd1na2vs0mg"},{"bike_id":"068e90aa-4779-4015-ab83-42238790f383","system_id":"levelo_inurba_marseille","lat":43.30589,"lon":5.37212,"is_reserved":false,"is_disabled":false,"rental_uris":{"android":"levelo://app?vid=068e90aa-4779-4015-ab83-42238790f383","ios":"levelo://app?vid=068e90aa-4779-4015-ab83-42238790f383"},"vehicle_type_id":"4","last_reported":1714507652,"current_range_meters":14000,"station_id":"ce4bgqh2rcd13ifvqc4g","pricing_plan_id":"cebpf4jnsgd1na2vs0mg"},{"bike_id":"d0eb903f-98a3-404d-89e3-cbe6e4c5eee5","system_id":"levelo_inurba_marseille","lat":43.31114,"lon":5.37758,"is_reserved":false,"is_disabled":false,"rental_uris":{"android":"levelo://app?vid=d0eb903f-98a3-404d-89e3-cbe6e4c5eee5","ios":"levelo://app?vid=d0eb903f-98a3-404d-89e3-cbe6e4c5eee5"},"vehicle_type_id":"4","last_reported":1714507652,"current_range_meters":26800,"station_id":"ce4bgt92rcd13ifvqcg0","pricing_plan_id":"cebpf4jnsgd1na2vs0mg"},{"bike_id":"d7162a7f-a62d-48e5-94e2-ee4c6d84e079","system_id":"levelo_inurba_marseille","lat":43.311131,"lon":5.377651,"is_reserved":false,"is_disabled":false,"rental_uris":{"android":"levelo://app?vid=d7162a7f-a62d-48e5-94e2-ee4c6d84e079","ios":"levelo://app?vid=d7162a7f-a62d-48e5-94e2-ee4c6d84e079"},"vehicle_type_id":"4","last_reported":1714507652,"current_range_meters":400,"station_id":"ce4bgt92rcd13ifvqcg0","pricing_plan_id":"cebpf4jnsgd1na2vs0mg"},{"bike_id":"a74d59e4-3009-46a9-bf9a-3f004f056fe2","system_id":"levelo_inurba_marseille","lat":43.311131,"lon":5.377651,"is_reserved":false,"is_disabled":false,"rental_uris":{"android":"levelo://app?vid=a74d59e4-3009-46a9-bf9a-3f004f056fe2","ios":"levelo://app?vid=a74d59e4-3009-46a9-bf9a-3f004f056fe2"},"vehicle_type_id":"4","last_reported":1714507652,"current_range_meters":12400,"station_id":"ce4bgt92rcd13ifvqcg0","pricing_plan_id":"cebpf4jnsgd1na2vs0mg"},{"bike_id":"4ac261f5-9ce2-4e4e-bc7a-6bc3baf29bdd","system_id":"levelo_inurba_marseille","lat":43.311131,"lon":5.377651,"is_reserved":false,"is_disabled":false,"rental_uris":{"android":"levelo://app?vid=4ac261f5-9ce2-4e4e-bc7a-6bc3baf29bdd","ios":"levelo://app?vid=4ac261f5-9ce2-4e4e-bc7a-6bc3baf29bdd"},"vehicle_type_id":"4","last_reported":1714507652,"current_range_meters":11600,"station_id":"ce4bgt92rcd13ifvqcg0","pricing_plan_id":"cebpf4jnsgd1na2vs0mg"},{"bike_id":"7e658dd9-9d51-45a9-8408-1f412a8eebd8","system_id":"levelo_inurba_marseille","lat":43.311131,"lon":5.377651,"is_reserved":false,"is_disabled":false,"rental_uris":{"android":"levelo://app?vid=7e658dd9-9d51-45a9-8408-1f412a8eebd8","ios":"levelo://app?vid=7e658dd9-9d51-45a9-8408-1f412a8eebd8"},"vehicle_type_id":"4","last_reported":1714507652,"current_range_meters":11200,"station_id":"ce4bgt92rcd13ifvqcg0","pricing_plan_id":"cebpf4jnsgd1na2vs0mg"},{"bike_id":"9438f6f0-6401-4671-9c8c-f2063f71566e","system_id":"levelo_inurba_marseille","lat":43.311131,"lon":5.377651,"is_reserved":false,"is_disabled":false,"rental_uris":{"android":"levelo://app?vid=9438f6f0-6401-4671-9c8c-f2063f71566e","ios":"levelo://app?vid=9438f6f0-6401-4671-9c8c-f2063f71566e"},"vehicle_type_id":"4","last_reported":1714507652,"current_range_meters":27200,"station_id":"ce4bgt92rcd13ifvqcg0","pricing_plan_id":"cebpf4jnsgd1na2vs0mg"},{"bike_id":"90d6df38-231a-442b-8260-982e70ba5539","system_id":"levelo_inurba_marseille","lat":43.311125,"lon":5.377624,"is_reserved":false,"is_disabled":false,"rental_uris":{"android":"levelo://app?vid=90d6df38-231a-442b-8260-982e70ba5539","ios":"levelo://app?vid=90d6df38-231a-442b-8260-982e70ba5539"},"vehicle_type_id":"4","last_reported":1714507652,"current_range_meters":14800,"station_id":"ce4bgt92rcd13ifvqcg0","pricing_plan_id":"cebpf4jnsgd1na2vs0mg"},{"bike_id":"83b6ac54-4035-407b-9e4f-64fe73665e57","system_id":"levelo_inurba_marseille","lat":43.311125,"lon":5.377624,"is_reserved":false,"is_disabled":false,"rental_uris":{"android":"levelo://app?vid=83b6ac54-4035-407b-9e4f-64fe73665e57","ios":"levelo://app?vid=83b6ac54-4035-407b-9e4f-64fe73665e57"},"vehicle_type_id":"4","last_reported":1714507652,"current_range_meters":6400,"station_id":"ce4bgt92rcd13ifvqcg0","pricing_plan_id":"cebpf4jnsgd1na2vs0mg"},{"bike_id":"3d3f19de-22ec-4d1d-9b32-f6e3ea25e8f1","system_id":"levelo_inurba_marseille","lat":43.311131,"lon":5.377651,"is_reserved":false,"is_disabled":false,"rental_uris":{"android":"levelo://app?vid=3d3f19de-22ec-4d1d-9b32-f6e3ea25e8f1","ios":"levelo://app?vid=3d3f19de-22ec-4d1d-9b32-f6e3ea25e8f1"},"vehicle_type_id":"4","last_reported":1714507652,"current_range_meters":10000,"station_id":"ce4bgt92rcd13ifvqcg0","pricing_plan_id":"cebpf4jnsgd1na2vs0mg"},{"bike_id":"56d8f3d2-48da-43c5-9685-c984909aef9f","system_id":"levelo_inurba_marseille","lat":43.311207,"lon":5.377723,"is_reserved":false,"is_disabled":false,"rental_uris":{"android":"levelo://app?vid=56d8f3d2-48da-43c5-9685-c984909aef9f","ios":"levelo://app?vid=56d8f3d2-48da-43c5-9685-c984909aef9f"},"vehicle_type_id":"4","last_reported":1714507652,"current_range_meters":0,"station_id":"ce4bgt92rcd13ifvqcg0","pricing_plan_id":"cebpf4jnsgd1na2vs0mg"},{"bike_id":"b59531ed-ba0e-4d71-8ebc-578846fe509a","system_id":"levelo_inurba_marseille","lat":43.311125,"lon":5.377624,"is_reserved":false,"is_disabled":false,"rental_uris":{"android":"levelo://app?vid=b59531ed-ba0e-4d71-8ebc-578846fe509a","ios":"levelo://app?vid=b59531ed-ba0e-4d71-8ebc-578846fe509a"},"vehicle_type_id":"4","last_reported":1714507652,"current_range_meters":30000,"station_id":"ce4bgt92rcd13ifvqcg0","pricing_plan_id":"cebpf4jnsgd1na2vs0mg"},{"bike_id":"ba5da46e-2b3d-4937-a2e5-5e3b12ad74f2","system_id":"levelo_inurba_marseille","lat":43.307945,"lon":5.376487,"is_reserved":false,"is_disabled":false,"rental_uris":{"android":"levelo://app?vid=ba5da46e-2b3d-4937-a2e5-5e3b12ad74f2","ios":"levelo://app?vid=ba5da46e-2b3d-4937-a2e5-5e3b12ad74f2"},"vehicle_type_id":"4","last_reported":1714507652,"current_range_meters":10400,"station_id":"ce4bgv92rcd13ifvqcq0","pricing_plan_id":"cebpf4jnsgd1na2vs0mg"},{"bike_id":"9610319e-5640-4dc4-9804-3d47f87654ac","system_id":"levelo_inurba_marseille","lat":43.307945,"lon":5.376487,"is_reserved":false,"is_disabled":false,"rental_uris":{"android":"levelo://app?vid=9610319e-5640-4dc4-9804-3d47f87654ac","ios":"levelo://app?vid=9610319e-5640-4dc4-9804-3d47f87654ac"},"vehicle_type_id":"4","last_reported":1714507652,"current_range_meters":10800,"station_id":"ce4bgv92rcd13ifvqcq0","pricing_plan_id":"cebpf4jnsgd1na2vs0mg"},{"bike_id":"183af1fe-a5cd-4558-a770-d0985a6f786f","system_id":"levelo_inurba_marseille","lat":43.315293,"lon":5.380349,"is_reserved":false,"is_disabled":false,"rental_uris":{"android":"levelo://app?vid=183af1fe-a5cd-4558-a770-d0985a6f786f","ios":"levelo://app?vid=183af1fe-a5cd-4558-a770-d0985a6f786f"},"vehicle_type_id":"4","last_reported":1714507652,"current_range_meters":29600,"station_id":"ce4bhsp2rcd13ifvqi50","pricing_plan_id":"cebpf4jnsgd1na2vs0mg"},{"bike_id":"3a04ae60-ed9f-4bc7-8e53-f9c01dc46aa5","system_id":"levelo_inurba_marseille","lat":43.315293,"lon":5.380349,"is_reserved":false,"is_disabled":false,"rental_uris":{"android":"levelo://app?vid=3a04ae60-ed9f-4bc7-8e53-f9c01dc46aa5","ios":"levelo://app?vid=3a04ae60-ed9f-4bc7-8e53-f9c01dc46aa5"},"vehicle_type_id":"4","last_reported":1714507652,"current_range_meters":10800,"station_id":"ce4bhsp2rcd13ifvqi50","pricing_plan_id":"cebpf4jnsgd1na2vs0mg"},{"bike_id":"24c5e688-c380-4072-b712-0d50a8266f1e","system_id":"levelo_inurba_marseille","lat":43.301939,"lon":5.366286,"is_reserved":false,"is_disabled":false,"rental_uris":{"android":"levelo://app?vid=24c5e688-c380-4072-b712-0d50a8266f1e","ios":"levelo://app?vid=24c5e688-c380-4072-b712-0d50a8266f1e"},"vehicle_type_id":"4","last_reported":1714507652,"current_range_meters":16000,"station_id":"ce4bgrh2rcd13ifvqc8g","pricing_plan_id":"cebpf4jnsgd1na2vs0mg"},{"bike_id":"dc0e342e-362c-417e-b509-5d6fca308124","system_id":"levelo_inurba_marseille","lat":43.308012,"lon":5.381511,"is_reserved":false,"is_disabled":false,"rental_uris":{"android":"levelo://app?vid=dc0e342e-362c-417e-b509-5d6fca308124","ios":"levelo://app?vid=dc0e342e-362c-417e-b509-5d6fca308124"},"vehicle_type_id":"4","last_reported":1714507652,"current_range_meters":8400,"station_id":"ce4bgt12rcd13ifvqce0","pricing_plan_id":"cebpf4jnsgd1na2vs0mg"},{"bike_id":"49ca03c5-bad0-420a-9003-6ea67a9fd7b3","system_id":"levelo_inurba_marseille","lat":43.308012,"lon":5.381511,"is_reserved":false,"is_disabled":false,"rental_uris":{"android":"levelo://app?vid=49ca03c5-bad0-420a-9003-6ea67a9fd7b3","ios":"levelo://app?vid=49ca03c5-bad0-420a-9003-6ea67a9fd7b3"},"vehicle_type_id":"4","last_reported":1714507652,"current_range_meters":24800,"station_id":"ce4bgt12rcd13ifvqce0","pricing_plan_id":"cebpf4jnsgd1na2vs0mg"},{"bike_id":"8b3d05be-de17-4597-bf47-dbe8180f5f16","system_id":"levelo_inurba_marseille","lat":43.308012,"lon":5.381511,"is_reserved":false,"is_disabled":false,"rental_uris":{"android":"levelo://app?vid=8b3d05be-de17-4597-bf47-dbe8180f5f16","ios":"levelo://app?vid=8b3d05be-de17-4597-bf47-dbe8180f5f16"},"vehicle_type_id":"4","last_reported":1714507652,"current_range_meters":0,"station_id":"ce4bgt12rcd13ifvqce0","pricing_plan_id":"cebpf4jnsgd1na2vs0mg"},{"bike_id":"505c9fc0-49c3-4c39-ab88-1ba2555dbf58","system_id":"levelo_inurba_marseille","lat":43.3247,"lon":5.36558,"is_reserved":false,"is_disabled":false,"rental_uris":{"android":"levelo://app?vid=505c9fc0-49c3-4c39-ab88-1ba2555dbf58","ios":"levelo://app?vid=505c9fc0-49c3-4c39-ab88-1ba2555dbf58"},"vehicle_type_id":"4","last_reported":1714507652,"current_range_meters":10400,"station_id":"ce4bhs12rcd13ifvqhvg","pricing_plan_id":"cebpf4jnsgd1na2vs0mg"},{"bike_id":"3f914c8f-5174-4bb1-b1a1-e87e13ff4040","system_id":"levelo_inurba_marseille","lat":43.304606,"lon":5.379026,"is_reserved":false,"is_disabled":false,"rental_uris":{"android":"levelo://app?vid=3f914c8f-5174-4bb1-b1a1-e87e13ff4040","ios":"levelo://app?vid=3f914c8f-5174-4bb1-b1a1-e87e13ff4040"},"vehicle_type_id":"4","last_reported":1714507652,"current_range_meters":14800,"station_id":"ce4bgup2rcd13ifvqcn0","pricing_plan_id":"cebpf4jnsgd1na2vs0mg"},{"bike_id":"c309f7ba-6ad6-4d3f-a1a7-a3843971cf8b","system_id":"levelo_inurba_marseille","lat":43.324771,"lon":5.36557,"is_reserved":false,"is_disabled":false,"rental_uris":{"android":"levelo://app?vid=c309f7ba-6ad6-4d3f-a1a7-a3843971cf8b","ios":"levelo://app?vid=c309f7ba-6ad6-4d3f-a1a7-a3843971cf8b"},"vehicle_type_id":"4","last_reported":1714507652,"current_range_meters":23200,"station_id":"ce4bhs12rcd13ifvqhvg","pricing_plan_id":"cebpf4jnsgd1na2vs0mg"},{"bike_id":"d689d75b-2503-4c26-a0fd-e4e182d9b314","system_id":"levelo_inurba_marseille","lat":43.32481,"lon":5.36589,"is_reserved":false,"is_disabled":false,"rental_uris":{"android":"levelo://app?vid=d689d75b-2503-4c26-a0fd-e4e182d9b314","ios":"levelo://app?vid=d689d75b-2503-4c26-a0fd-e4e182d9b314"},"vehicle_type_id":"4","last_reported":1714507652,"current_range_meters":12800,"station_id":"ce4bhs12rcd13ifvqhvg","pricing_plan_id":"cebpf4jnsgd1na2vs0mg"},{"bike_id":"ec9ad42d-7bf5-43ef-a2cf-ce73f78031d9","system_id":"levelo_inurba_marseille","lat":43.324771,"lon":5.36557,"is_reserved":false,"is_disabled":false,"rental_uris":{"android":"levelo://app?vid=ec9ad42d-7bf5-43ef-a2cf-ce73f78031d9","ios":"levelo://app?vid=ec9ad42d-7bf5-43ef-a2cf-ce73f78031d9"},"vehicle_type_id":"4","last_reported":1714507652,"current_range_meters":8000,"station_id":"ce4bhs12rcd13ifvqhvg","pricing_plan_id":"cebpf4jnsgd1na2vs0mg"},{"bike_id":"cb5035c4-9e66-46e5-baea-a68bc4206adf","system_id":"levelo_inurba_marseille","lat":43.324816,"lon":5.365902,"is_reserved":false,"is_disabled":false,"rental_uris":{"android":"levelo://app?vid=cb5035c4-9e66-46e5-baea-a68bc4206adf","ios":"levelo://app?vid=cb5035c4-9e66-46e5-baea-a68bc4206adf"},"vehicle_type_id":"4","last_reported":1714507652,"current_range_meters":13600,"station_id":"ce4bhs12rcd13ifvqhvg","pricing_plan_id":"cebpf4jnsgd1na2vs0mg"},{"bike_id":"287d9b9e-310c-47c5-b100-0f1ea90fbd75","system_id":"levelo_inurba_marseille","lat":43.301429,"lon":5.37413,"is_reserved":false,"is_disabled":false,"rental_uris":{"android":"levelo://app?vid=287d9b9e-310c-47c5-b100-0f1ea90fbd75","ios":"levelo://app?vid=287d9b9e-310c-47c5-b100-0f1ea90fbd75"},"vehicle_type_id":"4","last_reported":1714507652,"current_range_meters":24000,"station_id":"ce4bgs92rcd13ifvqcc0","pricing_plan_id":"cebpf4jnsgd1na2vs0mg"},{"bike_id":"caadc003-ff39-41d7-a207-143cea53cb36","system_id":"levelo_inurba_marseille","lat":43.324812,"lon":5.365816,"is_reserved":false,"is_disabled":false,"rental_uris":{"android":"levelo://app?vid=caadc003-ff39-41d7-a207-143cea53cb36","ios":"levelo://app?vid=caadc003-ff39-41d7-a207-143cea53cb36"},"vehicle_type_id":"4","last_reported":1714507652,"current_range_meters":30000,"station_id":"ce4bhs12rcd13ifvqhvg","pricing_plan_id":"cebpf4jnsgd1na2vs0mg"},{"bike_id":"0a4a6ca4-0474-4f68-b089-af26c0c8b25a","system_id":"levelo_inurba_marseille","lat":43.324771,"lon":5.36557,"is_reserved":false,"is_disabled":false,"rental_uris":{"android":"levelo://app?vid=0a4a6ca4-0474-4f68-b089-af26c0c8b25a","ios":"levelo://app?vid=0a4a6ca4-0474-4f68-b089-af26c0c8b25a"},"vehicle_type_id":"4","last_reported":1714507652,"current_range_meters":19200,"station_id":"ce4bhs12rcd13ifvqhvg","pricing_plan_id":"cebpf4jnsgd1na2vs0mg"},{"bike_id":"b542f8ad-0de0-40a1-9ef7-53b385381a12","system_id":"levelo_inurba_marseille","lat":43.324771,"lon":5.36557,"is_reserved":false,"is_disabled":false,"rental_uris":{"android":"levelo://app?vid=b542f8ad-0de0-40a1-9ef7-53b385381a12","ios":"levelo://app?vid=b542f8ad-0de0-40a1-9ef7-53b385381a12"},"vehicle_type_id":"4","last_reported":1714507652,"current_range_meters":8000,"station_id":"ce4bhs12rcd13ifvqhvg","pricing_plan_id":"cebpf4jnsgd1na2vs0mg"},{"bike_id":"20ee36ab-83ec-4fcb-9465-adbceb8bedfc","system_id":"levelo_inurba_marseille","lat":43.324771,"lon":5.36557,"is_reserved":false,"is_disabled":false,"rental_uris":{"android":"levelo://app?vid=20ee36ab-83ec-4fcb-9465-adbceb8bedfc","ios":"levelo://app?vid=20ee36ab-83ec-4fcb-9465-adbceb8bedfc"},"vehicle_type_id":"4","last_reported":1714507652,"current_range_meters":30000,"station_id":"ce4bhs12rcd13ifvqhvg","pricing_plan_id":"cebpf4jnsgd1na2vs0mg"},{"bike_id":"9ff0830f-e0f2-4f56-8687-5dd0c71549f1","system_id":"levelo_inurba_marseille","lat":43.324815,"lon":5.365573,"is_reserved":false,"is_disabled":false,"rental_uris":{"android":"levelo://app?vid=9ff0830f-e0f2-4f56-8687-5dd0c71549f1","ios":"levelo://app?vid=9ff0830f-e0f2-4f56-8687-5dd0c71549f1"},"vehicle_type_id":"4","last_reported":1714507652,"current_range_meters":1600,"station_id":"ce4bhs12rcd13ifvqhvg","pricing_plan_id":"cebpf4jnsgd1na2vs0mg"},{"bike_id":"06ac2027-09f1-4680-aa1f-6ab726213cb9","system_id":"levelo_inurba_marseille","lat":43.324771,"lon":5.36557,"is_reserved":false,"is_disabled":false,"rental_uris":{"android":"levelo://app?vid=06ac2027-09f1-4680-aa1f-6ab726213cb9","ios":"levelo://app?vid=06ac2027-09f1-4680-aa1f-6ab726213cb9"},"vehicle_type_id":"4","last_reported":1714507652,"current_range_meters":8800,"station_id":"ce4bhs12rcd13ifvqhvg","pricing_plan_id":"cebpf4jnsgd1na2vs0mg"},{"bike_id":"a220ad8e-30f9-4404-aa2e-6db3aa6afb45","system_id":"levelo_inurba_marseille","lat":43.324771,"lon":5.36557,"is_reserved":false,"is_disabled":false,"rental_uris":{"android":"levelo://app?vid=a220ad8e-30f9-4404-aa2e-6db3aa6afb45","ios":"levelo://app?vid=a220ad8e-30f9-4404-aa2e-6db3aa6afb45"},"vehicle_type_id":"4","last_reported":1714507652,"current_range_meters":9200,"station_id":"ce4bhs12rcd13ifvqhvg","pricing_plan_id":"cebpf4jnsgd1na2vs0mg"},{"bike_id":"e560c9f7-9a68-4c7c-a574-1ae51de44590","system_id":"levelo_inurba_marseille","lat":43.324771,"lon":5.36557,"is_reserved":false,"is_disabled":false,"rental_uris":{"android":"levelo://app?vid=e560c9f7-9a68-4c7c-a574-1ae51de44590","ios":"levelo://app?vid=e560c9f7-9a68-4c7c-a574-1ae51de44590"},"vehicle_type_id":"4","last_reported":1714507652,"current_range_meters":8800,"station_id":"ce4bhs12rcd13ifvqhvg","pricing_plan_id":"cebpf4jnsgd1na2vs0mg"},{"bike_id":"263ddf92-f97b-4bde-af65-350aba08e4ca","system_id":"levelo_inurba_marseille","lat":43.324771,"lon":5.36557,"is_reserved":false,"is_disabled":false,"rental_uris":{"android":"levelo://app?vid=263ddf92-f97b-4bde-af65-350aba08e4ca","ios":"levelo://app?vid=263ddf92-f97b-4bde-af65-350aba08e4ca"},"vehicle_type_id":"4","last_reported":1714507652,"current_range_meters":10800,"station_id":"ce4bhs12rcd13ifvqhvg","pricing_plan_id":"cebpf4jnsgd1na2vs0mg"},{"bike_id":"1c9411c0-d42f-4c9c-954b-623621242b42","system_id":"levelo_inurba_marseille","lat":43.324771,"lon":5.36557,"is_reserved":false,"is_disabled":false,"rental_uris":{"android":"levelo://app?vid=1c9411c0-d42f-4c9c-954b-623621242b42","ios":"levelo://app?vid=1c9411c0-d42f-4c9c-954b-623621242b42"},"vehicle_type_id":"4","last_reported":1714507652,"current_range_meters":13200,"station_id":"ce4bhs12rcd13ifvqhvg","pricing_plan_id":"cebpf4jnsgd1na2vs0mg"},{"bike_id":"38034195-f3ea-4a5f-9ad9-18410ccfb664","system_id":"levelo_inurba_marseille","lat":43.32483,"lon":5.36573,"is_reserved":false,"is_disabled":false,"rental_uris":{"android":"levelo://app?vid=38034195-f3ea-4a5f-9ad9-18410ccfb664","ios":"levelo://app?vid=38034195-f3ea-4a5f-9ad9-18410ccfb664"},"vehicle_type_id":"4","last_reported":1714507652,"current_range_meters":14800,"station_id":"ce4bhs12rcd13ifvqhvg","pricing_plan_id":"cebpf4jnsgd1na2vs0mg"},{"bike_id":"7a10f6e8-8083-4b57-a90f-541d4663b3eb","system_id":"levelo_inurba_marseille","lat":43.324771,"lon":5.36557,"is_reserved":false,"is_disabled":false,"rental_uris":{"android":"levelo://app?vid=7a10f6e8-8083-4b57-a90f-541d4663b3eb","ios":"levelo://app?vid=7a10f6e8-8083-4b57-a90f-541d4663b3eb"},"vehicle_type_id":"4","last_reported":1714507652,"current_range_meters":15200,"station_id":"ce4bhs12rcd13ifvqhvg","pricing_plan_id":"cebpf4jnsgd1na2vs0mg"},{"bike_id":"ff14dfe6-78af-413d-a3ea-3b224d7ea33d","system_id":"levelo_inurba_marseille","lat":43.324771,"lon":5.36557,"is_reserved":false,"is_disabled":false,"rental_uris":{"android":"levelo://app?vid=ff14dfe6-78af-413d-a3ea-3b224d7ea33d","ios":"levelo://app?vid=ff14dfe6-78af-413d-a3ea-3b224d7ea33d"},"vehicle_type_id":"4","last_reported":1714507652,"current_range_meters":23200,"station_id":"ce4bhs12rcd13ifvqhvg","pricing_plan_id":"cebpf4jnsgd1na2vs0mg"},{"bike_id":"b21ae7ee-dd87-4fb7-a859-109931d2977d","system_id":"levelo_inurba_marseille","lat":43.324771,"lon":5.36557,"is_reserved":false,"is_disabled":false,"rental_uris":{"android":"levelo://app?vid=b21ae7ee-dd87-4fb7-a859-109931d2977d","ios":"levelo://app?vid=b21ae7ee-dd87-4fb7-a859-109931d2977d"},"vehicle_type_id":"4","last_reported":1714507652,"current_range_meters":14400,"station_id":"ce4bhs12rcd13ifvqhvg","pricing_plan_id":"cebpf4jnsgd1na2vs0mg"},{"bike_id":"775b5193-55cb-42f1-b0fa-acd6f40ef433","system_id":"levelo_inurba_marseille","lat":43.324771,"lon":5.36557,"is_reserved":false,"is_disabled":false,"rental_uris":{"android":"levelo://app?vid=775b5193-55cb-42f1-b0fa-acd6f40ef433","ios":"levelo://app?vid=775b5193-55cb-42f1-b0fa-acd6f40ef433"},"vehicle_type_id":"4","last_reported":1714507652,"current_range_meters":29200,"station_id":"ce4bhs12rcd13ifvqhvg","pricing_plan_id":"cebpf4jnsgd1na2vs0mg"},{"bike_id":"3233b655-0e42-4745-9352-e7ab6daacfd8","system_id":"levelo_inurba_marseille","lat":43.324771,"lon":5.36557,"is_reserved":false,"is_disabled":false,"rental_uris":{"android":"levelo://app?vid=3233b655-0e42-4745-9352-e7ab6daacfd8","ios":"levelo://app?vid=3233b655-0e42-4745-9352-e7ab6daacfd8"},"vehicle_type_id":"4","last_reported":1714507652,"current_range_meters":30000,"station_id":"ce4bhs12rcd13ifvqhvg","pricing_plan_id":"cebpf4jnsgd1na2vs0mg"},{"bike_id":"527b3cf7-b838-43de-ab8e-e854528cb219","system_id":"levelo_inurba_marseille","lat":43.324771,"lon":5.36557,"is_reserved":false,"is_disabled":false,"rental_uris":{"android":"levelo://app?vid=527b3cf7-b838-43de-ab8e-e854528cb219","ios":"levelo://app?vid=527b3cf7-b838-43de-ab8e-e854528cb219"},"vehicle_type_id":"4","last_reported":1714507652,"current_range_meters":16400,"station_id":"ce4bhs12rcd13ifvqhvg","pricing_plan_id":"cebpf4jnsgd1na2vs0mg"},{"bike_id":"fca0512a-e514-43b3-a37e-665741369b77","system_id":"levelo_inurba_marseille","lat":43.324771,"lon":5.36557,"is_reserved":false,"is_disabled":false,"rental_uris":{"android":"levelo://app?vid=fca0512a-e514-43b3-a37e-665741369b77","ios":"levelo://app?vid=fca0512a-e514-43b3-a37e-665741369b77"},"vehicle_type_id":"4","last_reported":1714507652,"current_range_meters":18000,"station_id":"ce4bhs12rcd13ifvqhvg","pricing_plan_id":"cebpf4jnsgd1na2vs0mg"},{"bike_id":"199cd420-3018-4434-8932-509526242942","system_id":"levelo_inurba_marseille","lat":43.324771,"lon":5.36557,"is_reserved":false,"is_disabled":false,"rental_uris":{"android":"levelo://app?vid=199cd420-3018-4434-8932-509526242942","ios":"levelo://app?vid=199cd420-3018-4434-8932-509526242942"},"vehicle_type_id":"4","last_reported":1714507652,"current_range_meters":0,"station_id":"ce4bhs12rcd13ifvqhvg","pricing_plan_id":"cebpf4jnsgd1na2vs0mg"},{"bike_id":"2cb8d4af-041d-4bec-a228-7f59da5d6549","system_id":"levelo_inurba_marseille","lat":43.3249,"lon":5.36571,"is_reserved":false,"is_disabled":false,"rental_uris":{"android":"levelo://app?vid=2cb8d4af-041d-4bec-a228-7f59da5d6549","ios":"levelo://app?vid=2cb8d4af-041d-4bec-a228-7f59da5d6549"},"vehicle_type_id":"4","last_reported":1714507652,"current_range_meters":2000,"station_id":"ce4bhs12rcd13ifvqhvg","pricing_plan_id":"cebpf4jnsgd1na2vs0mg"},{"bike_id":"478d483e-5d07-457f-9701-2e5dcc816a1a","system_id":"levelo_inurba_marseille","lat":43.31073,"lon":5.3835,"is_reserved":false,"is_disabled":false,"rental_uris":{"android":"levelo://app?vid=478d483e-5d07-457f-9701-2e5dcc816a1a","ios":"levelo://app?vid=478d483e-5d07-457f-9701-2e5dcc816a1a"},"vehicle_type_id":"4","last_reported":1714507652,"current_range_meters":14800,"station_id":"ce4bgv92rcd13ifvqcr0","pricing_plan_id":"cebpf4jnsgd1na2vs0mg"},{"bike_id":"8ff6b054-1eab-4a97-b3eb-516d4a59b7eb","system_id":"levelo_inurba_marseille","lat":43.310804,"lon":5.38359,"is_reserved":false,"is_disabled":false,"rental_uris":{"android":"levelo://app?vid=8ff6b054-1eab-4a97-b3eb-516d4a59b7eb","ios":"levelo://app?vid=8ff6b054-1eab-4a97-b3eb-516d4a59b7eb"},"vehicle_type_id":"4","last_reported":1714507652,"current_range_meters":20400,"station_id":"ce4bgv92rcd13ifvqcr0","pricing_plan_id":"cebpf4jnsgd1na2vs0mg"},{"bike_id":"307b2ff8-9ad6-4128-8a2f-ba86690d45f8","system_id":"levelo_inurba_marseille","lat":43.310804,"lon":5.38359,"is_reserved":false,"is_disabled":false,"rental_uris":{"android":"levelo://app?vid=307b2ff8-9ad6-4128-8a2f-ba86690d45f8","ios":"levelo://app?vid=307b2ff8-9ad6-4128-8a2f-ba86690d45f8"},"vehicle_type_id":"4","last_reported":1714507652,"current_range_meters":8800,"station_id":"ce4bgv92rcd13ifvqcr0","pricing_plan_id":"cebpf4jnsgd1na2vs0mg"},{"bike_id":"2750f35a-5ecf-4180-8a3a-bc1a5574ffd9","system_id":"levelo_inurba_marseille","lat":43.310804,"lon":5.38359,"is_reserved":false,"is_disabled":false,"rental_uris":{"android":"levelo://app?vid=2750f35a-5ecf-4180-8a3a-bc1a5574ffd9","ios":"levelo://app?vid=2750f35a-5ecf-4180-8a3a-bc1a5574ffd9"},"vehicle_type_id":"4","last_reported":1714507652,"current_range_meters":24400,"station_id":"ce4bgv92rcd13ifvqcr0","pricing_plan_id":"cebpf4jnsgd1na2vs0mg"},{"bike_id":"5724849d-c26e-4b13-b10a-cbe8d0f0e127","system_id":"levelo_inurba_marseille","lat":43.310775,"lon":5.383567,"is_reserved":false,"is_disabled":false,"rental_uris":{"android":"levelo://app?vid=5724849d-c26e-4b13-b10a-cbe8d0f0e127","ios":"levelo://app?vid=5724849d-c26e-4b13-b10a-cbe8d0f0e127"},"vehicle_type_id":"4","last_reported":1714507652,"current_range_meters":17600,"station_id":"ce4bgv92rcd13ifvqcr0","pricing_plan_id":"cebpf4jnsgd1na2vs0mg"},{"bike_id":"321f9d28-ee7f-4afa-a28c-be53e03f8d73","system_id":"levelo_inurba_marseille","lat":43.310804,"lon":5.38359,"is_reserved":false,"is_disabled":false,"rental_uris":{"android":"levelo://app?vid=321f9d28-ee7f-4afa-a28c-be53e03f8d73","ios":"levelo://app?vid=321f9d28-ee7f-4afa-a28c-be53e03f8d73"},"vehicle_type_id":"4","last_reported":1714507652,"current_range_meters":2000,"station_id":"ce4bgv92rcd13ifvqcr0","pricing_plan_id":"cebpf4jnsgd1na2vs0mg"},{"bike_id":"9f2ef3ae-73a9-4607-96d9-01c69b64af4e","system_id":"levelo_inurba_marseille","lat":43.302784,"lon":5.377158,"is_reserved":false,"is_disabled":false,"rental_uris":{"android":"levelo://app?vid=9f2ef3ae-73a9-4607-96d9-01c69b64af4e","ios":"levelo://app?vid=9f2ef3ae-73a9-4607-96d9-01c69b64af4e"},"vehicle_type_id":"4","last_reported":1714507652,"current_range_meters":16400,"station_id":"ce4bguh2rcd13ifvqcj0","pricing_plan_id":"cebpf4jnsgd1na2vs0mg"},{"bike_id":"6e3be3ec-3d73-48df-9ab5-f50c61ae7bff","system_id":"levelo_inurba_marseille","lat":43.31087,"lon":5.383858,"is_reserved":false,"is_disabled":false,"rental_uris":{"android":"levelo://app?vid=6e3be3ec-3d73-48df-9ab5-f50c61ae7bff","ios":"levelo://app?vid=6e3be3ec-3d73-48df-9ab5-f50c61ae7bff"},"vehicle_type_id":"4","last_reported":1714507652,"current_range_meters":24000,"station_id":"ce4bgv92rcd13ifvqcr0","pricing_plan_id":"cebpf4jnsgd1na2vs0mg"},{"bike_id":"c213721e-01e8-4ca3-b82b-816e9301bbad","system_id":"levelo_inurba_marseille","lat":43.30143,"lon":5.37413,"is_reserved":false,"is_disabled":false,"rental_uris":{"android":"levelo://app?vid=c213721e-01e8-4ca3-b82b-816e9301bbad","ios":"levelo://app?vid=c213721e-01e8-4ca3-b82b-816e9301bbad"},"vehicle_type_id":"4","last_reported":1714507652,"current_range_meters":400,"station_id":"ce4bgs92rcd13ifvqcc0","pricing_plan_id":"cebpf4jnsgd1na2vs0mg"},{"bike_id":"b4182046-e93c-4445-b88a-e9fb47c0502f","system_id":"levelo_inurba_marseille","lat":43.303833,"lon":5.379248,"is_reserved":false,"is_disabled":false,"rental_uris":{"android":"levelo://app?vid=b4182046-e93c-4445-b88a-e9fb47c0502f","ios":"levelo://app?vid=b4182046-e93c-4445-b88a-e9fb47c0502f"},"vehicle_type_id":"4","last_reported":1714507652,"current_range_meters":6800,"station_id":"ce4bgv92rcd13ifvqcr0","pricing_plan_id":"cebpf4jnsgd1na2vs0mg"},{"bike_id":"4eabf273-d6ab-4f69-aa17-5ce3078e9cfa","system_id":"levelo_inurba_marseille","lat":43.319935,"lon":5.381699,"is_reserved":false,"is_disabled":false,"rental_uris":{"android":"levelo://app?vid=4eabf273-d6ab-4f69-aa17-5ce3078e9cfa","ios":"levelo://app?vid=4eabf273-d6ab-4f69-aa17-5ce3078e9cfa"},"vehicle_type_id":"4","last_reported":1714507652,"current_range_meters":12400,"station_id":"ce4bhr12rcd13ifvqhpg","pricing_plan_id":"cebpf4jnsgd1na2vs0mg"},{"bike_id":"952baf88-6145-4f3f-b32f-66ddd2b06b56","system_id":"levelo_inurba_marseille","lat":43.319935,"lon":5.381699,"is_reserved":false,"is_disabled":false,"rental_uris":{"android":"levelo://app?vid=952baf88-6145-4f3f-b32f-66ddd2b06b56","ios":"levelo://app?vid=952baf88-6145-4f3f-b32f-66ddd2b06b56"},"vehicle_type_id":"4","last_reported":1714507652,"current_range_meters":6000,"station_id":"ce4bhr12rcd13ifvqhpg","pricing_plan_id":"cebpf4jnsgd1na2vs0mg"},{"bike_id":"72159ef7-60a0-4265-8e23-c1c78a9f4a53","system_id":"levelo_inurba_marseille","lat":43.319935,"lon":5.381699,"is_reserved":false,"is_disabled":false,"rental_uris":{"android":"levelo://app?vid=72159ef7-60a0-4265-8e23-c1c78a9f4a53","ios":"levelo://app?vid=72159ef7-60a0-4265-8e23-c1c78a9f4a53"},"vehicle_type_id":"4","last_reported":1714507652,"current_range_meters":8400,"station_id":"ce4bhr12rcd13ifvqhpg","pricing_plan_id":"cebpf4jnsgd1na2vs0mg"},{"bike_id":"4b678404-bcb7-469e-8217-1687e76be9e0","system_id":"levelo_inurba_marseille","lat":43.319935,"lon":5.381699,"is_reserved":false,"is_disabled":false,"rental_uris":{"android":"levelo://app?vid=4b678404-bcb7-469e-8217-1687e76be9e0","ios":"levelo://app?vid=4b678404-bcb7-469e-8217-1687e76be9e0"},"vehicle_type_id":"4","last_reported":1714507652,"current_range_meters":22800,"station_id":"ce4bhr12rcd13ifvqhpg","pricing_plan_id":"cebpf4jnsgd1na2vs0mg"},{"bike_id":"bf7237d8-45ec-4e41-a5f9-2e40df36b0a3","system_id":"levelo_inurba_marseille","lat":43.319935,"lon":5.381699,"is_reserved":false,"is_disabled":false,"rental_uris":{"android":"levelo://app?vid=bf7237d8-45ec-4e41-a5f9-2e40df36b0a3","ios":"levelo://app?vid=bf7237d8-45ec-4e41-a5f9-2e40df36b0a3"},"vehicle_type_id":"4","last_reported":1714507652,"current_range_meters":8400,"station_id":"ce4bhr12rcd13ifvqhpg","pricing_plan_id":"cebpf4jnsgd1na2vs0mg"},{"bike_id":"9f1d05e4-6bf3-4a7e-a11a-eccceb1c2675","system_id":"levelo_inurba_marseille","lat":43.313571,"lon":5.384829,"is_reserved":false,"is_disabled":false,"rental_uris":{"android":"levelo://app?vid=9f1d05e4-6bf3-4a7e-a11a-eccceb1c2675","ios":"levelo://app?vid=9f1d05e4-6bf3-4a7e-a11a-eccceb1c2675"},"vehicle_type_id":"4","last_reported":1714507652,"current_range_meters":24800,"station_id":"ce4bgt92rcd13ifvqcf0","pricing_plan_id":"cebpf4jnsgd1na2vs0mg"},{"bike_id":"2e8a4084-6679-4e4a-81d8-683e251ed1ac","system_id":"levelo_inurba_marseille","lat":43.313571,"lon":5.384829,"is_reserved":false,"is_disabled":false,"rental_uris":{"android":"levelo://app?vid=2e8a4084-6679-4e4a-81d8-683e251ed1ac","ios":"levelo://app?vid=2e8a4084-6679-4e4a-81d8-683e251ed1ac"},"vehicle_type_id":"4","last_reported":1714507652,"current_range_meters":2800,"station_id":"ce4bgt92rcd13ifvqcf0","pricing_plan_id":"cebpf4jnsgd1na2vs0mg"},{"bike_id":"5c05777f-725a-4bf9-a652-f4bd053b6a99","system_id":"levelo_inurba_marseille","lat":43.313571,"lon":5.384829,"is_reserved":false,"is_disabled":false,"rental_uris":{"android":"levelo://app?vid=5c05777f-725a-4bf9-a652-f4bd053b6a99","ios":"levelo://app?vid=5c05777f-725a-4bf9-a652-f4bd053b6a99"},"vehicle_type_id":"4","last_reported":1714507652,"current_range_meters":18000,"station_id":"ce4bgt92rcd13ifvqcf0","pricing_plan_id":"cebpf4jnsgd1na2vs0mg"},{"bike_id":"ad4e83bd-614d-4fae-bc45-2353752384ba","system_id":"levelo_inurba_marseille","lat":43.299222,"lon":5.365554,"is_reserved":false,"is_disabled":false,"rental_uris":{"android":"levelo://app?vid=ad4e83bd-614d-4fae-bc45-2353752384ba","ios":"levelo://app?vid=ad4e83bd-614d-4fae-bc45-2353752384ba"},"vehicle_type_id":"4","last_reported":1714507652,"current_range_meters":30400,"station_id":"ce4bgm92rcd13ifvqbr0","pricing_plan_id":"cebpf4jnsgd1na2vs0mg"},{"bike_id":"ce6312f7-58cf-4610-bca8-ea01e1f3852c","system_id":"levelo_inurba_marseille","lat":43.29971,"lon":5.37174,"is_reserved":false,"is_disabled":false,"rental_uris":{"android":"levelo://app?vid=ce6312f7-58cf-4610-bca8-ea01e1f3852c","ios":"levelo://app?vid=ce6312f7-58cf-4610-bca8-ea01e1f3852c"},"vehicle_type_id":"4","last_reported":1714507652,"current_range_meters":11600,"station_id":"ce4bgr92rcd13ifvqc7g","pricing_plan_id":"cebpf4jnsgd1na2vs0mg"},{"bike_id":"b0c112c8-7eb7-4e2d-8797-96887a3d4e83","system_id":"levelo_inurba_marseille","lat":43.299222,"lon":5.365554,"is_reserved":false,"is_disabled":false,"rental_uris":{"android":"levelo://app?vid=b0c112c8-7eb7-4e2d-8797-96887a3d4e83","ios":"levelo://app?vid=b0c112c8-7eb7-4e2d-8797-96887a3d4e83"},"vehicle_type_id":"4","last_reported":1714507652,"current_range_meters":5200,"station_id":"ce4bgm92rcd13ifvqbr0","pricing_plan_id":"cebpf4jnsgd1na2vs0mg"},{"bike_id":"19b7d83d-1fc7-4db5-b99d-41605c28ac21","system_id":"levelo_inurba_marseille","lat":43.299243,"lon":5.37481,"is_reserved":false,"is_disabled":false,"rental_uris":{"android":"levelo://app?vid=19b7d83d-1fc7-4db5-b99d-41605c28ac21","ios":"levelo://app?vid=19b7d83d-1fc7-4db5-b99d-41605c28ac21"},"vehicle_type_id":"4","last_reported":1714507652,"current_range_meters":30000,"station_id":"ce4bgjh2rcd13ifvqbg0","pricing_plan_id":"cebpf4jnsgd1na2vs0mg"},{"bike_id":"bc0d8ca7-5a92-4ed5-a752-9880f2cbff41","system_id":"levelo_inurba_marseille","lat":43.311722,"lon":5.387247,"is_reserved":false,"is_disabled":false,"rental_uris":{"android":"levelo://app?vid=bc0d8ca7-5a92-4ed5-a752-9880f2cbff41","ios":"levelo://app?vid=bc0d8ca7-5a92-4ed5-a752-9880f2cbff41"},"vehicle_type_id":"4","last_reported":1714507652,"current_range_meters":5200,"station_id":"ce4bgv12rcd13ifvqcp0","pricing_plan_id":"cebpf4jnsgd1na2vs0mg"},{"bike_id":"c9fedb2d-c8e9-457e-8f5a-467eda7f5b4c","system_id":"levelo_inurba_marseille","lat":43.311722,"lon":5.387247,"is_reserved":false,"is_disabled":false,"rental_uris":{"android":"levelo://app?vid=c9fedb2d-c8e9-457e-8f5a-467eda7f5b4c","ios":"levelo://app?vid=c9fedb2d-c8e9-457e-8f5a-467eda7f5b4c"},"vehicle_type_id":"4","last_reported":1714507652,"current_range_meters":16800,"station_id":"ce4bgv12rcd13ifvqcp0","pricing_plan_id":"cebpf4jnsgd1na2vs0mg"},{"bike_id":"28ace04e-9076-4dee-88c2-508f6c477920","system_id":"levelo_inurba_marseille","lat":43.311722,"lon":5.387247,"is_reserved":false,"is_disabled":false,"rental_uris":{"android":"levelo://app?vid=28ace04e-9076-4dee-88c2-508f6c477920","ios":"levelo://app?vid=28ace04e-9076-4dee-88c2-508f6c477920"},"vehicle_type_id":"4","last_reported":1714507652,"current_range_meters":13200,"station_id":"ce4bgv12rcd13ifvqcp0","pricing_plan_id":"cebpf4jnsgd1na2vs0mg"},{"bike_id":"a2695fa3-c1f9-4210-a642-6620c811688b","system_id":"levelo_inurba_marseille","lat":43.311722,"lon":5.387247,"is_reserved":false,"is_disabled":false,"rental_uris":{"android":"levelo://app?vid=a2695fa3-c1f9-4210-a642-6620c811688b","ios":"levelo://app?vid=a2695fa3-c1f9-4210-a642-6620c811688b"},"vehicle_type_id":"4","last_reported":1714507652,"current_range_meters":20800,"station_id":"ce4bgv12rcd13ifvqcp0","pricing_plan_id":"cebpf4jnsgd1na2vs0mg"},{"bike_id":"c3d33382-fc88-4670-b2c8-405cb245c799","system_id":"levelo_inurba_marseille","lat":43.299243,"lon":5.374807,"is_reserved":false,"is_disabled":false,"rental_uris":{"android":"levelo://app?vid=c3d33382-fc88-4670-b2c8-405cb245c799","ios":"levelo://app?vid=c3d33382-fc88-4670-b2c8-405cb245c799"},"vehicle_type_id":"4","last_reported":1714507652,"current_range_meters":16800,"station_id":"ce4bgjh2rcd13ifvqbg0","pricing_plan_id":"cebpf4jnsgd1na2vs0mg"},{"bike_id":"ceae3fce-e1b7-45ff-b79a-7a72da8c55fd","system_id":"levelo_inurba_marseille","lat":43.311722,"lon":5.387247,"is_reserved":false,"is_disabled":false,"rental_uris":{"android":"levelo://app?vid=ceae3fce-e1b7-45ff-b79a-7a72da8c55fd","ios":"levelo://app?vid=ceae3fce-e1b7-45ff-b79a-7a72da8c55fd"},"vehicle_type_id":"4","last_reported":1714507652,"current_range_meters":1200,"station_id":"ce4bgv12rcd13ifvqcp0","pricing_plan_id":"cebpf4jnsgd1na2vs0mg"},{"bike_id":"c3cb4609-abb8-4306-bee6-7aae1dcda89b","system_id":"levelo_inurba_marseille","lat":43.311722,"lon":5.387247,"is_reserved":false,"is_disabled":false,"rental_uris":{"android":"levelo://app?vid=c3cb4609-abb8-4306-bee6-7aae1dcda89b","ios":"levelo://app?vid=c3cb4609-abb8-4306-bee6-7aae1dcda89b"},"vehicle_type_id":"4","last_reported":1714507652,"current_range_meters":18800,"station_id":"ce4bgv12rcd13ifvqcp0","pricing_plan_id":"cebpf4jnsgd1na2vs0mg"},{"bike_id":"746b8697-8d55-494b-89c5-a601195868db","system_id":"levelo_inurba_marseille","lat":43.311722,"lon":5.387247,"is_reserved":false,"is_disabled":false,"rental_uris":{"android":"levelo://app?vid=746b8697-8d55-494b-89c5-a601195868db","ios":"levelo://app?vid=746b8697-8d55-494b-89c5-a601195868db"},"vehicle_type_id":"4","last_reported":1714507652,"current_range_meters":17200,"station_id":"ce4bgv12rcd13ifvqcp0","pricing_plan_id":"cebpf4jnsgd1na2vs0mg"},{"bike_id":"0a2dd885-c95e-4381-8c98-b74779aa3340","system_id":"levelo_inurba_marseille","lat":43.31173,"lon":5.3872,"is_reserved":false,"is_disabled":false,"rental_uris":{"android":"levelo://app?vid=0a2dd885-c95e-4381-8c98-b74779aa3340","ios":"levelo://app?vid=0a2dd885-c95e-4381-8c98-b74779aa3340"},"vehicle_type_id":"4","last_reported":1714507652,"current_range_meters":6800,"station_id":"ce4bgv12rcd13ifvqcp0","pricing_plan_id":"cebpf4jnsgd1na2vs0mg"},{"bike_id":"321a8ed7-c4b7-4629-b8ec-3cb573c250c2","system_id":"levelo_inurba_marseille","lat":43.311722,"lon":5.387247,"is_reserved":false,"is_disabled":false,"rental_uris":{"android":"levelo://app?vid=321a8ed7-c4b7-4629-b8ec-3cb573c250c2","ios":"levelo://app?vid=321a8ed7-c4b7-4629-b8ec-3cb573c250c2"},"vehicle_type_id":"4","last_reported":1714507652,"current_range_meters":8800,"station_id":"ce4bgv12rcd13ifvqcp0","pricing_plan_id":"cebpf4jnsgd1na2vs0mg"},{"bike_id":"04adf052-58f7-4508-a4d6-959fea14c14f","system_id":"levelo_inurba_marseille","lat":43.322872,"lon":5.382756,"is_reserved":false,"is_disabled":false,"rental_uris":{"android":"levelo://app?vid=04adf052-58f7-4508-a4d6-959fea14c14f","ios":"levelo://app?vid=04adf052-58f7-4508-a4d6-959fea14c14f"},"vehicle_type_id":"4","last_reported":1714507652,"current_range_meters":4400,"station_id":"ce4bhr12rcd13ifvqhqg","pricing_plan_id":"cebpf4jnsgd1na2vs0mg"},{"bike_id":"3fe083d3-ec38-46c4-b4e5-55c2be2ec179","system_id":"levelo_inurba_marseille","lat":43.322872,"lon":5.382756,"is_reserved":false,"is_disabled":false,"rental_uris":{"android":"levelo://app?vid=3fe083d3-ec38-46c4-b4e5-55c2be2ec179","ios":"levelo://app?vid=3fe083d3-ec38-46c4-b4e5-55c2be2ec179"},"vehicle_type_id":"4","last_reported":1714507652,"current_range_meters":22000,"station_id":"ce4bhr12rcd13ifvqhqg","pricing_plan_id":"cebpf4jnsgd1na2vs0mg"},{"bike_id":"1b154983-234d-4779-a000-17e9d3f1af4d","system_id":"levelo_inurba_marseille","lat":43.322872,"lon":5.382756,"is_reserved":false,"is_disabled":false,"rental_uris":{"android":"levelo://app?vid=1b154983-234d-4779-a000-17e9d3f1af4d","ios":"levelo://app?vid=1b154983-234d-4779-a000-17e9d3f1af4d"},"vehicle_type_id":"4","last_reported":1714507652,"current_range_meters":13200,"station_id":"ce4bhr12rcd13ifvqhqg","pricing_plan_id":"cebpf4jnsgd1na2vs0mg"},{"bike_id":"726e1e87-cba6-41f7-ad2e-489ae4aa3f9f","system_id":"levelo_inurba_marseille","lat":43.322872,"lon":5.382756,"is_reserved":false,"is_disabled":false,"rental_uris":{"android":"levelo://app?vid=726e1e87-cba6-41f7-ad2e-489ae4aa3f9f","ios":"levelo://app?vid=726e1e87-cba6-41f7-ad2e-489ae4aa3f9f"},"vehicle_type_id":"4","last_reported":1714507652,"current_range_meters":31200,"station_id":"ce4bhr12rcd13ifvqhqg","pricing_plan_id":"cebpf4jnsgd1na2vs0mg"},{"bike_id":"6506c128-ea5f-4a9e-8e94-9b1f3fce7950","system_id":"levelo_inurba_marseille","lat":43.322872,"lon":5.382756,"is_reserved":false,"is_disabled":false,"rental_uris":{"android":"levelo://app?vid=6506c128-ea5f-4a9e-8e94-9b1f3fce7950","ios":"levelo://app?vid=6506c128-ea5f-4a9e-8e94-9b1f3fce7950"},"vehicle_type_id":"4","last_reported":1714507652,"current_range_meters":26000,"station_id":"ce4bhr12rcd13ifvqhqg","pricing_plan_id":"cebpf4jnsgd1na2vs0mg"},{"bike_id":"dc7aba95-9a85-4c0d-bec3-bf15ff917403","system_id":"levelo_inurba_marseille","lat":43.322872,"lon":5.382756,"is_reserved":false,"is_disabled":false,"rental_uris":{"android":"levelo://app?vid=dc7aba95-9a85-4c0d-bec3-bf15ff917403","ios":"levelo://app?vid=dc7aba95-9a85-4c0d-bec3-bf15ff917403"},"vehicle_type_id":"4","last_reported":1714507652,"current_range_meters":2000,"station_id":"ce4bhr12rcd13ifvqhqg","pricing_plan_id":"cebpf4jnsgd1na2vs0mg"},{"bike_id":"921230c1-df21-4186-b4cb-f4249a00e128","system_id":"levelo_inurba_marseille","lat":43.297163,"lon":5.365866,"is_reserved":false,"is_disabled":false,"rental_uris":{"android":"levelo://app?vid=921230c1-df21-4186-b4cb-f4249a00e128","ios":"levelo://app?vid=921230c1-df21-4186-b4cb-f4249a00e128"},"vehicle_type_id":"4","last_reported":1714507652,"current_range_meters":24400,"station_id":"ce4bgn12rcd13ifvqbt0","pricing_plan_id":"cebpf4jnsgd1na2vs0mg"},{"bike_id":"cd09bc4e-c67e-424b-a1da-88391dbfd8c0","system_id":"levelo_inurba_marseille","lat":43.29721,"lon":5.371017,"is_reserved":false,"is_disabled":false,"rental_uris":{"android":"levelo://app?vid=cd09bc4e-c67e-424b-a1da-88391dbfd8c0","ios":"levelo://app?vid=cd09bc4e-c67e-424b-a1da-88391dbfd8c0"},"vehicle_type_id":"4","last_reported":1714507652,"current_range_meters":14000,"station_id":"","pricing_plan_id":"cebpf4jnsgd1na2vs0mg"},{"bike_id":"d1aed8c1-d01c-42e8-9c9e-2e0535527a68","system_id":"levelo_inurba_marseille","lat":43.29686,"lon":5.36598,"is_reserved":false,"is_disabled":false,"rental_uris":{"android":"levelo://app?vid=d1aed8c1-d01c-42e8-9c9e-2e0535527a68","ios":"levelo://app?vid=d1aed8c1-d01c-42e8-9c9e-2e0535527a68"},"vehicle_type_id":"4","last_reported":1714507652,"current_range_meters":0,"station_id":"ce4bgn12rcd13ifvqbt0","pricing_plan_id":"cebpf4jnsgd1na2vs0mg"},{"bike_id":"1ad7b9e0-c1e8-4759-b408-a72858d1359f","system_id":"levelo_inurba_marseille","lat":43.29626,"lon":5.37152,"is_reserved":false,"is_disabled":false,"rental_uris":{"android":"levelo://app?vid=1ad7b9e0-c1e8-4759-b408-a72858d1359f","ios":"levelo://app?vid=1ad7b9e0-c1e8-4759-b408-a72858d1359f"},"vehicle_type_id":"4","last_reported":1714507652,"current_range_meters":0,"station_id":"ce4bgnh2rcd13ifvqc0g","pricing_plan_id":"cebpf4jnsgd1na2vs0mg"},{"bike_id":"a16be519-06b6-46f0-a1fb-d17b722c969d","system_id":"levelo_inurba_marseille","lat":43.29625,"lon":5.37153,"is_reserved":false,"is_disabled":false,"rental_uris":{"android":"levelo://app?vid=a16be519-06b6-46f0-a1fb-d17b722c969d","ios":"levelo://app?vid=a16be519-06b6-46f0-a1fb-d17b722c969d"},"vehicle_type_id":"4","last_reported":1714507652,"current_range_meters":0,"station_id":"ce4bgnh2rcd13ifvqc0g","pricing_plan_id":"cebpf4jnsgd1na2vs0mg"},{"bike_id":"68bade0f-de3f-4521-99c7-c1243e06b9d3","system_id":"levelo_inurba_marseille","lat":43.29617,"lon":5.37162,"is_reserved":false,"is_disabled":false,"rental_uris":{"android":"levelo://app?vid=68bade0f-de3f-4521-99c7-c1243e06b9d3","ios":"levelo://app?vid=68bade0f-de3f-4521-99c7-c1243e06b9d3"},"vehicle_type_id":"4","last_reported":1714507652,"current_range_meters":12400,"station_id":"ce4bgnh2rcd13ifvqc0g","pricing_plan_id":"cebpf4jnsgd1na2vs0mg"},{"bike_id":"6bbce75a-cea1-4b21-8bb3-356404068a35","system_id":"levelo_inurba_marseille","lat":43.29615,"lon":5.37149,"is_reserved":false,"is_disabled":false,"rental_uris":{"android":"levelo://app?vid=6bbce75a-cea1-4b21-8bb3-356404068a35","ios":"levelo://app?vid=6bbce75a-cea1-4b21-8bb3-356404068a35"},"vehicle_type_id":"4","last_reported":1714507652,"current_range_meters":28000,"station_id":"ce4bgnh2rcd13ifvqc0g","pricing_plan_id":"cebpf4jnsgd1na2vs0mg"},{"bike_id":"8eb36bfe-1e51-4c07-809f-104651849c15","system_id":"levelo_inurba_marseille","lat":43.299028,"lon":5.381509,"is_reserved":false,"is_disabled":false,"rental_uris":{"android":"levelo://app?vid=8eb36bfe-1e51-4c07-809f-104651849c15","ios":"levelo://app?vid=8eb36bfe-1e51-4c07-809f-104651849c15"},"vehicle_type_id":"4","last_reported":1714507652,"current_range_meters":25600,"station_id":"ce4bgj12rcd13ifvqbc0","pricing_plan_id":"cebpf4jnsgd1na2vs0mg"},{"bike_id":"b8737018-4c38-4dce-b04d-bc69537c82d9","system_id":"levelo_inurba_marseille","lat":43.299028,"lon":5.381509,"is_reserved":false,"is_disabled":false,"rental_uris":{"android":"levelo://app?vid=b8737018-4c38-4dce-b04d-bc69537c82d9","ios":"levelo://app?vid=b8737018-4c38-4dce-b04d-bc69537c82d9"},"vehicle_type_id":"4","last_reported":1714507652,"current_range_meters":24800,"station_id":"ce4bgj12rcd13ifvqbc0","pricing_plan_id":"cebpf4jnsgd1na2vs0mg"},{"bike_id":"82e4fb94-294f-4c2c-bc2a-a3371d755a7f","system_id":"levelo_inurba_marseille","lat":43.299075,"lon":5.381531,"is_reserved":false,"is_disabled":false,"rental_uris":{"android":"levelo://app?vid=82e4fb94-294f-4c2c-bc2a-a3371d755a7f","ios":"levelo://app?vid=82e4fb94-294f-4c2c-bc2a-a3371d755a7f"},"vehicle_type_id":"4","last_reported":1714507652,"current_range_meters":1600,"station_id":"","pricing_plan_id":"cebpf4jnsgd1na2vs0mg"},{"bike_id":"c84556b8-0e0e-45a2-b94b-59e04a81172d","system_id":"levelo_inurba_marseille","lat":43.299028,"lon":5.381509,"is_reserved":false,"is_disabled":false,"rental_uris":{"android":"levelo://app?vid=c84556b8-0e0e-45a2-b94b-59e04a81172d","ios":"levelo://app?vid=c84556b8-0e0e-45a2-b94b-59e04a81172d"},"vehicle_type_id":"4","last_reported":1714507652,"current_range_meters":23600,"station_id":"ce4bgj12rcd13ifvqbc0","pricing_plan_id":"cebpf4jnsgd1na2vs0mg"},{"bike_id":"d00623f9-caa6-4d61-a62f-a45646dcb3f4","system_id":"levelo_inurba_marseille","lat":43.299028,"lon":5.381509,"is_reserved":false,"is_disabled":false,"rental_uris":{"android":"levelo://app?vid=d00623f9-caa6-4d61-a62f-a45646dcb3f4","ios":"levelo://app?vid=d00623f9-caa6-4d61-a62f-a45646dcb3f4"},"vehicle_type_id":"4","last_reported":1714507652,"current_range_meters":27600,"station_id":"ce4bgj12rcd13ifvqbc0","pricing_plan_id":"cebpf4jnsgd1na2vs0mg"},{"bike_id":"ebaef21c-7bf9-4480-9820-6e960f58a947","system_id":"levelo_inurba_marseille","lat":43.299028,"lon":5.381509,"is_reserved":false,"is_disabled":false,"rental_uris":{"android":"levelo://app?vid=ebaef21c-7bf9-4480-9820-6e960f58a947","ios":"levelo://app?vid=ebaef21c-7bf9-4480-9820-6e960f58a947"},"vehicle_type_id":"4","last_reported":1714507652,"current_range_meters":13200,"station_id":"ce4bgj12rcd13ifvqbc0","pricing_plan_id":"cebpf4jnsgd1na2vs0mg"},{"bike_id":"081d296f-c0f0-40eb-9291-f0ed4ccfa6d2","system_id":"levelo_inurba_marseille","lat":43.299028,"lon":5.381509,"is_reserved":false,"is_disabled":false,"rental_uris":{"android":"levelo://app?vid=081d296f-c0f0-40eb-9291-f0ed4ccfa6d2","ios":"levelo://app?vid=081d296f-c0f0-40eb-9291-f0ed4ccfa6d2"},"vehicle_type_id":"4","last_reported":1714507652,"current_range_meters":26400,"station_id":"ce4bgj12rcd13ifvqbc0","pricing_plan_id":"cebpf4jnsgd1na2vs0mg"},{"bike_id":"428041d0-1e5d-4c9b-a226-3c789904b37c","system_id":"levelo_inurba_marseille","lat":43.30947,"lon":5.39051,"is_reserved":false,"is_disabled":false,"rental_uris":{"android":"levelo://app?vid=428041d0-1e5d-4c9b-a226-3c789904b37c","ios":"levelo://app?vid=428041d0-1e5d-4c9b-a226-3c789904b37c"},"vehicle_type_id":"4","last_reported":1714507652,"current_range_meters":20800,"station_id":"ce4bgup2rcd13ifvqco0","pricing_plan_id":"cebpf4jnsgd1na2vs0mg"},{"bike_id":"8f585a10-254f-4b3f-a2e5-b13a248d73b0","system_id":"levelo_inurba_marseille","lat":43.31754,"lon":5.39012,"is_reserved":false,"is_disabled":false,"rental_uris":{"android":"levelo://app?vid=8f585a10-254f-4b3f-a2e5-b13a248d73b0","ios":"levelo://app?vid=8f585a10-254f-4b3f-a2e5-b13a248d73b0"},"vehicle_type_id":"4","last_reported":1714507652,"current_range_meters":10800,"station_id":"ce4bhqp2rcd13ifvqhng","pricing_plan_id":"cebpf4jnsgd1na2vs0mg"},{"bike_id":"3e90fa85-c942-47c4-a797-7ff343ed3b41","system_id":"levelo_inurba_marseille","lat":43.317553,"lon":5.390119,"is_reserved":false,"is_disabled":false,"rental_uris":{"android":"levelo://app?vid=3e90fa85-c942-47c4-a797-7ff343ed3b41","ios":"levelo://app?vid=3e90fa85-c942-47c4-a797-7ff343ed3b41"},"vehicle_type_id":"4","last_reported":1714507652,"current_range_meters":30400,"station_id":"ce4bhqp2rcd13ifvqhng","pricing_plan_id":"cebpf4jnsgd1na2vs0mg"},{"bike_id":"57ca142f-bd81-4bd2-be4e-bd61cd00f86a","system_id":"levelo_inurba_marseille","lat":43.31757,"lon":5.39014,"is_reserved":false,"is_disabled":false,"rental_uris":{"android":"levelo://app?vid=57ca142f-bd81-4bd2-be4e-bd61cd00f86a","ios":"levelo://app?vid=57ca142f-bd81-4bd2-be4e-bd61cd00f86a"},"vehicle_type_id":"4","last_reported":1714507652,"current_range_meters":19600,"station_id":"ce4bhqp2rcd13ifvqhng","pricing_plan_id":"cebpf4jnsgd1na2vs0mg"},{"bike_id":"160120ba-f068-445d-b9bd-561cc5fe6e33","system_id":"levelo_inurba_marseille","lat":43.317572,"lon":5.390141,"is_reserved":false,"is_disabled":false,"rental_uris":{"android":"levelo://app?vid=160120ba-f068-445d-b9bd-561cc5fe6e33","ios":"levelo://app?vid=160120ba-f068-445d-b9bd-561cc5fe6e33"},"vehicle_type_id":"4","last_reported":1714507652,"current_range_meters":16800,"station_id":"ce4bhqp2rcd13ifvqhng","pricing_plan_id":"cebpf4jnsgd1na2vs0mg"},{"bike_id":"f78bd38f-4723-47ae-aaaf-3862943893a1","system_id":"levelo_inurba_marseille","lat":43.31751,"lon":5.39017,"is_reserved":false,"is_disabled":false,"rental_uris":{"android":"levelo://app?vid=f78bd38f-4723-47ae-aaaf-3862943893a1","ios":"levelo://app?vid=f78bd38f-4723-47ae-aaaf-3862943893a1"},"vehicle_type_id":"4","last_reported":1714507652,"current_range_meters":20800,"station_id":"ce4bhqp2rcd13ifvqhng","pricing_plan_id":"cebpf4jnsgd1na2vs0mg"},{"bike_id":"e7f7f8c6-3502-40da-b88a-452fc9534ddc","system_id":"levelo_inurba_marseille","lat":43.317613,"lon":5.39013,"is_reserved":false,"is_disabled":false,"rental_uris":{"android":"levelo://app?vid=e7f7f8c6-3502-40da-b88a-452fc9534ddc","ios":"levelo://app?vid=e7f7f8c6-3502-40da-b88a-452fc9534ddc"},"vehicle_type_id":"4","last_reported":1714507652,"current_range_meters":26000,"station_id":"ce4bhqp2rcd13ifvqhng","pricing_plan_id":"cebpf4jnsgd1na2vs0mg"},{"bike_id":"e91a6fa5-b985-4610-928f-61bbc4a9ce2c","system_id":"levelo_inurba_marseille","lat":43.317558,"lon":5.39016,"is_reserved":false,"is_disabled":false,"rental_uris":{"android":"levelo://app?vid=e91a6fa5-b985-4610-928f-61bbc4a9ce2c","ios":"levelo://app?vid=e91a6fa5-b985-4610-928f-61bbc4a9ce2c"},"vehicle_type_id":"4","last_reported":1714507652,"current_range_meters":23600,"station_id":"ce4bhqp2rcd13ifvqhng","pricing_plan_id":"cebpf4jnsgd1na2vs0mg"},{"bike_id":"6806fa5d-9ca6-4ac5-b5b0-17cf11fdd5fa","system_id":"levelo_inurba_marseille","lat":43.31754,"lon":5.39017,"is_reserved":false,"is_disabled":false,"rental_uris":{"android":"levelo://app?vid=6806fa5d-9ca6-4ac5-b5b0-17cf11fdd5fa","ios":"levelo://app?vid=6806fa5d-9ca6-4ac5-b5b0-17cf11fdd5fa"},"vehicle_type_id":"4","last_reported":1714507652,"current_range_meters":4800,"station_id":"ce4bhqp2rcd13ifvqhng","pricing_plan_id":"cebpf4jnsgd1na2vs0mg"},{"bike_id":"37242e48-b0e9-4a6e-b541-d08e7b35f1ed","system_id":"levelo_inurba_marseille","lat":43.317572,"lon":5.390173,"is_reserved":false,"is_disabled":false,"rental_uris":{"android":"levelo://app?vid=37242e48-b0e9-4a6e-b541-d08e7b35f1ed","ios":"levelo://app?vid=37242e48-b0e9-4a6e-b541-d08e7b35f1ed"},"vehicle_type_id":"4","last_reported":1714507652,"current_range_meters":27200,"station_id":"ce4bhqp2rcd13ifvqhng","pricing_plan_id":"cebpf4jnsgd1na2vs0mg"},{"bike_id":"b5271f54-f37d-423a-b48c-8177de38a8f8","system_id":"levelo_inurba_marseille","lat":43.317584,"lon":5.39019,"is_reserved":false,"is_disabled":false,"rental_uris":{"android":"levelo://app?vid=b5271f54-f37d-423a-b48c-8177de38a8f8","ios":"levelo://app?vid=b5271f54-f37d-423a-b48c-8177de38a8f8"},"vehicle_type_id":"4","last_reported":1714507652,"current_range_meters":5600,"station_id":"ce4bhqp2rcd13ifvqhng","pricing_plan_id":"cebpf4jnsgd1na2vs0mg"},{"bike_id":"e840313d-cec8-4709-a736-da27dff2725e","system_id":"levelo_inurba_marseille","lat":43.31754,"lon":5.39021,"is_reserved":false,"is_disabled":false,"rental_uris":{"android":"levelo://app?vid=e840313d-cec8-4709-a736-da27dff2725e","ios":"levelo://app?vid=e840313d-cec8-4709-a736-da27dff2725e"},"vehicle_type_id":"4","last_reported":1714507652,"current_range_meters":24400,"station_id":"ce4bhqp2rcd13ifvqhng","pricing_plan_id":"cebpf4jnsgd1na2vs0mg"},{"bike_id":"f55b98f1-7bc2-4efe-92c3-bd68f99aa2b2","system_id":"levelo_inurba_marseille","lat":43.317629,"lon":5.390176,"is_reserved":false,"is_disabled":false,"rental_uris":{"android":"levelo://app?vid=f55b98f1-7bc2-4efe-92c3-bd68f99aa2b2","ios":"levelo://app?vid=f55b98f1-7bc2-4efe-92c3-bd68f99aa2b2"},"vehicle_type_id":"4","last_reported":1714507652,"current_range_meters":19600,"station_id":"ce4bhqp2rcd13ifvqhng","pricing_plan_id":"cebpf4jnsgd1na2vs0mg"},{"bike_id":"b1addad9-e6b9-42db-aafc-ca3fa67234a4","system_id":"levelo_inurba_marseille","lat":43.3176,"lon":5.39021,"is_reserved":false,"is_disabled":false,"rental_uris":{"android":"levelo://app?vid=b1addad9-e6b9-42db-aafc-ca3fa67234a4","ios":"levelo://app?vid=b1addad9-e6b9-42db-aafc-ca3fa67234a4"},"vehicle_type_id":"4","last_reported":1714507652,"current_range_meters":28000,"station_id":"ce4bhqp2rcd13ifvqhng","pricing_plan_id":"cebpf4jnsgd1na2vs0mg"},{"bike_id":"9b1f0b76-8d20-47d6-bff5-c2eea49877ab","system_id":"levelo_inurba_marseille","lat":43.317602,"lon":5.390223,"is_reserved":false,"is_disabled":false,"rental_uris":{"android":"levelo://app?vid=9b1f0b76-8d20-47d6-bff5-c2eea49877ab","ios":"levelo://app?vid=9b1f0b76-8d20-47d6-bff5-c2eea49877ab"},"vehicle_type_id":"4","last_reported":1714507652,"current_range_meters":10000,"station_id":"ce4bhqp2rcd13ifvqhng","pricing_plan_id":"cebpf4jnsgd1na2vs0mg"},{"bike_id":"77efcea7-0dcc-416d-9d14-2ee7b9085bd0","system_id":"levelo_inurba_marseille","lat":43.31759,"lon":5.39023,"is_reserved":false,"is_disabled":false,"rental_uris":{"android":"levelo://app?vid=77efcea7-0dcc-416d-9d14-2ee7b9085bd0","ios":"levelo://app?vid=77efcea7-0dcc-416d-9d14-2ee7b9085bd0"},"vehicle_type_id":"4","last_reported":1714507652,"current_range_meters":0,"station_id":"ce4bhqp2rcd13ifvqhng","pricing_plan_id":"cebpf4jnsgd1na2vs0mg"},{"bike_id":"88b24db4-632b-4045-a01f-3d312d3ba27d","system_id":"levelo_inurba_marseille","lat":43.31762,"lon":5.39023,"is_reserved":false,"is_disabled":false,"rental_uris":{"android":"levelo://app?vid=88b24db4-632b-4045-a01f-3d312d3ba27d","ios":"levelo://app?vid=88b24db4-632b-4045-a01f-3d312d3ba27d"},"vehicle_type_id":"4","last_reported":1714507652,"current_range_meters":18800,"station_id":"ce4bhqp2rcd13ifvqhng","pricing_plan_id":"cebpf4jnsgd1na2vs0mg"},{"bike_id":"85cc422c-2575-4754-9304-235321be6f5c","system_id":"levelo_inurba_marseille","lat":43.296853,"lon":5.378093,"is_reserved":false,"is_disabled":false,"rental_uris":{"android":"levelo://app?vid=85cc422c-2575-4754-9304-235321be6f5c","ios":"levelo://app?vid=85cc422c-2575-4754-9304-235321be6f5c"},"vehicle_type_id":"4","last_reported":1714507652,"current_range_meters":22000,"station_id":"","pricing_plan_id":"cebpf4jnsgd1na2vs0mg"},{"bike_id":"9ddfac05-c16d-46ea-a703-6eb01df2ba77","system_id":"levelo_inurba_marseille","lat":43.298037,"lon":5.381066,"is_reserved":false,"is_disabled":false,"rental_uris":{"android":"levelo://app?vid=9ddfac05-c16d-46ea-a703-6eb01df2ba77","ios":"levelo://app?vid=9ddfac05-c16d-46ea-a703-6eb01df2ba77"},"vehicle_type_id":"4","last_reported":1714507652,"current_range_meters":27200,"station_id":"ce4bgip2rcd13ifvqbb0","pricing_plan_id":"cebpf4jnsgd1na2vs0mg"},{"bike_id":"65f8c5d5-7da9-41bf-9807-518b9f5127be","system_id":"levelo_inurba_marseille","lat":43.298037,"lon":5.381066,"is_reserved":false,"is_disabled":false,"rental_uris":{"android":"levelo://app?vid=65f8c5d5-7da9-41bf-9807-518b9f5127be","ios":"levelo://app?vid=65f8c5d5-7da9-41bf-9807-518b9f5127be"},"vehicle_type_id":"4","last_reported":1714507652,"current_range_meters":18400,"station_id":"ce4bgip2rcd13ifvqbb0","pricing_plan_id":"cebpf4jnsgd1na2vs0mg"},{"bike_id":"e853b9ff-bfdb-49bc-9b8b-7a47e576aa5b","system_id":"levelo_inurba_marseille","lat":43.298037,"lon":5.381066,"is_reserved":false,"is_disabled":false,"rental_uris":{"android":"levelo://app?vid=e853b9ff-bfdb-49bc-9b8b-7a47e576aa5b","ios":"levelo://app?vid=e853b9ff-bfdb-49bc-9b8b-7a47e576aa5b"},"vehicle_type_id":"4","last_reported":1714507652,"current_range_meters":28000,"station_id":"ce4bgip2rcd13ifvqbb0","pricing_plan_id":"cebpf4jnsgd1na2vs0mg"},{"bike_id":"f3b71ff1-fc0a-42dd-8e52-7cf1b7fcd090","system_id":"levelo_inurba_marseille","lat":43.298037,"lon":5.381066,"is_reserved":false,"is_disabled":false,"rental_uris":{"android":"levelo://app?vid=f3b71ff1-fc0a-42dd-8e52-7cf1b7fcd090","ios":"levelo://app?vid=f3b71ff1-fc0a-42dd-8e52-7cf1b7fcd090"},"vehicle_type_id":"4","last_reported":1714507652,"current_range_meters":31200,"station_id":"ce4bgip2rcd13ifvqbb0","pricing_plan_id":"cebpf4jnsgd1na2vs0mg"},{"bike_id":"58b0b4e8-9c85-4a5a-903d-a2ef0d6802c8","system_id":"levelo_inurba_marseille","lat":43.298037,"lon":5.381066,"is_reserved":false,"is_disabled":false,"rental_uris":{"android":"levelo://app?vid=58b0b4e8-9c85-4a5a-903d-a2ef0d6802c8","ios":"levelo://app?vid=58b0b4e8-9c85-4a5a-903d-a2ef0d6802c8"},"vehicle_type_id":"4","last_reported":1714507652,"current_range_meters":27200,"station_id":"ce4bgip2rcd13ifvqbb0","pricing_plan_id":"cebpf4jnsgd1na2vs0mg"},{"bike_id":"d47fbd76-a1f3-43ed-b0f9-f99b44211dc9","system_id":"levelo_inurba_marseille","lat":43.304278,"lon":5.388868,"is_reserved":false,"is_disabled":false,"rental_uris":{"android":"levelo://app?vid=d47fbd76-a1f3-43ed-b0f9-f99b44211dc9","ios":"levelo://app?vid=d47fbd76-a1f3-43ed-b0f9-f99b44211dc9"},"vehicle_type_id":"4","last_reported":1714507652,"current_range_meters":0,"station_id":"ce4bgk12rcd13ifvqbi0","pricing_plan_id":"cebpf4jnsgd1na2vs0mg"},{"bike_id":"6db71f52-f283-414e-bd2d-17467f11c081","system_id":"levelo_inurba_marseille","lat":43.304278,"lon":5.388868,"is_reserved":false,"is_disabled":false,"rental_uris":{"android":"levelo://app?vid=6db71f52-f283-414e-bd2d-17467f11c081","ios":"levelo://app?vid=6db71f52-f283-414e-bd2d-17467f11c081"},"vehicle_type_id":"4","last_reported":1714507652,"current_range_meters":17600,"station_id":"ce4bgk12rcd13ifvqbi0","pricing_plan_id":"cebpf4jnsgd1na2vs0mg"},{"bike_id":"885217a3-3db7-47ec-845f-447bdb687511","system_id":"levelo_inurba_marseille","lat":43.295748,"lon":5.37522,"is_reserved":false,"is_disabled":false,"rental_uris":{"android":"levelo://app?vid=885217a3-3db7-47ec-845f-447bdb687511","ios":"levelo://app?vid=885217a3-3db7-47ec-845f-447bdb687511"},"vehicle_type_id":"4","last_reported":1714507652,"current_range_meters":0,"station_id":"ce4bgh92rcd13ifvqb50","pricing_plan_id":"cebpf4jnsgd1na2vs0mg"},{"bike_id":"f51201b6-3226-4f42-a6f2-4db9732dcc30","system_id":"levelo_inurba_marseille","lat":43.29532,"lon":5.37377,"is_reserved":false,"is_disabled":false,"rental_uris":{"android":"levelo://app?vid=f51201b6-3226-4f42-a6f2-4db9732dcc30","ios":"levelo://app?vid=f51201b6-3226-4f42-a6f2-4db9732dcc30"},"vehicle_type_id":"4","last_reported":1714507652,"current_range_meters":14400,"station_id":"","pricing_plan_id":"cebpf4jnsgd1na2vs0mg"},{"bike_id":"5f58a6ed-441d-4130-8a52-9b1f6499dfe1","system_id":"levelo_inurba_marseille","lat":43.309589,"lon":5.390258,"is_reserved":false,"is_disabled":false,"rental_uris":{"android":"levelo://app?vid=5f58a6ed-441d-4130-8a52-9b1f6499dfe1","ios":"levelo://app?vid=5f58a6ed-441d-4130-8a52-9b1f6499dfe1"},"vehicle_type_id":"4","last_reported":1714507652,"current_range_meters":13200,"station_id":"ce4bgup2rcd13ifvqco0","pricing_plan_id":"cebpf4jnsgd1na2vs0mg"},{"bike_id":"3d337cf4-90c4-4a3b-a1e8-19b4f8ebdb1e","system_id":"levelo_inurba_marseille","lat":43.29611,"lon":5.37709,"is_reserved":false,"is_disabled":false,"rental_uris":{"android":"levelo://app?vid=3d337cf4-90c4-4a3b-a1e8-19b4f8ebdb1e","ios":"levelo://app?vid=3d337cf4-90c4-4a3b-a1e8-19b4f8ebdb1e"},"vehicle_type_id":"4","last_reported":1714507652,"current_range_meters":31200,"station_id":"ce4bgi92rcd13ifvqb90","pricing_plan_id":"cebpf4jnsgd1na2vs0mg"},{"bike_id":"93058b8a-ac27-4977-9101-1562b4225980","system_id":"levelo_inurba_marseille","lat":43.29526,"lon":5.37502,"is_reserved":false,"is_disabled":false,"rental_uris":{"android":"levelo://app?vid=93058b8a-ac27-4977-9101-1562b4225980","ios":"levelo://app?vid=93058b8a-ac27-4977-9101-1562b4225980"},"vehicle_type_id":"4","last_reported":1714507652,"current_range_meters":0,"station_id":"ce4bgkp2rcd13ifvqbmg","pricing_plan_id":"cebpf4jnsgd1na2vs0mg"},{"bike_id":"36f347fa-5141-4158-b7a8-334588d51cd8","system_id":"levelo_inurba_marseille","lat":43.299717,"lon":5.384845,"is_reserved":false,"is_disabled":false,"rental_uris":{"android":"levelo://app?vid=36f347fa-5141-4158-b7a8-334588d51cd8","ios":"levelo://app?vid=36f347fa-5141-4158-b7a8-334588d51cd8"},"vehicle_type_id":"4","last_reported":1714507652,"current_range_meters":6800,"station_id":"ce4bgj92rcd13ifvqbd0","pricing_plan_id":"cebpf4jnsgd1na2vs0mg"},{"bike_id":"3889d4b6-c11c-41bb-88b0-4367953d4911","system_id":"levelo_inurba_marseille","lat":43.299717,"lon":5.384845,"is_reserved":false,"is_disabled":false,"rental_uris":{"android":"levelo://app?vid=3889d4b6-c11c-41bb-88b0-4367953d4911","ios":"levelo://app?vid=3889d4b6-c11c-41bb-88b0-4367953d4911"},"vehicle_type_id":"4","last_reported":1714507652,"current_range_meters":4800,"station_id":"ce4bgj92rcd13ifvqbd0","pricing_plan_id":"cebpf4jnsgd1na2vs0mg"},{"bike_id":"c8be0f59-ef81-4ed2-a31f-e4415c12480d","system_id":"levelo_inurba_marseille","lat":43.299724,"lon":5.384848,"is_reserved":false,"is_disabled":false,"rental_uris":{"android":"levelo://app?vid=c8be0f59-ef81-4ed2-a31f-e4415c12480d","ios":"levelo://app?vid=c8be0f59-ef81-4ed2-a31f-e4415c12480d"},"vehicle_type_id":"4","last_reported":1714507652,"current_range_meters":25600,"station_id":"ce4bgj92rcd13ifvqbd0","pricing_plan_id":"cebpf4jnsgd1na2vs0mg"},{"bike_id":"5eed85e0-a6f7-4e02-90f8-fb79f9be6e71","system_id":"levelo_inurba_marseille","lat":43.299717,"lon":5.384845,"is_reserved":false,"is_disabled":false,"rental_uris":{"android":"levelo://app?vid=5eed85e0-a6f7-4e02-90f8-fb79f9be6e71","ios":"levelo://app?vid=5eed85e0-a6f7-4e02-90f8-fb79f9be6e71"},"vehicle_type_id":"4","last_reported":1714507652,"current_range_meters":0,"station_id":"ce4bgj92rcd13ifvqbd0","pricing_plan_id":"cebpf4jnsgd1na2vs0mg"},{"bike_id":"ef6f842e-dfde-4b87-ac43-ed7d72779538","system_id":"levelo_inurba_marseille","lat":43.299717,"lon":5.384845,"is_reserved":false,"is_disabled":false,"rental_uris":{"android":"levelo://app?vid=ef6f842e-dfde-4b87-ac43-ed7d72779538","ios":"levelo://app?vid=ef6f842e-dfde-4b87-ac43-ed7d72779538"},"vehicle_type_id":"4","last_reported":1714507652,"current_range_meters":31200,"station_id":"ce4bgj92rcd13ifvqbd0","pricing_plan_id":"cebpf4jnsgd1na2vs0mg"},{"bike_id":"1281df89-9c52-47f5-8dd6-dcdfa0b05679","system_id":"levelo_inurba_marseille","lat":43.299717,"lon":5.384845,"is_reserved":false,"is_disabled":false,"rental_uris":{"android":"levelo://app?vid=1281df89-9c52-47f5-8dd6-dcdfa0b05679","ios":"levelo://app?vid=1281df89-9c52-47f5-8dd6-dcdfa0b05679"},"vehicle_type_id":"4","last_reported":1714507652,"current_range_meters":27600,"station_id":"ce4bgj92rcd13ifvqbd0","pricing_plan_id":"cebpf4jnsgd1na2vs0mg"},{"bike_id":"d353a1d5-f20c-40ae-bfa3-b25685db304b","system_id":"levelo_inurba_marseille","lat":43.299707,"lon":5.384859,"is_reserved":false,"is_disabled":false,"rental_uris":{"android":"levelo://app?vid=d353a1d5-f20c-40ae-bfa3-b25685db304b","ios":"levelo://app?vid=d353a1d5-f20c-40ae-bfa3-b25685db304b"},"vehicle_type_id":"4","last_reported":1714507652,"current_range_meters":25200,"station_id":"ce4bgj92rcd13ifvqbd0","pricing_plan_id":"cebpf4jnsgd1na2vs0mg"},{"bike_id":"70019106-8c4f-4c6e-b25a-b8513ff50ca3","system_id":"levelo_inurba_marseille","lat":43.29514,"lon":5.3751,"is_reserved":false,"is_disabled":false,"rental_uris":{"android":"levelo://app?vid=70019106-8c4f-4c6e-b25a-b8513ff50ca3","ios":"levelo://app?vid=70019106-8c4f-4c6e-b25a-b8513ff50ca3"},"vehicle_type_id":"4","last_reported":1714507652,"current_range_meters":2400,"station_id":"ce4bgkp2rcd13ifvqbmg","pricing_plan_id":"cebpf4jnsgd1na2vs0mg"},{"bike_id":"74880560-df04-4595-9efb-51bd8117350d","system_id":"levelo_inurba_marseille","lat":43.296522,"lon":5.379436,"is_reserved":false,"is_disabled":false,"rental_uris":{"android":"levelo://app?vid=74880560-df04-4595-9efb-51bd8117350d","ios":"levelo://app?vid=74880560-df04-4595-9efb-51bd8117350d"},"vehicle_type_id":"4","last_reported":1714507652,"current_range_meters":11200,"station_id":"","pricing_plan_id":"cebpf4jnsgd1na2vs0mg"},{"bike_id":"182d15b8-aaf9-4216-b507-aae0b2120a3f","system_id":"levelo_inurba_marseille","lat":43.296004,"lon":5.379827,"is_reserved":false,"is_disabled":false,"rental_uris":{"android":"levelo://app?vid=182d15b8-aaf9-4216-b507-aae0b2120a3f","ios":"levelo://app?vid=182d15b8-aaf9-4216-b507-aae0b2120a3f"},"vehicle_type_id":"4","last_reported":1714507652,"current_range_meters":2000,"station_id":"","pricing_plan_id":"cebpf4jnsgd1na2vs0mg"},{"bike_id":"339c7dbb-fdfc-47df-ad84-b8ec12280560","system_id":"levelo_inurba_marseille","lat":43.32367,"lon":5.388836,"is_reserved":false,"is_disabled":false,"rental_uris":{"android":"levelo://app?vid=339c7dbb-fdfc-47df-ad84-b8ec12280560","ios":"levelo://app?vid=339c7dbb-fdfc-47df-ad84-b8ec12280560"},"vehicle_type_id":"4","last_reported":1714507652,"current_range_meters":13200,"station_id":"ce4bhqp2rcd13ifvqhog","pricing_plan_id":"cebpf4jnsgd1na2vs0mg"},{"bike_id":"50ba30a7-4676-4969-b698-80d33bb4cd89","system_id":"levelo_inurba_marseille","lat":43.32372,"lon":5.38877,"is_reserved":false,"is_disabled":false,"rental_uris":{"android":"levelo://app?vid=50ba30a7-4676-4969-b698-80d33bb4cd89","ios":"levelo://app?vid=50ba30a7-4676-4969-b698-80d33bb4cd89"},"vehicle_type_id":"4","last_reported":1714507652,"current_range_meters":2400,"station_id":"ce4bhqp2rcd13ifvqhog","pricing_plan_id":"cebpf4jnsgd1na2vs0mg"},{"bike_id":"750a737c-eacb-4217-b26a-969346f8f05c","system_id":"levelo_inurba_marseille","lat":43.32367,"lon":5.388836,"is_reserved":false,"is_disabled":false,"rental_uris":{"android":"levelo://app?vid=750a737c-eacb-4217-b26a-969346f8f05c","ios":"levelo://app?vid=750a737c-eacb-4217-b26a-969346f8f05c"},"vehicle_type_id":"4","last_reported":1714507652,"current_range_meters":2000,"station_id":"ce4bhqp2rcd13ifvqhog","pricing_plan_id":"cebpf4jnsgd1na2vs0mg"},{"bike_id":"84db1592-5e61-453e-ad73-c8ac111b92d0","system_id":"levelo_inurba_marseille","lat":43.32367,"lon":5.38886,"is_reserved":false,"is_disabled":false,"rental_uris":{"android":"levelo://app?vid=84db1592-5e61-453e-ad73-c8ac111b92d0","ios":"levelo://app?vid=84db1592-5e61-453e-ad73-c8ac111b92d0"},"vehicle_type_id":"4","last_reported":1714507652,"current_range_meters":400,"station_id":"ce4bhqp2rcd13ifvqhog","pricing_plan_id":"cebpf4jnsgd1na2vs0mg"},{"bike_id":"1a6331d5-0eac-4087-8e45-c891ec74d367","system_id":"levelo_inurba_marseille","lat":43.323698,"lon":5.388886,"is_reserved":false,"is_disabled":false,"rental_uris":{"android":"levelo://app?vid=1a6331d5-0eac-4087-8e45-c891ec74d367","ios":"levelo://app?vid=1a6331d5-0eac-4087-8e45-c891ec74d367"},"vehicle_type_id":"4","last_reported":1714507652,"current_range_meters":19600,"station_id":"ce4bhqp2rcd13ifvqhog","pricing_plan_id":"cebpf4jnsgd1na2vs0mg"},{"bike_id":"ab2f93dd-8c80-4058-9c64-66bdd5bd51eb","system_id":"levelo_inurba_marseille","lat":43.29606,"lon":5.38101,"is_reserved":false,"is_disabled":false,"rental_uris":{"android":"levelo://app?vid=ab2f93dd-8c80-4058-9c64-66bdd5bd51eb","ios":"levelo://app?vid=ab2f93dd-8c80-4058-9c64-66bdd5bd51eb"},"vehicle_type_id":"4","last_reported":1714507652,"current_range_meters":1600,"station_id":"ce4bgl12rcd13ifvqbo0","pricing_plan_id":"cebpf4jnsgd1na2vs0mg"},{"bike_id":"e5384b54-9594-4f0f-878c-c1f98dd220e1","system_id":"levelo_inurba_marseille","lat":43.29601,"lon":5.381084,"is_reserved":false,"is_disabled":false,"rental_uris":{"android":"levelo://app?vid=e5384b54-9594-4f0f-878c-c1f98dd220e1","ios":"levelo://app?vid=e5384b54-9594-4f0f-878c-c1f98dd220e1"},"vehicle_type_id":"4","last_reported":1714507652,"current_range_meters":18400,"station_id":"ce4bgl12rcd13ifvqbo0","pricing_plan_id":"cebpf4jnsgd1na2vs0mg"},{"bike_id":"74c35409-45cb-4a96-b61c-9d10c96aa3e0","system_id":"levelo_inurba_marseille","lat":43.29601,"lon":5.381084,"is_reserved":false,"is_disabled":false,"rental_uris":{"android":"levelo://app?vid=74c35409-45cb-4a96-b61c-9d10c96aa3e0","ios":"levelo://app?vid=74c35409-45cb-4a96-b61c-9d10c96aa3e0"},"vehicle_type_id":"4","last_reported":1714507652,"current_range_meters":25600,"station_id":"ce4bgl12rcd13ifvqbo0","pricing_plan_id":"cebpf4jnsgd1na2vs0mg"},{"bike_id":"7f58ecd5-3f67-4ca2-855b-bbcb759f0fb2","system_id":"levelo_inurba_marseille","lat":43.29601,"lon":5.381084,"is_reserved":false,"is_disabled":false,"rental_uris":{"android":"levelo://app?vid=7f58ecd5-3f67-4ca2-855b-bbcb759f0fb2","ios":"levelo://app?vid=7f58ecd5-3f67-4ca2-855b-bbcb759f0fb2"},"vehicle_type_id":"4","last_reported":1714507652,"current_range_meters":8400,"station_id":"ce4bgl12rcd13ifvqbo0","pricing_plan_id":"cebpf4jnsgd1na2vs0mg"},{"bike_id":"922c435d-f7d0-4b60-a884-f0749cbf9c6f","system_id":"levelo_inurba_marseille","lat":43.29602,"lon":5.381084,"is_reserved":false,"is_disabled":false,"rental_uris":{"android":"levelo://app?vid=922c435d-f7d0-4b60-a884-f0749cbf9c6f","ios":"levelo://app?vid=922c435d-f7d0-4b60-a884-f0749cbf9c6f"},"vehicle_type_id":"4","last_reported":1714507652,"current_range_meters":10000,"station_id":"ce4bgl12rcd13ifvqbo0","pricing_plan_id":"cebpf4jnsgd1na2vs0mg"},{"bike_id":"745ea16b-eafb-421f-a998-8b4a4aa9cb7f","system_id":"levelo_inurba_marseille","lat":43.29602,"lon":5.381084,"is_reserved":false,"is_disabled":false,"rental_uris":{"android":"levelo://app?vid=745ea16b-eafb-421f-a998-8b4a4aa9cb7f","ios":"levelo://app?vid=745ea16b-eafb-421f-a998-8b4a4aa9cb7f"},"vehicle_type_id":"4","last_reported":1714507652,"current_range_meters":8400,"station_id":"ce4bgl12rcd13ifvqbo0","pricing_plan_id":"cebpf4jnsgd1na2vs0mg"},{"bike_id":"2a2e1caa-3b7c-4624-85b8-cac46dda5c7d","system_id":"levelo_inurba_marseille","lat":43.29601,"lon":5.381084,"is_reserved":false,"is_disabled":false,"rental_uris":{"android":"levelo://app?vid=2a2e1caa-3b7c-4624-85b8-cac46dda5c7d","ios":"levelo://app?vid=2a2e1caa-3b7c-4624-85b8-cac46dda5c7d"},"vehicle_type_id":"4","last_reported":1714507652,"current_range_meters":7600,"station_id":"ce4bgl12rcd13ifvqbo0","pricing_plan_id":"cebpf4jnsgd1na2vs0mg"},{"bike_id":"2650a141-a747-4903-9f1f-1afeaf69b24a","system_id":"levelo_inurba_marseille","lat":43.29599,"lon":5.381046,"is_reserved":false,"is_disabled":false,"rental_uris":{"android":"levelo://app?vid=2650a141-a747-4903-9f1f-1afeaf69b24a","ios":"levelo://app?vid=2650a141-a747-4903-9f1f-1afeaf69b24a"},"vehicle_type_id":"4","last_reported":1714507652,"current_range_meters":12800,"station_id":"ce4bgl12rcd13ifvqbo0","pricing_plan_id":"cebpf4jnsgd1na2vs0mg"},{"bike_id":"4d46f625-7006-4f05-931d-574a6b05b718","system_id":"levelo_inurba_marseille","lat":43.29602,"lon":5.381084,"is_reserved":false,"is_disabled":false,"rental_uris":{"android":"levelo://app?vid=4d46f625-7006-4f05-931d-574a6b05b718","ios":"levelo://app?vid=4d46f625-7006-4f05-931d-574a6b05b718"},"vehicle_type_id":"4","last_reported":1714507652,"current_range_meters":16400,"station_id":"ce4bgl12rcd13ifvqbo0","pricing_plan_id":"cebpf4jnsgd1na2vs0mg"},{"bike_id":"2af20604-8c72-4dd5-9784-dc69e8622a53","system_id":"levelo_inurba_marseille","lat":43.29598,"lon":5.38113,"is_reserved":false,"is_disabled":false,"rental_uris":{"android":"levelo://app?vid=2af20604-8c72-4dd5-9784-dc69e8622a53","ios":"levelo://app?vid=2af20604-8c72-4dd5-9784-dc69e8622a53"},"vehicle_type_id":"4","last_reported":1714507652,"current_range_meters":4800,"station_id":"ce4bgl12rcd13ifvqbo0","pricing_plan_id":"cebpf4jnsgd1na2vs0mg"},{"bike_id":"25171e08-d853-4fd9-a3aa-61c795bcd5e8","system_id":"levelo_inurba_marseille","lat":43.29591,"lon":5.38102,"is_reserved":false,"is_disabled":false,"rental_uris":{"android":"levelo://app?vid=25171e08-d853-4fd9-a3aa-61c795bcd5e8","ios":"levelo://app?vid=25171e08-d853-4fd9-a3aa-61c795bcd5e8"},"vehicle_type_id":"4","last_reported":1714507652,"current_range_meters":28400,"station_id":"ce4bgl12rcd13ifvqbo0","pricing_plan_id":"cebpf4jnsgd1na2vs0mg"},{"bike_id":"9611fcbf-4932-43d3-ae59-8e56c2a2b775","system_id":"levelo_inurba_marseille","lat":43.29602,"lon":5.381084,"is_reserved":false,"is_disabled":false,"rental_uris":{"android":"levelo://app?vid=9611fcbf-4932-43d3-ae59-8e56c2a2b775","ios":"levelo://app?vid=9611fcbf-4932-43d3-ae59-8e56c2a2b775"},"vehicle_type_id":"4","last_reported":1714507652,"current_range_meters":30800,"station_id":"ce4bgl12rcd13ifvqbo0","pricing_plan_id":"cebpf4jnsgd1na2vs0mg"},{"bike_id":"055e114f-bec6-4da5-beb6-6bc8aa6f2ace","system_id":"levelo_inurba_marseille","lat":43.29601,"lon":5.381084,"is_reserved":false,"is_disabled":false,"rental_uris":{"android":"levelo://app?vid=055e114f-bec6-4da5-beb6-6bc8aa6f2ace","ios":"levelo://app?vid=055e114f-bec6-4da5-beb6-6bc8aa6f2ace"},"vehicle_type_id":"4","last_reported":1714507652,"current_range_meters":5200,"station_id":"ce4bgl12rcd13ifvqbo0","pricing_plan_id":"cebpf4jnsgd1na2vs0mg"},{"bike_id":"b7177ea7-7deb-4e23-a63a-a106ca4b9e71","system_id":"levelo_inurba_marseille","lat":43.29601,"lon":5.381084,"is_reserved":false,"is_disabled":false,"rental_uris":{"android":"levelo://app?vid=b7177ea7-7deb-4e23-a63a-a106ca4b9e71","ios":"levelo://app?vid=b7177ea7-7deb-4e23-a63a-a106ca4b9e71"},"vehicle_type_id":"4","last_reported":1714507652,"current_range_meters":12800,"station_id":"ce4bgl12rcd13ifvqbo0","pricing_plan_id":"cebpf4jnsgd1na2vs0mg"},{"bike_id":"c1bfc82c-c13c-4c26-a410-4c26002e7e8b","system_id":"levelo_inurba_marseille","lat":43.29589,"lon":5.381,"is_reserved":false,"is_disabled":false,"rental_uris":{"android":"levelo://app?vid=c1bfc82c-c13c-4c26-a410-4c26002e7e8b","ios":"levelo://app?vid=c1bfc82c-c13c-4c26-a410-4c26002e7e8b"},"vehicle_type_id":"4","last_reported":1714507652,"current_range_meters":0,"station_id":"ce4bgl12rcd13ifvqbo0","pricing_plan_id":"cebpf4jnsgd1na2vs0mg"},{"bike_id":"c608271d-e6b0-4896-bff3-b17cefb1b2bc","system_id":"levelo_inurba_marseille","lat":43.29586,"lon":5.38103,"is_reserved":false,"is_disabled":false,"rental_uris":{"android":"levelo://app?vid=c608271d-e6b0-4896-bff3-b17cefb1b2bc","ios":"levelo://app?vid=c608271d-e6b0-4896-bff3-b17cefb1b2bc"},"vehicle_type_id":"4","last_reported":1714507652,"current_range_meters":7600,"station_id":"ce4bgl12rcd13ifvqbo0","pricing_plan_id":"cebpf4jnsgd1na2vs0mg"},{"bike_id":"d942cdc2-07ea-493a-95a8-fb338c56ce2e","system_id":"levelo_inurba_marseille","lat":43.29602,"lon":5.381084,"is_reserved":false,"is_disabled":false,"rental_uris":{"android":"levelo://app?vid=d942cdc2-07ea-493a-95a8-fb338c56ce2e","ios":"levelo://app?vid=d942cdc2-07ea-493a-95a8-fb338c56ce2e"},"vehicle_type_id":"4","last_reported":1714507652,"current_range_meters":31200,"station_id":"ce4bgl12rcd13ifvqbo0","pricing_plan_id":"cebpf4jnsgd1na2vs0mg"},{"bike_id":"4ff0070a-bddf-48a2-b4b0-934bed6a05ed","system_id":"levelo_inurba_marseille","lat":43.292749,"lon":5.368402,"is_reserved":false,"is_disabled":false,"rental_uris":{"android":"levelo://app?vid=4ff0070a-bddf-48a2-b4b0-934bed6a05ed","ios":"levelo://app?vid=4ff0070a-bddf-48a2-b4b0-934bed6a05ed"},"vehicle_type_id":"4","last_reported":1714507652,"current_range_meters":19600,"station_id":"ce4bhbp2rcd13ifvqesg","pricing_plan_id":"cebpf4jnsgd1na2vs0mg"},{"bike_id":"10737ef5-00ed-4be2-a650-e8ca6abfbb0b","system_id":"levelo_inurba_marseille","lat":43.292749,"lon":5.368398,"is_reserved":false,"is_disabled":false,"rental_uris":{"android":"levelo://app?vid=10737ef5-00ed-4be2-a650-e8ca6abfbb0b","ios":"levelo://app?vid=10737ef5-00ed-4be2-a650-e8ca6abfbb0b"},"vehicle_type_id":"4","last_reported":1714507652,"current_range_meters":20800,"station_id":"ce4bhbp2rcd13ifvqesg","pricing_plan_id":"cebpf4jnsgd1na2vs0mg"},{"bike_id":"31f5ba97-84be-4b8a-80bf-54d12fc2976f","system_id":"levelo_inurba_marseille","lat":43.29317,"lon":5.37196,"is_reserved":false,"is_disabled":false,"rental_uris":{"android":"levelo://app?vid=31f5ba97-84be-4b8a-80bf-54d12fc2976f","ios":"levelo://app?vid=31f5ba97-84be-4b8a-80bf-54d12fc2976f"},"vehicle_type_id":"4","last_reported":1714507652,"current_range_meters":20400,"station_id":"ce4bgh92rcd13ifvqb40","pricing_plan_id":"cebpf4jnsgd1na2vs0mg"},{"bike_id":"9707d2ce-7b12-4641-ac1b-76c7fd95df35","system_id":"levelo_inurba_marseille","lat":43.29311,"lon":5.37183,"is_reserved":false,"is_disabled":false,"rental_uris":{"android":"levelo://app?vid=9707d2ce-7b12-4641-ac1b-76c7fd95df35","ios":"levelo://app?vid=9707d2ce-7b12-4641-ac1b-76c7fd95df35"},"vehicle_type_id":"4","last_reported":1714507652,"current_range_meters":0,"station_id":"ce4bgh92rcd13ifvqb40","pricing_plan_id":"cebpf4jnsgd1na2vs0mg"},{"bike_id":"cd2bfd83-ba17-49e8-a48c-8f43fa014828","system_id":"levelo_inurba_marseille","lat":43.29311,"lon":5.37183,"is_reserved":false,"is_disabled":false,"rental_uris":{"android":"levelo://app?vid=cd2bfd83-ba17-49e8-a48c-8f43fa014828","ios":"levelo://app?vid=cd2bfd83-ba17-49e8-a48c-8f43fa014828"},"vehicle_type_id":"4","last_reported":1714507652,"current_range_meters":30400,"station_id":"ce4bgh92rcd13ifvqb40","pricing_plan_id":"cebpf4jnsgd1na2vs0mg"},{"bike_id":"07673a7b-a186-4088-a97c-9bf01a4346b8","system_id":"levelo_inurba_marseille","lat":43.292749,"lon":5.368402,"is_reserved":false,"is_disabled":false,"rental_uris":{"android":"levelo://app?vid=07673a7b-a186-4088-a97c-9bf01a4346b8","ios":"levelo://app?vid=07673a7b-a186-4088-a97c-9bf01a4346b8"},"vehicle_type_id":"4","last_reported":1714507652,"current_range_meters":2000,"station_id":"ce4bhbp2rcd13ifvqesg","pricing_plan_id":"cebpf4jnsgd1na2vs0mg"},{"bike_id":"977217a5-27d8-4cc2-96fc-b0bd666dca3b","system_id":"levelo_inurba_marseille","lat":43.293249,"lon":5.371578,"is_reserved":false,"is_disabled":false,"rental_uris":{"android":"levelo://app?vid=977217a5-27d8-4cc2-96fc-b0bd666dca3b","ios":"levelo://app?vid=977217a5-27d8-4cc2-96fc-b0bd666dca3b"},"vehicle_type_id":"4","last_reported":1714507652,"current_range_meters":16000,"station_id":"ce4bgh92rcd13ifvqb40","pricing_plan_id":"cebpf4jnsgd1na2vs0mg"},{"bike_id":"af9d2eeb-41fa-4ce8-ac72-347932796fbd","system_id":"levelo_inurba_marseille","lat":43.292749,"lon":5.368402,"is_reserved":false,"is_disabled":false,"rental_uris":{"android":"levelo://app?vid=af9d2eeb-41fa-4ce8-ac72-347932796fbd","ios":"levelo://app?vid=af9d2eeb-41fa-4ce8-ac72-347932796fbd"},"vehicle_type_id":"4","last_reported":1714507652,"current_range_meters":25600,"station_id":"ce4bhbp2rcd13ifvqesg","pricing_plan_id":"cebpf4jnsgd1na2vs0mg"},{"bike_id":"034feeb7-1ec3-490f-9bc3-db1ce4326e4a","system_id":"levelo_inurba_marseille","lat":43.29308,"lon":5.37182,"is_reserved":false,"is_disabled":false,"rental_uris":{"android":"levelo://app?vid=034feeb7-1ec3-490f-9bc3-db1ce4326e4a","ios":"levelo://app?vid=034feeb7-1ec3-490f-9bc3-db1ce4326e4a"},"vehicle_type_id":"4","last_reported":1714507652,"current_range_meters":28000,"station_id":"ce4bgh92rcd13ifvqb40","pricing_plan_id":"cebpf4jnsgd1na2vs0mg"},{"bike_id":"7f57339b-ab2c-4378-a736-d5cb1e70219e","system_id":"levelo_inurba_marseille","lat":43.293055,"lon":5.371674,"is_reserved":false,"is_disabled":false,"rental_uris":{"android":"levelo://app?vid=7f57339b-ab2c-4378-a736-d5cb1e70219e","ios":"levelo://app?vid=7f57339b-ab2c-4378-a736-d5cb1e70219e"},"vehicle_type_id":"4","last_reported":1714507652,"current_range_meters":10000,"station_id":"ce4bgh92rcd13ifvqb40","pricing_plan_id":"cebpf4jnsgd1na2vs0mg"},{"bike_id":"563eb3af-1910-41ba-afba-23a8d33ca9b9","system_id":"levelo_inurba_marseille","lat":43.293249,"lon":5.371578,"is_reserved":false,"is_disabled":false,"rental_uris":{"android":"levelo://app?vid=563eb3af-1910-41ba-afba-23a8d33ca9b9","ios":"levelo://app?vid=563eb3af-1910-41ba-afba-23a8d33ca9b9"},"vehicle_type_id":"4","last_reported":1714507652,"current_range_meters":8400,"station_id":"ce4bgh92rcd13ifvqb40","pricing_plan_id":"cebpf4jnsgd1na2vs0mg"},{"bike_id":"3ae6a186-170f-4339-89e3-d50f5f98d818","system_id":"levelo_inurba_marseille","lat":43.29306,"lon":5.37173,"is_reserved":false,"is_disabled":false,"rental_uris":{"android":"levelo://app?vid=3ae6a186-170f-4339-89e3-d50f5f98d818","ios":"levelo://app?vid=3ae6a186-170f-4339-89e3-d50f5f98d818"},"vehicle_type_id":"4","last_reported":1714507652,"current_range_meters":22800,"station_id":"ce4bgh92rcd13ifvqb40","pricing_plan_id":"cebpf4jnsgd1na2vs0mg"},{"bike_id":"1bc49e3e-c074-4434-90a1-197d3af3619b","system_id":"levelo_inurba_marseille","lat":43.29307,"lon":5.37181,"is_reserved":false,"is_disabled":false,"rental_uris":{"android":"levelo://app?vid=1bc49e3e-c074-4434-90a1-197d3af3619b","ios":"levelo://app?vid=1bc49e3e-c074-4434-90a1-197d3af3619b"},"vehicle_type_id":"4","last_reported":1714507652,"current_range_meters":6000,"station_id":"ce4bgh92rcd13ifvqb40","pricing_plan_id":"cebpf4jnsgd1na2vs0mg"},{"bike_id":"4b9b970d-6b60-41ce-a48e-fb26596c8795","system_id":"levelo_inurba_marseille","lat":43.292749,"lon":5.368398,"is_reserved":false,"is_disabled":false,"rental_uris":{"android":"levelo://app?vid=4b9b970d-6b60-41ce-a48e-fb26596c8795","ios":"levelo://app?vid=4b9b970d-6b60-41ce-a48e-fb26596c8795"},"vehicle_type_id":"4","last_reported":1714507652,"current_range_meters":0,"station_id":"ce4bhbp2rcd13ifvqesg","pricing_plan_id":"cebpf4jnsgd1na2vs0mg"},{"bike_id":"1baa12a0-67d4-4bde-b330-ae8bc030f627","system_id":"levelo_inurba_marseille","lat":43.302992,"lon":5.392136,"is_reserved":false,"is_disabled":false,"rental_uris":{"android":"levelo://app?vid=1baa12a0-67d4-4bde-b330-ae8bc030f627","ios":"levelo://app?vid=1baa12a0-67d4-4bde-b330-ae8bc030f627"},"vehicle_type_id":"4","last_reported":1714507652,"current_range_meters":12800,"station_id":"ce4bgkh2rcd13ifvqbk0","pricing_plan_id":"cebpf4jnsgd1na2vs0mg"},{"bike_id":"9d474d16-faec-4ef7-87ea-c6823ae3c5db","system_id":"levelo_inurba_marseille","lat":43.29303,"lon":5.37175,"is_reserved":false,"is_disabled":false,"rental_uris":{"android":"levelo://app?vid=9d474d16-faec-4ef7-87ea-c6823ae3c5db","ios":"levelo://app?vid=9d474d16-faec-4ef7-87ea-c6823ae3c5db"},"vehicle_type_id":"4","last_reported":1714507652,"current_range_meters":30000,"station_id":"ce4bgh92rcd13ifvqb40","pricing_plan_id":"cebpf4jnsgd1na2vs0mg"},{"bike_id":"1510a7e5-f383-43c4-9f55-fe93184a2751","system_id":"levelo_inurba_marseille","lat":43.29304,"lon":5.37185,"is_reserved":false,"is_disabled":false,"rental_uris":{"android":"levelo://app?vid=1510a7e5-f383-43c4-9f55-fe93184a2751","ios":"levelo://app?vid=1510a7e5-f383-43c4-9f55-fe93184a2751"},"vehicle_type_id":"4","last_reported":1714507652,"current_range_meters":11200,"station_id":"ce4bgh92rcd13ifvqb40","pricing_plan_id":"cebpf4jnsgd1na2vs0mg"},{"bike_id":"b3b4ee19-dff0-4a99-a81e-565848c2de23","system_id":"levelo_inurba_marseille","lat":43.29303,"lon":5.37178,"is_reserved":false,"is_disabled":false,"rental_uris":{"android":"levelo://app?vid=b3b4ee19-dff0-4a99-a81e-565848c2de23","ios":"levelo://app?vid=b3b4ee19-dff0-4a99-a81e-565848c2de23"},"vehicle_type_id":"4","last_reported":1714507652,"current_range_meters":4800,"station_id":"ce4bgh92rcd13ifvqb40","pricing_plan_id":"cebpf4jnsgd1na2vs0mg"},{"bike_id":"8565810d-846a-4ea7-899d-443e4dbd7897","system_id":"levelo_inurba_marseille","lat":43.292749,"lon":5.368402,"is_reserved":false,"is_disabled":false,"rental_uris":{"android":"levelo://app?vid=8565810d-846a-4ea7-899d-443e4dbd7897","ios":"levelo://app?vid=8565810d-846a-4ea7-899d-443e4dbd7897"},"vehicle_type_id":"4","last_reported":1714507652,"current_range_meters":800,"station_id":"ce4bhbp2rcd13ifvqesg","pricing_plan_id":"cebpf4jnsgd1na2vs0mg"},{"bike_id":"bbfcb9a3-f1a5-43be-9fd5-59e6ec6399da","system_id":"levelo_inurba_marseille","lat":43.29301,"lon":5.37172,"is_reserved":false,"is_disabled":false,"rental_uris":{"android":"levelo://app?vid=bbfcb9a3-f1a5-43be-9fd5-59e6ec6399da","ios":"levelo://app?vid=bbfcb9a3-f1a5-43be-9fd5-59e6ec6399da"},"vehicle_type_id":"4","last_reported":1714507652,"current_range_meters":0,"station_id":"ce4bgh92rcd13ifvqb40","pricing_plan_id":"cebpf4jnsgd1na2vs0mg"},{"bike_id":"91be1b37-f52e-4e60-8aca-39b78043ec69","system_id":"levelo_inurba_marseille","lat":43.292749,"lon":5.368402,"is_reserved":false,"is_disabled":false,"rental_uris":{"android":"levelo://app?vid=91be1b37-f52e-4e60-8aca-39b78043ec69","ios":"levelo://app?vid=91be1b37-f52e-4e60-8aca-39b78043ec69"},"vehicle_type_id":"4","last_reported":1714507652,"current_range_meters":7600,"station_id":"ce4bhbp2rcd13ifvqesg","pricing_plan_id":"cebpf4jnsgd1na2vs0mg"},{"bike_id":"b79a367a-2b02-457a-8ccd-06112f0293d1","system_id":"levelo_inurba_marseille","lat":43.292749,"lon":5.368402,"is_reserved":false,"is_disabled":false,"rental_uris":{"android":"levelo://app?vid=b79a367a-2b02-457a-8ccd-06112f0293d1","ios":"levelo://app?vid=b79a367a-2b02-457a-8ccd-06112f0293d1"},"vehicle_type_id":"4","last_reported":1714507652,"current_range_meters":1200,"station_id":"ce4bhbp2rcd13ifvqesg","pricing_plan_id":"cebpf4jnsgd1na2vs0mg"},{"bike_id":"ea92adb3-6164-4608-b848-9dad80e6d71d","system_id":"levelo_inurba_marseille","lat":43.292749,"lon":5.368402,"is_reserved":false,"is_disabled":false,"rental_uris":{"android":"levelo://app?vid=ea92adb3-6164-4608-b848-9dad80e6d71d","ios":"levelo://app?vid=ea92adb3-6164-4608-b848-9dad80e6d71d"},"vehicle_type_id":"4","last_reported":1714507652,"current_range_meters":18400,"station_id":"ce4bhbp2rcd13ifvqesg","pricing_plan_id":"cebpf4jnsgd1na2vs0mg"},{"bike_id":"e6046c28-10aa-442d-a3a0-6b8a4bcf8ece","system_id":"levelo_inurba_marseille","lat":43.292719,"lon":5.3684,"is_reserved":false,"is_disabled":false,"rental_uris":{"android":"levelo://app?vid=e6046c28-10aa-442d-a3a0-6b8a4bcf8ece","ios":"levelo://app?vid=e6046c28-10aa-442d-a3a0-6b8a4bcf8ece"},"vehicle_type_id":"4","last_reported":1714507652,"current_range_meters":14000,"station_id":"ce4bhbp2rcd13ifvqesg","pricing_plan_id":"cebpf4jnsgd1na2vs0mg"},{"bike_id":"8c095687-0b19-4311-b9ad-be3c3f3af46d","system_id":"levelo_inurba_marseille","lat":43.29301,"lon":5.37183,"is_reserved":false,"is_disabled":false,"rental_uris":{"android":"levelo://app?vid=8c095687-0b19-4311-b9ad-be3c3f3af46d","ios":"levelo://app?vid=8c095687-0b19-4311-b9ad-be3c3f3af46d"},"vehicle_type_id":"4","last_reported":1714507652,"current_range_meters":0,"station_id":"ce4bgh92rcd13ifvqb40","pricing_plan_id":"cebpf4jnsgd1na2vs0mg"},{"bike_id":"78b51b29-8223-4787-9870-a41c6fbc3d81","system_id":"levelo_inurba_marseille","lat":43.29272,"lon":5.36844,"is_reserved":false,"is_disabled":false,"rental_uris":{"android":"levelo://app?vid=78b51b29-8223-4787-9870-a41c6fbc3d81","ios":"levelo://app?vid=78b51b29-8223-4787-9870-a41c6fbc3d81"},"vehicle_type_id":"4","last_reported":1714507652,"current_range_meters":5200,"station_id":"ce4bhbp2rcd13ifvqesg","pricing_plan_id":"cebpf4jnsgd1na2vs0mg"},{"bike_id":"26de1e74-fcfc-4eed-92ca-c71558333f88","system_id":"levelo_inurba_marseille","lat":43.292994,"lon":5.371723,"is_reserved":false,"is_disabled":false,"rental_uris":{"android":"levelo://app?vid=26de1e74-fcfc-4eed-92ca-c71558333f88","ios":"levelo://app?vid=26de1e74-fcfc-4eed-92ca-c71558333f88"},"vehicle_type_id":"4","last_reported":1714507652,"current_range_meters":4800,"station_id":"ce4bgh92rcd13ifvqb40","pricing_plan_id":"cebpf4jnsgd1na2vs0mg"},{"bike_id":"637e100c-7d24-4362-8901-7c02a8b2f3fe","system_id":"levelo_inurba_marseille","lat":43.293,"lon":5.37179,"is_reserved":false,"is_disabled":false,"rental_uris":{"android":"levelo://app?vid=637e100c-7d24-4362-8901-7c02a8b2f3fe","ios":"levelo://app?vid=637e100c-7d24-4362-8901-7c02a8b2f3fe"},"vehicle_type_id":"4","last_reported":1714507652,"current_range_meters":9600,"station_id":"ce4bgh92rcd13ifvqb40","pricing_plan_id":"cebpf4jnsgd1na2vs0mg"},{"bike_id":"3bdece9f-04c7-48b5-89ae-5995b3a697ac","system_id":"levelo_inurba_marseille","lat":43.292749,"lon":5.368402,"is_reserved":false,"is_disabled":false,"rental_uris":{"android":"levelo://app?vid=3bdece9f-04c7-48b5-89ae-5995b3a697ac","ios":"levelo://app?vid=3bdece9f-04c7-48b5-89ae-5995b3a697ac"},"vehicle_type_id":"4","last_reported":1714507652,"current_range_meters":0,"station_id":"ce4bhbp2rcd13ifvqesg","pricing_plan_id":"cebpf4jnsgd1na2vs0mg"},{"bike_id":"09f7cb5d-9edd-47d2-a04e-f1b90dc48fc4","system_id":"levelo_inurba_marseille","lat":43.292749,"lon":5.368402,"is_reserved":false,"is_disabled":false,"rental_uris":{"android":"levelo://app?vid=09f7cb5d-9edd-47d2-a04e-f1b90dc48fc4","ios":"levelo://app?vid=09f7cb5d-9edd-47d2-a04e-f1b90dc48fc4"},"vehicle_type_id":"4","last_reported":1714507652,"current_range_meters":20400,"station_id":"ce4bhbp2rcd13ifvqesg","pricing_plan_id":"cebpf4jnsgd1na2vs0mg"},{"bike_id":"e1e353d5-7a98-4cc6-8158-e666435f4174","system_id":"levelo_inurba_marseille","lat":43.303002,"lon":5.392142,"is_reserved":false,"is_disabled":false,"rental_uris":{"android":"levelo://app?vid=e1e353d5-7a98-4cc6-8158-e666435f4174","ios":"levelo://app?vid=e1e353d5-7a98-4cc6-8158-e666435f4174"},"vehicle_type_id":"4","last_reported":1714507652,"current_range_meters":4000,"station_id":"ce4bgkh2rcd13ifvqbk0","pricing_plan_id":"cebpf4jnsgd1na2vs0mg"},{"bike_id":"afa98e61-688f-441e-9070-81ac7d21aabe","system_id":"levelo_inurba_marseille","lat":43.293135,"lon":5.374559,"is_reserved":false,"is_disabled":false,"rental_uris":{"android":"levelo://app?vid=afa98e61-688f-441e-9070-81ac7d21aabe","ios":"levelo://app?vid=afa98e61-688f-441e-9070-81ac7d21aabe"},"vehicle_type_id":"4","last_reported":1714507652,"current_range_meters":21600,"station_id":"ce4bgi12rcd13ifvqb70","pricing_plan_id":"cebpf4jnsgd1na2vs0mg"},{"bike_id":"8458ec4e-4af8-44c7-a66a-11f6ea64930c","system_id":"levelo_inurba_marseille","lat":43.293059,"lon":5.374605,"is_reserved":false,"is_disabled":false,"rental_uris":{"android":"levelo://app?vid=8458ec4e-4af8-44c7-a66a-11f6ea64930c","ios":"levelo://app?vid=8458ec4e-4af8-44c7-a66a-11f6ea64930c"},"vehicle_type_id":"4","last_reported":1714507652,"current_range_meters":20800,"station_id":"ce4bgi12rcd13ifvqb70","pricing_plan_id":"cebpf4jnsgd1na2vs0mg"},{"bike_id":"d2f07e5a-d9c9-4c3b-9218-9ff4fe2f6b79","system_id":"levelo_inurba_marseille","lat":43.293009,"lon":5.374584,"is_reserved":false,"is_disabled":false,"rental_uris":{"android":"levelo://app?vid=d2f07e5a-d9c9-4c3b-9218-9ff4fe2f6b79","ios":"levelo://app?vid=d2f07e5a-d9c9-4c3b-9218-9ff4fe2f6b79"},"vehicle_type_id":"4","last_reported":1714507652,"current_range_meters":10000,"station_id":"ce4bgi12rcd13ifvqb70","pricing_plan_id":"cebpf4jnsgd1na2vs0mg"},{"bike_id":"8daff62d-f196-410e-a76b-607ff8898bd9","system_id":"levelo_inurba_marseille","lat":43.293009,"lon":5.374584,"is_reserved":false,"is_disabled":false,"rental_uris":{"android":"levelo://app?vid=8daff62d-f196-410e-a76b-607ff8898bd9","ios":"levelo://app?vid=8daff62d-f196-410e-a76b-607ff8898bd9"},"vehicle_type_id":"4","last_reported":1714507652,"current_range_meters":24800,"station_id":"ce4bgi12rcd13ifvqb70","pricing_plan_id":"cebpf4jnsgd1na2vs0mg"},{"bike_id":"e68aca64-0553-4451-87dc-e1506b4784df","system_id":"levelo_inurba_marseille","lat":43.29304,"lon":5.3746,"is_reserved":false,"is_disabled":false,"rental_uris":{"android":"levelo://app?vid=e68aca64-0553-4451-87dc-e1506b4784df","ios":"levelo://app?vid=e68aca64-0553-4451-87dc-e1506b4784df"},"vehicle_type_id":"4","last_reported":1714507652,"current_range_meters":5200,"station_id":"ce4bgi12rcd13ifvqb70","pricing_plan_id":"cebpf4jnsgd1na2vs0mg"},{"bike_id":"b86ffda0-fce7-48c8-9931-f1ea497b0b7c","system_id":"levelo_inurba_marseille","lat":43.29302,"lon":5.37454,"is_reserved":false,"is_disabled":false,"rental_uris":{"android":"levelo://app?vid=b86ffda0-fce7-48c8-9931-f1ea497b0b7c","ios":"levelo://app?vid=b86ffda0-fce7-48c8-9931-f1ea497b0b7c"},"vehicle_type_id":"4","last_reported":1714507652,"current_range_meters":19600,"station_id":"ce4bgi12rcd13ifvqb70","pricing_plan_id":"cebpf4jnsgd1na2vs0mg"},{"bike_id":"db77a7dd-3803-464e-9db2-a3de083c6b94","system_id":"levelo_inurba_marseille","lat":43.29303,"lon":5.37462,"is_reserved":false,"is_disabled":false,"rental_uris":{"android":"levelo://app?vid=db77a7dd-3803-464e-9db2-a3de083c6b94","ios":"levelo://app?vid=db77a7dd-3803-464e-9db2-a3de083c6b94"},"vehicle_type_id":"4","last_reported":1714507652,"current_range_meters":8400,"station_id":"ce4bgi12rcd13ifvqb70","pricing_plan_id":"cebpf4jnsgd1na2vs0mg"},{"bike_id":"1a404f13-994d-4804-9ca0-7304d3f31967","system_id":"levelo_inurba_marseille","lat":43.29301,"lon":5.37455,"is_reserved":false,"is_disabled":false,"rental_uris":{"android":"levelo://app?vid=1a404f13-994d-4804-9ca0-7304d3f31967","ios":"levelo://app?vid=1a404f13-994d-4804-9ca0-7304d3f31967"},"vehicle_type_id":"4","last_reported":1714507652,"current_range_meters":31200,"station_id":"ce4bgi12rcd13ifvqb70","pricing_plan_id":"cebpf4jnsgd1na2vs0mg"},{"bike_id":"10fc0f0b-55aa-4014-a756-ee929923d15c","system_id":"levelo_inurba_marseille","lat":43.293009,"lon":5.374584,"is_reserved":false,"is_disabled":false,"rental_uris":{"android":"levelo://app?vid=10fc0f0b-55aa-4014-a756-ee929923d15c","ios":"levelo://app?vid=10fc0f0b-55aa-4014-a756-ee929923d15c"},"vehicle_type_id":"4","last_reported":1714507652,"current_range_meters":17200,"station_id":"ce4bgi12rcd13ifvqb70","pricing_plan_id":"cebpf4jnsgd1na2vs0mg"},{"bike_id":"a64e47a0-cff8-4400-95ae-2c60d78bbea1","system_id":"levelo_inurba_marseille","lat":43.293,"lon":5.37453,"is_reserved":false,"is_disabled":false,"rental_uris":{"android":"levelo://app?vid=a64e47a0-cff8-4400-95ae-2c60d78bbea1","ios":"levelo://app?vid=a64e47a0-cff8-4400-95ae-2c60d78bbea1"},"vehicle_type_id":"4","last_reported":1714507652,"current_range_meters":2800,"station_id":"ce4bgi12rcd13ifvqb70","pricing_plan_id":"cebpf4jnsgd1na2vs0mg"},{"bike_id":"ba9a2c73-c961-41cc-8f48-1991a98d5e64","system_id":"levelo_inurba_marseille","lat":43.293009,"lon":5.374584,"is_reserved":false,"is_disabled":false,"rental_uris":{"android":"levelo://app?vid=ba9a2c73-c961-41cc-8f48-1991a98d5e64","ios":"levelo://app?vid=ba9a2c73-c961-41cc-8f48-1991a98d5e64"},"vehicle_type_id":"4","last_reported":1714507652,"current_range_meters":29200,"station_id":"ce4bgi12rcd13ifvqb70","pricing_plan_id":"cebpf4jnsgd1na2vs0mg"},{"bike_id":"96036694-0922-42e7-9190-cd87578bee3b","system_id":"levelo_inurba_marseille","lat":43.292988,"lon":5.37453,"is_reserved":false,"is_disabled":false,"rental_uris":{"android":"levelo://app?vid=96036694-0922-42e7-9190-cd87578bee3b","ios":"levelo://app?vid=96036694-0922-42e7-9190-cd87578bee3b"},