{"last_updated":1687453536,"ttl":30,"version":"2.2","data":{"bikes":[{"bike_id":"6e4fd040-1866-4783-872c-dd21a7ae18af","system_id":"levelo_inurba_marseille","lat":43.31352,"lon":5.37066,"is_reserved":false,"is_disabled":false,"rental_uris":{"android":"levelo://app?vid=6e4fd040-1866-4783-872c-dd21a7ae18af","ios":"levelo://app?vid=6e4fd040-1866-4783-872c-dd21a7ae18af"},"vehicle_type_id":"4","last_reported":1687453537,"current_range_meters":4400,"station_id":"","pricing_plan_id":"free"},{"bike_id":"8a7026e9-4306-4ba7-8803-a85e842f3aa2","system_id":"levelo_inurba_marseille","lat":43.30892,"lon":5.37205,"is_reserved":false,"is_disabled":false,"rental_uris":{"android":"levelo://app?vid=8a7026e9-4306-4ba7-8803-a85e842f3aa2","ios":"levelo://app?vid=8a7026e9-4306-4ba7-8803-a85e842f3aa2"},"vehicle_type_id":"4","last_reported":1687453537,"current_range_meters":16400,"station_id":"","pricing_plan_id":"free"},{"bike_id":"1d89ece5-b796-4b36-814b-2419a10b04bc","system_id":"levelo_inurba_marseille","lat":43.30547,"lon":5.36551,"is_reserved":false,"is_disabled":false,"rental_uris":{"android":"levelo://app?vid=1d89ece5-b796-4b36-814b-2419a10b04bc","ios":"levelo://app?vid=1d89ece5-b796-4b36-814b-2419a10b04bc"},"vehicle_type_id":"4","last_reported":1687453537,"current_range_meters":22400,"station_id":"ce4bgs12rcd13ifvqcag","pricing_plan_id":"free"},{"bike_id":"d26434d5-345f-42ac-92b5-100eba1c3f51","system_id":"levelo_inurba_marseille","lat":43.30541,"lon":5.36549,"is_reserved":false,"is_disabled":false,"rental_uris":{"android":"levelo://app?vid=d26434d5-345f-42ac-92b5-100eba1c3f51","ios":"levelo://app?vid=d26434d5-345f-42ac-92b5-100eba1c3f51"},"vehicle_type_id":"4","last_reported":1687453537,"current_range_meters":2400,"station_id":"ce4bgs12rcd13ifvqcag","pricing_plan_id":"free"},{"bike_id":"d88ec32a-fa52-4a53-be1f-ddd7705f3b47","system_id":"levelo_inurba_marseille","lat":43.303046,"lon":5.368981,"is_reserved":false,"is_disabled":false,"rental_uris":{"android":"levelo://app?vid=d88ec32a-fa52-4a53-be1f-ddd7705f3b47","ios":"levelo://app?vid=d88ec32a-fa52-4a53-be1f-ddd7705f3b47"},"vehicle_type_id":"4","last_reported":1687453537,"current_range_meters":22400,"station_id":"ce4bgqh2rcd13ifvqc5g","pricing_plan_id":"free"},{"bike_id":"91774905-65db-47b9-9cde-734a0e3f63b3","system_id":"levelo_inurba_marseille","lat":43.303046,"lon":5.368981,"is_reserved":false,"is_disabled":false,"rental_uris":{"android":"levelo://app?vid=91774905-65db-47b9-9cde-734a0e3f63b3","ios":"levelo://app?vid=91774905-65db-47b9-9cde-734a0e3f63b3"},"vehicle_type_id":"4","last_reported":1687453537,"current_range_meters":16000,"station_id":"ce4bgqh2rcd13ifvqc5g","pricing_plan_id":"free"},{"bike_id":"bdf6da01-d178-47aa-910c-a6d8d9305f3b","system_id":"levelo_inurba_marseille","lat":43.315293,"lon":5.380349,"is_reserved":false,"is_disabled":false,"rental_uris":{"android":"levelo://app?vid=bdf6da01-d178-47aa-910c-a6d8d9305f3b","ios":"levelo://app?vid=bdf6da01-d178-47aa-910c-a6d8d9305f3b"},"vehicle_type_id":"4","last_reported":1687453537,"current_range_meters":29200,"station_id":"ce4bhsp2rcd13ifvqi50","pricing_plan_id":"free"},{"bike_id":"92e5b088-c7ca-4fac-99ad-5082eb7e44c5","system_id":"levelo_inurba_marseille","lat":43.315293,"lon":5.380349,"is_reserved":false,"is_disabled":false,"rental_uris":{"android":"levelo://app?vid=92e5b088-c7ca-4fac-99ad-5082eb7e44c5","ios":"levelo://app?vid=92e5b088-c7ca-4fac-99ad-5082eb7e44c5"},"vehicle_type_id":"4","last_reported":1687453537,"current_range_meters":6000,"station_id":"ce4bhsp2rcd13ifvqi50","pricing_plan_id":"free"},{"bike_id":"d0241ff8-9a93-40f2-8d84-fbb2af0de7a4","system_id":"levelo_inurba_marseille","lat":43.301939,"lon":5.366286,"is_reserved":false,"is_disabled":false,"rental_uris":{"android":"levelo://app?vid=d0241ff8-9a93-40f2-8d84-fbb2af0de7a4","ios":"levelo://app?vid=d0241ff8-9a93-40f2-8d84-fbb2af0de7a4"},"vehicle_type_id":"4","last_reported":1687453537,"current_range_meters":9600,"station_id":"ce4bgrh2rcd13ifvqc8g","pricing_plan_id":"free"},{"bike_id":"c98c824a-5a21-41d7-a2b3-cfad705b7985","system_id":"levelo_inurba_marseille","lat":43.292642,"lon":5.384254,"is_reserved":false,"is_disabled":false,"rental_uris":{"android":"levelo://app?vid=c98c824a-5a21-41d7-a2b3-cfad705b7985","ios":"levelo://app?vid=c98c824a-5a21-41d7-a2b3-cfad705b7985"},"vehicle_type_id":"4","last_reported":1687453537,"current_range_meters":1600,"station_id":"ce4bh692rcd13ifvqea0","pricing_plan_id":"free"},{"bike_id":"43fc693e-f2a9-4aec-8fd9-d094bb02cb70","system_id":"levelo_inurba_marseille","lat":43.304606,"lon":5.379026,"is_reserved":false,"is_disabled":false,"rental_uris":{"android":"levelo://app?vid=43fc693e-f2a9-4aec-8fd9-d094bb02cb70","ios":"levelo://app?vid=43fc693e-f2a9-4aec-8fd9-d094bb02cb70"},"vehicle_type_id":"4","last_reported":1687453537,"current_range_meters":1600,"station_id":"ce4bgup2rcd13ifvqcn0","pricing_plan_id":"free"},{"bike_id":"1d9c8edc-6451-4748-962c-c623599e6af0","system_id":"levelo_inurba_marseille","lat":43.301345,"lon":5.374354,"is_reserved":false,"is_disabled":false,"rental_uris":{"android":"levelo://app?vid=1d9c8edc-6451-4748-962c-c623599e6af0","ios":"levelo://app?vid=1d9c8edc-6451-4748-962c-c623599e6af0"},"vehicle_type_id":"4","last_reported":1687453537,"current_range_meters":6400,"station_id":"ce4bgs92rcd13ifvqcc0","pricing_plan_id":"free"},{"bike_id":"fee6c8dd-c751-4479-9350-369deb58946f","system_id":"levelo_inurba_marseille","lat":43.313571,"lon":5.384829,"is_reserved":false,"is_disabled":false,"rental_uris":{"android":"levelo://app?vid=fee6c8dd-c751-4479-9350-369deb58946f","ios":"levelo://app?vid=fee6c8dd-c751-4479-9350-369deb58946f"},"vehicle_type_id":"4","last_reported":1687453537,"current_range_meters":3200,"station_id":"ce4bgt92rcd13ifvqcf0","pricing_plan_id":"free"},{"bike_id":"cc7ccaed-aeac-4fb6-a249-e3eec1cb8751","system_id":"levelo_inurba_marseille","lat":43.32293,"lon":5.37929,"is_reserved":false,"is_disabled":false,"rental_uris":{"android":"levelo://app?vid=cc7ccaed-aeac-4fb6-a249-e3eec1cb8751","ios":"levelo://app?vid=cc7ccaed-aeac-4fb6-a249-e3eec1cb8751"},"vehicle_type_id":"4","last_reported":1687453537,"current_range_meters":30000,"station_id":"","pricing_plan_id":"free"},{"bike_id":"73dc3e1d-1802-4560-a0d7-71e960aaca52","system_id":"levelo_inurba_marseille","lat":43.305364,"lon":5.384119,"is_reserved":false,"is_disabled":false,"rental_uris":{"android":"levelo://app?vid=73dc3e1d-1802-4560-a0d7-71e960aaca52","ios":"levelo://app?vid=73dc3e1d-1802-4560-a0d7-71e960aaca52"},"vehicle_type_id":"4","last_reported":1687453537,"current_range_meters":3200,"station_id":"ce4bgg92rcd13ifvqb30","pricing_plan_id":"free"},{"bike_id":"e6ea61d5-da20-4ad2-b344-94c2975133fa","system_id":"levelo_inurba_marseille","lat":43.32282,"lon":5.38209,"is_reserved":false,"is_disabled":false,"rental_uris":{"android":"levelo://app?vid=e6ea61d5-da20-4ad2-b344-94c2975133fa","ios":"levelo://app?vid=e6ea61d5-da20-4ad2-b344-94c2975133fa"},"vehicle_type_id":"4","last_reported":1687453537,"current_range_meters":400,"station_id":"","pricing_plan_id":"free"},{"bike_id":"d6aa4b8f-0fbd-492f-a726-f1b64033634e","system_id":"levelo_inurba_marseille","lat":43.29721,"lon":5.36404,"is_reserved":false,"is_disabled":false,"rental_uris":{"android":"levelo://app?vid=d6aa4b8f-0fbd-492f-a726-f1b64033634e","ios":"levelo://app?vid=d6aa4b8f-0fbd-492f-a726-f1b64033634e"},"vehicle_type_id":"4","last_reported":1687453537,"current_range_meters":14800,"station_id":"","pricing_plan_id":"free"},{"bike_id":"041bc147-ef2f-419b-bb81-deca3bdf89e2","system_id":"levelo_inurba_marseille","lat":43.29611,"lon":5.36046,"is_reserved":false,"is_disabled":false,"rental_uris":{"android":"levelo://app?vid=041bc147-ef2f-419b-bb81-deca3bdf89e2","ios":"levelo://app?vid=041bc147-ef2f-419b-bb81-deca3bdf89e2"},"vehicle_type_id":"4","last_reported":1687453537,"current_range_meters":14000,"station_id":"","pricing_plan_id":"free"},{"bike_id":"f078e703-6dc3-4161-bcf0-352f8f3c3407","system_id":"levelo_inurba_marseille","lat":43.295684,"lon":5.375066,"is_reserved":false,"is_disabled":false,"rental_uris":{"android":"levelo://app?vid=f078e703-6dc3-4161-bcf0-352f8f3c3407","ios":"levelo://app?vid=f078e703-6dc3-4161-bcf0-352f8f3c3407"},"vehicle_type_id":"4","last_reported":1687453537,"current_range_meters":800,"station_id":"","pricing_plan_id":"free"},{"bike_id":"c345287a-3c55-4ffa-9f12-a6b3c2a52702","system_id":"levelo_inurba_marseille","lat":43.29599,"lon":5.37714,"is_reserved":false,"is_disabled":false,"rental_uris":{"android":"levelo://app?vid=c345287a-3c55-4ffa-9f12-a6b3c2a52702","ios":"levelo://app?vid=c345287a-3c55-4ffa-9f12-a6b3c2a52702"},"vehicle_type_id":"4","last_reported":1687453537,"current_range_meters":0,"station_id":"","pricing_plan_id":"free"},{"bike_id":"60ad4464-8677-4163-b14f-ce3ca860a385","system_id":"levelo_inurba_marseille","lat":43.295279,"lon":5.375048,"is_reserved":false,"is_disabled":false,"rental_uris":{"android":"levelo://app?vid=60ad4464-8677-4163-b14f-ce3ca860a385","ios":"levelo://app?vid=60ad4464-8677-4163-b14f-ce3ca860a385"},"vehicle_type_id":"4","last_reported":1687453537,"current_range_meters":3200,"station_id":"ce4bgkp2rcd13ifvqbmg","pricing_plan_id":"free"},{"bike_id":"d3797465-b9c9-4542-98be-9bba247aa789","system_id":"levelo_inurba_marseille","lat":43.299724,"lon":5.384848,"is_reserved":false,"is_disabled":false,"rental_uris":{"android":"levelo://app?vid=d3797465-b9c9-4542-98be-9bba247aa789","ios":"levelo://app?vid=d3797465-b9c9-4542-98be-9bba247aa789"},"vehicle_type_id":"4","last_reported":1687453537,"current_range_meters":31200,"station_id":"ce4bgj92rcd13ifvqbd0","pricing_plan_id":"free"},{"bike_id":"e65e6121-f44d-42d9-a440-dae64c399839","system_id":"levelo_inurba_marseille","lat":43.299724,"lon":5.384848,"is_reserved":false,"is_disabled":false,"rental_uris":{"android":"levelo://app?vid=e65e6121-f44d-42d9-a440-dae64c399839","ios":"levelo://app?vid=e65e6121-f44d-42d9-a440-dae64c399839"},"vehicle_type_id":"4","last_reported":1687453537,"current_range_meters":0,"station_id":"ce4bgj92rcd13ifvqbd0","pricing_plan_id":"free"},{"bike_id":"fd1e5792-8a6f-47f1-bb0f-351492194aaf","system_id":"levelo_inurba_marseille","lat":43.299717,"lon":5.384845,"is_reserved":false,"is_disabled":false,"rental_uris":{"android":"levelo://app?vid=fd1e5792-8a6f-47f1-bb0f-351492194aaf","ios":"levelo://app?vid=fd1e5792-8a6f-47f1-bb0f-351492194aaf"},"vehicle_type_id":"4","last_reported":1687453537,"current_range_meters":24000,"station_id":"ce4bgj92rcd13ifvqbd0","pricing_plan_id":"free"},{"bike_id":"9c01e023-7357-4377-b904-d0661aa499b3","system_id":"levelo_inurba_marseille","lat":43.32363,"lon":5.38873,"is_reserved":false,"is_disabled":false,"rental_uris":{"android":"levelo://app?vid=9c01e023-7357-4377-b904-d0661aa499b3","ios":"levelo://app?vid=9c01e023-7357-4377-b904-d0661aa499b3"},"vehicle_type_id":"4","last_reported":1687453537,"current_range_meters":23600,"station_id":"ce4bhqp2rcd13ifvqhog","pricing_plan_id":"free"},{"bike_id":"cf7014bc-49c1-465b-a116-1efbbe1210c8","system_id":"levelo_inurba_marseille","lat":43.32364,"lon":5.3888,"is_reserved":false,"is_disabled":false,"rental_uris":{"android":"levelo://app?vid=cf7014bc-49c1-465b-a116-1efbbe1210c8","ios":"levelo://app?vid=cf7014bc-49c1-465b-a116-1efbbe1210c8"},"vehicle_type_id":"4","last_reported":1687453537,"current_range_meters":22800,"station_id":"ce4bhqp2rcd13ifvqhog","pricing_plan_id":"free"},{"bike_id":"af9d25f9-0b0f-4c1c-9312-000ceb8c3bfc","system_id":"levelo_inurba_marseille","lat":43.32367,"lon":5.388836,"is_reserved":false,"is_disabled":false,"rental_uris":{"android":"levelo://app?vid=af9d25f9-0b0f-4c1c-9312-000ceb8c3bfc","ios":"levelo://app?vid=af9d25f9-0b0f-4c1c-9312-000ceb8c3bfc"},"vehicle_type_id":"4","last_reported":1687453537,"current_range_meters":15600,"station_id":"ce4bhqp2rcd13ifvqhog","pricing_plan_id":"free"},{"bike_id":"e041460a-54ae-4871-ad9f-b6135e0ef88f","system_id":"levelo_inurba_marseille","lat":43.32365,"lon":5.38887,"is_reserved":false,"is_disabled":false,"rental_uris":{"android":"levelo://app?vid=e041460a-54ae-4871-ad9f-b6135e0ef88f","ios":"levelo://app?vid=e041460a-54ae-4871-ad9f-b6135e0ef88f"},"vehicle_type_id":"4","last_reported":1687453537,"current_range_meters":28400,"station_id":"ce4bhqp2rcd13ifvqhog","pricing_plan_id":"free"},{"bike_id":"fe0efc2f-dafd-46c3-b01b-b7b8dd1e78b9","system_id":"levelo_inurba_marseille","lat":43.3236,"lon":5.38892,"is_reserved":false,"is_disabled":false,"rental_uris":{"android":"levelo://app?vid=fe0efc2f-dafd-46c3-b01b-b7b8dd1e78b9","ios":"levelo://app?vid=fe0efc2f-dafd-46c3-b01b-b7b8dd1e78b9"},"vehicle_type_id":"4","last_reported":1687453537,"current_range_meters":25200,"station_id":"ce4bhqp2rcd13ifvqhog","pricing_plan_id":"free"},{"bike_id":"dd51c921-f13c-409e-8acc-cdbb190fa4e6","system_id":"levelo_inurba_marseille","lat":43.32367,"lon":5.388836,"is_reserved":false,"is_disabled":false,"rental_uris":{"android":"levelo://app?vid=dd51c921-f13c-409e-8acc-cdbb190fa4e6","ios":"levelo://app?vid=dd51c921-f13c-409e-8acc-cdbb190fa4e6"},"vehicle_type_id":"4","last_reported":1687453537,"current_range_meters":26000,"station_id":"ce4bhqp2rcd13ifvqhog","pricing_plan_id":"free"},{"bike_id":"e9a5f79a-69b5-4c7c-81b9-81e43f3bff7b","system_id":"levelo_inurba_marseille","lat":43.32364,"lon":5.38895,"is_reserved":false,"is_disabled":false,"rental_uris":{"android":"levelo://app?vid=e9a5f79a-69b5-4c7c-81b9-81e43f3bff7b","ios":"levelo://app?vid=e9a5f79a-69b5-4c7c-81b9-81e43f3bff7b"},"vehicle_type_id":"4","last_reported":1687453537,"current_range_meters":20800,"station_id":"ce4bhqp2rcd13ifvqhog","pricing_plan_id":"free"},{"bike_id":"a4c04ed7-cab4-4ea0-9634-ee9e7e7d7c83","system_id":"levelo_inurba_marseille","lat":43.32367,"lon":5.388836,"is_reserved":false,"is_disabled":false,"rental_uris":{"android":"levelo://app?vid=a4c04ed7-cab4-4ea0-9634-ee9e7e7d7c83","ios":"levelo://app?vid=a4c04ed7-cab4-4ea0-9634-ee9e7e7d7c83"},"vehicle_type_id":"4","last_reported":1687453537,"current_range_meters":31600,"station_id":"ce4bhqp2rcd13ifvqhog","pricing_plan_id":"free"},{"bike_id":"69a655cc-0b8b-438d-9e1c-6a2fdb08834c","system_id":"levelo_inurba_marseille","lat":43.29602,"lon":5.381084,"is_reserved":false,"is_disabled":false,"rental_uris":{"android":"levelo://app?vid=69a655cc-0b8b-438d-9e1c-6a2fdb08834c","ios":"levelo://app?vid=69a655cc-0b8b-438d-9e1c-6a2fdb08834c"},"vehicle_type_id":"4","last_reported":1687453537,"current_range_meters":0,"station_id":"ce4bgl12rcd13ifvqbo0","pricing_plan_id":"free"},{"bike_id":"1ae0fecd-d099-4ffc-9a9f-bc16bdf285ef","system_id":"levelo_inurba_marseille","lat":43.29306,"lon":5.37169,"is_reserved":false,"is_disabled":false,"rental_uris":{"android":"levelo://app?vid=1ae0fecd-d099-4ffc-9a9f-bc16bdf285ef","ios":"levelo://app?vid=1ae0fecd-d099-4ffc-9a9f-bc16bdf285ef"},"vehicle_type_id":"4","last_reported":1687453537,"current_range_meters":15600,"station_id":"ce4bgh92rcd13ifvqb40","pricing_plan_id":"free"},{"bike_id":"a26992e8-a60b-4dc3-bb43-fcee8c77d316","system_id":"levelo_inurba_marseille","lat":43.29306,"lon":5.37176,"is_reserved":false,"is_disabled":false,"rental_uris":{"android":"levelo://app?vid=a26992e8-a60b-4dc3-bb43-fcee8c77d316","ios":"levelo://app?vid=a26992e8-a60b-4dc3-bb43-fcee8c77d316"},"vehicle_type_id":"4","last_reported":1687453537,"current_range_meters":12000,"station_id":"ce4bgh92rcd13ifvqb40","pricing_plan_id":"free"},{"bike_id":"32d7257d-3603-4a0d-8da2-d66c6d9257dc","system_id":"levelo_inurba_marseille","lat":43.29296,"lon":5.37175,"is_reserved":false,"is_disabled":false,"rental_uris":{"android":"levelo://app?vid=32d7257d-3603-4a0d-8da2-d66c6d9257dc","ios":"levelo://app?vid=32d7257d-3603-4a0d-8da2-d66c6d9257dc"},"vehicle_type_id":"4","last_reported":1687453537,"current_range_meters":31200,"station_id":"ce4bgh92rcd13ifvqb40","pricing_plan_id":"free"},{"bike_id":"05cdb11f-9f51-44e7-bc8a-8e43d5681f5d","system_id":"levelo_inurba_marseille","lat":43.293009,"lon":5.374584,"is_reserved":false,"is_disabled":false,"rental_uris":{"android":"levelo://app?vid=05cdb11f-9f51-44e7-bc8a-8e43d5681f5d","ios":"levelo://app?vid=05cdb11f-9f51-44e7-bc8a-8e43d5681f5d"},"vehicle_type_id":"4","last_reported":1687453537,"current_range_meters":20400,"station_id":"ce4bgi12rcd13ifvqb70","pricing_plan_id":"free"},{"bike_id":"441646e2-602b-43b4-8e0f-61022c37c698","system_id":"levelo_inurba_marseille","lat":43.29254,"lon":5.37221,"is_reserved":false,"is_disabled":false,"rental_uris":{"android":"levelo://app?vid=441646e2-602b-43b4-8e0f-61022c37c698","ios":"levelo://app?vid=441646e2-602b-43b4-8e0f-61022c37c698"},"vehicle_type_id":"4","last_reported":1687453537,"current_range_meters":0,"station_id":"","pricing_plan_id":"free"},{"bike_id":"82962bf2-4310-4efb-af0e-e0c2985b458f","system_id":"levelo_inurba_marseille","lat":43.29266,"lon":5.35963,"is_reserved":false,"is_disabled":false,"rental_uris":{"android":"levelo://app?vid=82962bf2-4310-4efb-af0e-e0c2985b458f","ios":"levelo://app?vid=82962bf2-4310-4efb-af0e-e0c2985b458f"},"vehicle_type_id":"4","last_reported":1687453537,"current_range_meters":28400,"station_id":"","pricing_plan_id":"free"},{"bike_id":"741dd6c0-3c8e-4828-8e72-3380e8852136","system_id":"levelo_inurba_marseille","lat":43.302992,"lon":5.392136,"is_reserved":false,"is_disabled":false,"rental_uris":{"android":"levelo://app?vid=741dd6c0-3c8e-4828-8e72-3380e8852136","ios":"levelo://app?vid=741dd6c0-3c8e-4828-8e72-3380e8852136"},"vehicle_type_id":"4","last_reported":1687453537,"current_range_meters":0,"station_id":"ce4bgkh2rcd13ifvqbk0","pricing_plan_id":"free"},{"bike_id":"e57d81ca-f33b-4a94-87a0-fdf98ca78aed","system_id":"levelo_inurba_marseille","lat":43.292311,"lon":5.360731,"is_reserved":false,"is_disabled":false,"rental_uris":{"android":"levelo://app?vid=e57d81ca-f33b-4a94-87a0-fdf98ca78aed","ios":"levelo://app?vid=e57d81ca-f33b-4a94-87a0-fdf98ca78aed"},"vehicle_type_id":"4","last_reported":1687453537,"current_range_meters":31200,"station_id":"ce4bhbh2rcd13ifvqeqg","pricing_plan_id":"free"},{"bike_id":"f271dd97-0156-4de2-aa42-2ef242fab0b1","system_id":"levelo_inurba_marseille","lat":43.291675,"lon":5.371583,"is_reserved":false,"is_disabled":false,"rental_uris":{"android":"levelo://app?vid=f271dd97-0156-4de2-aa42-2ef242fab0b1","ios":"levelo://app?vid=f271dd97-0156-4de2-aa42-2ef242fab0b1"},"vehicle_type_id":"4","last_reported":1687453537,"current_range_meters":800,"station_id":"ce4bha92rcd13ifvqeh0","pricing_plan_id":"free"},{"bike_id":"4b67ab16-f9be-4c34-9d1e-31aad72b2966","system_id":"levelo_inurba_marseille","lat":43.313291,"lon":5.396838,"is_reserved":false,"is_disabled":false,"rental_uris":{"android":"levelo://app?vid=4b67ab16-f9be-4c34-9d1e-31aad72b2966","ios":"levelo://app?vid=4b67ab16-f9be-4c34-9d1e-31aad72b2966"},"vehicle_type_id":"4","last_reported":1687453537,"current_range_meters":17600,"station_id":"ce4bgvp2rcd13ifvqcu0","pricing_plan_id":"free"},{"bike_id":"7ed2bab7-c31d-4b15-acda-1a2e52594d30","system_id":"levelo_inurba_marseille","lat":43.29194,"lon":5.35796,"is_reserved":false,"is_disabled":false,"rental_uris":{"android":"levelo://app?vid=7ed2bab7-c31d-4b15-acda-1a2e52594d30","ios":"levelo://app?vid=7ed2bab7-c31d-4b15-acda-1a2e52594d30"},"vehicle_type_id":"4","last_reported":1687453537,"current_range_meters":24400,"station_id":"ce4bhb12rcd13ifvqel0","pricing_plan_id":"free"},{"bike_id":"fbe193a6-0edc-41a2-9bcd-3652bc713287","system_id":"levelo_inurba_marseille","lat":43.29193,"lon":5.35786,"is_reserved":false,"is_disabled":false,"rental_uris":{"android":"levelo://app?vid=fbe193a6-0edc-41a2-9bcd-3652bc713287","ios":"levelo://app?vid=fbe193a6-0edc-41a2-9bcd-3652bc713287"},"vehicle_type_id":"4","last_reported":1687453537,"current_range_meters":4000,"station_id":"ce4bhb12rcd13ifvqel0","pricing_plan_id":"free"},{"bike_id":"771e67a0-1166-4e78-9fce-cadad4ebbff3","system_id":"levelo_inurba_marseille","lat":43.29078,"lon":5.37166,"is_reserved":false,"is_disabled":false,"rental_uris":{"android":"levelo://app?vid=771e67a0-1166-4e78-9fce-cadad4ebbff3","ios":"levelo://app?vid=771e67a0-1166-4e78-9fce-cadad4ebbff3"},"vehicle_type_id":"4","last_reported":1687453537,"current_range_meters":19200,"station_id":"ce4bh5p2rcd13ifvqe4g","pricing_plan_id":"free"},{"bike_id":"634a3757-820c-49f4-89f7-b6f8b2f89d0b","system_id":"levelo_inurba_marseille","lat":43.29073,"lon":5.37159,"is_reserved":false,"is_disabled":false,"rental_uris":{"android":"levelo://app?vid=634a3757-820c-49f4-89f7-b6f8b2f89d0b","ios":"levelo://app?vid=634a3757-820c-49f4-89f7-b6f8b2f89d0b"},"vehicle_type_id":"4","last_reported":1687453537,"current_range_meters":0,"station_id":"ce4bh5p2rcd13ifvqe4g","pricing_plan_id":"free"},{"bike_id":"053c35b9-5ced-434e-a916-9659d4eb570b","system_id":"levelo_inurba_marseille","lat":43.29529,"lon":5.385581,"is_reserved":false,"is_disabled":false,"rental_uris":{"android":"levelo://app?vid=053c35b9-5ced-434e-a916-9659d4eb570b","ios":"levelo://app?vid=053c35b9-5ced-434e-a916-9659d4eb570b"},"vehicle_type_id":"4","last_reported":1687453537,"current_range_meters":13200,"station_id":"ce4bgih2rcd13ifvqba0","pricing_plan_id":"free"},{"bike_id":"d2961b54-315e-4d71-ace7-f97204ab16d8","system_id":"levelo_inurba_marseille","lat":43.302008,"lon":5.394694,"is_reserved":false,"is_disabled":false,"rental_uris":{"android":"levelo://app?vid=d2961b54-315e-4d71-ace7-f97204ab16d8","ios":"levelo://app?vid=d2961b54-315e-4d71-ace7-f97204ab16d8"},"vehicle_type_id":"4","last_reported":1687453537,"current_range_meters":12400,"station_id":"ce4bh0p2rcd13ifvqd70","pricing_plan_id":"free"},{"bike_id":"7fa1b9c4-9f56-4713-9f28-15a35cec4a6b","system_id":"levelo_inurba_marseille","lat":43.279087,"lon":5.380114,"is_reserved":false,"is_disabled":false,"rental_uris":{"android":"levelo://app?vid=7fa1b9c4-9f56-4713-9f28-15a35cec4a6b","ios":"levelo://app?vid=7fa1b9c4-9f56-4713-9f28-15a35cec4a6b"},"vehicle_type_id":"4","last_reported":1687453537,"current_range_meters":5600,"station_id":"ce4bhf92rcd13ifvqf50","pricing_plan_id":"free"},{"bike_id":"e64ccc9e-5dc1-4c6a-9893-afc533ce547e","system_id":"levelo_inurba_marseille","lat":43.290631,"lon":5.359244,"is_reserved":false,"is_disabled":false,"rental_uris":{"android":"levelo://app?vid=e64ccc9e-5dc1-4c6a-9893-afc533ce547e","ios":"levelo://app?vid=e64ccc9e-5dc1-4c6a-9893-afc533ce547e"},"vehicle_type_id":"4","last_reported":1687453537,"current_range_meters":30000,"station_id":"ce4bha92rcd13ifvqeg0","pricing_plan_id":"free"},{"bike_id":"d72ace48-53fc-45af-a6b1-19d46aae8972","system_id":"levelo_inurba_marseille","lat":43.28952,"lon":5.36634,"is_reserved":false,"is_disabled":false,"rental_uris":{"android":"levelo://app?vid=d72ace48-53fc-45af-a6b1-19d46aae8972","ios":"levelo://app?vid=d72ace48-53fc-45af-a6b1-19d46aae8972"},"vehicle_type_id":"4","last_reported":1687453537,"current_range_meters":12800,"station_id":"","pricing_plan_id":"free"},{"bike_id":"45b2834d-740c-498f-b33b-59d8e9d4d580","system_id":"levelo_inurba_marseille","lat":43.290327,"lon":5.375711,"is_reserved":false,"is_disabled":false,"rental_uris":{"android":"levelo://app?vid=45b2834d-740c-498f-b33b-59d8e9d4d580","ios":"levelo://app?vid=45b2834d-740c-498f-b33b-59d8e9d4d580"},"vehicle_type_id":"4","last_reported":1687453537,"current_range_meters":0,"station_id":"ce4bh692rcd13ifvqe90","pricing_plan_id":"free"},{"bike_id":"ba8e4699-0c5d-469e-946c-889d52dc3236","system_id":"levelo_inurba_marseille","lat":43.294162,"lon":5.386292,"is_reserved":false,"is_disabled":false,"rental_uris":{"android":"levelo://app?vid=ba8e4699-0c5d-469e-946c-889d52dc3236","ios":"levelo://app?vid=ba8e4699-0c5d-469e-946c-889d52dc3236"},"vehicle_type_id":"4","last_reported":1687453537,"current_range_meters":0,"station_id":"ce4bh2h2rcd13ifvqdh0","pricing_plan_id":"free"},{"bike_id":"cd595da1-e66f-4688-844b-41cf3d302ae1","system_id":"levelo_inurba_marseille","lat":43.289184,"lon":5.366408,"is_reserved":false,"is_disabled":false,"rental_uris":{"android":"levelo://app?vid=cd595da1-e66f-4688-844b-41cf3d302ae1","ios":"levelo://app?vid=cd595da1-e66f-4688-844b-41cf3d302ae1"},"vehicle_type_id":"4","last_reported":1687453537,"current_range_meters":9200,"station_id":"ce4bhap2rcd13ifvqek0","pricing_plan_id":"free"},{"bike_id":"3e36dbd4-61ec-4a46-95ce-ef63a3cb073e","system_id":"levelo_inurba_marseille","lat":43.29411,"lon":5.38614,"is_reserved":false,"is_disabled":false,"rental_uris":{"android":"levelo://app?vid=3e36dbd4-61ec-4a46-95ce-ef63a3cb073e","ios":"levelo://app?vid=3e36dbd4-61ec-4a46-95ce-ef63a3cb073e"},"vehicle_type_id":"4","last_reported":1687453537,"current_range_meters":26400,"station_id":"","pricing_plan_id":"free"},{"bike_id":"ecad92b3-8b6a-4988-9d7c-12d22709bec4","system_id":"levelo_inurba_marseille","lat":43.290327,"lon":5.375711,"is_reserved":false,"is_disabled":false,"rental_uris":{"android":"levelo://app?vid=ecad92b3-8b6a-4988-9d7c-12d22709bec4","ios":"levelo://app?vid=ecad92b3-8b6a-4988-9d7c-12d22709bec4"},"vehicle_type_id":"4","last_reported":1687453537,"current_range_meters":0,"station_id":"ce4bh692rcd13ifvqe90","pricing_plan_id":"free"},{"bike_id":"ce8816e9-26f0-4cca-a1cd-14def6e3c0ac","system_id":"levelo_inurba_marseille","lat":43.33039,"lon":5.3891,"is_reserved":false,"is_disabled":false,"rental_uris":{"android":"levelo://app?vid=ce8816e9-26f0-4cca-a1cd-14def6e3c0ac","ios":"levelo://app?vid=ce8816e9-26f0-4cca-a1cd-14def6e3c0ac"},"vehicle_type_id":"4","last_reported":1687453537,"current_range_meters":31200,"station_id":"ce4bhr92rcd13ifvqhrg","pricing_plan_id":"free"},{"bike_id":"a58bf0bd-7a44-4383-a7d8-c3c2143f811f","system_id":"levelo_inurba_marseille","lat":43.33039,"lon":5.38922,"is_reserved":false,"is_disabled":false,"rental_uris":{"android":"levelo://app?vid=a58bf0bd-7a44-4383-a7d8-c3c2143f811f","ios":"levelo://app?vid=a58bf0bd-7a44-4383-a7d8-c3c2143f811f"},"vehicle_type_id":"4","last_reported":1687453537,"current_range_meters":14400,"station_id":"ce4bhr92rcd13ifvqhrg","pricing_plan_id":"free"},{"bike_id":"c73d2cc7-61ec-4fd2-a002-ffa050603a67","system_id":"levelo_inurba_marseille","lat":43.33044,"lon":5.38916,"is_reserved":false,"is_disabled":false,"rental_uris":{"android":"levelo://app?vid=c73d2cc7-61ec-4fd2-a002-ffa050603a67","ios":"levelo://app?vid=c73d2cc7-61ec-4fd2-a002-ffa050603a67"},"vehicle_type_id":"4","last_reported":1687453537,"current_range_meters":31200,"station_id":"ce4bhr92rcd13ifvqhrg","pricing_plan_id":"free"},{"bike_id":"ab990c51-1ffe-43dd-a6cd-9353811d08e6","system_id":"levelo_inurba_marseille","lat":43.3304,"lon":5.38923,"is_reserved":false,"is_disabled":false,"rental_uris":{"android":"levelo://app?vid=ab990c51-1ffe-43dd-a6cd-9353811d08e6","ios":"levelo://app?vid=ab990c51-1ffe-43dd-a6cd-9353811d08e6"},"vehicle_type_id":"4","last_reported":1687453537,"current_range_meters":11200,"station_id":"ce4bhr92rcd13ifvqhrg","pricing_plan_id":"free"},{"bike_id":"9593f617-15f5-4991-a040-8db943e84ae4","system_id":"levelo_inurba_marseille","lat":43.33044,"lon":5.38919,"is_reserved":false,"is_disabled":false,"rental_uris":{"android":"levelo://app?vid=9593f617-15f5-4991-a040-8db943e84ae4","ios":"levelo://app?vid=9593f617-15f5-4991-a040-8db943e84ae4"},"vehicle_type_id":"4","last_reported":1687453537,"current_range_meters":17600,"station_id":"ce4bhr92rcd13ifvqhrg","pricing_plan_id":"free"},{"bike_id":"c54fbd3e-208e-47df-af26-714f2d22e730","system_id":"levelo_inurba_marseille","lat":43.33043,"lon":5.38921,"is_reserved":false,"is_disabled":false,"rental_uris":{"android":"levelo://app?vid=c54fbd3e-208e-47df-af26-714f2d22e730","ios":"levelo://app?vid=c54fbd3e-208e-47df-af26-714f2d22e730"},"vehicle_type_id":"4","last_reported":1687453537,"current_range_meters":9600,"station_id":"ce4bhr92rcd13ifvqhrg","pricing_plan_id":"free"},{"bike_id":"8f3f2ae0-cf34-439b-818d-2c39a055cbf9","system_id":"levelo_inurba_marseille","lat":43.33048,"lon":5.38917,"is_reserved":false,"is_disabled":false,"rental_uris":{"android":"levelo://app?vid=8f3f2ae0-cf34-439b-818d-2c39a055cbf9","ios":"levelo://app?vid=8f3f2ae0-cf34-439b-818d-2c39a055cbf9"},"vehicle_type_id":"4","last_reported":1687453537,"current_range_meters":0,"station_id":"ce4bhr92rcd13ifvqhrg","pricing_plan_id":"free"},{"bike_id":"0c2d6d34-2469-46d1-b818-85e7b6d648c5","system_id":"levelo_inurba_marseille","lat":43.29004,"lon":5.35614,"is_reserved":false,"is_disabled":false,"rental_uris":{"android":"levelo://app?vid=0c2d6d34-2469-46d1-b818-85e7b6d648c5","ios":"levelo://app?vid=0c2d6d34-2469-46d1-b818-85e7b6d648c5"},"vehicle_type_id":"4","last_reported":1687453537,"current_range_meters":2000,"station_id":"ce4bhb92rcd13ifvqen0","pricing_plan_id":"free"},{"bike_id":"faac9297-f83f-41ce-9201-4341c1f54869","system_id":"levelo_inurba_marseille","lat":43.28998,"lon":5.35621,"is_reserved":false,"is_disabled":false,"rental_uris":{"android":"levelo://app?vid=faac9297-f83f-41ce-9201-4341c1f54869","ios":"levelo://app?vid=faac9297-f83f-41ce-9201-4341c1f54869"},"vehicle_type_id":"4","last_reported":1687453537,"current_range_meters":31200,"station_id":"ce4bhb92rcd13ifvqen0","pricing_plan_id":"free"},{"bike_id":"8b6f382a-6418-444e-b3d8-3cf4dc68173c","system_id":"levelo_inurba_marseille","lat":43.29114,"lon":5.38352,"is_reserved":false,"is_disabled":false,"rental_uris":{"android":"levelo://app?vid=8b6f382a-6418-444e-b3d8-3cf4dc68173c","ios":"levelo://app?vid=8b6f382a-6418-444e-b3d8-3cf4dc68173c"},"vehicle_type_id":"4","last_reported":1687453537,"current_range_meters":21200,"station_id":"","pricing_plan_id":"free"},{"bike_id":"af027f34-9936-4f94-bea2-e1cadf51f591","system_id":"levelo_inurba_marseille","lat":43.2903,"lon":5.38139,"is_reserved":false,"is_disabled":false,"rental_uris":{"android":"levelo://app?vid=af027f34-9936-4f94-bea2-e1cadf51f591","ios":"levelo://app?vid=af027f34-9936-4f94-bea2-e1cadf51f591"},"vehicle_type_id":"4","last_reported":1687453537,"current_range_meters":15600,"station_id":"ce4bh4p2rcd13ifvqe1g","pricing_plan_id":"free"},{"bike_id":"966c891c-03cf-45e5-9ef6-92d3904caf70","system_id":"levelo_inurba_marseille","lat":43.28856,"lon":5.358371,"is_reserved":false,"is_disabled":false,"rental_uris":{"android":"levelo://app?vid=966c891c-03cf-45e5-9ef6-92d3904caf70","ios":"levelo://app?vid=966c891c-03cf-45e5-9ef6-92d3904caf70"},"vehicle_type_id":"4","last_reported":1687453537,"current_range_meters":24800,"station_id":"ce4bhb12rcd13ifvqem0","pricing_plan_id":"free"},{"bike_id":"ac9363af-b05a-4147-b162-f22813d3c3a0","system_id":"levelo_inurba_marseille","lat":43.28856,"lon":5.358371,"is_reserved":false,"is_disabled":false,"rental_uris":{"android":"levelo://app?vid=ac9363af-b05a-4147-b162-f22813d3c3a0","ios":"levelo://app?vid=ac9363af-b05a-4147-b162-f22813d3c3a0"},"vehicle_type_id":"4","last_reported":1687453537,"current_range_meters":22800,"station_id":"ce4bhb12rcd13ifvqem0","pricing_plan_id":"free"},{"bike_id":"7667c518-986b-4d81-b6a5-e678290ab50a","system_id":"levelo_inurba_marseille","lat":43.28856,"lon":5.358371,"is_reserved":false,"is_disabled":false,"rental_uris":{"android":"levelo://app?vid=7667c518-986b-4d81-b6a5-e678290ab50a","ios":"levelo://app?vid=7667c518-986b-4d81-b6a5-e678290ab50a"},"vehicle_type_id":"4","last_reported":1687453537,"current_range_meters":800,"station_id":"ce4bhb12rcd13ifvqem0","pricing_plan_id":"free"},{"bike_id":"3f8a925a-6a54-4259-a38f-9cf091aab246","system_id":"levelo_inurba_marseille","lat":43.29257,"lon":5.38758,"is_reserved":false,"is_disabled":false,"rental_uris":{"android":"levelo://app?vid=3f8a925a-6a54-4259-a38f-9cf091aab246","ios":"levelo://app?vid=3f8a925a-6a54-4259-a38f-9cf091aab246"},"vehicle_type_id":"4","last_reported":1687453537,"current_range_meters":29200,"station_id":"","pricing_plan_id":"free"},{"bike_id":"3433a528-dd6a-4ac7-b9d2-b8d42e81ea38","system_id":"levelo_inurba_marseille","lat":43.33743,"lon":5.3748,"is_reserved":false,"is_disabled":false,"rental_uris":{"android":"levelo://app?vid=3433a528-dd6a-4ac7-b9d2-b8d42e81ea38","ios":"levelo://app?vid=3433a528-dd6a-4ac7-b9d2-b8d42e81ea38"},"vehicle_type_id":"4","last_reported":1687453537,"current_range_meters":27200,"station_id":"","pricing_plan_id":"free"},{"bike_id":"d74474a7-d1ea-4940-94c7-db1e07163ef0","system_id":"levelo_inurba_marseille","lat":43.337482,"lon":5.374726,"is_reserved":false,"is_disabled":false,"rental_uris":{"android":"levelo://app?vid=d74474a7-d1ea-4940-94c7-db1e07163ef0","ios":"levelo://app?vid=d74474a7-d1ea-4940-94c7-db1e07163ef0"},"vehicle_type_id":"4","last_reported":1687453537,"current_range_meters":12000,"station_id":"","pricing_plan_id":"free"},{"bike_id":"cb1e0ed8-8d30-427a-8811-913fe60a0394","system_id":"levelo_inurba_marseille","lat":43.33751,"lon":5.37471,"is_reserved":false,"is_disabled":false,"rental_uris":{"android":"levelo://app?vid=cb1e0ed8-8d30-427a-8811-913fe60a0394","ios":"levelo://app?vid=cb1e0ed8-8d30-427a-8811-913fe60a0394"},"vehicle_type_id":"4","last_reported":1687453537,"current_range_meters":12400,"station_id":"","pricing_plan_id":"free"},{"bike_id":"71a50c1f-09f0-47f2-bd28-cfcd0711a6bd","system_id":"levelo_inurba_marseille","lat":43.33755,"lon":5.3745,"is_reserved":false,"is_disabled":false,"rental_uris":{"android":"levelo://app?vid=71a50c1f-09f0-47f2-bd28-cfcd0711a6bd","ios":"levelo://app?vid=71a50c1f-09f0-47f2-bd28-cfcd0711a6bd"},"vehicle_type_id":"4","last_reported":1687453537,"current_range_meters":30000,"station_id":"","pricing_plan_id":"free"},{"bike_id":"b0bd3bcb-bd35-4f75-8285-8f528f09b8d5","system_id":"levelo_inurba_marseille","lat":43.337575,"lon":5.374489,"is_reserved":false,"is_disabled":false,"rental_uris":{"android":"levelo://app?vid=b0bd3bcb-bd35-4f75-8285-8f528f09b8d5","ios":"levelo://app?vid=b0bd3bcb-bd35-4f75-8285-8f528f09b8d5"},"vehicle_type_id":"4","last_reported":1687453537,"current_range_meters":15600,"station_id":"","pricing_plan_id":"free"},{"bike_id":"d7a78206-89e9-4306-9449-60021eab434f","system_id":"levelo_inurba_marseille","lat":43.301117,"lon":5.398795,"is_reserved":false,"is_disabled":false,"rental_uris":{"android":"levelo://app?vid=d7a78206-89e9-4306-9449-60021eab434f","ios":"levelo://app?vid=d7a78206-89e9-4306-9449-60021eab434f"},"vehicle_type_id":"4","last_reported":1687453537,"current_range_meters":24800,"station_id":"ce4bh0h2rcd13ifvqd40","pricing_plan_id":"free"},{"bike_id":"47c3fe1d-7b6f-4e5b-ac44-f75a1e41a2e9","system_id":"levelo_inurba_marseille","lat":43.301117,"lon":5.398795,"is_reserved":false,"is_disabled":false,"rental_uris":{"android":"levelo://app?vid=47c3fe1d-7b6f-4e5b-ac44-f75a1e41a2e9","ios":"levelo://app?vid=47c3fe1d-7b6f-4e5b-ac44-f75a1e41a2e9"},"vehicle_type_id":"4","last_reported":1687453537,"current_range_meters":0,"station_id":"ce4bh0h2rcd13ifvqd40","pricing_plan_id":"free"},{"bike_id":"eb2ec222-8b3a-4ac7-b530-b96374ba0061","system_id":"levelo_inurba_marseille","lat":43.29517,"lon":5.39399,"is_reserved":false,"is_disabled":false,"rental_uris":{"android":"levelo://app?vid=eb2ec222-8b3a-4ac7-b530-b96374ba0061","ios":"levelo://app?vid=eb2ec222-8b3a-4ac7-b530-b96374ba0061"},"vehicle_type_id":"4","last_reported":1687453537,"current_range_meters":8400,"station_id":"ce4bh292rcd13ifvqdf0","pricing_plan_id":"free"},{"bike_id":"b68031bd-2e7a-41a0-b5ea-5ef05efd26e1","system_id":"levelo_inurba_marseille","lat":43.295196,"lon":5.39397,"is_reserved":false,"is_disabled":false,"rental_uris":{"android":"levelo://app?vid=b68031bd-2e7a-41a0-b5ea-5ef05efd26e1","ios":"levelo://app?vid=b68031bd-2e7a-41a0-b5ea-5ef05efd26e1"},"vehicle_type_id":"4","last_reported":1687453537,"current_range_meters":0,"station_id":"ce4bh292rcd13ifvqdf0","pricing_plan_id":"free"},{"bike_id":"0eaefa3c-12a8-469c-8eef-ee8d480184a8","system_id":"levelo_inurba_marseille","lat":43.290336,"lon":5.386425,"is_reserved":false,"is_disabled":false,"rental_uris":{"android":"levelo://app?vid=0eaefa3c-12a8-469c-8eef-ee8d480184a8","ios":"levelo://app?vid=0eaefa3c-12a8-469c-8eef-ee8d480184a8"},"vehicle_type_id":"4","last_reported":1687453537,"current_range_meters":0,"station_id":"ce4bh4p2rcd13ifvqe0g","pricing_plan_id":"free"},{"bike_id":"f206a14b-f5de-4196-9981-e477fa5540b0","system_id":"levelo_inurba_marseille","lat":43.290336,"lon":5.386425,"is_reserved":false,"is_disabled":false,"rental_uris":{"android":"levelo://app?vid=f206a14b-f5de-4196-9981-e477fa5540b0","ios":"levelo://app?vid=f206a14b-f5de-4196-9981-e477fa5540b0"},"vehicle_type_id":"4","last_reported":1687453537,"current_range_meters":7600,"station_id":"ce4bh4p2rcd13ifvqe0g","pricing_plan_id":"free"},{"bike_id":"ae3a3966-3e9d-45c0-9c2e-21fffc7f9ae6","system_id":"levelo_inurba_marseille","lat":43.287185,"lon":5.379373,"is_reserved":false,"is_disabled":false,"rental_uris":{"android":"levelo://app?vid=ae3a3966-3e9d-45c0-9c2e-21fffc7f9ae6","ios":"levelo://app?vid=ae3a3966-3e9d-45c0-9c2e-21fffc7f9ae6"},"vehicle_type_id":"4","last_reported":1687453537,"current_range_meters":0,"station_id":"ce4bh9p2rcd13ifvqec0","pricing_plan_id":"free"},{"bike_id":"f880aea0-ee7b-4cea-8577-97f2e12ec7f3","system_id":"levelo_inurba_marseille","lat":43.316523,"lon":5.404367,"is_reserved":false,"is_disabled":false,"rental_uris":{"android":"levelo://app?vid=f880aea0-ee7b-4cea-8577-97f2e12ec7f3","ios":"levelo://app?vid=f880aea0-ee7b-4cea-8577-97f2e12ec7f3"},"vehicle_type_id":"4","last_reported":1687453537,"current_range_meters":17200,"station_id":"ce4bh012rcd13ifvqd00","pricing_plan_id":"free"},{"bike_id":"cef32c74-770c-4131-9f36-510306530d57","system_id":"levelo_inurba_marseille","lat":43.291994,"lon":5.392907,"is_reserved":false,"is_disabled":false,"rental_uris":{"android":"levelo://app?vid=cef32c74-770c-4131-9f36-510306530d57","ios":"levelo://app?vid=cef32c74-770c-4131-9f36-510306530d57"},"vehicle_type_id":"4","last_reported":1687453537,"current_range_meters":3600,"station_id":"ce4bh192rcd13ifvqdd0","pricing_plan_id":"free"},{"bike_id":"a9e3a32b-e89b-4983-baea-ebccb96d5e5f","system_id":"levelo_inurba_marseille","lat":43.2863,"lon":5.35113,"is_reserved":false,"is_disabled":false,"rental_uris":{"android":"levelo://app?vid=a9e3a32b-e89b-4983-baea-ebccb96d5e5f","ios":"levelo://app?vid=a9e3a32b-e89b-4983-baea-ebccb96d5e5f"},"vehicle_type_id":"4","last_reported":1687453537,"current_range_meters":13200,"station_id":"ce4bhch2rcd13ifvqeug","pricing_plan_id":"free"},{"bike_id":"8eb28708-2b36-4d40-bed9-1e9a9e4513c1","system_id":"levelo_inurba_marseille","lat":43.285856,"lon":5.350771,"is_reserved":false,"is_disabled":false,"rental_uris":{"android":"levelo://app?vid=8eb28708-2b36-4d40-bed9-1e9a9e4513c1","ios":"levelo://app?vid=8eb28708-2b36-4d40-bed9-1e9a9e4513c1"},"vehicle_type_id":"4","last_reported":1687453537,"current_range_meters":31200,"station_id":"ce4bhch2rcd13ifvqeug","pricing_plan_id":"free"},{"bike_id":"284a45aa-f927-4fe0-90b1-940a485be2fd","system_id":"levelo_inurba_marseille","lat":43.285856,"lon":5.350771,"is_reserved":false,"is_disabled":false,"rental_uris":{"android":"levelo://app?vid=284a45aa-f927-4fe0-90b1-940a485be2fd","ios":"levelo://app?vid=284a45aa-f927-4fe0-90b1-940a485be2fd"},"vehicle_type_id":"4","last_reported":1687453537,"current_range_meters":31200,"station_id":"ce4bhch2rcd13ifvqeug","pricing_plan_id":"free"},{"bike_id":"1d634fb9-30e2-4452-8c4e-1131c835d29e","system_id":"levelo_inurba_marseille","lat":43.285856,"lon":5.350771,"is_reserved":false,"is_disabled":false,"rental_uris":{"android":"levelo://app?vid=1d634fb9-30e2-4452-8c4e-1131c835d29e","ios":"levelo://app?vid=1d634fb9-30e2-4452-8c4e-1131c835d29e"},"vehicle_type_id":"4","last_reported":1687453537,"current_range_meters":13200,"station_id":"ce4bhch2rcd13ifvqeug","pricing_plan_id":"free"},{"bike_id":"a7d117b4-5108-4237-b115-0faef74dad72","system_id":"levelo_inurba_marseille","lat":43.285856,"lon":5.350771,"is_reserved":false,"is_disabled":false,"rental_uris":{"android":"levelo://app?vid=a7d117b4-5108-4237-b115-0faef74dad72","ios":"levelo://app?vid=a7d117b4-5108-4237-b115-0faef74dad72"},"vehicle_type_id":"4","last_reported":1687453537,"current_range_meters":31200,"station_id":"ce4bhch2rcd13ifvqeug","pricing_plan_id":"free"},{"bike_id":"e50b9b38-1de5-48ff-95e0-477f2032bb77","system_id":"levelo_inurba_marseille","lat":43.285856,"lon":5.350771,"is_reserved":false,"is_disabled":false,"rental_uris":{"android":"levelo://app?vid=e50b9b38-1de5-48ff-95e0-477f2032bb77","ios":"levelo://app?vid=e50b9b38-1de5-48ff-95e0-477f2032bb77"},"vehicle_type_id":"4","last_reported":1687453537,"current_range_meters":18400,"station_id":"ce4bhch2rcd13ifvqeug","pricing_plan_id":"free"},{"bike_id":"27e30776-3db8-4878-8ec8-3fef6dd60a98","system_id":"levelo_inurba_marseille","lat":43.28617,"lon":5.35105,"is_reserved":false,"is_disabled":false,"rental_uris":{"android":"levelo://app?vid=27e30776-3db8-4878-8ec8-3fef6dd60a98","ios":"levelo://app?vid=27e30776-3db8-4878-8ec8-3fef6dd60a98"},"vehicle_type_id":"4","last_reported":1687453537,"current_range_meters":26400,"station_id":"ce4bhch2rcd13ifvqeug","pricing_plan_id":"free"},{"bike_id":"5447abc7-2d42-4bfa-85c1-f86e1b6d4d70","system_id":"levelo_inurba_marseille","lat":43.285856,"lon":5.350771,"is_reserved":false,"is_disabled":false,"rental_uris":{"android":"levelo://app?vid=5447abc7-2d42-4bfa-85c1-f86e1b6d4d70","ios":"levelo://app?vid=5447abc7-2d42-4bfa-85c1-f86e1b6d4d70"},"vehicle_type_id":"4","last_reported":1687453537,"current_range_meters":1200,"station_id":"ce4bhch2rcd13ifvqeug","pricing_plan_id":"free"},{"bike_id":"70741aa3-48f9-4ca9-9ad5-4e41b14c6feb","system_id":"levelo_inurba_marseille","lat":43.285856,"lon":5.350771,"is_reserved":false,"is_disabled":false,"rental_uris":{"android":"levelo://app?vid=70741aa3-48f9-4ca9-9ad5-4e41b14c6feb","ios":"levelo://app?vid=70741aa3-48f9-4ca9-9ad5-4e41b14c6feb"},"vehicle_type_id":"4","last_reported":1687453537,"current_range_meters":25200,"station_id":"ce4bhch2rcd13ifvqeug","pricing_plan_id":"free"},{"bike_id":"185b48cb-6919-456b-96d1-328b866f683c","system_id":"levelo_inurba_marseille","lat":43.28615,"lon":5.35109,"is_reserved":false,"is_disabled":false,"rental_uris":{"android":"levelo://app?vid=185b48cb-6919-456b-96d1-328b866f683c","ios":"levelo://app?vid=185b48cb-6919-456b-96d1-328b866f683c"},"vehicle_type_id":"4","last_reported":1687453537,"current_range_meters":12800,"station_id":"","pricing_plan_id":"free"},{"bike_id":"8a0fd6b3-b4ec-47c5-9a9a-40b654ab7353","system_id":"levelo_inurba_marseille","lat":43.28617,"lon":5.35102,"is_reserved":false,"is_disabled":false,"rental_uris":{"android":"levelo://app?vid=8a0fd6b3-b4ec-47c5-9a9a-40b654ab7353","ios":"levelo://app?vid=8a0fd6b3-b4ec-47c5-9a9a-40b654ab7353"},"vehicle_type_id":"4","last_reported":1687453537,"current_range_meters":10400,"station_id":"ce4bhch2rcd13ifvqeug","pricing_plan_id":"free"},{"bike_id":"898c61c0-686d-4752-a4b3-44be80d755a5","system_id":"levelo_inurba_marseille","lat":43.28615,"lon":5.35107,"is_reserved":false,"is_disabled":false,"rental_uris":{"android":"levelo://app?vid=898c61c0-686d-4752-a4b3-44be80d755a5","ios":"levelo://app?vid=898c61c0-686d-4752-a4b3-44be80d755a5"},"vehicle_type_id":"4","last_reported":1687453537,"current_range_meters":31200,"station_id":"ce4bhch2rcd13ifvqeug","pricing_plan_id":"free"},{"bike_id":"c3fc86b7-75df-4025-909c-001c141a4ca6","system_id":"levelo_inurba_marseille","lat":43.285856,"lon":5.350771,"is_reserved":false,"is_disabled":false,"rental_uris":{"android":"levelo://app?vid=c3fc86b7-75df-4025-909c-001c141a4ca6","ios":"levelo://app?vid=c3fc86b7-75df-4025-909c-001c141a4ca6"},"vehicle_type_id":"4","last_reported":1687453537,"current_range_meters":7200,"station_id":"ce4bhch2rcd13ifvqeug","pricing_plan_id":"free"},{"bike_id":"b5b6bb88-5b21-4a61-ab8e-6187875b4769","system_id":"levelo_inurba_marseille","lat":43.28614,"lon":5.35107,"is_reserved":false,"is_disabled":false,"rental_uris":{"android":"levelo://app?vid=b5b6bb88-5b21-4a61-ab8e-6187875b4769","ios":"levelo://app?vid=b5b6bb88-5b21-4a61-ab8e-6187875b4769"},"vehicle_type_id":"4","last_reported":1687453537,"current_range_meters":30400,"station_id":"ce4bhch2rcd13ifvqeug","pricing_plan_id":"free"},{"bike_id":"981589d7-f396-46fc-b80f-95b64654dc81","system_id":"levelo_inurba_marseille","lat":43.28613,"lon":5.35109,"is_reserved":false,"is_disabled":false,"rental_uris":{"android":"levelo://app?vid=981589d7-f396-46fc-b80f-95b64654dc81","ios":"levelo://app?vid=981589d7-f396-46fc-b80f-95b64654dc81"},"vehicle_type_id":"4","last_reported":1687453537,"current_range_meters":0,"station_id":"ce4bhch2rcd13ifvqeug","pricing_plan_id":"free"},{"bike_id":"f8122ffb-3904-4771-839b-080556c28238","system_id":"levelo_inurba_marseille","lat":43.28614,"lon":5.35104,"is_reserved":false,"is_disabled":false,"rental_uris":{"android":"levelo://app?vid=f8122ffb-3904-4771-839b-080556c28238","ios":"levelo://app?vid=f8122ffb-3904-4771-839b-080556c28238"},"vehicle_type_id":"4","last_reported":1687453537,"current_range_meters":19600,"station_id":"ce4bhch2rcd13ifvqeug","pricing_plan_id":"free"},{"bike_id":"f25ec6cb-1c41-438d-9ac8-a91f81ded14e","system_id":"levelo_inurba_marseille","lat":43.285856,"lon":5.350771,"is_reserved":false,"is_disabled":false,"rental_uris":{"android":"levelo://app?vid=f25ec6cb-1c41-438d-9ac8-a91f81ded14e","ios":"levelo://app?vid=f25ec6cb-1c41-438d-9ac8-a91f81ded14e"},"vehicle_type_id":"4","last_reported":1687453537,"current_range_meters":6400,"station_id":"ce4bhch2rcd13ifvqeug","pricing_plan_id":"free"},{"bike_id":"d4d3ef63-bb9e-4145-bcb7-33f89b446a63","system_id":"levelo_inurba_marseille","lat":43.285856,"lon":5.350771,"is_reserved":false,"is_disabled":false,"rental_uris":{"android":"levelo://app?vid=d4d3ef63-bb9e-4145-bcb7-33f89b446a63","ios":"levelo://app?vid=d4d3ef63-bb9e-4145-bcb7-33f89b446a63"},"vehicle_type_id":"4","last_reported":1687453537,"current_range_meters":31200,"station_id":"ce4bhch2rcd13ifvqeug","pricing_plan_id":"free"},{"bike_id":"d50e724c-72c9-416d-ba6d-8967d4846434","system_id":"levelo_inurba_marseille","lat":43.2861,"lon":5.35105,"is_reserved":false,"is_disabled":false,"rental_uris":{"android":"levelo://app?vid=d50e724c-72c9-416d-ba6d-8967d4846434","ios":"levelo://app?vid=d50e724c-72c9-416d-ba6d-8967d4846434"},"vehicle_type_id":"4","last_reported":1687453537,"current_range_meters":0,"station_id":"ce4bhch2rcd13ifvqeug","pricing_plan_id":"free"},{"bike_id":"4d2a5477-9537-4fb7-ab49-73ac44c83da7","system_id":"levelo_inurba_marseille","lat":43.283998,"lon":5.375062,"is_reserved":false,"is_disabled":false,"rental_uris":{"android":"levelo://app?vid=4d2a5477-9537-4fb7-ab49-73ac44c83da7","ios":"levelo://app?vid=4d2a5477-9537-4fb7-ab49-73ac44c83da7"},"vehicle_type_id":"4","last_reported":1687453537,"current_range_meters":1200,"station_id":"ce4bh412rcd13ifvqds0","pricing_plan_id":"free"},{"bike_id":"9f1bc189-bda8-40e1-90d3-e6a566b694d4","system_id":"levelo_inurba_marseille","lat":43.286595,"lon":5.386795,"is_reserved":false,"is_disabled":false,"rental_uris":{"android":"levelo://app?vid=9f1bc189-bda8-40e1-90d3-e6a566b694d4","ios":"levelo://app?vid=9f1bc189-bda8-40e1-90d3-e6a566b694d4"},"vehicle_type_id":"4","last_reported":1687453537,"current_range_meters":0,"station_id":"ce4bh492rcd13ifvqdug","pricing_plan_id":"free"},{"bike_id":"ca231176-de0d-494d-a806-e1bb202ab9bf","system_id":"levelo_inurba_marseille","lat":43.286595,"lon":5.386795,"is_reserved":false,"is_disabled":false,"rental_uris":{"android":"levelo://app?vid=ca231176-de0d-494d-a806-e1bb202ab9bf","ios":"levelo://app?vid=ca231176-de0d-494d-a806-e1bb202ab9bf"},"vehicle_type_id":"4","last_reported":1687453537,"current_range_meters":4800,"station_id":"ce4bh492rcd13ifvqdug","pricing_plan_id":"free"},{"bike_id":"f6fda2f2-04f1-4377-bae3-2fc212d95c47","system_id":"levelo_inurba_marseille","lat":43.34229,"lon":5.36178,"is_reserved":false,"is_disabled":false,"rental_uris":{"android":"levelo://app?vid=f6fda2f2-04f1-4377-bae3-2fc212d95c47","ios":"levelo://app?vid=f6fda2f2-04f1-4377-bae3-2fc212d95c47"},"vehicle_type_id":"4","last_reported":1687453537,"current_range_meters":400,"station_id":"","pricing_plan_id":"free"},{"bike_id":"b4c950db-352f-4a1a-8e3c-c05101a6dad0","system_id":"levelo_inurba_marseille","lat":43.288497,"lon":5.393089,"is_reserved":false,"is_disabled":false,"rental_uris":{"android":"levelo://app?vid=b4c950db-352f-4a1a-8e3c-c05101a6dad0","ios":"levelo://app?vid=b4c950db-352f-4a1a-8e3c-c05101a6dad0"},"vehicle_type_id":"4","last_reported":1687453537,"current_range_meters":31200,"station_id":"ce4bh2p2rcd13ifvqdi0","pricing_plan_id":"free"},{"bike_id":"1d2fb6df-0646-45a0-ad2a-5b24a4060d22","system_id":"levelo_inurba_marseille","lat":43.28425,"lon":5.35002,"is_reserved":false,"is_disabled":false,"rental_uris":{"android":"levelo://app?vid=1d2fb6df-0646-45a0-ad2a-5b24a4060d22","ios":"levelo://app?vid=1d2fb6df-0646-45a0-ad2a-5b24a4060d22"},"vehicle_type_id":"4","last_reported":1687453537,"current_range_meters":5600,"station_id":"ce4bhbh2rcd13ifvqepg","pricing_plan_id":"free"},{"bike_id":"d66ea138-e37e-4c47-9721-f5f0c3a18f42","system_id":"levelo_inurba_marseille","lat":43.28422,"lon":5.35001,"is_reserved":false,"is_disabled":false,"rental_uris":{"android":"levelo://app?vid=d66ea138-e37e-4c47-9721-f5f0c3a18f42","ios":"levelo://app?vid=d66ea138-e37e-4c47-9721-f5f0c3a18f42"},"vehicle_type_id":"4","last_reported":1687453537,"current_range_meters":31200,"station_id":"ce4bhbh2rcd13ifvqepg","pricing_plan_id":"free"},{"bike_id":"798ff125-43bd-4d30-bb2a-a7d48a1e8283","system_id":"levelo_inurba_marseille","lat":43.28425,"lon":5.34991,"is_reserved":false,"is_disabled":false,"rental_uris":{"android":"levelo://app?vid=798ff125-43bd-4d30-bb2a-a7d48a1e8283","ios":"levelo://app?vid=798ff125-43bd-4d30-bb2a-a7d48a1e8283"},"vehicle_type_id":"4","last_reported":1687453537,"current_range_meters":27600,"station_id":"ce4bhbh2rcd13ifvqepg","pricing_plan_id":"free"},{"bike_id":"6356e00e-2367-4a26-88f7-8fa525cc0fcb","system_id":"levelo_inurba_marseille","lat":43.284217,"lon":5.349697,"is_reserved":false,"is_disabled":false,"rental_uris":{"android":"levelo://app?vid=6356e00e-2367-4a26-88f7-8fa525cc0fcb","ios":"levelo://app?vid=6356e00e-2367-4a26-88f7-8fa525cc0fcb"},"vehicle_type_id":"4","last_reported":1687453537,"current_range_meters":16400,"station_id":"ce4bhbh2rcd13ifvqepg","pricing_plan_id":"free"},{"bike_id":"c14a8848-a171-4806-bd42-41a149f10879","system_id":"levelo_inurba_marseille","lat":43.28422,"lon":5.34994,"is_reserved":false,"is_disabled":false,"rental_uris":{"android":"levelo://app?vid=c14a8848-a171-4806-bd42-41a149f10879","ios":"levelo://app?vid=c14a8848-a171-4806-bd42-41a149f10879"},"vehicle_type_id":"4","last_reported":1687453537,"current_range_meters":15200,"station_id":"ce4bhbh2rcd13ifvqepg","pricing_plan_id":"free"},{"bike_id":"a9ab003f-dd0b-477d-af42-9916e3e20211","system_id":"levelo_inurba_marseille","lat":43.284217,"lon":5.349697,"is_reserved":false,"is_disabled":false,"rental_uris":{"android":"levelo://app?vid=a9ab003f-dd0b-477d-af42-9916e3e20211","ios":"levelo://app?vid=a9ab003f-dd0b-477d-af42-9916e3e20211"},"vehicle_type_id":"4","last_reported":1687453537,"current_range_meters":27600,"station_id":"ce4bhbh2rcd13ifvqepg","pricing_plan_id":"free"},{"bike_id":"43d114cc-db39-41eb-a810-fb1eea293316","system_id":"levelo_inurba_marseille","lat":43.284217,"lon":5.349697,"is_reserved":false,"is_disabled":false,"rental_uris":{"android":"levelo://app?vid=43d114cc-db39-41eb-a810-fb1eea293316","ios":"levelo://app?vid=43d114cc-db39-41eb-a810-fb1eea293316"},"vehicle_type_id":"4","last_reported":1687453537,"current_range_meters":31200,"station_id":"ce4bhbh2rcd13ifvqepg","pricing_plan_id":"free"},{"bike_id":"9b7d6bc6-164e-4a7f-9dd0-ebcc024ef557","system_id":"levelo_inurba_marseille","lat":43.28422,"lon":5.34981,"is_reserved":false,"is_disabled":false,"rental_uris":{"android":"levelo://app?vid=9b7d6bc6-164e-4a7f-9dd0-ebcc024ef557","ios":"levelo://app?vid=9b7d6bc6-164e-4a7f-9dd0-ebcc024ef557"},"vehicle_type_id":"4","last_reported":1687453537,"current_range_meters":6800,"station_id":"ce4bhbh2rcd13ifvqepg","pricing_plan_id":"free"},{"bike_id":"348f1c18-0ef2-491e-83f9-e1876ff5affe","system_id":"levelo_inurba_marseille","lat":43.28419,"lon":5.3499,"is_reserved":false,"is_disabled":false,"rental_uris":{"android":"levelo://app?vid=348f1c18-0ef2-491e-83f9-e1876ff5affe","ios":"levelo://app?vid=348f1c18-0ef2-491e-83f9-e1876ff5affe"},"vehicle_type_id":"4","last_reported":1687453537,"current_range_meters":19600,"station_id":"ce4bhbh2rcd13ifvqepg","pricing_plan_id":"free"},{"bike_id":"b91f6a7f-acf7-433f-848e-a049932c5462","system_id":"levelo_inurba_marseille","lat":43.284217,"lon":5.349697,"is_reserved":false,"is_disabled":false,"rental_uris":{"android":"levelo://app?vid=b91f6a7f-acf7-433f-848e-a049932c5462","ios":"levelo://app?vid=b91f6a7f-acf7-433f-848e-a049932c5462"},"vehicle_type_id":"4","last_reported":1687453537,"current_range_meters":31200,"station_id":"ce4bhbh2rcd13ifvqepg","pricing_plan_id":"free"},{"bike_id":"aefa7bb7-5241-4ebc-a736-cb84769b1010","system_id":"levelo_inurba_marseille","lat":43.28421,"lon":5.34983,"is_reserved":false,"is_disabled":false,"rental_uris":{"android":"levelo://app?vid=aefa7bb7-5241-4ebc-a736-cb84769b1010","ios":"levelo://app?vid=aefa7bb7-5241-4ebc-a736-cb84769b1010"},"vehicle_type_id":"4","last_reported":1687453537,"current_range_meters":17600,"station_id":"ce4bhbh2rcd13ifvqepg","pricing_plan_id":"free"},{"bike_id":"252fac50-5f05-428f-bf22-21c89c74bff0","system_id":"levelo_inurba_marseille","lat":43.28422,"lon":5.34979,"is_reserved":false,"is_disabled":false,"rental_uris":{"android":"levelo://app?vid=252fac50-5f05-428f-bf22-21c89c74bff0","ios":"levelo://app?vid=252fac50-5f05-428f-bf22-21c89c74bff0"},"vehicle_type_id":"4","last_reported":1687453537,"current_range_meters":3600,"station_id":"ce4bhbh2rcd13ifvqepg","pricing_plan_id":"free"},{"bike_id":"6acfbaf3-f13d-4244-8f1b-1b68f8444371","system_id":"levelo_inurba_marseille","lat":43.284217,"lon":5.349697,"is_reserved":false,"is_disabled":false,"rental_uris":{"android":"levelo://app?vid=6acfbaf3-f13d-4244-8f1b-1b68f8444371","ios":"levelo://app?vid=6acfbaf3-f13d-4244-8f1b-1b68f8444371"},"vehicle_type_id":"4","last_reported":1687453537,"current_range_meters":6400,"station_id":"ce4bhbh2rcd13ifvqepg","pricing_plan_id":"free"},{"bike_id":"7d19eedb-6976-4964-bbdd-c38c4ae81069","system_id":"levelo_inurba_marseille","lat":43.28417,"lon":5.3499,"is_reserved":false,"is_disabled":false,"rental_uris":{"android":"levelo://app?vid=7d19eedb-6976-4964-bbdd-c38c4ae81069","ios":"levelo://app?vid=7d19eedb-6976-4964-bbdd-c38c4ae81069"},"vehicle_type_id":"4","last_reported":1687453537,"current_range_meters":24000,"station_id":"ce4bhbh2rcd13ifvqepg","pricing_plan_id":"free"},{"bike_id":"fa989877-752e-4f60-b55c-e7664f4ad75f","system_id":"levelo_inurba_marseille","lat":43.28415,"lon":5.34995,"is_reserved":false,"is_disabled":false,"rental_uris":{"android":"levelo://app?vid=fa989877-752e-4f60-b55c-e7664f4ad75f","ios":"levelo://app?vid=fa989877-752e-4f60-b55c-e7664f4ad75f"},"vehicle_type_id":"4","last_reported":1687453537,"current_range_meters":29600,"station_id":"ce4bhbh2rcd13ifvqepg","pricing_plan_id":"free"},{"bike_id":"ab7b7c4d-f422-48c0-9814-2f2cb6c4589c","system_id":"levelo_inurba_marseille","lat":43.2842,"lon":5.34979,"is_reserved":false,"is_disabled":false,"rental_uris":{"android":"levelo://app?vid=ab7b7c4d-f422-48c0-9814-2f2cb6c4589c","ios":"levelo://app?vid=ab7b7c4d-f422-48c0-9814-2f2cb6c4589c"},"vehicle_type_id":"4","last_reported":1687453537,"current_range_meters":10800,"station_id":"ce4bhbh2rcd13ifvqepg","pricing_plan_id":"free"},{"bike_id":"01f86a73-f136-44ca-b3bd-99d4a90b9026","system_id":"levelo_inurba_marseille","lat":43.284217,"lon":5.349697,"is_reserved":false,"is_disabled":false,"rental_uris":{"android":"levelo://app?vid=01f86a73-f136-44ca-b3bd-99d4a90b9026","ios":"levelo://app?vid=01f86a73-f136-44ca-b3bd-99d4a90b9026"},"vehicle_type_id":"4","last_reported":1687453537,"current_range_meters":24800,"station_id":"ce4bhbh2rcd13ifvqepg","pricing_plan_id":"free"},{"bike_id":"efea3996-08eb-416d-8b37-d836bd62d6a8","system_id":"levelo_inurba_marseille","lat":43.284219,"lon":5.3497,"is_reserved":false,"is_disabled":false,"rental_uris":{"android":"levelo://app?vid=efea3996-08eb-416d-8b37-d836bd62d6a8","ios":"levelo://app?vid=efea3996-08eb-416d-8b37-d836bd62d6a8"},"vehicle_type_id":"4","last_reported":1687453537,"current_range_meters":31200,"station_id":"ce4bhbh2rcd13ifvqepg","pricing_plan_id":"free"},{"bike_id":"78695999-bf51-4ba4-85e4-58c95e5e69df","system_id":"levelo_inurba_marseille","lat":43.284217,"lon":5.349697,"is_reserved":false,"is_disabled":false,"rental_uris":{"android":"levelo://app?vid=78695999-bf51-4ba4-85e4-58c95e5e69df","ios":"levelo://app?vid=78695999-bf51-4ba4-85e4-58c95e5e69df"},"vehicle_type_id":"4","last_reported":1687453537,"current_range_meters":31200,"station_id":"ce4bhbh2rcd13ifvqepg","pricing_plan_id":"free"},{"bike_id":"7f2b9f43-5b36-4e58-a57d-c6b764c1c037","system_id":"levelo_inurba_marseille","lat":43.284217,"lon":5.349697,"is_reserved":false,"is_disabled":false,"rental_uris":{"android":"levelo://app?vid=7f2b9f43-5b36-4e58-a57d-c6b764c1c037","ios":"levelo://app?vid=7f2b9f43-5b36-4e58-a57d-c6b764c1c037"},"vehicle_type_id":"4","last_reported":1687453537,"current_range_meters":18000,"station_id":"ce4bhbh2rcd13ifvqepg","pricing_plan_id":"free"},{"bike_id":"ad2b046f-2dcf-4020-8358-a3d520c035f5","system_id":"levelo_inurba_marseille","lat":43.284217,"lon":5.349697,"is_reserved":false,"is_disabled":false,"rental_uris":{"android":"levelo://app?vid=ad2b046f-2dcf-4020-8358-a3d520c035f5","ios":"levelo://app?vid=ad2b046f-2dcf-4020-8358-a3d520c035f5"},"vehicle_type_id":"4","last_reported":1687453537,"current_range_meters":26400,"station_id":"ce4bhbh2rcd13ifvqepg","pricing_plan_id":"free"},{"bike_id":"0a9ad9ae-5333-4805-8717-51443d4dc447","system_id":"levelo_inurba_marseille","lat":43.284217,"lon":5.349697,"is_reserved":false,"is_disabled":false,"rental_uris":{"android":"levelo://app?vid=0a9ad9ae-5333-4805-8717-51443d4dc447","ios":"levelo://app?vid=0a9ad9ae-5333-4805-8717-51443d4dc447"},"vehicle_type_id":"4","last_reported":1687453537,"current_range_meters":31600,"station_id":"ce4bhbh2rcd13ifvqepg","pricing_plan_id":"free"},{"bike_id":"69402d95-a50b-4971-a6a5-ee0f515cae4e","system_id":"levelo_inurba_marseille","lat":43.283963,"lon":5.349772,"is_reserved":false,"is_disabled":false,"rental_uris":{"android":"levelo://app?vid=69402d95-a50b-4971-a6a5-ee0f515cae4e","ios":"levelo://app?vid=69402d95-a50b-4971-a6a5-ee0f515cae4e"},"vehicle_type_id":"4","last_reported":1687453537,"current_range_meters":4800,"station_id":"ce4bhbh2rcd13ifvqepg","pricing_plan_id":"free"},{"bike_id":"d86b5c4e-58c7-4f3e-b021-a188b0a234e7","system_id":"levelo_inurba_marseille","lat":43.2827,"lon":5.35075,"is_reserved":false,"is_disabled":false,"rental_uris":{"android":"levelo://app?vid=d86b5c4e-58c7-4f3e-b021-a188b0a234e7","ios":"levelo://app?vid=d86b5c4e-58c7-4f3e-b021-a188b0a234e7"},"vehicle_type_id":"4","last_reported":1687453537,"current_range_meters":13200,"station_id":"ce4bhbp2rcd13ifvqerg","pricing_plan_id":"free"},{"bike_id":"6f6d3762-fee3-439b-97dc-fa53b93fa68d","system_id":"levelo_inurba_marseille","lat":43.28268,"lon":5.35079,"is_reserved":false,"is_disabled":false,"rental_uris":{"android":"levelo://app?vid=6f6d3762-fee3-439b-97dc-fa53b93fa68d","ios":"levelo://app?vid=6f6d3762-fee3-439b-97dc-fa53b93fa68d"},"vehicle_type_id":"4","last_reported":1687453537,"current_range_meters":18000,"station_id":"ce4bhbp2rcd13ifvqerg","pricing_plan_id":"free"},{"bike_id":"df37c74f-5e42-416b-94bc-22deb58a594b","system_id":"levelo_inurba_marseille","lat":43.28269,"lon":5.35069,"is_reserved":false,"is_disabled":false,"rental_uris":{"android":"levelo://app?vid=df37c74f-5e42-416b-94bc-22deb58a594b","ios":"levelo://app?vid=df37c74f-5e42-416b-94bc-22deb58a594b"},"vehicle_type_id":"4","last_reported":1687453537,"current_range_meters":8000,"station_id":"ce4bhbp2rcd13ifvqerg","pricing_plan_id":"free"},{"bike_id":"9fbf4086-5dbe-4a50-949f-ea773c636410","system_id":"levelo_inurba_marseille","lat":43.282754,"lon":5.350519,"is_reserved":false,"is_disabled":false,"rental_uris":{"android":"levelo://app?vid=9fbf4086-5dbe-4a50-949f-ea773c636410","ios":"levelo://app?vid=9fbf4086-5dbe-4a50-949f-ea773c636410"},"vehicle_type_id":"4","last_reported":1687453537,"current_range_meters":6800,"station_id":"ce4bhbp2rcd13ifvqerg","pricing_plan_id":"free"},{"bike_id":"90e4bb81-5674-4cb5-8932-266edb834a85","system_id":"levelo_inurba_marseille","lat":43.28266,"lon":5.35077,"is_reserved":false,"is_disabled":false,"rental_uris":{"android":"levelo://app?vid=90e4bb81-5674-4cb5-8932-266edb834a85","ios":"levelo://app?vid=90e4bb81-5674-4cb5-8932-266edb834a85"},"vehicle_type_id":"4","last_reported":1687453537,"current_range_meters":31200,"station_id":"ce4bhbp2rcd13ifvqerg","pricing_plan_id":"free"},{"bike_id":"7007837e-c05b-4881-9c05-07ba1242f3fa","system_id":"levelo_inurba_marseille","lat":43.28261,"lon":5.35075,"is_reserved":false,"is_disabled":false,"rental_uris":{"android":"levelo://app?vid=7007837e-c05b-4881-9c05-07ba1242f3fa","ios":"levelo://app?vid=7007837e-c05b-4881-9c05-07ba1242f3fa"},"vehicle_type_id":"4","last_reported":1687453537,"current_range_meters":14000,"station_id":"ce4bhbp2rcd13ifvqerg","pricing_plan_id":"free"},{"bike_id":"ba387e7f-e821-4ead-bb33-3581eb65c1fc","system_id":"levelo_inurba_marseille","lat":43.28263,"lon":5.35064,"is_reserved":false,"is_disabled":false,"rental_uris":{"android":"levelo://app?vid=ba387e7f-e821-4ead-bb33-3581eb65c1fc","ios":"levelo://app?vid=ba387e7f-e821-4ead-bb33-3581eb65c1fc"},"vehicle_type_id":"4","last_reported":1687453537,"current_range_meters":800,"station_id":"ce4bhbp2rcd13ifvqerg","pricing_plan_id":"free"},{"bike_id":"6ceb940d-e01f-48f2-8994-5040b63e432a","system_id":"levelo_inurba_marseille","lat":43.28041,"lon":5.36932,"is_reserved":false,"is_disabled":false,"rental_uris":{"android":"levelo://app?vid=6ceb940d-e01f-48f2-8994-5040b63e432a","ios":"levelo://app?vid=6ceb940d-e01f-48f2-8994-5040b63e432a"},"vehicle_type_id":"4","last_reported":1687453537,"current_range_meters":12400,"station_id":"ce4bha12rcd13ifvqef0","pricing_plan_id":"free"},{"bike_id":"f802147e-26b4-49a9-b6c5-60b58d6ee1bb","system_id":"levelo_inurba_marseille","lat":43.28039,"lon":5.369297,"is_reserved":false,"is_disabled":false,"rental_uris":{"android":"levelo://app?vid=f802147e-26b4-49a9-b6c5-60b58d6ee1bb","ios":"levelo://app?vid=f802147e-26b4-49a9-b6c5-60b58d6ee1bb"},"vehicle_type_id":"4","last_reported":1687453537,"current_range_meters":10800,"station_id":"ce4bha12rcd13ifvqef0","pricing_plan_id":"free"},{"bike_id":"8732715f-39db-4c6f-a4f6-1acf24b1480c","system_id":"levelo_inurba_marseille","lat":43.28039,"lon":5.369297,"is_reserved":false,"is_disabled":false,"rental_uris":{"android":"levelo://app?vid=8732715f-39db-4c6f-a4f6-1acf24b1480c","ios":"levelo://app?vid=8732715f-39db-4c6f-a4f6-1acf24b1480c"},"vehicle_type_id":"4","last_reported":1687453537,"current_range_meters":29600,"station_id":"ce4bha12rcd13ifvqef0","pricing_plan_id":"free"},{"bike_id":"63f3b64f-d8f3-4c30-a711-267a88b0fb41","system_id":"levelo_inurba_marseille","lat":43.280382,"lon":5.369291,"is_reserved":false,"is_disabled":false,"rental_uris":{"android":"levelo://app?vid=63f3b64f-d8f3-4c30-a711-267a88b0fb41","ios":"levelo://app?vid=63f3b64f-d8f3-4c30-a711-267a88b0fb41"},"vehicle_type_id":"4","last_reported":1687453537,"current_range_meters":16400,"station_id":"ce4bha12rcd13ifvqef0","pricing_plan_id":"free"},{"bike_id":"3c951801-bcdb-4724-a1b9-c3005587d453","system_id":"levelo_inurba_marseille","lat":43.28039,"lon":5.369297,"is_reserved":false,"is_disabled":false,"rental_uris":{"android":"levelo://app?vid=3c951801-bcdb-4724-a1b9-c3005587d453","ios":"levelo://app?vid=3c951801-bcdb-4724-a1b9-c3005587d453"},"vehicle_type_id":"4","last_reported":1687453537,"current_range_meters":14000,"station_id":"ce4bha12rcd13ifvqef0","pricing_plan_id":"free"},{"bike_id":"50f3a798-ec79-4fe0-b285-1326ae52c348","system_id":"levelo_inurba_marseille","lat":43.290426,"lon":5.399584,"is_reserved":false,"is_disabled":false,"rental_uris":{"android":"levelo://app?vid=50f3a798-ec79-4fe0-b285-1326ae52c348","ios":"levelo://app?vid=50f3a798-ec79-4fe0-b285-1326ae52c348"},"vehicle_type_id":"4","last_reported":1687453537,"current_range_meters":0,"station_id":"","pricing_plan_id":"free"},{"bike_id":"1faf0f69-a0c8-4cfb-ba06-d8e26da1b9d9","system_id":"levelo_inurba_marseille","lat":43.281043,"lon":5.378366,"is_reserved":false,"is_disabled":false,"rental_uris":{"android":"levelo://app?vid=1faf0f69-a0c8-4cfb-ba06-d8e26da1b9d9","ios":"levelo://app?vid=1faf0f69-a0c8-4cfb-ba06-d8e26da1b9d9"},"vehicle_type_id":"4","last_reported":1687453537,"current_range_meters":31200,"station_id":"","pricing_plan_id":"free"},{"bike_id":"e1750d42-f691-4ec1-8d6e-fee4f52a6da8","system_id":"levelo_inurba_marseille","lat":43.281044,"lon":5.378308,"is_reserved":false,"is_disabled":false,"rental_uris":{"android":"levelo://app?vid=e1750d42-f691-4ec1-8d6e-fee4f52a6da8","ios":"levelo://app?vid=e1750d42-f691-4ec1-8d6e-fee4f52a6da8"},"vehicle_type_id":"4","last_reported":1687453537,"current_range_meters":28000,"station_id":"ce4bha12rcd13ifvqee0","pricing_plan_id":"free"},{"bike_id":"ee9c343b-3e2c-4758-9131-3f2b5c8bee6a","system_id":"levelo_inurba_marseille","lat":43.281006,"lon":5.378325,"is_reserved":false,"is_disabled":false,"rental_uris":{"android":"levelo://app?vid=ee9c343b-3e2c-4758-9131-3f2b5c8bee6a","ios":"levelo://app?vid=ee9c343b-3e2c-4758-9131-3f2b5c8bee6a"},"vehicle_type_id":"4","last_reported":1687453537,"current_range_meters":31200,"station_id":"ce4bha12rcd13ifvqee0","pricing_plan_id":"free"},{"bike_id":"97843dac-bb43-482c-b113-765a8bc6e4e0","system_id":"levelo_inurba_marseille","lat":43.281,"lon":5.37835,"is_reserved":false,"is_disabled":false,"rental_uris":{"android":"levelo://app?vid=97843dac-bb43-482c-b113-765a8bc6e4e0","ios":"levelo://app?vid=97843dac-bb43-482c-b113-765a8bc6e4e0"},"vehicle_type_id":"4","last_reported":1687453537,"current_range_meters":31200,"station_id":"ce4bha12rcd13ifvqee0","pricing_plan_id":"free"},{"bike_id":"1e37a2cc-d31a-43fc-aeb5-988561f41856","system_id":"levelo_inurba_marseille","lat":43.280991,"lon":5.378372,"is_reserved":false,"is_disabled":false,"rental_uris":{"android":"levelo://app?vid=1e37a2cc-d31a-43fc-aeb5-988561f41856","ios":"levelo://app?vid=1e37a2cc-d31a-43fc-aeb5-988561f41856"},"vehicle_type_id":"4","last_reported":1687453537,"current_range_meters":28000,"station_id":"ce4bha12rcd13ifvqee0","pricing_plan_id":"free"},{"bike_id":"ff60adae-f71a-4e2f-9c03-c28e9ecc3c45","system_id":"levelo_inurba_marseille","lat":43.32731,"lon":5.40756,"is_reserved":false,"is_disabled":false,"rental_uris":{"android":"levelo://app?vid=ff60adae-f71a-4e2f-9c03-c28e9ecc3c45","ios":"levelo://app?vid=ff60adae-f71a-4e2f-9c03-c28e9ecc3c45"},"vehicle_type_id":"4","last_reported":1687453537,"current_range_meters":14000,"station_id":"","pricing_plan_id":"free"},{"bike_id":"6ad16976-8b86-472d-bbb3-78dfe550d2e1","system_id":"levelo_inurba_marseille","lat":43.28094,"lon":5.37884,"is_reserved":false,"is_disabled":false,"rental_uris":{"android":"levelo://app?vid=6ad16976-8b86-472d-bbb3-78dfe550d2e1","ios":"levelo://app?vid=6ad16976-8b86-472d-bbb3-78dfe550d2e1"},"vehicle_type_id":"4","last_reported":1687453537,"current_range_meters":31200,"station_id":"","pricing_plan_id":"free"},{"bike_id":"3cd10ad7-a316-4ed6-a3d9-f31d3f3622ac","system_id":"levelo_inurba_marseille","lat":43.34466,"lon":5.37828,"is_reserved":false,"is_disabled":false,"rental_uris":{"android":"levelo://app?vid=3cd10ad7-a316-4ed6-a3d9-f31d3f3622ac","ios":"levelo://app?vid=3cd10ad7-a316-4ed6-a3d9-f31d3f3622ac"},"vehicle_type_id":"4","last_reported":1687453537,"current_range_meters":4800,"station_id":"","pricing_plan_id":"free"},{"bike_id":"ff1c2751-32a8-40ee-bdaf-bd30d1df81cd","system_id":"levelo_inurba_marseille","lat":43.284462,"lon":5.392121,"is_reserved":false,"is_disabled":false,"rental_uris":{"android":"levelo://app?vid=ff1c2751-32a8-40ee-bdaf-bd30d1df81cd","ios":"levelo://app?vid=ff1c2751-32a8-40ee-bdaf-bd30d1df81cd"},"vehicle_type_id":"4","last_reported":1687453537,"current_range_meters":18400,"station_id":"ce4bhoh2rcd13ifvqh5g","pricing_plan_id":"free"},{"bike_id":"c8c335a9-f531-42bd-95eb-8b10ec2d44e8","system_id":"levelo_inurba_marseille","lat":43.285742,"lon":5.395004,"is_reserved":false,"is_disabled":false,"rental_uris":{"android":"levelo://app?vid=c8c335a9-f531-42bd-95eb-8b10ec2d44e8","ios":"levelo://app?vid=c8c335a9-f531-42bd-95eb-8b10ec2d44e8"},"vehicle_type_id":"4","last_reported":1687453537,"current_range_meters":2000,"station_id":"ce4bh292rcd13ifvqdg0","pricing_plan_id":"free"},{"bike_id":"fb25e0f1-b0e3-4da9-84c4-364e5027f457","system_id":"levelo_inurba_marseille","lat":43.3266,"lon":5.40984,"is_reserved":false,"is_disabled":false,"rental_uris":{"android":"levelo://app?vid=fb25e0f1-b0e3-4da9-84c4-364e5027f457","ios":"levelo://app?vid=fb25e0f1-b0e3-4da9-84c4-364e5027f457"},"vehicle_type_id":"4","last_reported":1687453537,"current_range_meters":26400,"station_id":"ce4bhpp2rcd13ifvqhgg","pricing_plan_id":"free"},{"bike_id":"af169e77-30e0-46f7-ba08-0d262c1d4156","system_id":"levelo_inurba_marseille","lat":43.32661,"lon":5.40988,"is_reserved":false,"is_disabled":false,"rental_uris":{"android":"levelo://app?vid=af169e77-30e0-46f7-ba08-0d262c1d4156","ios":"levelo://app?vid=af169e77-30e0-46f7-ba08-0d262c1d4156"},"vehicle_type_id":"4","last_reported":1687453537,"current_range_meters":1600,"station_id":"ce4bhpp2rcd13ifvqhgg","pricing_plan_id":"free"},{"bike_id":"d45e5023-90d3-4bdb-ad61-fec6cb831f11","system_id":"levelo_inurba_marseille","lat":43.32622,"lon":5.41013,"is_reserved":false,"is_disabled":false,"rental_uris":{"android":"levelo://app?vid=d45e5023-90d3-4bdb-ad61-fec6cb831f11","ios":"levelo://app?vid=d45e5023-90d3-4bdb-ad61-fec6cb831f11"},"vehicle_type_id":"4","last_reported":1687453537,"current_range_meters":28400,"station_id":"","pricing_plan_id":"free"},{"bike_id":"ca7a0894-e511-4f97-bb05-aea8eecf0774","system_id":"levelo_inurba_marseille","lat":43.326565,"lon":5.409975,"is_reserved":false,"is_disabled":false,"rental_uris":{"android":"levelo://app?vid=ca7a0894-e511-4f97-bb05-aea8eecf0774","ios":"levelo://app?vid=ca7a0894-e511-4f97-bb05-aea8eecf0774"},"vehicle_type_id":"4","last_reported":1687453537,"current_range_meters":10400,"station_id":"ce4bhpp2rcd13ifvqhgg","pricing_plan_id":"free"},{"bike_id":"f47d889e-f3a7-4cf7-b89b-498d12032e77","system_id":"levelo_inurba_marseille","lat":43.2929,"lon":5.40667,"is_reserved":false,"is_disabled":false,"rental_uris":{"android":"levelo://app?vid=f47d889e-f3a7-4cf7-b89b-498d12032e77","ios":"levelo://app?vid=f47d889e-f3a7-4cf7-b89b-498d12032e77"},"vehicle_type_id":"4","last_reported":1687453537,"current_range_meters":13200,"station_id":"","pricing_plan_id":"free"},{"bike_id":"bf172dd4-5bd4-492a-b7d2-4776aefb05c6","system_id":"levelo_inurba_marseille","lat":43.287154,"lon":5.399979,"is_reserved":false,"is_disabled":false,"rental_uris":{"android":"levelo://app?vid=bf172dd4-5bd4-492a-b7d2-4776aefb05c6","ios":"levelo://app?vid=bf172dd4-5bd4-492a-b7d2-4776aefb05c6"},"vehicle_type_id":"4","last_reported":1687453537,"current_range_meters":1600,"station_id":"ce4bho92rcd13ifvqh3g","pricing_plan_id":"free"},{"bike_id":"50fd953c-9754-45f4-aec7-ae52bb9eb6fe","system_id":"levelo_inurba_marseille","lat":43.287154,"lon":5.399979,"is_reserved":false,"is_disabled":false,"rental_uris":{"android":"levelo://app?vid=50fd953c-9754-45f4-aec7-ae52bb9eb6fe","ios":"levelo://app?vid=50fd953c-9754-45f4-aec7-ae52bb9eb6fe"},"vehicle_type_id":"4","last_reported":1687453537,"current_range_meters":21600,"station_id":"ce4bho92rcd13ifvqh3g","pricing_plan_id":"free"},{"bike_id":"06f1b42e-73c6-4322-874f-7490bab70f3b","system_id":"levelo_inurba_marseille","lat":43.320045,"lon":5.415048,"is_reserved":false,"is_disabled":false,"rental_uris":{"android":"levelo://app?vid=06f1b42e-73c6-4322-874f-7490bab70f3b","ios":"levelo://app?vid=06f1b42e-73c6-4322-874f-7490bab70f3b"},"vehicle_type_id":"4","last_reported":1687453537,"current_range_meters":0,"station_id":"ce4bhq92rcd13ifvqhkg","pricing_plan_id":"free"},{"bike_id":"fd48158d-b295-4bf8-b34c-c5d589dfd1f0","system_id":"levelo_inurba_marseille","lat":43.29267,"lon":5.40891,"is_reserved":false,"is_disabled":false,"rental_uris":{"android":"levelo://app?vid=fd48158d-b295-4bf8-b34c-c5d589dfd1f0","ios":"levelo://app?vid=fd48158d-b295-4bf8-b34c-c5d589dfd1f0"},"vehicle_type_id":"4","last_reported":1687453537,"current_range_meters":20400,"station_id":"ce4bh192rcd13ifvqdc0","pricing_plan_id":"free"},{"bike_id":"4d495793-33ca-4df4-85fa-9470e76f969d","system_id":"levelo_inurba_marseille","lat":43.27625,"lon":5.3611,"is_reserved":false,"is_disabled":false,"rental_uris":{"android":"levelo://app?vid=4d495793-33ca-4df4-85fa-9470e76f969d","ios":"levelo://app?vid=4d495793-33ca-4df4-85fa-9470e76f969d"},"vehicle_type_id":"4","last_reported":1687453537,"current_range_meters":16800,"station_id":"ce4bgj92rcd13ifvqbe0","pricing_plan_id":"free"},{"bike_id":"2c6c3a2e-bf11-4b48-946a-9ce717a94806","system_id":"levelo_inurba_marseille","lat":43.32547,"lon":5.41429,"is_reserved":false,"is_disabled":false,"rental_uris":{"android":"levelo://app?vid=2c6c3a2e-bf11-4b48-946a-9ce717a94806","ios":"levelo://app?vid=2c6c3a2e-bf11-4b48-946a-9ce717a94806"},"vehicle_type_id":"4","last_reported":1687453537,"current_range_meters":13600,"station_id":"ce4bhq12rcd13ifvqhhg","pricing_plan_id":"free"},{"bike_id":"a1482ac7-6688-4a80-93c8-9aa72617681d","system_id":"levelo_inurba_marseille","lat":43.27618,"lon":5.361009,"is_reserved":false,"is_disabled":false,"rental_uris":{"android":"levelo://app?vid=a1482ac7-6688-4a80-93c8-9aa72617681d","ios":"levelo://app?vid=a1482ac7-6688-4a80-93c8-9aa72617681d"},"vehicle_type_id":"4","last_reported":1687453537,"current_range_meters":26800,"station_id":"ce4bgj92rcd13ifvqbe0","pricing_plan_id":"free"},{"bike_id":"36bfaee2-a2d2-44be-802f-4439314b0f8b","system_id":"levelo_inurba_marseille","lat":43.278399,"lon":5.392139,"is_reserved":false,"is_disabled":false,"rental_uris":{"android":"levelo://app?vid=36bfaee2-a2d2-44be-802f-4439314b0f8b","ios":"levelo://app?vid=36bfaee2-a2d2-44be-802f-4439314b0f8b"},"vehicle_type_id":"4","last_reported":1687453537,"current_range_meters":0,"station_id":"ce4bhjp2rcd13ifvqga0","pricing_plan_id":"free"},{"bike_id":"f66de01c-8405-49bd-97cb-2e6478a2c269","system_id":"levelo_inurba_marseille","lat":43.303837,"lon":5.418724,"is_reserved":false,"is_disabled":false,"rental_uris":{"android":"levelo://app?vid=f66de01c-8405-49bd-97cb-2e6478a2c269","ios":"levelo://app?vid=f66de01c-8405-49bd-97cb-2e6478a2c269"},"vehicle_type_id":"4","last_reported":1687453537,"current_range_meters":0,"station_id":"ce4bhop2rcd13ifvqh7g","pricing_plan_id":"free"},{"bike_id":"bb4cec7e-4c2a-4cfb-927a-928bc4eb97bb","system_id":"levelo_inurba_marseille","lat":43.303837,"lon":5.418724,"is_reserved":false,"is_disabled":false,"rental_uris":{"android":"levelo://app?vid=bb4cec7e-4c2a-4cfb-927a-928bc4eb97bb","ios":"levelo://app?vid=bb4cec7e-4c2a-4cfb-927a-928bc4eb97bb"},"vehicle_type_id":"4","last_reported":1687453537,"current_range_meters":16400,"station_id":"ce4bhop2rcd13ifvqh7g","pricing_plan_id":"free"},{"bike_id":"3647c508-8820-4317-a7cc-a961bb8f81fc","system_id":"levelo_inurba_marseille","lat":43.303837,"lon":5.418724,"is_reserved":false,"is_disabled":false,"rental_uris":{"android":"levelo://app?vid=3647c508-8820-4317-a7cc-a961bb8f81fc","ios":"levelo://app?vid=3647c508-8820-4317-a7cc-a961bb8f81fc"},"vehicle_type_id":"4","last_reported":1687453537,"current_range_meters":27600,"station_id":"ce4bhop2rcd13ifvqh7g","pricing_plan_id":"free"},{"bike_id":"a68c501a-ebe4-415b-8978-5915cecc6c49","system_id":"levelo_inurba_marseille","lat":43.303837,"lon":5.418724,"is_reserved":false,"is_disabled":false,"rental_uris":{"android":"levelo://app?vid=a68c501a-ebe4-415b-8978-5915cecc6c49","ios":"levelo://app?vid=a68c501a-ebe4-415b-8978-5915cecc6c49"},"vehicle_type_id":"4","last_reported":1687453537,"current_range_meters":6800,"station_id":"ce4bhop2rcd13ifvqh7g","pricing_plan_id":"free"},{"bike_id":"4e4b4fe8-1fda-4040-b3a1-846db1cbfe76","system_id":"levelo_inurba_marseille","lat":43.303837,"lon":5.418724,"is_reserved":false,"is_disabled":false,"rental_uris":{"android":"levelo://app?vid=4e4b4fe8-1fda-4040-b3a1-846db1cbfe76","ios":"levelo://app?vid=4e4b4fe8-1fda-4040-b3a1-846db1cbfe76"},"vehicle_type_id":"4","last_reported":1687453537,"current_range_meters":31200,"station_id":"ce4bhop2rcd13ifvqh7g","pricing_plan_id":"free"},{"bike_id":"39ec18fa-f960-4e38-98bd-af65b25e9325","system_id":"levelo_inurba_marseille","lat":43.278399,"lon":5.392139,"is_reserved":false,"is_disabled":false,"rental_uris":{"android":"levelo://app?vid=39ec18fa-f960-4e38-98bd-af65b25e9325","ios":"levelo://app?vid=39ec18fa-f960-4e38-98bd-af65b25e9325"},"vehicle_type_id":"4","last_reported":1687453537,"current_range_meters":22000,"station_id":"ce4bhjp2rcd13ifvqga0","pricing_plan_id":"free"},{"bike_id":"ac561baa-ea72-481e-a8f9-5ec042a5d071","system_id":"levelo_inurba_marseille","lat":43.278399,"lon":5.392139,"is_reserved":false,"is_disabled":false,"rental_uris":{"android":"levelo://app?vid=ac561baa-ea72-481e-a8f9-5ec042a5d071","ios":"levelo://app?vid=ac561baa-ea72-481e-a8f9-5ec042a5d071"},"vehicle_type_id":"4","last_reported":1687453537,"current_range_meters":7600,"station_id":"ce4bhjp2rcd13ifvqga0","pricing_plan_id":"free"},{"bike_id":"1bd937f8-9813-4d23-a140-6a6fe9d81be1","system_id":"levelo_inurba_marseille","lat":43.2738,"lon":5.36254,"is_reserved":false,"is_disabled":false,"rental_uris":{"android":"levelo://app?vid=1bd937f8-9813-4d23-a140-6a6fe9d81be1","ios":"levelo://app?vid=1bd937f8-9813-4d23-a140-6a6fe9d81be1"},"vehicle_type_id":"4","last_reported":1687453537,"current_range_meters":26800,"station_id":"ce4bhbh2rcd13ifvqeo0","pricing_plan_id":"free"},{"bike_id":"7776270e-1686-4e7e-baf2-029448761ca2","system_id":"levelo_inurba_marseille","lat":43.27378,"lon":5.36268,"is_reserved":false,"is_disabled":false,"rental_uris":{"android":"levelo://app?vid=7776270e-1686-4e7e-baf2-029448761ca2","ios":"levelo://app?vid=7776270e-1686-4e7e-baf2-029448761ca2"},"vehicle_type_id":"4","last_reported":1687453537,"current_range_meters":22000,"station_id":"ce4bhbh2rcd13ifvqeo0","pricing_plan_id":"free"},{"bike_id":"310a7c99-ae28-4a8c-b33a-a05f7f0f7f25","system_id":"levelo_inurba_marseille","lat":43.27377,"lon":5.36257,"is_reserved":false,"is_disabled":false,"rental_uris":{"android":"levelo://app?vid=310a7c99-ae28-4a8c-b33a-a05f7f0f7f25","ios":"levelo://app?vid=310a7c99-ae28-4a8c-b33a-a05f7f0f7f25"},"vehicle_type_id":"4","last_reported":1687453537,"current_range_meters":30400,"station_id":"ce4bhbh2rcd13ifvqeo0","pricing_plan_id":"free"},{"bike_id":"543f7a2c-bc88-4c2f-ad52-cb5b8c1b7fba","system_id":"levelo_inurba_marseille","lat":43.27376,"lon":5.3625,"is_reserved":false,"is_disabled":false,"rental_uris":{"android":"levelo://app?vid=543f7a2c-bc88-4c2f-ad52-cb5b8c1b7fba","ios":"levelo://app?vid=543f7a2c-bc88-4c2f-ad52-cb5b8c1b7fba"},"vehicle_type_id":"4","last_reported":1687453537,"current_range_meters":31200,"station_id":"ce4bhbh2rcd13ifvqeo0","pricing_plan_id":"free"},{"bike_id":"0689402f-aff7-4634-9d6d-dd6147b64762","system_id":"levelo_inurba_marseille","lat":43.27375,"lon":5.36256,"is_reserved":false,"is_disabled":false,"rental_uris":{"android":"levelo://app?vid=0689402f-aff7-4634-9d6d-dd6147b64762","ios":"levelo://app?vid=0689402f-aff7-4634-9d6d-dd6147b64762"},"vehicle_type_id":"4","last_reported":1687453537,"current_range_meters":25200,"station_id":"","pricing_plan_id":"free"},{"bike_id":"be47994c-4ace-45fa-af6c-c70a501469ae","system_id":"levelo_inurba_marseille","lat":43.273613,"lon":5.362705,"is_reserved":false,"is_disabled":false,"rental_uris":{"android":"levelo://app?vid=be47994c-4ace-45fa-af6c-c70a501469ae","ios":"levelo://app?vid=be47994c-4ace-45fa-af6c-c70a501469ae"},"vehicle_type_id":"4","last_reported":1687453537,"current_range_meters":1600,"station_id":"ce4bhbh2rcd13ifvqeo0","pricing_plan_id":"free"},{"bike_id":"02b2a979-44a4-4d5e-99e0-aeb92ddc4a17","system_id":"levelo_inurba_marseille","lat":43.273613,"lon":5.362705,"is_reserved":false,"is_disabled":false,"rental_uris":{"android":"levelo://app?vid=02b2a979-44a4-4d5e-99e0-aeb92ddc4a17","ios":"levelo://app?vid=02b2a979-44a4-4d5e-99e0-aeb92ddc4a17"},"vehicle_type_id":"4","last_reported":1687453537,"current_range_meters":21600,"station_id":"ce4bhbh2rcd13ifvqeo0","pricing_plan_id":"free"},{"bike_id":"2500abc4-5fc1-41af-8838-e772a23c24c4","system_id":"levelo_inurba_marseille","lat":43.27374,"lon":5.36254,"is_reserved":false,"is_disabled":false,"rental_uris":{"android":"levelo://app?vid=2500abc4-5fc1-41af-8838-e772a23c24c4","ios":"levelo://app?vid=2500abc4-5fc1-41af-8838-e772a23c24c4"},"vehicle_type_id":"4","last_reported":1687453537,"current_range_meters":31200,"station_id":"ce4bhbh2rcd13ifvqeo0","pricing_plan_id":"free"},{"bike_id":"8d61ee02-e41d-4125-b380-ef2af0f77af7","system_id":"levelo_inurba_marseille","lat":43.273613,"lon":5.362705,"is_reserved":false,"is_disabled":false,"rental_uris":{"android":"levelo://app?vid=8d61ee02-e41d-4125-b380-ef2af0f77af7","ios":"levelo://app?vid=8d61ee02-e41d-4125-b380-ef2af0f77af7"},"vehicle_type_id":"4","last_reported":1687453537,"current_range_meters":0,"station_id":"ce4bhbh2rcd13ifvqeo0","pricing_plan_id":"free"},{"bike_id":"834eb625-849c-4000-823c-64eb09246971","system_id":"levelo_inurba_marseille","lat":43.273613,"lon":5.362705,"is_reserved":false,"is_disabled":false,"rental_uris":{"android":"levelo://app?vid=834eb625-849c-4000-823c-64eb09246971","ios":"levelo://app?vid=834eb625-849c-4000-823c-64eb09246971"},"vehicle_type_id":"4","last_reported":1687453537,"current_range_meters":31600,"station_id":"ce4bhbh2rcd13ifvqeo0","pricing_plan_id":"free"},{"bike_id":"dd464660-27f4-4fd6-aaa7-01e9256b4b49","system_id":"levelo_inurba_marseille","lat":43.27372,"lon":5.36273,"is_reserved":false,"is_disabled":false,"rental_uris":{"android":"levelo://app?vid=dd464660-27f4-4fd6-aaa7-01e9256b4b49","ios":"levelo://app?vid=dd464660-27f4-4fd6-aaa7-01e9256b4b49"},"vehicle_type_id":"4","last_reported":1687453537,"current_range_meters":31200,"station_id":"ce4bhbh2rcd13ifvqeo0","pricing_plan_id":"free"},{"bike_id":"d7142adc-483c-4c59-a4f6-848ddff7fd47","system_id":"levelo_inurba_marseille","lat":43.27372,"lon":5.3626,"is_reserved":false,"is_disabled":false,"rental_uris":{"android":"levelo://app?vid=d7142adc-483c-4c59-a4f6-848ddff7fd47","ios":"levelo://app?vid=d7142adc-483c-4c59-a4f6-848ddff7fd47"},"vehicle_type_id":"4","last_reported":1687453537,"current_range_meters":7200,"station_id":"ce4bhbh2rcd13ifvqeo0","pricing_plan_id":"free"},{"bike_id":"6c6e69e9-5aac-45ed-8dad-81c61875d38e","system_id":"levelo_inurba_marseille","lat":43.27371,"lon":5.36254,"is_reserved":false,"is_disabled":false,"rental_uris":{"android":"levelo://app?vid=6c6e69e9-5aac-45ed-8dad-81c61875d38e","ios":"levelo://app?vid=6c6e69e9-5aac-45ed-8dad-81c61875d38e"},"vehicle_type_id":"4","last_reported":1687453537,"current_range_meters":15600,"station_id":"ce4bhbh2rcd13ifvqeo0","pricing_plan_id":"free"},{"bike_id":"909c5dd7-70aa-460d-a038-32de51a9d9d9","system_id":"levelo_inurba_marseille","lat":43.2737,"lon":5.36265,"is_reserved":false,"is_disabled":false,"rental_uris":{"android":"levelo://app?vid=909c5dd7-70aa-460d-a038-32de51a9d9d9","ios":"levelo://app?vid=909c5dd7-70aa-460d-a038-32de51a9d9d9"},"vehicle_type_id":"4","last_reported":1687453537,"current_range_meters":31200,"station_id":"ce4bhbh2rcd13ifvqeo0","pricing_plan_id":"free"},{"bike_id":"bc32c28c-5cc1-436e-b73b-545a3af8edd8","system_id":"levelo_inurba_marseille","lat":43.2737,"lon":5.36259,"is_reserved":false,"is_disabled":false,"rental_uris":{"android":"levelo://app?vid=bc32c28c-5cc1-436e-b73b-545a3af8edd8","ios":"levelo://app?vid=bc32c28c-5cc1-436e-b73b-545a3af8edd8"},"vehicle_type_id":"4","last_reported":1687453537,"current_range_meters":5200,"station_id":"ce4bhbh2rcd13ifvqeo0","pricing_plan_id":"free"},{"bike_id":"550086de-5f2a-4a00-bbc1-fe9cb945ee10","system_id":"levelo_inurba_marseille","lat":43.27368,"lon":5.36261,"is_reserved":false,"is_disabled":false,"rental_uris":{"android":"levelo://app?vid=550086de-5f2a-4a00-bbc1-fe9cb945ee10","ios":"levelo://app?vid=550086de-5f2a-4a00-bbc1-fe9cb945ee10"},"vehicle_type_id":"4","last_reported":1687453537,"current_range_meters":1200,"station_id":"ce4bhbh2rcd13ifvqeo0","pricing_plan_id":"free"},{"bike_id":"b43172be-8531-4f0d-bcad-729bb2de8de1","system_id":"levelo_inurba_marseille","lat":43.276771,"lon":5.388799,"is_reserved":false,"is_disabled":false,"rental_uris":{"android":"levelo://app?vid=b43172be-8531-4f0d-bcad-729bb2de8de1","ios":"levelo://app?vid=b43172be-8531-4f0d-bcad-729bb2de8de1"},"vehicle_type_id":"4","last_reported":1687453537,"current_range_meters":16800,"station_id":"ce4bhi12rcd13ifvqfo0","pricing_plan_id":"free"},{"bike_id":"95edd1ad-9508-4e4c-852f-a09e35369c39","system_id":"levelo_inurba_marseille","lat":43.27193,"lon":5.36474,"is_reserved":false,"is_disabled":false,"rental_uris":{"android":"levelo://app?vid=95edd1ad-9508-4e4c-852f-a09e35369c39","ios":"levelo://app?vid=95edd1ad-9508-4e4c-852f-a09e35369c39"},"vehicle_type_id":"4","last_reported":1687453537,"current_range_meters":4000,"station_id":"","pricing_plan_id":"free"},{"bike_id":"34151605-ec0f-4b25-a75c-9b045af545f3","system_id":"levelo_inurba_marseille","lat":43.304096,"lon":5.425385,"is_reserved":false,"is_disabled":false,"rental_uris":{"android":"levelo://app?vid=34151605-ec0f-4b25-a75c-9b045af545f3","ios":"levelo://app?vid=34151605-ec0f-4b25-a75c-9b045af545f3"},"vehicle_type_id":"4","last_reported":1687453537,"current_range_meters":14800,"station_id":"ce4bhoh2rcd13ifvqh6g","pricing_plan_id":"free"},{"bike_id":"ed898fe2-1846-4ba4-b17d-1d157bc41ae4","system_id":"levelo_inurba_marseille","lat":43.30409,"lon":5.42556,"is_reserved":false,"is_disabled":false,"rental_uris":{"android":"levelo://app?vid=ed898fe2-1846-4ba4-b17d-1d157bc41ae4","ios":"levelo://app?vid=ed898fe2-1846-4ba4-b17d-1d157bc41ae4"},"vehicle_type_id":"4","last_reported":1687453537,"current_range_meters":31200,"station_id":"ce4bhoh2rcd13ifvqh6g","pricing_plan_id":"free"},{"bike_id":"d168f931-9377-4f31-8fa7-6712d6f9b337","system_id":"levelo_inurba_marseille","lat":43.29557,"lon":5.42287,"is_reserved":false,"is_disabled":false,"rental_uris":{"android":"levelo://app?vid=d168f931-9377-4f31-8fa7-6712d6f9b337","ios":"levelo://app?vid=d168f931-9377-4f31-8fa7-6712d6f9b337"},"vehicle_type_id":"4","last_reported":1687453537,"current_range_meters":4000,"station_id":"ce4bhph2rcd13ifvqhdg","pricing_plan_id":"free"},{"bike_id":"fbe6be2d-ad14-4c10-8fac-6704b79e573a","system_id":"levelo_inurba_marseille","lat":43.295523,"lon":5.422926,"is_reserved":false,"is_disabled":false,"rental_uris":{"android":"levelo://app?vid=fbe6be2d-ad14-4c10-8fac-6704b79e573a","ios":"levelo://app?vid=fbe6be2d-ad14-4c10-8fac-6704b79e573a"},"vehicle_type_id":"4","last_reported":1687453537,"current_range_meters":11200,"station_id":"ce4bhph2rcd13ifvqhdg","pricing_plan_id":"free"},{"bike_id":"a8134a16-c2e2-4c87-aa7e-52d3459071e6","system_id":"levelo_inurba_marseille","lat":43.295523,"lon":5.422926,"is_reserved":false,"is_disabled":false,"rental_uris":{"android":"levelo://app?vid=a8134a16-c2e2-4c87-aa7e-52d3459071e6","ios":"levelo://app?vid=a8134a16-c2e2-4c87-aa7e-52d3459071e6"},"vehicle_type_id":"4","last_reported":1687453537,"current_range_meters":16000,"station_id":"ce4bhph2rcd13ifvqhdg","pricing_plan_id":"free"},{"bike_id":"b895ab25-e390-40f9-b916-874d54ae3979","system_id":"levelo_inurba_marseille","lat":43.295511,"lon":5.422926,"is_reserved":false,"is_disabled":false,"rental_uris":{"android":"levelo://app?vid=b895ab25-e390-40f9-b916-874d54ae3979","ios":"levelo://app?vid=b895ab25-e390-40f9-b916-874d54ae3979"},"vehicle_type_id":"4","last_reported":1687453537,"current_range_meters":18400,"station_id":"ce4bhph2rcd13ifvqhdg","pricing_plan_id":"free"},{"bike_id":"9939aef0-df0a-48aa-ad7e-58112b43c817","system_id":"levelo_inurba_marseille","lat":43.295511,"lon":5.422926,"is_reserved":false,"is_disabled":false,"rental_uris":{"android":"levelo://app?vid=9939aef0-df0a-48aa-ad7e-58112b43c817","ios":"levelo://app?vid=9939aef0-df0a-48aa-ad7e-58112b43c817"},"vehicle_type_id":"4","last_reported":1687453537,"current_range_meters":18400,"station_id":"ce4bhph2rcd13ifvqhdg","pricing_plan_id":"free"},{"bike_id":"6c8d4913-b7fc-4996-ad8e-3c01d56e304c","system_id":"levelo_inurba_marseille","lat":43.27211,"lon":5.39177,"is_reserved":false,"is_disabled":false,"rental_uris":{"android":"levelo://app?vid=6c8d4913-b7fc-4996-ad8e-3c01d56e304c","ios":"levelo://app?vid=6c8d4913-b7fc-4996-ad8e-3c01d56e304c"},"vehicle_type_id":"4","last_reported":1687453537,"current_range_meters":8800,"station_id":"ce4bhhp2rcd13ifvqfm0","pricing_plan_id":"free"},{"bike_id":"7806116f-0885-4c8f-95b5-384b83169ccf","system_id":"levelo_inurba_marseille","lat":43.27203,"lon":5.39191,"is_reserved":false,"is_disabled":false,"rental_uris":{"android":"levelo://app?vid=7806116f-0885-4c8f-95b5-384b83169ccf","ios":"levelo://app?vid=7806116f-0885-4c8f-95b5-384b83169ccf"},"vehicle_type_id":"4","last_reported":1687453537,"current_range_meters":26800,"station_id":"ce4bhhp2rcd13ifvqfm0","pricing_plan_id":"free"},{"bike_id":"89bf5b22-e712-4380-9baf-1aacb1847344","system_id":"levelo_inurba_marseille","lat":43.269319,"lon":5.389397,"is_reserved":false,"is_disabled":false,"rental_uris":{"android":"levelo://app?vid=89bf5b22-e712-4380-9baf-1aacb1847344","ios":"levelo://app?vid=89bf5b22-e712-4380-9baf-1aacb1847344"},"vehicle_type_id":"4","last_reported":1687453537,"current_range_meters":26000,"station_id":"ce4bhhh2rcd13ifvqfl0","pricing_plan_id":"free"},{"bike_id":"e1630ff6-ef23-459c-a79a-9a3a6f221a7a","system_id":"levelo_inurba_marseille","lat":43.26681,"lon":5.382694,"is_reserved":false,"is_disabled":false,"rental_uris":{"android":"levelo://app?vid=e1630ff6-ef23-459c-a79a-9a3a6f221a7a","ios":"levelo://app?vid=e1630ff6-ef23-459c-a79a-9a3a6f221a7a"},"vehicle_type_id":"4","last_reported":1687453537,"current_range_meters":28800,"station_id":"ce4bhg92rcd13ifvqf90","pricing_plan_id":"free"},{"bike_id":"463690ca-1c7d-4db6-8b8b-aff2f2017c13","system_id":"levelo_inurba_marseille","lat":43.26433,"lon":5.36923,"is_reserved":false,"is_disabled":false,"rental_uris":{"android":"levelo://app?vid=463690ca-1c7d-4db6-8b8b-aff2f2017c13","ios":"levelo://app?vid=463690ca-1c7d-4db6-8b8b-aff2f2017c13"},"vehicle_type_id":"4","last_reported":1687453537,"current_range_meters":14400,"station_id":"","pricing_plan_id":"free"},{"bike_id":"a3d9afe1-3ec9-4799-8d98-8209690a0b55","system_id":"levelo_inurba_marseille","lat":43.27996,"lon":5.416624,"is_reserved":false,"is_disabled":false,"rental_uris":{"android":"levelo://app?vid=a3d9afe1-3ec9-4799-8d98-8209690a0b55","ios":"levelo://app?vid=a3d9afe1-3ec9-4799-8d98-8209690a0b55"},"vehicle_type_id":"4","last_reported":1687453537,"current_range_meters":13600,"station_id":"ce4bho12rcd13ifvqh1g","pricing_plan_id":"free"},{"bike_id":"67624696-4881-4ac4-9982-35a7a8b2b740","system_id":"levelo_inurba_marseille","lat":43.27997,"lon":5.41662,"is_reserved":false,"is_disabled":false,"rental_uris":{"android":"levelo://app?vid=67624696-4881-4ac4-9982-35a7a8b2b740","ios":"levelo://app?vid=67624696-4881-4ac4-9982-35a7a8b2b740"},"vehicle_type_id":"4","last_reported":1687453537,"current_range_meters":17600,"station_id":"ce4bho12rcd13ifvqh1g","pricing_plan_id":"free"},{"bike_id":"bc0cd962-74b5-47c7-ad00-7321b59a168f","system_id":"levelo_inurba_marseille","lat":43.27996,"lon":5.416624,"is_reserved":false,"is_disabled":false,"rental_uris":{"android":"levelo://app?vid=bc0cd962-74b5-47c7-ad00-7321b59a168f","ios":"levelo://app?vid=bc0cd962-74b5-47c7-ad00-7321b59a168f"},"vehicle_type_id":"4","last_reported":1687453537,"current_range_meters":14000,"station_id":"ce4bho12rcd13ifvqh1g","pricing_plan_id":"free"},{"bike_id":"1f6fa915-b063-407a-8572-bf49c8119dbb","system_id":"levelo_inurba_marseille","lat":43.26383,"lon":5.36821,"is_reserved":false,"is_disabled":false,"rental_uris":{"android":"levelo://app?vid=1f6fa915-b063-407a-8572-bf49c8119dbb","ios":"levelo://app?vid=1f6fa915-b063-407a-8572-bf49c8119dbb"},"vehicle_type_id":"4","last_reported":1687453537,"current_range_meters":28800,"station_id":"","pricing_plan_id":"free"},{"bike_id":"e2df8f47-3296-49d5-af54-d260f9eb2b8e","system_id":"levelo_inurba_marseille","lat":43.26407,"lon":5.37544,"is_reserved":false,"is_disabled":false,"rental_uris":{"android":"levelo://app?vid=e2df8f47-3296-49d5-af54-d260f9eb2b8e","ios":"levelo://app?vid=e2df8f47-3296-49d5-af54-d260f9eb2b8e"},"vehicle_type_id":"4","last_reported":1687453537,"current_range_meters":10400,"station_id":"","pricing_plan_id":"free"},{"bike_id":"49e298a6-7102-4bee-8738-3d6c888ac6d9","system_id":"levelo_inurba_marseille","lat":43.2684,"lon":5.39644,"is_reserved":false,"is_disabled":false,"rental_uris":{"android":"levelo://app?vid=49e298a6-7102-4bee-8738-3d6c888ac6d9","ios":"levelo://app?vid=49e298a6-7102-4bee-8738-3d6c888ac6d9"},"vehicle_type_id":"4","last_reported":1687453537,"current_range_meters":24400,"station_id":"","pricing_plan_id":"free"},{"bike_id":"eb6d7e53-3730-47b7-af49-9dc784f460f2","system_id":"levelo_inurba_marseille","lat":43.265569,"lon":5.390047,"is_reserved":false,"is_disabled":false,"rental_uris":{"android":"levelo://app?vid=eb6d7e53-3730-47b7-af49-9dc784f460f2","ios":"levelo://app?vid=eb6d7e53-3730-47b7-af49-9dc784f460f2"},"vehicle_type_id":"4","last_reported":1687453537,"current_range_meters":0,"station_id":"ce4bhe12rcd13ifvqf30","pricing_plan_id":"free"},{"bike_id":"d8e30885-0b8f-4fd4-b257-44c8eb12dc6b","system_id":"levelo_inurba_marseille","lat":43.30794,"lon":5.43527,"is_reserved":false,"is_disabled":false,"rental_uris":{"android":"levelo://app?vid=d8e30885-0b8f-4fd4-b257-44c8eb12dc6b","ios":"levelo://app?vid=d8e30885-0b8f-4fd4-b257-44c8eb12dc6b"},"vehicle_type_id":"4","last_reported":1687453537,"current_range_meters":16000,"station_id":"ce4bhph2rcd13ifvqheg","pricing_plan_id":"free"},{"bike_id":"59578f6c-2f4a-4e64-af05-62ded7ca0329","system_id":"levelo_inurba_marseille","lat":43.26236,"lon":5.3745,"is_reserved":false,"is_disabled":false,"rental_uris":{"android":"levelo://app?vid=59578f6c-2f4a-4e64-af05-62ded7ca0329","ios":"levelo://app?vid=59578f6c-2f4a-4e64-af05-62ded7ca0329"},"vehicle_type_id":"4","last_reported":1687453537,"current_range_meters":22400,"station_id":"ce4bhgp2rcd13ifvqfc0","pricing_plan_id":"free"},{"bike_id":"ce4d5d6c-70a7-48ca-86a4-f669e999232e","system_id":"levelo_inurba_marseille","lat":43.261782,"lon":5.374515,"is_reserved":false,"is_disabled":false,"rental_uris":{"android":"levelo://app?vid=ce4d5d6c-70a7-48ca-86a4-f669e999232e","ios":"levelo://app?vid=ce4d5d6c-70a7-48ca-86a4-f669e999232e"},"vehicle_type_id":"4","last_reported":1687453537,"current_range_meters":22000,"station_id":"ce4bhgp2rcd13ifvqfc0","pricing_plan_id":"free"},{"bike_id":"e29e61d7-f90b-469d-a054-f026108c07a1","system_id":"levelo_inurba_marseille","lat":43.261782,"lon":5.374515,"is_reserved":false,"is_disabled":false,"rental_uris":{"android":"levelo://app?vid=e29e61d7-f90b-469d-a054-f026108c07a1","ios":"levelo://app?vid=e29e61d7-f90b-469d-a054-f026108c07a1"},"vehicle_type_id":"4","last_reported":1687453537,"current_range_meters":2800,"station_id":"ce4bhgp2rcd13ifvqfc0","pricing_plan_id":"free"},{"bike_id":"77790c8e-efa0-4d6f-a0a6-6e8ffc63735f","system_id":"levelo_inurba_marseille","lat":43.261782,"lon":5.374515,"is_reserved":false,"is_disabled":false,"rental_uris":{"android":"levelo://app?vid=77790c8e-efa0-4d6f-a0a6-6e8ffc63735f","ios":"levelo://app?vid=77790c8e-efa0-4d6f-a0a6-6e8ffc63735f"},"vehicle_type_id":"4","last_reported":1687453537,"current_range_meters":22800,"station_id":"ce4bhgp2rcd13ifvqfc0","pricing_plan_id":"free"},{"bike_id":"08e91b5e-a692-45de-bf7d-90574b8a7057","system_id":"levelo_inurba_marseille","lat":43.261782,"lon":5.374515,"is_reserved":false,"is_disabled":false,"rental_uris":{"android":"levelo://app?vid=08e91b5e-a692-45de-bf7d-90574b8a7057","ios":"levelo://app?vid=08e91b5e-a692-45de-bf7d-90574b8a7057"},"vehicle_type_id":"4","last_reported":1687453537,"current_range_meters":31200,"station_id":"ce4bhgp2rcd13ifvqfc0","pricing_plan_id":"free"},{"bike_id":"df9db276-1be0-4e68-b1b1-dca783914649","system_id":"levelo_inurba_marseille","lat":43.261782,"lon":5.374515,"is_reserved":false,"is_disabled":false,"rental_uris":{"android":"levelo://app?vid=df9db276-1be0-4e68-b1b1-dca783914649","ios":"levelo://app?vid=df9db276-1be0-4e68-b1b1-dca783914649"},"vehicle_type_id":"4","last_reported":1687453537,"current_range_meters":25600,"station_id":"ce4bhgp2rcd13ifvqfc0","pricing_plan_id":"free"},{"bike_id":"2be8283d-bdd0-48ff-bb99-ebb39e5fa01b","system_id":"levelo_inurba_marseille","lat":43.261782,"lon":5.374515,"is_reserved":false,"is_disabled":false,"rental_uris":{"android":"levelo://app?vid=2be8283d-bdd0-48ff-bb99-ebb39e5fa01b","ios":"levelo://app?vid=2be8283d-bdd0-48ff-bb99-ebb39e5fa01b"},"vehicle_type_id":"4","last_reported":1687453537,"current_range_meters":26400,"station_id":"ce4bhgp2rcd13ifvqfc0","pricing_plan_id":"free"},{"bike_id":"32dce66c-0e79-4516-8a84-eef855791080","system_id":"levelo_inurba_marseille","lat":43.261782,"lon":5.374515,"is_reserved":false,"is_disabled":false,"rental_uris":{"android":"levelo://app?vid=32dce66c-0e79-4516-8a84-eef855791080","ios":"levelo://app?vid=32dce66c-0e79-4516-8a84-eef855791080"},"vehicle_type_id":"4","last_reported":1687453537,"current_range_meters":22800,"station_id":"ce4bhgp2rcd13ifvqfc0","pricing_plan_id":"free"},{"bike_id":"4ccfe268-fd0b-47ad-9ffc-155565470710","system_id":"levelo_inurba_marseille","lat":43.317104,"lon":5.436818,"is_reserved":false,"is_disabled":false,"rental_uris":{"android":"levelo://app?vid=4ccfe268-fd0b-47ad-9ffc-155565470710","ios":"levelo://app?vid=4ccfe268-fd0b-47ad-9ffc-155565470710"},"vehicle_type_id":"4","last_reported":1687453537,"current_range_meters":14800,"station_id":"ce4bhp92rcd13ifvqhcg","pricing_plan_id":"free"},{"bike_id":"6daa5c69-27b9-465f-acfa-003eec14ddbf","system_id":"levelo_inurba_marseille","lat":43.317104,"lon":5.436818,"is_reserved":false,"is_disabled":false,"rental_uris":{"android":"levelo://app?vid=6daa5c69-27b9-465f-acfa-003eec14ddbf","ios":"levelo://app?vid=6daa5c69-27b9-465f-acfa-003eec14ddbf"},"vehicle_type_id":"4","last_reported":1687453537,"current_range_meters":28400,"station_id":"ce4bhp92rcd13ifvqhcg","pricing_plan_id":"free"},{"bike_id":"add90cce-8100-4e1e-a8be-8cee1a9980fc","system_id":"levelo_inurba_marseille","lat":43.317104,"lon":5.436818,"is_reserved":false,"is_disabled":false,"rental_uris":{"android":"levelo://app?vid=add90cce-8100-4e1e-a8be-8cee1a9980fc","ios":"levelo://app?vid=add90cce-8100-4e1e-a8be-8cee1a9980fc"},"vehicle_type_id":"4","last_reported":1687453537,"current_range_meters":27200,"station_id":"ce4bhp92rcd13ifvqhcg","pricing_plan_id":"free"},{"bike_id":"c3660fd3-f8fc-4af2-a6e7-2f5a9afc8bb5","system_id":"levelo_inurba_marseille","lat":43.317104,"lon":5.436818,"is_reserved":false,"is_disabled":false,"rental_uris":{"android":"levelo://app?vid=c3660fd3-f8fc-4af2-a6e7-2f5a9afc8bb5","ios":"levelo://app?vid=c3660fd3-f8fc-4af2-a6e7-2f5a9afc8bb5"},"vehicle_type_id":"4","last_reported":1687453537,"current_range_meters":26400,"station_id":"ce4bhp92rcd13ifvqhcg","pricing_plan_id":"free"},{"bike_id":"c41192da-ad25-475d-9357-8e1f1b908702","system_id":"levelo_inurba_marseille","lat":43.317104,"lon":5.436818,"is_reserved":false,"is_disabled":false,"rental_uris":{"android":"levelo://app?vid=c41192da-ad25-475d-9357-8e1f1b908702","ios":"levelo://app?vid=c41192da-ad25-475d-9357-8e1f1b908702"},"vehicle_type_id":"4","last_reported":1687453537,"current_range_meters":4800,"station_id":"ce4bhp92rcd13ifvqhcg","pricing_plan_id":"free"},{"bike_id":"ac6db497-58d8-4809-be23-e38019ca39cc","system_id":"levelo_inurba_marseille","lat":43.317104,"lon":5.436818,"is_reserved":false,"is_disabled":false,"rental_uris":{"android":"levelo://app?vid=ac6db497-58d8-4809-be23-e38019ca39cc","ios":"levelo://app?vid=ac6db497-58d8-4809-be23-e38019ca39cc"},"vehicle_type_id":"4","last_reported":1687453537,"current_range_meters":25200,"station_id":"ce4bhp92rcd13ifvqhcg","pricing_plan_id":"free"},