{"last_updated":1748672010,"ttl":60,"version":"2.2","data":{"bikes":[{"bike_id":"d9f1f4d8-b422-476d-8100-627ece5eb5b8","system_id":"levelo_inurba_marseille","lat":43.289884,"lon":5.356093,"is_reserved":false,"is_disabled":true,"rental_uris":{"android":"levelo://app?vid=d9f1f4d8-b422-476d-8100-627ece5eb5b8","ios":"levelo://app?vid=d9f1f4d8-b422-476d-8100-627ece5eb5b8"},"vehicle_type_id":"4","last_reported":1748672010,"current_range_meters":2800,"station_id":"ce4bhb92rcd13ifvqen0","pricing_plan_id":"cebpf4jnsgd1na2vs0mg"},{"bike_id":"84c289c3-5a61-49df-ac38-0af140ddc578","system_id":"levelo_inurba_marseille","lat":43.30935,"lon":5.40143,"is_reserved":false,"is_disabled":false,"rental_uris":{"android":"levelo://app?vid=84c289c3-5a61-49df-ac38-0af140ddc578","ios":"levelo://app?vid=84c289c3-5a61-49df-ac38-0af140ddc578"},"vehicle_type_id":"4","last_reported":1748672010,"current_range_meters":2800,"station_id":"ce4bgvp2rcd13ifvqct0","pricing_plan_id":"cebpf4jnsgd1na2vs0mg"},{"bike_id":"ad393117-4263-4eff-9e0c-b3e4944d7867","system_id":"levelo_inurba_marseille","lat":43.2839,"lon":5.37518,"is_reserved":false,"is_disabled":false,"rental_uris":{"android":"levelo://app?vid=ad393117-4263-4eff-9e0c-b3e4944d7867","ios":"levelo://app?vid=ad393117-4263-4eff-9e0c-b3e4944d7867"},"vehicle_type_id":"4","last_reported":1748672010,"current_range_meters":3200,"station_id":"ce4bh412rcd13ifvqds0","pricing_plan_id":"cebpf4jnsgd1na2vs0mg"},{"bike_id":"784a945d-80c2-45aa-b87c-e407e4d2ae86","system_id":"levelo_inurba_marseille","lat":43.2707,"lon":5.4028,"is_reserved":false,"is_disabled":true,"rental_uris":{"android":"levelo://app?vid=784a945d-80c2-45aa-b87c-e407e4d2ae86","ios":"levelo://app?vid=784a945d-80c2-45aa-b87c-e407e4d2ae86"},"vehicle_type_id":"4","last_reported":1748672010,"current_range_meters":3200,"station_id":"ce4bhk92rcd13ifvqgc0","pricing_plan_id":"cebpf4jnsgd1na2vs0mg"},{"bike_id":"bfd3b341-01f6-4fef-bebe-7c1cb9bc6efa","system_id":"levelo_inurba_marseille","lat":43.27932,"lon":5.410489,"is_reserved":false,"is_disabled":false,"rental_uris":{"android":"levelo://app?vid=bfd3b341-01f6-4fef-bebe-7c1cb9bc6efa","ios":"levelo://app?vid=bfd3b341-01f6-4fef-bebe-7c1cb9bc6efa"},"vehicle_type_id":"4","last_reported":1748672010,"current_range_meters":3200,"station_id":"ce4bhnp2rcd13ifvqh0g","pricing_plan_id":"cebpf4jnsgd1na2vs0mg"},{"bike_id":"299bc464-0062-40b9-b8fd-94e53cb49a69","system_id":"levelo_inurba_marseille","lat":43.29641,"lon":5.36229,"is_reserved":false,"is_disabled":true,"rental_uris":{"android":"levelo://app?vid=299bc464-0062-40b9-b8fd-94e53cb49a69","ios":"levelo://app?vid=299bc464-0062-40b9-b8fd-94e53cb49a69"},"vehicle_type_id":"4","last_reported":1748672010,"current_range_meters":3600,"station_id":"","pricing_plan_id":"cebpf4jnsgd1na2vs0mg"},{"bike_id":"2981ae6d-848a-44c5-987d-c104168410fb","system_id":"levelo_inurba_marseille","lat":43.24172,"lon":5.364,"is_reserved":false,"is_disabled":true,"rental_uris":{"android":"levelo://app?vid=2981ae6d-848a-44c5-987d-c104168410fb","ios":"levelo://app?vid=2981ae6d-848a-44c5-987d-c104168410fb"},"vehicle_type_id":"4","last_reported":1748672010,"current_range_meters":4000,"station_id":"cpo36qri1sfpv3e86is0","pricing_plan_id":"cebpf4jnsgd1na2vs0mg"},{"bike_id":"36240f0a-66a2-43ec-8330-1f3a9d08cc7e","system_id":"levelo_inurba_marseille","lat":43.23898,"lon":5.36261,"is_reserved":false,"is_disabled":false,"rental_uris":{"android":"levelo://app?vid=36240f0a-66a2-43ec-8330-1f3a9d08cc7e","ios":"levelo://app?vid=36240f0a-66a2-43ec-8330-1f3a9d08cc7e"},"vehicle_type_id":"4","last_reported":1748672010,"current_range_meters":4000,"station_id":"","pricing_plan_id":"cebpf4jnsgd1na2vs0mg"},{"bike_id":"a24ed859-7ffe-447b-a280-957c836eb856","system_id":"levelo_inurba_marseille","lat":43.31348,"lon":5.37629,"is_reserved":false,"is_disabled":false,"rental_uris":{"android":"levelo://app?vid=a24ed859-7ffe-447b-a280-957c836eb856","ios":"levelo://app?vid=a24ed859-7ffe-447b-a280-957c836eb856"},"vehicle_type_id":"4","last_reported":1748672010,"current_range_meters":4000,"station_id":"","pricing_plan_id":"cebpf4jnsgd1na2vs0mg"},{"bike_id":"cab4f028-3927-4b81-9250-4d8c1ef42f75","system_id":"levelo_inurba_marseille","lat":43.30948,"lon":5.39026,"is_reserved":false,"is_disabled":false,"rental_uris":{"android":"levelo://app?vid=cab4f028-3927-4b81-9250-4d8c1ef42f75","ios":"levelo://app?vid=cab4f028-3927-4b81-9250-4d8c1ef42f75"},"vehicle_type_id":"4","last_reported":1748672010,"current_range_meters":4400,"station_id":"ce4bgup2rcd13ifvqco0","pricing_plan_id":"cebpf4jnsgd1na2vs0mg"},{"bike_id":"55080048-1445-433c-8653-9f436d843131","system_id":"levelo_inurba_marseille","lat":43.285101,"lon":5.369104,"is_reserved":false,"is_disabled":false,"rental_uris":{"android":"levelo://app?vid=55080048-1445-433c-8653-9f436d843131","ios":"levelo://app?vid=55080048-1445-433c-8653-9f436d843131"},"vehicle_type_id":"4","last_reported":1748672010,"current_range_meters":4800,"station_id":"","pricing_plan_id":"cebpf4jnsgd1na2vs0mg"},{"bike_id":"57211eca-7d2d-4a9c-8044-0308ba07cb42","system_id":"levelo_inurba_marseille","lat":43.28668,"lon":5.3868,"is_reserved":false,"is_disabled":false,"rental_uris":{"android":"levelo://app?vid=57211eca-7d2d-4a9c-8044-0308ba07cb42","ios":"levelo://app?vid=57211eca-7d2d-4a9c-8044-0308ba07cb42"},"vehicle_type_id":"4","last_reported":1748672010,"current_range_meters":4800,"station_id":"ce4bh492rcd13ifvqdug","pricing_plan_id":"cebpf4jnsgd1na2vs0mg"},{"bike_id":"d3acf747-44e1-476e-99b2-793d26598788","system_id":"levelo_inurba_marseille","lat":43.29164,"lon":5.37137,"is_reserved":false,"is_disabled":false,"rental_uris":{"android":"levelo://app?vid=d3acf747-44e1-476e-99b2-793d26598788","ios":"levelo://app?vid=d3acf747-44e1-476e-99b2-793d26598788"},"vehicle_type_id":"4","last_reported":1748672010,"current_range_meters":4800,"station_id":"ce4bha92rcd13ifvqeh0","pricing_plan_id":"cebpf4jnsgd1na2vs0mg"},{"bike_id":"5617527c-81f3-4d9b-a1fb-52b3a8e8ebda","system_id":"levelo_inurba_marseille","lat":43.23189,"lon":5.39984,"is_reserved":false,"is_disabled":false,"rental_uris":{"android":"levelo://app?vid=5617527c-81f3-4d9b-a1fb-52b3a8e8ebda","ios":"levelo://app?vid=5617527c-81f3-4d9b-a1fb-52b3a8e8ebda"},"vehicle_type_id":"4","last_reported":1748672010,"current_range_meters":4800,"station_id":"ce4bhn12rcd13ifvqgqg","pricing_plan_id":"cebpf4jnsgd1na2vs0mg"},{"bike_id":"67e46d2e-8189-4c2b-a145-15476257fed9","system_id":"levelo_inurba_marseille","lat":43.23142,"lon":5.43719,"is_reserved":false,"is_disabled":false,"rental_uris":{"android":"levelo://app?vid=67e46d2e-8189-4c2b-a145-15476257fed9","ios":"levelo://app?vid=67e46d2e-8189-4c2b-a145-15476257fed9"},"vehicle_type_id":"4","last_reported":1748672010,"current_range_meters":4800,"station_id":"ce4bhmp2rcd13ifvqgog","pricing_plan_id":"cebpf4jnsgd1na2vs0mg"},{"bike_id":"c40b5fb1-fb87-4a87-bbd6-c1f33aaedd7f","system_id":"levelo_inurba_marseille","lat":43.303719,"lon":5.424899,"is_reserved":false,"is_disabled":false,"rental_uris":{"android":"levelo://app?vid=c40b5fb1-fb87-4a87-bbd6-c1f33aaedd7f","ios":"levelo://app?vid=c40b5fb1-fb87-4a87-bbd6-c1f33aaedd7f"},"vehicle_type_id":"4","last_reported":1748672010,"current_range_meters":4800,"station_id":"ce4bhoh2rcd13ifvqh6g","pricing_plan_id":"cebpf4jnsgd1na2vs0mg"},{"bike_id":"a426f99b-d34a-41bf-bbda-59f7dfd6939b","system_id":"levelo_inurba_marseille","lat":43.255796,"lon":5.382262,"is_reserved":false,"is_disabled":true,"rental_uris":{"android":"levelo://app?vid=a426f99b-d34a-41bf-bbda-59f7dfd6939b","ios":"levelo://app?vid=a426f99b-d34a-41bf-bbda-59f7dfd6939b"},"vehicle_type_id":"4","last_reported":1748672010,"current_range_meters":5600,"station_id":"ce501612rcd8frsf0b60","pricing_plan_id":"cebpf4jnsgd1na2vs0mg"},{"bike_id":"120bfe28-237d-4914-8468-444c42382b49","system_id":"levelo_inurba_marseille","lat":43.28418,"lon":5.37516,"is_reserved":false,"is_disabled":false,"rental_uris":{"android":"levelo://app?vid=120bfe28-237d-4914-8468-444c42382b49","ios":"levelo://app?vid=120bfe28-237d-4914-8468-444c42382b49"},"vehicle_type_id":"4","last_reported":1748672010,"current_range_meters":5600,"station_id":"ce4bh412rcd13ifvqds0","pricing_plan_id":"cebpf4jnsgd1na2vs0mg"},{"bike_id":"00f77637-c960-45d0-b516-a2f6a0285858","system_id":"levelo_inurba_marseille","lat":43.29734,"lon":5.38545,"is_reserved":false,"is_disabled":false,"rental_uris":{"android":"levelo://app?vid=00f77637-c960-45d0-b516-a2f6a0285858","ios":"levelo://app?vid=00f77637-c960-45d0-b516-a2f6a0285858"},"vehicle_type_id":"4","last_reported":1748672010,"current_range_meters":5600,"station_id":"","pricing_plan_id":"cebpf4jnsgd1na2vs0mg"},{"bike_id":"e5d113e9-a907-4483-a607-193e3c6f0534","system_id":"levelo_inurba_marseille","lat":43.24165,"lon":5.36396,"is_reserved":false,"is_disabled":false,"rental_uris":{"android":"levelo://app?vid=e5d113e9-a907-4483-a607-193e3c6f0534","ios":"levelo://app?vid=e5d113e9-a907-4483-a607-193e3c6f0534"},"vehicle_type_id":"4","last_reported":1748672010,"current_range_meters":5600,"station_id":"cpo36qri1sfpv3e86is0","pricing_plan_id":"cebpf4jnsgd1na2vs0mg"},{"bike_id":"4a409268-ab2e-4de4-8d7b-4dc99d1f3c6d","system_id":"levelo_inurba_marseille","lat":43.308865,"lon":5.396259,"is_reserved":false,"is_disabled":false,"rental_uris":{"android":"levelo://app?vid=4a409268-ab2e-4de4-8d7b-4dc99d1f3c6d","ios":"levelo://app?vid=4a409268-ab2e-4de4-8d7b-4dc99d1f3c6d"},"vehicle_type_id":"4","last_reported":1748672010,"current_range_meters":5600,"station_id":"ce4bh012rcd13ifvqcv0","pricing_plan_id":"cebpf4jnsgd1na2vs0mg"},{"bike_id":"89ffc610-8c1d-49ab-a16f-8e7b4f049e54","system_id":"levelo_inurba_marseille","lat":43.23197,"lon":5.39985,"is_reserved":false,"is_disabled":false,"rental_uris":{"android":"levelo://app?vid=89ffc610-8c1d-49ab-a16f-8e7b4f049e54","ios":"levelo://app?vid=89ffc610-8c1d-49ab-a16f-8e7b4f049e54"},"vehicle_type_id":"4","last_reported":1748672010,"current_range_meters":5600,"station_id":"ce4bhn12rcd13ifvqgqg","pricing_plan_id":"cebpf4jnsgd1na2vs0mg"},{"bike_id":"446b01ec-d117-49a4-928c-61869c6f563e","system_id":"levelo_inurba_marseille","lat":43.27878,"lon":5.38016,"is_reserved":false,"is_disabled":true,"rental_uris":{"android":"levelo://app?vid=446b01ec-d117-49a4-928c-61869c6f563e","ios":"levelo://app?vid=446b01ec-d117-49a4-928c-61869c6f563e"},"vehicle_type_id":"4","last_reported":1748672010,"current_range_meters":6000,"station_id":"ce4bhf92rcd13ifvqf50","pricing_plan_id":"cebpf4jnsgd1na2vs0mg"},{"bike_id":"f5733814-9732-4748-bcc9-3b2fac8e1564","system_id":"levelo_inurba_marseille","lat":43.31256,"lon":5.37829,"is_reserved":false,"is_disabled":true,"rental_uris":{"android":"levelo://app?vid=f5733814-9732-4748-bcc9-3b2fac8e1564","ios":"levelo://app?vid=f5733814-9732-4748-bcc9-3b2fac8e1564"},"vehicle_type_id":"4","last_reported":1748672010,"current_range_meters":6000,"station_id":"","pricing_plan_id":"cebpf4jnsgd1na2vs0mg"},{"bike_id":"7546db83-a73c-4ad9-b687-9b9982e063ba","system_id":"levelo_inurba_marseille","lat":43.30469,"lon":5.37901,"is_reserved":false,"is_disabled":false,"rental_uris":{"android":"levelo://app?vid=7546db83-a73c-4ad9-b687-9b9982e063ba","ios":"levelo://app?vid=7546db83-a73c-4ad9-b687-9b9982e063ba"},"vehicle_type_id":"4","last_reported":1748672010,"current_range_meters":6000,"station_id":"ce4bgup2rcd13ifvqcn0","pricing_plan_id":"cebpf4jnsgd1na2vs0mg"},{"bike_id":"4e072d55-941c-40ec-8614-c3a0528abcd9","system_id":"levelo_inurba_marseille","lat":43.30881,"lon":5.39635,"is_reserved":false,"is_disabled":true,"rental_uris":{"android":"levelo://app?vid=4e072d55-941c-40ec-8614-c3a0528abcd9","ios":"levelo://app?vid=4e072d55-941c-40ec-8614-c3a0528abcd9"},"vehicle_type_id":"4","last_reported":1748672010,"current_range_meters":6400,"station_id":"","pricing_plan_id":"cebpf4jnsgd1na2vs0mg"},{"bike_id":"da5921cd-e75b-4ce7-b109-06c28f720590","system_id":"levelo_inurba_marseille","lat":43.28735,"lon":5.36169,"is_reserved":false,"is_disabled":false,"rental_uris":{"android":"levelo://app?vid=da5921cd-e75b-4ce7-b109-06c28f720590","ios":"levelo://app?vid=da5921cd-e75b-4ce7-b109-06c28f720590"},"vehicle_type_id":"4","last_reported":1748672010,"current_range_meters":6400,"station_id":"","pricing_plan_id":"cebpf4jnsgd1na2vs0mg"},{"bike_id":"21031023-e9bf-4bbd-8bdf-68435d59e07f","system_id":"levelo_inurba_marseille","lat":43.30799,"lon":5.38156,"is_reserved":false,"is_disabled":false,"rental_uris":{"android":"levelo://app?vid=21031023-e9bf-4bbd-8bdf-68435d59e07f","ios":"levelo://app?vid=21031023-e9bf-4bbd-8bdf-68435d59e07f"},"vehicle_type_id":"4","last_reported":1748672010,"current_range_meters":6400,"station_id":"ce4bgt12rcd13ifvqce0","pricing_plan_id":"cebpf4jnsgd1na2vs0mg"},{"bike_id":"8af5e327-fbf3-4fc0-8b8a-501df6d392b0","system_id":"levelo_inurba_marseille","lat":43.30928,"lon":5.40144,"is_reserved":false,"is_disabled":false,"rental_uris":{"android":"levelo://app?vid=8af5e327-fbf3-4fc0-8b8a-501df6d392b0","ios":"levelo://app?vid=8af5e327-fbf3-4fc0-8b8a-501df6d392b0"},"vehicle_type_id":"4","last_reported":1748672010,"current_range_meters":6400,"station_id":"ce4bgvp2rcd13ifvqct0","pricing_plan_id":"cebpf4jnsgd1na2vs0mg"},{"bike_id":"e9cda520-c6f4-465d-ad7f-8c059b3dc45a","system_id":"levelo_inurba_marseille","lat":43.313967,"lon":5.383993,"is_reserved":false,"is_disabled":true,"rental_uris":{"android":"levelo://app?vid=e9cda520-c6f4-465d-ad7f-8c059b3dc45a","ios":"levelo://app?vid=e9cda520-c6f4-465d-ad7f-8c059b3dc45a"},"vehicle_type_id":"4","last_reported":1748672010,"current_range_meters":6400,"station_id":"","pricing_plan_id":"cebpf4jnsgd1na2vs0mg"},{"bike_id":"a31656a4-5217-4c2d-91ea-e636b7cf9b1f","system_id":"levelo_inurba_marseille","lat":43.28551,"lon":5.38438,"is_reserved":false,"is_disabled":false,"rental_uris":{"android":"levelo://app?vid=a31656a4-5217-4c2d-91ea-e636b7cf9b1f","ios":"levelo://app?vid=a31656a4-5217-4c2d-91ea-e636b7cf9b1f"},"vehicle_type_id":"4","last_reported":1748672010,"current_range_meters":6400,"station_id":"","pricing_plan_id":"cebpf4jnsgd1na2vs0mg"},{"bike_id":"76768afa-d077-4547-93ad-f046b61798ce","system_id":"levelo_inurba_marseille","lat":43.30125,"lon":5.38777,"is_reserved":false,"is_disabled":false,"rental_uris":{"android":"levelo://app?vid=76768afa-d077-4547-93ad-f046b61798ce","ios":"levelo://app?vid=76768afa-d077-4547-93ad-f046b61798ce"},"vehicle_type_id":"4","last_reported":1748672010,"current_range_meters":6800,"station_id":"ce4bghh2rcd13ifvqb60","pricing_plan_id":"cebpf4jnsgd1na2vs0mg"},{"bike_id":"e6b12bfd-f775-4b2b-9935-89118103c136","system_id":"levelo_inurba_marseille","lat":43.270569,"lon":5.402703,"is_reserved":false,"is_disabled":false,"rental_uris":{"android":"levelo://app?vid=e6b12bfd-f775-4b2b-9935-89118103c136","ios":"levelo://app?vid=e6b12bfd-f775-4b2b-9935-89118103c136"},"vehicle_type_id":"4","last_reported":1748672010,"current_range_meters":6800,"station_id":"ce4bhk92rcd13ifvqgc0","pricing_plan_id":"cebpf4jnsgd1na2vs0mg"},{"bike_id":"4daa76ee-70d8-467d-9b2e-8b88ca01708c","system_id":"levelo_inurba_marseille","lat":43.27973,"lon":5.38733,"is_reserved":false,"is_disabled":false,"rental_uris":{"android":"levelo://app?vid=4daa76ee-70d8-467d-9b2e-8b88ca01708c","ios":"levelo://app?vid=4daa76ee-70d8-467d-9b2e-8b88ca01708c"},"vehicle_type_id":"4","last_reported":1748672010,"current_range_meters":6800,"station_id":"ce4bhg12rcd13ifvqf80","pricing_plan_id":"cebpf4jnsgd1na2vs0mg"},{"bike_id":"91194276-c829-42e5-a6ed-8393753c90e5","system_id":"levelo_inurba_marseille","lat":43.243981,"lon":5.370641,"is_reserved":false,"is_disabled":false,"rental_uris":{"android":"levelo://app?vid=91194276-c829-42e5-a6ed-8393753c90e5","ios":"levelo://app?vid=91194276-c829-42e5-a6ed-8393753c90e5"},"vehicle_type_id":"4","last_reported":1748672010,"current_range_meters":7200,"station_id":"ce4bhhh2rcd13ifvqfk0","pricing_plan_id":"cebpf4jnsgd1na2vs0mg"},{"bike_id":"cad99567-44b2-4a22-8fd6-658aac86f8e9","system_id":"levelo_inurba_marseille","lat":43.31126,"lon":5.37758,"is_reserved":false,"is_disabled":false,"rental_uris":{"android":"levelo://app?vid=cad99567-44b2-4a22-8fd6-658aac86f8e9","ios":"levelo://app?vid=cad99567-44b2-4a22-8fd6-658aac86f8e9"},"vehicle_type_id":"4","last_reported":1748672010,"current_range_meters":7200,"station_id":"ce4bgt92rcd13ifvqcg0","pricing_plan_id":"cebpf4jnsgd1na2vs0mg"},{"bike_id":"d451e630-8fd8-4701-9cd1-43ccfdcc67c9","system_id":"levelo_inurba_marseille","lat":43.315341,"lon":5.380363,"is_reserved":false,"is_disabled":false,"rental_uris":{"android":"levelo://app?vid=d451e630-8fd8-4701-9cd1-43ccfdcc67c9","ios":"levelo://app?vid=d451e630-8fd8-4701-9cd1-43ccfdcc67c9"},"vehicle_type_id":"4","last_reported":1748672010,"current_range_meters":8000,"station_id":"ce4bhsp2rcd13ifvqi50","pricing_plan_id":"cebpf4jnsgd1na2vs0mg"},{"bike_id":"7eef1f8f-5d95-4320-a013-277c66264c38","system_id":"levelo_inurba_marseille","lat":43.30933,"lon":5.40158,"is_reserved":false,"is_disabled":false,"rental_uris":{"android":"levelo://app?vid=7eef1f8f-5d95-4320-a013-277c66264c38","ios":"levelo://app?vid=7eef1f8f-5d95-4320-a013-277c66264c38"},"vehicle_type_id":"4","last_reported":1748672010,"current_range_meters":8000,"station_id":"ce4bgvp2rcd13ifvqct0","pricing_plan_id":"cebpf4jnsgd1na2vs0mg"},{"bike_id":"87e0bf49-7ca0-4436-a1a9-9a6d33d485c5","system_id":"levelo_inurba_marseille","lat":43.251125,"lon":5.403252,"is_reserved":false,"is_disabled":false,"rental_uris":{"android":"levelo://app?vid=87e0bf49-7ca0-4436-a1a9-9a6d33d485c5","ios":"levelo://app?vid=87e0bf49-7ca0-4436-a1a9-9a6d33d485c5"},"vehicle_type_id":"4","last_reported":1748672010,"current_range_meters":8000,"station_id":"ce4bhlh2rcd13ifvqgig","pricing_plan_id":"cebpf4jnsgd1na2vs0mg"},{"bike_id":"e80c2554-a5fd-4f6a-80de-c3bb2b4cc78a","system_id":"levelo_inurba_marseille","lat":43.25132,"lon":5.40318,"is_reserved":false,"is_disabled":false,"rental_uris":{"android":"levelo://app?vid=e80c2554-a5fd-4f6a-80de-c3bb2b4cc78a","ios":"levelo://app?vid=e80c2554-a5fd-4f6a-80de-c3bb2b4cc78a"},"vehicle_type_id":"4","last_reported":1748672010,"current_range_meters":8000,"station_id":"ce4bhlh2rcd13ifvqgig","pricing_plan_id":"cebpf4jnsgd1na2vs0mg"},{"bike_id":"764b93a0-026f-4bda-8b3f-829144a02e78","system_id":"levelo_inurba_marseille","lat":43.288396,"lon":5.393083,"is_reserved":false,"is_disabled":false,"rental_uris":{"android":"levelo://app?vid=764b93a0-026f-4bda-8b3f-829144a02e78","ios":"levelo://app?vid=764b93a0-026f-4bda-8b3f-829144a02e78"},"vehicle_type_id":"4","last_reported":1748672010,"current_range_meters":8000,"station_id":"ce4bh2p2rcd13ifvqdi0","pricing_plan_id":"cebpf4jnsgd1na2vs0mg"},{"bike_id":"1b178ea1-044a-4bf5-83e5-c6b8ba930547","system_id":"levelo_inurba_marseille","lat":43.27167,"lon":5.40978,"is_reserved":false,"is_disabled":false,"rental_uris":{"android":"levelo://app?vid=1b178ea1-044a-4bf5-83e5-c6b8ba930547","ios":"levelo://app?vid=1b178ea1-044a-4bf5-83e5-c6b8ba930547"},"vehicle_type_id":"4","last_reported":1748672010,"current_range_meters":8000,"station_id":"ce4bhl12rcd13ifvqgf0","pricing_plan_id":"cebpf4jnsgd1na2vs0mg"},{"bike_id":"f7005840-3fcb-440d-a899-0476f19bf267","system_id":"levelo_inurba_marseille","lat":43.28169,"lon":5.42654,"is_reserved":false,"is_disabled":false,"rental_uris":{"android":"levelo://app?vid=f7005840-3fcb-440d-a899-0476f19bf267","ios":"levelo://app?vid=f7005840-3fcb-440d-a899-0476f19bf267"},"vehicle_type_id":"4","last_reported":1748672010,"current_range_meters":8000,"station_id":"ce4bhnh2rcd13ifvqgug","pricing_plan_id":"cebpf4jnsgd1na2vs0mg"},{"bike_id":"5ba59787-5856-4e00-b5a8-729295275329","system_id":"levelo_inurba_marseille","lat":43.301395,"lon":5.398619,"is_reserved":false,"is_disabled":false,"rental_uris":{"android":"levelo://app?vid=5ba59787-5856-4e00-b5a8-729295275329","ios":"levelo://app?vid=5ba59787-5856-4e00-b5a8-729295275329"},"vehicle_type_id":"4","last_reported":1748672010,"current_range_meters":8000,"station_id":"ce4bh0h2rcd13ifvqd40","pricing_plan_id":"cebpf4jnsgd1na2vs0mg"},{"bike_id":"c361e603-1ecb-4610-ad2f-3e9e0c199f5c","system_id":"levelo_inurba_marseille","lat":43.296192,"lon":5.406138,"is_reserved":false,"is_disabled":false,"rental_uris":{"android":"levelo://app?vid=c361e603-1ecb-4610-ad2f-3e9e0c199f5c","ios":"levelo://app?vid=c361e603-1ecb-4610-ad2f-3e9e0c199f5c"},"vehicle_type_id":"4","last_reported":1748672010,"current_range_meters":8400,"station_id":"ce4bh0h2rcd13ifvqd60","pricing_plan_id":"cebpf4jnsgd1na2vs0mg"},{"bike_id":"12d62da4-222a-45d8-b6c1-33c37d93ebb4","system_id":"levelo_inurba_marseille","lat":43.29298,"lon":5.37459,"is_reserved":false,"is_disabled":false,"rental_uris":{"android":"levelo://app?vid=12d62da4-222a-45d8-b6c1-33c37d93ebb4","ios":"levelo://app?vid=12d62da4-222a-45d8-b6c1-33c37d93ebb4"},"vehicle_type_id":"4","last_reported":1748672010,"current_range_meters":8400,"station_id":"ce4bgi12rcd13ifvqb70","pricing_plan_id":"cebpf4jnsgd1na2vs0mg"},{"bike_id":"8345fba8-f53d-4169-9265-3aeb7405da51","system_id":"levelo_inurba_marseille","lat":43.297857,"lon":5.379337,"is_reserved":false,"is_disabled":false,"rental_uris":{"android":"levelo://app?vid=8345fba8-f53d-4169-9265-3aeb7405da51","ios":"levelo://app?vid=8345fba8-f53d-4169-9265-3aeb7405da51"},"vehicle_type_id":"4","last_reported":1748672010,"current_range_meters":8400,"station_id":"","pricing_plan_id":"cebpf4jnsgd1na2vs0mg"},{"bike_id":"a882f5db-172f-4f11-bf66-7e2c36364bb7","system_id":"levelo_inurba_marseille","lat":43.29547,"lon":5.42274,"is_reserved":false,"is_disabled":false,"rental_uris":{"android":"levelo://app?vid=a882f5db-172f-4f11-bf66-7e2c36364bb7","ios":"levelo://app?vid=a882f5db-172f-4f11-bf66-7e2c36364bb7"},"vehicle_type_id":"4","last_reported":1748672010,"current_range_meters":8400,"station_id":"ce4bhph2rcd13ifvqhdg","pricing_plan_id":"cebpf4jnsgd1na2vs0mg"},{"bike_id":"0280afc4-d6c7-45d5-9976-1c2b5d2fedd2","system_id":"levelo_inurba_marseille","lat":43.25105,"lon":5.40355,"is_reserved":false,"is_disabled":false,"rental_uris":{"android":"levelo://app?vid=0280afc4-d6c7-45d5-9976-1c2b5d2fedd2","ios":"levelo://app?vid=0280afc4-d6c7-45d5-9976-1c2b5d2fedd2"},"vehicle_type_id":"4","last_reported":1748672010,"current_range_meters":8400,"station_id":"ce4bhlh2rcd13ifvqgig","pricing_plan_id":"cebpf4jnsgd1na2vs0mg"},{"bike_id":"19290f31-a068-40ba-bbe8-ccf0933dee0a","system_id":"levelo_inurba_marseille","lat":43.27915,"lon":5.39567,"is_reserved":false,"is_disabled":false,"rental_uris":{"android":"levelo://app?vid=19290f31-a068-40ba-bbe8-ccf0933dee0a","ios":"levelo://app?vid=19290f31-a068-40ba-bbe8-ccf0933dee0a"},"vehicle_type_id":"4","last_reported":1748672010,"current_range_meters":8400,"station_id":"ce4bhf92rcd13ifvqf40","pricing_plan_id":"cebpf4jnsgd1na2vs0mg"},{"bike_id":"bc67d903-e210-4170-991c-8ed1e6b9a087","system_id":"levelo_inurba_marseille","lat":43.23178,"lon":5.39983,"is_reserved":false,"is_disabled":false,"rental_uris":{"android":"levelo://app?vid=bc67d903-e210-4170-991c-8ed1e6b9a087","ios":"levelo://app?vid=bc67d903-e210-4170-991c-8ed1e6b9a087"},"vehicle_type_id":"4","last_reported":1748672010,"current_range_meters":8400,"station_id":"ce4bhn12rcd13ifvqgqg","pricing_plan_id":"cebpf4jnsgd1na2vs0mg"},{"bike_id":"ade80f1c-1963-4723-aaac-612c2803ccad","system_id":"levelo_inurba_marseille","lat":43.276752,"lon":5.389351,"is_reserved":false,"is_disabled":false,"rental_uris":{"android":"levelo://app?vid=ade80f1c-1963-4723-aaac-612c2803ccad","ios":"levelo://app?vid=ade80f1c-1963-4723-aaac-612c2803ccad"},"vehicle_type_id":"4","last_reported":1748672010,"current_range_meters":8400,"station_id":"ce4bhi12rcd13ifvqfo0","pricing_plan_id":"cebpf4jnsgd1na2vs0mg"},{"bike_id":"3d36103b-c043-47dc-a225-42e79dcf6cf6","system_id":"levelo_inurba_marseille","lat":43.32297,"lon":5.38299,"is_reserved":false,"is_disabled":false,"rental_uris":{"android":"levelo://app?vid=3d36103b-c043-47dc-a225-42e79dcf6cf6","ios":"levelo://app?vid=3d36103b-c043-47dc-a225-42e79dcf6cf6"},"vehicle_type_id":"4","last_reported":1748672010,"current_range_meters":8400,"station_id":"ce4bhr12rcd13ifvqhqg","pricing_plan_id":"cebpf4jnsgd1na2vs0mg"},{"bike_id":"27c27f7c-cc94-4ae6-bd9c-006c9c12e356","system_id":"levelo_inurba_marseille","lat":43.28665,"lon":5.36348,"is_reserved":false,"is_disabled":false,"rental_uris":{"android":"levelo://app?vid=27c27f7c-cc94-4ae6-bd9c-006c9c12e356","ios":"levelo://app?vid=27c27f7c-cc94-4ae6-bd9c-006c9c12e356"},"vehicle_type_id":"4","last_reported":1748672010,"current_range_meters":8800,"station_id":"ce4bhah2rcd13ifvqej0","pricing_plan_id":"cebpf4jnsgd1na2vs0mg"},{"bike_id":"7243d7c8-02f5-4392-89cf-8c360e846d55","system_id":"levelo_inurba_marseille","lat":43.252754,"lon":5.378301,"is_reserved":false,"is_disabled":false,"rental_uris":{"android":"levelo://app?vid=7243d7c8-02f5-4392-89cf-8c360e846d55","ios":"levelo://app?vid=7243d7c8-02f5-4392-89cf-8c360e846d55"},"vehicle_type_id":"4","last_reported":1748672010,"current_range_meters":8800,"station_id":"","pricing_plan_id":"cebpf4jnsgd1na2vs0mg"},{"bike_id":"3e888504-26e1-40e9-ad34-9677d2701058","system_id":"levelo_inurba_marseille","lat":43.301287,"lon":5.387849,"is_reserved":false,"is_disabled":false,"rental_uris":{"android":"levelo://app?vid=3e888504-26e1-40e9-ad34-9677d2701058","ios":"levelo://app?vid=3e888504-26e1-40e9-ad34-9677d2701058"},"vehicle_type_id":"4","last_reported":1748672010,"current_range_meters":8800,"station_id":"ce4bghh2rcd13ifvqb60","pricing_plan_id":"cebpf4jnsgd1na2vs0mg"},{"bike_id":"b953c4ab-62d9-49e1-b582-366b8568892e","system_id":"levelo_inurba_marseille","lat":43.29257,"lon":5.4091,"is_reserved":false,"is_disabled":false,"rental_uris":{"android":"levelo://app?vid=b953c4ab-62d9-49e1-b582-366b8568892e","ios":"levelo://app?vid=b953c4ab-62d9-49e1-b582-366b8568892e"},"vehicle_type_id":"4","last_reported":1748672010,"current_range_meters":8800,"station_id":"ce4bh192rcd13ifvqdc0","pricing_plan_id":"cebpf4jnsgd1na2vs0mg"},{"bike_id":"e78029ce-9c30-47b4-9a13-758db556a2d7","system_id":"levelo_inurba_marseille","lat":43.27364,"lon":5.39334,"is_reserved":false,"is_disabled":false,"rental_uris":{"android":"levelo://app?vid=e78029ce-9c30-47b4-9a13-758db556a2d7","ios":"levelo://app?vid=e78029ce-9c30-47b4-9a13-758db556a2d7"},"vehicle_type_id":"4","last_reported":1748672010,"current_range_meters":8800,"station_id":"","pricing_plan_id":"cebpf4jnsgd1na2vs0mg"},{"bike_id":"11d5a3c3-b5c3-45ee-9c59-63e06770cf8b","system_id":"levelo_inurba_marseille","lat":43.251116,"lon":5.403442,"is_reserved":false,"is_disabled":false,"rental_uris":{"android":"levelo://app?vid=11d5a3c3-b5c3-45ee-9c59-63e06770cf8b","ios":"levelo://app?vid=11d5a3c3-b5c3-45ee-9c59-63e06770cf8b"},"vehicle_type_id":"4","last_reported":1748672010,"current_range_meters":8800,"station_id":"ce4bhlh2rcd13ifvqgig","pricing_plan_id":"cebpf4jnsgd1na2vs0mg"},{"bike_id":"18c1bc8d-773b-414a-b410-344762faee23","system_id":"levelo_inurba_marseille","lat":43.27185,"lon":5.40991,"is_reserved":false,"is_disabled":false,"rental_uris":{"android":"levelo://app?vid=18c1bc8d-773b-414a-b410-344762faee23","ios":"levelo://app?vid=18c1bc8d-773b-414a-b410-344762faee23"},"vehicle_type_id":"4","last_reported":1748672010,"current_range_meters":8800,"station_id":"ce4bhl12rcd13ifvqgf0","pricing_plan_id":"cebpf4jnsgd1na2vs0mg"},{"bike_id":"4dc07d80-e63c-43e9-9b6b-30ab182521fd","system_id":"levelo_inurba_marseille","lat":43.273113,"lon":5.391304,"is_reserved":false,"is_disabled":false,"rental_uris":{"android":"levelo://app?vid=4dc07d80-e63c-43e9-9b6b-30ab182521fd","ios":"levelo://app?vid=4dc07d80-e63c-43e9-9b6b-30ab182521fd"},"vehicle_type_id":"4","last_reported":1748672010,"current_range_meters":8800,"station_id":"ce4bhgp2rcd13ifvqfe0","pricing_plan_id":"cebpf4jnsgd1na2vs0mg"},{"bike_id":"7c13ed96-30cd-432a-aa83-16aba0b84be8","system_id":"levelo_inurba_marseille","lat":43.29031,"lon":5.39978,"is_reserved":false,"is_disabled":false,"rental_uris":{"android":"levelo://app?vid=7c13ed96-30cd-432a-aa83-16aba0b84be8","ios":"levelo://app?vid=7c13ed96-30cd-432a-aa83-16aba0b84be8"},"vehicle_type_id":"4","last_reported":1748672010,"current_range_meters":8800,"station_id":"ce4bh392rcd13ifvqdm0","pricing_plan_id":"cebpf4jnsgd1na2vs0mg"},{"bike_id":"ce96d62b-f211-41db-a166-1ccaa0fede80","system_id":"levelo_inurba_marseille","lat":43.278348,"lon":5.392099,"is_reserved":false,"is_disabled":false,"rental_uris":{"android":"levelo://app?vid=ce96d62b-f211-41db-a166-1ccaa0fede80","ios":"levelo://app?vid=ce96d62b-f211-41db-a166-1ccaa0fede80"},"vehicle_type_id":"4","last_reported":1748672010,"current_range_meters":8800,"station_id":"ce4bhjp2rcd13ifvqga0","pricing_plan_id":"cebpf4jnsgd1na2vs0mg"},{"bike_id":"1f7ebc70-8e15-4aea-adb3-010beac9c8f2","system_id":"levelo_inurba_marseille","lat":43.285635,"lon":5.394965,"is_reserved":false,"is_disabled":false,"rental_uris":{"android":"levelo://app?vid=1f7ebc70-8e15-4aea-adb3-010beac9c8f2","ios":"levelo://app?vid=1f7ebc70-8e15-4aea-adb3-010beac9c8f2"},"vehicle_type_id":"4","last_reported":1748672010,"current_range_meters":9200,"station_id":"ce4bh292rcd13ifvqdg0","pricing_plan_id":"cebpf4jnsgd1na2vs0mg"},{"bike_id":"662af0d9-b4f1-4513-bbd2-fd65be6229e5","system_id":"levelo_inurba_marseille","lat":43.259343,"lon":5.409036,"is_reserved":false,"is_disabled":false,"rental_uris":{"android":"levelo://app?vid=662af0d9-b4f1-4513-bbd2-fd65be6229e5","ios":"levelo://app?vid=662af0d9-b4f1-4513-bbd2-fd65be6229e5"},"vehicle_type_id":"4","last_reported":1748672010,"current_range_meters":9200,"station_id":"ce4bhm92rcd13ifvqglg","pricing_plan_id":"cebpf4jnsgd1na2vs0mg"},{"bike_id":"adec08ad-7cab-4b8d-984d-1616c13b6452","system_id":"levelo_inurba_marseille","lat":43.26929,"lon":5.40268,"is_reserved":false,"is_disabled":false,"rental_uris":{"android":"levelo://app?vid=adec08ad-7cab-4b8d-984d-1616c13b6452","ios":"levelo://app?vid=adec08ad-7cab-4b8d-984d-1616c13b6452"},"vehicle_type_id":"4","last_reported":1748672010,"current_range_meters":9200,"station_id":"cjm6bp8fraef2m0cb0m0","pricing_plan_id":"cebpf4jnsgd1na2vs0mg"},{"bike_id":"a807c8dd-75ce-4f49-b322-50ddd08ec8d0","system_id":"levelo_inurba_marseille","lat":43.347446,"lon":5.373245,"is_reserved":false,"is_disabled":false,"rental_uris":{"android":"levelo://app?vid=a807c8dd-75ce-4f49-b322-50ddd08ec8d0","ios":"levelo://app?vid=a807c8dd-75ce-4f49-b322-50ddd08ec8d0"},"vehicle_type_id":"4","last_reported":1748672010,"current_range_meters":9200,"station_id":"","pricing_plan_id":"cebpf4jnsgd1na2vs0mg"},{"bike_id":"450281c4-dd8e-4cdb-8826-f984e4208c33","system_id":"levelo_inurba_marseille","lat":43.25491,"lon":5.37686,"is_reserved":false,"is_disabled":false,"rental_uris":{"android":"levelo://app?vid=450281c4-dd8e-4cdb-8826-f984e4208c33","ios":"levelo://app?vid=450281c4-dd8e-4cdb-8826-f984e4208c33"},"vehicle_type_id":"4","last_reported":1748672010,"current_range_meters":9200,"station_id":"ce4bhh12rcd13ifvqff0","pricing_plan_id":"cebpf4jnsgd1na2vs0mg"},{"bike_id":"d42b65af-38ed-48b1-9f62-d79f47c848dd","system_id":"levelo_inurba_marseille","lat":43.240628,"lon":5.377621,"is_reserved":false,"is_disabled":false,"rental_uris":{"android":"levelo://app?vid=d42b65af-38ed-48b1-9f62-d79f47c848dd","ios":"levelo://app?vid=d42b65af-38ed-48b1-9f62-d79f47c848dd"},"vehicle_type_id":"4","last_reported":1748672010,"current_range_meters":9200,"station_id":"ce4bhnp2rcd13ifvqgvg","pricing_plan_id":"cebpf4jnsgd1na2vs0mg"},{"bike_id":"5a59c85a-af1a-46af-9f13-fc058b89bcbb","system_id":"levelo_inurba_marseille","lat":43.308809,"lon":5.3966,"is_reserved":false,"is_disabled":false,"rental_uris":{"android":"levelo://app?vid=5a59c85a-af1a-46af-9f13-fc058b89bcbb","ios":"levelo://app?vid=5a59c85a-af1a-46af-9f13-fc058b89bcbb"},"vehicle_type_id":"4","last_reported":1748672010,"current_range_meters":9200,"station_id":"ce4bh012rcd13ifvqcv0","pricing_plan_id":"cebpf4jnsgd1na2vs0mg"},{"bike_id":"b0a813a2-a736-4731-b710-9359c7d0beba","system_id":"levelo_inurba_marseille","lat":43.3093,"lon":5.40134,"is_reserved":false,"is_disabled":false,"rental_uris":{"android":"levelo://app?vid=b0a813a2-a736-4731-b710-9359c7d0beba","ios":"levelo://app?vid=b0a813a2-a736-4731-b710-9359c7d0beba"},"vehicle_type_id":"4","last_reported":1748672010,"current_range_meters":9200,"station_id":"ce4bgvp2rcd13ifvqct0","pricing_plan_id":"cebpf4jnsgd1na2vs0mg"},{"bike_id":"ec695b5d-b960-464b-94b1-b383014fd058","system_id":"levelo_inurba_marseille","lat":43.295103,"lon":5.394169,"is_reserved":false,"is_disabled":false,"rental_uris":{"android":"levelo://app?vid=ec695b5d-b960-464b-94b1-b383014fd058","ios":"levelo://app?vid=ec695b5d-b960-464b-94b1-b383014fd058"},"vehicle_type_id":"4","last_reported":1748672010,"current_range_meters":9600,"station_id":"ce4bh292rcd13ifvqdf0","pricing_plan_id":"cebpf4jnsgd1na2vs0mg"},{"bike_id":"d16f5222-3d1e-4d65-a992-1bc93f719178","system_id":"levelo_inurba_marseille","lat":43.30338,"lon":5.36568,"is_reserved":false,"is_disabled":false,"rental_uris":{"android":"levelo://app?vid=d16f5222-3d1e-4d65-a992-1bc93f719178","ios":"levelo://app?vid=d16f5222-3d1e-4d65-a992-1bc93f719178"},"vehicle_type_id":"4","last_reported":1748672010,"current_range_meters":9600,"station_id":"","pricing_plan_id":"cebpf4jnsgd1na2vs0mg"},{"bike_id":"ef4b8ede-1877-41db-b371-aa67fb983004","system_id":"levelo_inurba_marseille","lat":43.28088,"lon":5.37846,"is_reserved":false,"is_disabled":true,"rental_uris":{"android":"levelo://app?vid=ef4b8ede-1877-41db-b371-aa67fb983004","ios":"levelo://app?vid=ef4b8ede-1877-41db-b371-aa67fb983004"},"vehicle_type_id":"4","last_reported":1748672010,"current_range_meters":9600,"station_id":"ce4bha12rcd13ifvqee0","pricing_plan_id":"cebpf4jnsgd1na2vs0mg"},{"bike_id":"5b12dcba-f25f-45bb-b20e-261a677983da","system_id":"levelo_inurba_marseille","lat":43.286648,"lon":5.386714,"is_reserved":false,"is_disabled":false,"rental_uris":{"android":"levelo://app?vid=5b12dcba-f25f-45bb-b20e-261a677983da","ios":"levelo://app?vid=5b12dcba-f25f-45bb-b20e-261a677983da"},"vehicle_type_id":"4","last_reported":1748672010,"current_range_meters":9200,"station_id":"ce4bh492rcd13ifvqdug","pricing_plan_id":"cebpf4jnsgd1na2vs0mg"},{"bike_id":"9ee87dbe-3990-4764-9a6b-2020fac42886","system_id":"levelo_inurba_marseille","lat":43.32104,"lon":5.3677,"is_reserved":false,"is_disabled":false,"rental_uris":{"android":"levelo://app?vid=9ee87dbe-3990-4764-9a6b-2020fac42886","ios":"levelo://app?vid=9ee87dbe-3990-4764-9a6b-2020fac42886"},"vehicle_type_id":"4","last_reported":1748672010,"current_range_meters":9600,"station_id":"ce4bhrh2rcd13ifvqhug","pricing_plan_id":"cebpf4jnsgd1na2vs0mg"},{"bike_id":"b0200c1b-b66d-4346-bb99-0fa7af9fc6f4","system_id":"levelo_inurba_marseille","lat":43.30797,"lon":5.38156,"is_reserved":false,"is_disabled":false,"rental_uris":{"android":"levelo://app?vid=b0200c1b-b66d-4346-bb99-0fa7af9fc6f4","ios":"levelo://app?vid=b0200c1b-b66d-4346-bb99-0fa7af9fc6f4"},"vehicle_type_id":"4","last_reported":1748672010,"current_range_meters":9600,"station_id":"ce4bgt12rcd13ifvqce0","pricing_plan_id":"cebpf4jnsgd1na2vs0mg"},{"bike_id":"6cab2d10-7f2c-4dac-ba3d-4f103803cc6a","system_id":"levelo_inurba_marseille","lat":43.28924,"lon":5.38389,"is_reserved":false,"is_disabled":false,"rental_uris":{"android":"levelo://app?vid=6cab2d10-7f2c-4dac-ba3d-4f103803cc6a","ios":"levelo://app?vid=6cab2d10-7f2c-4dac-ba3d-4f103803cc6a"},"vehicle_type_id":"4","last_reported":1748672010,"current_range_meters":9600,"station_id":"ce4bh612rcd13ifvqe6g","pricing_plan_id":"cebpf4jnsgd1na2vs0mg"},{"bike_id":"76749e45-957b-40bb-9b95-4da7298a2cca","system_id":"levelo_inurba_marseille","lat":43.30447,"lon":5.38871,"is_reserved":false,"is_disabled":false,"rental_uris":{"android":"levelo://app?vid=76749e45-957b-40bb-9b95-4da7298a2cca","ios":"levelo://app?vid=76749e45-957b-40bb-9b95-4da7298a2cca"},"vehicle_type_id":"4","last_reported":1748672010,"current_range_meters":9600,"station_id":"ce4bgk12rcd13ifvqbi0","pricing_plan_id":"cebpf4jnsgd1na2vs0mg"},{"bike_id":"9483a7bd-846c-4c6e-a304-71a2f38946f5","system_id":"levelo_inurba_marseille","lat":43.27921,"lon":5.395868,"is_reserved":false,"is_disabled":false,"rental_uris":{"android":"levelo://app?vid=9483a7bd-846c-4c6e-a304-71a2f38946f5","ios":"levelo://app?vid=9483a7bd-846c-4c6e-a304-71a2f38946f5"},"vehicle_type_id":"4","last_reported":1748672010,"current_range_meters":9600,"station_id":"ce4bhf92rcd13ifvqf40","pricing_plan_id":"cebpf4jnsgd1na2vs0mg"},{"bike_id":"64a3d9b3-30f8-4a8c-b831-0d99a9fae7a2","system_id":"levelo_inurba_marseille","lat":43.316834,"lon":5.404887,"is_reserved":false,"is_disabled":false,"rental_uris":{"android":"levelo://app?vid=64a3d9b3-30f8-4a8c-b831-0d99a9fae7a2","ios":"levelo://app?vid=64a3d9b3-30f8-4a8c-b831-0d99a9fae7a2"},"vehicle_type_id":"4","last_reported":1748672010,"current_range_meters":9600,"station_id":"ce4bh012rcd13ifvqd00","pricing_plan_id":"cebpf4jnsgd1na2vs0mg"},{"bike_id":"1a2e83ad-5e33-4701-8ffa-ba7229e7b981","system_id":"levelo_inurba_marseille","lat":43.33482,"lon":5.39811,"is_reserved":false,"is_disabled":false,"rental_uris":{"android":"levelo://app?vid=1a2e83ad-5e33-4701-8ffa-ba7229e7b981","ios":"levelo://app?vid=1a2e83ad-5e33-4701-8ffa-ba7229e7b981"},"vehicle_type_id":"4","last_reported":1748672010,"current_range_meters":10000,"station_id":"","pricing_plan_id":"cebpf4jnsgd1na2vs0mg"},{"bike_id":"a672e2ce-ff65-491a-baf8-b5fcce4f4059","system_id":"levelo_inurba_marseille","lat":43.31711,"lon":5.39027,"is_reserved":false,"is_disabled":false,"rental_uris":{"android":"levelo://app?vid=a672e2ce-ff65-491a-baf8-b5fcce4f4059","ios":"levelo://app?vid=a672e2ce-ff65-491a-baf8-b5fcce4f4059"},"vehicle_type_id":"4","last_reported":1748672010,"current_range_meters":10000,"station_id":"","pricing_plan_id":"cebpf4jnsgd1na2vs0mg"},{"bike_id":"096bcb8f-5782-4c84-b1f3-295e2d91fe8f","system_id":"levelo_inurba_marseille","lat":43.292553,"lon":5.409042,"is_reserved":false,"is_disabled":false,"rental_uris":{"android":"levelo://app?vid=096bcb8f-5782-4c84-b1f3-295e2d91fe8f","ios":"levelo://app?vid=096bcb8f-5782-4c84-b1f3-295e2d91fe8f"},"vehicle_type_id":"4","last_reported":1748672010,"current_range_meters":10000,"station_id":"ce4bh192rcd13ifvqdc0","pricing_plan_id":"cebpf4jnsgd1na2vs0mg"},{"bike_id":"4d34136e-c054-46d5-b30d-67814032cd9e","system_id":"levelo_inurba_marseille","lat":43.24072,"lon":5.37753,"is_reserved":false,"is_disabled":false,"rental_uris":{"android":"levelo://app?vid=4d34136e-c054-46d5-b30d-67814032cd9e","ios":"levelo://app?vid=4d34136e-c054-46d5-b30d-67814032cd9e"},"vehicle_type_id":"4","last_reported":1748672010,"current_range_meters":10000,"station_id":"ce4bhnp2rcd13ifvqgvg","pricing_plan_id":"cebpf4jnsgd1na2vs0mg"},{"bike_id":"bac667cf-137e-4ea7-b037-7ebd6a2ad77c","system_id":"levelo_inurba_marseille","lat":43.28247,"lon":5.35035,"is_reserved":false,"is_disabled":false,"rental_uris":{"android":"levelo://app?vid=bac667cf-137e-4ea7-b037-7ebd6a2ad77c","ios":"levelo://app?vid=bac667cf-137e-4ea7-b037-7ebd6a2ad77c"},"vehicle_type_id":"4","last_reported":1748672010,"current_range_meters":10000,"station_id":"ce4bhbp2rcd13ifvqerg","pricing_plan_id":"cebpf4jnsgd1na2vs0mg"},{"bike_id":"450e9972-bb91-4ba5-b623-1d322f56783c","system_id":"levelo_inurba_marseille","lat":43.30947,"lon":5.39027,"is_reserved":false,"is_disabled":false,"rental_uris":{"android":"levelo://app?vid=450e9972-bb91-4ba5-b623-1d322f56783c","ios":"levelo://app?vid=450e9972-bb91-4ba5-b623-1d322f56783c"},"vehicle_type_id":"4","last_reported":1748672010,"current_range_meters":9600,"station_id":"ce4bgup2rcd13ifvqco0","pricing_plan_id":"cebpf4jnsgd1na2vs0mg"},{"bike_id":"008a8b5c-da32-426f-bdcf-6db4c9f404d8","system_id":"levelo_inurba_marseille","lat":43.22936,"lon":5.35381,"is_reserved":false,"is_disabled":false,"rental_uris":{"android":"levelo://app?vid=008a8b5c-da32-426f-bdcf-6db4c9f404d8","ios":"levelo://app?vid=008a8b5c-da32-426f-bdcf-6db4c9f404d8"},"vehicle_type_id":"4","last_reported":1748672010,"current_range_meters":10000,"station_id":"cpo3532slgdg3j2ikp40","pricing_plan_id":"cebpf4jnsgd1na2vs0mg"},{"bike_id":"72b23615-0b78-4a19-8c4c-ff25f55f5ef9","system_id":"levelo_inurba_marseille","lat":43.274919,"lon":5.424594,"is_reserved":false,"is_disabled":false,"rental_uris":{"android":"levelo://app?vid=72b23615-0b78-4a19-8c4c-ff25f55f5ef9","ios":"levelo://app?vid=72b23615-0b78-4a19-8c4c-ff25f55f5ef9"},"vehicle_type_id":"4","last_reported":1748672010,"current_range_meters":10000,"station_id":"ce4bhn92rcd13ifvqgrg","pricing_plan_id":"cebpf4jnsgd1na2vs0mg"},{"bike_id":"0f75b52a-5f09-4209-96f9-73d4dfcbc3c5","system_id":"levelo_inurba_marseille","lat":43.27371,"lon":5.3622,"is_reserved":false,"is_disabled":false,"rental_uris":{"android":"levelo://app?vid=0f75b52a-5f09-4209-96f9-73d4dfcbc3c5","ios":"levelo://app?vid=0f75b52a-5f09-4209-96f9-73d4dfcbc3c5"},"vehicle_type_id":"4","last_reported":1748672010,"current_range_meters":10000,"station_id":"ce4bhbh2rcd13ifvqeo0","pricing_plan_id":"cebpf4jnsgd1na2vs0mg"},{"bike_id":"ab9f7d19-a535-4e63-92fa-4b8de3aebc0a","system_id":"levelo_inurba_marseille","lat":43.30779,"lon":5.37642,"is_reserved":false,"is_disabled":false,"rental_uris":{"android":"levelo://app?vid=ab9f7d19-a535-4e63-92fa-4b8de3aebc0a","ios":"levelo://app?vid=ab9f7d19-a535-4e63-92fa-4b8de3aebc0a"},"vehicle_type_id":"4","last_reported":1748672010,"current_range_meters":10800,"station_id":"ce4bgv92rcd13ifvqcq0","pricing_plan_id":"cebpf4jnsgd1na2vs0mg"},{"bike_id":"dfa43c4c-7c06-4ef3-bc0f-2418c1a843e8","system_id":"levelo_inurba_marseille","lat":43.24211,"lon":5.39799,"is_reserved":false,"is_disabled":false,"rental_uris":{"android":"levelo://app?vid=dfa43c4c-7c06-4ef3-bc0f-2418c1a843e8","ios":"levelo://app?vid=dfa43c4c-7c06-4ef3-bc0f-2418c1a843e8"},"vehicle_type_id":"4","last_reported":1748672010,"current_range_meters":10800,"station_id":"ce4bhn12rcd13ifvqgpg","pricing_plan_id":"cebpf4jnsgd1na2vs0mg"},{"bike_id":"b601bd0b-d384-4fb2-9e4d-ad2cc6a1b992","system_id":"levelo_inurba_marseille","lat":43.23283,"lon":5.36119,"is_reserved":false,"is_disabled":false,"rental_uris":{"android":"levelo://app?vid=b601bd0b-d384-4fb2-9e4d-ad2cc6a1b992","ios":"levelo://app?vid=b601bd0b-d384-4fb2-9e4d-ad2cc6a1b992"},"vehicle_type_id":"4","last_reported":1748672010,"current_range_meters":10800,"station_id":"","pricing_plan_id":"cebpf4jnsgd1na2vs0mg"},{"bike_id":"baa9ae91-cf2b-4902-bc78-4d8c41a40b35","system_id":"levelo_inurba_marseille","lat":43.265521,"lon":5.390237,"is_reserved":false,"is_disabled":false,"rental_uris":{"android":"levelo://app?vid=baa9ae91-cf2b-4902-bc78-4d8c41a40b35","ios":"levelo://app?vid=baa9ae91-cf2b-4902-bc78-4d8c41a40b35"},"vehicle_type_id":"4","last_reported":1748672010,"current_range_meters":10800,"station_id":"ce4bhe12rcd13ifvqf30","pricing_plan_id":"cebpf4jnsgd1na2vs0mg"},{"bike_id":"dd34afa2-f665-4263-85a8-7de7dbd3a196","system_id":"levelo_inurba_marseille","lat":43.27623,"lon":5.39711,"is_reserved":false,"is_disabled":false,"rental_uris":{"android":"levelo://app?vid=dd34afa2-f665-4263-85a8-7de7dbd3a196","ios":"levelo://app?vid=dd34afa2-f665-4263-85a8-7de7dbd3a196"},"vehicle_type_id":"4","last_reported":1748672010,"current_range_meters":10800,"station_id":"","pricing_plan_id":"cebpf4jnsgd1na2vs0mg"},{"bike_id":"7fa0e9c2-571e-4491-9879-e641683c80c0","system_id":"levelo_inurba_marseille","lat":43.30216,"lon":5.39466,"is_reserved":false,"is_disabled":false,"rental_uris":{"android":"levelo://app?vid=7fa0e9c2-571e-4491-9879-e641683c80c0","ios":"levelo://app?vid=7fa0e9c2-571e-4491-9879-e641683c80c0"},"vehicle_type_id":"4","last_reported":1748672010,"current_range_meters":10800,"station_id":"ce4bh0p2rcd13ifvqd70","pricing_plan_id":"cebpf4jnsgd1na2vs0mg"},{"bike_id":"95cd80fa-c2e5-401c-95da-632e1df7bbde","system_id":"levelo_inurba_marseille","lat":43.231599,"lon":5.437166,"is_reserved":false,"is_disabled":false,"rental_uris":{"android":"levelo://app?vid=95cd80fa-c2e5-401c-95da-632e1df7bbde","ios":"levelo://app?vid=95cd80fa-c2e5-401c-95da-632e1df7bbde"},"vehicle_type_id":"4","last_reported":1748672010,"current_range_meters":11200,"station_id":"ce4bhmp2rcd13ifvqgog","pricing_plan_id":"cebpf4jnsgd1na2vs0mg"},{"bike_id":"2a4523fc-95e2-47a9-86d5-57561b8b5b1a","system_id":"levelo_inurba_marseille","lat":43.302481,"lon":5.40074,"is_reserved":false,"is_disabled":false,"rental_uris":{"android":"levelo://app?vid=2a4523fc-95e2-47a9-86d5-57561b8b5b1a","ios":"levelo://app?vid=2a4523fc-95e2-47a9-86d5-57561b8b5b1a"},"vehicle_type_id":"4","last_reported":1748672010,"current_range_meters":11200,"station_id":"ce4bgvh2rcd13ifvqcs0","pricing_plan_id":"cebpf4jnsgd1na2vs0mg"},{"bike_id":"8d48119e-760e-4c00-b401-59af0a322afa","system_id":"levelo_inurba_marseille","lat":43.25657,"lon":5.40834,"is_reserved":false,"is_disabled":false,"rental_uris":{"android":"levelo://app?vid=8d48119e-760e-4c00-b401-59af0a322afa","ios":"levelo://app?vid=8d48119e-760e-4c00-b401-59af0a322afa"},"vehicle_type_id":"4","last_reported":1748672010,"current_range_meters":11200,"station_id":"","pricing_plan_id":"cebpf4jnsgd1na2vs0mg"},{"bike_id":"6b5f4852-177e-4567-ae76-6705d14c17b3","system_id":"levelo_inurba_marseille","lat":43.279198,"lon":5.395882,"is_reserved":false,"is_disabled":false,"rental_uris":{"android":"levelo://app?vid=6b5f4852-177e-4567-ae76-6705d14c17b3","ios":"levelo://app?vid=6b5f4852-177e-4567-ae76-6705d14c17b3"},"vehicle_type_id":"4","last_reported":1748672010,"current_range_meters":11200,"station_id":"ce4bhf92rcd13ifvqf40","pricing_plan_id":"cebpf4jnsgd1na2vs0mg"},{"bike_id":"afd00684-2901-4ae3-82f8-1e79ae0a4d94","system_id":"levelo_inurba_marseille","lat":43.25101,"lon":5.4033,"is_reserved":false,"is_disabled":false,"rental_uris":{"android":"levelo://app?vid=afd00684-2901-4ae3-82f8-1e79ae0a4d94","ios":"levelo://app?vid=afd00684-2901-4ae3-82f8-1e79ae0a4d94"},"vehicle_type_id":"4","last_reported":1748672010,"current_range_meters":11200,"station_id":"ce4bhlh2rcd13ifvqgig","pricing_plan_id":"cebpf4jnsgd1na2vs0mg"},{"bike_id":"b18036e4-cdbb-441f-a4f1-99c9cdbece34","system_id":"levelo_inurba_marseille","lat":43.294958,"lon":5.390774,"is_reserved":false,"is_disabled":false,"rental_uris":{"android":"levelo://app?vid=b18036e4-cdbb-441f-a4f1-99c9cdbece34","ios":"levelo://app?vid=b18036e4-cdbb-441f-a4f1-99c9cdbece34"},"vehicle_type_id":"4","last_reported":1748672010,"current_range_meters":11200,"station_id":"ce4bh3p2rcd13ifvqdp0","pricing_plan_id":"cebpf4jnsgd1na2vs0mg"},{"bike_id":"471c034b-5235-4a7f-9792-d208210affb2","system_id":"levelo_inurba_marseille","lat":43.30892,"lon":5.39633,"is_reserved":false,"is_disabled":true,"rental_uris":{"android":"levelo://app?vid=471c034b-5235-4a7f-9792-d208210affb2","ios":"levelo://app?vid=471c034b-5235-4a7f-9792-d208210affb2"},"vehicle_type_id":"4","last_reported":1748672010,"current_range_meters":11600,"station_id":"ce4bh012rcd13ifvqcv0","pricing_plan_id":"cebpf4jnsgd1na2vs0mg"},{"bike_id":"690211e0-f783-451c-ae00-de6d4dcd55a3","system_id":"levelo_inurba_marseille","lat":43.28475,"lon":5.38429,"is_reserved":false,"is_disabled":true,"rental_uris":{"android":"levelo://app?vid=690211e0-f783-451c-ae00-de6d4dcd55a3","ios":"levelo://app?vid=690211e0-f783-451c-ae00-de6d4dcd55a3"},"vehicle_type_id":"4","last_reported":1748672010,"current_range_meters":11600,"station_id":"ce4bh512rcd13ifvqe3g","pricing_plan_id":"cebpf4jnsgd1na2vs0mg"},{"bike_id":"d6d1ada7-d095-4848-a9c7-71d520f6d868","system_id":"levelo_inurba_marseille","lat":43.299666,"lon":5.384894,"is_reserved":false,"is_disabled":false,"rental_uris":{"android":"levelo://app?vid=d6d1ada7-d095-4848-a9c7-71d520f6d868","ios":"levelo://app?vid=d6d1ada7-d095-4848-a9c7-71d520f6d868"},"vehicle_type_id":"4","last_reported":1748672010,"current_range_meters":11600,"station_id":"","pricing_plan_id":"cebpf4jnsgd1na2vs0mg"},{"bike_id":"71930e17-fe3c-443f-b621-4d725e50390f","system_id":"levelo_inurba_marseille","lat":43.33721,"lon":5.3918,"is_reserved":false,"is_disabled":false,"rental_uris":{"android":"levelo://app?vid=71930e17-fe3c-443f-b621-4d725e50390f","ios":"levelo://app?vid=71930e17-fe3c-443f-b621-4d725e50390f"},"vehicle_type_id":"4","last_reported":1748672010,"current_range_meters":11600,"station_id":"ce4bhr92rcd13ifvqhsg","pricing_plan_id":"cebpf4jnsgd1na2vs0mg"},{"bike_id":"ecc45c88-b0cd-460f-8a38-017c201f8231","system_id":"levelo_inurba_marseille","lat":43.27377,"lon":5.3625,"is_reserved":false,"is_disabled":true,"rental_uris":{"android":"levelo://app?vid=ecc45c88-b0cd-460f-8a38-017c201f8231","ios":"levelo://app?vid=ecc45c88-b0cd-460f-8a38-017c201f8231"},"vehicle_type_id":"4","last_reported":1748672010,"current_range_meters":11600,"station_id":"ce4bhbh2rcd13ifvqeo0","pricing_plan_id":"cebpf4jnsgd1na2vs0mg"},{"bike_id":"d77062c8-4d79-4154-9602-9c669060f316","system_id":"levelo_inurba_marseille","lat":43.2892,"lon":5.38388,"is_reserved":false,"is_disabled":false,"rental_uris":{"android":"levelo://app?vid=d77062c8-4d79-4154-9602-9c669060f316","ios":"levelo://app?vid=d77062c8-4d79-4154-9602-9c669060f316"},"vehicle_type_id":"4","last_reported":1748672010,"current_range_meters":11600,"station_id":"ce4bh612rcd13ifvqe6g","pricing_plan_id":"cebpf4jnsgd1na2vs0mg"},{"bike_id":"f86183e6-3897-41a1-97fc-4d508dda07c1","system_id":"levelo_inurba_marseille","lat":43.31324,"lon":5.39707,"is_reserved":false,"is_disabled":false,"rental_uris":{"android":"levelo://app?vid=f86183e6-3897-41a1-97fc-4d508dda07c1","ios":"levelo://app?vid=f86183e6-3897-41a1-97fc-4d508dda07c1"},"vehicle_type_id":"4","last_reported":1748672010,"current_range_meters":12000,"station_id":"ce4bgvp2rcd13ifvqcu0","pricing_plan_id":"cebpf4jnsgd1na2vs0mg"},{"bike_id":"1c97e8db-e304-4244-bb2d-5629af62c239","system_id":"levelo_inurba_marseille","lat":43.306467,"lon":5.400933,"is_reserved":false,"is_disabled":false,"rental_uris":{"android":"levelo://app?vid=1c97e8db-e304-4244-bb2d-5629af62c239","ios":"levelo://app?vid=1c97e8db-e304-4244-bb2d-5629af62c239"},"vehicle_type_id":"4","last_reported":1748672010,"current_range_meters":12400,"station_id":"ce4bh112rcd13ifvqda0","pricing_plan_id":"cebpf4jnsgd1na2vs0mg"},{"bike_id":"893cccc3-5573-41c4-a76f-851cbc7df082","system_id":"levelo_inurba_marseille","lat":43.30926,"lon":5.40158,"is_reserved":false,"is_disabled":false,"rental_uris":{"android":"levelo://app?vid=893cccc3-5573-41c4-a76f-851cbc7df082","ios":"levelo://app?vid=893cccc3-5573-41c4-a76f-851cbc7df082"},"vehicle_type_id":"4","last_reported":1748672010,"current_range_meters":12400,"station_id":"ce4bgvp2rcd13ifvqct0","pricing_plan_id":"cebpf4jnsgd1na2vs0mg"},{"bike_id":"6dbec55b-fee0-4a3a-9ed2-723f9ae1c783","system_id":"levelo_inurba_marseille","lat":43.299002,"lon":5.436688,"is_reserved":false,"is_disabled":true,"rental_uris":{"android":"levelo://app?vid=6dbec55b-fee0-4a3a-9ed2-723f9ae1c783","ios":"levelo://app?vid=6dbec55b-fee0-4a3a-9ed2-723f9ae1c783"},"vehicle_type_id":"4","last_reported":1748672010,"current_range_meters":12400,"station_id":"ce4bhpp2rcd13ifvqhfg","pricing_plan_id":"cebpf4jnsgd1na2vs0mg"},{"bike_id":"0e97d786-0303-4316-bf82-e5d1d50d210f","system_id":"levelo_inurba_marseille","lat":43.29279,"lon":5.4011,"is_reserved":false,"is_disabled":false,"rental_uris":{"android":"levelo://app?vid=0e97d786-0303-4316-bf82-e5d1d50d210f","ios":"levelo://app?vid=0e97d786-0303-4316-bf82-e5d1d50d210f"},"vehicle_type_id":"4","last_reported":1748672010,"current_range_meters":12400,"station_id":"ce4bh312rcd13ifvqdk0","pricing_plan_id":"cebpf4jnsgd1na2vs0mg"},{"bike_id":"b35fd950-24e0-465e-96d1-082254f22158","system_id":"levelo_inurba_marseille","lat":43.278272,"lon":5.392003,"is_reserved":false,"is_disabled":false,"rental_uris":{"android":"levelo://app?vid=b35fd950-24e0-465e-96d1-082254f22158","ios":"levelo://app?vid=b35fd950-24e0-465e-96d1-082254f22158"},"vehicle_type_id":"4","last_reported":1748672010,"current_range_meters":12400,"station_id":"ce4bhjp2rcd13ifvqga0","pricing_plan_id":"cebpf4jnsgd1na2vs0mg"},{"bike_id":"5986ce22-08ff-4b34-9b83-a2440ce2767f","system_id":"levelo_inurba_marseille","lat":43.311,"lon":5.37756,"is_reserved":false,"is_disabled":false,"rental_uris":{"android":"levelo://app?vid=5986ce22-08ff-4b34-9b83-a2440ce2767f","ios":"levelo://app?vid=5986ce22-08ff-4b34-9b83-a2440ce2767f"},"vehicle_type_id":"4","last_reported":1748672010,"current_range_meters":12400,"station_id":"ce4bgt92rcd13ifvqcg0","pricing_plan_id":"cebpf4jnsgd1na2vs0mg"},{"bike_id":"0d3bab2f-26cf-41f1-82dd-bb5db963b288","system_id":"levelo_inurba_marseille","lat":43.324757,"lon":5.36587,"is_reserved":false,"is_disabled":false,"rental_uris":{"android":"levelo://app?vid=0d3bab2f-26cf-41f1-82dd-bb5db963b288","ios":"levelo://app?vid=0d3bab2f-26cf-41f1-82dd-bb5db963b288"},"vehicle_type_id":"4","last_reported":1748672010,"current_range_meters":12400,"station_id":"ce4bhs12rcd13ifvqhvg","pricing_plan_id":"cebpf4jnsgd1na2vs0mg"},{"bike_id":"f33277d8-b777-4a21-9687-b673d980ff1d","system_id":"levelo_inurba_marseille","lat":43.30207,"lon":5.39463,"is_reserved":false,"is_disabled":false,"rental_uris":{"android":"levelo://app?vid=f33277d8-b777-4a21-9687-b673d980ff1d","ios":"levelo://app?vid=f33277d8-b777-4a21-9687-b673d980ff1d"},"vehicle_type_id":"4","last_reported":1748672010,"current_range_meters":12400,"station_id":"ce4bh0p2rcd13ifvqd70","pricing_plan_id":"cebpf4jnsgd1na2vs0mg"},{"bike_id":"3d915d17-e2da-43e7-bf1d-42c0a7798ce1","system_id":"levelo_inurba_marseille","lat":43.28853,"lon":5.39342,"is_reserved":false,"is_disabled":false,"rental_uris":{"android":"levelo://app?vid=3d915d17-e2da-43e7-bf1d-42c0a7798ce1","ios":"levelo://app?vid=3d915d17-e2da-43e7-bf1d-42c0a7798ce1"},"vehicle_type_id":"4","last_reported":1748672010,"current_range_meters":12400,"station_id":"ce4bh2p2rcd13ifvqdi0","pricing_plan_id":"cebpf4jnsgd1na2vs0mg"},{"bike_id":"4eb27fe7-2925-45a1-b43c-b8c44fea6a4a","system_id":"levelo_inurba_marseille","lat":43.31079,"lon":5.42437,"is_reserved":false,"is_disabled":false,"rental_uris":{"android":"levelo://app?vid=4eb27fe7-2925-45a1-b43c-b8c44fea6a4a","ios":"levelo://app?vid=4eb27fe7-2925-45a1-b43c-b8c44fea6a4a"},"vehicle_type_id":"4","last_reported":1748672010,"current_range_meters":12800,"station_id":"ce4bhp92rcd13ifvqhag","pricing_plan_id":"cebpf4jnsgd1na2vs0mg"},{"bike_id":"bbf25ded-718e-41f5-8ebc-a2000cac04a7","system_id":"levelo_inurba_marseille","lat":43.30776,"lon":5.38159,"is_reserved":false,"is_disabled":false,"rental_uris":{"android":"levelo://app?vid=bbf25ded-718e-41f5-8ebc-a2000cac04a7","ios":"levelo://app?vid=bbf25ded-718e-41f5-8ebc-a2000cac04a7"},"vehicle_type_id":"4","last_reported":1748672010,"current_range_meters":12800,"station_id":"ce4bgt12rcd13ifvqce0","pricing_plan_id":"cebpf4jnsgd1na2vs0mg"},{"bike_id":"643f3571-f606-41db-9f1f-cf8ceb872bd9","system_id":"levelo_inurba_marseille","lat":43.32099,"lon":5.36726,"is_reserved":false,"is_disabled":false,"rental_uris":{"android":"levelo://app?vid=643f3571-f606-41db-9f1f-cf8ceb872bd9","ios":"levelo://app?vid=643f3571-f606-41db-9f1f-cf8ceb872bd9"},"vehicle_type_id":"4","last_reported":1748672010,"current_range_meters":12800,"station_id":"ce4bhrh2rcd13ifvqhug","pricing_plan_id":"cebpf4jnsgd1na2vs0mg"},{"bike_id":"099ae7f8-da2f-4e1e-85e1-bd2cc4e2608a","system_id":"levelo_inurba_marseille","lat":43.29012,"lon":5.38616,"is_reserved":false,"is_disabled":false,"rental_uris":{"android":"levelo://app?vid=099ae7f8-da2f-4e1e-85e1-bd2cc4e2608a","ios":"levelo://app?vid=099ae7f8-da2f-4e1e-85e1-bd2cc4e2608a"},"vehicle_type_id":"4","last_reported":1748672010,"current_range_meters":12800,"station_id":"ce4bh4p2rcd13ifvqe0g","pricing_plan_id":"cebpf4jnsgd1na2vs0mg"},{"bike_id":"476c84a3-eb6f-4c98-9868-00bdf5a55c5c","system_id":"levelo_inurba_marseille","lat":43.251179,"lon":5.4033,"is_reserved":false,"is_disabled":false,"rental_uris":{"android":"levelo://app?vid=476c84a3-eb6f-4c98-9868-00bdf5a55c5c","ios":"levelo://app?vid=476c84a3-eb6f-4c98-9868-00bdf5a55c5c"},"vehicle_type_id":"4","last_reported":1748672010,"current_range_meters":12800,"station_id":"ce4bhlh2rcd13ifvqgig","pricing_plan_id":"cebpf4jnsgd1na2vs0mg"},{"bike_id":"2f7e9960-6496-4917-a3f4-dfaaae348181","system_id":"levelo_inurba_marseille","lat":43.28514,"lon":5.38596,"is_reserved":false,"is_disabled":false,"rental_uris":{"android":"levelo://app?vid=2f7e9960-6496-4917-a3f4-dfaaae348181","ios":"levelo://app?vid=2f7e9960-6496-4917-a3f4-dfaaae348181"},"vehicle_type_id":"4","last_reported":1748672010,"current_range_meters":12800,"station_id":"ce4bh8p2rcd13ifvqeb0","pricing_plan_id":"cebpf4jnsgd1na2vs0mg"},{"bike_id":"0a9ffdd7-c167-4d81-8c08-db4e255360a4","system_id":"levelo_inurba_marseille","lat":43.27994,"lon":5.40013,"is_reserved":false,"is_disabled":false,"rental_uris":{"android":"levelo://app?vid=0a9ffdd7-c167-4d81-8c08-db4e255360a4","ios":"levelo://app?vid=0a9ffdd7-c167-4d81-8c08-db4e255360a4"},"vehicle_type_id":"4","last_reported":1748672010,"current_range_meters":12800,"station_id":"ce4bho92rcd13ifvqh4g","pricing_plan_id":"cebpf4jnsgd1na2vs0mg"},{"bike_id":"9809e54a-9fd1-44af-affd-006eb7e5455d","system_id":"levelo_inurba_marseille","lat":43.30205,"lon":5.39463,"is_reserved":false,"is_disabled":false,"rental_uris":{"android":"levelo://app?vid=9809e54a-9fd1-44af-affd-006eb7e5455d","ios":"levelo://app?vid=9809e54a-9fd1-44af-affd-006eb7e5455d"},"vehicle_type_id":"4","last_reported":1748672010,"current_range_meters":12800,"station_id":"ce4bh0p2rcd13ifvqd70","pricing_plan_id":"cebpf4jnsgd1na2vs0mg"},{"bike_id":"4478cb26-c8dd-48be-8807-fd69b2e0a0cd","system_id":"levelo_inurba_marseille","lat":43.29716,"lon":5.37708,"is_reserved":false,"is_disabled":false,"rental_uris":{"android":"levelo://app?vid=4478cb26-c8dd-48be-8807-fd69b2e0a0cd","ios":"levelo://app?vid=4478cb26-c8dd-48be-8807-fd69b2e0a0cd"},"vehicle_type_id":"4","last_reported":1748672010,"current_range_meters":12800,"station_id":"ce4bgkh2rcd13ifvqbl0","pricing_plan_id":"cebpf4jnsgd1na2vs0mg"},{"bike_id":"40b3349c-8f46-4799-ae53-a026f8e2086a","system_id":"levelo_inurba_marseille","lat":43.27912,"lon":5.39581,"is_reserved":false,"is_disabled":false,"rental_uris":{"android":"levelo://app?vid=40b3349c-8f46-4799-ae53-a026f8e2086a","ios":"levelo://app?vid=40b3349c-8f46-4799-ae53-a026f8e2086a"},"vehicle_type_id":"4","last_reported":1748672010,"current_range_meters":12800,"station_id":"ce4bhf92rcd13ifvqf40","pricing_plan_id":"cebpf4jnsgd1na2vs0mg"},{"bike_id":"990df701-79a7-41ec-b963-3693dc590a87","system_id":"levelo_inurba_marseille","lat":43.30156,"lon":5.37908,"is_reserved":false,"is_disabled":false,"rental_uris":{"android":"levelo://app?vid=990df701-79a7-41ec-b963-3693dc590a87","ios":"levelo://app?vid=990df701-79a7-41ec-b963-3693dc590a87"},"vehicle_type_id":"4","last_reported":1748672010,"current_range_meters":12800,"station_id":"","pricing_plan_id":"cebpf4jnsgd1na2vs0mg"},{"bike_id":"b39b16dc-f183-4cb5-86c3-5371fdcfe54c","system_id":"levelo_inurba_marseille","lat":43.31077,"lon":5.38354,"is_reserved":false,"is_disabled":false,"rental_uris":{"android":"levelo://app?vid=b39b16dc-f183-4cb5-86c3-5371fdcfe54c","ios":"levelo://app?vid=b39b16dc-f183-4cb5-86c3-5371fdcfe54c"},"vehicle_type_id":"4","last_reported":1748672010,"current_range_meters":13600,"station_id":"ce4bgv92rcd13ifvqcr0","pricing_plan_id":"cebpf4jnsgd1na2vs0mg"},{"bike_id":"91d451cd-fd12-4c58-9642-67ff33efe050","system_id":"levelo_inurba_marseille","lat":43.2902,"lon":5.38649,"is_reserved":false,"is_disabled":false,"rental_uris":{"android":"levelo://app?vid=91d451cd-fd12-4c58-9642-67ff33efe050","ios":"levelo://app?vid=91d451cd-fd12-4c58-9642-67ff33efe050"},"vehicle_type_id":"4","last_reported":1748672010,"current_range_meters":13600,"station_id":"ce4bh4p2rcd13ifvqe0g","pricing_plan_id":"cebpf4jnsgd1na2vs0mg"},{"bike_id":"0af1ab88-e390-4086-9b5d-c17347ae32dd","system_id":"levelo_inurba_marseille","lat":43.23198,"lon":5.35555,"is_reserved":false,"is_disabled":false,"rental_uris":{"android":"levelo://app?vid=0af1ab88-e390-4086-9b5d-c17347ae32dd","ios":"levelo://app?vid=0af1ab88-e390-4086-9b5d-c17347ae32dd"},"vehicle_type_id":"4","last_reported":1748672010,"current_range_meters":13600,"station_id":"ce4bhu92rcd13ifvqi70","pricing_plan_id":"cebpf4jnsgd1na2vs0mg"},{"bike_id":"0a2aa0a3-8994-4921-90a8-560f5e55f68b","system_id":"levelo_inurba_marseille","lat":43.31332,"lon":5.39684,"is_reserved":false,"is_disabled":false,"rental_uris":{"android":"levelo://app?vid=0a2aa0a3-8994-4921-90a8-560f5e55f68b","ios":"levelo://app?vid=0a2aa0a3-8994-4921-90a8-560f5e55f68b"},"vehicle_type_id":"4","last_reported":1748672010,"current_range_meters":13600,"station_id":"ce4bgvp2rcd13ifvqcu0","pricing_plan_id":"cebpf4jnsgd1na2vs0mg"},{"bike_id":"67614841-9f24-4f1f-81f7-acf09b9bb6b8","system_id":"levelo_inurba_marseille","lat":43.25709,"lon":5.41121,"is_reserved":false,"is_disabled":false,"rental_uris":{"android":"levelo://app?vid=67614841-9f24-4f1f-81f7-acf09b9bb6b8","ios":"levelo://app?vid=67614841-9f24-4f1f-81f7-acf09b9bb6b8"},"vehicle_type_id":"4","last_reported":1748672010,"current_range_meters":13600,"station_id":"ce4bhkp2rcd13ifvqgd0","pricing_plan_id":"cebpf4jnsgd1na2vs0mg"},{"bike_id":"9ad84696-d7b3-4d68-9270-763d33222bf3","system_id":"levelo_inurba_marseille","lat":43.301405,"lon":5.398783,"is_reserved":false,"is_disabled":false,"rental_uris":{"android":"levelo://app?vid=9ad84696-d7b3-4d68-9270-763d33222bf3","ios":"levelo://app?vid=9ad84696-d7b3-4d68-9270-763d33222bf3"},"vehicle_type_id":"4","last_reported":1748672010,"current_range_meters":13600,"station_id":"ce4bh0h2rcd13ifvqd40","pricing_plan_id":"cebpf4jnsgd1na2vs0mg"},{"bike_id":"21501f3b-3adc-4044-ae75-db236a244cbf","system_id":"levelo_inurba_marseille","lat":43.28344,"lon":5.38143,"is_reserved":false,"is_disabled":false,"rental_uris":{"android":"levelo://app?vid=21501f3b-3adc-4044-ae75-db236a244cbf","ios":"levelo://app?vid=21501f3b-3adc-4044-ae75-db236a244cbf"},"vehicle_type_id":"4","last_reported":1748672010,"current_range_meters":13600,"station_id":"ce4bh412rcd13ifvqdr0","pricing_plan_id":"cebpf4jnsgd1na2vs0mg"},{"bike_id":"ca45ae50-8fdf-43fd-8443-30c134198d86","system_id":"levelo_inurba_marseille","lat":43.265601,"lon":5.403281,"is_reserved":false,"is_disabled":false,"rental_uris":{"android":"levelo://app?vid=ca45ae50-8fdf-43fd-8443-30c134198d86","ios":"levelo://app?vid=ca45ae50-8fdf-43fd-8443-30c134198d86"},"vehicle_type_id":"4","last_reported":1748672010,"current_range_meters":13600,"station_id":"","pricing_plan_id":"cebpf4jnsgd1na2vs0mg"},{"bike_id":"59e69c29-8b04-43ef-8a5c-dcd319d2ce6a","system_id":"levelo_inurba_marseille","lat":43.29799,"lon":5.39358,"is_reserved":false,"is_disabled":false,"rental_uris":{"android":"levelo://app?vid=59e69c29-8b04-43ef-8a5c-dcd319d2ce6a","ios":"levelo://app?vid=59e69c29-8b04-43ef-8a5c-dcd319d2ce6a"},"vehicle_type_id":"4","last_reported":1748672010,"current_range_meters":13600,"station_id":"chh1huq6cuj3fo74tm60","pricing_plan_id":"cebpf4jnsgd1na2vs0mg"},{"bike_id":"03c1751e-ef60-4175-a52f-4759bb9df88b","system_id":"levelo_inurba_marseille","lat":43.27959,"lon":5.38739,"is_reserved":false,"is_disabled":false,"rental_uris":{"android":"levelo://app?vid=03c1751e-ef60-4175-a52f-4759bb9df88b","ios":"levelo://app?vid=03c1751e-ef60-4175-a52f-4759bb9df88b"},"vehicle_type_id":"4","last_reported":1748672010,"current_range_meters":13600,"station_id":"ce4bhg12rcd13ifvqf80","pricing_plan_id":"cebpf4jnsgd1na2vs0mg"},{"bike_id":"fd1024f5-e5d4-49ae-9b56-8d14f9e35402","system_id":"levelo_inurba_marseille","lat":43.30135,"lon":5.38784,"is_reserved":false,"is_disabled":false,"rental_uris":{"android":"levelo://app?vid=fd1024f5-e5d4-49ae-9b56-8d14f9e35402","ios":"levelo://app?vid=fd1024f5-e5d4-49ae-9b56-8d14f9e35402"},"vehicle_type_id":"4","last_reported":1748672010,"current_range_meters":14000,"station_id":"ce4bghh2rcd13ifvqb60","pricing_plan_id":"cebpf4jnsgd1na2vs0mg"},{"bike_id":"56118c5b-a7b2-448d-9e9f-37905a3f02ee","system_id":"levelo_inurba_marseille","lat":43.29026,"lon":5.386451,"is_reserved":false,"is_disabled":false,"rental_uris":{"android":"levelo://app?vid=56118c5b-a7b2-448d-9e9f-37905a3f02ee","ios":"levelo://app?vid=56118c5b-a7b2-448d-9e9f-37905a3f02ee"},"vehicle_type_id":"4","last_reported":1748672010,"current_range_meters":14000,"station_id":"ce4bh4p2rcd13ifvqe0g","pricing_plan_id":"cebpf4jnsgd1na2vs0mg"},{"bike_id":"d8af0821-bc5d-459f-b24d-bbfca9521714","system_id":"levelo_inurba_marseille","lat":43.241681,"lon":5.39735,"is_reserved":false,"is_disabled":false,"rental_uris":{"android":"levelo://app?vid=d8af0821-bc5d-459f-b24d-bbfca9521714","ios":"levelo://app?vid=d8af0821-bc5d-459f-b24d-bbfca9521714"},"vehicle_type_id":"4","last_reported":1748672010,"current_range_meters":14000,"station_id":"ce4bhn12rcd13ifvqgpg","pricing_plan_id":"cebpf4jnsgd1na2vs0mg"},{"bike_id":"9b99a336-da6a-4651-be6c-fced9f3e387b","system_id":"levelo_inurba_marseille","lat":43.30315,"lon":5.39207,"is_reserved":false,"is_disabled":false,"rental_uris":{"android":"levelo://app?vid=9b99a336-da6a-4651-be6c-fced9f3e387b","ios":"levelo://app?vid=9b99a336-da6a-4651-be6c-fced9f3e387b"},"vehicle_type_id":"4","last_reported":1748672010,"current_range_meters":14000,"station_id":"ce4bgkh2rcd13ifvqbk0","pricing_plan_id":"cebpf4jnsgd1na2vs0mg"},{"bike_id":"80276b70-d128-4510-a003-e57dd1d62c68","system_id":"levelo_inurba_marseille","lat":43.309436,"lon":5.401595,"is_reserved":false,"is_disabled":false,"rental_uris":{"android":"levelo://app?vid=80276b70-d128-4510-a003-e57dd1d62c68","ios":"levelo://app?vid=80276b70-d128-4510-a003-e57dd1d62c68"},"vehicle_type_id":"4","last_reported":1748672010,"current_range_meters":14400,"station_id":"ce4bgvp2rcd13ifvqct0","pricing_plan_id":"cebpf4jnsgd1na2vs0mg"},{"bike_id":"b3138513-1acc-4e68-94cd-ba12e52278b5","system_id":"levelo_inurba_marseille","lat":43.25723,"lon":5.411088,"is_reserved":false,"is_disabled":false,"rental_uris":{"android":"levelo://app?vid=b3138513-1acc-4e68-94cd-ba12e52278b5","ios":"levelo://app?vid=b3138513-1acc-4e68-94cd-ba12e52278b5"},"vehicle_type_id":"4","last_reported":1748672010,"current_range_meters":14400,"station_id":"ce4bhkp2rcd13ifvqgd0","pricing_plan_id":"cebpf4jnsgd1na2vs0mg"},{"bike_id":"9394a981-6e1e-4fd6-9268-4e09882956e9","system_id":"levelo_inurba_marseille","lat":43.31294,"lon":5.44554,"is_reserved":false,"is_disabled":false,"rental_uris":{"android":"levelo://app?vid=9394a981-6e1e-4fd6-9268-4e09882956e9","ios":"levelo://app?vid=9394a981-6e1e-4fd6-9268-4e09882956e9"},"vehicle_type_id":"4","last_reported":1748672010,"current_range_meters":14400,"station_id":"","pricing_plan_id":"cebpf4jnsgd1na2vs0mg"},{"bike_id":"a1afee0d-636a-4145-8e38-9b2384426a66","system_id":"levelo_inurba_marseille","lat":43.322868,"lon":5.382739,"is_reserved":false,"is_disabled":false,"rental_uris":{"android":"levelo://app?vid=a1afee0d-636a-4145-8e38-9b2384426a66","ios":"levelo://app?vid=a1afee0d-636a-4145-8e38-9b2384426a66"},"vehicle_type_id":"4","last_reported":1748672010,"current_range_meters":14400,"station_id":"ce4bhr12rcd13ifvqhqg","pricing_plan_id":"cebpf4jnsgd1na2vs0mg"},{"bike_id":"2a1a2e56-d357-40e8-ad94-ab43003866fc","system_id":"levelo_inurba_marseille","lat":43.302459,"lon":5.400596,"is_reserved":false,"is_disabled":false,"rental_uris":{"android":"levelo://app?vid=2a1a2e56-d357-40e8-ad94-ab43003866fc","ios":"levelo://app?vid=2a1a2e56-d357-40e8-ad94-ab43003866fc"},"vehicle_type_id":"4","last_reported":1748672010,"current_range_meters":14400,"station_id":"ce4bgvh2rcd13ifvqcs0","pricing_plan_id":"cebpf4jnsgd1na2vs0mg"},{"bike_id":"e2ae118e-d72e-4689-8ce8-ded84aed50bd","system_id":"levelo_inurba_marseille","lat":43.278353,"lon":5.392099,"is_reserved":false,"is_disabled":false,"rental_uris":{"android":"levelo://app?vid=e2ae118e-d72e-4689-8ce8-ded84aed50bd","ios":"levelo://app?vid=e2ae118e-d72e-4689-8ce8-ded84aed50bd"},"vehicle_type_id":"4","last_reported":1748672010,"current_range_meters":14400,"station_id":"ce4bhjp2rcd13ifvqga0","pricing_plan_id":"cebpf4jnsgd1na2vs0mg"},{"bike_id":"b44afb05-6f80-4f4b-827a-e58b6394b4d9","system_id":"levelo_inurba_marseille","lat":43.287034,"lon":5.39991,"is_reserved":false,"is_disabled":false,"rental_uris":{"android":"levelo://app?vid=b44afb05-6f80-4f4b-827a-e58b6394b4d9","ios":"levelo://app?vid=b44afb05-6f80-4f4b-827a-e58b6394b4d9"},"vehicle_type_id":"4","last_reported":1748672010,"current_range_meters":14400,"station_id":"ce4bho92rcd13ifvqh3g","pricing_plan_id":"cebpf4jnsgd1na2vs0mg"},{"bike_id":"ddd39802-d9f1-4d05-8724-0cf238e6cad9","system_id":"levelo_inurba_marseille","lat":43.28702,"lon":5.39982,"is_reserved":false,"is_disabled":false,"rental_uris":{"android":"levelo://app?vid=ddd39802-d9f1-4d05-8724-0cf238e6cad9","ios":"levelo://app?vid=ddd39802-d9f1-4d05-8724-0cf238e6cad9"},"vehicle_type_id":"4","last_reported":1748672010,"current_range_meters":14400,"station_id":"ce4bho92rcd13ifvqh3g","pricing_plan_id":"cebpf4jnsgd1na2vs0mg"},{"bike_id":"d5d0bfbb-f2bc-4297-a453-115bac476736","system_id":"levelo_inurba_marseille","lat":43.29374,"lon":5.37513,"is_reserved":false,"is_disabled":false,"rental_uris":{"android":"levelo://app?vid=d5d0bfbb-f2bc-4297-a453-115bac476736","ios":"levelo://app?vid=d5d0bfbb-f2bc-4297-a453-115bac476736"},"vehicle_type_id":"4","last_reported":1748672010,"current_range_meters":14400,"station_id":"","pricing_plan_id":"cebpf4jnsgd1na2vs0mg"},{"bike_id":"5b4dcac3-2414-4b03-841e-6020b2253a14","system_id":"levelo_inurba_marseille","lat":43.30126,"lon":5.39866,"is_reserved":false,"is_disabled":false,"rental_uris":{"android":"levelo://app?vid=5b4dcac3-2414-4b03-841e-6020b2253a14","ios":"levelo://app?vid=5b4dcac3-2414-4b03-841e-6020b2253a14"},"vehicle_type_id":"4","last_reported":1748672010,"current_range_meters":14800,"station_id":"ce4bh0h2rcd13ifvqd40","pricing_plan_id":"cebpf4jnsgd1na2vs0mg"},{"bike_id":"7c75b060-060f-4b1c-8ccf-f18bc7ff396a","system_id":"levelo_inurba_marseille","lat":43.28401,"lon":5.37505,"is_reserved":false,"is_disabled":false,"rental_uris":{"android":"levelo://app?vid=7c75b060-060f-4b1c-8ccf-f18bc7ff396a","ios":"levelo://app?vid=7c75b060-060f-4b1c-8ccf-f18bc7ff396a"},"vehicle_type_id":"4","last_reported":1748672010,"current_range_meters":14800,"station_id":"ce4bh412rcd13ifvqds0","pricing_plan_id":"cebpf4jnsgd1na2vs0mg"},{"bike_id":"5d526042-0aa9-49b7-9d54-e5d290aaaef1","system_id":"levelo_inurba_marseille","lat":43.301349,"lon":5.398859,"is_reserved":false,"is_disabled":false,"rental_uris":{"android":"levelo://app?vid=5d526042-0aa9-49b7-9d54-e5d290aaaef1","ios":"levelo://app?vid=5d526042-0aa9-49b7-9d54-e5d290aaaef1"},"vehicle_type_id":"4","last_reported":1748672010,"current_range_meters":14800,"station_id":"ce4bh0h2rcd13ifvqd40","pricing_plan_id":"cebpf4jnsgd1na2vs0mg"},{"bike_id":"14036455-f919-44f7-8d5e-0b2e84f48674","system_id":"levelo_inurba_marseille","lat":43.30917,"lon":5.403921,"is_reserved":false,"is_disabled":false,"rental_uris":{"android":"levelo://app?vid=14036455-f919-44f7-8d5e-0b2e84f48674","ios":"levelo://app?vid=14036455-f919-44f7-8d5e-0b2e84f48674"},"vehicle_type_id":"4","last_reported":1748672010,"current_range_meters":14800,"station_id":"","pricing_plan_id":"cebpf4jnsgd1na2vs0mg"},{"bike_id":"99586cd6-a2a0-47d9-ab46-a364f046973a","system_id":"levelo_inurba_marseille","lat":43.251115,"lon":5.403331,"is_reserved":false,"is_disabled":false,"rental_uris":{"android":"levelo://app?vid=99586cd6-a2a0-47d9-ab46-a364f046973a","ios":"levelo://app?vid=99586cd6-a2a0-47d9-ab46-a364f046973a"},"vehicle_type_id":"4","last_reported":1748672010,"current_range_meters":14800,"station_id":"ce4bhlh2rcd13ifvqgig","pricing_plan_id":"cebpf4jnsgd1na2vs0mg"},{"bike_id":"c2319c95-523a-4385-a540-a2f6322d592b","system_id":"levelo_inurba_marseille","lat":43.27835,"lon":5.39207,"is_reserved":false,"is_disabled":false,"rental_uris":{"android":"levelo://app?vid=c2319c95-523a-4385-a540-a2f6322d592b","ios":"levelo://app?vid=c2319c95-523a-4385-a540-a2f6322d592b"},"vehicle_type_id":"4","last_reported":1748672010,"current_range_meters":14800,"station_id":"ce4bhjp2rcd13ifvqga0","pricing_plan_id":"cebpf4jnsgd1na2vs0mg"},{"bike_id":"b4a389d7-474d-4a9d-8dec-223a88612b5c","system_id":"levelo_inurba_marseille","lat":43.24992,"lon":5.3795,"is_reserved":false,"is_disabled":false,"rental_uris":{"android":"levelo://app?vid=b4a389d7-474d-4a9d-8dec-223a88612b5c","ios":"levelo://app?vid=b4a389d7-474d-4a9d-8dec-223a88612b5c"},"vehicle_type_id":"4","last_reported":1748672010,"current_range_meters":15200,"station_id":"","pricing_plan_id":"cebpf4jnsgd1na2vs0mg"},{"bike_id":"f5c92089-c385-41e8-bd22-786c20787e82","system_id":"levelo_inurba_marseille","lat":43.27943,"lon":5.41044,"is_reserved":false,"is_disabled":false,"rental_uris":{"android":"levelo://app?vid=f5c92089-c385-41e8-bd22-786c20787e82","ios":"levelo://app?vid=f5c92089-c385-41e8-bd22-786c20787e82"},"vehicle_type_id":"4","last_reported":1748672010,"current_range_meters":15200,"station_id":"ce4bhnp2rcd13ifvqh0g","pricing_plan_id":"cebpf4jnsgd1na2vs0mg"},{"bike_id":"6e87971c-8f80-44c3-b466-6cfc3e693df3","system_id":"levelo_inurba_marseille","lat":43.28922,"lon":5.38397,"is_reserved":false,"is_disabled":false,"rental_uris":{"android":"levelo://app?vid=6e87971c-8f80-44c3-b466-6cfc3e693df3","ios":"levelo://app?vid=6e87971c-8f80-44c3-b466-6cfc3e693df3"},"vehicle_type_id":"4","last_reported":1748672010,"current_range_meters":15200,"station_id":"ce4bh612rcd13ifvqe6g","pricing_plan_id":"cebpf4jnsgd1na2vs0mg"},{"bike_id":"3684317d-8c7d-4406-83d3-99a336dbaba1","system_id":"levelo_inurba_marseille","lat":43.2793,"lon":5.41066,"is_reserved":false,"is_disabled":false,"rental_uris":{"android":"levelo://app?vid=3684317d-8c7d-4406-83d3-99a336dbaba1","ios":"levelo://app?vid=3684317d-8c7d-4406-83d3-99a336dbaba1"},"vehicle_type_id":"4","last_reported":1748672010,"current_range_meters":15200,"station_id":"ce4bhnp2rcd13ifvqh0g","pricing_plan_id":"cebpf4jnsgd1na2vs0mg"},{"bike_id":"a203cef1-97cb-47f9-9ab1-78869ad668ec","system_id":"levelo_inurba_marseille","lat":43.24397,"lon":5.37054,"is_reserved":false,"is_disabled":false,"rental_uris":{"android":"levelo://app?vid=a203cef1-97cb-47f9-9ab1-78869ad668ec","ios":"levelo://app?vid=a203cef1-97cb-47f9-9ab1-78869ad668ec"},"vehicle_type_id":"4","last_reported":1748672010,"current_range_meters":15200,"station_id":"ce4bhhh2rcd13ifvqfk0","pricing_plan_id":"cebpf4jnsgd1na2vs0mg"},{"bike_id":"e878270b-d4b9-4a41-9720-9dfc581bead7","system_id":"levelo_inurba_marseille","lat":43.25728,"lon":5.4111,"is_reserved":false,"is_disabled":false,"rental_uris":{"android":"levelo://app?vid=e878270b-d4b9-4a41-9720-9dfc581bead7","ios":"levelo://app?vid=e878270b-d4b9-4a41-9720-9dfc581bead7"},"vehicle_type_id":"4","last_reported":1748672010,"current_range_meters":16000,"station_id":"ce4bhkp2rcd13ifvqgd0","pricing_plan_id":"cebpf4jnsgd1na2vs0mg"},{"bike_id":"a7bc0857-ba13-43fa-9be2-c26b232e5a26","system_id":"levelo_inurba_marseille","lat":43.25931,"lon":5.40905,"is_reserved":false,"is_disabled":false,"rental_uris":{"android":"levelo://app?vid=a7bc0857-ba13-43fa-9be2-c26b232e5a26","ios":"levelo://app?vid=a7bc0857-ba13-43fa-9be2-c26b232e5a26"},"vehicle_type_id":"4","last_reported":1748672010,"current_range_meters":16000,"station_id":"ce4bhm92rcd13ifvqglg","pricing_plan_id":"cebpf4jnsgd1na2vs0mg"},{"bike_id":"348ddc31-f232-46b0-bbef-5931b86212cf","system_id":"levelo_inurba_marseille","lat":43.241724,"lon":5.397347,"is_reserved":false,"is_disabled":false,"rental_uris":{"android":"levelo://app?vid=348ddc31-f232-46b0-bbef-5931b86212cf","ios":"levelo://app?vid=348ddc31-f232-46b0-bbef-5931b86212cf"},"vehicle_type_id":"4","last_reported":1748672010,"current_range_meters":16000,"station_id":"ce4bhn12rcd13ifvqgpg","pricing_plan_id":"cebpf4jnsgd1na2vs0mg"},{"bike_id":"d7d1c96a-3b7f-4516-af0f-366a7ca72402","system_id":"levelo_inurba_marseille","lat":43.293008,"lon":5.374595,"is_reserved":false,"is_disabled":true,"rental_uris":{"android":"levelo://app?vid=d7d1c96a-3b7f-4516-af0f-366a7ca72402","ios":"levelo://app?vid=d7d1c96a-3b7f-4516-af0f-366a7ca72402"},"vehicle_type_id":"4","last_reported":1748672010,"current_range_meters":16000,"station_id":"","pricing_plan_id":"cebpf4jnsgd1na2vs0mg"},{"bike_id":"1f72df3b-3eb6-4e22-98b3-16e8c40786d5","system_id":"levelo_inurba_marseille","lat":43.240776,"lon":5.377458,"is_reserved":false,"is_disabled":false,"rental_uris":{"android":"levelo://app?vid=1f72df3b-3eb6-4e22-98b3-16e8c40786d5","ios":"levelo://app?vid=1f72df3b-3eb6-4e22-98b3-16e8c40786d5"},"vehicle_type_id":"4","last_reported":1748672010,"current_range_meters":16000,"station_id":"ce4bhnp2rcd13ifvqgvg","pricing_plan_id":"cebpf4jnsgd1na2vs0mg"},{"bike_id":"54a6e89f-ade8-4e13-89a6-7d78485bfd6f","system_id":"levelo_inurba_marseille","lat":43.25725,"lon":5.41102,"is_reserved":false,"is_disabled":false,"rental_uris":{"android":"levelo://app?vid=54a6e89f-ade8-4e13-89a6-7d78485bfd6f","ios":"levelo://app?vid=54a6e89f-ade8-4e13-89a6-7d78485bfd6f"},"vehicle_type_id":"4","last_reported":1748672010,"current_range_meters":16000,"station_id":"ce4bhkp2rcd13ifvqgd0","pricing_plan_id":"cebpf4jnsgd1na2vs0mg"},{"bike_id":"3de55df9-7d7b-4304-b06e-95e8f06b7b5d","system_id":"levelo_inurba_marseille","lat":43.29777,"lon":5.38087,"is_reserved":false,"is_disabled":false,"rental_uris":{"android":"levelo://app?vid=3de55df9-7d7b-4304-b06e-95e8f06b7b5d","ios":"levelo://app?vid=3de55df9-7d7b-4304-b06e-95e8f06b7b5d"},"vehicle_type_id":"4","last_reported":1748672010,"current_range_meters":16400,"station_id":"ce4bgip2rcd13ifvqbb0","pricing_plan_id":"cebpf4jnsgd1na2vs0mg"},{"bike_id":"bbb06921-e716-4ace-a092-eccc1bcc3204","system_id":"levelo_inurba_marseille","lat":43.312934,"lon":5.382764,"is_reserved":false,"is_disabled":false,"rental_uris":{"android":"levelo://app?vid=bbb06921-e716-4ace-a092-eccc1bcc3204","ios":"levelo://app?vid=bbb06921-e716-4ace-a092-eccc1bcc3204"},"vehicle_type_id":"4","last_reported":1748672010,"current_range_meters":16400,"station_id":"","pricing_plan_id":"cebpf4jnsgd1na2vs0mg"},{"bike_id":"c6eba481-8ee4-49b0-a228-bff3efbb83b0","system_id":"levelo_inurba_marseille","lat":43.279439,"lon":5.410463,"is_reserved":false,"is_disabled":false,"rental_uris":{"android":"levelo://app?vid=c6eba481-8ee4-49b0-a228-bff3efbb83b0","ios":"levelo://app?vid=c6eba481-8ee4-49b0-a228-bff3efbb83b0"},"vehicle_type_id":"4","last_reported":1748672010,"current_range_meters":16400,"station_id":"ce4bhnp2rcd13ifvqh0g","pricing_plan_id":"cebpf4jnsgd1na2vs0mg"},{"bike_id":"480f043b-d440-4de0-ad40-c9601fac61aa","system_id":"levelo_inurba_marseille","lat":43.279205,"lon":5.395833,"is_reserved":false,"is_disabled":false,"rental_uris":{"android":"levelo://app?vid=480f043b-d440-4de0-ad40-c9601fac61aa","ios":"levelo://app?vid=480f043b-d440-4de0-ad40-c9601fac61aa"},"vehicle_type_id":"4","last_reported":1748672010,"current_range_meters":16400,"station_id":"ce4bhf92rcd13ifvqf40","pricing_plan_id":"cebpf4jnsgd1na2vs0mg"},{"bike_id":"0cd46052-1eb7-460d-9d93-96bc94cb4ff9","system_id":"levelo_inurba_marseille","lat":43.23961,"lon":5.36649,"is_reserved":false,"is_disabled":false,"rental_uris":{"android":"levelo://app?vid=0cd46052-1eb7-460d-9d93-96bc94cb4ff9","ios":"levelo://app?vid=0cd46052-1eb7-460d-9d93-96bc94cb4ff9"},"vehicle_type_id":"4","last_reported":1748672010,"current_range_meters":16400,"station_id":"ce4bhi12rcd13ifvqfp0","pricing_plan_id":"cebpf4jnsgd1na2vs0mg"},{"bike_id":"093bbd9a-3376-4f5e-8a41-7cc8b8b4e4b7","system_id":"levelo_inurba_marseille","lat":43.251208,"lon":5.403346,"is_reserved":false,"is_disabled":false,"rental_uris":{"android":"levelo://app?vid=093bbd9a-3376-4f5e-8a41-7cc8b8b4e4b7","ios":"levelo://app?vid=093bbd9a-3376-4f5e-8a41-7cc8b8b4e4b7"},"vehicle_type_id":"4","last_reported":1748672010,"current_range_meters":16400,"station_id":"ce4bhlh2rcd13ifvqgig","pricing_plan_id":"cebpf4jnsgd1na2vs0mg"},{"bike_id":"acf16947-b203-4b81-91fe-aabb86c76086","system_id":"levelo_inurba_marseille","lat":43.257266,"lon":5.411093,"is_reserved":false,"is_disabled":false,"rental_uris":{"android":"levelo://app?vid=acf16947-b203-4b81-91fe-aabb86c76086","ios":"levelo://app?vid=acf16947-b203-4b81-91fe-aabb86c76086"},"vehicle_type_id":"4","last_reported":1748672010,"current_range_meters":16400,"station_id":"ce4bhkp2rcd13ifvqgd0","pricing_plan_id":"cebpf4jnsgd1na2vs0mg"},{"bike_id":"21784205-f144-4b4d-921a-765ac0dfbf97","system_id":"levelo_inurba_marseille","lat":43.34802,"lon":5.34844,"is_reserved":false,"is_disabled":false,"rental_uris":{"android":"levelo://app?vid=21784205-f144-4b4d-921a-765ac0dfbf97","ios":"levelo://app?vid=21784205-f144-4b4d-921a-765ac0dfbf97"},"vehicle_type_id":"4","last_reported":1748672010,"current_range_meters":16800,"station_id":"","pricing_plan_id":"cebpf4jnsgd1na2vs0mg"},{"bike_id":"98ec307e-7ec1-4c12-8327-791809e3259d","system_id":"levelo_inurba_marseille","lat":43.27832,"lon":5.39221,"is_reserved":false,"is_disabled":false,"rental_uris":{"android":"levelo://app?vid=98ec307e-7ec1-4c12-8327-791809e3259d","ios":"levelo://app?vid=98ec307e-7ec1-4c12-8327-791809e3259d"},"vehicle_type_id":"4","last_reported":1748672010,"current_range_meters":16800,"station_id":"ce4bhjp2rcd13ifvqga0","pricing_plan_id":"cebpf4jnsgd1na2vs0mg"},{"bike_id":"f5eb51ff-08f3-458c-8e99-1dbc609fde4b","system_id":"levelo_inurba_marseille","lat":43.22926,"lon":5.353767,"is_reserved":false,"is_disabled":false,"rental_uris":{"android":"levelo://app?vid=f5eb51ff-08f3-458c-8e99-1dbc609fde4b","ios":"levelo://app?vid=f5eb51ff-08f3-458c-8e99-1dbc609fde4b"},"vehicle_type_id":"4","last_reported":1748672010,"current_range_meters":16800,"station_id":"cpo3532slgdg3j2ikp40","pricing_plan_id":"cebpf4jnsgd1na2vs0mg"},{"bike_id":"b9bbe4c2-d2f5-4e26-94af-b194681e10e5","system_id":"levelo_inurba_marseille","lat":43.31079,"lon":5.424362,"is_reserved":false,"is_disabled":false,"rental_uris":{"android":"levelo://app?vid=b9bbe4c2-d2f5-4e26-94af-b194681e10e5","ios":"levelo://app?vid=b9bbe4c2-d2f5-4e26-94af-b194681e10e5"},"vehicle_type_id":"4","last_reported":1748672010,"current_range_meters":16800,"station_id":"ce4bhp92rcd13ifvqhag","pricing_plan_id":"cebpf4jnsgd1na2vs0mg"},{"bike_id":"9a189ee8-27ed-444b-b171-f705371af28f","system_id":"levelo_inurba_marseille","lat":43.28253,"lon":5.34905,"is_reserved":false,"is_disabled":false,"rental_uris":{"android":"levelo://app?vid=9a189ee8-27ed-444b-b171-f705371af28f","ios":"levelo://app?vid=9a189ee8-27ed-444b-b171-f705371af28f"},"vehicle_type_id":"4","last_reported":1748672010,"current_range_meters":17200,"station_id":"","pricing_plan_id":"cebpf4jnsgd1na2vs0mg"},{"bike_id":"61b86620-def2-4760-9d0a-205ac26592db","system_id":"levelo_inurba_marseille","lat":43.28272,"lon":5.35058,"is_reserved":false,"is_disabled":true,"rental_uris":{"android":"levelo://app?vid=61b86620-def2-4760-9d0a-205ac26592db","ios":"levelo://app?vid=61b86620-def2-4760-9d0a-205ac26592db"},"vehicle_type_id":"4","last_reported":1748672010,"current_range_meters":17200,"station_id":"ce4bhbp2rcd13ifvqerg","pricing_plan_id":"cebpf4jnsgd1na2vs0mg"},{"bike_id":"565c4406-90f6-4ad5-a1b2-f134fb7be6b9","system_id":"levelo_inurba_marseille","lat":43.27206,"lon":5.39187,"is_reserved":false,"is_disabled":false,"rental_uris":{"android":"levelo://app?vid=565c4406-90f6-4ad5-a1b2-f134fb7be6b9","ios":"levelo://app?vid=565c4406-90f6-4ad5-a1b2-f134fb7be6b9"},"vehicle_type_id":"4","last_reported":1748672010,"current_range_meters":17200,"station_id":"ce4bhhp2rcd13ifvqfm0","pricing_plan_id":"cebpf4jnsgd1na2vs0mg"},{"bike_id":"2f727641-8372-4e37-b639-88cbef7c9941","system_id":"levelo_inurba_marseille","lat":43.27046,"lon":5.40274,"is_reserved":false,"is_disabled":true,"rental_uris":{"android":"levelo://app?vid=2f727641-8372-4e37-b639-88cbef7c9941","ios":"levelo://app?vid=2f727641-8372-4e37-b639-88cbef7c9941"},"vehicle_type_id":"4","last_reported":1748672010,"current_range_meters":17200,"station_id":"ce4bhk92rcd13ifvqgc0","pricing_plan_id":"cebpf4jnsgd1na2vs0mg"},{"bike_id":"59cc9f64-369b-40a4-aef4-571b231df862","system_id":"levelo_inurba_marseille","lat":43.28093,"lon":5.35205,"is_reserved":false,"is_disabled":false,"rental_uris":{"android":"levelo://app?vid=59cc9f64-369b-40a4-aef4-571b231df862","ios":"levelo://app?vid=59cc9f64-369b-40a4-aef4-571b231df862"},"vehicle_type_id":"4","last_reported":1748672010,"current_range_meters":17200,"station_id":"","pricing_plan_id":"cebpf4jnsgd1na2vs0mg"},{"bike_id":"e210be7e-07b8-44d3-ae09-6702f28e2ae8","system_id":"levelo_inurba_marseille","lat":43.25118,"lon":5.39369,"is_reserved":false,"is_disabled":false,"rental_uris":{"android":"levelo://app?vid=e210be7e-07b8-44d3-ae09-6702f28e2ae8","ios":"levelo://app?vid=e210be7e-07b8-44d3-ae09-6702f28e2ae8"},"vehicle_type_id":"4","last_reported":1748672010,"current_range_meters":17200,"station_id":"","pricing_plan_id":"cebpf4jnsgd1na2vs0mg"},{"bike_id":"716a2310-8de8-4c37-83e1-85fc28389444","system_id":"levelo_inurba_marseille","lat":43.279117,"lon":5.395816,"is_reserved":false,"is_disabled":false,"rental_uris":{"android":"levelo://app?vid=716a2310-8de8-4c37-83e1-85fc28389444","ios":"levelo://app?vid=716a2310-8de8-4c37-83e1-85fc28389444"},"vehicle_type_id":"4","last_reported":1748672010,"current_range_meters":17200,"station_id":"ce4bhf92rcd13ifvqf40","pricing_plan_id":"cebpf4jnsgd1na2vs0mg"},{"bike_id":"d08043a3-1509-42c0-b312-c58c26f0b5ec","system_id":"levelo_inurba_marseille","lat":43.31329,"lon":5.39689,"is_reserved":false,"is_disabled":false,"rental_uris":{"android":"levelo://app?vid=d08043a3-1509-42c0-b312-c58c26f0b5ec","ios":"levelo://app?vid=d08043a3-1509-42c0-b312-c58c26f0b5ec"},"vehicle_type_id":"4","last_reported":1748672010,"current_range_meters":17200,"station_id":"ce4bgvp2rcd13ifvqcu0","pricing_plan_id":"cebpf4jnsgd1na2vs0mg"},{"bike_id":"c1bd2e34-4a1f-4af1-93d6-6b7a12d9bcb0","system_id":"levelo_inurba_marseille","lat":43.31166,"lon":5.38725,"is_reserved":false,"is_disabled":false,"rental_uris":{"android":"levelo://app?vid=c1bd2e34-4a1f-4af1-93d6-6b7a12d9bcb0","ios":"levelo://app?vid=c1bd2e34-4a1f-4af1-93d6-6b7a12d9bcb0"},"vehicle_type_id":"4","last_reported":1748672010,"current_range_meters":16800,"station_id":"ce4bgv12rcd13ifvqcp0","pricing_plan_id":"cebpf4jnsgd1na2vs0mg"},{"bike_id":"e9f46a18-9ee4-4c72-a365-6ab7fa7fad21","system_id":"levelo_inurba_marseille","lat":43.29197,"lon":5.39321,"is_reserved":false,"is_disabled":false,"rental_uris":{"android":"levelo://app?vid=e9f46a18-9ee4-4c72-a365-6ab7fa7fad21","ios":"levelo://app?vid=e9f46a18-9ee4-4c72-a365-6ab7fa7fad21"},"vehicle_type_id":"4","last_reported":1748672010,"current_range_meters":17200,"station_id":"ce4bh192rcd13ifvqdd0","pricing_plan_id":"cebpf4jnsgd1na2vs0mg"},{"bike_id":"10cccf0e-5e24-4b75-8e4f-e089b2d3e656","system_id":"levelo_inurba_marseille","lat":43.23187,"lon":5.39985,"is_reserved":false,"is_disabled":false,"rental_uris":{"android":"levelo://app?vid=10cccf0e-5e24-4b75-8e4f-e089b2d3e656","ios":"levelo://app?vid=10cccf0e-5e24-4b75-8e4f-e089b2d3e656"},"vehicle_type_id":"4","last_reported":1748672010,"current_range_meters":17200,"station_id":"ce4bhn12rcd13ifvqgqg","pricing_plan_id":"cebpf4jnsgd1na2vs0mg"},{"bike_id":"e943eb65-5385-4e18-8168-21b674560739","system_id":"levelo_inurba_marseille","lat":43.2721,"lon":5.41007,"is_reserved":false,"is_disabled":false,"rental_uris":{"android":"levelo://app?vid=e943eb65-5385-4e18-8168-21b674560739","ios":"levelo://app?vid=e943eb65-5385-4e18-8168-21b674560739"},"vehicle_type_id":"4","last_reported":1748672010,"current_range_meters":17200,"station_id":"ce4bhl12rcd13ifvqgf0","pricing_plan_id":"cebpf4jnsgd1na2vs0mg"},{"bike_id":"966a1344-64d3-4294-a857-41dc23b0fb92","system_id":"levelo_inurba_marseille","lat":43.30422,"lon":5.38888,"is_reserved":false,"is_disabled":false,"rental_uris":{"android":"levelo://app?vid=966a1344-64d3-4294-a857-41dc23b0fb92","ios":"levelo://app?vid=966a1344-64d3-4294-a857-41dc23b0fb92"},"vehicle_type_id":"4","last_reported":1748672010,"current_range_meters":17600,"station_id":"ce4bgk12rcd13ifvqbi0","pricing_plan_id":"cebpf4jnsgd1na2vs0mg"},{"bike_id":"11b79d64-3454-4a1a-aee0-363b46bc3876","system_id":"levelo_inurba_marseille","lat":43.279147,"lon":5.395849,"is_reserved":false,"is_disabled":false,"rental_uris":{"android":"levelo://app?vid=11b79d64-3454-4a1a-aee0-363b46bc3876","ios":"levelo://app?vid=11b79d64-3454-4a1a-aee0-363b46bc3876"},"vehicle_type_id":"4","last_reported":1748672010,"current_range_meters":17600,"station_id":"ce4bhf92rcd13ifvqf40","pricing_plan_id":"cebpf4jnsgd1na2vs0mg"},{"bike_id":"4429ad77-ffb7-4248-9186-d69f7bd9bbb4","system_id":"levelo_inurba_marseille","lat":43.301293,"lon":5.398786,"is_reserved":false,"is_disabled":false,"rental_uris":{"android":"levelo://app?vid=4429ad77-ffb7-4248-9186-d69f7bd9bbb4","ios":"levelo://app?vid=4429ad77-ffb7-4248-9186-d69f7bd9bbb4"},"vehicle_type_id":"4","last_reported":1748672010,"current_range_meters":17600,"station_id":"ce4bh0h2rcd13ifvqd40","pricing_plan_id":"cebpf4jnsgd1na2vs0mg"},{"bike_id":"b0627e8c-3a03-4dcc-aa06-d94b3fdd7de2","system_id":"levelo_inurba_marseille","lat":43.295904,"lon":5.367507,"is_reserved":false,"is_disabled":true,"rental_uris":{"android":"levelo://app?vid=b0627e8c-3a03-4dcc-aa06-d94b3fdd7de2","ios":"levelo://app?vid=b0627e8c-3a03-4dcc-aa06-d94b3fdd7de2"},"vehicle_type_id":"4","last_reported":1748672010,"current_range_meters":17600,"station_id":"ce4bgph2rcd13ifvqc2g","pricing_plan_id":"cebpf4jnsgd1na2vs0mg"},{"bike_id":"9430034f-4c01-4e96-bef6-d97f59faaca1","system_id":"levelo_inurba_marseille","lat":43.2941,"lon":5.38577,"is_reserved":false,"is_disabled":true,"rental_uris":{"android":"levelo://app?vid=9430034f-4c01-4e96-bef6-d97f59faaca1","ios":"levelo://app?vid=9430034f-4c01-4e96-bef6-d97f59faaca1"},"vehicle_type_id":"4","last_reported":1748672010,"current_range_meters":17600,"station_id":"ce4bh2h2rcd13ifvqdh0","pricing_plan_id":"cebpf4jnsgd1na2vs0mg"},{"bike_id":"46f360c2-538e-4d9c-aa46-690cefc148d7","system_id":"levelo_inurba_marseille","lat":43.28561,"lon":5.39512,"is_reserved":false,"is_disabled":false,"rental_uris":{"android":"levelo://app?vid=46f360c2-538e-4d9c-aa46-690cefc148d7","ios":"levelo://app?vid=46f360c2-538e-4d9c-aa46-690cefc148d7"},"vehicle_type_id":"4","last_reported":1748672010,"current_range_meters":17600,"station_id":"ce4bh292rcd13ifvqdg0","pricing_plan_id":"cebpf4jnsgd1na2vs0mg"},{"bike_id":"f325a15f-9ad8-4375-8169-5c64975bd201","system_id":"levelo_inurba_marseille","lat":43.251152,"lon":5.403365,"is_reserved":false,"is_disabled":false,"rental_uris":{"android":"levelo://app?vid=f325a15f-9ad8-4375-8169-5c64975bd201","ios":"levelo://app?vid=f325a15f-9ad8-4375-8169-5c64975bd201"},"vehicle_type_id":"4","last_reported":1748672010,"current_range_meters":17600,"station_id":"ce4bhlh2rcd13ifvqgig","pricing_plan_id":"cebpf4jnsgd1na2vs0mg"},{"bike_id":"a71dc80a-1481-49c2-8742-137342881992","system_id":"levelo_inurba_marseille","lat":43.30427,"lon":5.38874,"is_reserved":false,"is_disabled":false,"rental_uris":{"android":"levelo://app?vid=a71dc80a-1481-49c2-8742-137342881992","ios":"levelo://app?vid=a71dc80a-1481-49c2-8742-137342881992"},"vehicle_type_id":"4","last_reported":1748672010,"current_range_meters":17600,"station_id":"ce4bgk12rcd13ifvqbi0","pricing_plan_id":"cebpf4jnsgd1na2vs0mg"},{"bike_id":"16b34092-0fcf-4d80-a6ec-cc1e223f7068","system_id":"levelo_inurba_marseille","lat":43.29276,"lon":5.40129,"is_reserved":false,"is_disabled":false,"rental_uris":{"android":"levelo://app?vid=16b34092-0fcf-4d80-a6ec-cc1e223f7068","ios":"levelo://app?vid=16b34092-0fcf-4d80-a6ec-cc1e223f7068"},"vehicle_type_id":"4","last_reported":1748672010,"current_range_meters":17600,"station_id":"ce4bh312rcd13ifvqdk0","pricing_plan_id":"cebpf4jnsgd1na2vs0mg"},{"bike_id":"45236288-68ce-436f-89e2-32cebfa0fc1a","system_id":"levelo_inurba_marseille","lat":43.30929,"lon":5.40137,"is_reserved":false,"is_disabled":false,"rental_uris":{"android":"levelo://app?vid=45236288-68ce-436f-89e2-32cebfa0fc1a","ios":"levelo://app?vid=45236288-68ce-436f-89e2-32cebfa0fc1a"},"vehicle_type_id":"4","last_reported":1748672010,"current_range_meters":17600,"station_id":"ce4bgvp2rcd13ifvqct0","pricing_plan_id":"cebpf4jnsgd1na2vs0mg"},{"bike_id":"aa732485-43cf-4818-b780-95241493f162","system_id":"levelo_inurba_marseille","lat":43.314778,"lon":5.372969,"is_reserved":false,"is_disabled":false,"rental_uris":{"android":"levelo://app?vid=aa732485-43cf-4818-b780-95241493f162","ios":"levelo://app?vid=aa732485-43cf-4818-b780-95241493f162"},"vehicle_type_id":"4","last_reported":1748672010,"current_range_meters":17600,"station_id":"ce4bgt12rcd13ifvqcd0","pricing_plan_id":"cebpf4jnsgd1na2vs0mg"},{"bike_id":"32503fa7-7208-4269-b40f-34ba3dae0f9e","system_id":"levelo_inurba_marseille","lat":43.30877,"lon":5.40378,"is_reserved":false,"is_disabled":false,"rental_uris":{"android":"levelo://app?vid=32503fa7-7208-4269-b40f-34ba3dae0f9e","ios":"levelo://app?vid=32503fa7-7208-4269-b40f-34ba3dae0f9e"},"vehicle_type_id":"4","last_reported":1748672010,"current_range_meters":18000,"station_id":"","pricing_plan_id":"cebpf4jnsgd1na2vs0mg"},{"bike_id":"f5a90625-b7e8-48a8-90c6-777efe255a32","system_id":"levelo_inurba_marseille","lat":43.251019,"lon":5.409684,"is_reserved":false,"is_disabled":false,"rental_uris":{"android":"levelo://app?vid=f5a90625-b7e8-48a8-90c6-777efe255a32","ios":"levelo://app?vid=f5a90625-b7e8-48a8-90c6-777efe255a32"},"vehicle_type_id":"4","last_reported":1748672010,"current_range_meters":18000,"station_id":"","pricing_plan_id":"cebpf4jnsgd1na2vs0mg"},{"bike_id":"37a87fb3-7eb0-46c5-9161-ae1109dfe7d7","system_id":"levelo_inurba_marseille","lat":43.276609,"lon":5.389298,"is_reserved":false,"is_disabled":false,"rental_uris":{"android":"levelo://app?vid=37a87fb3-7eb0-46c5-9161-ae1109dfe7d7","ios":"levelo://app?vid=37a87fb3-7eb0-46c5-9161-ae1109dfe7d7"},"vehicle_type_id":"4","last_reported":1748672010,"current_range_meters":18000,"station_id":"ce4bhi12rcd13ifvqfo0","pricing_plan_id":"cebpf4jnsgd1na2vs0mg"},{"bike_id":"58bdc00c-5a04-40bc-89cb-e7f4f427f55a","system_id":"levelo_inurba_marseille","lat":43.24078,"lon":5.37762,"is_reserved":false,"is_disabled":false,"rental_uris":{"android":"levelo://app?vid=58bdc00c-5a04-40bc-89cb-e7f4f427f55a","ios":"levelo://app?vid=58bdc00c-5a04-40bc-89cb-e7f4f427f55a"},"vehicle_type_id":"4","last_reported":1748672010,"current_range_meters":18000,"station_id":"ce4bhnp2rcd13ifvqgvg","pricing_plan_id":"cebpf4jnsgd1na2vs0mg"},{"bike_id":"2cad1a77-f17c-4531-9a5e-0fc96df10ede","system_id":"levelo_inurba_marseille","lat":43.262317,"lon":5.376779,"is_reserved":false,"is_disabled":false,"rental_uris":{"android":"levelo://app?vid=2cad1a77-f17c-4531-9a5e-0fc96df10ede","ios":"levelo://app?vid=2cad1a77-f17c-4531-9a5e-0fc96df10ede"},"vehicle_type_id":"4","last_reported":1748672010,"current_range_meters":18000,"station_id":"ce4bhh12rcd13ifvqff0","pricing_plan_id":"cebpf4jnsgd1na2vs0mg"},{"bike_id":"b433c371-fa62-4ef0-9c6a-19d8581a9331","system_id":"levelo_inurba_marseille","lat":43.28137,"lon":5.38176,"is_reserved":false,"is_disabled":false,"rental_uris":{"android":"levelo://app?vid=b433c371-fa62-4ef0-9c6a-19d8581a9331","ios":"levelo://app?vid=b433c371-fa62-4ef0-9c6a-19d8581a9331"},"vehicle_type_id":"4","last_reported":1748672010,"current_range_meters":18000,"station_id":"","pricing_plan_id":"cebpf4jnsgd1na2vs0mg"},{"bike_id":"b0a19a86-a34f-494d-9114-422bdec55090","system_id":"levelo_inurba_marseille","lat":43.3081,"lon":5.38148,"is_reserved":false,"is_disabled":false,"rental_uris":{"android":"levelo://app?vid=b0a19a86-a34f-494d-9114-422bdec55090","ios":"levelo://app?vid=b0a19a86-a34f-494d-9114-422bdec55090"},"vehicle_type_id":"4","last_reported":1748672010,"current_range_meters":18000,"station_id":"ce4bgt12rcd13ifvqce0","pricing_plan_id":"cebpf4jnsgd1na2vs0mg"},{"bike_id":"5ce80a09-7c7c-4dec-8130-369e14cc0e45","system_id":"levelo_inurba_marseille","lat":43.29024,"lon":5.38637,"is_reserved":false,"is_disabled":false,"rental_uris":{"android":"levelo://app?vid=5ce80a09-7c7c-4dec-8130-369e14cc0e45","ios":"levelo://app?vid=5ce80a09-7c7c-4dec-8130-369e14cc0e45"},"vehicle_type_id":"4","last_reported":1748672010,"current_range_meters":18000,"station_id":"ce4bh4p2rcd13ifvqe0g","pricing_plan_id":"cebpf4jnsgd1na2vs0mg"},{"bike_id":"9a87b717-f8e2-4016-bc78-03583a62a953","system_id":"levelo_inurba_marseille","lat":43.26558,"lon":5.403284,"is_reserved":false,"is_disabled":false,"rental_uris":{"android":"levelo://app?vid=9a87b717-f8e2-4016-bc78-03583a62a953","ios":"levelo://app?vid=9a87b717-f8e2-4016-bc78-03583a62a953"},"vehicle_type_id":"4","last_reported":1748672010,"current_range_meters":18800,"station_id":"","pricing_plan_id":"cebpf4jnsgd1na2vs0mg"},{"bike_id":"e30757e1-f101-4442-b172-d191304e9b62","system_id":"levelo_inurba_marseille","lat":43.27827,"lon":5.39214,"is_reserved":false,"is_disabled":false,"rental_uris":{"android":"levelo://app?vid=e30757e1-f101-4442-b172-d191304e9b62","ios":"levelo://app?vid=e30757e1-f101-4442-b172-d191304e9b62"},"vehicle_type_id":"4","last_reported":1748672010,"current_range_meters":18800,"station_id":"ce4bhjp2rcd13ifvqga0","pricing_plan_id":"cebpf4jnsgd1na2vs0mg"},{"bike_id":"447bf182-54a0-484d-9132-67a24a93699f","system_id":"levelo_inurba_marseille","lat":43.30424,"lon":5.39758,"is_reserved":false,"is_disabled":false,"rental_uris":{"android":"levelo://app?vid=447bf182-54a0-484d-9132-67a24a93699f","ios":"levelo://app?vid=447bf182-54a0-484d-9132-67a24a93699f"},"vehicle_type_id":"4","last_reported":1748672010,"current_range_meters":18800,"station_id":"ce4bh092rcd13ifvqd20","pricing_plan_id":"cebpf4jnsgd1na2vs0mg"},{"bike_id":"77520d45-03bf-4b26-9f9b-8ac6c162ce6b","system_id":"levelo_inurba_marseille","lat":43.243509,"lon":5.411389,"is_reserved":false,"is_disabled":false,"rental_uris":{"android":"levelo://app?vid=77520d45-03bf-4b26-9f9b-8ac6c162ce6b","ios":"levelo://app?vid=77520d45-03bf-4b26-9f9b-8ac6c162ce6b"},"vehicle_type_id":"4","last_reported":1748672010,"current_range_meters":18800,"station_id":"","pricing_plan_id":"cebpf4jnsgd1na2vs0mg"},{"bike_id":"13814efc-a8e9-45e1-a3d1-24b7010c1b58","system_id":"levelo_inurba_marseille","lat":43.23065,"lon":5.355274,"is_reserved":false,"is_disabled":true,"rental_uris":{"android":"levelo://app?vid=13814efc-a8e9-45e1-a3d1-24b7010c1b58","ios":"levelo://app?vid=13814efc-a8e9-45e1-a3d1-24b7010c1b58"},"vehicle_type_id":"4","last_reported":1748672010,"current_range_meters":18800,"station_id":"cpo3342slgdg3j2ifvpg","pricing_plan_id":"cebpf4jnsgd1na2vs0mg"},{"bike_id":"545fc5fb-3e30-49d3-8106-daeb04955392","system_id":"levelo_inurba_marseille","lat":43.278266,"lon":5.392015,"is_reserved":false,"is_disabled":false,"rental_uris":{"android":"levelo://app?vid=545fc5fb-3e30-49d3-8106-daeb04955392","ios":"levelo://app?vid=545fc5fb-3e30-49d3-8106-daeb04955392"},"vehicle_type_id":"4","last_reported":1748672010,"current_range_meters":18800,"station_id":"ce4bhjp2rcd13ifvqga0","pricing_plan_id":"cebpf4jnsgd1na2vs0mg"},{"bike_id":"9c8ca113-e9a4-4c52-adc3-c1eb6f69cab1","system_id":"levelo_inurba_marseille","lat":43.32337,"lon":5.4062,"is_reserved":false,"is_disabled":false,"rental_uris":{"android":"levelo://app?vid=9c8ca113-e9a4-4c52-adc3-c1eb6f69cab1","ios":"levelo://app?vid=9c8ca113-e9a4-4c52-adc3-c1eb6f69cab1"},"vehicle_type_id":"4","last_reported":1748672010,"current_range_meters":18800,"station_id":"ce4bhq92rcd13ifvqhjg","pricing_plan_id":"cebpf4jnsgd1na2vs0mg"},{"bike_id":"c48346d3-eb33-4a16-862d-27fa2ccfd497","system_id":"levelo_inurba_marseille","lat":43.28949,"lon":5.36659,"is_reserved":false,"is_disabled":false,"rental_uris":{"android":"levelo://app?vid=c48346d3-eb33-4a16-862d-27fa2ccfd497","ios":"levelo://app?vid=c48346d3-eb33-4a16-862d-27fa2ccfd497"},"vehicle_type_id":"4","last_reported":1748672010,"current_range_meters":18800,"station_id":"ce4bhap2rcd13ifvqek0","pricing_plan_id":"cebpf4jnsgd1na2vs0mg"},{"bike_id":"56ed4761-a43c-4469-9ea6-f227f320ed7f","system_id":"levelo_inurba_marseille","lat":43.23154,"lon":5.43726,"is_reserved":false,"is_disabled":false,"rental_uris":{"android":"levelo://app?vid=56ed4761-a43c-4469-9ea6-f227f320ed7f","ios":"levelo://app?vid=56ed4761-a43c-4469-9ea6-f227f320ed7f"},"vehicle_type_id":"4","last_reported":1748672010,"current_range_meters":18800,"station_id":"ce4bhmp2rcd13ifvqgog","pricing_plan_id":"cebpf4jnsgd1na2vs0mg"},