{"last_updated":1774131224,"ttl":60,"version":"2.2","data":{"bikes":[{"bike_id":"a775511c-9985-4a58-8c4c-775aad7f3e36","system_id":"levelo_inurba_marseille","lat":43.29902,"lon":5.43671,"is_reserved":false,"is_disabled":false,"rental_uris":{"android":"levelo://app?vid=a775511c-9985-4a58-8c4c-775aad7f3e36","ios":"levelo://app?vid=a775511c-9985-4a58-8c4c-775aad7f3e36"},"vehicle_type_id":"4","last_reported":1774131225,"current_range_meters":2800,"station_id":"ce4bhpp2rcd13ifvqhfg","pricing_plan_id":"cebpf4jnsgd1na2vs0mg"},{"bike_id":"e2420c11-4646-4145-aa2e-baedb91a43dc","system_id":"levelo_inurba_marseille","lat":43.32354,"lon":5.3674,"is_reserved":false,"is_disabled":false,"rental_uris":{"android":"levelo://app?vid=e2420c11-4646-4145-aa2e-baedb91a43dc","ios":"levelo://app?vid=e2420c11-4646-4145-aa2e-baedb91a43dc"},"vehicle_type_id":"4","last_reported":1774131225,"current_range_meters":2800,"station_id":"ce4bhsh2rcd13ifvqi2g","pricing_plan_id":"cebpf4jnsgd1na2vs0mg"},{"bike_id":"03a74229-5ede-4cd5-9ad9-d142ed50c73e","system_id":"levelo_inurba_marseille","lat":43.2448,"lon":5.42514,"is_reserved":false,"is_disabled":false,"rental_uris":{"android":"levelo://app?vid=03a74229-5ede-4cd5-9ad9-d142ed50c73e","ios":"levelo://app?vid=03a74229-5ede-4cd5-9ad9-d142ed50c73e"},"vehicle_type_id":"4","last_reported":1774131225,"current_range_meters":2800,"station_id":"st_d4a3vfp97mjs738cd8kg","pricing_plan_id":"cebpf4jnsgd1na2vs0mg"},{"bike_id":"0e1fdb5e-1222-475a-bc36-d4f7c9618892","system_id":"levelo_inurba_marseille","lat":43.297072,"lon":5.376872,"is_reserved":false,"is_disabled":false,"rental_uris":{"android":"levelo://app?vid=0e1fdb5e-1222-475a-bc36-d4f7c9618892","ios":"levelo://app?vid=0e1fdb5e-1222-475a-bc36-d4f7c9618892"},"vehicle_type_id":"4","last_reported":1774131225,"current_range_meters":2800,"station_id":"ce4bgkh2rcd13ifvqbl0","pricing_plan_id":"cebpf4jnsgd1na2vs0mg"},{"bike_id":"d87c2b24-bfff-4193-bb78-fdde0847dbc7","system_id":"levelo_inurba_marseille","lat":43.30211,"lon":5.39464,"is_reserved":false,"is_disabled":false,"rental_uris":{"android":"levelo://app?vid=d87c2b24-bfff-4193-bb78-fdde0847dbc7","ios":"levelo://app?vid=d87c2b24-bfff-4193-bb78-fdde0847dbc7"},"vehicle_type_id":"4","last_reported":1774131225,"current_range_meters":2800,"station_id":"ce4bh0p2rcd13ifvqd70","pricing_plan_id":"cebpf4jnsgd1na2vs0mg"},{"bike_id":"4c107cd6-8262-480f-aa02-2d435c54bc0b","system_id":"levelo_inurba_marseille","lat":43.29514,"lon":5.3752,"is_reserved":false,"is_disabled":false,"rental_uris":{"android":"levelo://app?vid=4c107cd6-8262-480f-aa02-2d435c54bc0b","ios":"levelo://app?vid=4c107cd6-8262-480f-aa02-2d435c54bc0b"},"vehicle_type_id":"4","last_reported":1774131225,"current_range_meters":2800,"station_id":"ce4bgkp2rcd13ifvqbmg","pricing_plan_id":"cebpf4jnsgd1na2vs0mg"},{"bike_id":"9b91f71d-6123-4003-9c0b-5c859ade40e3","system_id":"levelo_inurba_marseille","lat":43.28013,"lon":5.40019,"is_reserved":false,"is_disabled":false,"rental_uris":{"android":"levelo://app?vid=9b91f71d-6123-4003-9c0b-5c859ade40e3","ios":"levelo://app?vid=9b91f71d-6123-4003-9c0b-5c859ade40e3"},"vehicle_type_id":"4","last_reported":1774131225,"current_range_meters":2800,"station_id":"ce4bho92rcd13ifvqh4g","pricing_plan_id":"cebpf4jnsgd1na2vs0mg"},{"bike_id":"530ae364-ab89-4acc-9624-f9cef445515a","system_id":"levelo_inurba_marseille","lat":43.28692,"lon":5.39996,"is_reserved":false,"is_disabled":false,"rental_uris":{"android":"levelo://app?vid=530ae364-ab89-4acc-9624-f9cef445515a","ios":"levelo://app?vid=530ae364-ab89-4acc-9624-f9cef445515a"},"vehicle_type_id":"4","last_reported":1774131225,"current_range_meters":2800,"station_id":"ce4bho92rcd13ifvqh3g","pricing_plan_id":"cebpf4jnsgd1na2vs0mg"},{"bike_id":"89ad46cf-ad84-4e5e-be57-87ac2cebe69c","system_id":"levelo_inurba_marseille","lat":43.28481,"lon":5.48409,"is_reserved":false,"is_disabled":false,"rental_uris":{"android":"levelo://app?vid=89ad46cf-ad84-4e5e-be57-87ac2cebe69c","ios":"levelo://app?vid=89ad46cf-ad84-4e5e-be57-87ac2cebe69c"},"vehicle_type_id":"4","last_reported":1774131225,"current_range_meters":2800,"station_id":"st_d3svhcjqgbts73a3dn0g","pricing_plan_id":"cebpf4jnsgd1na2vs0mg"},{"bike_id":"c1aedc75-779d-44ff-b273-c9cd0e5f6664","system_id":"levelo_inurba_marseille","lat":43.28033,"lon":5.36944,"is_reserved":false,"is_disabled":false,"rental_uris":{"android":"levelo://app?vid=c1aedc75-779d-44ff-b273-c9cd0e5f6664","ios":"levelo://app?vid=c1aedc75-779d-44ff-b273-c9cd0e5f6664"},"vehicle_type_id":"4","last_reported":1774131225,"current_range_meters":2800,"station_id":"ce4bha12rcd13ifvqef0","pricing_plan_id":"cebpf4jnsgd1na2vs0mg"},{"bike_id":"5369b164-958d-421b-abb3-5b08eb8c9404","system_id":"levelo_inurba_marseille","lat":43.29602,"lon":5.38109,"is_reserved":false,"is_disabled":false,"rental_uris":{"android":"levelo://app?vid=5369b164-958d-421b-abb3-5b08eb8c9404","ios":"levelo://app?vid=5369b164-958d-421b-abb3-5b08eb8c9404"},"vehicle_type_id":"4","last_reported":1774131225,"current_range_meters":2800,"station_id":"ce4bgl12rcd13ifvqbo0","pricing_plan_id":"cebpf4jnsgd1na2vs0mg"},{"bike_id":"a96bed03-4bc3-412a-9ef2-84e473f7d464","system_id":"levelo_inurba_marseille","lat":43.27198,"lon":5.41002,"is_reserved":false,"is_disabled":false,"rental_uris":{"android":"levelo://app?vid=a96bed03-4bc3-412a-9ef2-84e473f7d464","ios":"levelo://app?vid=a96bed03-4bc3-412a-9ef2-84e473f7d464"},"vehicle_type_id":"4","last_reported":1774131225,"current_range_meters":2800,"station_id":"ce4bhl12rcd13ifvqgf0","pricing_plan_id":"cebpf4jnsgd1na2vs0mg"},{"bike_id":"c1746655-55ef-42eb-af42-797a35d5f041","system_id":"levelo_inurba_marseille","lat":43.31912,"lon":5.36798,"is_reserved":false,"is_disabled":false,"rental_uris":{"android":"levelo://app?vid=c1746655-55ef-42eb-af42-797a35d5f041","ios":"levelo://app?vid=c1746655-55ef-42eb-af42-797a35d5f041"},"vehicle_type_id":"4","last_reported":1774131225,"current_range_meters":2800,"station_id":"","pricing_plan_id":"cebpf4jnsgd1na2vs0mg"},{"bike_id":"9a47aa24-6695-448f-bfeb-b54d12f4a4cc","system_id":"levelo_inurba_marseille","lat":43.30795,"lon":5.37651,"is_reserved":false,"is_disabled":false,"rental_uris":{"android":"levelo://app?vid=9a47aa24-6695-448f-bfeb-b54d12f4a4cc","ios":"levelo://app?vid=9a47aa24-6695-448f-bfeb-b54d12f4a4cc"},"vehicle_type_id":"4","last_reported":1774131225,"current_range_meters":2800,"station_id":"ce4bgv92rcd13ifvqcq0","pricing_plan_id":"cebpf4jnsgd1na2vs0mg"},{"bike_id":"77f8a8b1-2bdb-42b0-adbe-1a8ec0f6e7dc","system_id":"levelo_inurba_marseille","lat":43.29897,"lon":5.44241,"is_reserved":false,"is_disabled":false,"rental_uris":{"android":"levelo://app?vid=77f8a8b1-2bdb-42b0-adbe-1a8ec0f6e7dc","ios":"levelo://app?vid=77f8a8b1-2bdb-42b0-adbe-1a8ec0f6e7dc"},"vehicle_type_id":"4","last_reported":1774131225,"current_range_meters":3200,"station_id":"","pricing_plan_id":"cebpf4jnsgd1na2vs0mg"},{"bike_id":"53f48266-4564-420b-96ab-d243233055dc","system_id":"levelo_inurba_marseille","lat":43.28476,"lon":5.48396,"is_reserved":false,"is_disabled":false,"rental_uris":{"android":"levelo://app?vid=53f48266-4564-420b-96ab-d243233055dc","ios":"levelo://app?vid=53f48266-4564-420b-96ab-d243233055dc"},"vehicle_type_id":"4","last_reported":1774131225,"current_range_meters":3200,"station_id":"","pricing_plan_id":"cebpf4jnsgd1na2vs0mg"},{"bike_id":"f15bd2d3-5b76-4516-83cf-607c5d5c7457","system_id":"levelo_inurba_marseille","lat":43.30817,"lon":5.38139,"is_reserved":false,"is_disabled":false,"rental_uris":{"android":"levelo://app?vid=f15bd2d3-5b76-4516-83cf-607c5d5c7457","ios":"levelo://app?vid=f15bd2d3-5b76-4516-83cf-607c5d5c7457"},"vehicle_type_id":"4","last_reported":1774131225,"current_range_meters":3200,"station_id":"ce4bgt12rcd13ifvqce0","pricing_plan_id":"cebpf4jnsgd1na2vs0mg"},{"bike_id":"0f699794-8202-4161-a052-1d39a341c5fa","system_id":"levelo_inurba_marseille","lat":43.31226,"lon":5.3865,"is_reserved":false,"is_disabled":true,"rental_uris":{"android":"levelo://app?vid=0f699794-8202-4161-a052-1d39a341c5fa","ios":"levelo://app?vid=0f699794-8202-4161-a052-1d39a341c5fa"},"vehicle_type_id":"4","last_reported":1774131225,"current_range_meters":3200,"station_id":"","pricing_plan_id":"cebpf4jnsgd1na2vs0mg"},{"bike_id":"248539f1-1dbd-4678-b58c-e7849287fdd5","system_id":"levelo_inurba_marseille","lat":43.26378,"lon":5.4106,"is_reserved":false,"is_disabled":false,"rental_uris":{"android":"levelo://app?vid=248539f1-1dbd-4678-b58c-e7849287fdd5","ios":"levelo://app?vid=248539f1-1dbd-4678-b58c-e7849287fdd5"},"vehicle_type_id":"4","last_reported":1774131225,"current_range_meters":3200,"station_id":"st_d4e5ca6na9uc73bfl5fg","pricing_plan_id":"cebpf4jnsgd1na2vs0mg"},{"bike_id":"25711bef-13f9-48fd-8f33-592148b8dc65","system_id":"levelo_inurba_marseille","lat":43.25345,"lon":5.42183,"is_reserved":false,"is_disabled":false,"rental_uris":{"android":"levelo://app?vid=25711bef-13f9-48fd-8f33-592148b8dc65","ios":"levelo://app?vid=25711bef-13f9-48fd-8f33-592148b8dc65"},"vehicle_type_id":"4","last_reported":1774131225,"current_range_meters":3200,"station_id":"st_d2m65c5bi1j21697t3ng","pricing_plan_id":"cebpf4jnsgd1na2vs0mg"},{"bike_id":"c26ea08a-6b49-4811-b704-67a2b0ca9871","system_id":"levelo_inurba_marseille","lat":43.3043,"lon":5.3888,"is_reserved":false,"is_disabled":false,"rental_uris":{"android":"levelo://app?vid=c26ea08a-6b49-4811-b704-67a2b0ca9871","ios":"levelo://app?vid=c26ea08a-6b49-4811-b704-67a2b0ca9871"},"vehicle_type_id":"4","last_reported":1774131225,"current_range_meters":3200,"station_id":"ce4bgk12rcd13ifvqbi0","pricing_plan_id":"cebpf4jnsgd1na2vs0mg"},{"bike_id":"c65d291c-fa3e-434a-9f02-9184fcf8a288","system_id":"levelo_inurba_marseille","lat":43.29793,"lon":5.38105,"is_reserved":false,"is_disabled":false,"rental_uris":{"android":"levelo://app?vid=c65d291c-fa3e-434a-9f02-9184fcf8a288","ios":"levelo://app?vid=c65d291c-fa3e-434a-9f02-9184fcf8a288"},"vehicle_type_id":"4","last_reported":1774131225,"current_range_meters":3200,"station_id":"ce4bgip2rcd13ifvqbb0","pricing_plan_id":"cebpf4jnsgd1na2vs0mg"},{"bike_id":"ad47e9bb-b18d-4893-874f-8071046fb9b4","system_id":"levelo_inurba_marseille","lat":43.29975,"lon":5.38497,"is_reserved":false,"is_disabled":false,"rental_uris":{"android":"levelo://app?vid=ad47e9bb-b18d-4893-874f-8071046fb9b4","ios":"levelo://app?vid=ad47e9bb-b18d-4893-874f-8071046fb9b4"},"vehicle_type_id":"4","last_reported":1774131225,"current_range_meters":3200,"station_id":"ce4bgj92rcd13ifvqbd0","pricing_plan_id":"cebpf4jnsgd1na2vs0mg"},{"bike_id":"27a3def1-a36e-435f-97bd-8eda9cb567d5","system_id":"levelo_inurba_marseille","lat":43.28695,"lon":5.37402,"is_reserved":false,"is_disabled":false,"rental_uris":{"android":"levelo://app?vid=27a3def1-a36e-435f-97bd-8eda9cb567d5","ios":"levelo://app?vid=27a3def1-a36e-435f-97bd-8eda9cb567d5"},"vehicle_type_id":"4","last_reported":1774131225,"current_range_meters":3600,"station_id":"ce4bh3p2rcd13ifvqdq0","pricing_plan_id":"cebpf4jnsgd1na2vs0mg"},{"bike_id":"ad1c9cf9-c28c-41f7-921b-7a34d03ac665","system_id":"levelo_inurba_marseille","lat":43.2954,"lon":5.38553,"is_reserved":false,"is_disabled":false,"rental_uris":{"android":"levelo://app?vid=ad1c9cf9-c28c-41f7-921b-7a34d03ac665","ios":"levelo://app?vid=ad1c9cf9-c28c-41f7-921b-7a34d03ac665"},"vehicle_type_id":"4","last_reported":1774131225,"current_range_meters":3600,"station_id":"ce4bgih2rcd13ifvqba0","pricing_plan_id":"cebpf4jnsgd1na2vs0mg"},{"bike_id":"8a4ee7b7-fcbb-4e7a-a2d1-3d56548ff53c","system_id":"levelo_inurba_marseille","lat":43.29095,"lon":5.38164,"is_reserved":false,"is_disabled":false,"rental_uris":{"android":"levelo://app?vid=8a4ee7b7-fcbb-4e7a-a2d1-3d56548ff53c","ios":"levelo://app?vid=8a4ee7b7-fcbb-4e7a-a2d1-3d56548ff53c"},"vehicle_type_id":"4","last_reported":1774131225,"current_range_meters":3600,"station_id":"ce4bh512rcd13ifvqe2g","pricing_plan_id":"cebpf4jnsgd1na2vs0mg"},{"bike_id":"8aeb1ffc-b432-4235-8304-c0a4c58e7fe3","system_id":"levelo_inurba_marseille","lat":43.29749,"lon":5.38398,"is_reserved":false,"is_disabled":false,"rental_uris":{"android":"levelo://app?vid=8aeb1ffc-b432-4235-8304-c0a4c58e7fe3","ios":"levelo://app?vid=8aeb1ffc-b432-4235-8304-c0a4c58e7fe3"},"vehicle_type_id":"4","last_reported":1774131225,"current_range_meters":3600,"station_id":"","pricing_plan_id":"cebpf4jnsgd1na2vs0mg"},{"bike_id":"ecc641f1-72e5-4eec-8cc2-a5f8c7c8bdfc","system_id":"levelo_inurba_marseille","lat":43.30217,"lon":5.39445,"is_reserved":false,"is_disabled":false,"rental_uris":{"android":"levelo://app?vid=ecc641f1-72e5-4eec-8cc2-a5f8c7c8bdfc","ios":"levelo://app?vid=ecc641f1-72e5-4eec-8cc2-a5f8c7c8bdfc"},"vehicle_type_id":"4","last_reported":1774131225,"current_range_meters":3600,"station_id":"ce4bh0p2rcd13ifvqd70","pricing_plan_id":"cebpf4jnsgd1na2vs0mg"},{"bike_id":"2986b60a-3bbe-4212-8e67-594d4f9f2b39","system_id":"levelo_inurba_marseille","lat":43.278168,"lon":5.407221,"is_reserved":false,"is_disabled":false,"rental_uris":{"android":"levelo://app?vid=2986b60a-3bbe-4212-8e67-594d4f9f2b39","ios":"levelo://app?vid=2986b60a-3bbe-4212-8e67-594d4f9f2b39"},"vehicle_type_id":"4","last_reported":1774131225,"current_range_meters":3600,"station_id":"ce4bhnh2rcd13ifvqgtg","pricing_plan_id":"cebpf4jnsgd1na2vs0mg"},{"bike_id":"16fe25c4-6472-47d6-882b-5ff94101fa7d","system_id":"levelo_inurba_marseille","lat":43.21208,"lon":5.35074,"is_reserved":false,"is_disabled":false,"rental_uris":{"android":"levelo://app?vid=16fe25c4-6472-47d6-882b-5ff94101fa7d","ios":"levelo://app?vid=16fe25c4-6472-47d6-882b-5ff94101fa7d"},"vehicle_type_id":"4","last_reported":1774131225,"current_range_meters":3600,"station_id":"st_cvj6sg6p6f1abm77japg","pricing_plan_id":"cebpf4jnsgd1na2vs0mg"},{"bike_id":"751ef627-02fd-4d51-952c-1fc9b24a865e","system_id":"levelo_inurba_marseille","lat":43.29633,"lon":5.37724,"is_reserved":false,"is_disabled":false,"rental_uris":{"android":"levelo://app?vid=751ef627-02fd-4d51-952c-1fc9b24a865e","ios":"levelo://app?vid=751ef627-02fd-4d51-952c-1fc9b24a865e"},"vehicle_type_id":"4","last_reported":1774131225,"current_range_meters":3600,"station_id":"ce4bgi92rcd13ifvqb90","pricing_plan_id":"cebpf4jnsgd1na2vs0mg"},{"bike_id":"dcb7fa85-9576-461b-9db4-bfb93259aa75","system_id":"levelo_inurba_marseille","lat":43.25528,"lon":5.37691,"is_reserved":false,"is_disabled":true,"rental_uris":{"android":"levelo://app?vid=dcb7fa85-9576-461b-9db4-bfb93259aa75","ios":"levelo://app?vid=dcb7fa85-9576-461b-9db4-bfb93259aa75"},"vehicle_type_id":"4","last_reported":1774131225,"current_range_meters":3600,"station_id":"","pricing_plan_id":"cebpf4jnsgd1na2vs0mg"},{"bike_id":"468a5932-e47d-4ce1-8687-fa5662a3dd04","system_id":"levelo_inurba_marseille","lat":43.28439,"lon":5.39192,"is_reserved":false,"is_disabled":false,"rental_uris":{"android":"levelo://app?vid=468a5932-e47d-4ce1-8687-fa5662a3dd04","ios":"levelo://app?vid=468a5932-e47d-4ce1-8687-fa5662a3dd04"},"vehicle_type_id":"4","last_reported":1774131225,"current_range_meters":3600,"station_id":"ce4bhoh2rcd13ifvqh5g","pricing_plan_id":"cebpf4jnsgd1na2vs0mg"},{"bike_id":"b309780c-f18f-4fe1-a296-4db0116af156","system_id":"levelo_inurba_marseille","lat":43.28627,"lon":5.35094,"is_reserved":false,"is_disabled":false,"rental_uris":{"android":"levelo://app?vid=b309780c-f18f-4fe1-a296-4db0116af156","ios":"levelo://app?vid=b309780c-f18f-4fe1-a296-4db0116af156"},"vehicle_type_id":"4","last_reported":1774131225,"current_range_meters":3600,"station_id":"ce4bhch2rcd13ifvqeug","pricing_plan_id":"cebpf4jnsgd1na2vs0mg"},{"bike_id":"5887fa80-e29b-4d51-b5ac-9b9cb10de9fc","system_id":"levelo_inurba_marseille","lat":43.31174,"lon":5.38711,"is_reserved":false,"is_disabled":false,"rental_uris":{"android":"levelo://app?vid=5887fa80-e29b-4d51-b5ac-9b9cb10de9fc","ios":"levelo://app?vid=5887fa80-e29b-4d51-b5ac-9b9cb10de9fc"},"vehicle_type_id":"4","last_reported":1774131225,"current_range_meters":3600,"station_id":"ce4bgv12rcd13ifvqcp0","pricing_plan_id":"cebpf4jnsgd1na2vs0mg"},{"bike_id":"7ba80008-60b8-4bf7-9180-542631266876","system_id":"levelo_inurba_marseille","lat":43.3355,"lon":5.37469,"is_reserved":false,"is_disabled":false,"rental_uris":{"android":"levelo://app?vid=7ba80008-60b8-4bf7-9180-542631266876","ios":"levelo://app?vid=7ba80008-60b8-4bf7-9180-542631266876"},"vehicle_type_id":"4","last_reported":1774131225,"current_range_meters":3600,"station_id":"st_d46tts09ee8s73dlu43g","pricing_plan_id":"cebpf4jnsgd1na2vs0mg"},{"bike_id":"9bedb971-6887-4d43-88c8-1762430f453d","system_id":"levelo_inurba_marseille","lat":43.24668,"lon":5.38168,"is_reserved":false,"is_disabled":true,"rental_uris":{"android":"levelo://app?vid=9bedb971-6887-4d43-88c8-1762430f453d","ios":"levelo://app?vid=9bedb971-6887-4d43-88c8-1762430f453d"},"vehicle_type_id":"4","last_reported":1774131225,"current_range_meters":3600,"station_id":"ce4bhih2rcd13ifvqfr0","pricing_plan_id":"cebpf4jnsgd1na2vs0mg"},{"bike_id":"ad0918dd-198c-4cbb-ab94-e0fdeab67f2b","system_id":"levelo_inurba_marseille","lat":43.23191,"lon":5.35563,"is_reserved":false,"is_disabled":false,"rental_uris":{"android":"levelo://app?vid=ad0918dd-198c-4cbb-ab94-e0fdeab67f2b","ios":"levelo://app?vid=ad0918dd-198c-4cbb-ab94-e0fdeab67f2b"},"vehicle_type_id":"4","last_reported":1774131225,"current_range_meters":3600,"station_id":"ce4bhu92rcd13ifvqi70","pricing_plan_id":"cebpf4jnsgd1na2vs0mg"},{"bike_id":"894d0cad-555f-4065-a812-2928f8abe91e","system_id":"levelo_inurba_marseille","lat":43.3136,"lon":5.3675,"is_reserved":false,"is_disabled":false,"rental_uris":{"android":"levelo://app?vid=894d0cad-555f-4065-a812-2928f8abe91e","ios":"levelo://app?vid=894d0cad-555f-4065-a812-2928f8abe91e"},"vehicle_type_id":"4","last_reported":1774131225,"current_range_meters":3600,"station_id":"ce4bgr92rcd13ifvqc6g","pricing_plan_id":"cebpf4jnsgd1na2vs0mg"},{"bike_id":"227eba85-8211-4d0d-bd09-d4a734cfd50d","system_id":"levelo_inurba_marseille","lat":43.29519,"lon":5.38531,"is_reserved":false,"is_disabled":false,"rental_uris":{"android":"levelo://app?vid=227eba85-8211-4d0d-bd09-d4a734cfd50d","ios":"levelo://app?vid=227eba85-8211-4d0d-bd09-d4a734cfd50d"},"vehicle_type_id":"4","last_reported":1774131225,"current_range_meters":3600,"station_id":"ce4bgih2rcd13ifvqba0","pricing_plan_id":"cebpf4jnsgd1na2vs0mg"},{"bike_id":"7fa64d84-cd92-4f02-a79d-c348b129b15f","system_id":"levelo_inurba_marseille","lat":43.24169,"lon":5.36401,"is_reserved":false,"is_disabled":false,"rental_uris":{"android":"levelo://app?vid=7fa64d84-cd92-4f02-a79d-c348b129b15f","ios":"levelo://app?vid=7fa64d84-cd92-4f02-a79d-c348b129b15f"},"vehicle_type_id":"4","last_reported":1774131225,"current_range_meters":3600,"station_id":"cpo36qri1sfpv3e86is0","pricing_plan_id":"cebpf4jnsgd1na2vs0mg"},{"bike_id":"96025a3c-8a5a-4ec2-bcab-bc6756d2bb33","system_id":"levelo_inurba_marseille","lat":43.29576,"lon":5.39982,"is_reserved":false,"is_disabled":false,"rental_uris":{"android":"levelo://app?vid=96025a3c-8a5a-4ec2-bcab-bc6756d2bb33","ios":"levelo://app?vid=96025a3c-8a5a-4ec2-bcab-bc6756d2bb33"},"vehicle_type_id":"4","last_reported":1774131225,"current_range_meters":3600,"station_id":"ce4bh312rcd13ifvqdj0","pricing_plan_id":"cebpf4jnsgd1na2vs0mg"},{"bike_id":"65047a44-523d-4084-87dd-bd7e0f2c85da","system_id":"levelo_inurba_marseille","lat":43.30435,"lon":5.39731,"is_reserved":false,"is_disabled":false,"rental_uris":{"android":"levelo://app?vid=65047a44-523d-4084-87dd-bd7e0f2c85da","ios":"levelo://app?vid=65047a44-523d-4084-87dd-bd7e0f2c85da"},"vehicle_type_id":"4","last_reported":1774131225,"current_range_meters":3600,"station_id":"ce4bh092rcd13ifvqd20","pricing_plan_id":"cebpf4jnsgd1na2vs0mg"},{"bike_id":"65e3c374-6c7f-4f21-9102-db4e7e931f49","system_id":"levelo_inurba_marseille","lat":43.29174,"lon":5.37167,"is_reserved":false,"is_disabled":false,"rental_uris":{"android":"levelo://app?vid=65e3c374-6c7f-4f21-9102-db4e7e931f49","ios":"levelo://app?vid=65e3c374-6c7f-4f21-9102-db4e7e931f49"},"vehicle_type_id":"4","last_reported":1774131225,"current_range_meters":3600,"station_id":"ce4bha92rcd13ifvqeh0","pricing_plan_id":"cebpf4jnsgd1na2vs0mg"},{"bike_id":"76e3a855-6bf4-460f-ac74-ec562db94e69","system_id":"levelo_inurba_marseille","lat":43.30797,"lon":5.40034,"is_reserved":false,"is_disabled":false,"rental_uris":{"android":"levelo://app?vid=76e3a855-6bf4-460f-ac74-ec562db94e69","ios":"levelo://app?vid=76e3a855-6bf4-460f-ac74-ec562db94e69"},"vehicle_type_id":"4","last_reported":1774131225,"current_range_meters":3600,"station_id":"","pricing_plan_id":"cebpf4jnsgd1na2vs0mg"},{"bike_id":"fdc655d4-8c99-4d97-9c1e-46ec98ef8979","system_id":"levelo_inurba_marseille","lat":43.28658,"lon":5.35119,"is_reserved":false,"is_disabled":true,"rental_uris":{"android":"levelo://app?vid=fdc655d4-8c99-4d97-9c1e-46ec98ef8979","ios":"levelo://app?vid=fdc655d4-8c99-4d97-9c1e-46ec98ef8979"},"vehicle_type_id":"4","last_reported":1774131225,"current_range_meters":4000,"station_id":"ce4bhch2rcd13ifvqeug","pricing_plan_id":"cebpf4jnsgd1na2vs0mg"},{"bike_id":"ddc789ee-b314-4ab5-9696-915f4c777452","system_id":"levelo_inurba_marseille","lat":43.30947,"lon":5.39052,"is_reserved":false,"is_disabled":false,"rental_uris":{"android":"levelo://app?vid=ddc789ee-b314-4ab5-9696-915f4c777452","ios":"levelo://app?vid=ddc789ee-b314-4ab5-9696-915f4c777452"},"vehicle_type_id":"4","last_reported":1774131225,"current_range_meters":4000,"station_id":"ce4bgup2rcd13ifvqco0","pricing_plan_id":"cebpf4jnsgd1na2vs0mg"},{"bike_id":"13c17177-f179-4ddb-8ac8-9d4b5f873670","system_id":"levelo_inurba_marseille","lat":43.30128,"lon":5.38765,"is_reserved":false,"is_disabled":false,"rental_uris":{"android":"levelo://app?vid=13c17177-f179-4ddb-8ac8-9d4b5f873670","ios":"levelo://app?vid=13c17177-f179-4ddb-8ac8-9d4b5f873670"},"vehicle_type_id":"4","last_reported":1774131225,"current_range_meters":4000,"station_id":"ce4bghh2rcd13ifvqb60","pricing_plan_id":"cebpf4jnsgd1na2vs0mg"},{"bike_id":"93e3b486-9a48-41cf-a5e5-5c77d5fc5926","system_id":"levelo_inurba_marseille","lat":43.29534,"lon":5.38559,"is_reserved":false,"is_disabled":false,"rental_uris":{"android":"levelo://app?vid=93e3b486-9a48-41cf-a5e5-5c77d5fc5926","ios":"levelo://app?vid=93e3b486-9a48-41cf-a5e5-5c77d5fc5926"},"vehicle_type_id":"4","last_reported":1774131225,"current_range_meters":4000,"station_id":"ce4bgih2rcd13ifvqba0","pricing_plan_id":"cebpf4jnsgd1na2vs0mg"},{"bike_id":"98247e24-3bc2-4a40-85bf-746c8cabf834","system_id":"levelo_inurba_marseille","lat":43.26213,"lon":5.37439,"is_reserved":false,"is_disabled":false,"rental_uris":{"android":"levelo://app?vid=98247e24-3bc2-4a40-85bf-746c8cabf834","ios":"levelo://app?vid=98247e24-3bc2-4a40-85bf-746c8cabf834"},"vehicle_type_id":"4","last_reported":1774131225,"current_range_meters":4000,"station_id":"ce4bhgp2rcd13ifvqfc0","pricing_plan_id":"cebpf4jnsgd1na2vs0mg"},{"bike_id":"67a0db2c-ee8f-450c-bad4-b22547a84daf","system_id":"levelo_inurba_marseille","lat":43.29779,"lon":5.38076,"is_reserved":false,"is_disabled":false,"rental_uris":{"android":"levelo://app?vid=67a0db2c-ee8f-450c-bad4-b22547a84daf","ios":"levelo://app?vid=67a0db2c-ee8f-450c-bad4-b22547a84daf"},"vehicle_type_id":"4","last_reported":1774131225,"current_range_meters":4000,"station_id":"ce4bgip2rcd13ifvqbb0","pricing_plan_id":"cebpf4jnsgd1na2vs0mg"},{"bike_id":"f7980c2b-e862-49a2-ac35-df8e5d5ffd4e","system_id":"levelo_inurba_marseille","lat":43.30808,"lon":5.38144,"is_reserved":false,"is_disabled":false,"rental_uris":{"android":"levelo://app?vid=f7980c2b-e862-49a2-ac35-df8e5d5ffd4e","ios":"levelo://app?vid=f7980c2b-e862-49a2-ac35-df8e5d5ffd4e"},"vehicle_type_id":"4","last_reported":1774131225,"current_range_meters":4000,"station_id":"ce4bgt12rcd13ifvqce0","pricing_plan_id":"cebpf4jnsgd1na2vs0mg"},{"bike_id":"286fba00-1c70-49c5-9491-0b3044de24cb","system_id":"levelo_inurba_marseille","lat":43.2622,"lon":5.40444,"is_reserved":false,"is_disabled":true,"rental_uris":{"android":"levelo://app?vid=286fba00-1c70-49c5-9491-0b3044de24cb","ios":"levelo://app?vid=286fba00-1c70-49c5-9491-0b3044de24cb"},"vehicle_type_id":"4","last_reported":1774131225,"current_range_meters":4000,"station_id":"ce4bhmh2rcd13ifvqgmg","pricing_plan_id":"cebpf4jnsgd1na2vs0mg"},{"bike_id":"f3414e99-2d7c-4b03-96db-df8c1c6d3f2b","system_id":"levelo_inurba_marseille","lat":43.28487,"lon":5.48391,"is_reserved":false,"is_disabled":false,"rental_uris":{"android":"levelo://app?vid=f3414e99-2d7c-4b03-96db-df8c1c6d3f2b","ios":"levelo://app?vid=f3414e99-2d7c-4b03-96db-df8c1c6d3f2b"},"vehicle_type_id":"4","last_reported":1774131225,"current_range_meters":4000,"station_id":"","pricing_plan_id":"cebpf4jnsgd1na2vs0mg"},{"bike_id":"a35b38af-9978-4959-b06c-51cebe2fd083","system_id":"levelo_inurba_marseille","lat":43.29595,"lon":5.38728,"is_reserved":false,"is_disabled":false,"rental_uris":{"android":"levelo://app?vid=a35b38af-9978-4959-b06c-51cebe2fd083","ios":"levelo://app?vid=a35b38af-9978-4959-b06c-51cebe2fd083"},"vehicle_type_id":"4","last_reported":1774131225,"current_range_meters":4000,"station_id":"","pricing_plan_id":"cebpf4jnsgd1na2vs0mg"},{"bike_id":"f8a3b231-4dcf-4051-ae11-76620efbb058","system_id":"levelo_inurba_marseille","lat":43.292,"lon":5.39303,"is_reserved":false,"is_disabled":false,"rental_uris":{"android":"levelo://app?vid=f8a3b231-4dcf-4051-ae11-76620efbb058","ios":"levelo://app?vid=f8a3b231-4dcf-4051-ae11-76620efbb058"},"vehicle_type_id":"4","last_reported":1774131225,"current_range_meters":4000,"station_id":"ce4bh192rcd13ifvqdd0","pricing_plan_id":"cebpf4jnsgd1na2vs0mg"},{"bike_id":"a8c8307b-e1e9-4950-a785-578e1a82f805","system_id":"levelo_inurba_marseille","lat":43.3127,"lon":5.3783,"is_reserved":false,"is_disabled":false,"rental_uris":{"android":"levelo://app?vid=a8c8307b-e1e9-4950-a785-578e1a82f805","ios":"levelo://app?vid=a8c8307b-e1e9-4950-a785-578e1a82f805"},"vehicle_type_id":"4","last_reported":1774131225,"current_range_meters":4000,"station_id":"","pricing_plan_id":"cebpf4jnsgd1na2vs0mg"},{"bike_id":"962e3e51-db50-4f61-a079-9b1c6a103eb5","system_id":"levelo_inurba_marseille","lat":43.30963,"lon":5.36814,"is_reserved":false,"is_disabled":false,"rental_uris":{"android":"levelo://app?vid=962e3e51-db50-4f61-a079-9b1c6a103eb5","ios":"levelo://app?vid=962e3e51-db50-4f61-a079-9b1c6a103eb5"},"vehicle_type_id":"4","last_reported":1774131225,"current_range_meters":4000,"station_id":"","pricing_plan_id":"cebpf4jnsgd1na2vs0mg"},{"bike_id":"73206cd7-297d-41e6-ad5c-9899f25346cd","system_id":"levelo_inurba_marseille","lat":43.2782,"lon":5.40712,"is_reserved":false,"is_disabled":false,"rental_uris":{"android":"levelo://app?vid=73206cd7-297d-41e6-ad5c-9899f25346cd","ios":"levelo://app?vid=73206cd7-297d-41e6-ad5c-9899f25346cd"},"vehicle_type_id":"4","last_reported":1774131225,"current_range_meters":4000,"station_id":"ce4bhnh2rcd13ifvqgtg","pricing_plan_id":"cebpf4jnsgd1na2vs0mg"},{"bike_id":"2d9e4754-9b17-40b5-bbeb-5b1c9c5bbe64","system_id":"levelo_inurba_marseille","lat":43.3013,"lon":5.38787,"is_reserved":false,"is_disabled":true,"rental_uris":{"android":"levelo://app?vid=2d9e4754-9b17-40b5-bbeb-5b1c9c5bbe64","ios":"levelo://app?vid=2d9e4754-9b17-40b5-bbeb-5b1c9c5bbe64"},"vehicle_type_id":"4","last_reported":1774131225,"current_range_meters":4000,"station_id":"ce4bghh2rcd13ifvqb60","pricing_plan_id":"cebpf4jnsgd1na2vs0mg"},{"bike_id":"feb24add-5493-4e0b-af99-69b61f703ede","system_id":"levelo_inurba_marseille","lat":43.29562,"lon":5.37504,"is_reserved":false,"is_disabled":false,"rental_uris":{"android":"levelo://app?vid=feb24add-5493-4e0b-af99-69b61f703ede","ios":"levelo://app?vid=feb24add-5493-4e0b-af99-69b61f703ede"},"vehicle_type_id":"4","last_reported":1774131225,"current_range_meters":4000,"station_id":"ce4bgh92rcd13ifvqb50","pricing_plan_id":"cebpf4jnsgd1na2vs0mg"},{"bike_id":"dfa608d8-9ea3-493c-9119-e51f33dbd3dd","system_id":"levelo_inurba_marseille","lat":43.31163,"lon":5.38712,"is_reserved":false,"is_disabled":false,"rental_uris":{"android":"levelo://app?vid=dfa608d8-9ea3-493c-9119-e51f33dbd3dd","ios":"levelo://app?vid=dfa608d8-9ea3-493c-9119-e51f33dbd3dd"},"vehicle_type_id":"4","last_reported":1774131225,"current_range_meters":4000,"station_id":"ce4bgv12rcd13ifvqcp0","pricing_plan_id":"cebpf4jnsgd1na2vs0mg"},{"bike_id":"adc5ac07-5147-43c6-b3e9-46b364b058d3","system_id":"levelo_inurba_marseille","lat":43.21747,"lon":5.3461,"is_reserved":false,"is_disabled":true,"rental_uris":{"android":"levelo://app?vid=adc5ac07-5147-43c6-b3e9-46b364b058d3","ios":"levelo://app?vid=adc5ac07-5147-43c6-b3e9-46b364b058d3"},"vehicle_type_id":"4","last_reported":1774131225,"current_range_meters":4000,"station_id":"st_cvj6r9ubvosntc0bgbag","pricing_plan_id":"cebpf4jnsgd1na2vs0mg"},{"bike_id":"26c4064a-9e58-408b-a63d-ddc74ff75dc1","system_id":"levelo_inurba_marseille","lat":43.28347,"lon":5.38637,"is_reserved":false,"is_disabled":false,"rental_uris":{"android":"levelo://app?vid=26c4064a-9e58-408b-a63d-ddc74ff75dc1","ios":"levelo://app?vid=26c4064a-9e58-408b-a63d-ddc74ff75dc1"},"vehicle_type_id":"4","last_reported":1774131225,"current_range_meters":4000,"station_id":"ce4bh492rcd13ifvqdvg","pricing_plan_id":"cebpf4jnsgd1na2vs0mg"},{"bike_id":"f08e64d2-f5e2-4812-8be4-646d36635e41","system_id":"levelo_inurba_marseille","lat":43.29104,"lon":5.38156,"is_reserved":false,"is_disabled":false,"rental_uris":{"android":"levelo://app?vid=f08e64d2-f5e2-4812-8be4-646d36635e41","ios":"levelo://app?vid=f08e64d2-f5e2-4812-8be4-646d36635e41"},"vehicle_type_id":"4","last_reported":1774131225,"current_range_meters":4000,"station_id":"ce4bh512rcd13ifvqe2g","pricing_plan_id":"cebpf4jnsgd1na2vs0mg"},{"bike_id":"af41571d-53e1-4143-808d-1d0e89ed0c9f","system_id":"levelo_inurba_marseille","lat":43.28975,"lon":5.37838,"is_reserved":false,"is_disabled":false,"rental_uris":{"android":"levelo://app?vid=af41571d-53e1-4143-808d-1d0e89ed0c9f","ios":"levelo://app?vid=af41571d-53e1-4143-808d-1d0e89ed0c9f"},"vehicle_type_id":"4","last_reported":1774131225,"current_range_meters":4000,"station_id":"ce4bh9p2rcd13ifvqed0","pricing_plan_id":"cebpf4jnsgd1na2vs0mg"},{"bike_id":"a47bc022-ddfe-4ff3-9bb8-e6eee6323bba","system_id":"levelo_inurba_marseille","lat":43.26814,"lon":5.40266,"is_reserved":false,"is_disabled":false,"rental_uris":{"android":"levelo://app?vid=a47bc022-ddfe-4ff3-9bb8-e6eee6323bba","ios":"levelo://app?vid=a47bc022-ddfe-4ff3-9bb8-e6eee6323bba"},"vehicle_type_id":"4","last_reported":1774131225,"current_range_meters":4000,"station_id":"ce501612rcd8frsf0b60","pricing_plan_id":"cebpf4jnsgd1na2vs0mg"},{"bike_id":"98967962-e0a3-406a-869e-3bcbddfb787d","system_id":"levelo_inurba_marseille","lat":43.28561,"lon":5.39515,"is_reserved":false,"is_disabled":false,"rental_uris":{"android":"levelo://app?vid=98967962-e0a3-406a-869e-3bcbddfb787d","ios":"levelo://app?vid=98967962-e0a3-406a-869e-3bcbddfb787d"},"vehicle_type_id":"4","last_reported":1774131225,"current_range_meters":4400,"station_id":"ce4bh292rcd13ifvqdg0","pricing_plan_id":"cebpf4jnsgd1na2vs0mg"},{"bike_id":"5672f140-f178-4766-bb60-5301b26a0e4e","system_id":"levelo_inurba_marseille","lat":43.28483,"lon":5.48401,"is_reserved":false,"is_disabled":false,"rental_uris":{"android":"levelo://app?vid=5672f140-f178-4766-bb60-5301b26a0e4e","ios":"levelo://app?vid=5672f140-f178-4766-bb60-5301b26a0e4e"},"vehicle_type_id":"4","last_reported":1774131225,"current_range_meters":4400,"station_id":"","pricing_plan_id":"cebpf4jnsgd1na2vs0mg"},{"bike_id":"53663f10-c972-4dad-83a0-96ec19d2a37e","system_id":"levelo_inurba_marseille","lat":43.25009,"lon":5.38926,"is_reserved":false,"is_disabled":true,"rental_uris":{"android":"levelo://app?vid=53663f10-c972-4dad-83a0-96ec19d2a37e","ios":"levelo://app?vid=53663f10-c972-4dad-83a0-96ec19d2a37e"},"vehicle_type_id":"4","last_reported":1774131225,"current_range_meters":4400,"station_id":"ce4bhgp2rcd13ifvqfd0","pricing_plan_id":"cebpf4jnsgd1na2vs0mg"},{"bike_id":"5c2aeccc-baa6-4b75-8ec1-e382dd8ba246","system_id":"levelo_inurba_marseille","lat":43.29735,"lon":5.42764,"is_reserved":false,"is_disabled":true,"rental_uris":{"android":"levelo://app?vid=5c2aeccc-baa6-4b75-8ec1-e382dd8ba246","ios":"levelo://app?vid=5c2aeccc-baa6-4b75-8ec1-e382dd8ba246"},"vehicle_type_id":"4","last_reported":1774131225,"current_range_meters":4400,"station_id":"st_d3md5207bmas73dh9klg","pricing_plan_id":"cebpf4jnsgd1na2vs0mg"},{"bike_id":"8648ff3d-a49d-4491-be6c-bab3f9812603","system_id":"levelo_inurba_marseille","lat":43.28304,"lon":5.43872,"is_reserved":false,"is_disabled":false,"rental_uris":{"android":"levelo://app?vid=8648ff3d-a49d-4491-be6c-bab3f9812603","ios":"levelo://app?vid=8648ff3d-a49d-4491-be6c-bab3f9812603"},"vehicle_type_id":"4","last_reported":1774131225,"current_range_meters":4400,"station_id":"","pricing_plan_id":"cebpf4jnsgd1na2vs0mg"},{"bike_id":"9c9bee09-6ca5-4a6d-b709-1e84348fa4fc","system_id":"levelo_inurba_marseille","lat":43.29628,"lon":5.36429,"is_reserved":false,"is_disabled":false,"rental_uris":{"android":"levelo://app?vid=9c9bee09-6ca5-4a6d-b709-1e84348fa4fc","ios":"levelo://app?vid=9c9bee09-6ca5-4a6d-b709-1e84348fa4fc"},"vehicle_type_id":"4","last_reported":1774131225,"current_range_meters":4400,"station_id":"ce4bgn12rcd13ifvqbt0","pricing_plan_id":"cebpf4jnsgd1na2vs0mg"},{"bike_id":"a52ba6dc-1b15-4a85-8d00-b41ad0623a75","system_id":"levelo_inurba_marseille","lat":43.32344,"lon":5.36747,"is_reserved":false,"is_disabled":false,"rental_uris":{"android":"levelo://app?vid=a52ba6dc-1b15-4a85-8d00-b41ad0623a75","ios":"levelo://app?vid=a52ba6dc-1b15-4a85-8d00-b41ad0623a75"},"vehicle_type_id":"4","last_reported":1774131225,"current_range_meters":4400,"station_id":"ce4bhsh2rcd13ifvqi2g","pricing_plan_id":"cebpf4jnsgd1na2vs0mg"},{"bike_id":"b318198a-c881-4588-be58-b90b922e4b36","system_id":"levelo_inurba_marseille","lat":43.2656,"lon":5.39035,"is_reserved":false,"is_disabled":false,"rental_uris":{"android":"levelo://app?vid=b318198a-c881-4588-be58-b90b922e4b36","ios":"levelo://app?vid=b318198a-c881-4588-be58-b90b922e4b36"},"vehicle_type_id":"4","last_reported":1774131225,"current_range_meters":4400,"station_id":"ce4bhe12rcd13ifvqf30","pricing_plan_id":"cebpf4jnsgd1na2vs0mg"},{"bike_id":"8c69132c-2984-4cc6-9bef-dfc23fde7db7","system_id":"levelo_inurba_marseille","lat":43.29877,"lon":5.38917,"is_reserved":false,"is_disabled":false,"rental_uris":{"android":"levelo://app?vid=8c69132c-2984-4cc6-9bef-dfc23fde7db7","ios":"levelo://app?vid=8c69132c-2984-4cc6-9bef-dfc23fde7db7"},"vehicle_type_id":"4","last_reported":1774131225,"current_range_meters":4400,"station_id":"ce4bh392rcd13ifvqdl0","pricing_plan_id":"cebpf4jnsgd1na2vs0mg"},{"bike_id":"8aae69ee-1386-423b-94ef-ac35e377a153","system_id":"levelo_inurba_marseille","lat":43.31233,"lon":5.3727,"is_reserved":false,"is_disabled":false,"rental_uris":{"android":"levelo://app?vid=8aae69ee-1386-423b-94ef-ac35e377a153","ios":"levelo://app?vid=8aae69ee-1386-423b-94ef-ac35e377a153"},"vehicle_type_id":"4","last_reported":1774131225,"current_range_meters":4400,"station_id":"","pricing_plan_id":"cebpf4jnsgd1na2vs0mg"},{"bike_id":"2d0906ff-aeed-419b-83b6-fd2861496b8f","system_id":"levelo_inurba_marseille","lat":43.26224,"lon":5.40462,"is_reserved":false,"is_disabled":false,"rental_uris":{"android":"levelo://app?vid=2d0906ff-aeed-419b-83b6-fd2861496b8f","ios":"levelo://app?vid=2d0906ff-aeed-419b-83b6-fd2861496b8f"},"vehicle_type_id":"4","last_reported":1774131225,"current_range_meters":4400,"station_id":"ce4bhmh2rcd13ifvqgmg","pricing_plan_id":"cebpf4jnsgd1na2vs0mg"},{"bike_id":"cfa7d13c-59b9-463c-9a61-8bb5c1c0b187","system_id":"levelo_inurba_marseille","lat":43.30469,"lon":5.37906,"is_reserved":false,"is_disabled":false,"rental_uris":{"android":"levelo://app?vid=cfa7d13c-59b9-463c-9a61-8bb5c1c0b187","ios":"levelo://app?vid=cfa7d13c-59b9-463c-9a61-8bb5c1c0b187"},"vehicle_type_id":"4","last_reported":1774131225,"current_range_meters":4800,"station_id":"ce4bgup2rcd13ifvqcn0","pricing_plan_id":"cebpf4jnsgd1na2vs0mg"},{"bike_id":"278f7054-f255-42b7-b87e-903ee568e65a","system_id":"levelo_inurba_marseille","lat":43.28463,"lon":5.38453,"is_reserved":false,"is_disabled":true,"rental_uris":{"android":"levelo://app?vid=278f7054-f255-42b7-b87e-903ee568e65a","ios":"levelo://app?vid=278f7054-f255-42b7-b87e-903ee568e65a"},"vehicle_type_id":"4","last_reported":1774131225,"current_range_meters":4800,"station_id":"ce4bh512rcd13ifvqe3g","pricing_plan_id":"cebpf4jnsgd1na2vs0mg"},{"bike_id":"92f32112-8a58-4a2d-8380-c50aa46da344","system_id":"levelo_inurba_marseille","lat":43.24065,"lon":5.36362,"is_reserved":false,"is_disabled":false,"rental_uris":{"android":"levelo://app?vid=92f32112-8a58-4a2d-8380-c50aa46da344","ios":"levelo://app?vid=92f32112-8a58-4a2d-8380-c50aa46da344"},"vehicle_type_id":"4","last_reported":1774131225,"current_range_meters":4800,"station_id":"","pricing_plan_id":"cebpf4jnsgd1na2vs0mg"},{"bike_id":"aca02e18-5940-4457-bade-a83a3729d2e4","system_id":"levelo_inurba_marseille","lat":43.29502,"lon":5.43307,"is_reserved":false,"is_disabled":false,"rental_uris":{"android":"levelo://app?vid=aca02e18-5940-4457-bade-a83a3729d2e4","ios":"levelo://app?vid=aca02e18-5940-4457-bade-a83a3729d2e4"},"vehicle_type_id":"4","last_reported":1774131225,"current_range_meters":4800,"station_id":"st_d3j5ugp08ojc73fj9d10","pricing_plan_id":"cebpf4jnsgd1na2vs0mg"},{"bike_id":"d106e67b-aa8b-4e71-861a-d7276892eddd","system_id":"levelo_inurba_marseille","lat":43.27906,"lon":5.38009,"is_reserved":false,"is_disabled":false,"rental_uris":{"android":"levelo://app?vid=d106e67b-aa8b-4e71-861a-d7276892eddd","ios":"levelo://app?vid=d106e67b-aa8b-4e71-861a-d7276892eddd"},"vehicle_type_id":"4","last_reported":1774131225,"current_range_meters":4800,"station_id":"ce4bhf92rcd13ifvqf50","pricing_plan_id":"cebpf4jnsgd1na2vs0mg"},{"bike_id":"5b3ab888-a03f-47e0-af67-d510fcfced62","system_id":"levelo_inurba_marseille","lat":43.27954,"lon":5.41044,"is_reserved":false,"is_disabled":false,"rental_uris":{"android":"levelo://app?vid=5b3ab888-a03f-47e0-af67-d510fcfced62","ios":"levelo://app?vid=5b3ab888-a03f-47e0-af67-d510fcfced62"},"vehicle_type_id":"4","last_reported":1774131225,"current_range_meters":4800,"station_id":"ce4bhnp2rcd13ifvqh0g","pricing_plan_id":"cebpf4jnsgd1na2vs0mg"},{"bike_id":"47efb401-c51b-46fd-bc6f-b874c731d32b","system_id":"levelo_inurba_marseille","lat":43.29526,"lon":5.36713,"is_reserved":false,"is_disabled":true,"rental_uris":{"android":"levelo://app?vid=47efb401-c51b-46fd-bc6f-b874c731d32b","ios":"levelo://app?vid=47efb401-c51b-46fd-bc6f-b874c731d32b"},"vehicle_type_id":"4","last_reported":1774131225,"current_range_meters":4800,"station_id":"ce4bgph2rcd13ifvqc2g","pricing_plan_id":"cebpf4jnsgd1na2vs0mg"},{"bike_id":"48131e30-6815-4020-901e-6fc2a316b5d4","system_id":"levelo_inurba_marseille","lat":43.30878,"lon":5.39644,"is_reserved":false,"is_disabled":false,"rental_uris":{"android":"levelo://app?vid=48131e30-6815-4020-901e-6fc2a316b5d4","ios":"levelo://app?vid=48131e30-6815-4020-901e-6fc2a316b5d4"},"vehicle_type_id":"4","last_reported":1774131225,"current_range_meters":4800,"station_id":"ce4bh012rcd13ifvqcv0","pricing_plan_id":"cebpf4jnsgd1na2vs0mg"},{"bike_id":"21dcff95-3114-402a-9713-10e340a8f8dd","system_id":"levelo_inurba_marseille","lat":43.29293,"lon":5.37158,"is_reserved":false,"is_disabled":false,"rental_uris":{"android":"levelo://app?vid=21dcff95-3114-402a-9713-10e340a8f8dd","ios":"levelo://app?vid=21dcff95-3114-402a-9713-10e340a8f8dd"},"vehicle_type_id":"4","last_reported":1774131225,"current_range_meters":4800,"station_id":"ce4bgh92rcd13ifvqb40","pricing_plan_id":"cebpf4jnsgd1na2vs0mg"},{"bike_id":"53fe7d20-a0f2-42d5-9475-d517256919e4","system_id":"levelo_inurba_marseille","lat":43.29034,"lon":5.38626,"is_reserved":false,"is_disabled":false,"rental_uris":{"android":"levelo://app?vid=53fe7d20-a0f2-42d5-9475-d517256919e4","ios":"levelo://app?vid=53fe7d20-a0f2-42d5-9475-d517256919e4"},"vehicle_type_id":"4","last_reported":1774131225,"current_range_meters":4800,"station_id":"ce4bh4p2rcd13ifvqe0g","pricing_plan_id":"cebpf4jnsgd1na2vs0mg"},{"bike_id":"ceabf64b-5064-47c3-8867-7f339184063c","system_id":"levelo_inurba_marseille","lat":43.29529,"lon":5.39041,"is_reserved":false,"is_disabled":false,"rental_uris":{"android":"levelo://app?vid=ceabf64b-5064-47c3-8867-7f339184063c","ios":"levelo://app?vid=ceabf64b-5064-47c3-8867-7f339184063c"},"vehicle_type_id":"4","last_reported":1774131225,"current_range_meters":4800,"station_id":"ce4bh3p2rcd13ifvqdp0","pricing_plan_id":"cebpf4jnsgd1na2vs0mg"},{"bike_id":"06fbf2c7-d11a-4a69-a09e-8af0ab9e3f19","system_id":"levelo_inurba_marseille","lat":43.3135,"lon":5.36703,"is_reserved":false,"is_disabled":false,"rental_uris":{"android":"levelo://app?vid=06fbf2c7-d11a-4a69-a09e-8af0ab9e3f19","ios":"levelo://app?vid=06fbf2c7-d11a-4a69-a09e-8af0ab9e3f19"},"vehicle_type_id":"4","last_reported":1774131225,"current_range_meters":5600,"station_id":"ce4bgr92rcd13ifvqc6g","pricing_plan_id":"cebpf4jnsgd1na2vs0mg"},{"bike_id":"a54d6773-8410-4eb2-9ebb-7bc82f57f6d1","system_id":"levelo_inurba_marseille","lat":43.2944,"lon":5.39757,"is_reserved":false,"is_disabled":false,"rental_uris":{"android":"levelo://app?vid=a54d6773-8410-4eb2-9ebb-7bc82f57f6d1","ios":"levelo://app?vid=a54d6773-8410-4eb2-9ebb-7bc82f57f6d1"},"vehicle_type_id":"4","last_reported":1774131225,"current_range_meters":5600,"station_id":"ce4bh3h2rcd13ifvqdo0","pricing_plan_id":"cebpf4jnsgd1na2vs0mg"},{"bike_id":"34e58aa9-898e-4f2a-a0d3-cd7852da2d04","system_id":"levelo_inurba_marseille","lat":43.27817,"lon":5.407,"is_reserved":false,"is_disabled":false,"rental_uris":{"android":"levelo://app?vid=34e58aa9-898e-4f2a-a0d3-cd7852da2d04","ios":"levelo://app?vid=34e58aa9-898e-4f2a-a0d3-cd7852da2d04"},"vehicle_type_id":"4","last_reported":1774131225,"current_range_meters":5600,"station_id":"ce4bhnh2rcd13ifvqgtg","pricing_plan_id":"cebpf4jnsgd1na2vs0mg"},{"bike_id":"71389fc3-a4c3-46c5-a0f9-4330fcbb165b","system_id":"levelo_inurba_marseille","lat":43.27943,"lon":5.41057,"is_reserved":false,"is_disabled":true,"rental_uris":{"android":"levelo://app?vid=71389fc3-a4c3-46c5-a0f9-4330fcbb165b","ios":"levelo://app?vid=71389fc3-a4c3-46c5-a0f9-4330fcbb165b"},"vehicle_type_id":"4","last_reported":1774131225,"current_range_meters":5600,"station_id":"ce4bhnp2rcd13ifvqh0g","pricing_plan_id":"cebpf4jnsgd1na2vs0mg"},{"bike_id":"f67aacb4-4423-41ce-9c98-2835228a0b12","system_id":"levelo_inurba_marseille","lat":43.28889,"lon":5.35817,"is_reserved":false,"is_disabled":false,"rental_uris":{"android":"levelo://app?vid=f67aacb4-4423-41ce-9c98-2835228a0b12","ios":"levelo://app?vid=f67aacb4-4423-41ce-9c98-2835228a0b12"},"vehicle_type_id":"4","last_reported":1774131225,"current_range_meters":5600,"station_id":"ce4bhb12rcd13ifvqem0","pricing_plan_id":"cebpf4jnsgd1na2vs0mg"},{"bike_id":"e5889c18-6483-46e2-8e97-7aa7bb200275","system_id":"levelo_inurba_marseille","lat":43.24465,"lon":5.4253,"is_reserved":false,"is_disabled":false,"rental_uris":{"android":"levelo://app?vid=e5889c18-6483-46e2-8e97-7aa7bb200275","ios":"levelo://app?vid=e5889c18-6483-46e2-8e97-7aa7bb200275"},"vehicle_type_id":"4","last_reported":1774131225,"current_range_meters":5600,"station_id":"st_d4a3vfp97mjs738cd8kg","pricing_plan_id":"cebpf4jnsgd1na2vs0mg"},{"bike_id":"d86f8d0d-62d2-4104-ab84-dbb85bf910e4","system_id":"levelo_inurba_marseille","lat":43.29181,"lon":5.3931,"is_reserved":false,"is_disabled":false,"rental_uris":{"android":"levelo://app?vid=d86f8d0d-62d2-4104-ab84-dbb85bf910e4","ios":"levelo://app?vid=d86f8d0d-62d2-4104-ab84-dbb85bf910e4"},"vehicle_type_id":"4","last_reported":1774131225,"current_range_meters":5600,"station_id":"ce4bh192rcd13ifvqdd0","pricing_plan_id":"cebpf4jnsgd1na2vs0mg"},{"bike_id":"f27c4765-5fb0-4297-bd47-1f2932d0959e","system_id":"levelo_inurba_marseille","lat":43.29226,"lon":5.36076,"is_reserved":false,"is_disabled":false,"rental_uris":{"android":"levelo://app?vid=f27c4765-5fb0-4297-bd47-1f2932d0959e","ios":"levelo://app?vid=f27c4765-5fb0-4297-bd47-1f2932d0959e"},"vehicle_type_id":"4","last_reported":1774131225,"current_range_meters":5600,"station_id":"ce4bhbh2rcd13ifvqeqg","pricing_plan_id":"cebpf4jnsgd1na2vs0mg"},{"bike_id":"bfa999de-7a32-454a-b31e-f99ace51a3fc","system_id":"levelo_inurba_marseille","lat":43.28479,"lon":5.48397,"is_reserved":false,"is_disabled":false,"rental_uris":{"android":"levelo://app?vid=bfa999de-7a32-454a-b31e-f99ace51a3fc","ios":"levelo://app?vid=bfa999de-7a32-454a-b31e-f99ace51a3fc"},"vehicle_type_id":"4","last_reported":1774131225,"current_range_meters":5600,"station_id":"","pricing_plan_id":"cebpf4jnsgd1na2vs0mg"},{"bike_id":"a5ca29e3-e606-471d-9d45-c2a31ad50193","system_id":"levelo_inurba_marseille","lat":43.31356,"lon":5.36786,"is_reserved":false,"is_disabled":false,"rental_uris":{"android":"levelo://app?vid=a5ca29e3-e606-471d-9d45-c2a31ad50193","ios":"levelo://app?vid=a5ca29e3-e606-471d-9d45-c2a31ad50193"},"vehicle_type_id":"4","last_reported":1774131225,"current_range_meters":5600,"station_id":"","pricing_plan_id":"cebpf4jnsgd1na2vs0mg"},{"bike_id":"e25da1e2-3ead-4615-95eb-2fb9d3cdfaa6","system_id":"levelo_inurba_marseille","lat":43.29272,"lon":5.38443,"is_reserved":false,"is_disabled":false,"rental_uris":{"android":"levelo://app?vid=e25da1e2-3ead-4615-95eb-2fb9d3cdfaa6","ios":"levelo://app?vid=e25da1e2-3ead-4615-95eb-2fb9d3cdfaa6"},"vehicle_type_id":"4","last_reported":1774131225,"current_range_meters":5600,"station_id":"ce4bh692rcd13ifvqea0","pricing_plan_id":"cebpf4jnsgd1na2vs0mg"},{"bike_id":"3727d6e3-4577-49ea-959e-93a5e09450a3","system_id":"levelo_inurba_marseille","lat":43.31467,"lon":5.40112,"is_reserved":false,"is_disabled":false,"rental_uris":{"android":"levelo://app?vid=3727d6e3-4577-49ea-959e-93a5e09450a3","ios":"levelo://app?vid=3727d6e3-4577-49ea-959e-93a5e09450a3"},"vehicle_type_id":"4","last_reported":1774131225,"current_range_meters":5600,"station_id":"","pricing_plan_id":"cebpf4jnsgd1na2vs0mg"},{"bike_id":"7c75b769-e8a9-49a3-b8cd-5824d8280cfd","system_id":"levelo_inurba_marseille","lat":43.31247,"lon":5.38489,"is_reserved":false,"is_disabled":false,"rental_uris":{"android":"levelo://app?vid=7c75b769-e8a9-49a3-b8cd-5824d8280cfd","ios":"levelo://app?vid=7c75b769-e8a9-49a3-b8cd-5824d8280cfd"},"vehicle_type_id":"4","last_reported":1774131225,"current_range_meters":5600,"station_id":"","pricing_plan_id":"cebpf4jnsgd1na2vs0mg"},{"bike_id":"08ee6db8-d944-4484-8024-9b2fcf432b9c","system_id":"levelo_inurba_marseille","lat":43.29608,"lon":5.38085,"is_reserved":false,"is_disabled":false,"rental_uris":{"android":"levelo://app?vid=08ee6db8-d944-4484-8024-9b2fcf432b9c","ios":"levelo://app?vid=08ee6db8-d944-4484-8024-9b2fcf432b9c"},"vehicle_type_id":"4","last_reported":1774131225,"current_range_meters":5600,"station_id":"ce4bgl12rcd13ifvqbo0","pricing_plan_id":"cebpf4jnsgd1na2vs0mg"},{"bike_id":"799e5206-e569-46be-93f3-cb56e5726e56","system_id":"levelo_inurba_marseille","lat":43.26396,"lon":5.41068,"is_reserved":false,"is_disabled":false,"rental_uris":{"android":"levelo://app?vid=799e5206-e569-46be-93f3-cb56e5726e56","ios":"levelo://app?vid=799e5206-e569-46be-93f3-cb56e5726e56"},"vehicle_type_id":"4","last_reported":1774131225,"current_range_meters":5600,"station_id":"st_d4e5ca6na9uc73bfl5fg","pricing_plan_id":"cebpf4jnsgd1na2vs0mg"},{"bike_id":"c6b38fc9-5197-4919-8a82-06fb3fc3de68","system_id":"levelo_inurba_marseille","lat":43.27844,"lon":5.3921,"is_reserved":false,"is_disabled":false,"rental_uris":{"android":"levelo://app?vid=c6b38fc9-5197-4919-8a82-06fb3fc3de68","ios":"levelo://app?vid=c6b38fc9-5197-4919-8a82-06fb3fc3de68"},"vehicle_type_id":"4","last_reported":1774131225,"current_range_meters":5600,"station_id":"ce4bhjp2rcd13ifvqga0","pricing_plan_id":"cebpf4jnsgd1na2vs0mg"},{"bike_id":"2604ae19-1382-4086-ac8c-4fa76dd766d3","system_id":"levelo_inurba_marseille","lat":43.29272,"lon":5.3845,"is_reserved":false,"is_disabled":false,"rental_uris":{"android":"levelo://app?vid=2604ae19-1382-4086-ac8c-4fa76dd766d3","ios":"levelo://app?vid=2604ae19-1382-4086-ac8c-4fa76dd766d3"},"vehicle_type_id":"4","last_reported":1774131225,"current_range_meters":5600,"station_id":"ce4bh692rcd13ifvqea0","pricing_plan_id":"cebpf4jnsgd1na2vs0mg"},{"bike_id":"4b11e079-bb00-4636-9cda-72c733e64f87","system_id":"levelo_inurba_marseille","lat":43.30897,"lon":5.36853,"is_reserved":false,"is_disabled":false,"rental_uris":{"android":"levelo://app?vid=4b11e079-bb00-4636-9cda-72c733e64f87","ios":"levelo://app?vid=4b11e079-bb00-4636-9cda-72c733e64f87"},"vehicle_type_id":"4","last_reported":1774131225,"current_range_meters":5600,"station_id":"ce4bgn92rcd13ifvqbvg","pricing_plan_id":"cebpf4jnsgd1na2vs0mg"},{"bike_id":"57c6062f-8249-4e22-873a-9e5831c9b605","system_id":"levelo_inurba_marseille","lat":43.3124,"lon":5.38503,"is_reserved":false,"is_disabled":false,"rental_uris":{"android":"levelo://app?vid=57c6062f-8249-4e22-873a-9e5831c9b605","ios":"levelo://app?vid=57c6062f-8249-4e22-873a-9e5831c9b605"},"vehicle_type_id":"4","last_reported":1774131225,"current_range_meters":5600,"station_id":"","pricing_plan_id":"cebpf4jnsgd1na2vs0mg"},{"bike_id":"079921cc-5f2b-408c-ad49-3463c064b465","system_id":"levelo_inurba_marseille","lat":43.29532,"lon":5.3854,"is_reserved":false,"is_disabled":false,"rental_uris":{"android":"levelo://app?vid=079921cc-5f2b-408c-ad49-3463c064b465","ios":"levelo://app?vid=079921cc-5f2b-408c-ad49-3463c064b465"},"vehicle_type_id":"4","last_reported":1774131225,"current_range_meters":6000,"station_id":"ce4bgih2rcd13ifvqba0","pricing_plan_id":"cebpf4jnsgd1na2vs0mg"},{"bike_id":"0112bef2-2ecc-46ce-961c-e922940a9456","system_id":"levelo_inurba_marseille","lat":43.29211,"lon":5.39308,"is_reserved":false,"is_disabled":false,"rental_uris":{"android":"levelo://app?vid=0112bef2-2ecc-46ce-961c-e922940a9456","ios":"levelo://app?vid=0112bef2-2ecc-46ce-961c-e922940a9456"},"vehicle_type_id":"4","last_reported":1774131225,"current_range_meters":6000,"station_id":"ce4bh192rcd13ifvqdd0","pricing_plan_id":"cebpf4jnsgd1na2vs0mg"},{"bike_id":"4559a18d-470c-42d3-a0fe-77ed9d175f5b","system_id":"levelo_inurba_marseille","lat":43.29937,"lon":5.38499,"is_reserved":false,"is_disabled":false,"rental_uris":{"android":"levelo://app?vid=4559a18d-470c-42d3-a0fe-77ed9d175f5b","ios":"levelo://app?vid=4559a18d-470c-42d3-a0fe-77ed9d175f5b"},"vehicle_type_id":"4","last_reported":1774131225,"current_range_meters":6000,"station_id":"ce4bgj92rcd13ifvqbd0","pricing_plan_id":"cebpf4jnsgd1na2vs0mg"},{"bike_id":"afab17fe-5945-4eab-9129-fe150d6e725c","system_id":"levelo_inurba_marseille","lat":43.31054,"lon":5.37137,"is_reserved":false,"is_disabled":false,"rental_uris":{"android":"levelo://app?vid=afab17fe-5945-4eab-9129-fe150d6e725c","ios":"levelo://app?vid=afab17fe-5945-4eab-9129-fe150d6e725c"},"vehicle_type_id":"4","last_reported":1774131225,"current_range_meters":6000,"station_id":"st_d4kl2rp97mjs73e7tdfg","pricing_plan_id":"cebpf4jnsgd1na2vs0mg"},{"bike_id":"64dc53b9-439a-4355-ad28-e5f40e99fa84","system_id":"levelo_inurba_marseille","lat":43.32031,"lon":5.40976,"is_reserved":false,"is_disabled":false,"rental_uris":{"android":"levelo://app?vid=64dc53b9-439a-4355-ad28-e5f40e99fa84","ios":"levelo://app?vid=64dc53b9-439a-4355-ad28-e5f40e99fa84"},"vehicle_type_id":"4","last_reported":1774131225,"current_range_meters":6000,"station_id":"","pricing_plan_id":"cebpf4jnsgd1na2vs0mg"},{"bike_id":"c8bc17ba-9e1b-4089-8aec-6e7e0c4789ac","system_id":"levelo_inurba_marseille","lat":43.28459,"lon":5.3588,"is_reserved":false,"is_disabled":false,"rental_uris":{"android":"levelo://app?vid=c8bc17ba-9e1b-4089-8aec-6e7e0c4789ac","ios":"levelo://app?vid=c8bc17ba-9e1b-4089-8aec-6e7e0c4789ac"},"vehicle_type_id":"4","last_reported":1774131225,"current_range_meters":6000,"station_id":"ce4bhah2rcd13ifvqei0","pricing_plan_id":"cebpf4jnsgd1na2vs0mg"},{"bike_id":"1a46da28-301a-44b9-970e-12b591c0665f","system_id":"levelo_inurba_marseille","lat":43.27926,"lon":5.41059,"is_reserved":false,"is_disabled":false,"rental_uris":{"android":"levelo://app?vid=1a46da28-301a-44b9-970e-12b591c0665f","ios":"levelo://app?vid=1a46da28-301a-44b9-970e-12b591c0665f"},"vehicle_type_id":"4","last_reported":1774131225,"current_range_meters":6000,"station_id":"ce4bhnp2rcd13ifvqh0g","pricing_plan_id":"cebpf4jnsgd1na2vs0mg"},{"bike_id":"7735375d-1041-4f99-b2b7-719b8a41cb75","system_id":"levelo_inurba_marseille","lat":43.2814,"lon":5.42639,"is_reserved":false,"is_disabled":true,"rental_uris":{"android":"levelo://app?vid=7735375d-1041-4f99-b2b7-719b8a41cb75","ios":"levelo://app?vid=7735375d-1041-4f99-b2b7-719b8a41cb75"},"vehicle_type_id":"4","last_reported":1774131225,"current_range_meters":6000,"station_id":"ce4bhnh2rcd13ifvqgug","pricing_plan_id":"cebpf4jnsgd1na2vs0mg"},{"bike_id":"6e8d6b6c-3744-4cb8-9112-c82ef7735b53","system_id":"levelo_inurba_marseille","lat":43.29773,"lon":5.37089,"is_reserved":false,"is_disabled":false,"rental_uris":{"android":"levelo://app?vid=6e8d6b6c-3744-4cb8-9112-c82ef7735b53","ios":"levelo://app?vid=6e8d6b6c-3744-4cb8-9112-c82ef7735b53"},"vehicle_type_id":"4","last_reported":1774131225,"current_range_meters":6000,"station_id":"ce4bgop2rcd13ifvqc1g","pricing_plan_id":"cebpf4jnsgd1na2vs0mg"},{"bike_id":"c0b70058-a123-4360-9a42-a44a22962f7a","system_id":"levelo_inurba_marseille","lat":43.28041,"lon":5.36949,"is_reserved":false,"is_disabled":false,"rental_uris":{"android":"levelo://app?vid=c0b70058-a123-4360-9a42-a44a22962f7a","ios":"levelo://app?vid=c0b70058-a123-4360-9a42-a44a22962f7a"},"vehicle_type_id":"4","last_reported":1774131225,"current_range_meters":6000,"station_id":"ce4bha12rcd13ifvqef0","pricing_plan_id":"cebpf4jnsgd1na2vs0mg"},{"bike_id":"9f6e899f-f202-4913-938e-134a94975f14","system_id":"levelo_inurba_marseille","lat":43.28955,"lon":5.37833,"is_reserved":false,"is_disabled":false,"rental_uris":{"android":"levelo://app?vid=9f6e899f-f202-4913-938e-134a94975f14","ios":"levelo://app?vid=9f6e899f-f202-4913-938e-134a94975f14"},"vehicle_type_id":"4","last_reported":1774131225,"current_range_meters":6000,"station_id":"ce4bh9p2rcd13ifvqed0","pricing_plan_id":"cebpf4jnsgd1na2vs0mg"},{"bike_id":"947a972c-ce6d-423a-bc04-4563321e80a5","system_id":"levelo_inurba_marseille","lat":43.2954,"lon":5.38547,"is_reserved":false,"is_disabled":false,"rental_uris":{"android":"levelo://app?vid=947a972c-ce6d-423a-bc04-4563321e80a5","ios":"levelo://app?vid=947a972c-ce6d-423a-bc04-4563321e80a5"},"vehicle_type_id":"4","last_reported":1774131225,"current_range_meters":6000,"station_id":"ce4bgih2rcd13ifvqba0","pricing_plan_id":"cebpf4jnsgd1na2vs0mg"},{"bike_id":"0ff04b3c-71df-4b5b-b8cf-f7bfc6236bfe","system_id":"levelo_inurba_marseille","lat":43.30086,"lon":5.3868,"is_reserved":false,"is_disabled":false,"rental_uris":{"android":"levelo://app?vid=0ff04b3c-71df-4b5b-b8cf-f7bfc6236bfe","ios":"levelo://app?vid=0ff04b3c-71df-4b5b-b8cf-f7bfc6236bfe"},"vehicle_type_id":"4","last_reported":1774131225,"current_range_meters":6000,"station_id":"","pricing_plan_id":"cebpf4jnsgd1na2vs0mg"},{"bike_id":"9562cb1b-3eaf-4a03-a5e3-1337d62db9d4","system_id":"levelo_inurba_marseille","lat":43.28938,"lon":5.36413,"is_reserved":false,"is_disabled":false,"rental_uris":{"android":"levelo://app?vid=9562cb1b-3eaf-4a03-a5e3-1337d62db9d4","ios":"levelo://app?vid=9562cb1b-3eaf-4a03-a5e3-1337d62db9d4"},"vehicle_type_id":"4","last_reported":1774131225,"current_range_meters":6400,"station_id":"ce4bhc92rcd13ifvqetg","pricing_plan_id":"cebpf4jnsgd1na2vs0mg"},{"bike_id":"ac656c46-4691-458f-95ae-06026bff305e","system_id":"levelo_inurba_marseille","lat":43.28157,"lon":5.4262,"is_reserved":false,"is_disabled":false,"rental_uris":{"android":"levelo://app?vid=ac656c46-4691-458f-95ae-06026bff305e","ios":"levelo://app?vid=ac656c46-4691-458f-95ae-06026bff305e"},"vehicle_type_id":"4","last_reported":1774131225,"current_range_meters":6400,"station_id":"ce4bhnh2rcd13ifvqgug","pricing_plan_id":"cebpf4jnsgd1na2vs0mg"},{"bike_id":"e716619b-fcd2-4f53-bfdc-3a290d257120","system_id":"levelo_inurba_marseille","lat":43.3135,"lon":5.3673,"is_reserved":false,"is_disabled":false,"rental_uris":{"android":"levelo://app?vid=e716619b-fcd2-4f53-bfdc-3a290d257120","ios":"levelo://app?vid=e716619b-fcd2-4f53-bfdc-3a290d257120"},"vehicle_type_id":"4","last_reported":1774131225,"current_range_meters":6400,"station_id":"ce4bgr92rcd13ifvqc6g","pricing_plan_id":"cebpf4jnsgd1na2vs0mg"},{"bike_id":"922b18cd-37dd-4d90-8953-8a50f6296f4b","system_id":"levelo_inurba_marseille","lat":43.24465,"lon":5.42542,"is_reserved":false,"is_disabled":false,"rental_uris":{"android":"levelo://app?vid=922b18cd-37dd-4d90-8953-8a50f6296f4b","ios":"levelo://app?vid=922b18cd-37dd-4d90-8953-8a50f6296f4b"},"vehicle_type_id":"4","last_reported":1774131225,"current_range_meters":6400,"station_id":"","pricing_plan_id":"cebpf4jnsgd1na2vs0mg"},{"bike_id":"be006c18-a171-44fc-9f00-b5568b756235","system_id":"levelo_inurba_marseille","lat":43.28576,"lon":5.39496,"is_reserved":false,"is_disabled":false,"rental_uris":{"android":"levelo://app?vid=be006c18-a171-44fc-9f00-b5568b756235","ios":"levelo://app?vid=be006c18-a171-44fc-9f00-b5568b756235"},"vehicle_type_id":"4","last_reported":1774131225,"current_range_meters":6400,"station_id":"ce4bh292rcd13ifvqdg0","pricing_plan_id":"cebpf4jnsgd1na2vs0mg"},{"bike_id":"37752f22-4e24-4242-a38c-e44293abad6b","system_id":"levelo_inurba_marseille","lat":43.27974,"lon":5.38711,"is_reserved":false,"is_disabled":true,"rental_uris":{"android":"levelo://app?vid=37752f22-4e24-4242-a38c-e44293abad6b","ios":"levelo://app?vid=37752f22-4e24-4242-a38c-e44293abad6b"},"vehicle_type_id":"4","last_reported":1774131225,"current_range_meters":6400,"station_id":"ce4bhg12rcd13ifvqf80","pricing_plan_id":"cebpf4jnsgd1na2vs0mg"},{"bike_id":"9797d609-f85a-4421-a74c-bd0d1e6bc286","system_id":"levelo_inurba_marseille","lat":43.25499,"lon":5.37648,"is_reserved":false,"is_disabled":false,"rental_uris":{"android":"levelo://app?vid=9797d609-f85a-4421-a74c-bd0d1e6bc286","ios":"levelo://app?vid=9797d609-f85a-4421-a74c-bd0d1e6bc286"},"vehicle_type_id":"4","last_reported":1774131225,"current_range_meters":6400,"station_id":"ce4bhh12rcd13ifvqff0","pricing_plan_id":"cebpf4jnsgd1na2vs0mg"},{"bike_id":"37fd8b91-bebb-483f-9ede-850904204da2","system_id":"levelo_inurba_marseille","lat":43.33427,"lon":5.35691,"is_reserved":false,"is_disabled":false,"rental_uris":{"android":"levelo://app?vid=37fd8b91-bebb-483f-9ede-850904204da2","ios":"levelo://app?vid=37fd8b91-bebb-483f-9ede-850904204da2"},"vehicle_type_id":"4","last_reported":1774131225,"current_range_meters":6400,"station_id":"","pricing_plan_id":"cebpf4jnsgd1na2vs0mg"},{"bike_id":"48a55d3d-dc4d-4fc7-bbb7-c0844586c98d","system_id":"levelo_inurba_marseille","lat":43.3093,"lon":5.40148,"is_reserved":false,"is_disabled":false,"rental_uris":{"android":"levelo://app?vid=48a55d3d-dc4d-4fc7-bbb7-c0844586c98d","ios":"levelo://app?vid=48a55d3d-dc4d-4fc7-bbb7-c0844586c98d"},"vehicle_type_id":"4","last_reported":1774131225,"current_range_meters":6400,"station_id":"ce4bgvp2rcd13ifvqct0","pricing_plan_id":"cebpf4jnsgd1na2vs0mg"},{"bike_id":"d9a2340f-4dc0-456b-89f0-454af4d93a65","system_id":"levelo_inurba_marseille","lat":43.28521,"lon":5.35094,"is_reserved":false,"is_disabled":false,"rental_uris":{"android":"levelo://app?vid=d9a2340f-4dc0-456b-89f0-454af4d93a65","ios":"levelo://app?vid=d9a2340f-4dc0-456b-89f0-454af4d93a65"},"vehicle_type_id":"4","last_reported":1774131225,"current_range_meters":6400,"station_id":"","pricing_plan_id":"cebpf4jnsgd1na2vs0mg"},{"bike_id":"c539391c-6f10-4a3b-8a64-b0c3fd52e6a4","system_id":"levelo_inurba_marseille","lat":43.29523,"lon":5.38538,"is_reserved":false,"is_disabled":false,"rental_uris":{"android":"levelo://app?vid=c539391c-6f10-4a3b-8a64-b0c3fd52e6a4","ios":"levelo://app?vid=c539391c-6f10-4a3b-8a64-b0c3fd52e6a4"},"vehicle_type_id":"4","last_reported":1774131225,"current_range_meters":6400,"station_id":"ce4bgih2rcd13ifvqba0","pricing_plan_id":"cebpf4jnsgd1na2vs0mg"},{"bike_id":"4f272940-9e78-4014-83bf-6eb9cf9f10fc","system_id":"levelo_inurba_marseille","lat":43.29029,"lon":5.38636,"is_reserved":false,"is_disabled":false,"rental_uris":{"android":"levelo://app?vid=4f272940-9e78-4014-83bf-6eb9cf9f10fc","ios":"levelo://app?vid=4f272940-9e78-4014-83bf-6eb9cf9f10fc"},"vehicle_type_id":"4","last_reported":1774131225,"current_range_meters":6400,"station_id":"ce4bh4p2rcd13ifvqe0g","pricing_plan_id":"cebpf4jnsgd1na2vs0mg"},{"bike_id":"9c7ead57-a25f-41ae-a792-9036f49c266e","system_id":"levelo_inurba_marseille","lat":43.29792,"lon":5.37111,"is_reserved":false,"is_disabled":false,"rental_uris":{"android":"levelo://app?vid=9c7ead57-a25f-41ae-a792-9036f49c266e","ios":"levelo://app?vid=9c7ead57-a25f-41ae-a792-9036f49c266e"},"vehicle_type_id":"4","last_reported":1774131225,"current_range_meters":6400,"station_id":"ce4bgop2rcd13ifvqc1g","pricing_plan_id":"cebpf4jnsgd1na2vs0mg"},{"bike_id":"610295e2-f3a8-4795-968f-232d34cacd12","system_id":"levelo_inurba_marseille","lat":43.29841,"lon":5.36274,"is_reserved":false,"is_disabled":false,"rental_uris":{"android":"levelo://app?vid=610295e2-f3a8-4795-968f-232d34cacd12","ios":"levelo://app?vid=610295e2-f3a8-4795-968f-232d34cacd12"},"vehicle_type_id":"4","last_reported":1774131225,"current_range_meters":6400,"station_id":"ce4bgpp2rcd13ifvqc3g","pricing_plan_id":"cebpf4jnsgd1na2vs0mg"},{"bike_id":"749fe0c0-9e80-4ad8-8986-f53281161c22","system_id":"levelo_inurba_marseille","lat":43.28571,"lon":5.39511,"is_reserved":false,"is_disabled":false,"rental_uris":{"android":"levelo://app?vid=749fe0c0-9e80-4ad8-8986-f53281161c22","ios":"levelo://app?vid=749fe0c0-9e80-4ad8-8986-f53281161c22"},"vehicle_type_id":"4","last_reported":1774131225,"current_range_meters":6400,"station_id":"ce4bh292rcd13ifvqdg0","pricing_plan_id":"cebpf4jnsgd1na2vs0mg"},{"bike_id":"d081ea94-b8bf-4fe0-904b-f5698433a2f5","system_id":"levelo_inurba_marseille","lat":43.29593,"lon":5.38112,"is_reserved":false,"is_disabled":false,"rental_uris":{"android":"levelo://app?vid=d081ea94-b8bf-4fe0-904b-f5698433a2f5","ios":"levelo://app?vid=d081ea94-b8bf-4fe0-904b-f5698433a2f5"},"vehicle_type_id":"4","last_reported":1774131225,"current_range_meters":6400,"station_id":"ce4bgl12rcd13ifvqbo0","pricing_plan_id":"cebpf4jnsgd1na2vs0mg"},{"bike_id":"9c19229f-7481-4ad2-b2e4-553f3f471b69","system_id":"levelo_inurba_marseille","lat":43.31161,"lon":5.38727,"is_reserved":false,"is_disabled":false,"rental_uris":{"android":"levelo://app?vid=9c19229f-7481-4ad2-b2e4-553f3f471b69","ios":"levelo://app?vid=9c19229f-7481-4ad2-b2e4-553f3f471b69"},"vehicle_type_id":"4","last_reported":1774131225,"current_range_meters":6400,"station_id":"ce4bgv12rcd13ifvqcp0","pricing_plan_id":"cebpf4jnsgd1na2vs0mg"},{"bike_id":"436b2a00-64a7-4c4c-b30f-e474d8c1a5c0","system_id":"levelo_inurba_marseille","lat":43.23176,"lon":5.3999,"is_reserved":false,"is_disabled":false,"rental_uris":{"android":"levelo://app?vid=436b2a00-64a7-4c4c-b30f-e474d8c1a5c0","ios":"levelo://app?vid=436b2a00-64a7-4c4c-b30f-e474d8c1a5c0"},"vehicle_type_id":"4","last_reported":1774131225,"current_range_meters":6400,"station_id":"ce4bhn12rcd13ifvqgqg","pricing_plan_id":"cebpf4jnsgd1na2vs0mg"},{"bike_id":"b87d7938-28e4-46e7-994e-fdebd5392225","system_id":"levelo_inurba_marseille","lat":43.32107,"lon":5.36762,"is_reserved":false,"is_disabled":false,"rental_uris":{"android":"levelo://app?vid=b87d7938-28e4-46e7-994e-fdebd5392225","ios":"levelo://app?vid=b87d7938-28e4-46e7-994e-fdebd5392225"},"vehicle_type_id":"4","last_reported":1774131225,"current_range_meters":6400,"station_id":"ce4bhrh2rcd13ifvqhug","pricing_plan_id":"cebpf4jnsgd1na2vs0mg"},{"bike_id":"d01f55c5-7e4e-4e8d-8ef0-e660ea4c6972","system_id":"levelo_inurba_marseille","lat":43.29095,"lon":5.38147,"is_reserved":false,"is_disabled":false,"rental_uris":{"android":"levelo://app?vid=d01f55c5-7e4e-4e8d-8ef0-e660ea4c6972","ios":"levelo://app?vid=d01f55c5-7e4e-4e8d-8ef0-e660ea4c6972"},"vehicle_type_id":"4","last_reported":1774131225,"current_range_meters":6800,"station_id":"ce4bh512rcd13ifvqe2g","pricing_plan_id":"cebpf4jnsgd1na2vs0mg"},{"bike_id":"c1132910-04b4-46e1-a0d5-c4ac5cbe805d","system_id":"levelo_inurba_marseille","lat":43.2695,"lon":5.40266,"is_reserved":false,"is_disabled":false,"rental_uris":{"android":"levelo://app?vid=c1132910-04b4-46e1-a0d5-c4ac5cbe805d","ios":"levelo://app?vid=c1132910-04b4-46e1-a0d5-c4ac5cbe805d"},"vehicle_type_id":"4","last_reported":1774131225,"current_range_meters":6800,"station_id":"cjm6bp8fraef2m0cb0m0","pricing_plan_id":"cebpf4jnsgd1na2vs0mg"},{"bike_id":"f1f374c7-7df8-4ad3-87c0-64cf3efed19a","system_id":"levelo_inurba_marseille","lat":43.30774,"lon":5.37654,"is_reserved":false,"is_disabled":false,"rental_uris":{"android":"levelo://app?vid=f1f374c7-7df8-4ad3-87c0-64cf3efed19a","ios":"levelo://app?vid=f1f374c7-7df8-4ad3-87c0-64cf3efed19a"},"vehicle_type_id":"4","last_reported":1774131225,"current_range_meters":6800,"station_id":"ce4bgv92rcd13ifvqcq0","pricing_plan_id":"cebpf4jnsgd1na2vs0mg"},{"bike_id":"42ab0379-da99-4e4d-86ad-a3df2009332a","system_id":"levelo_inurba_marseille","lat":43.29605,"lon":5.38088,"is_reserved":false,"is_disabled":false,"rental_uris":{"android":"levelo://app?vid=42ab0379-da99-4e4d-86ad-a3df2009332a","ios":"levelo://app?vid=42ab0379-da99-4e4d-86ad-a3df2009332a"},"vehicle_type_id":"4","last_reported":1774131225,"current_range_meters":6800,"station_id":"ce4bgl12rcd13ifvqbo0","pricing_plan_id":"cebpf4jnsgd1na2vs0mg"},{"bike_id":"07096b73-6daa-4014-a4a1-36b27abef312","system_id":"levelo_inurba_marseille","lat":43.29031,"lon":5.39971,"is_reserved":false,"is_disabled":false,"rental_uris":{"android":"levelo://app?vid=07096b73-6daa-4014-a4a1-36b27abef312","ios":"levelo://app?vid=07096b73-6daa-4014-a4a1-36b27abef312"},"vehicle_type_id":"4","last_reported":1774131225,"current_range_meters":6800,"station_id":"ce4bh392rcd13ifvqdm0","pricing_plan_id":"cebpf4jnsgd1na2vs0mg"},{"bike_id":"f1b3310c-f30c-441e-b5fb-d9f98b6504b2","system_id":"levelo_inurba_marseille","lat":43.2949,"lon":5.39097,"is_reserved":false,"is_disabled":false,"rental_uris":{"android":"levelo://app?vid=f1b3310c-f30c-441e-b5fb-d9f98b6504b2","ios":"levelo://app?vid=f1b3310c-f30c-441e-b5fb-d9f98b6504b2"},"vehicle_type_id":"4","last_reported":1774131225,"current_range_meters":6800,"station_id":"","pricing_plan_id":"cebpf4jnsgd1na2vs0mg"},{"bike_id":"077ba1f4-9955-44ea-8995-8df9c4ed43ac","system_id":"levelo_inurba_marseille","lat":43.31043,"lon":5.37165,"is_reserved":false,"is_disabled":false,"rental_uris":{"android":"levelo://app?vid=077ba1f4-9955-44ea-8995-8df9c4ed43ac","ios":"levelo://app?vid=077ba1f4-9955-44ea-8995-8df9c4ed43ac"},"vehicle_type_id":"4","last_reported":1774131225,"current_range_meters":6800,"station_id":"st_d4kl2rp97mjs73e7tdfg","pricing_plan_id":"cebpf4jnsgd1na2vs0mg"},{"bike_id":"58dea4d9-1b37-4074-bf36-a75f580fc235","system_id":"levelo_inurba_marseille","lat":43.29533,"lon":5.38552,"is_reserved":false,"is_disabled":false,"rental_uris":{"android":"levelo://app?vid=58dea4d9-1b37-4074-bf36-a75f580fc235","ios":"levelo://app?vid=58dea4d9-1b37-4074-bf36-a75f580fc235"},"vehicle_type_id":"4","last_reported":1774131225,"current_range_meters":6800,"station_id":"ce4bgih2rcd13ifvqba0","pricing_plan_id":"cebpf4jnsgd1na2vs0mg"},{"bike_id":"8e70251c-8f02-4240-8304-f6a3026eaebe","system_id":"levelo_inurba_marseille","lat":43.3093,"lon":5.36845,"is_reserved":false,"is_disabled":false,"rental_uris":{"android":"levelo://app?vid=8e70251c-8f02-4240-8304-f6a3026eaebe","ios":"levelo://app?vid=8e70251c-8f02-4240-8304-f6a3026eaebe"},"vehicle_type_id":"4","last_reported":1774131225,"current_range_meters":6800,"station_id":"ce4bgn92rcd13ifvqbvg","pricing_plan_id":"cebpf4jnsgd1na2vs0mg"},{"bike_id":"9895479c-7522-4c8b-996f-5f3e1c1b4f33","system_id":"levelo_inurba_marseille","lat":43.23785,"lon":5.36631,"is_reserved":false,"is_disabled":false,"rental_uris":{"android":"levelo://app?vid=9895479c-7522-4c8b-996f-5f3e1c1b4f33","ios":"levelo://app?vid=9895479c-7522-4c8b-996f-5f3e1c1b4f33"},"vehicle_type_id":"4","last_reported":1774131225,"current_range_meters":6800,"station_id":"st_d3nk18o9ro0c73en2l3g","pricing_plan_id":"cebpf4jnsgd1na2vs0mg"},{"bike_id":"36450020-bd88-4c9a-a04d-1f2ccd4cfaaf","system_id":"levelo_inurba_marseille","lat":43.29522,"lon":5.38567,"is_reserved":false,"is_disabled":false,"rental_uris":{"android":"levelo://app?vid=36450020-bd88-4c9a-a04d-1f2ccd4cfaaf","ios":"levelo://app?vid=36450020-bd88-4c9a-a04d-1f2ccd4cfaaf"},"vehicle_type_id":"4","last_reported":1774131225,"current_range_meters":6800,"station_id":"ce4bgih2rcd13ifvqba0","pricing_plan_id":"cebpf4jnsgd1na2vs0mg"},{"bike_id":"ef97c70d-e41d-4e36-b46b-24aba54e0d2b","system_id":"levelo_inurba_marseille","lat":43.29537,"lon":5.38542,"is_reserved":false,"is_disabled":false,"rental_uris":{"android":"levelo://app?vid=ef97c70d-e41d-4e36-b46b-24aba54e0d2b","ios":"levelo://app?vid=ef97c70d-e41d-4e36-b46b-24aba54e0d2b"},"vehicle_type_id":"4","last_reported":1774131225,"current_range_meters":6800,"station_id":"ce4bgih2rcd13ifvqba0","pricing_plan_id":"cebpf4jnsgd1na2vs0mg"},{"bike_id":"5206b1c0-ea28-4288-9fb7-15de647e09fa","system_id":"levelo_inurba_marseille","lat":43.33561,"lon":5.37495,"is_reserved":false,"is_disabled":false,"rental_uris":{"android":"levelo://app?vid=5206b1c0-ea28-4288-9fb7-15de647e09fa","ios":"levelo://app?vid=5206b1c0-ea28-4288-9fb7-15de647e09fa"},"vehicle_type_id":"4","last_reported":1774131225,"current_range_meters":6800,"station_id":"st_d46tts09ee8s73dlu43g","pricing_plan_id":"cebpf4jnsgd1na2vs0mg"},{"bike_id":"7ee32ac5-72d3-4f5e-9855-98ad57db7d28","system_id":"levelo_inurba_marseille","lat":43.29607,"lon":5.38106,"is_reserved":false,"is_disabled":false,"rental_uris":{"android":"levelo://app?vid=7ee32ac5-72d3-4f5e-9855-98ad57db7d28","ios":"levelo://app?vid=7ee32ac5-72d3-4f5e-9855-98ad57db7d28"},"vehicle_type_id":"4","last_reported":1774131225,"current_range_meters":6800,"station_id":"ce4bgl12rcd13ifvqbo0","pricing_plan_id":"cebpf4jnsgd1na2vs0mg"},{"bike_id":"4cfbfa6f-5626-4810-9e83-9f7d2f4044c0","system_id":"levelo_inurba_marseille","lat":43.29535,"lon":5.38537,"is_reserved":false,"is_disabled":false,"rental_uris":{"android":"levelo://app?vid=4cfbfa6f-5626-4810-9e83-9f7d2f4044c0","ios":"levelo://app?vid=4cfbfa6f-5626-4810-9e83-9f7d2f4044c0"},"vehicle_type_id":"4","last_reported":1774131225,"current_range_meters":6800,"station_id":"ce4bgih2rcd13ifvqba0","pricing_plan_id":"cebpf4jnsgd1na2vs0mg"},{"bike_id":"eec1e70a-7a70-4f35-82df-f3727eb58f06","system_id":"levelo_inurba_marseille","lat":43.29635,"lon":5.40192,"is_reserved":false,"is_disabled":false,"rental_uris":{"android":"levelo://app?vid=eec1e70a-7a70-4f35-82df-f3727eb58f06","ios":"levelo://app?vid=eec1e70a-7a70-4f35-82df-f3727eb58f06"},"vehicle_type_id":"4","last_reported":1774131225,"current_range_meters":6800,"station_id":"","pricing_plan_id":"cebpf4jnsgd1na2vs0mg"},{"bike_id":"059ca959-37ed-4fb7-a8b9-715e55b5cc3a","system_id":"levelo_inurba_marseille","lat":43.30607,"lon":5.37215,"is_reserved":false,"is_disabled":false,"rental_uris":{"android":"levelo://app?vid=059ca959-37ed-4fb7-a8b9-715e55b5cc3a","ios":"levelo://app?vid=059ca959-37ed-4fb7-a8b9-715e55b5cc3a"},"vehicle_type_id":"4","last_reported":1774131225,"current_range_meters":6800,"station_id":"ce4bgqh2rcd13ifvqc4g","pricing_plan_id":"cebpf4jnsgd1na2vs0mg"},{"bike_id":"e6475c08-c2b5-4384-9f5a-f76a9e6ed419","system_id":"levelo_inurba_marseille","lat":43.30089,"lon":5.39891,"is_reserved":false,"is_disabled":true,"rental_uris":{"android":"levelo://app?vid=e6475c08-c2b5-4384-9f5a-f76a9e6ed419","ios":"levelo://app?vid=e6475c08-c2b5-4384-9f5a-f76a9e6ed419"},"vehicle_type_id":"4","last_reported":1774131225,"current_range_meters":6800,"station_id":"ce4bh0h2rcd13ifvqd40","pricing_plan_id":"cebpf4jnsgd1na2vs0mg"},{"bike_id":"1cfda841-7ab8-4646-b1f6-441eefce8103","system_id":"levelo_inurba_marseille","lat":43.30165,"lon":5.3876,"is_reserved":false,"is_disabled":false,"rental_uris":{"android":"levelo://app?vid=1cfda841-7ab8-4646-b1f6-441eefce8103","ios":"levelo://app?vid=1cfda841-7ab8-4646-b1f6-441eefce8103"},"vehicle_type_id":"4","last_reported":1774131225,"current_range_meters":6800,"station_id":"ce4bghh2rcd13ifvqb60","pricing_plan_id":"cebpf4jnsgd1na2vs0mg"},{"bike_id":"bb64248e-0e5d-4ee1-9d8f-d48a0dd77d66","system_id":"levelo_inurba_marseille","lat":43.21622,"lon":5.34478,"is_reserved":false,"is_disabled":false,"rental_uris":{"android":"levelo://app?vid=bb64248e-0e5d-4ee1-9d8f-d48a0dd77d66","ios":"levelo://app?vid=bb64248e-0e5d-4ee1-9d8f-d48a0dd77d66"},"vehicle_type_id":"4","last_reported":1774131225,"current_range_meters":6800,"station_id":"","pricing_plan_id":"cebpf4jnsgd1na2vs0mg"},{"bike_id":"703efbe1-feef-417d-a9e3-0fca1a7eab74","system_id":"levelo_inurba_marseille","lat":43.34957,"lon":5.37915,"is_reserved":false,"is_disabled":false,"rental_uris":{"android":"levelo://app?vid=703efbe1-feef-417d-a9e3-0fca1a7eab74","ios":"levelo://app?vid=703efbe1-feef-417d-a9e3-0fca1a7eab74"},"vehicle_type_id":"4","last_reported":1774131225,"current_range_meters":6800,"station_id":"","pricing_plan_id":"cebpf4jnsgd1na2vs0mg"},{"bike_id":"83f26f0c-76a5-412b-b3a4-76d2e6d84a47","system_id":"levelo_inurba_marseille","lat":43.29528,"lon":5.38541,"is_reserved":false,"is_disabled":false,"rental_uris":{"android":"levelo://app?vid=83f26f0c-76a5-412b-b3a4-76d2e6d84a47","ios":"levelo://app?vid=83f26f0c-76a5-412b-b3a4-76d2e6d84a47"},"vehicle_type_id":"4","last_reported":1774131225,"current_range_meters":6800,"station_id":"ce4bgih2rcd13ifvqba0","pricing_plan_id":"cebpf4jnsgd1na2vs0mg"},{"bike_id":"9a71ec2e-4355-475c-adb7-888da0533055","system_id":"levelo_inurba_marseille","lat":43.29231,"lon":5.36072,"is_reserved":false,"is_disabled":false,"rental_uris":{"android":"levelo://app?vid=9a71ec2e-4355-475c-adb7-888da0533055","ios":"levelo://app?vid=9a71ec2e-4355-475c-adb7-888da0533055"},"vehicle_type_id":"4","last_reported":1774131225,"current_range_meters":6800,"station_id":"ce4bhbh2rcd13ifvqeqg","pricing_plan_id":"cebpf4jnsgd1na2vs0mg"},{"bike_id":"ee8c0786-704b-4515-a31a-2e24ac80a01b","system_id":"levelo_inurba_marseille","lat":43.33555,"lon":5.37456,"is_reserved":false,"is_disabled":false,"rental_uris":{"android":"levelo://app?vid=ee8c0786-704b-4515-a31a-2e24ac80a01b","ios":"levelo://app?vid=ee8c0786-704b-4515-a31a-2e24ac80a01b"},"vehicle_type_id":"4","last_reported":1774131225,"current_range_meters":7200,"station_id":"st_d46tts09ee8s73dlu43g","pricing_plan_id":"cebpf4jnsgd1na2vs0mg"},{"bike_id":"58930592-65f7-4192-ac2f-be7392b8805a","system_id":"levelo_inurba_marseille","lat":43.2624,"lon":5.40449,"is_reserved":false,"is_disabled":false,"rental_uris":{"android":"levelo://app?vid=58930592-65f7-4192-ac2f-be7392b8805a","ios":"levelo://app?vid=58930592-65f7-4192-ac2f-be7392b8805a"},"vehicle_type_id":"4","last_reported":1774131225,"current_range_meters":7200,"station_id":"ce4bhmh2rcd13ifvqgmg","pricing_plan_id":"cebpf4jnsgd1na2vs0mg"},{"bike_id":"f72d76b5-18e1-454b-afe7-6526fb898042","system_id":"levelo_inurba_marseille","lat":43.28042,"lon":5.36948,"is_reserved":false,"is_disabled":false,"rental_uris":{"android":"levelo://app?vid=f72d76b5-18e1-454b-afe7-6526fb898042","ios":"levelo://app?vid=f72d76b5-18e1-454b-afe7-6526fb898042"},"vehicle_type_id":"4","last_reported":1774131225,"current_range_meters":7200,"station_id":"ce4bha12rcd13ifvqef0","pricing_plan_id":"cebpf4jnsgd1na2vs0mg"},{"bike_id":"f47be5d0-e427-43b7-b61d-b48c9cfe268d","system_id":"levelo_inurba_marseille","lat":43.31714,"lon":5.4371,"is_reserved":false,"is_disabled":false,"rental_uris":{"android":"levelo://app?vid=f47be5d0-e427-43b7-b61d-b48c9cfe268d","ios":"levelo://app?vid=f47be5d0-e427-43b7-b61d-b48c9cfe268d"},"vehicle_type_id":"4","last_reported":1774131225,"current_range_meters":7200,"station_id":"ce4bhp92rcd13ifvqhcg","pricing_plan_id":"cebpf4jnsgd1na2vs0mg"},{"bike_id":"0d652583-c214-472f-9f7f-aee2fc78fbd5","system_id":"levelo_inurba_marseille","lat":43.29548,"lon":5.39037,"is_reserved":false,"is_disabled":false,"rental_uris":{"android":"levelo://app?vid=0d652583-c214-472f-9f7f-aee2fc78fbd5","ios":"levelo://app?vid=0d652583-c214-472f-9f7f-aee2fc78fbd5"},"vehicle_type_id":"4","last_reported":1774131225,"current_range_meters":7200,"station_id":"ce4bh3p2rcd13ifvqdp0","pricing_plan_id":"cebpf4jnsgd1na2vs0mg"},{"bike_id":"c7cc5081-8a90-4664-8378-0ac0db8d74fb","system_id":"levelo_inurba_marseille","lat":43.29838,"lon":5.36677,"is_reserved":false,"is_disabled":false,"rental_uris":{"android":"levelo://app?vid=c7cc5081-8a90-4664-8378-0ac0db8d74fb","ios":"levelo://app?vid=c7cc5081-8a90-4664-8378-0ac0db8d74fb"},"vehicle_type_id":"4","last_reported":1774131225,"current_range_meters":7200,"station_id":"","pricing_plan_id":"cebpf4jnsgd1na2vs0mg"},{"bike_id":"df5ad533-8354-43dd-b4db-d4118becde63","system_id":"levelo_inurba_marseille","lat":43.28511,"lon":5.48317,"is_reserved":false,"is_disabled":false,"rental_uris":{"android":"levelo://app?vid=df5ad533-8354-43dd-b4db-d4118becde63","ios":"levelo://app?vid=df5ad533-8354-43dd-b4db-d4118becde63"},"vehicle_type_id":"4","last_reported":1774131225,"current_range_meters":7200,"station_id":"","pricing_plan_id":"cebpf4jnsgd1na2vs0mg"},{"bike_id":"d65bd890-bd76-40b1-a464-add252f480e6","system_id":"levelo_inurba_marseille","lat":43.31736,"lon":5.38999,"is_reserved":false,"is_disabled":false,"rental_uris":{"android":"levelo://app?vid=d65bd890-bd76-40b1-a464-add252f480e6","ios":"levelo://app?vid=d65bd890-bd76-40b1-a464-add252f480e6"},"vehicle_type_id":"4","last_reported":1774131225,"current_range_meters":7200,"station_id":"ce4bhqp2rcd13ifvqhng","pricing_plan_id":"cebpf4jnsgd1na2vs0mg"},{"bike_id":"0e8182cb-e700-4d11-8f0c-f71006c7b2ed","system_id":"levelo_inurba_marseille","lat":43.28656,"lon":5.36162,"is_reserved":false,"is_disabled":false,"rental_uris":{"android":"levelo://app?vid=0e8182cb-e700-4d11-8f0c-f71006c7b2ed","ios":"levelo://app?vid=0e8182cb-e700-4d11-8f0c-f71006c7b2ed"},"vehicle_type_id":"4","last_reported":1774131225,"current_range_meters":7200,"station_id":"","pricing_plan_id":"cebpf4jnsgd1na2vs0mg"},{"bike_id":"84dc3d68-1c59-4a3a-a8d1-cca6c5afc7c9","system_id":"levelo_inurba_marseille","lat":43.28031,"lon":5.36945,"is_reserved":false,"is_disabled":false,"rental_uris":{"android":"levelo://app?vid=84dc3d68-1c59-4a3a-a8d1-cca6c5afc7c9","ios":"levelo://app?vid=84dc3d68-1c59-4a3a-a8d1-cca6c5afc7c9"},"vehicle_type_id":"4","last_reported":1774131225,"current_range_meters":7200,"station_id":"ce4bha12rcd13ifvqef0","pricing_plan_id":"cebpf4jnsgd1na2vs0mg"},{"bike_id":"91835384-6537-4626-9579-23e38e6a4a9b","system_id":"levelo_inurba_marseille","lat":43.28392,"lon":5.38606,"is_reserved":false,"is_disabled":false,"rental_uris":{"android":"levelo://app?vid=91835384-6537-4626-9579-23e38e6a4a9b","ios":"levelo://app?vid=91835384-6537-4626-9579-23e38e6a4a9b"},"vehicle_type_id":"4","last_reported":1774131225,"current_range_meters":7200,"station_id":"","pricing_plan_id":"cebpf4jnsgd1na2vs0mg"},{"bike_id":"881552ad-57ca-4484-9a05-f159c58f50d9","system_id":"levelo_inurba_marseille","lat":43.31702,"lon":5.38693,"is_reserved":false,"is_disabled":false,"rental_uris":{"android":"levelo://app?vid=881552ad-57ca-4484-9a05-f159c58f50d9","ios":"levelo://app?vid=881552ad-57ca-4484-9a05-f159c58f50d9"},"vehicle_type_id":"4","last_reported":1774131225,"current_range_meters":7200,"station_id":"","pricing_plan_id":"cebpf4jnsgd1na2vs0mg"},{"bike_id":"7391d843-4a97-42eb-a165-04dc1106d10b","system_id":"levelo_inurba_marseille","lat":43.30603,"lon":5.37209,"is_reserved":false,"is_disabled":false,"rental_uris":{"android":"levelo://app?vid=7391d843-4a97-42eb-a165-04dc1106d10b","ios":"levelo://app?vid=7391d843-4a97-42eb-a165-04dc1106d10b"},"vehicle_type_id":"4","last_reported":1774131225,"current_range_meters":7200,"station_id":"ce4bgqh2rcd13ifvqc4g","pricing_plan_id":"cebpf4jnsgd1na2vs0mg"},{"bike_id":"2cd11bbe-ed2d-4401-ac74-aa88c1ac5db6","system_id":"levelo_inurba_marseille","lat":43.29436,"lon":5.39764,"is_reserved":false,"is_disabled":false,"rental_uris":{"android":"levelo://app?vid=2cd11bbe-ed2d-4401-ac74-aa88c1ac5db6","ios":"levelo://app?vid=2cd11bbe-ed2d-4401-ac74-aa88c1ac5db6"},"vehicle_type_id":"4","last_reported":1774131225,"current_range_meters":7200,"station_id":"ce4bh3h2rcd13ifvqdo0","pricing_plan_id":"cebpf4jnsgd1na2vs0mg"},{"bike_id":"99a4c351-f049-4890-82a1-6ee5250a4da7","system_id":"levelo_inurba_marseille","lat":43.29081,"lon":5.38131,"is_reserved":false,"is_disabled":false,"rental_uris":{"android":"levelo://app?vid=99a4c351-f049-4890-82a1-6ee5250a4da7","ios":"levelo://app?vid=99a4c351-f049-4890-82a1-6ee5250a4da7"},"vehicle_type_id":"4","last_reported":1774131225,"current_range_meters":7200,"station_id":"ce4bh512rcd13ifvqe2g","pricing_plan_id":"cebpf4jnsgd1na2vs0mg"},{"bike_id":"e6555f06-80a7-4366-baa8-6d2c61285260","system_id":"levelo_inurba_marseille","lat":43.29976,"lon":5.38493,"is_reserved":false,"is_disabled":false,"rental_uris":{"android":"levelo://app?vid=e6555f06-80a7-4366-baa8-6d2c61285260","ios":"levelo://app?vid=e6555f06-80a7-4366-baa8-6d2c61285260"},"vehicle_type_id":"4","last_reported":1774131225,"current_range_meters":7200,"station_id":"ce4bgj92rcd13ifvqbd0","pricing_plan_id":"cebpf4jnsgd1na2vs0mg"},{"bike_id":"b8e5cea4-6617-4888-be1d-db1defb2f135","system_id":"levelo_inurba_marseille","lat":43.2968,"lon":5.36599,"is_reserved":false,"is_disabled":false,"rental_uris":{"android":"levelo://app?vid=b8e5cea4-6617-4888-be1d-db1defb2f135","ios":"levelo://app?vid=b8e5cea4-6617-4888-be1d-db1defb2f135"},"vehicle_type_id":"4","last_reported":1774131225,"current_range_meters":8000,"station_id":"ce4bgn12rcd13ifvqbt0","pricing_plan_id":"cebpf4jnsgd1na2vs0mg"},{"bike_id":"b6fffe2f-9423-41b9-a53f-4ddbccd10965","system_id":"levelo_inurba_marseille","lat":43.33545,"lon":5.37459,"is_reserved":false,"is_disabled":false,"rental_uris":{"android":"levelo://app?vid=b6fffe2f-9423-41b9-a53f-4ddbccd10965","ios":"levelo://app?vid=b6fffe2f-9423-41b9-a53f-4ddbccd10965"},"vehicle_type_id":"4","last_reported":1774131225,"current_range_meters":8000,"station_id":"st_d46tts09ee8s73dlu43g","pricing_plan_id":"cebpf4jnsgd1na2vs0mg"},{"bike_id":"037af263-c94a-46ee-b673-7aa7948320d5","system_id":"levelo_inurba_marseille","lat":43.29259,"lon":5.3844,"is_reserved":false,"is_disabled":true,"rental_uris":{"android":"levelo://app?vid=037af263-c94a-46ee-b673-7aa7948320d5","ios":"levelo://app?vid=037af263-c94a-46ee-b673-7aa7948320d5"},"vehicle_type_id":"4","last_reported":1774131225,"current_range_meters":8000,"station_id":"ce4bh692rcd13ifvqea0","pricing_plan_id":"cebpf4jnsgd1na2vs0mg"},{"bike_id":"66f56402-7386-48e6-be67-acd970d62d91","system_id":"levelo_inurba_marseille","lat":43.29275,"lon":5.36841,"is_reserved":false,"is_disabled":false,"rental_uris":{"android":"levelo://app?vid=66f56402-7386-48e6-be67-acd970d62d91","ios":"levelo://app?vid=66f56402-7386-48e6-be67-acd970d62d91"},"vehicle_type_id":"4","last_reported":1774131225,"current_range_meters":8000,"station_id":"ce4bhbp2rcd13ifvqesg","pricing_plan_id":"cebpf4jnsgd1na2vs0mg"},{"bike_id":"a056b44c-3f74-478b-9324-c2fb58ef1ed2","system_id":"levelo_inurba_marseille","lat":43.30139,"lon":5.37433,"is_reserved":false,"is_disabled":false,"rental_uris":{"android":"levelo://app?vid=a056b44c-3f74-478b-9324-c2fb58ef1ed2","ios":"levelo://app?vid=a056b44c-3f74-478b-9324-c2fb58ef1ed2"},"vehicle_type_id":"4","last_reported":1774131225,"current_range_meters":8000,"station_id":"ce4bgs92rcd13ifvqcc0","pricing_plan_id":"cebpf4jnsgd1na2vs0mg"},{"bike_id":"280578b9-60d3-4d63-bb0d-4693a52f0b6d","system_id":"levelo_inurba_marseille","lat":43.29018,"lon":5.38113,"is_reserved":false,"is_disabled":true,"rental_uris":{"android":"levelo://app?vid=280578b9-60d3-4d63-bb0d-4693a52f0b6d","ios":"levelo://app?vid=280578b9-60d3-4d63-bb0d-4693a52f0b6d"},"vehicle_type_id":"4","last_reported":1774131225,"current_range_meters":8000,"station_id":"ce4bh4p2rcd13ifvqe1g","pricing_plan_id":"cebpf4jnsgd1na2vs0mg"},{"bike_id":"76a336d1-8392-4163-aad9-de020a1129ea","system_id":"levelo_inurba_marseille","lat":43.29602,"lon":5.38117,"is_reserved":false,"is_disabled":false,"rental_uris":{"android":"levelo://app?vid=76a336d1-8392-4163-aad9-de020a1129ea","ios":"levelo://app?vid=76a336d1-8392-4163-aad9-de020a1129ea"},"vehicle_type_id":"4","last_reported":1774131225,"current_range_meters":8000,"station_id":"ce4bgl12rcd13ifvqbo0","pricing_plan_id":"cebpf4jnsgd1na2vs0mg"},{"bike_id":"f84df946-1fe9-4d68-b54f-3a23cc20fde7","system_id":"levelo_inurba_marseille","lat":43.29897,"lon":5.42142,"is_reserved":false,"is_disabled":false,"rental_uris":{"android":"levelo://app?vid=f84df946-1fe9-4d68-b54f-3a23cc20fde7","ios":"levelo://app?vid=f84df946-1fe9-4d68-b54f-3a23cc20fde7"},"vehicle_type_id":"4","last_reported":1774131225,"current_range_meters":8000,"station_id":"st_d6tc004otcvc738tfe70","pricing_plan_id":"cebpf4jnsgd1na2vs0mg"},{"bike_id":"e80e3045-8283-4d1d-b48f-693d799b5a5c","system_id":"levelo_inurba_marseille","lat":43.29489,"lon":5.4331,"is_reserved":false,"is_disabled":false,"rental_uris":{"android":"levelo://app?vid=e80e3045-8283-4d1d-b48f-693d799b5a5c","ios":"levelo://app?vid=e80e3045-8283-4d1d-b48f-693d799b5a5c"},"vehicle_type_id":"4","last_reported":1774131225,"current_range_meters":8000,"station_id":"st_d3j5ugp08ojc73fj9d10","pricing_plan_id":"cebpf4jnsgd1na2vs0mg"},{"bike_id":"3c9ec287-5840-43e9-841e-079c32285e84","system_id":"levelo_inurba_marseille","lat":43.33155,"lon":5.37682,"is_reserved":false,"is_disabled":false,"rental_uris":{"android":"levelo://app?vid=3c9ec287-5840-43e9-841e-079c32285e84","ios":"levelo://app?vid=3c9ec287-5840-43e9-841e-079c32285e84"},"vehicle_type_id":"4","last_reported":1774131225,"current_range_meters":8000,"station_id":"st_d46cu089ee8s73dldbu0","pricing_plan_id":"cebpf4jnsgd1na2vs0mg"},{"bike_id":"b34b727c-8b77-4550-abf0-5aeaa189f090","system_id":"levelo_inurba_marseille","lat":43.29534,"lon":5.38531,"is_reserved":false,"is_disabled":false,"rental_uris":{"android":"levelo://app?vid=b34b727c-8b77-4550-abf0-5aeaa189f090","ios":"levelo://app?vid=b34b727c-8b77-4550-abf0-5aeaa189f090"},"vehicle_type_id":"4","last_reported":1774131225,"current_range_meters":8000,"station_id":"ce4bgih2rcd13ifvqba0","pricing_plan_id":"cebpf4jnsgd1na2vs0mg"},{"bike_id":"7ef9d7f7-b04c-4958-8238-f78192628eb3","system_id":"levelo_inurba_marseille","lat":43.26368,"lon":5.41086,"is_reserved":false,"is_disabled":false,"rental_uris":{"android":"levelo://app?vid=7ef9d7f7-b04c-4958-8238-f78192628eb3","ios":"levelo://app?vid=7ef9d7f7-b04c-4958-8238-f78192628eb3"},"vehicle_type_id":"4","last_reported":1774131225,"current_range_meters":8000,"station_id":"st_d4e5ca6na9uc73bfl5fg","pricing_plan_id":"cebpf4jnsgd1na2vs0mg"},{"bike_id":"afaf009b-854b-4a4a-9a19-fdc9f27a88ec","system_id":"levelo_inurba_marseille","lat":43.2904,"lon":5.38639,"is_reserved":false,"is_disabled":true,"rental_uris":{"android":"levelo://app?vid=afaf009b-854b-4a4a-9a19-fdc9f27a88ec","ios":"levelo://app?vid=afaf009b-854b-4a4a-9a19-fdc9f27a88ec"},"vehicle_type_id":"4","last_reported":1774131225,"current_range_meters":8000,"station_id":"ce4bh4p2rcd13ifvqe0g","pricing_plan_id":"cebpf4jnsgd1na2vs0mg"},{"bike_id":"5369d941-756a-4a39-ae59-10b7c47d2be3","system_id":"levelo_inurba_marseille","lat":43.31041,"lon":5.37178,"is_reserved":false,"is_disabled":false,"rental_uris":{"android":"levelo://app?vid=5369d941-756a-4a39-ae59-10b7c47d2be3","ios":"levelo://app?vid=5369d941-756a-4a39-ae59-10b7c47d2be3"},"vehicle_type_id":"4","last_reported":1774131225,"current_range_meters":8000,"station_id":"st_d4kl2rp97mjs73e7tdfg","pricing_plan_id":"cebpf4jnsgd1na2vs0mg"},{"bike_id":"d3165751-186a-400c-8045-546da55910f7","system_id":"levelo_inurba_marseille","lat":43.29535,"lon":5.3854,"is_reserved":false,"is_disabled":false,"rental_uris":{"android":"levelo://app?vid=d3165751-186a-400c-8045-546da55910f7","ios":"levelo://app?vid=d3165751-186a-400c-8045-546da55910f7"},"vehicle_type_id":"4","last_reported":1774131225,"current_range_meters":8000,"station_id":"ce4bgih2rcd13ifvqba0","pricing_plan_id":"cebpf4jnsgd1na2vs0mg"},{"bike_id":"15bc9bc1-7d48-4b4a-a23e-9fab22a1f892","system_id":"levelo_inurba_marseille","lat":43.29277,"lon":5.38441,"is_reserved":false,"is_disabled":false,"rental_uris":{"android":"levelo://app?vid=15bc9bc1-7d48-4b4a-a23e-9fab22a1f892","ios":"levelo://app?vid=15bc9bc1-7d48-4b4a-a23e-9fab22a1f892"},"vehicle_type_id":"4","last_reported":1774131225,"current_range_meters":8000,"station_id":"ce4bh692rcd13ifvqea0","pricing_plan_id":"cebpf4jnsgd1na2vs0mg"},{"bike_id":"bc4220c4-6938-406f-b726-db28b4132f06","system_id":"levelo_inurba_marseille","lat":43.29532,"lon":5.38536,"is_reserved":false,"is_disabled":false,"rental_uris":{"android":"levelo://app?vid=bc4220c4-6938-406f-b726-db28b4132f06","ios":"levelo://app?vid=bc4220c4-6938-406f-b726-db28b4132f06"},"vehicle_type_id":"4","last_reported":1774131225,"current_range_meters":8000,"station_id":"ce4bgih2rcd13ifvqba0","pricing_plan_id":"cebpf4jnsgd1na2vs0mg"},{"bike_id":"24892758-e1c8-4866-9ace-f6379bc81fdc","system_id":"levelo_inurba_marseille","lat":43.26369,"lon":5.41114,"is_reserved":false,"is_disabled":false,"rental_uris":{"android":"levelo://app?vid=24892758-e1c8-4866-9ace-f6379bc81fdc","ios":"levelo://app?vid=24892758-e1c8-4866-9ace-f6379bc81fdc"},"vehicle_type_id":"4","last_reported":1774131225,"current_range_meters":8000,"station_id":"st_d4e5ca6na9uc73bfl5fg","pricing_plan_id":"cebpf4jnsgd1na2vs0mg"},{"bike_id":"e9013939-19a0-4644-991b-b60743e1f073","system_id":"levelo_inurba_marseille","lat":43.33602,"lon":5.41032,"is_reserved":false,"is_disabled":false,"rental_uris":{"android":"levelo://app?vid=e9013939-19a0-4644-991b-b60743e1f073","ios":"levelo://app?vid=e9013939-19a0-4644-991b-b60743e1f073"},"vehicle_type_id":"4","last_reported":1774131225,"current_range_meters":8000,"station_id":"ce4bhqh2rcd13ifvqhmg","pricing_plan_id":"cebpf4jnsgd1na2vs0mg"},{"bike_id":"e33f5f25-5086-402e-9b7b-588bc5bb9936","system_id":"levelo_inurba_marseille","lat":43.23963,"lon":5.36632,"is_reserved":false,"is_disabled":false,"rental_uris":{"android":"levelo://app?vid=e33f5f25-5086-402e-9b7b-588bc5bb9936","ios":"levelo://app?vid=e33f5f25-5086-402e-9b7b-588bc5bb9936"},"vehicle_type_id":"4","last_reported":1774131225,"current_range_meters":8400,"station_id":"ce4bhi12rcd13ifvqfp0","pricing_plan_id":"cebpf4jnsgd1na2vs0mg"},{"bike_id":"70ed81f0-cc7f-4a8f-b6f0-251d42df73b9","system_id":"levelo_inurba_marseille","lat":43.2927,"lon":5.3685,"is_reserved":false,"is_disabled":false,"rental_uris":{"android":"levelo://app?vid=70ed81f0-cc7f-4a8f-b6f0-251d42df73b9","ios":"levelo://app?vid=70ed81f0-cc7f-4a8f-b6f0-251d42df73b9"},"vehicle_type_id":"4","last_reported":1774131225,"current_range_meters":8400,"station_id":"ce4bhbp2rcd13ifvqesg","pricing_plan_id":"cebpf4jnsgd1na2vs0mg"},{"bike_id":"9428c957-f603-4346-9e68-4f9e4a780b24","system_id":"levelo_inurba_marseille","lat":43.21759,"lon":5.34607,"is_reserved":false,"is_disabled":true,"rental_uris":{"android":"levelo://app?vid=9428c957-f603-4346-9e68-4f9e4a780b24","ios":"levelo://app?vid=9428c957-f603-4346-9e68-4f9e4a780b24"},"vehicle_type_id":"4","last_reported":1774131225,"current_range_meters":8400,"station_id":"st_cvj6r9ubvosntc0bgbag","pricing_plan_id":"cebpf4jnsgd1na2vs0mg"},{"bike_id":"62ccf4a8-0426-42c8-92c7-60b92e2221c9","system_id":"levelo_inurba_marseille","lat":43.28487,"lon":5.48388,"is_reserved":false,"is_disabled":false,"rental_uris":{"android":"levelo://app?vid=62ccf4a8-0426-42c8-92c7-60b92e2221c9","ios":"levelo://app?vid=62ccf4a8-0426-42c8-92c7-60b92e2221c9"},"vehicle_type_id":"4","last_reported":1774131225,"current_range_meters":8400,"station_id":"","pricing_plan_id":"cebpf4jnsgd1na2vs0mg"},{"bike_id":"d4da46a1-3b9d-4dec-958a-07224dfcb10c","system_id":"levelo_inurba_marseille","lat":43.27218,"lon":5.3923,"is_reserved":false,"is_disabled":true,"rental_uris":{"android":"levelo://app?vid=d4da46a1-3b9d-4dec-958a-07224dfcb10c","ios":"levelo://app?vid=d4da46a1-3b9d-4dec-958a-07224dfcb10c"},"vehicle_type_id":"4","last_reported":1774131225,"current_range_meters":8400,"station_id":"ce4bhhp2rcd13ifvqfm0","pricing_plan_id":"cebpf4jnsgd1na2vs0mg"},{"bike_id":"589e256a-566c-48aa-ba2e-bb8bec131139","system_id":"levelo_inurba_marseille","lat":43.27381,"lon":5.36249,"is_reserved":false,"is_disabled":true,"rental_uris":{"android":"levelo://app?vid=589e256a-566c-48aa-ba2e-bb8bec131139","ios":"levelo://app?vid=589e256a-566c-48aa-ba2e-bb8bec131139"},"vehicle_type_id":"4","last_reported":1774131225,"current_range_meters":8400,"station_id":"ce4bhbh2rcd13ifvqeo0","pricing_plan_id":"cebpf4jnsgd1na2vs0mg"},{"bike_id":"183fd90c-0052-4b2b-a72d-89bd5fb0a1bb","system_id":"levelo_inurba_marseille","lat":43.30986,"lon":5.43874,"is_reserved":false,"is_disabled":false,"rental_uris":{"android":"levelo://app?vid=183fd90c-0052-4b2b-a72d-89bd5fb0a1bb","ios":"levelo://app?vid=183fd90c-0052-4b2b-a72d-89bd5fb0a1bb"},"vehicle_type_id":"4","last_reported":1774131225,"current_range_meters":8400,"station_id":"","pricing_plan_id":"cebpf4jnsgd1na2vs0mg"},{"bike_id":"3f12e940-de87-4cda-8d19-b5ddb45a8f36","system_id":"levelo_inurba_marseille","lat":43.23192,"lon":5.35569,"is_reserved":false,"is_disabled":false,"rental_uris":{"android":"levelo://app?vid=3f12e940-de87-4cda-8d19-b5ddb45a8f36","ios":"levelo://app?vid=3f12e940-de87-4cda-8d19-b5ddb45a8f36"},"vehicle_type_id":"4","last_reported":1774131225,"current_range_meters":8400,"station_id":"ce4bhu92rcd13ifvqi70","pricing_plan_id":"cebpf4jnsgd1na2vs0mg"},{"bike_id":"f6f3abcd-ef9f-43cd-8672-32ea53a97c73","system_id":"levelo_inurba_marseille","lat":43.31384,"lon":5.3674,"is_reserved":false,"is_disabled":false,"rental_uris":{"android":"levelo://app?vid=f6f3abcd-ef9f-43cd-8672-32ea53a97c73","ios":"levelo://app?vid=f6f3abcd-ef9f-43cd-8672-32ea53a97c73"},"vehicle_type_id":"4","last_reported":1774131225,"current_range_meters":8400,"station_id":"","pricing_plan_id":"cebpf4jnsgd1na2vs0mg"},{"bike_id":"042634bc-3563-4c6c-b30b-7c88c33b368a","system_id":"levelo_inurba_marseille","lat":43.28485,"lon":5.48396,"is_reserved":false,"is_disabled":false,"rental_uris":{"android":"levelo://app?vid=042634bc-3563-4c6c-b30b-7c88c33b368a","ios":"levelo://app?vid=042634bc-3563-4c6c-b30b-7c88c33b368a"},"vehicle_type_id":"4","last_reported":1774131225,"current_range_meters":8400,"station_id":"","pricing_plan_id":"cebpf4jnsgd1na2vs0mg"},{"bike_id":"8547a202-f08e-4278-86e2-4f385755928d","system_id":"levelo_inurba_marseille","lat":43.29783,"lon":5.37111,"is_reserved":false,"is_disabled":false,"rental_uris":{"android":"levelo://app?vid=8547a202-f08e-4278-86e2-4f385755928d","ios":"levelo://app?vid=8547a202-f08e-4278-86e2-4f385755928d"},"vehicle_type_id":"4","last_reported":1774131225,"current_range_meters":8400,"station_id":"ce4bgop2rcd13ifvqc1g","pricing_plan_id":"cebpf4jnsgd1na2vs0mg"},{"bike_id":"81494dd5-c3de-4230-8baf-09fc5921dbf0","system_id":"levelo_inurba_marseille","lat":43.29529,"lon":5.38522,"is_reserved":false,"is_disabled":false,"rental_uris":{"android":"levelo://app?vid=81494dd5-c3de-4230-8baf-09fc5921dbf0","ios":"levelo://app?vid=81494dd5-c3de-4230-8baf-09fc5921dbf0"},"vehicle_type_id":"4","last_reported":1774131225,"current_range_meters":8400,"station_id":"ce4bgih2rcd13ifvqba0","pricing_plan_id":"cebpf4jnsgd1na2vs0mg"},{"bike_id":"b0a68ef7-7c2c-4efb-a9b7-35442ac24059","system_id":"levelo_inurba_marseille","lat":43.28733,"lon":5.37933,"is_reserved":false,"is_disabled":false,"rental_uris":{"android":"levelo://app?vid=b0a68ef7-7c2c-4efb-a9b7-35442ac24059","ios":"levelo://app?vid=b0a68ef7-7c2c-4efb-a9b7-35442ac24059"},"vehicle_type_id":"4","last_reported":1774131225,"current_range_meters":8400,"station_id":"ce4bh9p2rcd13ifvqec0","pricing_plan_id":"cebpf4jnsgd1na2vs0mg"},{"bike_id":"874e76fc-2557-44df-8f16-c78b5eadeef3","system_id":"levelo_inurba_marseille","lat":43.24959,"lon":5.40503,"is_reserved":false,"is_disabled":false,"rental_uris":{"android":"levelo://app?vid=874e76fc-2557-44df-8f16-c78b5eadeef3","ios":"levelo://app?vid=874e76fc-2557-44df-8f16-c78b5eadeef3"},"vehicle_type_id":"4","last_reported":1774131225,"current_range_meters":8400,"station_id":"st_d2ngiaodas8pm72gd1h0","pricing_plan_id":"cebpf4jnsgd1na2vs0mg"},{"bike_id":"f7eb4427-69b4-4ba2-b725-4c793d1cf289","system_id":"levelo_inurba_marseille","lat":43.30799,"lon":5.3815,"is_reserved":false,"is_disabled":false,"rental_uris":{"android":"levelo://app?vid=f7eb4427-69b4-4ba2-b725-4c793d1cf289","ios":"levelo://app?vid=f7eb4427-69b4-4ba2-b725-4c793d1cf289"},"vehicle_type_id":"4","last_reported":1774131225,"current_range_meters":8400,"station_id":"ce4bgt12rcd13ifvqce0","pricing_plan_id":"cebpf4jnsgd1na2vs0mg"},{"bike_id":"9b602c56-00ba-4bc3-abda-97547ff6764e","system_id":"levelo_inurba_marseille","lat":43.29575,"lon":5.38125,"is_reserved":false,"is_disabled":false,"rental_uris":{"android":"levelo://app?vid=9b602c56-00ba-4bc3-abda-97547ff6764e","ios":"levelo://app?vid=9b602c56-00ba-4bc3-abda-97547ff6764e"},"vehicle_type_id":"4","last_reported":1774131225,"current_range_meters":8400,"station_id":"ce4bgl12rcd13ifvqbo0","pricing_plan_id":"cebpf4jnsgd1na2vs0mg"},{"bike_id":"727a7cec-c0a4-42ee-b13e-1092ce84e6ac","system_id":"levelo_inurba_marseille","lat":43.25505,"lon":5.37642,"is_reserved":false,"is_disabled":true,"rental_uris":{"android":"levelo://app?vid=727a7cec-c0a4-42ee-b13e-1092ce84e6ac","ios":"levelo://app?vid=727a7cec-c0a4-42ee-b13e-1092ce84e6ac"},"vehicle_type_id":"4","last_reported":1774131225,"current_range_meters":8400,"station_id":"ce4bhh12rcd13ifvqff0","pricing_plan_id":"cebpf4jnsgd1na2vs0mg"},{"bike_id":"f334741d-2026-4950-abdd-baeb17aaa8cd","system_id":"levelo_inurba_marseille","lat":43.29891,"lon":5.3889,"is_reserved":false,"is_disabled":false,"rental_uris":{"android":"levelo://app?vid=f334741d-2026-4950-abdd-baeb17aaa8cd","ios":"levelo://app?vid=f334741d-2026-4950-abdd-baeb17aaa8cd"},"vehicle_type_id":"4","last_reported":1774131225,"current_range_meters":8400,"station_id":"ce4bh392rcd13ifvqdl0","pricing_plan_id":"cebpf4jnsgd1na2vs0mg"},{"bike_id":"f0d9f2af-de26-4d1e-be2c-0316566a7e6b","system_id":"levelo_inurba_marseille","lat":43.2902,"lon":5.37572,"is_reserved":false,"is_disabled":false,"rental_uris":{"android":"levelo://app?vid=f0d9f2af-de26-4d1e-be2c-0316566a7e6b","ios":"levelo://app?vid=f0d9f2af-de26-4d1e-be2c-0316566a7e6b"},"vehicle_type_id":"4","last_reported":1774131225,"current_range_meters":8400,"station_id":"ce4bh692rcd13ifvqe90","pricing_plan_id":"cebpf4jnsgd1na2vs0mg"},{"bike_id":"44f62114-3f0b-46d1-9f31-8d97f4a9fcac","system_id":"levelo_inurba_marseille","lat":43.29938,"lon":5.36534,"is_reserved":false,"is_disabled":false,"rental_uris":{"android":"levelo://app?vid=44f62114-3f0b-46d1-9f31-8d97f4a9fcac","ios":"levelo://app?vid=44f62114-3f0b-46d1-9f31-8d97f4a9fcac"},"vehicle_type_id":"4","last_reported":1774131225,"current_range_meters":8400,"station_id":"ce4bgm92rcd13ifvqbr0","pricing_plan_id":"cebpf4jnsgd1na2vs0mg"},{"bike_id":"ad37e9ec-eb30-4c9b-8460-ead62de9f218","system_id":"levelo_inurba_marseille","lat":43.29289,"lon":5.38407,"is_reserved":false,"is_disabled":false,"rental_uris":{"android":"levelo://app?vid=ad37e9ec-eb30-4c9b-8460-ead62de9f218","ios":"levelo://app?vid=ad37e9ec-eb30-4c9b-8460-ead62de9f218"},"vehicle_type_id":"4","last_reported":1774131225,"current_range_meters":8400,"station_id":"ce4bh692rcd13ifvqea0","pricing_plan_id":"cebpf4jnsgd1na2vs0mg"},{"bike_id":"b19a626a-93cd-41bf-8d4f-8b63d7aeec08","system_id":"levelo_inurba_marseille","lat":43.30142,"lon":5.43892,"is_reserved":false,"is_disabled":false,"rental_uris":{"android":"levelo://app?vid=b19a626a-93cd-41bf-8d4f-8b63d7aeec08","ios":"levelo://app?vid=b19a626a-93cd-41bf-8d4f-8b63d7aeec08"},"vehicle_type_id":"4","last_reported":1774131225,"current_range_meters":8400,"station_id":"","pricing_plan_id":"cebpf4jnsgd1na2vs0mg"},{"bike_id":"8827da7c-4553-4e45-8b96-33f6c2699a52","system_id":"levelo_inurba_marseille","lat":43.21761,"lon":5.34634,"is_reserved":false,"is_disabled":true,"rental_uris":{"android":"levelo://app?vid=8827da7c-4553-4e45-8b96-33f6c2699a52","ios":"levelo://app?vid=8827da7c-4553-4e45-8b96-33f6c2699a52"},