{"last_updated":1684951698,"ttl":30,"version":"2.2","data":{"bikes":[{"bike_id":"6e4d5393-2c37-4e4b-ac12-1beeab014c16","system_id":"levelo_inurba_marseille","lat":43.312239,"lon":5.368562,"is_reserved":false,"is_disabled":false,"rental_uris":{"android":"levelo://app?vid=6e4d5393-2c37-4e4b-ac12-1beeab014c16","ios":"levelo://app?vid=6e4d5393-2c37-4e4b-ac12-1beeab014c16"},"vehicle_type_id":"4","last_reported":1684951698,"current_range_meters":4000,"station_id":"ce4bgl92rcd13ifvqbq0","pricing_plan_id":"free"},{"bike_id":"a1a676d3-8396-4a60-ac10-75e6402bf7c1","system_id":"levelo_inurba_marseille","lat":43.309076,"lon":5.368465,"is_reserved":false,"is_disabled":false,"rental_uris":{"android":"levelo://app?vid=a1a676d3-8396-4a60-ac10-75e6402bf7c1","ios":"levelo://app?vid=a1a676d3-8396-4a60-ac10-75e6402bf7c1"},"vehicle_type_id":"4","last_reported":1684951698,"current_range_meters":22000,"station_id":"ce4bgn92rcd13ifvqbvg","pricing_plan_id":"free"},{"bike_id":"12df0bc5-6e26-45b7-b3fc-ce07ebfbe613","system_id":"levelo_inurba_marseille","lat":43.314811,"lon":5.373103,"is_reserved":false,"is_disabled":false,"rental_uris":{"android":"levelo://app?vid=12df0bc5-6e26-45b7-b3fc-ce07ebfbe613","ios":"levelo://app?vid=12df0bc5-6e26-45b7-b3fc-ce07ebfbe613"},"vehicle_type_id":"4","last_reported":1684951698,"current_range_meters":4800,"station_id":"ce4bgt12rcd13ifvqcd0","pricing_plan_id":"free"},{"bike_id":"a3067e19-edbf-41fc-9bb1-1864162748f2","system_id":"levelo_inurba_marseille","lat":43.305368,"lon":5.367343,"is_reserved":false,"is_disabled":false,"rental_uris":{"android":"levelo://app?vid=a3067e19-edbf-41fc-9bb1-1864162748f2","ios":"levelo://app?vid=a3067e19-edbf-41fc-9bb1-1864162748f2"},"vehicle_type_id":"4","last_reported":1684951698,"current_range_meters":7600,"station_id":"ce4bgrp2rcd13ifvqc9g","pricing_plan_id":"free"},{"bike_id":"846a740b-dd5f-414a-bc58-6b514855be6f","system_id":"levelo_inurba_marseille","lat":43.304852,"lon":5.366204,"is_reserved":false,"is_disabled":false,"rental_uris":{"android":"levelo://app?vid=846a740b-dd5f-414a-bc58-6b514855be6f","ios":"levelo://app?vid=846a740b-dd5f-414a-bc58-6b514855be6f"},"vehicle_type_id":"4","last_reported":1684951698,"current_range_meters":30000,"station_id":"","pricing_plan_id":"free"},{"bike_id":"6c69703b-41ca-43ff-9720-72e3692d0f4b","system_id":"levelo_inurba_marseille","lat":43.311131,"lon":5.377651,"is_reserved":false,"is_disabled":false,"rental_uris":{"android":"levelo://app?vid=6c69703b-41ca-43ff-9720-72e3692d0f4b","ios":"levelo://app?vid=6c69703b-41ca-43ff-9720-72e3692d0f4b"},"vehicle_type_id":"4","last_reported":1684951698,"current_range_meters":13600,"station_id":"ce4bgt92rcd13ifvqcg0","pricing_plan_id":"free"},{"bike_id":"68553df9-2b4c-4244-a834-2447f191355a","system_id":"levelo_inurba_marseille","lat":43.317075,"lon":5.377367,"is_reserved":false,"is_disabled":false,"rental_uris":{"android":"levelo://app?vid=68553df9-2b4c-4244-a834-2447f191355a","ios":"levelo://app?vid=68553df9-2b4c-4244-a834-2447f191355a"},"vehicle_type_id":"4","last_reported":1684951698,"current_range_meters":9600,"station_id":"ce4bgth2rcd13ifvqch0","pricing_plan_id":"free"},{"bike_id":"16e7282a-4eed-47c3-83b3-d7e0dee6c006","system_id":"levelo_inurba_marseille","lat":43.31702,"lon":5.37754,"is_reserved":false,"is_disabled":false,"rental_uris":{"android":"levelo://app?vid=16e7282a-4eed-47c3-83b3-d7e0dee6c006","ios":"levelo://app?vid=16e7282a-4eed-47c3-83b3-d7e0dee6c006"},"vehicle_type_id":"4","last_reported":1684951698,"current_range_meters":25600,"station_id":"ce4bgth2rcd13ifvqch0","pricing_plan_id":"free"},{"bike_id":"c1e64ba5-f673-404d-a689-e1fb0c714013","system_id":"levelo_inurba_marseille","lat":43.317075,"lon":5.377367,"is_reserved":false,"is_disabled":false,"rental_uris":{"android":"levelo://app?vid=c1e64ba5-f673-404d-a689-e1fb0c714013","ios":"levelo://app?vid=c1e64ba5-f673-404d-a689-e1fb0c714013"},"vehicle_type_id":"4","last_reported":1684951698,"current_range_meters":30800,"station_id":"ce4bgth2rcd13ifvqch0","pricing_plan_id":"free"},{"bike_id":"b6faf8b3-2a0c-46a6-b739-d70a593e59ae","system_id":"levelo_inurba_marseille","lat":43.317075,"lon":5.377367,"is_reserved":false,"is_disabled":false,"rental_uris":{"android":"levelo://app?vid=b6faf8b3-2a0c-46a6-b739-d70a593e59ae","ios":"levelo://app?vid=b6faf8b3-2a0c-46a6-b739-d70a593e59ae"},"vehicle_type_id":"4","last_reported":1684951698,"current_range_meters":4800,"station_id":"ce4bgth2rcd13ifvqch0","pricing_plan_id":"free"},{"bike_id":"e0e51ede-c4ac-4630-bc22-0e3c383745d9","system_id":"levelo_inurba_marseille","lat":43.317075,"lon":5.377367,"is_reserved":false,"is_disabled":false,"rental_uris":{"android":"levelo://app?vid=e0e51ede-c4ac-4630-bc22-0e3c383745d9","ios":"levelo://app?vid=e0e51ede-c4ac-4630-bc22-0e3c383745d9"},"vehicle_type_id":"4","last_reported":1684951698,"current_range_meters":28000,"station_id":"ce4bgth2rcd13ifvqch0","pricing_plan_id":"free"},{"bike_id":"4f4968a4-ca9f-414e-9e28-0a6c1bc1d7ff","system_id":"levelo_inurba_marseille","lat":43.303046,"lon":5.368981,"is_reserved":false,"is_disabled":false,"rental_uris":{"android":"levelo://app?vid=4f4968a4-ca9f-414e-9e28-0a6c1bc1d7ff","ios":"levelo://app?vid=4f4968a4-ca9f-414e-9e28-0a6c1bc1d7ff"},"vehicle_type_id":"4","last_reported":1684951698,"current_range_meters":29600,"station_id":"ce4bgqh2rcd13ifvqc5g","pricing_plan_id":"free"},{"bike_id":"e6d095ef-2b84-4614-9036-dcde0d40e77b","system_id":"levelo_inurba_marseille","lat":43.315289,"lon":5.380349,"is_reserved":false,"is_disabled":false,"rental_uris":{"android":"levelo://app?vid=e6d095ef-2b84-4614-9036-dcde0d40e77b","ios":"levelo://app?vid=e6d095ef-2b84-4614-9036-dcde0d40e77b"},"vehicle_type_id":"4","last_reported":1684951698,"current_range_meters":12800,"station_id":"ce4bhsp2rcd13ifvqi50","pricing_plan_id":"free"},{"bike_id":"6d6f9f90-e329-45d1-97a2-dad532edd73d","system_id":"levelo_inurba_marseille","lat":43.315293,"lon":5.380349,"is_reserved":false,"is_disabled":false,"rental_uris":{"android":"levelo://app?vid=6d6f9f90-e329-45d1-97a2-dad532edd73d","ios":"levelo://app?vid=6d6f9f90-e329-45d1-97a2-dad532edd73d"},"vehicle_type_id":"4","last_reported":1684951698,"current_range_meters":14400,"station_id":"ce4bhsp2rcd13ifvqi50","pricing_plan_id":"free"},{"bike_id":"e7fe2f5e-46b5-4efa-9dff-716f9f5b011b","system_id":"levelo_inurba_marseille","lat":43.301939,"lon":5.366286,"is_reserved":false,"is_disabled":false,"rental_uris":{"android":"levelo://app?vid=e7fe2f5e-46b5-4efa-9dff-716f9f5b011b","ios":"levelo://app?vid=e7fe2f5e-46b5-4efa-9dff-716f9f5b011b"},"vehicle_type_id":"4","last_reported":1684951698,"current_range_meters":14000,"station_id":"ce4bgrh2rcd13ifvqc8g","pricing_plan_id":"free"},{"bike_id":"ae2f4557-dd56-40d3-927b-963f46108a51","system_id":"levelo_inurba_marseille","lat":43.301939,"lon":5.366286,"is_reserved":false,"is_disabled":false,"rental_uris":{"android":"levelo://app?vid=ae2f4557-dd56-40d3-927b-963f46108a51","ios":"levelo://app?vid=ae2f4557-dd56-40d3-927b-963f46108a51"},"vehicle_type_id":"4","last_reported":1684951698,"current_range_meters":26000,"station_id":"ce4bgrh2rcd13ifvqc8g","pricing_plan_id":"free"},{"bike_id":"1c0a44c5-8c96-45e9-8663-e9517b89db4a","system_id":"levelo_inurba_marseille","lat":43.301939,"lon":5.366286,"is_reserved":false,"is_disabled":false,"rental_uris":{"android":"levelo://app?vid=1c0a44c5-8c96-45e9-8663-e9517b89db4a","ios":"levelo://app?vid=1c0a44c5-8c96-45e9-8663-e9517b89db4a"},"vehicle_type_id":"4","last_reported":1684951698,"current_range_meters":31200,"station_id":"ce4bgrh2rcd13ifvqc8g","pricing_plan_id":"free"},{"bike_id":"0485b8a5-c135-4f2d-80c5-946907c8c555","system_id":"levelo_inurba_marseille","lat":43.301939,"lon":5.366286,"is_reserved":false,"is_disabled":false,"rental_uris":{"android":"levelo://app?vid=0485b8a5-c135-4f2d-80c5-946907c8c555","ios":"levelo://app?vid=0485b8a5-c135-4f2d-80c5-946907c8c555"},"vehicle_type_id":"4","last_reported":1684951698,"current_range_meters":31200,"station_id":"ce4bgrh2rcd13ifvqc8g","pricing_plan_id":"free"},{"bike_id":"56aea466-0c35-47d7-8fea-495c51573bf5","system_id":"levelo_inurba_marseille","lat":43.30805,"lon":5.38155,"is_reserved":false,"is_disabled":false,"rental_uris":{"android":"levelo://app?vid=56aea466-0c35-47d7-8fea-495c51573bf5","ios":"levelo://app?vid=56aea466-0c35-47d7-8fea-495c51573bf5"},"vehicle_type_id":"4","last_reported":1684951698,"current_range_meters":0,"station_id":"ce4bgt12rcd13ifvqce0","pricing_plan_id":"free"},{"bike_id":"8c74e626-22fd-4901-98b6-64bc5fca0d64","system_id":"levelo_inurba_marseille","lat":43.308012,"lon":5.381511,"is_reserved":false,"is_disabled":false,"rental_uris":{"android":"levelo://app?vid=8c74e626-22fd-4901-98b6-64bc5fca0d64","ios":"levelo://app?vid=8c74e626-22fd-4901-98b6-64bc5fca0d64"},"vehicle_type_id":"4","last_reported":1684951698,"current_range_meters":24000,"station_id":"ce4bgt12rcd13ifvqce0","pricing_plan_id":"free"},{"bike_id":"b8994b73-d4df-4a9b-b787-8a37f26bcaf2","system_id":"levelo_inurba_marseille","lat":43.30134,"lon":5.37408,"is_reserved":false,"is_disabled":false,"rental_uris":{"android":"levelo://app?vid=b8994b73-d4df-4a9b-b787-8a37f26bcaf2","ios":"levelo://app?vid=b8994b73-d4df-4a9b-b787-8a37f26bcaf2"},"vehicle_type_id":"4","last_reported":1684951698,"current_range_meters":10000,"station_id":"","pricing_plan_id":"free"},{"bike_id":"a74c6f08-9461-4ace-af33-5cacafc4b1c4","system_id":"levelo_inurba_marseille","lat":43.30136,"lon":5.37421,"is_reserved":false,"is_disabled":false,"rental_uris":{"android":"levelo://app?vid=a74c6f08-9461-4ace-af33-5cacafc4b1c4","ios":"levelo://app?vid=a74c6f08-9461-4ace-af33-5cacafc4b1c4"},"vehicle_type_id":"4","last_reported":1684951698,"current_range_meters":26000,"station_id":"","pricing_plan_id":"free"},{"bike_id":"e5571f58-adb6-49b7-8c86-2d757ae8e1a0","system_id":"levelo_inurba_marseille","lat":43.319935,"lon":5.381699,"is_reserved":false,"is_disabled":false,"rental_uris":{"android":"levelo://app?vid=e5571f58-adb6-49b7-8c86-2d757ae8e1a0","ios":"levelo://app?vid=e5571f58-adb6-49b7-8c86-2d757ae8e1a0"},"vehicle_type_id":"4","last_reported":1684951698,"current_range_meters":26000,"station_id":"ce4bhr12rcd13ifvqhpg","pricing_plan_id":"free"},{"bike_id":"ca6734a0-a0ee-4445-bc44-dc7854a1d3b0","system_id":"levelo_inurba_marseille","lat":43.319935,"lon":5.381699,"is_reserved":false,"is_disabled":false,"rental_uris":{"android":"levelo://app?vid=ca6734a0-a0ee-4445-bc44-dc7854a1d3b0","ios":"levelo://app?vid=ca6734a0-a0ee-4445-bc44-dc7854a1d3b0"},"vehicle_type_id":"4","last_reported":1684951698,"current_range_meters":14000,"station_id":"ce4bhr12rcd13ifvqhpg","pricing_plan_id":"free"},{"bike_id":"d0086ee5-2c76-40c6-ac41-971c5ff57f75","system_id":"levelo_inurba_marseille","lat":43.319935,"lon":5.381699,"is_reserved":false,"is_disabled":false,"rental_uris":{"android":"levelo://app?vid=d0086ee5-2c76-40c6-ac41-971c5ff57f75","ios":"levelo://app?vid=d0086ee5-2c76-40c6-ac41-971c5ff57f75"},"vehicle_type_id":"4","last_reported":1684951698,"current_range_meters":20000,"station_id":"ce4bhr12rcd13ifvqhpg","pricing_plan_id":"free"},{"bike_id":"7c23ccfd-a335-42ff-a6a8-1227ff41620e","system_id":"levelo_inurba_marseille","lat":43.313571,"lon":5.384829,"is_reserved":false,"is_disabled":false,"rental_uris":{"android":"levelo://app?vid=7c23ccfd-a335-42ff-a6a8-1227ff41620e","ios":"levelo://app?vid=7c23ccfd-a335-42ff-a6a8-1227ff41620e"},"vehicle_type_id":"4","last_reported":1684951698,"current_range_meters":16800,"station_id":"ce4bgt92rcd13ifvqcf0","pricing_plan_id":"free"},{"bike_id":"b0bebb2d-bbd0-4257-8fd3-44570163afae","system_id":"levelo_inurba_marseille","lat":43.299222,"lon":5.365554,"is_reserved":false,"is_disabled":false,"rental_uris":{"android":"levelo://app?vid=b0bebb2d-bbd0-4257-8fd3-44570163afae","ios":"levelo://app?vid=b0bebb2d-bbd0-4257-8fd3-44570163afae"},"vehicle_type_id":"4","last_reported":1684951698,"current_range_meters":25200,"station_id":"ce4bgm92rcd13ifvqbr0","pricing_plan_id":"free"},{"bike_id":"4627fdda-780f-4dce-8226-ee5c56758a99","system_id":"levelo_inurba_marseille","lat":43.299243,"lon":5.37481,"is_reserved":false,"is_disabled":false,"rental_uris":{"android":"levelo://app?vid=4627fdda-780f-4dce-8226-ee5c56758a99","ios":"levelo://app?vid=4627fdda-780f-4dce-8226-ee5c56758a99"},"vehicle_type_id":"4","last_reported":1684951698,"current_range_meters":8800,"station_id":"ce4bgjh2rcd13ifvqbg0","pricing_plan_id":"free"},{"bike_id":"09f1d6aa-1df9-42fc-b70b-7ab96d0ecf23","system_id":"levelo_inurba_marseille","lat":43.311722,"lon":5.387247,"is_reserved":false,"is_disabled":false,"rental_uris":{"android":"levelo://app?vid=09f1d6aa-1df9-42fc-b70b-7ab96d0ecf23","ios":"levelo://app?vid=09f1d6aa-1df9-42fc-b70b-7ab96d0ecf23"},"vehicle_type_id":"4","last_reported":1684951698,"current_range_meters":13200,"station_id":"ce4bgv12rcd13ifvqcp0","pricing_plan_id":"free"},{"bike_id":"cf2eefed-1157-471f-9354-d9b61a5de049","system_id":"levelo_inurba_marseille","lat":43.311722,"lon":5.387247,"is_reserved":false,"is_disabled":false,"rental_uris":{"android":"levelo://app?vid=cf2eefed-1157-471f-9354-d9b61a5de049","ios":"levelo://app?vid=cf2eefed-1157-471f-9354-d9b61a5de049"},"vehicle_type_id":"4","last_reported":1684951698,"current_range_meters":20000,"station_id":"ce4bgv12rcd13ifvqcp0","pricing_plan_id":"free"},{"bike_id":"9258c933-10e9-4ced-991e-8d72a6427494","system_id":"levelo_inurba_marseille","lat":43.311722,"lon":5.387247,"is_reserved":false,"is_disabled":false,"rental_uris":{"android":"levelo://app?vid=9258c933-10e9-4ced-991e-8d72a6427494","ios":"levelo://app?vid=9258c933-10e9-4ced-991e-8d72a6427494"},"vehicle_type_id":"4","last_reported":1684951698,"current_range_meters":400,"station_id":"ce4bgv12rcd13ifvqcp0","pricing_plan_id":"free"},{"bike_id":"64b7892d-f134-4138-b4af-5698b6369e9b","system_id":"levelo_inurba_marseille","lat":43.311722,"lon":5.387247,"is_reserved":false,"is_disabled":false,"rental_uris":{"android":"levelo://app?vid=64b7892d-f134-4138-b4af-5698b6369e9b","ios":"levelo://app?vid=64b7892d-f134-4138-b4af-5698b6369e9b"},"vehicle_type_id":"4","last_reported":1684951698,"current_range_meters":0,"station_id":"ce4bgv12rcd13ifvqcp0","pricing_plan_id":"free"},{"bike_id":"1a431934-3ce8-4daf-bca9-7c972d5ed9d2","system_id":"levelo_inurba_marseille","lat":43.297794,"lon":5.370888,"is_reserved":false,"is_disabled":false,"rental_uris":{"android":"levelo://app?vid=1a431934-3ce8-4daf-bca9-7c972d5ed9d2","ios":"levelo://app?vid=1a431934-3ce8-4daf-bca9-7c972d5ed9d2"},"vehicle_type_id":"4","last_reported":1684951698,"current_range_meters":24400,"station_id":"ce4bgop2rcd13ifvqc1g","pricing_plan_id":"free"},{"bike_id":"fad50468-bff6-4eb0-bc39-08e7203bec60","system_id":"levelo_inurba_marseille","lat":43.328371,"lon":5.366912,"is_reserved":false,"is_disabled":false,"rental_uris":{"android":"levelo://app?vid=fad50468-bff6-4eb0-bc39-08e7203bec60","ios":"levelo://app?vid=fad50468-bff6-4eb0-bc39-08e7203bec60"},"vehicle_type_id":"4","last_reported":1684951698,"current_range_meters":20800,"station_id":"ce4bhs92rcd13ifvqi0g","pricing_plan_id":"free"},{"bike_id":"e5415a7d-d573-4d2c-b68e-9e5973358ec5","system_id":"levelo_inurba_marseille","lat":43.328284,"lon":5.367011,"is_reserved":false,"is_disabled":false,"rental_uris":{"android":"levelo://app?vid=e5415a7d-d573-4d2c-b68e-9e5973358ec5","ios":"levelo://app?vid=e5415a7d-d573-4d2c-b68e-9e5973358ec5"},"vehicle_type_id":"4","last_reported":1684951698,"current_range_meters":15200,"station_id":"ce4bhs92rcd13ifvqi0g","pricing_plan_id":"free"},{"bike_id":"a72cd3ab-e87f-4964-a87c-25d1d90e9843","system_id":"levelo_inurba_marseille","lat":43.328371,"lon":5.366912,"is_reserved":false,"is_disabled":false,"rental_uris":{"android":"levelo://app?vid=a72cd3ab-e87f-4964-a87c-25d1d90e9843","ios":"levelo://app?vid=a72cd3ab-e87f-4964-a87c-25d1d90e9843"},"vehicle_type_id":"4","last_reported":1684951698,"current_range_meters":22000,"station_id":"ce4bhs92rcd13ifvqi0g","pricing_plan_id":"free"},{"bike_id":"e7ef1aca-2dd3-482c-945f-ebaedbd97a95","system_id":"levelo_inurba_marseille","lat":43.328371,"lon":5.366909,"is_reserved":false,"is_disabled":false,"rental_uris":{"android":"levelo://app?vid=e7ef1aca-2dd3-482c-945f-ebaedbd97a95","ios":"levelo://app?vid=e7ef1aca-2dd3-482c-945f-ebaedbd97a95"},"vehicle_type_id":"4","last_reported":1684951698,"current_range_meters":4400,"station_id":"ce4bhs92rcd13ifvqi0g","pricing_plan_id":"free"},{"bike_id":"83f3f744-359d-493d-a816-556264b34e9c","system_id":"levelo_inurba_marseille","lat":43.328371,"lon":5.366912,"is_reserved":false,"is_disabled":false,"rental_uris":{"android":"levelo://app?vid=83f3f744-359d-493d-a816-556264b34e9c","ios":"levelo://app?vid=83f3f744-359d-493d-a816-556264b34e9c"},"vehicle_type_id":"4","last_reported":1684951698,"current_range_meters":10400,"station_id":"ce4bhs92rcd13ifvqi0g","pricing_plan_id":"free"},{"bike_id":"07d0f5f8-594a-4c99-bd5f-efd86e16327f","system_id":"levelo_inurba_marseille","lat":43.328371,"lon":5.366912,"is_reserved":false,"is_disabled":false,"rental_uris":{"android":"levelo://app?vid=07d0f5f8-594a-4c99-bd5f-efd86e16327f","ios":"levelo://app?vid=07d0f5f8-594a-4c99-bd5f-efd86e16327f"},"vehicle_type_id":"4","last_reported":1684951698,"current_range_meters":15200,"station_id":"ce4bhs92rcd13ifvqi0g","pricing_plan_id":"free"},{"bike_id":"8ed1d8e4-f7e2-4037-9f56-bf16c3e27cb9","system_id":"levelo_inurba_marseille","lat":43.29711,"lon":5.36606,"is_reserved":false,"is_disabled":false,"rental_uris":{"android":"levelo://app?vid=8ed1d8e4-f7e2-4037-9f56-bf16c3e27cb9","ios":"levelo://app?vid=8ed1d8e4-f7e2-4037-9f56-bf16c3e27cb9"},"vehicle_type_id":"4","last_reported":1684951698,"current_range_meters":16000,"station_id":"","pricing_plan_id":"free"},{"bike_id":"7187ccfd-8c7a-4cc5-91e7-248a68a678e4","system_id":"levelo_inurba_marseille","lat":43.31672,"lon":5.38953,"is_reserved":false,"is_disabled":false,"rental_uris":{"android":"levelo://app?vid=7187ccfd-8c7a-4cc5-91e7-248a68a678e4","ios":"levelo://app?vid=7187ccfd-8c7a-4cc5-91e7-248a68a678e4"},"vehicle_type_id":"4","last_reported":1684951698,"current_range_meters":4800,"station_id":"","pricing_plan_id":"free"},{"bike_id":"3ed33090-eba0-45f8-aee3-3b6214c01ba8","system_id":"levelo_inurba_marseille","lat":43.299397,"lon":5.381264,"is_reserved":false,"is_disabled":false,"rental_uris":{"android":"levelo://app?vid=3ed33090-eba0-45f8-aee3-3b6214c01ba8","ios":"levelo://app?vid=3ed33090-eba0-45f8-aee3-3b6214c01ba8"},"vehicle_type_id":"4","last_reported":1684951698,"current_range_meters":18800,"station_id":"","pricing_plan_id":"free"},{"bike_id":"0773192f-fafd-43ec-b0c9-034377838507","system_id":"levelo_inurba_marseille","lat":43.309589,"lon":5.390258,"is_reserved":false,"is_disabled":false,"rental_uris":{"android":"levelo://app?vid=0773192f-fafd-43ec-b0c9-034377838507","ios":"levelo://app?vid=0773192f-fafd-43ec-b0c9-034377838507"},"vehicle_type_id":"4","last_reported":1684951698,"current_range_meters":4400,"station_id":"ce4bgup2rcd13ifvqco0","pricing_plan_id":"free"},{"bike_id":"3b2c30df-a917-4960-9716-c253be64964e","system_id":"levelo_inurba_marseille","lat":43.309589,"lon":5.390258,"is_reserved":false,"is_disabled":false,"rental_uris":{"android":"levelo://app?vid=3b2c30df-a917-4960-9716-c253be64964e","ios":"levelo://app?vid=3b2c30df-a917-4960-9716-c253be64964e"},"vehicle_type_id":"4","last_reported":1684951698,"current_range_meters":18800,"station_id":"ce4bgup2rcd13ifvqco0","pricing_plan_id":"free"},{"bike_id":"0813033c-16c1-40ff-bdec-4a78e8809523","system_id":"levelo_inurba_marseille","lat":43.317557,"lon":5.390173,"is_reserved":false,"is_disabled":false,"rental_uris":{"android":"levelo://app?vid=0813033c-16c1-40ff-bdec-4a78e8809523","ios":"levelo://app?vid=0813033c-16c1-40ff-bdec-4a78e8809523"},"vehicle_type_id":"4","last_reported":1684951698,"current_range_meters":20000,"station_id":"ce4bhqp2rcd13ifvqhng","pricing_plan_id":"free"},{"bike_id":"815ee936-7867-4773-9c2a-7a25ddb5b8e3","system_id":"levelo_inurba_marseille","lat":43.298037,"lon":5.381066,"is_reserved":false,"is_disabled":false,"rental_uris":{"android":"levelo://app?vid=815ee936-7867-4773-9c2a-7a25ddb5b8e3","ios":"levelo://app?vid=815ee936-7867-4773-9c2a-7a25ddb5b8e3"},"vehicle_type_id":"4","last_reported":1684951698,"current_range_meters":0,"station_id":"ce4bgip2rcd13ifvqbb0","pricing_plan_id":"free"},{"bike_id":"ec5f159a-6136-4266-bf97-098a9d8ab05a","system_id":"levelo_inurba_marseille","lat":43.296263,"lon":5.377094,"is_reserved":false,"is_disabled":false,"rental_uris":{"android":"levelo://app?vid=ec5f159a-6136-4266-bf97-098a9d8ab05a","ios":"levelo://app?vid=ec5f159a-6136-4266-bf97-098a9d8ab05a"},"vehicle_type_id":"4","last_reported":1684951698,"current_range_meters":0,"station_id":"ce4bgi92rcd13ifvqb90","pricing_plan_id":"free"},{"bike_id":"049fb0f4-74ba-4bfb-ac99-bf259d8c4989","system_id":"levelo_inurba_marseille","lat":43.295748,"lon":5.37522,"is_reserved":false,"is_disabled":false,"rental_uris":{"android":"levelo://app?vid=049fb0f4-74ba-4bfb-ac99-bf259d8c4989","ios":"levelo://app?vid=049fb0f4-74ba-4bfb-ac99-bf259d8c4989"},"vehicle_type_id":"4","last_reported":1684951698,"current_range_meters":3200,"station_id":"ce4bgh92rcd13ifvqb50","pricing_plan_id":"free"},{"bike_id":"6ac253e4-c1e8-499b-b038-e7edea601069","system_id":"levelo_inurba_marseille","lat":43.29612,"lon":5.37723,"is_reserved":false,"is_disabled":false,"rental_uris":{"android":"levelo://app?vid=6ac253e4-c1e8-499b-b038-e7edea601069","ios":"levelo://app?vid=6ac253e4-c1e8-499b-b038-e7edea601069"},"vehicle_type_id":"4","last_reported":1684951698,"current_range_meters":0,"station_id":"ce4bgi92rcd13ifvqb90","pricing_plan_id":"free"},{"bike_id":"e20332a0-2bc3-41b5-8340-0b4e1e43cf6a","system_id":"levelo_inurba_marseille","lat":43.299707,"lon":5.384859,"is_reserved":false,"is_disabled":false,"rental_uris":{"android":"levelo://app?vid=e20332a0-2bc3-41b5-8340-0b4e1e43cf6a","ios":"levelo://app?vid=e20332a0-2bc3-41b5-8340-0b4e1e43cf6a"},"vehicle_type_id":"4","last_reported":1684951698,"current_range_meters":0,"station_id":"ce4bgj92rcd13ifvqbd0","pricing_plan_id":"free"},{"bike_id":"2ed22eab-9615-4789-a0b1-b5ceda052320","system_id":"levelo_inurba_marseille","lat":43.299717,"lon":5.384845,"is_reserved":false,"is_disabled":false,"rental_uris":{"android":"levelo://app?vid=2ed22eab-9615-4789-a0b1-b5ceda052320","ios":"levelo://app?vid=2ed22eab-9615-4789-a0b1-b5ceda052320"},"vehicle_type_id":"4","last_reported":1684951698,"current_range_meters":22800,"station_id":"ce4bgj92rcd13ifvqbd0","pricing_plan_id":"free"},{"bike_id":"38a593e8-6017-47c6-9f8e-4773a9ef427a","system_id":"levelo_inurba_marseille","lat":43.2996,"lon":5.38499,"is_reserved":false,"is_disabled":false,"rental_uris":{"android":"levelo://app?vid=38a593e8-6017-47c6-9f8e-4773a9ef427a","ios":"levelo://app?vid=38a593e8-6017-47c6-9f8e-4773a9ef427a"},"vehicle_type_id":"4","last_reported":1684951698,"current_range_meters":0,"station_id":"ce4bgj92rcd13ifvqbd0","pricing_plan_id":"free"},{"bike_id":"e99929bf-6914-4b51-9bb7-8710187d8024","system_id":"levelo_inurba_marseille","lat":43.29602,"lon":5.381084,"is_reserved":false,"is_disabled":false,"rental_uris":{"android":"levelo://app?vid=e99929bf-6914-4b51-9bb7-8710187d8024","ios":"levelo://app?vid=e99929bf-6914-4b51-9bb7-8710187d8024"},"vehicle_type_id":"4","last_reported":1684951698,"current_range_meters":5200,"station_id":"ce4bgl12rcd13ifvqbo0","pricing_plan_id":"free"},{"bike_id":"2174b1bc-8479-431b-84da-86d67397ee1e","system_id":"levelo_inurba_marseille","lat":43.29602,"lon":5.381084,"is_reserved":false,"is_disabled":false,"rental_uris":{"android":"levelo://app?vid=2174b1bc-8479-431b-84da-86d67397ee1e","ios":"levelo://app?vid=2174b1bc-8479-431b-84da-86d67397ee1e"},"vehicle_type_id":"4","last_reported":1684951698,"current_range_meters":10800,"station_id":"ce4bgl12rcd13ifvqbo0","pricing_plan_id":"free"},{"bike_id":"4f8776b9-1f40-4caa-b82f-6a996d333a90","system_id":"levelo_inurba_marseille","lat":43.29272,"lon":5.36843,"is_reserved":false,"is_disabled":false,"rental_uris":{"android":"levelo://app?vid=4f8776b9-1f40-4caa-b82f-6a996d333a90","ios":"levelo://app?vid=4f8776b9-1f40-4caa-b82f-6a996d333a90"},"vehicle_type_id":"4","last_reported":1684951698,"current_range_meters":31200,"station_id":"ce4bhbp2rcd13ifvqesg","pricing_plan_id":"free"},{"bike_id":"d164d0ff-3425-481b-bfe0-9f85bcbd1203","system_id":"levelo_inurba_marseille","lat":43.30597,"lon":5.39359,"is_reserved":false,"is_disabled":false,"rental_uris":{"android":"levelo://app?vid=d164d0ff-3425-481b-bfe0-9f85bcbd1203","ios":"levelo://app?vid=d164d0ff-3425-481b-bfe0-9f85bcbd1203"},"vehicle_type_id":"4","last_reported":1684951698,"current_range_meters":16400,"station_id":"ce4bh0p2rcd13ifvqd80","pricing_plan_id":"free"},{"bike_id":"ed898c40-10d7-4309-a84e-db8ae3b04562","system_id":"levelo_inurba_marseille","lat":43.293009,"lon":5.374584,"is_reserved":false,"is_disabled":false,"rental_uris":{"android":"levelo://app?vid=ed898c40-10d7-4309-a84e-db8ae3b04562","ios":"levelo://app?vid=ed898c40-10d7-4309-a84e-db8ae3b04562"},"vehicle_type_id":"4","last_reported":1684951698,"current_range_meters":27600,"station_id":"ce4bgi12rcd13ifvqb70","pricing_plan_id":"free"},{"bike_id":"a9c19bc6-e297-4f1f-a727-8e042ab13574","system_id":"levelo_inurba_marseille","lat":43.302992,"lon":5.392136,"is_reserved":false,"is_disabled":false,"rental_uris":{"android":"levelo://app?vid=a9c19bc6-e297-4f1f-a727-8e042ab13574","ios":"levelo://app?vid=a9c19bc6-e297-4f1f-a727-8e042ab13574"},"vehicle_type_id":"4","last_reported":1684951698,"current_range_meters":4400,"station_id":"ce4bgkh2rcd13ifvqbk0","pricing_plan_id":"free"},{"bike_id":"2594b368-d24e-4066-bdb5-64400291e777","system_id":"levelo_inurba_marseille","lat":43.29227,"lon":5.36067,"is_reserved":false,"is_disabled":false,"rental_uris":{"android":"levelo://app?vid=2594b368-d24e-4066-bdb5-64400291e777","ios":"levelo://app?vid=2594b368-d24e-4066-bdb5-64400291e777"},"vehicle_type_id":"4","last_reported":1684951698,"current_range_meters":0,"station_id":"ce4bhbh2rcd13ifvqeqg","pricing_plan_id":"free"},{"bike_id":"4795e5a5-c9f9-4fd3-b174-4cf6c028a271","system_id":"levelo_inurba_marseille","lat":43.291671,"lon":5.371575,"is_reserved":false,"is_disabled":false,"rental_uris":{"android":"levelo://app?vid=4795e5a5-c9f9-4fd3-b174-4cf6c028a271","ios":"levelo://app?vid=4795e5a5-c9f9-4fd3-b174-4cf6c028a271"},"vehicle_type_id":"4","last_reported":1684951698,"current_range_meters":18400,"station_id":"ce4bha92rcd13ifvqeh0","pricing_plan_id":"free"},{"bike_id":"0e112d8d-3b97-4555-94d8-525563668d1d","system_id":"levelo_inurba_marseille","lat":43.291671,"lon":5.371575,"is_reserved":false,"is_disabled":false,"rental_uris":{"android":"levelo://app?vid=0e112d8d-3b97-4555-94d8-525563668d1d","ios":"levelo://app?vid=0e112d8d-3b97-4555-94d8-525563668d1d"},"vehicle_type_id":"4","last_reported":1684951698,"current_range_meters":400,"station_id":"ce4bha92rcd13ifvqeh0","pricing_plan_id":"free"},{"bike_id":"b842a883-baab-4aaa-9c22-726d37235f77","system_id":"levelo_inurba_marseille","lat":43.32765,"lon":5.38813,"is_reserved":false,"is_disabled":false,"rental_uris":{"android":"levelo://app?vid=b842a883-baab-4aaa-9c22-726d37235f77","ios":"levelo://app?vid=b842a883-baab-4aaa-9c22-726d37235f77"},"vehicle_type_id":"4","last_reported":1684951698,"current_range_meters":9200,"station_id":"","pricing_plan_id":"free"},{"bike_id":"5302a0ee-03e3-4365-a767-1d95a710d8f2","system_id":"levelo_inurba_marseille","lat":43.291994,"lon":5.357886,"is_reserved":false,"is_disabled":false,"rental_uris":{"android":"levelo://app?vid=5302a0ee-03e3-4365-a767-1d95a710d8f2","ios":"levelo://app?vid=5302a0ee-03e3-4365-a767-1d95a710d8f2"},"vehicle_type_id":"4","last_reported":1684951698,"current_range_meters":4000,"station_id":"ce4bhb12rcd13ifvqel0","pricing_plan_id":"free"},{"bike_id":"40b68277-6f5f-4aac-8216-847d33e7dfd3","system_id":"levelo_inurba_marseille","lat":43.309038,"lon":5.396546,"is_reserved":false,"is_disabled":false,"rental_uris":{"android":"levelo://app?vid=40b68277-6f5f-4aac-8216-847d33e7dfd3","ios":"levelo://app?vid=40b68277-6f5f-4aac-8216-847d33e7dfd3"},"vehicle_type_id":"4","last_reported":1684951698,"current_range_meters":15200,"station_id":"ce4bh012rcd13ifvqcv0","pricing_plan_id":"free"},{"bike_id":"e658fe7a-7804-4c4b-a151-4113051d6eca","system_id":"levelo_inurba_marseille","lat":43.313291,"lon":5.396838,"is_reserved":false,"is_disabled":false,"rental_uris":{"android":"levelo://app?vid=e658fe7a-7804-4c4b-a151-4113051d6eca","ios":"levelo://app?vid=e658fe7a-7804-4c4b-a151-4113051d6eca"},"vehicle_type_id":"4","last_reported":1684951698,"current_range_meters":19200,"station_id":"ce4bgvp2rcd13ifvqcu0","pricing_plan_id":"free"},{"bike_id":"22ceb553-4636-4bf7-9e4f-7a93a3348769","system_id":"levelo_inurba_marseille","lat":43.313291,"lon":5.396838,"is_reserved":false,"is_disabled":false,"rental_uris":{"android":"levelo://app?vid=22ceb553-4636-4bf7-9e4f-7a93a3348769","ios":"levelo://app?vid=22ceb553-4636-4bf7-9e4f-7a93a3348769"},"vehicle_type_id":"4","last_reported":1684951698,"current_range_meters":18400,"station_id":"ce4bgvp2rcd13ifvqcu0","pricing_plan_id":"free"},{"bike_id":"09bc6842-f54e-4bb2-bae1-1a1e5351e19d","system_id":"levelo_inurba_marseille","lat":43.313291,"lon":5.396838,"is_reserved":false,"is_disabled":false,"rental_uris":{"android":"levelo://app?vid=09bc6842-f54e-4bb2-bae1-1a1e5351e19d","ios":"levelo://app?vid=09bc6842-f54e-4bb2-bae1-1a1e5351e19d"},"vehicle_type_id":"4","last_reported":1684951698,"current_range_meters":18800,"station_id":"ce4bgvp2rcd13ifvqcu0","pricing_plan_id":"free"},{"bike_id":"11f1ef6a-329e-4508-89a0-ab2f3fa417fc","system_id":"levelo_inurba_marseille","lat":43.313291,"lon":5.396838,"is_reserved":false,"is_disabled":false,"rental_uris":{"android":"levelo://app?vid=11f1ef6a-329e-4508-89a0-ab2f3fa417fc","ios":"levelo://app?vid=11f1ef6a-329e-4508-89a0-ab2f3fa417fc"},"vehicle_type_id":"4","last_reported":1684951698,"current_range_meters":20400,"station_id":"ce4bgvp2rcd13ifvqcu0","pricing_plan_id":"free"},{"bike_id":"ce2230b3-5873-4e72-a718-1670e15c2050","system_id":"levelo_inurba_marseille","lat":43.309038,"lon":5.396546,"is_reserved":false,"is_disabled":false,"rental_uris":{"android":"levelo://app?vid=ce2230b3-5873-4e72-a718-1670e15c2050","ios":"levelo://app?vid=ce2230b3-5873-4e72-a718-1670e15c2050"},"vehicle_type_id":"4","last_reported":1684951698,"current_range_meters":6400,"station_id":"ce4bh012rcd13ifvqcv0","pricing_plan_id":"free"},{"bike_id":"31ad45cc-cd55-4fa4-8819-4f1a25288b6a","system_id":"levelo_inurba_marseille","lat":43.313291,"lon":5.396838,"is_reserved":false,"is_disabled":false,"rental_uris":{"android":"levelo://app?vid=31ad45cc-cd55-4fa4-8819-4f1a25288b6a","ios":"levelo://app?vid=31ad45cc-cd55-4fa4-8819-4f1a25288b6a"},"vehicle_type_id":"4","last_reported":1684951698,"current_range_meters":9200,"station_id":"ce4bgvp2rcd13ifvqcu0","pricing_plan_id":"free"},{"bike_id":"b7dc8e89-3981-4ab7-afd2-3b69403ee522","system_id":"levelo_inurba_marseille","lat":43.313291,"lon":5.396838,"is_reserved":false,"is_disabled":false,"rental_uris":{"android":"levelo://app?vid=b7dc8e89-3981-4ab7-afd2-3b69403ee522","ios":"levelo://app?vid=b7dc8e89-3981-4ab7-afd2-3b69403ee522"},"vehicle_type_id":"4","last_reported":1684951698,"current_range_meters":17200,"station_id":"ce4bgvp2rcd13ifvqcu0","pricing_plan_id":"free"},{"bike_id":"5afb875f-309c-48b4-aac4-19a2f4e8983f","system_id":"levelo_inurba_marseille","lat":43.313291,"lon":5.396838,"is_reserved":false,"is_disabled":false,"rental_uris":{"android":"levelo://app?vid=5afb875f-309c-48b4-aac4-19a2f4e8983f","ios":"levelo://app?vid=5afb875f-309c-48b4-aac4-19a2f4e8983f"},"vehicle_type_id":"4","last_reported":1684951698,"current_range_meters":26400,"station_id":"ce4bgvp2rcd13ifvqcu0","pricing_plan_id":"free"},{"bike_id":"07955834-0802-4708-9847-138d2e792e2e","system_id":"levelo_inurba_marseille","lat":43.308956,"lon":5.396575,"is_reserved":false,"is_disabled":false,"rental_uris":{"android":"levelo://app?vid=07955834-0802-4708-9847-138d2e792e2e","ios":"levelo://app?vid=07955834-0802-4708-9847-138d2e792e2e"},"vehicle_type_id":"4","last_reported":1684951698,"current_range_meters":0,"station_id":"","pricing_plan_id":"free"},{"bike_id":"82dc5021-cf82-45ee-acf9-b4a076dca8d4","system_id":"levelo_inurba_marseille","lat":43.309038,"lon":5.396546,"is_reserved":false,"is_disabled":false,"rental_uris":{"android":"levelo://app?vid=82dc5021-cf82-45ee-acf9-b4a076dca8d4","ios":"levelo://app?vid=82dc5021-cf82-45ee-acf9-b4a076dca8d4"},"vehicle_type_id":"4","last_reported":1684951698,"current_range_meters":19200,"station_id":"ce4bh012rcd13ifvqcv0","pricing_plan_id":"free"},{"bike_id":"e74f8bcc-190f-4a36-b299-f359832a461a","system_id":"levelo_inurba_marseille","lat":43.29529,"lon":5.385581,"is_reserved":false,"is_disabled":false,"rental_uris":{"android":"levelo://app?vid=e74f8bcc-190f-4a36-b299-f359832a461a","ios":"levelo://app?vid=e74f8bcc-190f-4a36-b299-f359832a461a"},"vehicle_type_id":"4","last_reported":1684951698,"current_range_meters":2000,"station_id":"ce4bgih2rcd13ifvqba0","pricing_plan_id":"free"},{"bike_id":"cfb8effd-ddad-4daa-9484-c8de98709650","system_id":"levelo_inurba_marseille","lat":43.286591,"lon":5.363346,"is_reserved":false,"is_disabled":false,"rental_uris":{"android":"levelo://app?vid=cfb8effd-ddad-4daa-9484-c8de98709650","ios":"levelo://app?vid=cfb8effd-ddad-4daa-9484-c8de98709650"},"vehicle_type_id":"4","last_reported":1684951698,"current_range_meters":21600,"station_id":"ce4bhah2rcd13ifvqej0","pricing_plan_id":"free"},{"bike_id":"c7ed1e6e-1d8f-4697-a033-9244e9080c21","system_id":"levelo_inurba_marseille","lat":43.29529,"lon":5.385581,"is_reserved":false,"is_disabled":false,"rental_uris":{"android":"levelo://app?vid=c7ed1e6e-1d8f-4697-a033-9244e9080c21","ios":"levelo://app?vid=c7ed1e6e-1d8f-4697-a033-9244e9080c21"},"vehicle_type_id":"4","last_reported":1684951698,"current_range_meters":0,"station_id":"ce4bgih2rcd13ifvqba0","pricing_plan_id":"free"},{"bike_id":"db0fed8e-dbb7-4ecc-8392-df853a54908c","system_id":"levelo_inurba_marseille","lat":43.29529,"lon":5.385581,"is_reserved":false,"is_disabled":false,"rental_uris":{"android":"levelo://app?vid=db0fed8e-dbb7-4ecc-8392-df853a54908c","ios":"levelo://app?vid=db0fed8e-dbb7-4ecc-8392-df853a54908c"},"vehicle_type_id":"4","last_reported":1684951698,"current_range_meters":22000,"station_id":"ce4bgih2rcd13ifvqba0","pricing_plan_id":"free"},{"bike_id":"279184fe-6776-45ec-9c28-08a9a103d293","system_id":"levelo_inurba_marseille","lat":43.29187,"lon":5.35669,"is_reserved":false,"is_disabled":false,"rental_uris":{"android":"levelo://app?vid=279184fe-6776-45ec-9c28-08a9a103d293","ios":"levelo://app?vid=279184fe-6776-45ec-9c28-08a9a103d293"},"vehicle_type_id":"4","last_reported":1684951698,"current_range_meters":7600,"station_id":"","pricing_plan_id":"free"},{"bike_id":"f4ad802f-4664-43a4-bec9-129fb8504ea0","system_id":"levelo_inurba_marseille","lat":43.302008,"lon":5.394694,"is_reserved":false,"is_disabled":false,"rental_uris":{"android":"levelo://app?vid=f4ad802f-4664-43a4-bec9-129fb8504ea0","ios":"levelo://app?vid=f4ad802f-4664-43a4-bec9-129fb8504ea0"},"vehicle_type_id":"4","last_reported":1684951698,"current_range_meters":19200,"station_id":"ce4bh0p2rcd13ifvqd70","pricing_plan_id":"free"},{"bike_id":"ee12eef3-139b-4184-ad18-ec4dea5fd2de","system_id":"levelo_inurba_marseille","lat":43.29041,"lon":5.35931,"is_reserved":false,"is_disabled":false,"rental_uris":{"android":"levelo://app?vid=ee12eef3-139b-4184-ad18-ec4dea5fd2de","ios":"levelo://app?vid=ee12eef3-139b-4184-ad18-ec4dea5fd2de"},"vehicle_type_id":"4","last_reported":1684951698,"current_range_meters":23600,"station_id":"ce4bha92rcd13ifvqeg0","pricing_plan_id":"free"},{"bike_id":"de173293-24e5-4a84-9bb5-f48947edd2e4","system_id":"levelo_inurba_marseille","lat":43.294162,"lon":5.386292,"is_reserved":false,"is_disabled":false,"rental_uris":{"android":"levelo://app?vid=de173293-24e5-4a84-9bb5-f48947edd2e4","ios":"levelo://app?vid=de173293-24e5-4a84-9bb5-f48947edd2e4"},"vehicle_type_id":"4","last_reported":1684951698,"current_range_meters":1200,"station_id":"ce4bh2h2rcd13ifvqdh0","pricing_plan_id":"free"},{"bike_id":"6dc96112-2613-4dbf-9f0e-2cfe15a95390","system_id":"levelo_inurba_marseille","lat":43.294162,"lon":5.386292,"is_reserved":false,"is_disabled":false,"rental_uris":{"android":"levelo://app?vid=6dc96112-2613-4dbf-9f0e-2cfe15a95390","ios":"levelo://app?vid=6dc96112-2613-4dbf-9f0e-2cfe15a95390"},"vehicle_type_id":"4","last_reported":1684951698,"current_range_meters":8400,"station_id":"ce4bh2h2rcd13ifvqdh0","pricing_plan_id":"free"},{"bike_id":"c290c9a5-91e5-4a01-b28a-bae38d70be59","system_id":"levelo_inurba_marseille","lat":43.289184,"lon":5.366408,"is_reserved":false,"is_disabled":false,"rental_uris":{"android":"levelo://app?vid=c290c9a5-91e5-4a01-b28a-bae38d70be59","ios":"levelo://app?vid=c290c9a5-91e5-4a01-b28a-bae38d70be59"},"vehicle_type_id":"4","last_reported":1684951698,"current_range_meters":4000,"station_id":"ce4bhap2rcd13ifvqek0","pricing_plan_id":"free"},{"bike_id":"a219ce52-f5e7-449a-868d-5736170fc043","system_id":"levelo_inurba_marseille","lat":43.294162,"lon":5.386292,"is_reserved":false,"is_disabled":false,"rental_uris":{"android":"levelo://app?vid=a219ce52-f5e7-449a-868d-5736170fc043","ios":"levelo://app?vid=a219ce52-f5e7-449a-868d-5736170fc043"},"vehicle_type_id":"4","last_reported":1684951698,"current_range_meters":19200,"station_id":"ce4bh2h2rcd13ifvqdh0","pricing_plan_id":"free"},{"bike_id":"8bb34434-c667-49c2-8563-261cb31517b9","system_id":"levelo_inurba_marseille","lat":43.294162,"lon":5.386292,"is_reserved":false,"is_disabled":false,"rental_uris":{"android":"levelo://app?vid=8bb34434-c667-49c2-8563-261cb31517b9","ios":"levelo://app?vid=8bb34434-c667-49c2-8563-261cb31517b9"},"vehicle_type_id":"4","last_reported":1684951698,"current_range_meters":6400,"station_id":"ce4bh2h2rcd13ifvqdh0","pricing_plan_id":"free"},{"bike_id":"42131e8d-3241-4aed-8ed4-9164fce5a9f5","system_id":"levelo_inurba_marseille","lat":43.28931,"lon":5.36627,"is_reserved":false,"is_disabled":false,"rental_uris":{"android":"levelo://app?vid=42131e8d-3241-4aed-8ed4-9164fce5a9f5","ios":"levelo://app?vid=42131e8d-3241-4aed-8ed4-9164fce5a9f5"},"vehicle_type_id":"4","last_reported":1684951698,"current_range_meters":31200,"station_id":"ce4bhap2rcd13ifvqek0","pricing_plan_id":"free"},{"bike_id":"9a60c91e-a770-4b5a-a0f6-3ba2e25936bd","system_id":"levelo_inurba_marseille","lat":43.294162,"lon":5.386292,"is_reserved":false,"is_disabled":false,"rental_uris":{"android":"levelo://app?vid=9a60c91e-a770-4b5a-a0f6-3ba2e25936bd","ios":"levelo://app?vid=9a60c91e-a770-4b5a-a0f6-3ba2e25936bd"},"vehicle_type_id":"4","last_reported":1684951698,"current_range_meters":15200,"station_id":"ce4bh2h2rcd13ifvqdh0","pricing_plan_id":"free"},{"bike_id":"9c183772-185e-4ee8-a4e9-71e673732d66","system_id":"levelo_inurba_marseille","lat":43.304274,"lon":5.397513,"is_reserved":false,"is_disabled":false,"rental_uris":{"android":"levelo://app?vid=9c183772-185e-4ee8-a4e9-71e673732d66","ios":"levelo://app?vid=9c183772-185e-4ee8-a4e9-71e673732d66"},"vehicle_type_id":"4","last_reported":1684951698,"current_range_meters":13600,"station_id":"ce4bh092rcd13ifvqd20","pricing_plan_id":"free"},{"bike_id":"c43b9415-a2e8-4cc5-9a90-55f37e666461","system_id":"levelo_inurba_marseille","lat":43.29273,"lon":5.38452,"is_reserved":false,"is_disabled":false,"rental_uris":{"android":"levelo://app?vid=c43b9415-a2e8-4cc5-9a90-55f37e666461","ios":"levelo://app?vid=c43b9415-a2e8-4cc5-9a90-55f37e666461"},"vehicle_type_id":"4","last_reported":1684951698,"current_range_meters":14000,"station_id":"ce4bh692rcd13ifvqea0","pricing_plan_id":"free"},{"bike_id":"4b28fa59-3192-4979-92b1-83f471d4be0e","system_id":"levelo_inurba_marseille","lat":43.29259,"lon":5.38424,"is_reserved":false,"is_disabled":false,"rental_uris":{"android":"levelo://app?vid=4b28fa59-3192-4979-92b1-83f471d4be0e","ios":"levelo://app?vid=4b28fa59-3192-4979-92b1-83f471d4be0e"},"vehicle_type_id":"4","last_reported":1684951698,"current_range_meters":0,"station_id":"ce4bh692rcd13ifvqea0","pricing_plan_id":"free"},{"bike_id":"451b6941-9da6-41c9-9b46-e38c33205415","system_id":"levelo_inurba_marseille","lat":43.29273,"lon":5.38456,"is_reserved":false,"is_disabled":false,"rental_uris":{"android":"levelo://app?vid=451b6941-9da6-41c9-9b46-e38c33205415","ios":"levelo://app?vid=451b6941-9da6-41c9-9b46-e38c33205415"},"vehicle_type_id":"4","last_reported":1684951698,"current_range_meters":25600,"station_id":"ce4bh692rcd13ifvqea0","pricing_plan_id":"free"},{"bike_id":"44c09ba2-632a-4a0a-b1fb-2f09b6af310f","system_id":"levelo_inurba_marseille","lat":43.29269,"lon":5.38448,"is_reserved":false,"is_disabled":false,"rental_uris":{"android":"levelo://app?vid=44c09ba2-632a-4a0a-b1fb-2f09b6af310f","ios":"levelo://app?vid=44c09ba2-632a-4a0a-b1fb-2f09b6af310f"},"vehicle_type_id":"4","last_reported":1684951698,"current_range_meters":8800,"station_id":"ce4bh692rcd13ifvqea0","pricing_plan_id":"free"},{"bike_id":"7e836464-6157-45a4-9abc-745bddade80a","system_id":"levelo_inurba_marseille","lat":43.29264,"lon":5.3844,"is_reserved":false,"is_disabled":false,"rental_uris":{"android":"levelo://app?vid=7e836464-6157-45a4-9abc-745bddade80a","ios":"levelo://app?vid=7e836464-6157-45a4-9abc-745bddade80a"},"vehicle_type_id":"4","last_reported":1684951698,"current_range_meters":11600,"station_id":"ce4bh692rcd13ifvqea0","pricing_plan_id":"free"},{"bike_id":"06af5bd2-db49-48cd-b244-c83eb378d882","system_id":"levelo_inurba_marseille","lat":43.29259,"lon":5.38433,"is_reserved":false,"is_disabled":false,"rental_uris":{"android":"levelo://app?vid=06af5bd2-db49-48cd-b244-c83eb378d882","ios":"levelo://app?vid=06af5bd2-db49-48cd-b244-c83eb378d882"},"vehicle_type_id":"4","last_reported":1684951698,"current_range_meters":2000,"station_id":"ce4bh692rcd13ifvqea0","pricing_plan_id":"free"},{"bike_id":"0e1a1399-8a75-4e47-b38c-e4048ce7439d","system_id":"levelo_inurba_marseille","lat":43.292642,"lon":5.384254,"is_reserved":false,"is_disabled":false,"rental_uris":{"android":"levelo://app?vid=0e1a1399-8a75-4e47-b38c-e4048ce7439d","ios":"levelo://app?vid=0e1a1399-8a75-4e47-b38c-e4048ce7439d"},"vehicle_type_id":"4","last_reported":1684951698,"current_range_meters":22800,"station_id":"ce4bh692rcd13ifvqea0","pricing_plan_id":"free"},{"bike_id":"90721398-4b8a-4e9e-a977-3f32368e12c0","system_id":"levelo_inurba_marseille","lat":43.29268,"lon":5.38454,"is_reserved":false,"is_disabled":false,"rental_uris":{"android":"levelo://app?vid=90721398-4b8a-4e9e-a977-3f32368e12c0","ios":"levelo://app?vid=90721398-4b8a-4e9e-a977-3f32368e12c0"},"vehicle_type_id":"4","last_reported":1684951698,"current_range_meters":13200,"station_id":"ce4bh692rcd13ifvqea0","pricing_plan_id":"free"},{"bike_id":"a3b13eca-8ffe-4e65-b8f2-7244fabdf24a","system_id":"levelo_inurba_marseille","lat":43.292642,"lon":5.384254,"is_reserved":false,"is_disabled":false,"rental_uris":{"android":"levelo://app?vid=a3b13eca-8ffe-4e65-b8f2-7244fabdf24a","ios":"levelo://app?vid=a3b13eca-8ffe-4e65-b8f2-7244fabdf24a"},"vehicle_type_id":"4","last_reported":1684951698,"current_range_meters":16000,"station_id":"ce4bh692rcd13ifvqea0","pricing_plan_id":"free"},{"bike_id":"a230764f-70d3-47c3-8649-fbe523488621","system_id":"levelo_inurba_marseille","lat":43.292642,"lon":5.384254,"is_reserved":false,"is_disabled":false,"rental_uris":{"android":"levelo://app?vid=a230764f-70d3-47c3-8649-fbe523488621","ios":"levelo://app?vid=a230764f-70d3-47c3-8649-fbe523488621"},"vehicle_type_id":"4","last_reported":1684951698,"current_range_meters":12800,"station_id":"ce4bh692rcd13ifvqea0","pricing_plan_id":"free"},{"bike_id":"d6159e40-50bf-4629-a8a7-6cfdda24171b","system_id":"levelo_inurba_marseille","lat":43.29262,"lon":5.38448,"is_reserved":false,"is_disabled":false,"rental_uris":{"android":"levelo://app?vid=d6159e40-50bf-4629-a8a7-6cfdda24171b","ios":"levelo://app?vid=d6159e40-50bf-4629-a8a7-6cfdda24171b"},"vehicle_type_id":"4","last_reported":1684951698,"current_range_meters":0,"station_id":"","pricing_plan_id":"free"},{"bike_id":"93cb2c8e-9b2f-49df-b800-8ae0470f0700","system_id":"levelo_inurba_marseille","lat":43.29262,"lon":5.38449,"is_reserved":false,"is_disabled":false,"rental_uris":{"android":"levelo://app?vid=93cb2c8e-9b2f-49df-b800-8ae0470f0700","ios":"levelo://app?vid=93cb2c8e-9b2f-49df-b800-8ae0470f0700"},"vehicle_type_id":"4","last_reported":1684951698,"current_range_meters":17600,"station_id":"ce4bh692rcd13ifvqea0","pricing_plan_id":"free"},{"bike_id":"501e66d7-9a0c-4712-8a3e-279c2550fab3","system_id":"levelo_inurba_marseille","lat":43.33041,"lon":5.38921,"is_reserved":false,"is_disabled":false,"rental_uris":{"android":"levelo://app?vid=501e66d7-9a0c-4712-8a3e-279c2550fab3","ios":"levelo://app?vid=501e66d7-9a0c-4712-8a3e-279c2550fab3"},"vehicle_type_id":"4","last_reported":1684951698,"current_range_meters":30800,"station_id":"ce4bhr92rcd13ifvqhrg","pricing_plan_id":"free"},{"bike_id":"2ee208d5-10f4-4d17-a5cc-474e4c5b2676","system_id":"levelo_inurba_marseille","lat":43.33042,"lon":5.38923,"is_reserved":false,"is_disabled":false,"rental_uris":{"android":"levelo://app?vid=2ee208d5-10f4-4d17-a5cc-474e4c5b2676","ios":"levelo://app?vid=2ee208d5-10f4-4d17-a5cc-474e4c5b2676"},"vehicle_type_id":"4","last_reported":1684951698,"current_range_meters":9200,"station_id":"ce4bhr92rcd13ifvqhrg","pricing_plan_id":"free"},{"bike_id":"1fff02fc-fb40-4dd6-b920-eab9bf86e941","system_id":"levelo_inurba_marseille","lat":43.290104,"lon":5.356111,"is_reserved":false,"is_disabled":false,"rental_uris":{"android":"levelo://app?vid=1fff02fc-fb40-4dd6-b920-eab9bf86e941","ios":"levelo://app?vid=1fff02fc-fb40-4dd6-b920-eab9bf86e941"},"vehicle_type_id":"4","last_reported":1684951698,"current_range_meters":0,"station_id":"ce4bhb92rcd13ifvqen0","pricing_plan_id":"free"},{"bike_id":"2fc2c6b3-1be8-4eda-8376-caa8cb2396aa","system_id":"levelo_inurba_marseille","lat":43.3305,"lon":5.38915,"is_reserved":false,"is_disabled":false,"rental_uris":{"android":"levelo://app?vid=2fc2c6b3-1be8-4eda-8376-caa8cb2396aa","ios":"levelo://app?vid=2fc2c6b3-1be8-4eda-8376-caa8cb2396aa"},"vehicle_type_id":"4","last_reported":1684951698,"current_range_meters":17200,"station_id":"ce4bhr92rcd13ifvqhrg","pricing_plan_id":"free"},{"bike_id":"79d410b5-e714-41eb-ad81-80d28990c152","system_id":"levelo_inurba_marseille","lat":43.33046,"lon":5.38922,"is_reserved":false,"is_disabled":false,"rental_uris":{"android":"levelo://app?vid=79d410b5-e714-41eb-ad81-80d28990c152","ios":"levelo://app?vid=79d410b5-e714-41eb-ad81-80d28990c152"},"vehicle_type_id":"4","last_reported":1684951698,"current_range_meters":30800,"station_id":"ce4bhr92rcd13ifvqhrg","pricing_plan_id":"free"},{"bike_id":"8abafbd3-a2fc-49de-9a4c-ce3300138995","system_id":"levelo_inurba_marseille","lat":43.291077,"lon":5.381372,"is_reserved":false,"is_disabled":false,"rental_uris":{"android":"levelo://app?vid=8abafbd3-a2fc-49de-9a4c-ce3300138995","ios":"levelo://app?vid=8abafbd3-a2fc-49de-9a4c-ce3300138995"},"vehicle_type_id":"4","last_reported":1684951698,"current_range_meters":7600,"station_id":"ce4bh512rcd13ifvqe2g","pricing_plan_id":"free"},{"bike_id":"8121f729-dc44-49b5-bca2-9b820987b469","system_id":"levelo_inurba_marseille","lat":43.290932,"lon":5.381277,"is_reserved":false,"is_disabled":false,"rental_uris":{"android":"levelo://app?vid=8121f729-dc44-49b5-bca2-9b820987b469","ios":"levelo://app?vid=8121f729-dc44-49b5-bca2-9b820987b469"},"vehicle_type_id":"4","last_reported":1684951698,"current_range_meters":1200,"station_id":"","pricing_plan_id":"free"},{"bike_id":"e1207c2f-0a8d-4b79-beba-6f35ddd28dc9","system_id":"levelo_inurba_marseille","lat":43.297814,"lon":5.393513,"is_reserved":false,"is_disabled":false,"rental_uris":{"android":"levelo://app?vid=e1207c2f-0a8d-4b79-beba-6f35ddd28dc9","ios":"levelo://app?vid=e1207c2f-0a8d-4b79-beba-6f35ddd28dc9"},"vehicle_type_id":"4","last_reported":1684951698,"current_range_meters":20000,"station_id":"chh1huq6cuj3fo74tm60","pricing_plan_id":"free"},{"bike_id":"a2f199e1-08b4-49a4-84f0-3754736dd638","system_id":"levelo_inurba_marseille","lat":43.295169,"lon":5.390426,"is_reserved":false,"is_disabled":false,"rental_uris":{"android":"levelo://app?vid=a2f199e1-08b4-49a4-84f0-3754736dd638","ios":"levelo://app?vid=a2f199e1-08b4-49a4-84f0-3754736dd638"},"vehicle_type_id":"4","last_reported":1684951698,"current_range_meters":8400,"station_id":"ce4bh3p2rcd13ifvqdp0","pricing_plan_id":"free"},{"bike_id":"13453e92-60a7-4e36-8fff-87f1adf65a99","system_id":"levelo_inurba_marseille","lat":43.295169,"lon":5.390426,"is_reserved":false,"is_disabled":false,"rental_uris":{"android":"levelo://app?vid=13453e92-60a7-4e36-8fff-87f1adf65a99","ios":"levelo://app?vid=13453e92-60a7-4e36-8fff-87f1adf65a99"},"vehicle_type_id":"4","last_reported":1684951698,"current_range_meters":17600,"station_id":"ce4bh3p2rcd13ifvqdp0","pricing_plan_id":"free"},{"bike_id":"c9ed6dbd-fc9b-40dd-b4b1-e21ba7a6cd18","system_id":"levelo_inurba_marseille","lat":43.28856,"lon":5.358371,"is_reserved":false,"is_disabled":false,"rental_uris":{"android":"levelo://app?vid=c9ed6dbd-fc9b-40dd-b4b1-e21ba7a6cd18","ios":"levelo://app?vid=c9ed6dbd-fc9b-40dd-b4b1-e21ba7a6cd18"},"vehicle_type_id":"4","last_reported":1684951698,"current_range_meters":14800,"station_id":"ce4bhb12rcd13ifvqem0","pricing_plan_id":"free"},{"bike_id":"964b74a7-9e90-41e5-896e-b2cee31e4050","system_id":"levelo_inurba_marseille","lat":43.288492,"lon":5.358514,"is_reserved":false,"is_disabled":false,"rental_uris":{"android":"levelo://app?vid=964b74a7-9e90-41e5-896e-b2cee31e4050","ios":"levelo://app?vid=964b74a7-9e90-41e5-896e-b2cee31e4050"},"vehicle_type_id":"4","last_reported":1684951698,"current_range_meters":0,"station_id":"ce4bhb12rcd13ifvqem0","pricing_plan_id":"free"},{"bike_id":"b5fd9918-f4b8-4618-bcb3-ec74ff85bc47","system_id":"levelo_inurba_marseille","lat":43.3375,"lon":5.37436,"is_reserved":false,"is_disabled":false,"rental_uris":{"android":"levelo://app?vid=b5fd9918-f4b8-4618-bcb3-ec74ff85bc47","ios":"levelo://app?vid=b5fd9918-f4b8-4618-bcb3-ec74ff85bc47"},"vehicle_type_id":"4","last_reported":1684951698,"current_range_meters":25600,"station_id":"","pricing_plan_id":"free"},{"bike_id":"40b58590-091a-4add-9f25-2c62b7c16693","system_id":"levelo_inurba_marseille","lat":43.33753,"lon":5.37442,"is_reserved":false,"is_disabled":false,"rental_uris":{"android":"levelo://app?vid=40b58590-091a-4add-9f25-2c62b7c16693","ios":"levelo://app?vid=40b58590-091a-4add-9f25-2c62b7c16693"},"vehicle_type_id":"4","last_reported":1684951698,"current_range_meters":30000,"station_id":"","pricing_plan_id":"free"},{"bike_id":"5adc80f8-7482-42b7-88af-80ec8da87666","system_id":"levelo_inurba_marseille","lat":43.286593,"lon":5.363346,"is_reserved":false,"is_disabled":false,"rental_uris":{"android":"levelo://app?vid=5adc80f8-7482-42b7-88af-80ec8da87666","ios":"levelo://app?vid=5adc80f8-7482-42b7-88af-80ec8da87666"},"vehicle_type_id":"4","last_reported":1684951698,"current_range_meters":4000,"station_id":"ce4bhah2rcd13ifvqej0","pricing_plan_id":"free"},{"bike_id":"deccdead-3a19-4eb1-a04e-30061fe6dc26","system_id":"levelo_inurba_marseille","lat":43.33758,"lon":5.37466,"is_reserved":false,"is_disabled":false,"rental_uris":{"android":"levelo://app?vid=deccdead-3a19-4eb1-a04e-30061fe6dc26","ios":"levelo://app?vid=deccdead-3a19-4eb1-a04e-30061fe6dc26"},"vehicle_type_id":"4","last_reported":1684951698,"current_range_meters":24000,"station_id":"","pricing_plan_id":"free"},{"bike_id":"cfda3b4a-734d-4fab-a689-55cddc4d139b","system_id":"levelo_inurba_marseille","lat":43.287404,"lon":5.370933,"is_reserved":false,"is_disabled":false,"rental_uris":{"android":"levelo://app?vid=cfda3b4a-734d-4fab-a689-55cddc4d139b","ios":"levelo://app?vid=cfda3b4a-734d-4fab-a689-55cddc4d139b"},"vehicle_type_id":"4","last_reported":1684951698,"current_range_meters":22800,"station_id":"ce4bht12rcd13ifvqi60","pricing_plan_id":"free"},{"bike_id":"e61bf42f-789d-4f55-88d1-0ab44dabee02","system_id":"levelo_inurba_marseille","lat":43.30642,"lon":5.401031,"is_reserved":false,"is_disabled":false,"rental_uris":{"android":"levelo://app?vid=e61bf42f-789d-4f55-88d1-0ab44dabee02","ios":"levelo://app?vid=e61bf42f-789d-4f55-88d1-0ab44dabee02"},"vehicle_type_id":"4","last_reported":1684951698,"current_range_meters":15600,"station_id":"ce4bh112rcd13ifvqda0","pricing_plan_id":"free"},{"bike_id":"154cb1eb-e8ef-4344-91cf-935882db7b5f","system_id":"levelo_inurba_marseille","lat":43.33768,"lon":5.37502,"is_reserved":false,"is_disabled":false,"rental_uris":{"android":"levelo://app?vid=154cb1eb-e8ef-4344-91cf-935882db7b5f","ios":"levelo://app?vid=154cb1eb-e8ef-4344-91cf-935882db7b5f"},"vehicle_type_id":"4","last_reported":1684951698,"current_range_meters":30400,"station_id":"","pricing_plan_id":"free"},{"bike_id":"123621fb-6c15-4df2-915d-88cc0203612d","system_id":"levelo_inurba_marseille","lat":43.30427,"lon":5.40089,"is_reserved":false,"is_disabled":false,"rental_uris":{"android":"levelo://app?vid=123621fb-6c15-4df2-915d-88cc0203612d","ios":"levelo://app?vid=123621fb-6c15-4df2-915d-88cc0203612d"},"vehicle_type_id":"4","last_reported":1684951698,"current_range_meters":13200,"station_id":"","pricing_plan_id":"free"},{"bike_id":"b15cc6d8-5a7b-429b-be8f-e7e34d37ff85","system_id":"levelo_inurba_marseille","lat":43.286591,"lon":5.363346,"is_reserved":false,"is_disabled":false,"rental_uris":{"android":"levelo://app?vid=b15cc6d8-5a7b-429b-be8f-e7e34d37ff85","ios":"levelo://app?vid=b15cc6d8-5a7b-429b-be8f-e7e34d37ff85"},"vehicle_type_id":"4","last_reported":1684951698,"current_range_meters":12400,"station_id":"ce4bhah2rcd13ifvqej0","pricing_plan_id":"free"},{"bike_id":"86700cbc-69f3-4947-b80e-4fe910e3012d","system_id":"levelo_inurba_marseille","lat":43.286593,"lon":5.363346,"is_reserved":false,"is_disabled":false,"rental_uris":{"android":"levelo://app?vid=86700cbc-69f3-4947-b80e-4fe910e3012d","ios":"levelo://app?vid=86700cbc-69f3-4947-b80e-4fe910e3012d"},"vehicle_type_id":"4","last_reported":1684951698,"current_range_meters":24800,"station_id":"ce4bhah2rcd13ifvqej0","pricing_plan_id":"free"},{"bike_id":"e2454cc8-fdc7-4e27-8eac-b73b65611692","system_id":"levelo_inurba_marseille","lat":43.286591,"lon":5.363346,"is_reserved":false,"is_disabled":false,"rental_uris":{"android":"levelo://app?vid=e2454cc8-fdc7-4e27-8eac-b73b65611692","ios":"levelo://app?vid=e2454cc8-fdc7-4e27-8eac-b73b65611692"},"vehicle_type_id":"4","last_reported":1684951698,"current_range_meters":12000,"station_id":"ce4bhah2rcd13ifvqej0","pricing_plan_id":"free"},{"bike_id":"15e68253-a10e-490b-bb31-54f958fc372c","system_id":"levelo_inurba_marseille","lat":43.286591,"lon":5.363346,"is_reserved":false,"is_disabled":false,"rental_uris":{"android":"levelo://app?vid=15e68253-a10e-490b-bb31-54f958fc372c","ios":"levelo://app?vid=15e68253-a10e-490b-bb31-54f958fc372c"},"vehicle_type_id":"4","last_reported":1684951698,"current_range_meters":1200,"station_id":"ce4bhah2rcd13ifvqej0","pricing_plan_id":"free"},{"bike_id":"e10c6a7d-c934-4228-ae6b-e4ab08ad5306","system_id":"levelo_inurba_marseille","lat":43.286591,"lon":5.363346,"is_reserved":false,"is_disabled":false,"rental_uris":{"android":"levelo://app?vid=e10c6a7d-c934-4228-ae6b-e4ab08ad5306","ios":"levelo://app?vid=e10c6a7d-c934-4228-ae6b-e4ab08ad5306"},"vehicle_type_id":"4","last_reported":1684951698,"current_range_meters":17600,"station_id":"ce4bhah2rcd13ifvqej0","pricing_plan_id":"free"},{"bike_id":"41e53155-b725-4f9c-8172-453b6aaa26c1","system_id":"levelo_inurba_marseille","lat":43.295196,"lon":5.39397,"is_reserved":false,"is_disabled":false,"rental_uris":{"android":"levelo://app?vid=41e53155-b725-4f9c-8172-453b6aaa26c1","ios":"levelo://app?vid=41e53155-b725-4f9c-8172-453b6aaa26c1"},"vehicle_type_id":"4","last_reported":1684951698,"current_range_meters":400,"station_id":"ce4bh292rcd13ifvqdf0","pricing_plan_id":"free"},{"bike_id":"a47ed974-1d77-45a5-b33c-fcff7dda445c","system_id":"levelo_inurba_marseille","lat":43.286591,"lon":5.363346,"is_reserved":false,"is_disabled":false,"rental_uris":{"android":"levelo://app?vid=a47ed974-1d77-45a5-b33c-fcff7dda445c","ios":"levelo://app?vid=a47ed974-1d77-45a5-b33c-fcff7dda445c"},"vehicle_type_id":"4","last_reported":1684951698,"current_range_meters":0,"station_id":"ce4bhah2rcd13ifvqej0","pricing_plan_id":"free"},{"bike_id":"1a37d8e3-99d4-4636-84fe-86d2e2298917","system_id":"levelo_inurba_marseille","lat":43.286593,"lon":5.363346,"is_reserved":false,"is_disabled":false,"rental_uris":{"android":"levelo://app?vid=1a37d8e3-99d4-4636-84fe-86d2e2298917","ios":"levelo://app?vid=1a37d8e3-99d4-4636-84fe-86d2e2298917"},"vehicle_type_id":"4","last_reported":1684951698,"current_range_meters":5200,"station_id":"ce4bhah2rcd13ifvqej0","pricing_plan_id":"free"},{"bike_id":"b4d13f0e-4e9c-4f39-88c2-28c25f383b39","system_id":"levelo_inurba_marseille","lat":43.29513,"lon":5.39407,"is_reserved":false,"is_disabled":false,"rental_uris":{"android":"levelo://app?vid=b4d13f0e-4e9c-4f39-88c2-28c25f383b39","ios":"levelo://app?vid=b4d13f0e-4e9c-4f39-88c2-28c25f383b39"},"vehicle_type_id":"4","last_reported":1684951698,"current_range_meters":22800,"station_id":"ce4bh292rcd13ifvqdf0","pricing_plan_id":"free"},{"bike_id":"5733da62-e872-45a3-b8bc-ba4dd03d5f5d","system_id":"levelo_inurba_marseille","lat":43.29028,"lon":5.38636,"is_reserved":false,"is_disabled":false,"rental_uris":{"android":"levelo://app?vid=5733da62-e872-45a3-b8bc-ba4dd03d5f5d","ios":"levelo://app?vid=5733da62-e872-45a3-b8bc-ba4dd03d5f5d"},"vehicle_type_id":"4","last_reported":1684951698,"current_range_meters":17600,"station_id":"ce4bh4p2rcd13ifvqe0g","pricing_plan_id":"free"},{"bike_id":"88c08676-bbc6-4855-8a6f-eaaa5a533ca7","system_id":"levelo_inurba_marseille","lat":43.290345,"lon":5.38646,"is_reserved":false,"is_disabled":false,"rental_uris":{"android":"levelo://app?vid=88c08676-bbc6-4855-8a6f-eaaa5a533ca7","ios":"levelo://app?vid=88c08676-bbc6-4855-8a6f-eaaa5a533ca7"},"vehicle_type_id":"4","last_reported":1684951698,"current_range_meters":6000,"station_id":"ce4bh4p2rcd13ifvqe0g","pricing_plan_id":"free"},{"bike_id":"e5954e20-432b-422b-a69b-3a003c08acea","system_id":"levelo_inurba_marseille","lat":43.290336,"lon":5.386425,"is_reserved":false,"is_disabled":false,"rental_uris":{"android":"levelo://app?vid=e5954e20-432b-422b-a69b-3a003c08acea","ios":"levelo://app?vid=e5954e20-432b-422b-a69b-3a003c08acea"},"vehicle_type_id":"4","last_reported":1684951698,"current_range_meters":6400,"station_id":"ce4bh4p2rcd13ifvqe0g","pricing_plan_id":"free"},{"bike_id":"0c76cf62-5db5-4bb1-82cc-53223bc60e20","system_id":"levelo_inurba_marseille","lat":43.290345,"lon":5.38646,"is_reserved":false,"is_disabled":false,"rental_uris":{"android":"levelo://app?vid=0c76cf62-5db5-4bb1-82cc-53223bc60e20","ios":"levelo://app?vid=0c76cf62-5db5-4bb1-82cc-53223bc60e20"},"vehicle_type_id":"4","last_reported":1684951698,"current_range_meters":20400,"station_id":"ce4bh4p2rcd13ifvqe0g","pricing_plan_id":"free"},{"bike_id":"288ec928-6d8a-4986-9263-d4778182f414","system_id":"levelo_inurba_marseille","lat":43.302759,"lon":5.400793,"is_reserved":false,"is_disabled":false,"rental_uris":{"android":"levelo://app?vid=288ec928-6d8a-4986-9263-d4778182f414","ios":"levelo://app?vid=288ec928-6d8a-4986-9263-d4778182f414"},"vehicle_type_id":"4","last_reported":1684951698,"current_range_meters":24800,"station_id":"ce4bgvh2rcd13ifvqcs0","pricing_plan_id":"free"},{"bike_id":"dd2953c1-dcf8-4934-aeca-c51ed3a84b19","system_id":"levelo_inurba_marseille","lat":43.302759,"lon":5.400793,"is_reserved":false,"is_disabled":false,"rental_uris":{"android":"levelo://app?vid=dd2953c1-dcf8-4934-aeca-c51ed3a84b19","ios":"levelo://app?vid=dd2953c1-dcf8-4934-aeca-c51ed3a84b19"},"vehicle_type_id":"4","last_reported":1684951698,"current_range_meters":0,"station_id":"ce4bgvh2rcd13ifvqcs0","pricing_plan_id":"free"},{"bike_id":"c0c926e5-eee6-4479-ab5a-e0cb4d277eed","system_id":"levelo_inurba_marseille","lat":43.28614,"lon":5.37056,"is_reserved":false,"is_disabled":false,"rental_uris":{"android":"levelo://app?vid=c0c926e5-eee6-4479-ab5a-e0cb4d277eed","ios":"levelo://app?vid=c0c926e5-eee6-4479-ab5a-e0cb4d277eed"},"vehicle_type_id":"4","last_reported":1684951698,"current_range_meters":24000,"station_id":"ce4bht12rcd13ifvqi60","pricing_plan_id":"free"},{"bike_id":"4f8f7742-7d69-4bd5-903e-86ffa63429d6","system_id":"levelo_inurba_marseille","lat":43.28614,"lon":5.37059,"is_reserved":false,"is_disabled":false,"rental_uris":{"android":"levelo://app?vid=4f8f7742-7d69-4bd5-903e-86ffa63429d6","ios":"levelo://app?vid=4f8f7742-7d69-4bd5-903e-86ffa63429d6"},"vehicle_type_id":"4","last_reported":1684951698,"current_range_meters":17200,"station_id":"ce4bht12rcd13ifvqi60","pricing_plan_id":"free"},{"bike_id":"4a5684f3-c9a9-4a65-9577-35edcb99cfc1","system_id":"levelo_inurba_marseille","lat":43.28613,"lon":5.37061,"is_reserved":false,"is_disabled":false,"rental_uris":{"android":"levelo://app?vid=4a5684f3-c9a9-4a65-9577-35edcb99cfc1","ios":"levelo://app?vid=4a5684f3-c9a9-4a65-9577-35edcb99cfc1"},"vehicle_type_id":"4","last_reported":1684951698,"current_range_meters":10800,"station_id":"ce4bht12rcd13ifvqi60","pricing_plan_id":"free"},{"bike_id":"bd393303-0c11-4102-b792-86f9bcada7c2","system_id":"levelo_inurba_marseille","lat":43.286039,"lon":5.370681,"is_reserved":false,"is_disabled":false,"rental_uris":{"android":"levelo://app?vid=bd393303-0c11-4102-b792-86f9bcada7c2","ios":"levelo://app?vid=bd393303-0c11-4102-b792-86f9bcada7c2"},"vehicle_type_id":"4","last_reported":1684951698,"current_range_meters":19200,"station_id":"ce4bht12rcd13ifvqi60","pricing_plan_id":"free"},{"bike_id":"bd5dc608-405e-435a-bd5f-1ca275cc9269","system_id":"levelo_inurba_marseille","lat":43.286039,"lon":5.370679,"is_reserved":false,"is_disabled":false,"rental_uris":{"android":"levelo://app?vid=bd5dc608-405e-435a-bd5f-1ca275cc9269","ios":"levelo://app?vid=bd5dc608-405e-435a-bd5f-1ca275cc9269"},"vehicle_type_id":"4","last_reported":1684951698,"current_range_meters":21600,"station_id":"ce4bht12rcd13ifvqi60","pricing_plan_id":"free"},{"bike_id":"1471c07b-ec4e-4920-bf4a-43334c2c9937","system_id":"levelo_inurba_marseille","lat":43.28611,"lon":5.37061,"is_reserved":false,"is_disabled":false,"rental_uris":{"android":"levelo://app?vid=1471c07b-ec4e-4920-bf4a-43334c2c9937","ios":"levelo://app?vid=1471c07b-ec4e-4920-bf4a-43334c2c9937"},"vehicle_type_id":"4","last_reported":1684951698,"current_range_meters":0,"station_id":"ce4bht12rcd13ifvqi60","pricing_plan_id":"free"},{"bike_id":"fdbf2b19-1602-4b07-925e-2622e35101aa","system_id":"levelo_inurba_marseille","lat":43.28611,"lon":5.37063,"is_reserved":false,"is_disabled":false,"rental_uris":{"android":"levelo://app?vid=fdbf2b19-1602-4b07-925e-2622e35101aa","ios":"levelo://app?vid=fdbf2b19-1602-4b07-925e-2622e35101aa"},"vehicle_type_id":"4","last_reported":1684951698,"current_range_meters":14000,"station_id":"ce4bht12rcd13ifvqi60","pricing_plan_id":"free"},{"bike_id":"c5e9ae1d-da4e-4198-ac09-0a273305b77d","system_id":"levelo_inurba_marseille","lat":43.287185,"lon":5.379373,"is_reserved":false,"is_disabled":false,"rental_uris":{"android":"levelo://app?vid=c5e9ae1d-da4e-4198-ac09-0a273305b77d","ios":"levelo://app?vid=c5e9ae1d-da4e-4198-ac09-0a273305b77d"},"vehicle_type_id":"4","last_reported":1684951698,"current_range_meters":8400,"station_id":"ce4bh9p2rcd13ifvqec0","pricing_plan_id":"free"},{"bike_id":"de2ab97c-8616-4a63-8d03-4af821459f8f","system_id":"levelo_inurba_marseille","lat":43.285856,"lon":5.350771,"is_reserved":false,"is_disabled":false,"rental_uris":{"android":"levelo://app?vid=de2ab97c-8616-4a63-8d03-4af821459f8f","ios":"levelo://app?vid=de2ab97c-8616-4a63-8d03-4af821459f8f"},"vehicle_type_id":"4","last_reported":1684951698,"current_range_meters":22400,"station_id":"ce4bhch2rcd13ifvqeug","pricing_plan_id":"free"},{"bike_id":"d500490b-4027-42c5-9dc3-be5dea81d5de","system_id":"levelo_inurba_marseille","lat":43.284534,"lon":5.358662,"is_reserved":false,"is_disabled":false,"rental_uris":{"android":"levelo://app?vid=d500490b-4027-42c5-9dc3-be5dea81d5de","ios":"levelo://app?vid=d500490b-4027-42c5-9dc3-be5dea81d5de"},"vehicle_type_id":"4","last_reported":1684951698,"current_range_meters":4400,"station_id":"ce4bhah2rcd13ifvqei0","pricing_plan_id":"free"},{"bike_id":"1c75ff16-6539-4b49-b407-044be78db8ab","system_id":"levelo_inurba_marseille","lat":43.28464,"lon":5.3589,"is_reserved":false,"is_disabled":false,"rental_uris":{"android":"levelo://app?vid=1c75ff16-6539-4b49-b407-044be78db8ab","ios":"levelo://app?vid=1c75ff16-6539-4b49-b407-044be78db8ab"},"vehicle_type_id":"4","last_reported":1684951698,"current_range_meters":1200,"station_id":"ce4bhah2rcd13ifvqei0","pricing_plan_id":"free"},{"bike_id":"a5fdcb60-401d-4308-a6b9-aeff2f4bddcc","system_id":"levelo_inurba_marseille","lat":43.284534,"lon":5.358662,"is_reserved":false,"is_disabled":false,"rental_uris":{"android":"levelo://app?vid=a5fdcb60-401d-4308-a6b9-aeff2f4bddcc","ios":"levelo://app?vid=a5fdcb60-401d-4308-a6b9-aeff2f4bddcc"},"vehicle_type_id":"4","last_reported":1684951698,"current_range_meters":31200,"station_id":"ce4bhah2rcd13ifvqei0","pricing_plan_id":"free"},{"bike_id":"fb2761fb-e67d-4545-8237-ad26b3bafddf","system_id":"levelo_inurba_marseille","lat":43.284534,"lon":5.358662,"is_reserved":false,"is_disabled":false,"rental_uris":{"android":"levelo://app?vid=fb2761fb-e67d-4545-8237-ad26b3bafddf","ios":"levelo://app?vid=fb2761fb-e67d-4545-8237-ad26b3bafddf"},"vehicle_type_id":"4","last_reported":1684951698,"current_range_meters":30000,"station_id":"ce4bhah2rcd13ifvqei0","pricing_plan_id":"free"},{"bike_id":"61a1f783-03b6-4c96-a256-d44463b639e5","system_id":"levelo_inurba_marseille","lat":43.284534,"lon":5.358662,"is_reserved":false,"is_disabled":false,"rental_uris":{"android":"levelo://app?vid=61a1f783-03b6-4c96-a256-d44463b639e5","ios":"levelo://app?vid=61a1f783-03b6-4c96-a256-d44463b639e5"},"vehicle_type_id":"4","last_reported":1684951698,"current_range_meters":30800,"station_id":"ce4bhah2rcd13ifvqei0","pricing_plan_id":"free"},{"bike_id":"e824315a-6e7a-4bf6-a292-5a4f78749a17","system_id":"levelo_inurba_marseille","lat":43.284534,"lon":5.358662,"is_reserved":false,"is_disabled":false,"rental_uris":{"android":"levelo://app?vid=e824315a-6e7a-4bf6-a292-5a4f78749a17","ios":"levelo://app?vid=e824315a-6e7a-4bf6-a292-5a4f78749a17"},"vehicle_type_id":"4","last_reported":1684951698,"current_range_meters":5200,"station_id":"ce4bhah2rcd13ifvqei0","pricing_plan_id":"free"},{"bike_id":"8e41d456-b90a-4a44-bc74-12e63f565845","system_id":"levelo_inurba_marseille","lat":43.28461,"lon":5.35889,"is_reserved":false,"is_disabled":false,"rental_uris":{"android":"levelo://app?vid=8e41d456-b90a-4a44-bc74-12e63f565845","ios":"levelo://app?vid=8e41d456-b90a-4a44-bc74-12e63f565845"},"vehicle_type_id":"4","last_reported":1684951698,"current_range_meters":0,"station_id":"ce4bhah2rcd13ifvqei0","pricing_plan_id":"free"},{"bike_id":"c02d7b81-00b6-4bde-9e71-5acfc36d5e48","system_id":"levelo_inurba_marseille","lat":43.2846,"lon":5.35894,"is_reserved":false,"is_disabled":false,"rental_uris":{"android":"levelo://app?vid=c02d7b81-00b6-4bde-9e71-5acfc36d5e48","ios":"levelo://app?vid=c02d7b81-00b6-4bde-9e71-5acfc36d5e48"},"vehicle_type_id":"4","last_reported":1684951698,"current_range_meters":31200,"station_id":"ce4bhah2rcd13ifvqei0","pricing_plan_id":"free"},{"bike_id":"7b36ece2-37e0-4c65-967e-5323cc6f44b0","system_id":"levelo_inurba_marseille","lat":43.2846,"lon":5.35891,"is_reserved":false,"is_disabled":false,"rental_uris":{"android":"levelo://app?vid=7b36ece2-37e0-4c65-967e-5323cc6f44b0","ios":"levelo://app?vid=7b36ece2-37e0-4c65-967e-5323cc6f44b0"},"vehicle_type_id":"4","last_reported":1684951698,"current_range_meters":19200,"station_id":"ce4bhah2rcd13ifvqei0","pricing_plan_id":"free"},{"bike_id":"29a3f711-522e-4ead-91b6-5a7af811c2b0","system_id":"levelo_inurba_marseille","lat":43.28458,"lon":5.35895,"is_reserved":false,"is_disabled":false,"rental_uris":{"android":"levelo://app?vid=29a3f711-522e-4ead-91b6-5a7af811c2b0","ios":"levelo://app?vid=29a3f711-522e-4ead-91b6-5a7af811c2b0"},"vehicle_type_id":"4","last_reported":1684951698,"current_range_meters":8400,"station_id":"ce4bhah2rcd13ifvqei0","pricing_plan_id":"free"},{"bike_id":"5be0682c-3f50-4b30-9737-84dd32593fbb","system_id":"levelo_inurba_marseille","lat":43.284534,"lon":5.358662,"is_reserved":false,"is_disabled":false,"rental_uris":{"android":"levelo://app?vid=5be0682c-3f50-4b30-9737-84dd32593fbb","ios":"levelo://app?vid=5be0682c-3f50-4b30-9737-84dd32593fbb"},"vehicle_type_id":"4","last_reported":1684951698,"current_range_meters":31200,"station_id":"ce4bhah2rcd13ifvqei0","pricing_plan_id":"free"},{"bike_id":"d7a00bbe-f093-4357-9f49-beb4019c95f1","system_id":"levelo_inurba_marseille","lat":43.284534,"lon":5.358662,"is_reserved":false,"is_disabled":false,"rental_uris":{"android":"levelo://app?vid=d7a00bbe-f093-4357-9f49-beb4019c95f1","ios":"levelo://app?vid=d7a00bbe-f093-4357-9f49-beb4019c95f1"},"vehicle_type_id":"4","last_reported":1684951698,"current_range_meters":0,"station_id":"ce4bhah2rcd13ifvqei0","pricing_plan_id":"free"},{"bike_id":"297aa68e-82f1-443c-8514-0b577d056843","system_id":"levelo_inurba_marseille","lat":43.284534,"lon":5.358662,"is_reserved":false,"is_disabled":false,"rental_uris":{"android":"levelo://app?vid=297aa68e-82f1-443c-8514-0b577d056843","ios":"levelo://app?vid=297aa68e-82f1-443c-8514-0b577d056843"},"vehicle_type_id":"4","last_reported":1684951698,"current_range_meters":14400,"station_id":"ce4bhah2rcd13ifvqei0","pricing_plan_id":"free"},{"bike_id":"a914ace4-30dd-44ab-b5ab-941a963cdc04","system_id":"levelo_inurba_marseille","lat":43.284534,"lon":5.358662,"is_reserved":false,"is_disabled":false,"rental_uris":{"android":"levelo://app?vid=a914ace4-30dd-44ab-b5ab-941a963cdc04","ios":"levelo://app?vid=a914ace4-30dd-44ab-b5ab-941a963cdc04"},"vehicle_type_id":"4","last_reported":1684951698,"current_range_meters":5600,"station_id":"ce4bhah2rcd13ifvqei0","pricing_plan_id":"free"},{"bike_id":"cb3da57d-e687-4adf-b552-824e50b4ba17","system_id":"levelo_inurba_marseille","lat":43.28617,"lon":5.35106,"is_reserved":false,"is_disabled":false,"rental_uris":{"android":"levelo://app?vid=cb3da57d-e687-4adf-b552-824e50b4ba17","ios":"levelo://app?vid=cb3da57d-e687-4adf-b552-824e50b4ba17"},"vehicle_type_id":"4","last_reported":1684951698,"current_range_meters":1200,"station_id":"","pricing_plan_id":"free"},{"bike_id":"e9925126-8b2c-4d0e-9f4c-9a954e0f08ef","system_id":"levelo_inurba_marseille","lat":43.295713,"lon":5.399639,"is_reserved":false,"is_disabled":false,"rental_uris":{"android":"levelo://app?vid=e9925126-8b2c-4d0e-9f4c-9a954e0f08ef","ios":"levelo://app?vid=e9925126-8b2c-4d0e-9f4c-9a954e0f08ef"},"vehicle_type_id":"4","last_reported":1684951698,"current_range_meters":4000,"station_id":"ce4bh312rcd13ifvqdj0","pricing_plan_id":"free"},{"bike_id":"d5e8d01b-8807-47a3-ba97-cd9bf74f4e74","system_id":"levelo_inurba_marseille","lat":43.295713,"lon":5.399639,"is_reserved":false,"is_disabled":false,"rental_uris":{"android":"levelo://app?vid=d5e8d01b-8807-47a3-ba97-cd9bf74f4e74","ios":"levelo://app?vid=d5e8d01b-8807-47a3-ba97-cd9bf74f4e74"},"vehicle_type_id":"4","last_reported":1684951698,"current_range_meters":15600,"station_id":"ce4bh312rcd13ifvqdj0","pricing_plan_id":"free"},{"bike_id":"6f1665c6-2572-4012-befa-c837bd3cb5c8","system_id":"levelo_inurba_marseille","lat":43.295713,"lon":5.399639,"is_reserved":false,"is_disabled":false,"rental_uris":{"android":"levelo://app?vid=6f1665c6-2572-4012-befa-c837bd3cb5c8","ios":"levelo://app?vid=6f1665c6-2572-4012-befa-c837bd3cb5c8"},"vehicle_type_id":"4","last_reported":1684951698,"current_range_meters":4800,"station_id":"ce4bh312rcd13ifvqdj0","pricing_plan_id":"free"},{"bike_id":"89c7555b-f8e5-476f-9eec-29d6e3dd193d","system_id":"levelo_inurba_marseille","lat":43.286595,"lon":5.386795,"is_reserved":false,"is_disabled":false,"rental_uris":{"android":"levelo://app?vid=89c7555b-f8e5-476f-9eec-29d6e3dd193d","ios":"levelo://app?vid=89c7555b-f8e5-476f-9eec-29d6e3dd193d"},"vehicle_type_id":"4","last_reported":1684951698,"current_range_meters":6800,"station_id":"ce4bh492rcd13ifvqdug","pricing_plan_id":"free"},{"bike_id":"3025015c-3747-4972-9d96-1a3286ed7479","system_id":"levelo_inurba_marseille","lat":43.286595,"lon":5.386795,"is_reserved":false,"is_disabled":false,"rental_uris":{"android":"levelo://app?vid=3025015c-3747-4972-9d96-1a3286ed7479","ios":"levelo://app?vid=3025015c-3747-4972-9d96-1a3286ed7479"},"vehicle_type_id":"4","last_reported":1684951698,"current_range_meters":16000,"station_id":"ce4bh492rcd13ifvqdug","pricing_plan_id":"free"},{"bike_id":"d336455d-fdff-4ed7-9eb0-92ebaff9b651","system_id":"levelo_inurba_marseille","lat":43.284534,"lon":5.358662,"is_reserved":false,"is_disabled":false,"rental_uris":{"android":"levelo://app?vid=d336455d-fdff-4ed7-9eb0-92ebaff9b651","ios":"levelo://app?vid=d336455d-fdff-4ed7-9eb0-92ebaff9b651"},"vehicle_type_id":"4","last_reported":1684951698,"current_range_meters":6000,"station_id":"ce4bhah2rcd13ifvqei0","pricing_plan_id":"free"},{"bike_id":"d0248441-1b9c-410f-918e-bda3250b3bf5","system_id":"levelo_inurba_marseille","lat":43.323464,"lon":5.406297,"is_reserved":false,"is_disabled":false,"rental_uris":{"android":"levelo://app?vid=d0248441-1b9c-410f-918e-bda3250b3bf5","ios":"levelo://app?vid=d0248441-1b9c-410f-918e-bda3250b3bf5"},"vehicle_type_id":"4","last_reported":1684951698,"current_range_meters":5600,"station_id":"ce4bhq92rcd13ifvqhjg","pricing_plan_id":"free"},{"bike_id":"d02e0d84-bc8a-4f32-86e2-defb506d5224","system_id":"levelo_inurba_marseille","lat":43.323464,"lon":5.406297,"is_reserved":false,"is_disabled":false,"rental_uris":{"android":"levelo://app?vid=d02e0d84-bc8a-4f32-86e2-defb506d5224","ios":"levelo://app?vid=d02e0d84-bc8a-4f32-86e2-defb506d5224"},"vehicle_type_id":"4","last_reported":1684951698,"current_range_meters":14000,"station_id":"ce4bhq92rcd13ifvqhjg","pricing_plan_id":"free"},{"bike_id":"872b6616-60c7-4d22-a048-d6417d05514b","system_id":"levelo_inurba_marseille","lat":43.323464,"lon":5.406297,"is_reserved":false,"is_disabled":false,"rental_uris":{"android":"levelo://app?vid=872b6616-60c7-4d22-a048-d6417d05514b","ios":"levelo://app?vid=872b6616-60c7-4d22-a048-d6417d05514b"},"vehicle_type_id":"4","last_reported":1684951698,"current_range_meters":6000,"station_id":"ce4bhq92rcd13ifvqhjg","pricing_plan_id":"free"},{"bike_id":"a5a245ab-0280-4c9f-9098-16a0af417ea0","system_id":"levelo_inurba_marseille","lat":43.284787,"lon":5.384116,"is_reserved":false,"is_disabled":false,"rental_uris":{"android":"levelo://app?vid=a5a245ab-0280-4c9f-9098-16a0af417ea0","ios":"levelo://app?vid=a5a245ab-0280-4c9f-9098-16a0af417ea0"},"vehicle_type_id":"4","last_reported":1684951698,"current_range_meters":0,"station_id":"ce4bh512rcd13ifvqe3g","pricing_plan_id":"free"},{"bike_id":"7fc184c6-d04c-4808-bdb2-3f14e38f4994","system_id":"levelo_inurba_marseille","lat":43.288497,"lon":5.393089,"is_reserved":false,"is_disabled":false,"rental_uris":{"android":"levelo://app?vid=7fc184c6-d04c-4808-bdb2-3f14e38f4994","ios":"levelo://app?vid=7fc184c6-d04c-4808-bdb2-3f14e38f4994"},"vehicle_type_id":"4","last_reported":1684951698,"current_range_meters":25600,"station_id":"ce4bh2p2rcd13ifvqdi0","pricing_plan_id":"free"},{"bike_id":"eeeaa4a7-f4e4-4212-aa66-67ce60e323cf","system_id":"levelo_inurba_marseille","lat":43.288497,"lon":5.393089,"is_reserved":false,"is_disabled":false,"rental_uris":{"android":"levelo://app?vid=eeeaa4a7-f4e4-4212-aa66-67ce60e323cf","ios":"levelo://app?vid=eeeaa4a7-f4e4-4212-aa66-67ce60e323cf"},"vehicle_type_id":"4","last_reported":1684951698,"current_range_meters":12400,"station_id":"ce4bh2p2rcd13ifvqdi0","pricing_plan_id":"free"},{"bike_id":"5136f93f-35c7-40be-8fcc-406b83a2ef19","system_id":"levelo_inurba_marseille","lat":43.288501,"lon":5.393087,"is_reserved":false,"is_disabled":false,"rental_uris":{"android":"levelo://app?vid=5136f93f-35c7-40be-8fcc-406b83a2ef19","ios":"levelo://app?vid=5136f93f-35c7-40be-8fcc-406b83a2ef19"},"vehicle_type_id":"4","last_reported":1684951698,"current_range_meters":28800,"station_id":"ce4bh2p2rcd13ifvqdi0","pricing_plan_id":"free"},{"bike_id":"26ffde0c-f5f4-4a31-b307-21ffa6bdff64","system_id":"levelo_inurba_marseille","lat":43.288497,"lon":5.393089,"is_reserved":false,"is_disabled":false,"rental_uris":{"android":"levelo://app?vid=26ffde0c-f5f4-4a31-b307-21ffa6bdff64","ios":"levelo://app?vid=26ffde0c-f5f4-4a31-b307-21ffa6bdff64"},"vehicle_type_id":"4","last_reported":1684951698,"current_range_meters":8800,"station_id":"ce4bh2p2rcd13ifvqdi0","pricing_plan_id":"free"},{"bike_id":"edacfbfb-08a1-4873-b142-1e75568979bf","system_id":"levelo_inurba_marseille","lat":43.288497,"lon":5.393089,"is_reserved":false,"is_disabled":false,"rental_uris":{"android":"levelo://app?vid=edacfbfb-08a1-4873-b142-1e75568979bf","ios":"levelo://app?vid=edacfbfb-08a1-4873-b142-1e75568979bf"},"vehicle_type_id":"4","last_reported":1684951698,"current_range_meters":14000,"station_id":"ce4bh2p2rcd13ifvqdi0","pricing_plan_id":"free"},{"bike_id":"506e11a8-3ca9-4429-858e-a0bf89cc2ca8","system_id":"levelo_inurba_marseille","lat":43.2842,"lon":5.34987,"is_reserved":false,"is_disabled":false,"rental_uris":{"android":"levelo://app?vid=506e11a8-3ca9-4429-858e-a0bf89cc2ca8","ios":"levelo://app?vid=506e11a8-3ca9-4429-858e-a0bf89cc2ca8"},"vehicle_type_id":"4","last_reported":1684951698,"current_range_meters":15600,"station_id":"ce4bhbh2rcd13ifvqepg","pricing_plan_id":"free"},{"bike_id":"ced289ca-9ec3-4a3a-9d44-f86559512c55","system_id":"levelo_inurba_marseille","lat":43.28418,"lon":5.34988,"is_reserved":false,"is_disabled":false,"rental_uris":{"android":"levelo://app?vid=ced289ca-9ec3-4a3a-9d44-f86559512c55","ios":"levelo://app?vid=ced289ca-9ec3-4a3a-9d44-f86559512c55"},"vehicle_type_id":"4","last_reported":1684951698,"current_range_meters":0,"station_id":"ce4bhbh2rcd13ifvqepg","pricing_plan_id":"free"},{"bike_id":"d0f32415-1b76-4066-acd1-5837268edd9f","system_id":"levelo_inurba_marseille","lat":43.2928,"lon":5.40119,"is_reserved":false,"is_disabled":false,"rental_uris":{"android":"levelo://app?vid=d0f32415-1b76-4066-acd1-5837268edd9f","ios":"levelo://app?vid=d0f32415-1b76-4066-acd1-5837268edd9f"},"vehicle_type_id":"4","last_reported":1684951698,"current_range_meters":10400,"station_id":"ce4bh312rcd13ifvqdk0","pricing_plan_id":"free"},{"bike_id":"e8e7aa4a-dec7-46cc-b626-2f2953f37877","system_id":"levelo_inurba_marseille","lat":43.29272,"lon":5.40121,"is_reserved":false,"is_disabled":false,"rental_uris":{"android":"levelo://app?vid=e8e7aa4a-dec7-46cc-b626-2f2953f37877","ios":"levelo://app?vid=e8e7aa4a-dec7-46cc-b626-2f2953f37877"},"vehicle_type_id":"4","last_reported":1684951698,"current_range_meters":0,"station_id":"ce4bh312rcd13ifvqdk0","pricing_plan_id":"free"},{"bike_id":"7661f2ee-8b37-4e73-bf7e-50e89a9f7ca9","system_id":"levelo_inurba_marseille","lat":43.283502,"lon":5.386471,"is_reserved":false,"is_disabled":false,"rental_uris":{"android":"levelo://app?vid=7661f2ee-8b37-4e73-bf7e-50e89a9f7ca9","ios":"levelo://app?vid=7661f2ee-8b37-4e73-bf7e-50e89a9f7ca9"},"vehicle_type_id":"4","last_reported":1684951698,"current_range_meters":3600,"station_id":"ce4bh492rcd13ifvqdvg","pricing_plan_id":"free"},{"bike_id":"67d115dc-770b-4ceb-9fcd-9a86a0349c10","system_id":"levelo_inurba_marseille","lat":43.282754,"lon":5.350519,"is_reserved":false,"is_disabled":false,"rental_uris":{"android":"levelo://app?vid=67d115dc-770b-4ceb-9fcd-9a86a0349c10","ios":"levelo://app?vid=67d115dc-770b-4ceb-9fcd-9a86a0349c10"},"vehicle_type_id":"4","last_reported":1684951698,"current_range_meters":0,"station_id":"ce4bhbp2rcd13ifvqerg","pricing_plan_id":"free"},{"bike_id":"dc137688-2221-499f-b9cc-4458395d0c5d","system_id":"levelo_inurba_marseille","lat":43.282754,"lon":5.350519,"is_reserved":false,"is_disabled":false,"rental_uris":{"android":"levelo://app?vid=dc137688-2221-499f-b9cc-4458395d0c5d","ios":"levelo://app?vid=dc137688-2221-499f-b9cc-4458395d0c5d"},"vehicle_type_id":"4","last_reported":1684951698,"current_range_meters":4000,"station_id":"ce4bhbp2rcd13ifvqerg","pricing_plan_id":"free"},{"bike_id":"0ae981d3-3003-42aa-bdab-144515b99985","system_id":"levelo_inurba_marseille","lat":43.282754,"lon":5.350519,"is_reserved":false,"is_disabled":false,"rental_uris":{"android":"levelo://app?vid=0ae981d3-3003-42aa-bdab-144515b99985","ios":"levelo://app?vid=0ae981d3-3003-42aa-bdab-144515b99985"},"vehicle_type_id":"4","last_reported":1684951698,"current_range_meters":0,"station_id":"ce4bhbp2rcd13ifvqerg","pricing_plan_id":"free"},{"bike_id":"81cb93ce-bac3-4637-9f46-dda19221fd6d","system_id":"levelo_inurba_marseille","lat":43.282754,"lon":5.350519,"is_reserved":false,"is_disabled":false,"rental_uris":{"android":"levelo://app?vid=81cb93ce-bac3-4637-9f46-dda19221fd6d","ios":"levelo://app?vid=81cb93ce-bac3-4637-9f46-dda19221fd6d"},"vehicle_type_id":"4","last_reported":1684951698,"current_range_meters":14800,"station_id":"ce4bhbp2rcd13ifvqerg","pricing_plan_id":"free"},{"bike_id":"5591bd37-2dfb-4427-8525-7a40f070e545","system_id":"levelo_inurba_marseille","lat":43.280382,"lon":5.369291,"is_reserved":false,"is_disabled":false,"rental_uris":{"android":"levelo://app?vid=5591bd37-2dfb-4427-8525-7a40f070e545","ios":"levelo://app?vid=5591bd37-2dfb-4427-8525-7a40f070e545"},"vehicle_type_id":"4","last_reported":1684951698,"current_range_meters":11600,"station_id":"ce4bha12rcd13ifvqef0","pricing_plan_id":"free"},{"bike_id":"4d86ce40-e406-44d0-9e2e-59dcfae65e59","system_id":"levelo_inurba_marseille","lat":43.29041,"lon":5.39947,"is_reserved":false,"is_disabled":false,"rental_uris":{"android":"levelo://app?vid=4d86ce40-e406-44d0-9e2e-59dcfae65e59","ios":"levelo://app?vid=4d86ce40-e406-44d0-9e2e-59dcfae65e59"},"vehicle_type_id":"4","last_reported":1684951698,"current_range_meters":6800,"station_id":"ce4bh392rcd13ifvqdm0","pricing_plan_id":"free"},{"bike_id":"15a6c49e-18af-4dcf-96f7-5888d25c028d","system_id":"levelo_inurba_marseille","lat":43.28105,"lon":5.37831,"is_reserved":false,"is_disabled":false,"rental_uris":{"android":"levelo://app?vid=15a6c49e-18af-4dcf-96f7-5888d25c028d","ios":"levelo://app?vid=15a6c49e-18af-4dcf-96f7-5888d25c028d"},"vehicle_type_id":"4","last_reported":1684951698,"current_range_meters":8400,"station_id":"","pricing_plan_id":"free"},{"bike_id":"5545637c-c624-4606-86b7-8ccf489fe7de","system_id":"levelo_inurba_marseille","lat":43.281044,"lon":5.378308,"is_reserved":false,"is_disabled":false,"rental_uris":{"android":"levelo://app?vid=5545637c-c624-4606-86b7-8ccf489fe7de","ios":"levelo://app?vid=5545637c-c624-4606-86b7-8ccf489fe7de"},"vehicle_type_id":"4","last_reported":1684951698,"current_range_meters":6400,"station_id":"ce4bha12rcd13ifvqee0","pricing_plan_id":"free"},{"bike_id":"41d3e69b-4dbc-4401-9845-20c1b37f0c2e","system_id":"levelo_inurba_marseille","lat":43.281044,"lon":5.378308,"is_reserved":false,"is_disabled":false,"rental_uris":{"android":"levelo://app?vid=41d3e69b-4dbc-4401-9845-20c1b37f0c2e","ios":"levelo://app?vid=41d3e69b-4dbc-4401-9845-20c1b37f0c2e"},"vehicle_type_id":"4","last_reported":1684951698,"current_range_meters":0,"station_id":"ce4bha12rcd13ifvqee0","pricing_plan_id":"free"},{"bike_id":"18da1b54-aad4-49b7-a073-6e23e23c4e72","system_id":"levelo_inurba_marseille","lat":43.281044,"lon":5.378308,"is_reserved":false,"is_disabled":false,"rental_uris":{"android":"levelo://app?vid=18da1b54-aad4-49b7-a073-6e23e23c4e72","ios":"levelo://app?vid=18da1b54-aad4-49b7-a073-6e23e23c4e72"},"vehicle_type_id":"4","last_reported":1684951698,"current_range_meters":4800,"station_id":"ce4bha12rcd13ifvqee0","pricing_plan_id":"free"},{"bike_id":"6fb601b5-1557-49b4-b9cb-e660156aa938","system_id":"levelo_inurba_marseille","lat":43.281062,"lon":5.378615,"is_reserved":false,"is_disabled":false,"rental_uris":{"android":"levelo://app?vid=6fb601b5-1557-49b4-b9cb-e660156aa938","ios":"levelo://app?vid=6fb601b5-1557-49b4-b9cb-e660156aa938"},"vehicle_type_id":"4","last_reported":1684951698,"current_range_meters":19600,"station_id":"","pricing_plan_id":"free"},{"bike_id":"4ea53bce-e495-4d61-83f5-f9493778f854","system_id":"levelo_inurba_marseille","lat":43.281044,"lon":5.378308,"is_reserved":false,"is_disabled":false,"rental_uris":{"android":"levelo://app?vid=4ea53bce-e495-4d61-83f5-f9493778f854","ios":"levelo://app?vid=4ea53bce-e495-4d61-83f5-f9493778f854"},"vehicle_type_id":"4","last_reported":1684951698,"current_range_meters":25200,"station_id":"ce4bha12rcd13ifvqee0","pricing_plan_id":"free"},{"bike_id":"ba83312c-fff7-4281-bfb8-dcbd4b965779","system_id":"levelo_inurba_marseille","lat":43.281044,"lon":5.378308,"is_reserved":false,"is_disabled":false,"rental_uris":{"android":"levelo://app?vid=ba83312c-fff7-4281-bfb8-dcbd4b965779","ios":"levelo://app?vid=ba83312c-fff7-4281-bfb8-dcbd4b965779"},"vehicle_type_id":"4","last_reported":1684951698,"current_range_meters":15600,"station_id":"ce4bha12rcd13ifvqee0","pricing_plan_id":"free"},{"bike_id":"744cde3c-b943-4f4d-bbac-07d230526549","system_id":"levelo_inurba_marseille","lat":43.296263,"lon":5.40601,"is_reserved":false,"is_disabled":false,"rental_uris":{"android":"levelo://app?vid=744cde3c-b943-4f4d-bbac-07d230526549","ios":"levelo://app?vid=744cde3c-b943-4f4d-bbac-07d230526549"},"vehicle_type_id":"4","last_reported":1684951698,"current_range_meters":17600,"station_id":"ce4bh0h2rcd13ifvqd60","pricing_plan_id":"free"},{"bike_id":"64b77f4e-9e51-4d01-97cf-a21208724341","system_id":"levelo_inurba_marseille","lat":43.281044,"lon":5.378308,"is_reserved":false,"is_disabled":false,"rental_uris":{"android":"levelo://app?vid=64b77f4e-9e51-4d01-97cf-a21208724341","ios":"levelo://app?vid=64b77f4e-9e51-4d01-97cf-a21208724341"},"vehicle_type_id":"4","last_reported":1684951698,"current_range_meters":0,"station_id":"ce4bha12rcd13ifvqee0","pricing_plan_id":"free"},{"bike_id":"b0171aeb-16f1-49b0-b6b7-e2ca4c0415d4","system_id":"levelo_inurba_marseille","lat":43.29627,"lon":5.40601,"is_reserved":false,"is_disabled":false,"rental_uris":{"android":"levelo://app?vid=b0171aeb-16f1-49b0-b6b7-e2ca4c0415d4","ios":"levelo://app?vid=b0171aeb-16f1-49b0-b6b7-e2ca4c0415d4"},"vehicle_type_id":"4","last_reported":1684951698,"current_range_meters":4000,"station_id":"ce4bh0h2rcd13ifvqd60","pricing_plan_id":"free"},{"bike_id":"aee150d1-e42c-4b43-b2ed-d67c33a4a29b","system_id":"levelo_inurba_marseille","lat":43.281044,"lon":5.378308,"is_reserved":false,"is_disabled":false,"rental_uris":{"android":"levelo://app?vid=aee150d1-e42c-4b43-b2ed-d67c33a4a29b","ios":"levelo://app?vid=aee150d1-e42c-4b43-b2ed-d67c33a4a29b"},"vehicle_type_id":"4","last_reported":1684951698,"current_range_meters":9600,"station_id":"ce4bha12rcd13ifvqee0","pricing_plan_id":"free"},{"bike_id":"b48032db-9416-4c3d-a5be-9d289d3dac51","system_id":"levelo_inurba_marseille","lat":43.281044,"lon":5.378308,"is_reserved":false,"is_disabled":false,"rental_uris":{"android":"levelo://app?vid=b48032db-9416-4c3d-a5be-9d289d3dac51","ios":"levelo://app?vid=b48032db-9416-4c3d-a5be-9d289d3dac51"},"vehicle_type_id":"4","last_reported":1684951698,"current_range_meters":12800,"station_id":"ce4bha12rcd13ifvqee0","pricing_plan_id":"free"},{"bike_id":"e729c5ee-8890-4c34-89ef-7a728eeac08b","system_id":"levelo_inurba_marseille","lat":43.28573,"lon":5.394992,"is_reserved":false,"is_disabled":false,"rental_uris":{"android":"levelo://app?vid=e729c5ee-8890-4c34-89ef-7a728eeac08b","ios":"levelo://app?vid=e729c5ee-8890-4c34-89ef-7a728eeac08b"},"vehicle_type_id":"4","last_reported":1684951698,"current_range_meters":6800,"station_id":"ce4bh292rcd13ifvqdg0","pricing_plan_id":"free"},{"bike_id":"91c7e1e1-7579-48da-b8f2-0f3b4c0eed17","system_id":"levelo_inurba_marseille","lat":43.304188,"lon":5.412904,"is_reserved":false,"is_disabled":false,"rental_uris":{"android":"levelo://app?vid=91c7e1e1-7579-48da-b8f2-0f3b4c0eed17","ios":"levelo://app?vid=91c7e1e1-7579-48da-b8f2-0f3b4c0eed17"},"vehicle_type_id":"4","last_reported":1684951698,"current_range_meters":6000,"station_id":"ce4bhop2rcd13ifvqh8g","pricing_plan_id":"free"},{"bike_id":"8bc21084-772e-46d5-a124-ea2fcde12e60","system_id":"levelo_inurba_marseille","lat":43.304188,"lon":5.412904,"is_reserved":false,"is_disabled":false,"rental_uris":{"android":"levelo://app?vid=8bc21084-772e-46d5-a124-ea2fcde12e60","ios":"levelo://app?vid=8bc21084-772e-46d5-a124-ea2fcde12e60"},"vehicle_type_id":"4","last_reported":1684951698,"current_range_meters":24000,"station_id":"ce4bhop2rcd13ifvqh8g","pricing_plan_id":"free"},{"bike_id":"9d9bb60e-093b-4dc5-ae41-55dc521659a9","system_id":"levelo_inurba_marseille","lat":43.34721,"lon":5.36839,"is_reserved":false,"is_disabled":false,"rental_uris":{"android":"levelo://app?vid=9d9bb60e-093b-4dc5-ae41-55dc521659a9","ios":"levelo://app?vid=9d9bb60e-093b-4dc5-ae41-55dc521659a9"},"vehicle_type_id":"4","last_reported":1684951698,"current_range_meters":2800,"station_id":"","pricing_plan_id":"free"},{"bike_id":"c5a82e3e-3e0b-4876-bec5-2a0f536158d5","system_id":"levelo_inurba_marseille","lat":43.30419,"lon":5.41285,"is_reserved":false,"is_disabled":false,"rental_uris":{"android":"levelo://app?vid=c5a82e3e-3e0b-4876-bec5-2a0f536158d5","ios":"levelo://app?vid=c5a82e3e-3e0b-4876-bec5-2a0f536158d5"},"vehicle_type_id":"4","last_reported":1684951698,"current_range_meters":3200,"station_id":"ce4bhop2rcd13ifvqh8g","pricing_plan_id":"free"},{"bike_id":"c9273bd0-9ea2-47e5-8512-86933cea9648","system_id":"levelo_inurba_marseille","lat":43.287154,"lon":5.399979,"is_reserved":false,"is_disabled":false,"rental_uris":{"android":"levelo://app?vid=c9273bd0-9ea2-47e5-8512-86933cea9648","ios":"levelo://app?vid=c9273bd0-9ea2-47e5-8512-86933cea9648"},"vehicle_type_id":"4","last_reported":1684951698,"current_range_meters":24400,"station_id":"ce4bho92rcd13ifvqh3g","pricing_plan_id":"free"},{"bike_id":"f16ac0fe-126c-4e75-a391-d4a3447712ec","system_id":"levelo_inurba_marseille","lat":43.287154,"lon":5.399979,"is_reserved":false,"is_disabled":false,"rental_uris":{"android":"levelo://app?vid=f16ac0fe-126c-4e75-a391-d4a3447712ec","ios":"levelo://app?vid=f16ac0fe-126c-4e75-a391-d4a3447712ec"},"vehicle_type_id":"4","last_reported":1684951698,"current_range_meters":6800,"station_id":"ce4bho92rcd13ifvqh3g","pricing_plan_id":"free"},{"bike_id":"38e01a7d-dc9b-4925-a4f8-8de1a7d0c26c","system_id":"levelo_inurba_marseille","lat":43.286738,"lon":5.400019,"is_reserved":false,"is_disabled":false,"rental_uris":{"android":"levelo://app?vid=38e01a7d-dc9b-4925-a4f8-8de1a7d0c26c","ios":"levelo://app?vid=38e01a7d-dc9b-4925-a4f8-8de1a7d0c26c"},"vehicle_type_id":"4","last_reported":1684951698,"current_range_meters":6000,"station_id":"","pricing_plan_id":"free"},{"bike_id":"f5eec55b-db9e-40c8-a6c7-626975e7380e","system_id":"levelo_inurba_marseille","lat":43.299577,"lon":5.413277,"is_reserved":false,"is_disabled":false,"rental_uris":{"android":"levelo://app?vid=f5eec55b-db9e-40c8-a6c7-626975e7380e","ios":"levelo://app?vid=f5eec55b-db9e-40c8-a6c7-626975e7380e"},"vehicle_type_id":"4","last_reported":1684951698,"current_range_meters":800,"station_id":"ce4bhp12rcd13ifvqh9g","pricing_plan_id":"free"},{"bike_id":"0f620204-10b2-4edb-a882-9f7eefa50f23","system_id":"levelo_inurba_marseille","lat":43.292569,"lon":5.409107,"is_reserved":false,"is_disabled":false,"rental_uris":{"android":"levelo://app?vid=0f620204-10b2-4edb-a882-9f7eefa50f23","ios":"levelo://app?vid=0f620204-10b2-4edb-a882-9f7eefa50f23"},"vehicle_type_id":"4","last_reported":1684951698,"current_range_meters":16800,"station_id":"ce4bh192rcd13ifvqdc0","pricing_plan_id":"free"},{"bike_id":"f43b66d9-946d-4e7d-9f9b-376aed2c7463","system_id":"levelo_inurba_marseille","lat":43.292569,"lon":5.409107,"is_reserved":false,"is_disabled":false,"rental_uris":{"android":"levelo://app?vid=f43b66d9-946d-4e7d-9f9b-376aed2c7463","ios":"levelo://app?vid=f43b66d9-946d-4e7d-9f9b-376aed2c7463"},"vehicle_type_id":"4","last_reported":1684951698,"current_range_meters":5600,"station_id":"ce4bh192rcd13ifvqdc0","pricing_plan_id":"free"},{"bike_id":"8a0b5df2-4699-48e1-b516-db82a89f9320","system_id":"levelo_inurba_marseille","lat":43.292569,"lon":5.409107,"is_reserved":false,"is_disabled":false,"rental_uris":{"android":"levelo://app?vid=8a0b5df2-4699-48e1-b516-db82a89f9320","ios":"levelo://app?vid=8a0b5df2-4699-48e1-b516-db82a89f9320"},"vehicle_type_id":"4","last_reported":1684951698,"current_range_meters":0,"station_id":"ce4bh192rcd13ifvqdc0","pricing_plan_id":"free"},{"bike_id":"02ba78f1-356c-4177-9d06-859873e5c40d","system_id":"levelo_inurba_marseille","lat":43.27618,"lon":5.361009,"is_reserved":false,"is_disabled":false,"rental_uris":{"android":"levelo://app?vid=02ba78f1-356c-4177-9d06-859873e5c40d","ios":"levelo://app?vid=02ba78f1-356c-4177-9d06-859873e5c40d"},"vehicle_type_id":"4","last_reported":1684951698,"current_range_meters":2800,"station_id":"ce4bgj92rcd13ifvqbe0","pricing_plan_id":"free"},{"bike_id":"289eea42-82ca-4d5a-987f-f197df405e20","system_id":"levelo_inurba_marseille","lat":43.27618,"lon":5.361009,"is_reserved":false,"is_disabled":false,"rental_uris":{"android":"levelo://app?vid=289eea42-82ca-4d5a-987f-f197df405e20","ios":"levelo://app?vid=289eea42-82ca-4d5a-987f-f197df405e20"},"vehicle_type_id":"4","last_reported":1684951698,"current_range_meters":1200,"station_id":"ce4bgj92rcd13ifvqbe0","pricing_plan_id":"free"},{"bike_id":"29767d86-e748-421d-bf79-fc98b522bcb1","system_id":"levelo_inurba_marseille","lat":43.27618,"lon":5.361009,"is_reserved":false,"is_disabled":false,"rental_uris":{"android":"levelo://app?vid=29767d86-e748-421d-bf79-fc98b522bcb1","ios":"levelo://app?vid=29767d86-e748-421d-bf79-fc98b522bcb1"},"vehicle_type_id":"4","last_reported":1684951698,"current_range_meters":5200,"station_id":"ce4bgj92rcd13ifvqbe0","pricing_plan_id":"free"},{"bike_id":"cf438fd0-1bff-4b1f-8e0d-5d731920a697","system_id":"levelo_inurba_marseille","lat":43.27618,"lon":5.361009,"is_reserved":false,"is_disabled":false,"rental_uris":{"android":"levelo://app?vid=cf438fd0-1bff-4b1f-8e0d-5d731920a697","ios":"levelo://app?vid=cf438fd0-1bff-4b1f-8e0d-5d731920a697"},"vehicle_type_id":"4","last_reported":1684951698,"current_range_meters":18800,"station_id":"ce4bgj92rcd13ifvqbe0","pricing_plan_id":"free"},{"bike_id":"a6c42590-aed7-41ae-8454-0d55a1e7e27e","system_id":"levelo_inurba_marseille","lat":43.27618,"lon":5.361009,"is_reserved":false,"is_disabled":false,"rental_uris":{"android":"levelo://app?vid=a6c42590-aed7-41ae-8454-0d55a1e7e27e","ios":"levelo://app?vid=a6c42590-aed7-41ae-8454-0d55a1e7e27e"},"vehicle_type_id":"4","last_reported":1684951698,"current_range_meters":14000,"station_id":"ce4bgj92rcd13ifvqbe0","pricing_plan_id":"free"},{"bike_id":"61c0cd02-83bb-4c6d-9f72-38cc398f4314","system_id":"levelo_inurba_marseille","lat":43.278401,"lon":5.392152,"is_reserved":false,"is_disabled":false,"rental_uris":{"android":"levelo://app?vid=61c0cd02-83bb-4c6d-9f72-38cc398f4314","ios":"levelo://app?vid=61c0cd02-83bb-4c6d-9f72-38cc398f4314"},"vehicle_type_id":"4","last_reported":1684951698,"current_range_meters":12400,"station_id":"ce4bhjp2rcd13ifvqga0","pricing_plan_id":"free"},{"bike_id":"e90e2bed-2db9-43b2-b34f-9f91630a5429","system_id":"levelo_inurba_marseille","lat":43.278401,"lon":5.392152,"is_reserved":false,"is_disabled":false,"rental_uris":{"android":"levelo://app?vid=e90e2bed-2db9-43b2-b34f-9f91630a5429","ios":"levelo://app?vid=e90e2bed-2db9-43b2-b34f-9f91630a5429"},"vehicle_type_id":"4","last_reported":1684951698,"current_range_meters":24400,"station_id":"ce4bhjp2rcd13ifvqga0","pricing_plan_id":"free"},{"bike_id":"882d20de-e1e3-4d94-800a-baf642936db4","system_id":"levelo_inurba_marseille","lat":43.278401,"lon":5.392152,"is_reserved":false,"is_disabled":false,"rental_uris":{"android":"levelo://app?vid=882d20de-e1e3-4d94-800a-baf642936db4","ios":"levelo://app?vid=882d20de-e1e3-4d94-800a-baf642936db4"},"vehicle_type_id":"4","last_reported":1684951698,"current_range_meters":7600,"station_id":"ce4bhjp2rcd13ifvqga0","pricing_plan_id":"free"},{"bike_id":"f3046481-1d7d-4139-bcde-dd25c2b3a9c4","system_id":"levelo_inurba_marseille","lat":43.27836,"lon":5.39211,"is_reserved":false,"is_disabled":false,"rental_uris":{"android":"levelo://app?vid=f3046481-1d7d-4139-bcde-dd25c2b3a9c4","ios":"levelo://app?vid=f3046481-1d7d-4139-bcde-dd25c2b3a9c4"},"vehicle_type_id":"4","last_reported":1684951698,"current_range_meters":5200,"station_id":"ce4bhjp2rcd13ifvqga0","pricing_plan_id":"free"},{"bike_id":"7e6b28db-abbf-4355-b59e-0ede74217ec7","system_id":"levelo_inurba_marseille","lat":43.278401,"lon":5.392152,"is_reserved":false,"is_disabled":false,"rental_uris":{"android":"levelo://app?vid=7e6b28db-abbf-4355-b59e-0ede74217ec7","ios":"levelo://app?vid=7e6b28db-abbf-4355-b59e-0ede74217ec7"},"vehicle_type_id":"4","last_reported":1684951698,"current_range_meters":11200,"station_id":"ce4bhjp2rcd13ifvqga0","pricing_plan_id":"free"},{"bike_id":"cb07dbe1-603a-4b25-9511-eaf7f7fad461","system_id":"levelo_inurba_marseille","lat":43.278401,"lon":5.392152,"is_reserved":false,"is_disabled":false,"rental_uris":{"android":"levelo://app?vid=cb07dbe1-603a-4b25-9511-eaf7f7fad461","ios":"levelo://app?vid=cb07dbe1-603a-4b25-9511-eaf7f7fad461"},"vehicle_type_id":"4","last_reported":1684951698,"current_range_meters":18800,"station_id":"ce4bhjp2rcd13ifvqga0","pricing_plan_id":"free"},{"bike_id":"b648a8f1-6fd2-46b3-ab24-e59efd61951c","system_id":"levelo_inurba_marseille","lat":43.273613,"lon":5.362705,"is_reserved":false,"is_disabled":false,"rental_uris":{"android":"levelo://app?vid=b648a8f1-6fd2-46b3-ab24-e59efd61951c","ios":"levelo://app?vid=b648a8f1-6fd2-46b3-ab24-e59efd61951c"},"vehicle_type_id":"4","last_reported":1684951698,"current_range_meters":0,"station_id":"ce4bhbh2rcd13ifvqeo0","pricing_plan_id":"free"},{"bike_id":"5207e28a-cfaf-42fa-a277-0c7051e585be","system_id":"levelo_inurba_marseille","lat":43.273613,"lon":5.362705,"is_reserved":false,"is_disabled":false,"rental_uris":{"android":"levelo://app?vid=5207e28a-cfaf-42fa-a277-0c7051e585be","ios":"levelo://app?vid=5207e28a-cfaf-42fa-a277-0c7051e585be"},"vehicle_type_id":"4","last_reported":1684951698,"current_range_meters":31200,"station_id":"ce4bhbh2rcd13ifvqeo0","pricing_plan_id":"free"},{"bike_id":"bbaeaa87-f38f-4479-a1d0-3b01ad73565f","system_id":"levelo_inurba_marseille","lat":43.273613,"lon":5.362705,"is_reserved":false,"is_disabled":false,"rental_uris":{"android":"levelo://app?vid=bbaeaa87-f38f-4479-a1d0-3b01ad73565f","ios":"levelo://app?vid=bbaeaa87-f38f-4479-a1d0-3b01ad73565f"},"vehicle_type_id":"4","last_reported":1684951698,"current_range_meters":31600,"station_id":"ce4bhbh2rcd13ifvqeo0","pricing_plan_id":"free"},{"bike_id":"138a52e0-70aa-4bad-b13a-4a6704063626","system_id":"levelo_inurba_marseille","lat":43.273609,"lon":5.362708,"is_reserved":false,"is_disabled":false,"rental_uris":{"android":"levelo://app?vid=138a52e0-70aa-4bad-b13a-4a6704063626","ios":"levelo://app?vid=138a52e0-70aa-4bad-b13a-4a6704063626"},"vehicle_type_id":"4","last_reported":1684951698,"current_range_meters":21600,"station_id":"ce4bhbh2rcd13ifvqeo0","pricing_plan_id":"free"},{"bike_id":"b9e6f253-655a-4d43-822d-069b013e659a","system_id":"levelo_inurba_marseille","lat":43.276769,"lon":5.388787,"is_reserved":false,"is_disabled":false,"rental_uris":{"android":"levelo://app?vid=b9e6f253-655a-4d43-822d-069b013e659a","ios":"levelo://app?vid=b9e6f253-655a-4d43-822d-069b013e659a"},"vehicle_type_id":"4","last_reported":1684951698,"current_range_meters":24400,"station_id":"ce4bhi12rcd13ifvqfo0","pricing_plan_id":"free"},{"bike_id":"1f347b98-b4fc-46fd-9c19-a96ed84abc75","system_id":"levelo_inurba_marseille","lat":43.27491,"lon":5.38483,"is_reserved":false,"is_disabled":false,"rental_uris":{"android":"levelo://app?vid=1f347b98-b4fc-46fd-9c19-a96ed84abc75","ios":"levelo://app?vid=1f347b98-b4fc-46fd-9c19-a96ed84abc75"},"vehicle_type_id":"4","last_reported":1684951698,"current_range_meters":16400,"station_id":"","pricing_plan_id":"free"},