{"last_updated":1744477711,"ttl":60,"version":"2.2","data":{"bikes":[{"bike_id":"c5828d88-9472-4746-bff6-e0a5b6572af0","system_id":"levelo_inurba_marseille","lat":43.3237,"lon":5.38887,"is_reserved":false,"is_disabled":false,"rental_uris":{"android":"levelo://app?vid=c5828d88-9472-4746-bff6-e0a5b6572af0","ios":"levelo://app?vid=c5828d88-9472-4746-bff6-e0a5b6572af0"},"vehicle_type_id":"4","last_reported":1744477711,"current_range_meters":2800,"station_id":"ce4bhqp2rcd13ifvqhog","pricing_plan_id":"cebpf4jnsgd1na2vs0mg"},{"bike_id":"71a51bd4-ea77-4a82-9fc0-7db90ed17c99","system_id":"levelo_inurba_marseille","lat":43.25122,"lon":5.403176,"is_reserved":false,"is_disabled":false,"rental_uris":{"android":"levelo://app?vid=71a51bd4-ea77-4a82-9fc0-7db90ed17c99","ios":"levelo://app?vid=71a51bd4-ea77-4a82-9fc0-7db90ed17c99"},"vehicle_type_id":"4","last_reported":1744477711,"current_range_meters":2000,"station_id":"ce4bhlh2rcd13ifvqgig","pricing_plan_id":"cebpf4jnsgd1na2vs0mg"},{"bike_id":"bed9bf89-0943-471f-8d9e-989d7af70ac0","system_id":"levelo_inurba_marseille","lat":43.288589,"lon":5.393148,"is_reserved":false,"is_disabled":false,"rental_uris":{"android":"levelo://app?vid=bed9bf89-0943-471f-8d9e-989d7af70ac0","ios":"levelo://app?vid=bed9bf89-0943-471f-8d9e-989d7af70ac0"},"vehicle_type_id":"4","last_reported":1744477711,"current_range_meters":2800,"station_id":"ce4bh2p2rcd13ifvqdi0","pricing_plan_id":"cebpf4jnsgd1na2vs0mg"},{"bike_id":"db5ce9c9-e752-489c-a8f7-c10709a8d3d3","system_id":"levelo_inurba_marseille","lat":43.267847,"lon":5.394477,"is_reserved":false,"is_disabled":false,"rental_uris":{"android":"levelo://app?vid=db5ce9c9-e752-489c-a8f7-c10709a8d3d3","ios":"levelo://app?vid=db5ce9c9-e752-489c-a8f7-c10709a8d3d3"},"vehicle_type_id":"4","last_reported":1744477711,"current_range_meters":2800,"station_id":"ce4bhh12rcd13ifvqfg0","pricing_plan_id":"cebpf4jnsgd1na2vs0mg"},{"bike_id":"cda5a2e0-ce7a-4e5b-92ad-d7eb95084c5c","system_id":"levelo_inurba_marseille","lat":43.322855,"lon":5.382784,"is_reserved":false,"is_disabled":false,"rental_uris":{"android":"levelo://app?vid=cda5a2e0-ce7a-4e5b-92ad-d7eb95084c5c","ios":"levelo://app?vid=cda5a2e0-ce7a-4e5b-92ad-d7eb95084c5c"},"vehicle_type_id":"4","last_reported":1744477711,"current_range_meters":3200,"station_id":"ce4bhr12rcd13ifvqhqg","pricing_plan_id":"cebpf4jnsgd1na2vs0mg"},{"bike_id":"8beefee5-06f0-4ff1-8d05-d2239b756419","system_id":"levelo_inurba_marseille","lat":43.26784,"lon":5.39417,"is_reserved":false,"is_disabled":false,"rental_uris":{"android":"levelo://app?vid=8beefee5-06f0-4ff1-8d05-d2239b756419","ios":"levelo://app?vid=8beefee5-06f0-4ff1-8d05-d2239b756419"},"vehicle_type_id":"4","last_reported":1744477711,"current_range_meters":2800,"station_id":"ce4bhh12rcd13ifvqfg0","pricing_plan_id":"cebpf4jnsgd1na2vs0mg"},{"bike_id":"984bb2aa-d82a-4281-90f1-1529bbc61000","system_id":"levelo_inurba_marseille","lat":43.29915,"lon":5.39278,"is_reserved":false,"is_disabled":false,"rental_uris":{"android":"levelo://app?vid=984bb2aa-d82a-4281-90f1-1529bbc61000","ios":"levelo://app?vid=984bb2aa-d82a-4281-90f1-1529bbc61000"},"vehicle_type_id":"4","last_reported":1744477711,"current_range_meters":3200,"station_id":"","pricing_plan_id":"cebpf4jnsgd1na2vs0mg"},{"bike_id":"93e1aaa1-c0cc-45ca-a3db-224ea651a95b","system_id":"levelo_inurba_marseille","lat":43.26554,"lon":5.37292,"is_reserved":false,"is_disabled":false,"rental_uris":{"android":"levelo://app?vid=93e1aaa1-c0cc-45ca-a3db-224ea651a95b","ios":"levelo://app?vid=93e1aaa1-c0cc-45ca-a3db-224ea651a95b"},"vehicle_type_id":"4","last_reported":1744477711,"current_range_meters":3200,"station_id":"ce4bhg12rcd13ifvqf70","pricing_plan_id":"cebpf4jnsgd1na2vs0mg"},{"bike_id":"b81181f9-36a3-48b4-9912-e6bf37b01e53","system_id":"levelo_inurba_marseille","lat":43.27388,"lon":5.36252,"is_reserved":false,"is_disabled":true,"rental_uris":{"android":"levelo://app?vid=b81181f9-36a3-48b4-9912-e6bf37b01e53","ios":"levelo://app?vid=b81181f9-36a3-48b4-9912-e6bf37b01e53"},"vehicle_type_id":"4","last_reported":1744477711,"current_range_meters":3200,"station_id":"ce4bhbh2rcd13ifvqeo0","pricing_plan_id":"cebpf4jnsgd1na2vs0mg"},{"bike_id":"eab6cbfa-cb8e-47d7-b0d6-226ab7facec7","system_id":"levelo_inurba_marseille","lat":43.31714,"lon":5.42415,"is_reserved":false,"is_disabled":true,"rental_uris":{"android":"levelo://app?vid=eab6cbfa-cb8e-47d7-b0d6-226ab7facec7","ios":"levelo://app?vid=eab6cbfa-cb8e-47d7-b0d6-226ab7facec7"},"vehicle_type_id":"4","last_reported":1744477711,"current_range_meters":3200,"station_id":"ce4bhp92rcd13ifvqhbg","pricing_plan_id":"cebpf4jnsgd1na2vs0mg"},{"bike_id":"ba45da7e-175f-4f37-b865-d3d2c7dccb82","system_id":"levelo_inurba_marseille","lat":43.24648,"lon":5.38893,"is_reserved":false,"is_disabled":false,"rental_uris":{"android":"levelo://app?vid=ba45da7e-175f-4f37-b865-d3d2c7dccb82","ios":"levelo://app?vid=ba45da7e-175f-4f37-b865-d3d2c7dccb82"},"vehicle_type_id":"4","last_reported":1744477711,"current_range_meters":2800,"station_id":"ce4bhg12rcd13ifvqf60","pricing_plan_id":"cebpf4jnsgd1na2vs0mg"},{"bike_id":"ce947321-74c0-4965-a5a0-746879af64d1","system_id":"levelo_inurba_marseille","lat":43.31689,"lon":5.40474,"is_reserved":false,"is_disabled":false,"rental_uris":{"android":"levelo://app?vid=ce947321-74c0-4965-a5a0-746879af64d1","ios":"levelo://app?vid=ce947321-74c0-4965-a5a0-746879af64d1"},"vehicle_type_id":"4","last_reported":1744477711,"current_range_meters":3200,"station_id":"ce4bh012rcd13ifvqd00","pricing_plan_id":"cebpf4jnsgd1na2vs0mg"},{"bike_id":"72c177c8-7e38-4ce2-a464-ed5f47fc86e6","system_id":"levelo_inurba_marseille","lat":43.29535,"lon":5.38542,"is_reserved":false,"is_disabled":false,"rental_uris":{"android":"levelo://app?vid=72c177c8-7e38-4ce2-a464-ed5f47fc86e6","ios":"levelo://app?vid=72c177c8-7e38-4ce2-a464-ed5f47fc86e6"},"vehicle_type_id":"4","last_reported":1744477711,"current_range_meters":3600,"station_id":"ce4bgih2rcd13ifvqba0","pricing_plan_id":"cebpf4jnsgd1na2vs0mg"},{"bike_id":"45b47f41-ef85-4eab-80be-87e0e4b16b2b","system_id":"levelo_inurba_marseille","lat":43.24184,"lon":5.39734,"is_reserved":false,"is_disabled":false,"rental_uris":{"android":"levelo://app?vid=45b47f41-ef85-4eab-80be-87e0e4b16b2b","ios":"levelo://app?vid=45b47f41-ef85-4eab-80be-87e0e4b16b2b"},"vehicle_type_id":"4","last_reported":1744477711,"current_range_meters":3600,"station_id":"ce4bhn12rcd13ifvqgpg","pricing_plan_id":"cebpf4jnsgd1na2vs0mg"},{"bike_id":"d7f9e116-c5b6-4b81-b124-ce6019a2d1cb","system_id":"levelo_inurba_marseille","lat":43.21748,"lon":5.34611,"is_reserved":false,"is_disabled":true,"rental_uris":{"android":"levelo://app?vid=d7f9e116-c5b6-4b81-b124-ce6019a2d1cb","ios":"levelo://app?vid=d7f9e116-c5b6-4b81-b124-ce6019a2d1cb"},"vehicle_type_id":"4","last_reported":1744477711,"current_range_meters":3600,"station_id":"st_cvj6r9ubvosntc0bgbag","pricing_plan_id":"cebpf4jnsgd1na2vs0mg"},{"bike_id":"a9f344a9-b5c4-4c6f-adc4-6177f6c8159a","system_id":"levelo_inurba_marseille","lat":43.32833,"lon":5.397527,"is_reserved":false,"is_disabled":false,"rental_uris":{"android":"levelo://app?vid=a9f344a9-b5c4-4c6f-adc4-6177f6c8159a","ios":"levelo://app?vid=a9f344a9-b5c4-4c6f-adc4-6177f6c8159a"},"vehicle_type_id":"4","last_reported":1744477711,"current_range_meters":3600,"station_id":"","pricing_plan_id":"cebpf4jnsgd1na2vs0mg"},{"bike_id":"55557dbb-0072-4d53-8b8c-96154032332d","system_id":"levelo_inurba_marseille","lat":43.27324,"lon":5.3911,"is_reserved":false,"is_disabled":false,"rental_uris":{"android":"levelo://app?vid=55557dbb-0072-4d53-8b8c-96154032332d","ios":"levelo://app?vid=55557dbb-0072-4d53-8b8c-96154032332d"},"vehicle_type_id":"4","last_reported":1744477711,"current_range_meters":3600,"station_id":"ce4bhgp2rcd13ifvqfe0","pricing_plan_id":"cebpf4jnsgd1na2vs0mg"},{"bike_id":"73a0e70e-1d9e-46e9-a8ea-11cfd0fdb368","system_id":"levelo_inurba_marseille","lat":43.265503,"lon":5.37283,"is_reserved":false,"is_disabled":false,"rental_uris":{"android":"levelo://app?vid=73a0e70e-1d9e-46e9-a8ea-11cfd0fdb368","ios":"levelo://app?vid=73a0e70e-1d9e-46e9-a8ea-11cfd0fdb368"},"vehicle_type_id":"4","last_reported":1744477711,"current_range_meters":4000,"station_id":"ce4bhg12rcd13ifvqf70","pricing_plan_id":"cebpf4jnsgd1na2vs0mg"},{"bike_id":"91c8c766-3df3-4f8c-9eaf-3cf64a255b42","system_id":"levelo_inurba_marseille","lat":43.29557,"lon":5.42296,"is_reserved":false,"is_disabled":false,"rental_uris":{"android":"levelo://app?vid=91c8c766-3df3-4f8c-9eaf-3cf64a255b42","ios":"levelo://app?vid=91c8c766-3df3-4f8c-9eaf-3cf64a255b42"},"vehicle_type_id":"4","last_reported":1744477711,"current_range_meters":3600,"station_id":"ce4bhph2rcd13ifvqhdg","pricing_plan_id":"cebpf4jnsgd1na2vs0mg"},{"bike_id":"0284a63c-ec00-4c25-855a-60f4a9c55861","system_id":"levelo_inurba_marseille","lat":43.2791,"lon":5.38016,"is_reserved":false,"is_disabled":false,"rental_uris":{"android":"levelo://app?vid=0284a63c-ec00-4c25-855a-60f4a9c55861","ios":"levelo://app?vid=0284a63c-ec00-4c25-855a-60f4a9c55861"},"vehicle_type_id":"4","last_reported":1744477711,"current_range_meters":3600,"station_id":"ce4bhf92rcd13ifvqf50","pricing_plan_id":"cebpf4jnsgd1na2vs0mg"},{"bike_id":"c4db0eeb-9d86-4ac8-955f-ececa7cb78b3","system_id":"levelo_inurba_marseille","lat":43.28937,"lon":5.36374,"is_reserved":false,"is_disabled":false,"rental_uris":{"android":"levelo://app?vid=c4db0eeb-9d86-4ac8-955f-ececa7cb78b3","ios":"levelo://app?vid=c4db0eeb-9d86-4ac8-955f-ececa7cb78b3"},"vehicle_type_id":"4","last_reported":1744477711,"current_range_meters":4000,"station_id":"ce4bhc92rcd13ifvqetg","pricing_plan_id":"cebpf4jnsgd1na2vs0mg"},{"bike_id":"02a3377a-0695-4d42-b425-edfbb4cf72ee","system_id":"levelo_inurba_marseille","lat":43.26783,"lon":5.39419,"is_reserved":false,"is_disabled":false,"rental_uris":{"android":"levelo://app?vid=02a3377a-0695-4d42-b425-edfbb4cf72ee","ios":"levelo://app?vid=02a3377a-0695-4d42-b425-edfbb4cf72ee"},"vehicle_type_id":"4","last_reported":1744477711,"current_range_meters":4000,"station_id":"ce4bhh12rcd13ifvqfg0","pricing_plan_id":"cebpf4jnsgd1na2vs0mg"},{"bike_id":"3f52aecb-e49c-4288-b392-efddf1d650f2","system_id":"levelo_inurba_marseille","lat":43.31275,"lon":5.40168,"is_reserved":false,"is_disabled":false,"rental_uris":{"android":"levelo://app?vid=3f52aecb-e49c-4288-b392-efddf1d650f2","ios":"levelo://app?vid=3f52aecb-e49c-4288-b392-efddf1d650f2"},"vehicle_type_id":"4","last_reported":1744477711,"current_range_meters":4000,"station_id":"ce4bh092rcd13ifvqd30","pricing_plan_id":"cebpf4jnsgd1na2vs0mg"},{"bike_id":"d057f8e4-3f4f-44d1-8f45-b9d661394a40","system_id":"levelo_inurba_marseille","lat":43.284893,"lon":5.384275,"is_reserved":false,"is_disabled":false,"rental_uris":{"android":"levelo://app?vid=d057f8e4-3f4f-44d1-8f45-b9d661394a40","ios":"levelo://app?vid=d057f8e4-3f4f-44d1-8f45-b9d661394a40"},"vehicle_type_id":"4","last_reported":1744477711,"current_range_meters":3600,"station_id":"ce4bh512rcd13ifvqe3g","pricing_plan_id":"cebpf4jnsgd1na2vs0mg"},{"bike_id":"bfee7c49-1539-49e1-aaeb-665ee06a2b74","system_id":"levelo_inurba_marseille","lat":43.25846,"lon":5.39432,"is_reserved":false,"is_disabled":false,"rental_uris":{"android":"levelo://app?vid=bfee7c49-1539-49e1-aaeb-665ee06a2b74","ios":"levelo://app?vid=bfee7c49-1539-49e1-aaeb-665ee06a2b74"},"vehicle_type_id":"4","last_reported":1744477711,"current_range_meters":4000,"station_id":"ce4bhip2rcd13ifvqft0","pricing_plan_id":"cebpf4jnsgd1na2vs0mg"},{"bike_id":"ea1bf99a-35fa-40be-9db6-380965364514","system_id":"levelo_inurba_marseille","lat":43.30137,"lon":5.387676,"is_reserved":false,"is_disabled":false,"rental_uris":{"android":"levelo://app?vid=ea1bf99a-35fa-40be-9db6-380965364514","ios":"levelo://app?vid=ea1bf99a-35fa-40be-9db6-380965364514"},"vehicle_type_id":"4","last_reported":1744477711,"current_range_meters":4000,"station_id":"ce4bghh2rcd13ifvqb60","pricing_plan_id":"cebpf4jnsgd1na2vs0mg"},{"bike_id":"774c09f2-9192-4034-bce6-bf356aedac0e","system_id":"levelo_inurba_marseille","lat":43.298943,"lon":5.436763,"is_reserved":false,"is_disabled":false,"rental_uris":{"android":"levelo://app?vid=774c09f2-9192-4034-bce6-bf356aedac0e","ios":"levelo://app?vid=774c09f2-9192-4034-bce6-bf356aedac0e"},"vehicle_type_id":"4","last_reported":1744477711,"current_range_meters":4400,"station_id":"ce4bhpp2rcd13ifvqhfg","pricing_plan_id":"cebpf4jnsgd1na2vs0mg"},{"bike_id":"8aa06b46-6a3e-456c-9e70-a9261462dadc","system_id":"levelo_inurba_marseille","lat":43.31713,"lon":5.43705,"is_reserved":false,"is_disabled":false,"rental_uris":{"android":"levelo://app?vid=8aa06b46-6a3e-456c-9e70-a9261462dadc","ios":"levelo://app?vid=8aa06b46-6a3e-456c-9e70-a9261462dadc"},"vehicle_type_id":"4","last_reported":1744477711,"current_range_meters":4000,"station_id":"ce4bhp92rcd13ifvqhcg","pricing_plan_id":"cebpf4jnsgd1na2vs0mg"},{"bike_id":"4223f2ad-de91-45d8-8ff6-8cf220632654","system_id":"levelo_inurba_marseille","lat":43.25003,"lon":5.38938,"is_reserved":false,"is_disabled":false,"rental_uris":{"android":"levelo://app?vid=4223f2ad-de91-45d8-8ff6-8cf220632654","ios":"levelo://app?vid=4223f2ad-de91-45d8-8ff6-8cf220632654"},"vehicle_type_id":"4","last_reported":1744477711,"current_range_meters":4400,"station_id":"ce4bhgp2rcd13ifvqfd0","pricing_plan_id":"cebpf4jnsgd1na2vs0mg"},{"bike_id":"e76656d3-7728-403e-8144-427b113215ea","system_id":"levelo_inurba_marseille","lat":43.30435,"lon":5.3889,"is_reserved":false,"is_disabled":false,"rental_uris":{"android":"levelo://app?vid=e76656d3-7728-403e-8144-427b113215ea","ios":"levelo://app?vid=e76656d3-7728-403e-8144-427b113215ea"},"vehicle_type_id":"4","last_reported":1744477711,"current_range_meters":4000,"station_id":"ce4bgk12rcd13ifvqbi0","pricing_plan_id":"cebpf4jnsgd1na2vs0mg"},{"bike_id":"1a211343-b4ea-4c27-ac54-5519a907a326","system_id":"levelo_inurba_marseille","lat":43.2465,"lon":5.38916,"is_reserved":false,"is_disabled":false,"rental_uris":{"android":"levelo://app?vid=1a211343-b4ea-4c27-ac54-5519a907a326","ios":"levelo://app?vid=1a211343-b4ea-4c27-ac54-5519a907a326"},"vehicle_type_id":"4","last_reported":1744477711,"current_range_meters":4400,"station_id":"ce4bhg12rcd13ifvqf60","pricing_plan_id":"cebpf4jnsgd1na2vs0mg"},{"bike_id":"4eb23acf-cc8c-4cf0-9e51-d85a954e6518","system_id":"levelo_inurba_marseille","lat":43.29529,"lon":5.375,"is_reserved":false,"is_disabled":false,"rental_uris":{"android":"levelo://app?vid=4eb23acf-cc8c-4cf0-9e51-d85a954e6518","ios":"levelo://app?vid=4eb23acf-cc8c-4cf0-9e51-d85a954e6518"},"vehicle_type_id":"4","last_reported":1744477711,"current_range_meters":4400,"station_id":"ce4bgkp2rcd13ifvqbmg","pricing_plan_id":"cebpf4jnsgd1na2vs0mg"},{"bike_id":"2b8e8139-3213-4135-a10d-02ce5789310f","system_id":"levelo_inurba_marseille","lat":43.29102,"lon":5.38133,"is_reserved":false,"is_disabled":false,"rental_uris":{"android":"levelo://app?vid=2b8e8139-3213-4135-a10d-02ce5789310f","ios":"levelo://app?vid=2b8e8139-3213-4135-a10d-02ce5789310f"},"vehicle_type_id":"4","last_reported":1744477711,"current_range_meters":4400,"station_id":"ce4bh512rcd13ifvqe2g","pricing_plan_id":"cebpf4jnsgd1na2vs0mg"},{"bike_id":"a2417265-aaaf-4846-a7cc-2faf5068e2d6","system_id":"levelo_inurba_marseille","lat":43.28149,"lon":5.42701,"is_reserved":false,"is_disabled":false,"rental_uris":{"android":"levelo://app?vid=a2417265-aaaf-4846-a7cc-2faf5068e2d6","ios":"levelo://app?vid=a2417265-aaaf-4846-a7cc-2faf5068e2d6"},"vehicle_type_id":"4","last_reported":1744477711,"current_range_meters":4400,"station_id":"ce4bhnh2rcd13ifvqgug","pricing_plan_id":"cebpf4jnsgd1na2vs0mg"},{"bike_id":"f9435c84-a570-4378-9180-4a58e2d79e5f","system_id":"levelo_inurba_marseille","lat":43.26501,"lon":5.39554,"is_reserved":false,"is_disabled":false,"rental_uris":{"android":"levelo://app?vid=f9435c84-a570-4378-9180-4a58e2d79e5f","ios":"levelo://app?vid=f9435c84-a570-4378-9180-4a58e2d79e5f"},"vehicle_type_id":"4","last_reported":1744477711,"current_range_meters":4000,"station_id":"ce4bhi12rcd13ifvqfq0","pricing_plan_id":"cebpf4jnsgd1na2vs0mg"},{"bike_id":"ae958ae8-c98f-4e2d-8835-51870ecfae6f","system_id":"levelo_inurba_marseille","lat":43.329803,"lon":5.395051,"is_reserved":false,"is_disabled":false,"rental_uris":{"android":"levelo://app?vid=ae958ae8-c98f-4e2d-8835-51870ecfae6f","ios":"levelo://app?vid=ae958ae8-c98f-4e2d-8835-51870ecfae6f"},"vehicle_type_id":"4","last_reported":1744477711,"current_range_meters":4400,"station_id":"","pricing_plan_id":"cebpf4jnsgd1na2vs0mg"},{"bike_id":"56e7f21f-8882-451b-8313-38cbf92ee0ca","system_id":"levelo_inurba_marseille","lat":43.285,"lon":5.3855,"is_reserved":false,"is_disabled":false,"rental_uris":{"android":"levelo://app?vid=56e7f21f-8882-451b-8313-38cbf92ee0ca","ios":"levelo://app?vid=56e7f21f-8882-451b-8313-38cbf92ee0ca"},"vehicle_type_id":"4","last_reported":1744477711,"current_range_meters":4400,"station_id":"ce4bh8p2rcd13ifvqeb0","pricing_plan_id":"cebpf4jnsgd1na2vs0mg"},{"bike_id":"e2b83c80-8968-4786-a661-0a27a5358940","system_id":"levelo_inurba_marseille","lat":43.23153,"lon":5.43709,"is_reserved":false,"is_disabled":false,"rental_uris":{"android":"levelo://app?vid=e2b83c80-8968-4786-a661-0a27a5358940","ios":"levelo://app?vid=e2b83c80-8968-4786-a661-0a27a5358940"},"vehicle_type_id":"4","last_reported":1744477711,"current_range_meters":4800,"station_id":"ce4bhmp2rcd13ifvqgog","pricing_plan_id":"cebpf4jnsgd1na2vs0mg"},{"bike_id":"0b4227cc-ef5e-4c52-9c1f-f6f91e218448","system_id":"levelo_inurba_marseille","lat":43.3093,"lon":5.40151,"is_reserved":false,"is_disabled":false,"rental_uris":{"android":"levelo://app?vid=0b4227cc-ef5e-4c52-9c1f-f6f91e218448","ios":"levelo://app?vid=0b4227cc-ef5e-4c52-9c1f-f6f91e218448"},"vehicle_type_id":"4","last_reported":1744477711,"current_range_meters":4400,"station_id":"ce4bgvp2rcd13ifvqct0","pricing_plan_id":"cebpf4jnsgd1na2vs0mg"},{"bike_id":"86ad6b09-1716-4e71-b51b-c263f5486497","system_id":"levelo_inurba_marseille","lat":43.26216,"lon":5.37445,"is_reserved":false,"is_disabled":false,"rental_uris":{"android":"levelo://app?vid=86ad6b09-1716-4e71-b51b-c263f5486497","ios":"levelo://app?vid=86ad6b09-1716-4e71-b51b-c263f5486497"},"vehicle_type_id":"4","last_reported":1744477711,"current_range_meters":4800,"station_id":"ce4bhgp2rcd13ifvqfc0","pricing_plan_id":"cebpf4jnsgd1na2vs0mg"},{"bike_id":"f189dbca-26c9-4084-bfaf-6b55d252d735","system_id":"levelo_inurba_marseille","lat":43.2931,"lon":5.3716,"is_reserved":false,"is_disabled":false,"rental_uris":{"android":"levelo://app?vid=f189dbca-26c9-4084-bfaf-6b55d252d735","ios":"levelo://app?vid=f189dbca-26c9-4084-bfaf-6b55d252d735"},"vehicle_type_id":"4","last_reported":1744477711,"current_range_meters":4800,"station_id":"ce4bgh92rcd13ifvqb40","pricing_plan_id":"cebpf4jnsgd1na2vs0mg"},{"bike_id":"f32a7381-9f82-4395-bfe2-e5ba727e8e48","system_id":"levelo_inurba_marseille","lat":43.29174,"lon":5.37165,"is_reserved":false,"is_disabled":false,"rental_uris":{"android":"levelo://app?vid=f32a7381-9f82-4395-bfe2-e5ba727e8e48","ios":"levelo://app?vid=f32a7381-9f82-4395-bfe2-e5ba727e8e48"},"vehicle_type_id":"4","last_reported":1744477711,"current_range_meters":4800,"station_id":"ce4bha92rcd13ifvqeh0","pricing_plan_id":"cebpf4jnsgd1na2vs0mg"},{"bike_id":"2de83229-4342-4b80-af89-ad24add8743a","system_id":"levelo_inurba_marseille","lat":43.26952,"lon":5.40254,"is_reserved":false,"is_disabled":false,"rental_uris":{"android":"levelo://app?vid=2de83229-4342-4b80-af89-ad24add8743a","ios":"levelo://app?vid=2de83229-4342-4b80-af89-ad24add8743a"},"vehicle_type_id":"4","last_reported":1744477711,"current_range_meters":5600,"station_id":"cjm6bp8fraef2m0cb0m0","pricing_plan_id":"cebpf4jnsgd1na2vs0mg"},{"bike_id":"1e4dd161-a701-4019-a618-2d92207359c4","system_id":"levelo_inurba_marseille","lat":43.26784,"lon":5.39426,"is_reserved":false,"is_disabled":false,"rental_uris":{"android":"levelo://app?vid=1e4dd161-a701-4019-a618-2d92207359c4","ios":"levelo://app?vid=1e4dd161-a701-4019-a618-2d92207359c4"},"vehicle_type_id":"4","last_reported":1744477711,"current_range_meters":6000,"station_id":"ce4bhh12rcd13ifvqfg0","pricing_plan_id":"cebpf4jnsgd1na2vs0mg"},{"bike_id":"f8d4799e-b33a-4a2d-98e1-6f065209ba18","system_id":"levelo_inurba_marseille","lat":43.29876,"lon":5.38907,"is_reserved":false,"is_disabled":false,"rental_uris":{"android":"levelo://app?vid=f8d4799e-b33a-4a2d-98e1-6f065209ba18","ios":"levelo://app?vid=f8d4799e-b33a-4a2d-98e1-6f065209ba18"},"vehicle_type_id":"4","last_reported":1744477711,"current_range_meters":6000,"station_id":"ce4bh392rcd13ifvqdl0","pricing_plan_id":"cebpf4jnsgd1na2vs0mg"},{"bike_id":"cebbd981-f7b5-48f9-8c75-461253630de7","system_id":"levelo_inurba_marseille","lat":43.31485,"lon":5.37294,"is_reserved":false,"is_disabled":false,"rental_uris":{"android":"levelo://app?vid=cebbd981-f7b5-48f9-8c75-461253630de7","ios":"levelo://app?vid=cebbd981-f7b5-48f9-8c75-461253630de7"},"vehicle_type_id":"4","last_reported":1744477711,"current_range_meters":6000,"station_id":"ce4bgt12rcd13ifvqcd0","pricing_plan_id":"cebpf4jnsgd1na2vs0mg"},{"bike_id":"6fc0da46-f24c-4e32-86f1-d981464c0e53","system_id":"levelo_inurba_marseille","lat":43.28953,"lon":5.36395,"is_reserved":false,"is_disabled":false,"rental_uris":{"android":"levelo://app?vid=6fc0da46-f24c-4e32-86f1-d981464c0e53","ios":"levelo://app?vid=6fc0da46-f24c-4e32-86f1-d981464c0e53"},"vehicle_type_id":"4","last_reported":1744477711,"current_range_meters":6000,"station_id":"ce4bhc92rcd13ifvqetg","pricing_plan_id":"cebpf4jnsgd1na2vs0mg"},{"bike_id":"efcee75b-4053-4495-860c-bb64e59da9a6","system_id":"levelo_inurba_marseille","lat":43.29278,"lon":5.36841,"is_reserved":false,"is_disabled":false,"rental_uris":{"android":"levelo://app?vid=efcee75b-4053-4495-860c-bb64e59da9a6","ios":"levelo://app?vid=efcee75b-4053-4495-860c-bb64e59da9a6"},"vehicle_type_id":"4","last_reported":1744477711,"current_range_meters":6400,"station_id":"ce4bhbp2rcd13ifvqesg","pricing_plan_id":"cebpf4jnsgd1na2vs0mg"},{"bike_id":"42fc9c32-ef54-4eae-ad73-15cd0c92a3b8","system_id":"levelo_inurba_marseille","lat":43.30217,"lon":5.39479,"is_reserved":false,"is_disabled":false,"rental_uris":{"android":"levelo://app?vid=42fc9c32-ef54-4eae-ad73-15cd0c92a3b8","ios":"levelo://app?vid=42fc9c32-ef54-4eae-ad73-15cd0c92a3b8"},"vehicle_type_id":"4","last_reported":1744477711,"current_range_meters":6400,"station_id":"ce4bh0p2rcd13ifvqd70","pricing_plan_id":"cebpf4jnsgd1na2vs0mg"},{"bike_id":"94455896-0f19-4fae-bd72-9879f01fcd6e","system_id":"levelo_inurba_marseille","lat":43.29562,"lon":5.42308,"is_reserved":false,"is_disabled":true,"rental_uris":{"android":"levelo://app?vid=94455896-0f19-4fae-bd72-9879f01fcd6e","ios":"levelo://app?vid=94455896-0f19-4fae-bd72-9879f01fcd6e"},"vehicle_type_id":"4","last_reported":1744477711,"current_range_meters":6400,"station_id":"ce4bhph2rcd13ifvqhdg","pricing_plan_id":"cebpf4jnsgd1na2vs0mg"},{"bike_id":"25982b3a-fd56-4524-afe5-1d8b5cad8847","system_id":"levelo_inurba_marseille","lat":43.28939,"lon":5.36643,"is_reserved":false,"is_disabled":false,"rental_uris":{"android":"levelo://app?vid=25982b3a-fd56-4524-afe5-1d8b5cad8847","ios":"levelo://app?vid=25982b3a-fd56-4524-afe5-1d8b5cad8847"},"vehicle_type_id":"4","last_reported":1744477711,"current_range_meters":6400,"station_id":"ce4bhap2rcd13ifvqek0","pricing_plan_id":"cebpf4jnsgd1na2vs0mg"},{"bike_id":"90608a8e-3125-4bca-bbcd-496f6901db52","system_id":"levelo_inurba_marseille","lat":43.28666,"lon":5.36348,"is_reserved":false,"is_disabled":false,"rental_uris":{"android":"levelo://app?vid=90608a8e-3125-4bca-bbcd-496f6901db52","ios":"levelo://app?vid=90608a8e-3125-4bca-bbcd-496f6901db52"},"vehicle_type_id":"4","last_reported":1744477711,"current_range_meters":6000,"station_id":"ce4bhah2rcd13ifvqej0","pricing_plan_id":"cebpf4jnsgd1na2vs0mg"},{"bike_id":"cf60e51b-491a-4a15-bed9-a36738318e48","system_id":"levelo_inurba_marseille","lat":43.30117,"lon":5.39874,"is_reserved":false,"is_disabled":false,"rental_uris":{"android":"levelo://app?vid=cf60e51b-491a-4a15-bed9-a36738318e48","ios":"levelo://app?vid=cf60e51b-491a-4a15-bed9-a36738318e48"},"vehicle_type_id":"4","last_reported":1744477711,"current_range_meters":6800,"station_id":"ce4bh0h2rcd13ifvqd40","pricing_plan_id":"cebpf4jnsgd1na2vs0mg"},{"bike_id":"3ac73e63-1619-4c1b-a7d0-7311424e94ef","system_id":"levelo_inurba_marseille","lat":43.28987,"lon":5.37644,"is_reserved":false,"is_disabled":false,"rental_uris":{"android":"levelo://app?vid=3ac73e63-1619-4c1b-a7d0-7311424e94ef","ios":"levelo://app?vid=3ac73e63-1619-4c1b-a7d0-7311424e94ef"},"vehicle_type_id":"4","last_reported":1744477711,"current_range_meters":6800,"station_id":"","pricing_plan_id":"cebpf4jnsgd1na2vs0mg"},{"bike_id":"6da94dad-a672-49df-bea4-c2fb50ee8a22","system_id":"levelo_inurba_marseille","lat":43.23153,"lon":5.4372,"is_reserved":false,"is_disabled":false,"rental_uris":{"android":"levelo://app?vid=6da94dad-a672-49df-bea4-c2fb50ee8a22","ios":"levelo://app?vid=6da94dad-a672-49df-bea4-c2fb50ee8a22"},"vehicle_type_id":"4","last_reported":1744477711,"current_range_meters":6400,"station_id":"ce4bhmp2rcd13ifvqgog","pricing_plan_id":"cebpf4jnsgd1na2vs0mg"},{"bike_id":"20d92622-64f6-4b63-bdfe-ad69f1b1b786","system_id":"levelo_inurba_marseille","lat":43.29311,"lon":5.37451,"is_reserved":false,"is_disabled":false,"rental_uris":{"android":"levelo://app?vid=20d92622-64f6-4b63-bdfe-ad69f1b1b786","ios":"levelo://app?vid=20d92622-64f6-4b63-bdfe-ad69f1b1b786"},"vehicle_type_id":"4","last_reported":1744477711,"current_range_meters":6800,"station_id":"ce4bgi12rcd13ifvqb70","pricing_plan_id":"cebpf4jnsgd1na2vs0mg"},{"bike_id":"77d41379-cc95-4645-adbc-3bb1398b6949","system_id":"levelo_inurba_marseille","lat":43.2318,"lon":5.3559,"is_reserved":false,"is_disabled":false,"rental_uris":{"android":"levelo://app?vid=77d41379-cc95-4645-adbc-3bb1398b6949","ios":"levelo://app?vid=77d41379-cc95-4645-adbc-3bb1398b6949"},"vehicle_type_id":"4","last_reported":1744477711,"current_range_meters":6800,"station_id":"ce4bhu92rcd13ifvqi70","pricing_plan_id":"cebpf4jnsgd1na2vs0mg"},{"bike_id":"7dc6f05c-f257-4d62-b71b-a2b97753d797","system_id":"levelo_inurba_marseille","lat":43.30533,"lon":5.38433,"is_reserved":false,"is_disabled":true,"rental_uris":{"android":"levelo://app?vid=7dc6f05c-f257-4d62-b71b-a2b97753d797","ios":"levelo://app?vid=7dc6f05c-f257-4d62-b71b-a2b97753d797"},"vehicle_type_id":"4","last_reported":1744477711,"current_range_meters":6800,"station_id":"ce4bgg92rcd13ifvqb30","pricing_plan_id":"cebpf4jnsgd1na2vs0mg"},{"bike_id":"55907de7-5587-4a66-8c17-8697d0c300d2","system_id":"levelo_inurba_marseille","lat":43.26924,"lon":5.40234,"is_reserved":false,"is_disabled":false,"rental_uris":{"android":"levelo://app?vid=55907de7-5587-4a66-8c17-8697d0c300d2","ios":"levelo://app?vid=55907de7-5587-4a66-8c17-8697d0c300d2"},"vehicle_type_id":"4","last_reported":1744477711,"current_range_meters":6400,"station_id":"cjm6bp8fraef2m0cb0m0","pricing_plan_id":"cebpf4jnsgd1na2vs0mg"},{"bike_id":"70b79363-26ad-44f4-ae07-e85ad4456aba","system_id":"levelo_inurba_marseille","lat":43.27611,"lon":5.36125,"is_reserved":false,"is_disabled":false,"rental_uris":{"android":"levelo://app?vid=70b79363-26ad-44f4-ae07-e85ad4456aba","ios":"levelo://app?vid=70b79363-26ad-44f4-ae07-e85ad4456aba"},"vehicle_type_id":"4","last_reported":1744477711,"current_range_meters":6800,"station_id":"ce4bgj92rcd13ifvqbe0","pricing_plan_id":"cebpf4jnsgd1na2vs0mg"},{"bike_id":"3f08cc69-711e-4264-b923-68891203ffa4","system_id":"levelo_inurba_marseille","lat":43.32285,"lon":5.38243,"is_reserved":false,"is_disabled":false,"rental_uris":{"android":"levelo://app?vid=3f08cc69-711e-4264-b923-68891203ffa4","ios":"levelo://app?vid=3f08cc69-711e-4264-b923-68891203ffa4"},"vehicle_type_id":"4","last_reported":1744477711,"current_range_meters":6800,"station_id":"ce4bhr12rcd13ifvqhqg","pricing_plan_id":"cebpf4jnsgd1na2vs0mg"},{"bike_id":"e5f16e14-a60e-4fee-bc7e-c4cf9835dec0","system_id":"levelo_inurba_marseille","lat":43.28924,"lon":5.38401,"is_reserved":false,"is_disabled":false,"rental_uris":{"android":"levelo://app?vid=e5f16e14-a60e-4fee-bc7e-c4cf9835dec0","ios":"levelo://app?vid=e5f16e14-a60e-4fee-bc7e-c4cf9835dec0"},"vehicle_type_id":"4","last_reported":1744477711,"current_range_meters":6800,"station_id":"ce4bh612rcd13ifvqe6g","pricing_plan_id":"cebpf4jnsgd1na2vs0mg"},{"bike_id":"aca170bd-e3e6-4a20-b0e5-7eaa13adbbd5","system_id":"levelo_inurba_marseille","lat":43.287022,"lon":5.373757,"is_reserved":false,"is_disabled":false,"rental_uris":{"android":"levelo://app?vid=aca170bd-e3e6-4a20-b0e5-7eaa13adbbd5","ios":"levelo://app?vid=aca170bd-e3e6-4a20-b0e5-7eaa13adbbd5"},"vehicle_type_id":"4","last_reported":1744477711,"current_range_meters":6800,"station_id":"ce4bh3p2rcd13ifvqdq0","pricing_plan_id":"cebpf4jnsgd1na2vs0mg"},{"bike_id":"b6a95b50-4690-447d-884b-6d62694baaf3","system_id":"levelo_inurba_marseille","lat":43.25583,"lon":5.38243,"is_reserved":false,"is_disabled":false,"rental_uris":{"android":"levelo://app?vid=b6a95b50-4690-447d-884b-6d62694baaf3","ios":"levelo://app?vid=b6a95b50-4690-447d-884b-6d62694baaf3"},"vehicle_type_id":"4","last_reported":1744477711,"current_range_meters":6800,"station_id":"ce4bhih2rcd13ifvqfs0","pricing_plan_id":"cebpf4jnsgd1na2vs0mg"},{"bike_id":"8b463b3b-7a14-4f37-b228-97c50d8a27f5","system_id":"levelo_inurba_marseille","lat":43.273711,"lon":5.362518,"is_reserved":false,"is_disabled":false,"rental_uris":{"android":"levelo://app?vid=8b463b3b-7a14-4f37-b228-97c50d8a27f5","ios":"levelo://app?vid=8b463b3b-7a14-4f37-b228-97c50d8a27f5"},"vehicle_type_id":"4","last_reported":1744477711,"current_range_meters":6800,"station_id":"ce4bhbh2rcd13ifvqeo0","pricing_plan_id":"cebpf4jnsgd1na2vs0mg"},{"bike_id":"94a2d289-6a01-4914-95dd-c0bbac3ace54","system_id":"levelo_inurba_marseille","lat":43.295598,"lon":5.42282,"is_reserved":false,"is_disabled":false,"rental_uris":{"android":"levelo://app?vid=94a2d289-6a01-4914-95dd-c0bbac3ace54","ios":"levelo://app?vid=94a2d289-6a01-4914-95dd-c0bbac3ace54"},"vehicle_type_id":"4","last_reported":1744477711,"current_range_meters":7200,"station_id":"ce4bhph2rcd13ifvqhdg","pricing_plan_id":"cebpf4jnsgd1na2vs0mg"},{"bike_id":"626621de-70cc-4a47-8af0-5a03ff881523","system_id":"levelo_inurba_marseille","lat":43.28616,"lon":5.37055,"is_reserved":false,"is_disabled":false,"rental_uris":{"android":"levelo://app?vid=626621de-70cc-4a47-8af0-5a03ff881523","ios":"levelo://app?vid=626621de-70cc-4a47-8af0-5a03ff881523"},"vehicle_type_id":"4","last_reported":1744477711,"current_range_meters":7200,"station_id":"ce4bht12rcd13ifvqi60","pricing_plan_id":"cebpf4jnsgd1na2vs0mg"},{"bike_id":"1770169d-6ae6-43c0-9159-0693d77411fd","system_id":"levelo_inurba_marseille","lat":43.290114,"lon":5.356067,"is_reserved":false,"is_disabled":false,"rental_uris":{"android":"levelo://app?vid=1770169d-6ae6-43c0-9159-0693d77411fd","ios":"levelo://app?vid=1770169d-6ae6-43c0-9159-0693d77411fd"},"vehicle_type_id":"4","last_reported":1744477711,"current_range_meters":7200,"station_id":"ce4bhih2rcd13ifvqfs0","pricing_plan_id":"cebpf4jnsgd1na2vs0mg"},{"bike_id":"cc83a7aa-57a1-4769-9137-8531613b4691","system_id":"levelo_inurba_marseille","lat":43.31261,"lon":5.37316,"is_reserved":false,"is_disabled":false,"rental_uris":{"android":"levelo://app?vid=cc83a7aa-57a1-4769-9137-8531613b4691","ios":"levelo://app?vid=cc83a7aa-57a1-4769-9137-8531613b4691"},"vehicle_type_id":"4","last_reported":1744477711,"current_range_meters":7200,"station_id":"","pricing_plan_id":"cebpf4jnsgd1na2vs0mg"},{"bike_id":"61087c9c-58a2-45af-89fa-c020f9313355","system_id":"levelo_inurba_marseille","lat":43.21754,"lon":5.34618,"is_reserved":false,"is_disabled":true,"rental_uris":{"android":"levelo://app?vid=61087c9c-58a2-45af-89fa-c020f9313355","ios":"levelo://app?vid=61087c9c-58a2-45af-89fa-c020f9313355"},"vehicle_type_id":"4","last_reported":1744477711,"current_range_meters":7200,"station_id":"st_cvj6r9ubvosntc0bgbag","pricing_plan_id":"cebpf4jnsgd1na2vs0mg"},{"bike_id":"f647242f-484f-4574-9add-aa5de4fc7a35","system_id":"levelo_inurba_marseille","lat":43.26937,"lon":5.40263,"is_reserved":false,"is_disabled":false,"rental_uris":{"android":"levelo://app?vid=f647242f-484f-4574-9add-aa5de4fc7a35","ios":"levelo://app?vid=f647242f-484f-4574-9add-aa5de4fc7a35"},"vehicle_type_id":"4","last_reported":1744477711,"current_range_meters":7200,"station_id":"cjm6bp8fraef2m0cb0m0","pricing_plan_id":"cebpf4jnsgd1na2vs0mg"},{"bike_id":"5a68b6bf-2d6e-4964-9fe2-47d3c0b943ff","system_id":"levelo_inurba_marseille","lat":43.25504,"lon":5.37654,"is_reserved":false,"is_disabled":false,"rental_uris":{"android":"levelo://app?vid=5a68b6bf-2d6e-4964-9fe2-47d3c0b943ff","ios":"levelo://app?vid=5a68b6bf-2d6e-4964-9fe2-47d3c0b943ff"},"vehicle_type_id":"4","last_reported":1744477711,"current_range_meters":7200,"station_id":"ce4bhh12rcd13ifvqff0","pricing_plan_id":"cebpf4jnsgd1na2vs0mg"},{"bike_id":"4a4f9a09-23e4-4fa8-ba79-2ce1ece4ae54","system_id":"levelo_inurba_marseille","lat":43.26939,"lon":5.4026,"is_reserved":false,"is_disabled":false,"rental_uris":{"android":"levelo://app?vid=4a4f9a09-23e4-4fa8-ba79-2ce1ece4ae54","ios":"levelo://app?vid=4a4f9a09-23e4-4fa8-ba79-2ce1ece4ae54"},"vehicle_type_id":"4","last_reported":1744477711,"current_range_meters":7200,"station_id":"cjm6bp8fraef2m0cb0m0","pricing_plan_id":"cebpf4jnsgd1na2vs0mg"},{"bike_id":"b8c803e9-c261-406c-9228-54f18b07b42e","system_id":"levelo_inurba_marseille","lat":43.292725,"lon":5.368431,"is_reserved":false,"is_disabled":false,"rental_uris":{"android":"levelo://app?vid=b8c803e9-c261-406c-9228-54f18b07b42e","ios":"levelo://app?vid=b8c803e9-c261-406c-9228-54f18b07b42e"},"vehicle_type_id":"4","last_reported":1744477711,"current_range_meters":7200,"station_id":"ce4bhbp2rcd13ifvqesg","pricing_plan_id":"cebpf4jnsgd1na2vs0mg"},{"bike_id":"4abe501c-c645-4ddf-af31-a5dccb9b28e9","system_id":"levelo_inurba_marseille","lat":43.31692,"lon":5.40479,"is_reserved":false,"is_disabled":false,"rental_uris":{"android":"levelo://app?vid=4abe501c-c645-4ddf-af31-a5dccb9b28e9","ios":"levelo://app?vid=4abe501c-c645-4ddf-af31-a5dccb9b28e9"},"vehicle_type_id":"4","last_reported":1744477711,"current_range_meters":6800,"station_id":"ce4bh012rcd13ifvqd00","pricing_plan_id":"cebpf4jnsgd1na2vs0mg"},{"bike_id":"9e89e923-5004-42e4-b200-038991340b97","system_id":"levelo_inurba_marseille","lat":43.294171,"lon":5.386336,"is_reserved":false,"is_disabled":false,"rental_uris":{"android":"levelo://app?vid=9e89e923-5004-42e4-b200-038991340b97","ios":"levelo://app?vid=9e89e923-5004-42e4-b200-038991340b97"},"vehicle_type_id":"4","last_reported":1744477711,"current_range_meters":7200,"station_id":"ce4bh2h2rcd13ifvqdh0","pricing_plan_id":"cebpf4jnsgd1na2vs0mg"},{"bike_id":"038bb8eb-7498-4bc0-bda9-9d623e503983","system_id":"levelo_inurba_marseille","lat":43.28969,"lon":5.37843,"is_reserved":false,"is_disabled":false,"rental_uris":{"android":"levelo://app?vid=038bb8eb-7498-4bc0-bda9-9d623e503983","ios":"levelo://app?vid=038bb8eb-7498-4bc0-bda9-9d623e503983"},"vehicle_type_id":"4","last_reported":1744477711,"current_range_meters":7200,"station_id":"ce4bh9p2rcd13ifvqed0","pricing_plan_id":"cebpf4jnsgd1na2vs0mg"},{"bike_id":"2dee5747-83bf-47ec-a697-8deb3a7e1faf","system_id":"levelo_inurba_marseille","lat":43.30805,"lon":5.43522,"is_reserved":false,"is_disabled":false,"rental_uris":{"android":"levelo://app?vid=2dee5747-83bf-47ec-a697-8deb3a7e1faf","ios":"levelo://app?vid=2dee5747-83bf-47ec-a697-8deb3a7e1faf"},"vehicle_type_id":"4","last_reported":1744477711,"current_range_meters":8000,"station_id":"ce4bhph2rcd13ifvqheg","pricing_plan_id":"cebpf4jnsgd1na2vs0mg"},{"bike_id":"e524e199-d573-4d65-acc8-4e08ac3eebbe","system_id":"levelo_inurba_marseille","lat":43.27918,"lon":5.39574,"is_reserved":false,"is_disabled":false,"rental_uris":{"android":"levelo://app?vid=e524e199-d573-4d65-acc8-4e08ac3eebbe","ios":"levelo://app?vid=e524e199-d573-4d65-acc8-4e08ac3eebbe"},"vehicle_type_id":"4","last_reported":1744477711,"current_range_meters":8000,"station_id":"ce4bhf92rcd13ifvqf40","pricing_plan_id":"cebpf4jnsgd1na2vs0mg"},{"bike_id":"1864e757-7977-4a72-a391-8d479967e5fb","system_id":"levelo_inurba_marseille","lat":43.28001,"lon":5.40013,"is_reserved":false,"is_disabled":false,"rental_uris":{"android":"levelo://app?vid=1864e757-7977-4a72-a391-8d479967e5fb","ios":"levelo://app?vid=1864e757-7977-4a72-a391-8d479967e5fb"},"vehicle_type_id":"4","last_reported":1744477711,"current_range_meters":7200,"station_id":"ce4bho92rcd13ifvqh4g","pricing_plan_id":"cebpf4jnsgd1na2vs0mg"},{"bike_id":"7524e303-5fd5-4654-89c2-6bfa0631a1d7","system_id":"levelo_inurba_marseille","lat":43.29197,"lon":5.39315,"is_reserved":false,"is_disabled":false,"rental_uris":{"android":"levelo://app?vid=7524e303-5fd5-4654-89c2-6bfa0631a1d7","ios":"levelo://app?vid=7524e303-5fd5-4654-89c2-6bfa0631a1d7"},"vehicle_type_id":"4","last_reported":1744477711,"current_range_meters":10000,"station_id":"ce4bh192rcd13ifvqdd0","pricing_plan_id":"cebpf4jnsgd1na2vs0mg"},{"bike_id":"96cdf350-007e-4732-ad7c-d91705630eeb","system_id":"levelo_inurba_marseille","lat":43.308943,"lon":5.371903,"is_reserved":false,"is_disabled":false,"rental_uris":{"android":"levelo://app?vid=96cdf350-007e-4732-ad7c-d91705630eeb","ios":"levelo://app?vid=96cdf350-007e-4732-ad7c-d91705630eeb"},"vehicle_type_id":"4","last_reported":1744477711,"current_range_meters":8000,"station_id":"ce4bh692rcd13ifvqea0","pricing_plan_id":"cebpf4jnsgd1na2vs0mg"},{"bike_id":"e9e8e27e-9aca-499d-ab8f-96c2afa7d289","system_id":"levelo_inurba_marseille","lat":43.27057,"lon":5.40268,"is_reserved":false,"is_disabled":false,"rental_uris":{"android":"levelo://app?vid=e9e8e27e-9aca-499d-ab8f-96c2afa7d289","ios":"levelo://app?vid=e9e8e27e-9aca-499d-ab8f-96c2afa7d289"},"vehicle_type_id":"4","last_reported":1744477711,"current_range_meters":8000,"station_id":"ce4bhk92rcd13ifvqgc0","pricing_plan_id":"cebpf4jnsgd1na2vs0mg"},{"bike_id":"f1e00540-c2d1-4f3b-ba05-711232888e6e","system_id":"levelo_inurba_marseille","lat":43.21755,"lon":5.34598,"is_reserved":false,"is_disabled":true,"rental_uris":{"android":"levelo://app?vid=f1e00540-c2d1-4f3b-ba05-711232888e6e","ios":"levelo://app?vid=f1e00540-c2d1-4f3b-ba05-711232888e6e"},"vehicle_type_id":"4","last_reported":1744477711,"current_range_meters":8000,"station_id":"st_cvj6r9ubvosntc0bgbag","pricing_plan_id":"cebpf4jnsgd1na2vs0mg"},{"bike_id":"4c56221a-0f46-4530-955a-7184a07c8a88","system_id":"levelo_inurba_marseille","lat":43.23214,"lon":5.35564,"is_reserved":false,"is_disabled":true,"rental_uris":{"android":"levelo://app?vid=4c56221a-0f46-4530-955a-7184a07c8a88","ios":"levelo://app?vid=4c56221a-0f46-4530-955a-7184a07c8a88"},"vehicle_type_id":"4","last_reported":1744477711,"current_range_meters":8000,"station_id":"ce4bhu92rcd13ifvqi70","pricing_plan_id":"cebpf4jnsgd1na2vs0mg"},{"bike_id":"cd56e7bc-9bae-4d3f-8afb-5deb3862f8ce","system_id":"levelo_inurba_marseille","lat":43.2738,"lon":5.36265,"is_reserved":false,"is_disabled":false,"rental_uris":{"android":"levelo://app?vid=cd56e7bc-9bae-4d3f-8afb-5deb3862f8ce","ios":"levelo://app?vid=cd56e7bc-9bae-4d3f-8afb-5deb3862f8ce"},"vehicle_type_id":"4","last_reported":1744477711,"current_range_meters":8000,"station_id":"ce4bhbh2rcd13ifvqeo0","pricing_plan_id":"cebpf4jnsgd1na2vs0mg"},{"bike_id":"1e61a04b-7d5d-4261-8d11-1a6143b3e8be","system_id":"levelo_inurba_marseille","lat":43.24808,"lon":5.37456,"is_reserved":false,"is_disabled":false,"rental_uris":{"android":"levelo://app?vid=1e61a04b-7d5d-4261-8d11-1a6143b3e8be","ios":"levelo://app?vid=1e61a04b-7d5d-4261-8d11-1a6143b3e8be"},"vehicle_type_id":"4","last_reported":1744477711,"current_range_meters":8400,"station_id":"ce4bhgh2rcd13ifvqfb0","pricing_plan_id":"cebpf4jnsgd1na2vs0mg"},{"bike_id":"941d031c-432b-4c3d-9ebb-d13a44060126","system_id":"levelo_inurba_marseille","lat":43.28722,"lon":5.36097,"is_reserved":false,"is_disabled":false,"rental_uris":{"android":"levelo://app?vid=941d031c-432b-4c3d-9ebb-d13a44060126","ios":"levelo://app?vid=941d031c-432b-4c3d-9ebb-d13a44060126"},"vehicle_type_id":"4","last_reported":1744477711,"current_range_meters":8400,"station_id":"cki0cbj6b192h4jlfktg","pricing_plan_id":"cebpf4jnsgd1na2vs0mg"},{"bike_id":"a7c09bca-4213-47a5-8859-bb08314ae93f","system_id":"levelo_inurba_marseille","lat":43.29603,"lon":5.38102,"is_reserved":false,"is_disabled":false,"rental_uris":{"android":"levelo://app?vid=a7c09bca-4213-47a5-8859-bb08314ae93f","ios":"levelo://app?vid=a7c09bca-4213-47a5-8859-bb08314ae93f"},"vehicle_type_id":"4","last_reported":1744477711,"current_range_meters":8400,"station_id":"ce4bgl12rcd13ifvqbo0","pricing_plan_id":"cebpf4jnsgd1na2vs0mg"},{"bike_id":"72adaa87-94dc-4774-aca0-5147bc57bd16","system_id":"levelo_inurba_marseille","lat":43.26025,"lon":5.41732,"is_reserved":false,"is_disabled":false,"rental_uris":{"android":"levelo://app?vid=72adaa87-94dc-4774-aca0-5147bc57bd16","ios":"levelo://app?vid=72adaa87-94dc-4774-aca0-5147bc57bd16"},"vehicle_type_id":"4","last_reported":1744477711,"current_range_meters":8400,"station_id":"","pricing_plan_id":"cebpf4jnsgd1na2vs0mg"},{"bike_id":"5763ee71-4e67-46bc-b3c9-44f5e5899e97","system_id":"levelo_inurba_marseille","lat":43.32367,"lon":5.38891,"is_reserved":false,"is_disabled":false,"rental_uris":{"android":"levelo://app?vid=5763ee71-4e67-46bc-b3c9-44f5e5899e97","ios":"levelo://app?vid=5763ee71-4e67-46bc-b3c9-44f5e5899e97"},"vehicle_type_id":"4","last_reported":1744477711,"current_range_meters":8400,"station_id":"ce4bhqp2rcd13ifvqhog","pricing_plan_id":"cebpf4jnsgd1na2vs0mg"},{"bike_id":"0d28cf4f-43da-473d-8dd8-6caca8b081c3","system_id":"levelo_inurba_marseille","lat":43.25496,"lon":5.37636,"is_reserved":false,"is_disabled":false,"rental_uris":{"android":"levelo://app?vid=0d28cf4f-43da-473d-8dd8-6caca8b081c3","ios":"levelo://app?vid=0d28cf4f-43da-473d-8dd8-6caca8b081c3"},"vehicle_type_id":"4","last_reported":1744477711,"current_range_meters":8400,"station_id":"ce4bhh12rcd13ifvqff0","pricing_plan_id":"cebpf4jnsgd1na2vs0mg"},{"bike_id":"5eb4e31c-bfa6-480f-9aed-f55da93c23a6","system_id":"levelo_inurba_marseille","lat":43.24812,"lon":5.3745,"is_reserved":false,"is_disabled":false,"rental_uris":{"android":"levelo://app?vid=5eb4e31c-bfa6-480f-9aed-f55da93c23a6","ios":"levelo://app?vid=5eb4e31c-bfa6-480f-9aed-f55da93c23a6"},"vehicle_type_id":"4","last_reported":1744477711,"current_range_meters":8800,"station_id":"ce4bhgh2rcd13ifvqfb0","pricing_plan_id":"cebpf4jnsgd1na2vs0mg"},{"bike_id":"597b7968-cf2d-4808-94ee-ae8835b898e2","system_id":"levelo_inurba_marseille","lat":43.29263,"lon":5.38452,"is_reserved":false,"is_disabled":false,"rental_uris":{"android":"levelo://app?vid=597b7968-cf2d-4808-94ee-ae8835b898e2","ios":"levelo://app?vid=597b7968-cf2d-4808-94ee-ae8835b898e2"},"vehicle_type_id":"4","last_reported":1744477711,"current_range_meters":8800,"station_id":"ce4bh692rcd13ifvqea0","pricing_plan_id":"cebpf4jnsgd1na2vs0mg"},{"bike_id":"d6078954-2cc6-4517-b1b1-a253abb2884c","system_id":"levelo_inurba_marseille","lat":43.29538,"lon":5.394006,"is_reserved":false,"is_disabled":false,"rental_uris":{"android":"levelo://app?vid=d6078954-2cc6-4517-b1b1-a253abb2884c","ios":"levelo://app?vid=d6078954-2cc6-4517-b1b1-a253abb2884c"},"vehicle_type_id":"4","last_reported":1744477711,"current_range_meters":8800,"station_id":"ce4bh292rcd13ifvqdg0","pricing_plan_id":"cebpf4jnsgd1na2vs0mg"},{"bike_id":"d0aa0b98-b4d9-41cd-84fa-f6d12391f95a","system_id":"levelo_inurba_marseille","lat":43.33603,"lon":5.41028,"is_reserved":false,"is_disabled":false,"rental_uris":{"android":"levelo://app?vid=d0aa0b98-b4d9-41cd-84fa-f6d12391f95a","ios":"levelo://app?vid=d0aa0b98-b4d9-41cd-84fa-f6d12391f95a"},"vehicle_type_id":"4","last_reported":1744477711,"current_range_meters":8400,"station_id":"ce4bhqh2rcd13ifvqhmg","pricing_plan_id":"cebpf4jnsgd1na2vs0mg"},{"bike_id":"38c0a90c-3b44-4d21-a39b-fd16d4c0a4a7","system_id":"levelo_inurba_marseille","lat":43.27502,"lon":5.42463,"is_reserved":false,"is_disabled":false,"rental_uris":{"android":"levelo://app?vid=38c0a90c-3b44-4d21-a39b-fd16d4c0a4a7","ios":"levelo://app?vid=38c0a90c-3b44-4d21-a39b-fd16d4c0a4a7"},"vehicle_type_id":"4","last_reported":1744477711,"current_range_meters":8800,"station_id":"ce4bhn92rcd13ifvqgrg","pricing_plan_id":"cebpf4jnsgd1na2vs0mg"},{"bike_id":"fd989452-0b9b-4112-9178-47c837f10ba4","system_id":"levelo_inurba_marseille","lat":43.27217,"lon":5.39137,"is_reserved":false,"is_disabled":false,"rental_uris":{"android":"levelo://app?vid=fd989452-0b9b-4112-9178-47c837f10ba4","ios":"levelo://app?vid=fd989452-0b9b-4112-9178-47c837f10ba4"},"vehicle_type_id":"4","last_reported":1744477711,"current_range_meters":8800,"station_id":"ce4bhhp2rcd13ifvqfm0","pricing_plan_id":"cebpf4jnsgd1na2vs0mg"},{"bike_id":"97fb5581-a59d-43f9-88fd-3086243a2dfe","system_id":"levelo_inurba_marseille","lat":43.29713,"lon":5.36616,"is_reserved":false,"is_disabled":false,"rental_uris":{"android":"levelo://app?vid=97fb5581-a59d-43f9-88fd-3086243a2dfe","ios":"levelo://app?vid=97fb5581-a59d-43f9-88fd-3086243a2dfe"},"vehicle_type_id":"4","last_reported":1744477711,"current_range_meters":8800,"station_id":"ce4bgn12rcd13ifvqbt0","pricing_plan_id":"cebpf4jnsgd1na2vs0mg"},{"bike_id":"4aba7ee2-5e3f-4390-9c7e-fa01b4b7e015","system_id":"levelo_inurba_marseille","lat":43.309434,"lon":5.390368,"is_reserved":false,"is_disabled":false,"rental_uris":{"android":"levelo://app?vid=4aba7ee2-5e3f-4390-9c7e-fa01b4b7e015","ios":"levelo://app?vid=4aba7ee2-5e3f-4390-9c7e-fa01b4b7e015"},"vehicle_type_id":"4","last_reported":1744477711,"current_range_meters":8800,"station_id":"ce4bgup2rcd13ifvqco0","pricing_plan_id":"cebpf4jnsgd1na2vs0mg"},{"bike_id":"8c58f2fa-99e1-41f8-bf90-9c1648b679b1","system_id":"levelo_inurba_marseille","lat":43.27329,"lon":5.415,"is_reserved":false,"is_disabled":false,"rental_uris":{"android":"levelo://app?vid=8c58f2fa-99e1-41f8-bf90-9c1648b679b1","ios":"levelo://app?vid=8c58f2fa-99e1-41f8-bf90-9c1648b679b1"},"vehicle_type_id":"4","last_reported":1744477711,"current_range_meters":8800,"station_id":"","pricing_plan_id":"cebpf4jnsgd1na2vs0mg"},{"bike_id":"37864421-51e4-4d5e-801c-7ac32e01e722","system_id":"levelo_inurba_marseille","lat":43.31291,"lon":5.37859,"is_reserved":false,"is_disabled":false,"rental_uris":{"android":"levelo://app?vid=37864421-51e4-4d5e-801c-7ac32e01e722","ios":"levelo://app?vid=37864421-51e4-4d5e-801c-7ac32e01e722"},"vehicle_type_id":"4","last_reported":1744477711,"current_range_meters":8800,"station_id":"","pricing_plan_id":"cebpf4jnsgd1na2vs0mg"},{"bike_id":"dc83c2eb-5a57-4b15-b007-4f64bb0228d3","system_id":"levelo_inurba_marseille","lat":43.30099,"lon":5.39085,"is_reserved":false,"is_disabled":false,"rental_uris":{"android":"levelo://app?vid=dc83c2eb-5a57-4b15-b007-4f64bb0228d3","ios":"levelo://app?vid=dc83c2eb-5a57-4b15-b007-4f64bb0228d3"},"vehicle_type_id":"4","last_reported":1744477711,"current_range_meters":9200,"station_id":"ce4bh192rcd13ifvqdb0","pricing_plan_id":"cebpf4jnsgd1na2vs0mg"},{"bike_id":"0db47e87-5a93-450c-856a-ef6a4a295fb3","system_id":"levelo_inurba_marseille","lat":43.289307,"lon":5.36642,"is_reserved":false,"is_disabled":false,"rental_uris":{"android":"levelo://app?vid=0db47e87-5a93-450c-856a-ef6a4a295fb3","ios":"levelo://app?vid=0db47e87-5a93-450c-856a-ef6a4a295fb3"},"vehicle_type_id":"4","last_reported":1744477711,"current_range_meters":9200,"station_id":"ce4bh692rcd13ifvqea0","pricing_plan_id":"cebpf4jnsgd1na2vs0mg"},{"bike_id":"4cedd733-2587-4eb1-87b3-3ab69e1574bc","system_id":"levelo_inurba_marseille","lat":43.28958,"lon":5.3663,"is_reserved":false,"is_disabled":false,"rental_uris":{"android":"levelo://app?vid=4cedd733-2587-4eb1-87b3-3ab69e1574bc","ios":"levelo://app?vid=4cedd733-2587-4eb1-87b3-3ab69e1574bc"},"vehicle_type_id":"4","last_reported":1744477711,"current_range_meters":9200,"station_id":"ce4bhap2rcd13ifvqek0","pricing_plan_id":"cebpf4jnsgd1na2vs0mg"},{"bike_id":"4c893399-b4ed-40ed-a49f-713da320f269","system_id":"levelo_inurba_marseille","lat":43.29861,"lon":5.37841,"is_reserved":false,"is_disabled":false,"rental_uris":{"android":"levelo://app?vid=4c893399-b4ed-40ed-a49f-713da320f269","ios":"levelo://app?vid=4c893399-b4ed-40ed-a49f-713da320f269"},"vehicle_type_id":"4","last_reported":1744477711,"current_range_meters":9200,"station_id":"","pricing_plan_id":"cebpf4jnsgd1na2vs0mg"},{"bike_id":"ec6f7006-3321-4db1-bf0c-14b3f92e978a","system_id":"levelo_inurba_marseille","lat":43.27068,"lon":5.40296,"is_reserved":false,"is_disabled":false,"rental_uris":{"android":"levelo://app?vid=ec6f7006-3321-4db1-bf0c-14b3f92e978a","ios":"levelo://app?vid=ec6f7006-3321-4db1-bf0c-14b3f92e978a"},"vehicle_type_id":"4","last_reported":1744477711,"current_range_meters":9200,"station_id":"ce4bhk92rcd13ifvqgc0","pricing_plan_id":"cebpf4jnsgd1na2vs0mg"},{"bike_id":"f6822e7a-80b8-42ed-bacf-3b1f927ee756","system_id":"levelo_inurba_marseille","lat":43.284104,"lon":5.375,"is_reserved":false,"is_disabled":false,"rental_uris":{"android":"levelo://app?vid=f6822e7a-80b8-42ed-bacf-3b1f927ee756","ios":"levelo://app?vid=f6822e7a-80b8-42ed-bacf-3b1f927ee756"},"vehicle_type_id":"4","last_reported":1744477711,"current_range_meters":9200,"station_id":"ce4bh412rcd13ifvqds0","pricing_plan_id":"cebpf4jnsgd1na2vs0mg"},{"bike_id":"eb37ec12-2a2f-4e2a-8ac0-ab5185e831d9","system_id":"levelo_inurba_marseille","lat":43.27914,"lon":5.39563,"is_reserved":false,"is_disabled":false,"rental_uris":{"android":"levelo://app?vid=eb37ec12-2a2f-4e2a-8ac0-ab5185e831d9","ios":"levelo://app?vid=eb37ec12-2a2f-4e2a-8ac0-ab5185e831d9"},"vehicle_type_id":"4","last_reported":1744477711,"current_range_meters":9600,"station_id":"ce4bhf92rcd13ifvqf40","pricing_plan_id":"cebpf4jnsgd1na2vs0mg"},{"bike_id":"c400e4b7-268d-4ac5-8f7a-3d44d49bb742","system_id":"levelo_inurba_marseille","lat":43.27387,"lon":5.36218,"is_reserved":false,"is_disabled":false,"rental_uris":{"android":"levelo://app?vid=c400e4b7-268d-4ac5-8f7a-3d44d49bb742","ios":"levelo://app?vid=c400e4b7-268d-4ac5-8f7a-3d44d49bb742"},"vehicle_type_id":"4","last_reported":1744477711,"current_range_meters":9600,"station_id":"","pricing_plan_id":"cebpf4jnsgd1na2vs0mg"},{"bike_id":"4e1e40b4-abad-49f3-bc3b-72241ac76e84","system_id":"levelo_inurba_marseille","lat":43.24806,"lon":5.37455,"is_reserved":false,"is_disabled":false,"rental_uris":{"android":"levelo://app?vid=4e1e40b4-abad-49f3-bc3b-72241ac76e84","ios":"levelo://app?vid=4e1e40b4-abad-49f3-bc3b-72241ac76e84"},"vehicle_type_id":"4","last_reported":1744477711,"current_range_meters":9600,"station_id":"ce4bhgh2rcd13ifvqfb0","pricing_plan_id":"cebpf4jnsgd1na2vs0mg"},{"bike_id":"817bba5b-25b7-4006-b170-4e212c5942dc","system_id":"levelo_inurba_marseille","lat":43.23966,"lon":5.36637,"is_reserved":false,"is_disabled":false,"rental_uris":{"android":"levelo://app?vid=817bba5b-25b7-4006-b170-4e212c5942dc","ios":"levelo://app?vid=817bba5b-25b7-4006-b170-4e212c5942dc"},"vehicle_type_id":"4","last_reported":1744477711,"current_range_meters":9200,"station_id":"ce4bhi12rcd13ifvqfp0","pricing_plan_id":"cebpf4jnsgd1na2vs0mg"},{"bike_id":"3890aa41-58cc-476c-8eac-9df5c375edb9","system_id":"levelo_inurba_marseille","lat":43.2836,"lon":5.38125,"is_reserved":false,"is_disabled":false,"rental_uris":{"android":"levelo://app?vid=3890aa41-58cc-476c-8eac-9df5c375edb9","ios":"levelo://app?vid=3890aa41-58cc-476c-8eac-9df5c375edb9"},"vehicle_type_id":"4","last_reported":1744477711,"current_range_meters":9600,"station_id":"ce4bh412rcd13ifvqdr0","pricing_plan_id":"cebpf4jnsgd1na2vs0mg"},{"bike_id":"4a0973b0-92a0-41e8-9b0d-a99e944bafe0","system_id":"levelo_inurba_marseille","lat":43.34512,"lon":5.41319,"is_reserved":false,"is_disabled":false,"rental_uris":{"android":"levelo://app?vid=4a0973b0-92a0-41e8-9b0d-a99e944bafe0","ios":"levelo://app?vid=4a0973b0-92a0-41e8-9b0d-a99e944bafe0"},"vehicle_type_id":"4","last_reported":1744477711,"current_range_meters":9600,"station_id":"","pricing_plan_id":"cebpf4jnsgd1na2vs0mg"},{"bike_id":"3391b966-dff0-4f51-a7e8-1800959f3a41","system_id":"levelo_inurba_marseille","lat":43.26036,"lon":5.37552,"is_reserved":false,"is_disabled":false,"rental_uris":{"android":"levelo://app?vid=3391b966-dff0-4f51-a7e8-1800959f3a41","ios":"levelo://app?vid=3391b966-dff0-4f51-a7e8-1800959f3a41"},"vehicle_type_id":"4","last_reported":1744477711,"current_range_meters":9200,"station_id":"ce4bhgh2rcd13ifvqfa0","pricing_plan_id":"cebpf4jnsgd1na2vs0mg"},{"bike_id":"d16ef7b5-05e4-411a-be23-d90a223a44eb","system_id":"levelo_inurba_marseille","lat":43.28487,"lon":5.38415,"is_reserved":false,"is_disabled":false,"rental_uris":{"android":"levelo://app?vid=d16ef7b5-05e4-411a-be23-d90a223a44eb","ios":"levelo://app?vid=d16ef7b5-05e4-411a-be23-d90a223a44eb"},"vehicle_type_id":"4","last_reported":1744477711,"current_range_meters":9600,"station_id":"ce4bh512rcd13ifvqe3g","pricing_plan_id":"cebpf4jnsgd1na2vs0mg"},{"bike_id":"851458ab-edc8-40f8-bcf6-0566009d4329","system_id":"levelo_inurba_marseille","lat":43.26495,"lon":5.39562,"is_reserved":false,"is_disabled":false,"rental_uris":{"android":"levelo://app?vid=851458ab-edc8-40f8-bcf6-0566009d4329","ios":"levelo://app?vid=851458ab-edc8-40f8-bcf6-0566009d4329"},"vehicle_type_id":"4","last_reported":1744477711,"current_range_meters":9600,"station_id":"ce4bhi12rcd13ifvqfq0","pricing_plan_id":"cebpf4jnsgd1na2vs0mg"},{"bike_id":"88802da1-90f2-4aff-90a1-c3598e933096","system_id":"levelo_inurba_marseille","lat":43.30337,"lon":5.39282,"is_reserved":false,"is_disabled":false,"rental_uris":{"android":"levelo://app?vid=88802da1-90f2-4aff-90a1-c3598e933096","ios":"levelo://app?vid=88802da1-90f2-4aff-90a1-c3598e933096"},"vehicle_type_id":"4","last_reported":1744477711,"current_range_meters":9600,"station_id":"","pricing_plan_id":"cebpf4jnsgd1na2vs0mg"},{"bike_id":"fba14dc4-f065-46f4-a67b-b47ee9a5123b","system_id":"levelo_inurba_marseille","lat":43.293069,"lon":5.371836,"is_reserved":false,"is_disabled":true,"rental_uris":{"android":"levelo://app?vid=fba14dc4-f065-46f4-a67b-b47ee9a5123b","ios":"levelo://app?vid=fba14dc4-f065-46f4-a67b-b47ee9a5123b"},"vehicle_type_id":"4","last_reported":1744477711,"current_range_meters":10000,"station_id":"ce4bgh92rcd13ifvqb40","pricing_plan_id":"cebpf4jnsgd1na2vs0mg"},{"bike_id":"1f90db5e-ecd4-4ef8-a36e-f9b3bb72e191","system_id":"levelo_inurba_marseille","lat":43.25495,"lon":5.37649,"is_reserved":false,"is_disabled":false,"rental_uris":{"android":"levelo://app?vid=1f90db5e-ecd4-4ef8-a36e-f9b3bb72e191","ios":"levelo://app?vid=1f90db5e-ecd4-4ef8-a36e-f9b3bb72e191"},"vehicle_type_id":"4","last_reported":1744477711,"current_range_meters":10000,"station_id":"ce4bhh12rcd13ifvqff0","pricing_plan_id":"cebpf4jnsgd1na2vs0mg"},{"bike_id":"d53356ed-34e7-4ce0-8d94-e073954cdd85","system_id":"levelo_inurba_marseille","lat":43.27063,"lon":5.40264,"is_reserved":false,"is_disabled":true,"rental_uris":{"android":"levelo://app?vid=d53356ed-34e7-4ce0-8d94-e073954cdd85","ios":"levelo://app?vid=d53356ed-34e7-4ce0-8d94-e073954cdd85"},"vehicle_type_id":"4","last_reported":1744477711,"current_range_meters":10000,"station_id":"ce4bhk92rcd13ifvqgc0","pricing_plan_id":"cebpf4jnsgd1na2vs0mg"},{"bike_id":"c013d600-5e08-48f0-830e-8c965978436b","system_id":"levelo_inurba_marseille","lat":43.30442,"lon":5.3891,"is_reserved":false,"is_disabled":true,"rental_uris":{"android":"levelo://app?vid=c013d600-5e08-48f0-830e-8c965978436b","ios":"levelo://app?vid=c013d600-5e08-48f0-830e-8c965978436b"},"vehicle_type_id":"4","last_reported":1744477711,"current_range_meters":10000,"station_id":"ce4bgk12rcd13ifvqbi0","pricing_plan_id":"cebpf4jnsgd1na2vs0mg"},{"bike_id":"078ea0f1-34a0-4a54-bdcd-f1c409806144","system_id":"levelo_inurba_marseille","lat":43.29084,"lon":5.3815,"is_reserved":false,"is_disabled":false,"rental_uris":{"android":"levelo://app?vid=078ea0f1-34a0-4a54-bdcd-f1c409806144","ios":"levelo://app?vid=078ea0f1-34a0-4a54-bdcd-f1c409806144"},"vehicle_type_id":"4","last_reported":1744477711,"current_range_meters":10000,"station_id":"ce4bh512rcd13ifvqe2g","pricing_plan_id":"cebpf4jnsgd1na2vs0mg"},{"bike_id":"2a9db7bf-29c1-4236-8457-4c65a470aa85","system_id":"levelo_inurba_marseille","lat":43.2894,"lon":5.39636,"is_reserved":false,"is_disabled":false,"rental_uris":{"android":"levelo://app?vid=2a9db7bf-29c1-4236-8457-4c65a470aa85","ios":"levelo://app?vid=2a9db7bf-29c1-4236-8457-4c65a470aa85"},"vehicle_type_id":"4","last_reported":1744477711,"current_range_meters":9600,"station_id":"ce4bh3h2rcd13ifvqdn0","pricing_plan_id":"cebpf4jnsgd1na2vs0mg"},{"bike_id":"ef291804-1477-432e-b153-82ea15725418","system_id":"levelo_inurba_marseille","lat":43.33742,"lon":5.37454,"is_reserved":false,"is_disabled":false,"rental_uris":{"android":"levelo://app?vid=ef291804-1477-432e-b153-82ea15725418","ios":"levelo://app?vid=ef291804-1477-432e-b153-82ea15725418"},"vehicle_type_id":"4","last_reported":1744477711,"current_range_meters":10000,"station_id":"","pricing_plan_id":"cebpf4jnsgd1na2vs0mg"},{"bike_id":"a6ddee11-e1be-4252-9994-d84950956289","system_id":"levelo_inurba_marseille","lat":43.26922,"lon":5.40288,"is_reserved":false,"is_disabled":false,"rental_uris":{"android":"levelo://app?vid=a6ddee11-e1be-4252-9994-d84950956289","ios":"levelo://app?vid=a6ddee11-e1be-4252-9994-d84950956289"},"vehicle_type_id":"4","last_reported":1744477711,"current_range_meters":10000,"station_id":"cjm6bp8fraef2m0cb0m0","pricing_plan_id":"cebpf4jnsgd1na2vs0mg"},{"bike_id":"d31239fe-66af-42f0-9586-6db1cb21187d","system_id":"levelo_inurba_marseille","lat":43.27227,"lon":5.40944,"is_reserved":false,"is_disabled":false,"rental_uris":{"android":"levelo://app?vid=d31239fe-66af-42f0-9586-6db1cb21187d","ios":"levelo://app?vid=d31239fe-66af-42f0-9586-6db1cb21187d"},"vehicle_type_id":"4","last_reported":1744477711,"current_range_meters":9600,"station_id":"ce4bhl12rcd13ifvqgf0","pricing_plan_id":"cebpf4jnsgd1na2vs0mg"},{"bike_id":"05aec8b0-cb6f-4a11-abc6-62f45e219770","system_id":"levelo_inurba_marseille","lat":43.25499,"lon":5.37651,"is_reserved":false,"is_disabled":false,"rental_uris":{"android":"levelo://app?vid=05aec8b0-cb6f-4a11-abc6-62f45e219770","ios":"levelo://app?vid=05aec8b0-cb6f-4a11-abc6-62f45e219770"},"vehicle_type_id":"4","last_reported":1744477711,"current_range_meters":10000,"station_id":"ce4bhh12rcd13ifvqff0","pricing_plan_id":"cebpf4jnsgd1na2vs0mg"},{"bike_id":"8173fe24-7dbb-4db1-a3cb-7709bd1e669a","system_id":"levelo_inurba_marseille","lat":43.29592,"lon":5.37534,"is_reserved":false,"is_disabled":false,"rental_uris":{"android":"levelo://app?vid=8173fe24-7dbb-4db1-a3cb-7709bd1e669a","ios":"levelo://app?vid=8173fe24-7dbb-4db1-a3cb-7709bd1e669a"},"vehicle_type_id":"4","last_reported":1744477711,"current_range_meters":10800,"station_id":"ce4bgh92rcd13ifvqb50","pricing_plan_id":"cebpf4jnsgd1na2vs0mg"},{"bike_id":"cfbcab03-e55d-4773-af8b-18bf4756c9be","system_id":"levelo_inurba_marseille","lat":43.25501,"lon":5.37673,"is_reserved":false,"is_disabled":false,"rental_uris":{"android":"levelo://app?vid=cfbcab03-e55d-4773-af8b-18bf4756c9be","ios":"levelo://app?vid=cfbcab03-e55d-4773-af8b-18bf4756c9be"},"vehicle_type_id":"4","last_reported":1744477711,"current_range_meters":10800,"station_id":"ce4bhh12rcd13ifvqff0","pricing_plan_id":"cebpf4jnsgd1na2vs0mg"},{"bike_id":"86e3fd62-ce53-4f21-93c1-2fb7456de3cf","system_id":"levelo_inurba_marseille","lat":43.23059,"lon":5.35496,"is_reserved":false,"is_disabled":false,"rental_uris":{"android":"levelo://app?vid=86e3fd62-ce53-4f21-93c1-2fb7456de3cf","ios":"levelo://app?vid=86e3fd62-ce53-4f21-93c1-2fb7456de3cf"},"vehicle_type_id":"4","last_reported":1744477711,"current_range_meters":10800,"station_id":"cpo3342slgdg3j2ifvpg","pricing_plan_id":"cebpf4jnsgd1na2vs0mg"},{"bike_id":"7ee5eda4-1844-4f92-8f87-a6fcdd759dad","system_id":"levelo_inurba_marseille","lat":43.28969,"lon":5.37833,"is_reserved":false,"is_disabled":false,"rental_uris":{"android":"levelo://app?vid=7ee5eda4-1844-4f92-8f87-a6fcdd759dad","ios":"levelo://app?vid=7ee5eda4-1844-4f92-8f87-a6fcdd759dad"},"vehicle_type_id":"4","last_reported":1744477711,"current_range_meters":10000,"station_id":"ce4bh9p2rcd13ifvqed0","pricing_plan_id":"cebpf4jnsgd1na2vs0mg"},{"bike_id":"caa5a1be-f4c2-4709-8960-0946b67208ca","system_id":"levelo_inurba_marseille","lat":43.28617,"lon":5.37065,"is_reserved":false,"is_disabled":false,"rental_uris":{"android":"levelo://app?vid=caa5a1be-f4c2-4709-8960-0946b67208ca","ios":"levelo://app?vid=caa5a1be-f4c2-4709-8960-0946b67208ca"},"vehicle_type_id":"4","last_reported":1744477711,"current_range_meters":10800,"station_id":"ce4bht12rcd13ifvqi60","pricing_plan_id":"cebpf4jnsgd1na2vs0mg"},{"bike_id":"078c06e3-8775-4e4c-b6ef-972a3f1ce242","system_id":"levelo_inurba_marseille","lat":43.29041,"lon":5.39974,"is_reserved":false,"is_disabled":false,"rental_uris":{"android":"levelo://app?vid=078c06e3-8775-4e4c-b6ef-972a3f1ce242","ios":"levelo://app?vid=078c06e3-8775-4e4c-b6ef-972a3f1ce242"},"vehicle_type_id":"4","last_reported":1744477711,"current_range_meters":10800,"station_id":"ce4bh392rcd13ifvqdm0","pricing_plan_id":"cebpf4jnsgd1na2vs0mg"},{"bike_id":"fa7200cf-d860-491e-87e0-1d11dd680a9e","system_id":"levelo_inurba_marseille","lat":43.27937,"lon":5.4103,"is_reserved":false,"is_disabled":false,"rental_uris":{"android":"levelo://app?vid=fa7200cf-d860-491e-87e0-1d11dd680a9e","ios":"levelo://app?vid=fa7200cf-d860-491e-87e0-1d11dd680a9e"},"vehicle_type_id":"4","last_reported":1744477711,"current_range_meters":10800,"station_id":"ce4bhnp2rcd13ifvqh0g","pricing_plan_id":"cebpf4jnsgd1na2vs0mg"},{"bike_id":"ff04da71-52c6-498a-9176-f4475db3af7c","system_id":"levelo_inurba_marseille","lat":43.29037,"lon":5.37575,"is_reserved":false,"is_disabled":false,"rental_uris":{"android":"levelo://app?vid=ff04da71-52c6-498a-9176-f4475db3af7c","ios":"levelo://app?vid=ff04da71-52c6-498a-9176-f4475db3af7c"},"vehicle_type_id":"4","last_reported":1744477711,"current_range_meters":11200,"station_id":"ce4bh692rcd13ifvqe90","pricing_plan_id":"cebpf4jnsgd1na2vs0mg"},{"bike_id":"f7d1eee0-1715-419d-beac-1b98ec9e62ed","system_id":"levelo_inurba_marseille","lat":43.309558,"lon":5.390337,"is_reserved":false,"is_disabled":true,"rental_uris":{"android":"levelo://app?vid=f7d1eee0-1715-419d-beac-1b98ec9e62ed","ios":"levelo://app?vid=f7d1eee0-1715-419d-beac-1b98ec9e62ed"},"vehicle_type_id":"4","last_reported":1744477711,"current_range_meters":11200,"station_id":"ce4bgup2rcd13ifvqco0","pricing_plan_id":"cebpf4jnsgd1na2vs0mg"},{"bike_id":"a0c4ab74-4989-4036-ae85-3daf0b6b809d","system_id":"levelo_inurba_marseille","lat":43.30796,"lon":5.38148,"is_reserved":false,"is_disabled":false,"rental_uris":{"android":"levelo://app?vid=a0c4ab74-4989-4036-ae85-3daf0b6b809d","ios":"levelo://app?vid=a0c4ab74-4989-4036-ae85-3daf0b6b809d"},"vehicle_type_id":"4","last_reported":1744477711,"current_range_meters":10800,"station_id":"ce4bgt12rcd13ifvqce0","pricing_plan_id":"cebpf4jnsgd1na2vs0mg"},{"bike_id":"9b53f4b9-d1d4-4596-86e5-0c2f18c2702f","system_id":"levelo_inurba_marseille","lat":43.30934,"lon":5.40151,"is_reserved":false,"is_disabled":false,"rental_uris":{"android":"levelo://app?vid=9b53f4b9-d1d4-4596-86e5-0c2f18c2702f","ios":"levelo://app?vid=9b53f4b9-d1d4-4596-86e5-0c2f18c2702f"},"vehicle_type_id":"4","last_reported":1744477711,"current_range_meters":10800,"station_id":"ce4bgvp2rcd13ifvqct0","pricing_plan_id":"cebpf4jnsgd1na2vs0mg"},{"bike_id":"0e7bf4ae-5aed-4055-a1f8-96debbb9847e","system_id":"levelo_inurba_marseille","lat":43.241741,"lon":5.363975,"is_reserved":false,"is_disabled":false,"rental_uris":{"android":"levelo://app?vid=0e7bf4ae-5aed-4055-a1f8-96debbb9847e","ios":"levelo://app?vid=0e7bf4ae-5aed-4055-a1f8-96debbb9847e"},"vehicle_type_id":"4","last_reported":1744477711,"current_range_meters":11200,"station_id":"cpo36qri1sfpv3e86is0","pricing_plan_id":"cebpf4jnsgd1na2vs0mg"},{"bike_id":"8609ec5b-db31-4682-89f6-95794d251c5e","system_id":"levelo_inurba_marseille","lat":43.23205,"lon":5.43677,"is_reserved":false,"is_disabled":false,"rental_uris":{"android":"levelo://app?vid=8609ec5b-db31-4682-89f6-95794d251c5e","ios":"levelo://app?vid=8609ec5b-db31-4682-89f6-95794d251c5e"},"vehicle_type_id":"4","last_reported":1744477711,"current_range_meters":11200,"station_id":"","pricing_plan_id":"cebpf4jnsgd1na2vs0mg"},{"bike_id":"5136dfca-d2cf-4017-9a1e-2a7e3e4d8acd","system_id":"levelo_inurba_marseille","lat":43.2617,"lon":5.37955,"is_reserved":false,"is_disabled":false,"rental_uris":{"android":"levelo://app?vid=5136dfca-d2cf-4017-9a1e-2a7e3e4d8acd","ios":"levelo://app?vid=5136dfca-d2cf-4017-9a1e-2a7e3e4d8acd"},"vehicle_type_id":"4","last_reported":1744477711,"current_range_meters":11200,"station_id":"ce4bhjp2rcd13ifvqg90","pricing_plan_id":"cebpf4jnsgd1na2vs0mg"},{"bike_id":"d8f603cd-3b83-4148-bab8-3a185ad2a59f","system_id":"levelo_inurba_marseille","lat":43.32416,"lon":5.3913,"is_reserved":false,"is_disabled":false,"rental_uris":{"android":"levelo://app?vid=d8f603cd-3b83-4148-bab8-3a185ad2a59f","ios":"levelo://app?vid=d8f603cd-3b83-4148-bab8-3a185ad2a59f"},"vehicle_type_id":"4","last_reported":1744477711,"current_range_meters":11600,"station_id":"","pricing_plan_id":"cebpf4jnsgd1na2vs0mg"},{"bike_id":"44cbc67a-897a-4f15-8efe-827edbc33c04","system_id":"levelo_inurba_marseille","lat":43.29798,"lon":5.3808,"is_reserved":false,"is_disabled":false,"rental_uris":{"android":"levelo://app?vid=44cbc67a-897a-4f15-8efe-827edbc33c04","ios":"levelo://app?vid=44cbc67a-897a-4f15-8efe-827edbc33c04"},"vehicle_type_id":"4","last_reported":1744477711,"current_range_meters":11600,"station_id":"ce4bgip2rcd13ifvqbb0","pricing_plan_id":"cebpf4jnsgd1na2vs0mg"},{"bike_id":"7099207c-d611-4ece-bbc8-f929595d3b77","system_id":"levelo_inurba_marseille","lat":43.29266,"lon":5.36843,"is_reserved":false,"is_disabled":false,"rental_uris":{"android":"levelo://app?vid=7099207c-d611-4ece-bbc8-f929595d3b77","ios":"levelo://app?vid=7099207c-d611-4ece-bbc8-f929595d3b77"},"vehicle_type_id":"4","last_reported":1744477711,"current_range_meters":11600,"station_id":"ce4bhbp2rcd13ifvqesg","pricing_plan_id":"cebpf4jnsgd1na2vs0mg"},{"bike_id":"849d6059-e832-4302-9872-38a2cc613954","system_id":"levelo_inurba_marseille","lat":43.29539,"lon":5.38549,"is_reserved":false,"is_disabled":false,"rental_uris":{"android":"levelo://app?vid=849d6059-e832-4302-9872-38a2cc613954","ios":"levelo://app?vid=849d6059-e832-4302-9872-38a2cc613954"},"vehicle_type_id":"4","last_reported":1744477711,"current_range_meters":11600,"station_id":"ce4bgih2rcd13ifvqba0","pricing_plan_id":"cebpf4jnsgd1na2vs0mg"},{"bike_id":"5b77a833-8185-45c2-9fe3-07eb40df54ca","system_id":"levelo_inurba_marseille","lat":43.33995,"lon":5.38057,"is_reserved":false,"is_disabled":false,"rental_uris":{"android":"levelo://app?vid=5b77a833-8185-45c2-9fe3-07eb40df54ca","ios":"levelo://app?vid=5b77a833-8185-45c2-9fe3-07eb40df54ca"},"vehicle_type_id":"4","last_reported":1744477711,"current_range_meters":11600,"station_id":"","pricing_plan_id":"cebpf4jnsgd1na2vs0mg"},{"bike_id":"23add6fa-4477-4022-8b4d-d4b76e25afab","system_id":"levelo_inurba_marseille","lat":43.28051,"lon":5.368482,"is_reserved":false,"is_disabled":false,"rental_uris":{"android":"levelo://app?vid=23add6fa-4477-4022-8b4d-d4b76e25afab","ios":"levelo://app?vid=23add6fa-4477-4022-8b4d-d4b76e25afab"},"vehicle_type_id":"4","last_reported":1744477711,"current_range_meters":11600,"station_id":"ce4bha12rcd13ifvqef0","pricing_plan_id":"cebpf4jnsgd1na2vs0mg"},{"bike_id":"eedbe6a3-2e5f-4595-a5dd-b960aab2eb06","system_id":"levelo_inurba_marseille","lat":43.31999,"lon":5.38172,"is_reserved":false,"is_disabled":false,"rental_uris":{"android":"levelo://app?vid=eedbe6a3-2e5f-4595-a5dd-b960aab2eb06","ios":"levelo://app?vid=eedbe6a3-2e5f-4595-a5dd-b960aab2eb06"},"vehicle_type_id":"4","last_reported":1744477711,"current_range_meters":12000,"station_id":"ce4bhr12rcd13ifvqhpg","pricing_plan_id":"cebpf4jnsgd1na2vs0mg"},{"bike_id":"4ac15233-0b55-49d0-af61-4cab496dd69a","system_id":"levelo_inurba_marseille","lat":43.28167,"lon":5.42646,"is_reserved":false,"is_disabled":false,"rental_uris":{"android":"levelo://app?vid=4ac15233-0b55-49d0-af61-4cab496dd69a","ios":"levelo://app?vid=4ac15233-0b55-49d0-af61-4cab496dd69a"},"vehicle_type_id":"4","last_reported":1744477711,"current_range_meters":12000,"station_id":"ce4bhnh2rcd13ifvqgug","pricing_plan_id":"cebpf4jnsgd1na2vs0mg"},{"bike_id":"2798d981-cb8a-44c3-85ee-bb650b1e94e8","system_id":"levelo_inurba_marseille","lat":43.26948,"lon":5.3863,"is_reserved":false,"is_disabled":false,"rental_uris":{"android":"levelo://app?vid=2798d981-cb8a-44c3-85ee-bb650b1e94e8","ios":"levelo://app?vid=2798d981-cb8a-44c3-85ee-bb650b1e94e8"},"vehicle_type_id":"4","last_reported":1744477711,"current_range_meters":12000,"station_id":"ce4bhh92rcd13ifvqfh0","pricing_plan_id":"cebpf4jnsgd1na2vs0mg"},{"bike_id":"b0b2fc75-b414-442f-8231-21abe4252bcf","system_id":"levelo_inurba_marseille","lat":43.31709,"lon":5.37756,"is_reserved":false,"is_disabled":false,"rental_uris":{"android":"levelo://app?vid=b0b2fc75-b414-442f-8231-21abe4252bcf","ios":"levelo://app?vid=b0b2fc75-b414-442f-8231-21abe4252bcf"},"vehicle_type_id":"4","last_reported":1744477711,"current_range_meters":11600,"station_id":"ce4bgth2rcd13ifvqch0","pricing_plan_id":"cebpf4jnsgd1na2vs0mg"},{"bike_id":"ecf21246-37f6-419f-9c0c-99a2d29b12d7","system_id":"levelo_inurba_marseille","lat":43.30936,"lon":5.40148,"is_reserved":false,"is_disabled":false,"rental_uris":{"android":"levelo://app?vid=ecf21246-37f6-419f-9c0c-99a2d29b12d7","ios":"levelo://app?vid=ecf21246-37f6-419f-9c0c-99a2d29b12d7"},"vehicle_type_id":"4","last_reported":1744477711,"current_range_meters":12000,"station_id":"ce4bgvp2rcd13ifvqct0","pricing_plan_id":"cebpf4jnsgd1na2vs0mg"},{"bike_id":"17abf268-ef65-4057-8297-d0e3c89a7ee7","system_id":"levelo_inurba_marseille","lat":43.24391,"lon":5.37057,"is_reserved":false,"is_disabled":false,"rental_uris":{"android":"levelo://app?vid=17abf268-ef65-4057-8297-d0e3c89a7ee7","ios":"levelo://app?vid=17abf268-ef65-4057-8297-d0e3c89a7ee7"},"vehicle_type_id":"4","last_reported":1744477711,"current_range_meters":12000,"station_id":"ce4bhhh2rcd13ifvqfk0","pricing_plan_id":"cebpf4jnsgd1na2vs0mg"},{"bike_id":"493cde9e-7859-4c26-a2e6-f744ee5d8553","system_id":"levelo_inurba_marseille","lat":43.31787,"lon":5.36835,"is_reserved":false,"is_disabled":false,"rental_uris":{"android":"levelo://app?vid=493cde9e-7859-4c26-a2e6-f744ee5d8553","ios":"levelo://app?vid=493cde9e-7859-4c26-a2e6-f744ee5d8553"},"vehicle_type_id":"4","last_reported":1744477711,"current_range_meters":12000,"station_id":"","pricing_plan_id":"cebpf4jnsgd1na2vs0mg"},{"bike_id":"8cb06541-4fe0-414c-960e-2b4fb3962ae4","system_id":"levelo_inurba_marseille","lat":43.31717,"lon":5.4371,"is_reserved":false,"is_disabled":false,"rental_uris":{"android":"levelo://app?vid=8cb06541-4fe0-414c-960e-2b4fb3962ae4","ios":"levelo://app?vid=8cb06541-4fe0-414c-960e-2b4fb3962ae4"},"vehicle_type_id":"4","last_reported":1744477711,"current_range_meters":12000,"station_id":"ce4bhp92rcd13ifvqhcg","pricing_plan_id":"cebpf4jnsgd1na2vs0mg"},{"bike_id":"851735dc-4e0a-47e9-b6a9-b62735e6d41b","system_id":"levelo_inurba_marseille","lat":43.27366,"lon":5.362475,"is_reserved":false,"is_disabled":false,"rental_uris":{"android":"levelo://app?vid=851735dc-4e0a-47e9-b6a9-b62735e6d41b","ios":"levelo://app?vid=851735dc-4e0a-47e9-b6a9-b62735e6d41b"},"vehicle_type_id":"4","last_reported":1744477711,"current_range_meters":12400,"station_id":"ce4bhbh2rcd13ifvqeo0","pricing_plan_id":"cebpf4jnsgd1na2vs0mg"},{"bike_id":"dc19c88c-f228-4cee-8001-2d1fd947accd","system_id":"levelo_inurba_marseille","lat":43.28717,"lon":5.37943,"is_reserved":false,"is_disabled":false,"rental_uris":{"android":"levelo://app?vid=dc19c88c-f228-4cee-8001-2d1fd947accd","ios":"levelo://app?vid=dc19c88c-f228-4cee-8001-2d1fd947accd"},"vehicle_type_id":"4","last_reported":1744477711,"current_range_meters":12400,"station_id":"ce4bh9p2rcd13ifvqec0","pricing_plan_id":"cebpf4jnsgd1na2vs0mg"},{"bike_id":"56f5a447-f3cd-47d4-b328-932d215542ba","system_id":"levelo_inurba_marseille","lat":43.29256,"lon":5.40857,"is_reserved":false,"is_disabled":false,"rental_uris":{"android":"levelo://app?vid=56f5a447-f3cd-47d4-b328-932d215542ba","ios":"levelo://app?vid=56f5a447-f3cd-47d4-b328-932d215542ba"},"vehicle_type_id":"4","last_reported":1744477711,"current_range_meters":12400,"station_id":"ce4bh192rcd13ifvqdc0","pricing_plan_id":"cebpf4jnsgd1na2vs0mg"},{"bike_id":"2f5bc015-0a98-4a0d-a50f-f7181e1d6abe","system_id":"levelo_inurba_marseille","lat":43.23441,"lon":5.4126,"is_reserved":false,"is_disabled":false,"rental_uris":{"android":"levelo://app?vid=2f5bc015-0a98-4a0d-a50f-f7181e1d6abe","ios":"levelo://app?vid=2f5bc015-0a98-4a0d-a50f-f7181e1d6abe"},"vehicle_type_id":"4","last_reported":1744477711,"current_range_meters":12400,"station_id":"","pricing_plan_id":"cebpf4jnsgd1na2vs0mg"},{"bike_id":"eec58967-5256-40fd-b0d9-f9ee4e7e2163","system_id":"levelo_inurba_marseille","lat":43.29262,"lon":5.40908,"is_reserved":false,"is_disabled":false,"rental_uris":{"android":"levelo://app?vid=eec58967-5256-40fd-b0d9-f9ee4e7e2163","ios":"levelo://app?vid=eec58967-5256-40fd-b0d9-f9ee4e7e2163"},"vehicle_type_id":"4","last_reported":1744477711,"current_range_meters":12400,"station_id":"ce4bh192rcd13ifvqdc0","pricing_plan_id":"cebpf4jnsgd1na2vs0mg"},{"bike_id":"61bc6256-8380-4638-bd27-1e2c56ecc87d","system_id":"levelo_inurba_marseille","lat":43.29736,"lon":5.37642,"is_reserved":false,"is_disabled":false,"rental_uris":{"android":"levelo://app?vid=61bc6256-8380-4638-bd27-1e2c56ecc87d","ios":"levelo://app?vid=61bc6256-8380-4638-bd27-1e2c56ecc87d"},"vehicle_type_id":"4","last_reported":1744477711,"current_range_meters":12400,"station_id":"ce4bgkh2rcd13ifvqbl0","pricing_plan_id":"cebpf4jnsgd1na2vs0mg"},{"bike_id":"454f768f-0bc5-439d-b245-57e626ebcb31","system_id":"levelo_inurba_marseille","lat":43.28615,"lon":5.35105,"is_reserved":false,"is_disabled":false,"rental_uris":{"android":"levelo://app?vid=454f768f-0bc5-439d-b245-57e626ebcb31","ios":"levelo://app?vid=454f768f-0bc5-439d-b245-57e626ebcb31"},"vehicle_type_id":"4","last_reported":1744477711,"current_range_meters":12800,"station_id":"ce4bhch2rcd13ifvqeug","pricing_plan_id":"cebpf4jnsgd1na2vs0mg"},{"bike_id":"93a8db01-4e40-4d51-b439-06e02e792754","system_id":"levelo_inurba_marseille","lat":43.29033,"lon":5.38649,"is_reserved":false,"is_disabled":false,"rental_uris":{"android":"levelo://app?vid=93a8db01-4e40-4d51-b439-06e02e792754","ios":"levelo://app?vid=93a8db01-4e40-4d51-b439-06e02e792754"},"vehicle_type_id":"4","last_reported":1744477711,"current_range_meters":12800,"station_id":"ce4bh4p2rcd13ifvqe0g","pricing_plan_id":"cebpf4jnsgd1na2vs0mg"},{"bike_id":"71ae3fa2-2c30-4cc9-8218-205a4f252d93","system_id":"levelo_inurba_marseille","lat":43.28418,"lon":5.3751,"is_reserved":false,"is_disabled":false,"rental_uris":{"android":"levelo://app?vid=71ae3fa2-2c30-4cc9-8218-205a4f252d93","ios":"levelo://app?vid=71ae3fa2-2c30-4cc9-8218-205a4f252d93"},"vehicle_type_id":"4","last_reported":1744477711,"current_range_meters":12800,"station_id":"ce4bh412rcd13ifvqds0","pricing_plan_id":"cebpf4jnsgd1na2vs0mg"},{"bike_id":"4edb32e1-7de8-4304-ac58-d72566a5e84a","system_id":"levelo_inurba_marseille","lat":43.26683,"lon":5.38274,"is_reserved":false,"is_disabled":false,"rental_uris":{"android":"levelo://app?vid=4edb32e1-7de8-4304-ac58-d72566a5e84a","ios":"levelo://app?vid=4edb32e1-7de8-4304-ac58-d72566a5e84a"},"vehicle_type_id":"4","last_reported":1744477711,"current_range_meters":12400,"station_id":"ce4bhg92rcd13ifvqf90","pricing_plan_id":"cebpf4jnsgd1na2vs0mg"},{"bike_id":"a5d1e415-8087-452b-9500-69a2fb099f8e","system_id":"levelo_inurba_marseille","lat":43.29875,"lon":5.39744,"is_reserved":false,"is_disabled":false,"rental_uris":{"android":"levelo://app?vid=a5d1e415-8087-452b-9500-69a2fb099f8e","ios":"levelo://app?vid=a5d1e415-8087-452b-9500-69a2fb099f8e"},"vehicle_type_id":"4","last_reported":1744477711,"current_range_meters":13600,"station_id":"ce4bh0h2rcd13ifvqd50","pricing_plan_id":"cebpf4jnsgd1na2vs0mg"},{"bike_id":"f7843f46-58aa-4cf6-a1d0-1b94b16f71c2","system_id":"levelo_inurba_marseille","lat":43.29815,"lon":5.39665,"is_reserved":false,"is_disabled":false,"rental_uris":{"android":"levelo://app?vid=f7843f46-58aa-4cf6-a1d0-1b94b16f71c2","ios":"levelo://app?vid=f7843f46-58aa-4cf6-a1d0-1b94b16f71c2"},"vehicle_type_id":"4","last_reported":1744477711,"current_range_meters":13600,"station_id":"","pricing_plan_id":"cebpf4jnsgd1na2vs0mg"},{"bike_id":"88f87eb1-98d7-4aeb-af62-847e9018649e","system_id":"levelo_inurba_marseille","lat":43.33724,"lon":5.39192,"is_reserved":false,"is_disabled":false,"rental_uris":{"android":"levelo://app?vid=88f87eb1-98d7-4aeb-af62-847e9018649e","ios":"levelo://app?vid=88f87eb1-98d7-4aeb-af62-847e9018649e"},"vehicle_type_id":"4","last_reported":1744477711,"current_range_meters":12800,"station_id":"ce4bhr92rcd13ifvqhsg","pricing_plan_id":"cebpf4jnsgd1na2vs0mg"},{"bike_id":"95c34adf-b75b-4a5a-add9-2fe85600141c","system_id":"levelo_inurba_marseille","lat":43.30558,"lon":5.36545,"is_reserved":false,"is_disabled":false,"rental_uris":{"android":"levelo://app?vid=95c34adf-b75b-4a5a-add9-2fe85600141c","ios":"levelo://app?vid=95c34adf-b75b-4a5a-add9-2fe85600141c"},"vehicle_type_id":"4","last_reported":1744477711,"current_range_meters":14000,"station_id":"ce4bgs12rcd13ifvqcag","pricing_plan_id":"cebpf4jnsgd1na2vs0mg"},{"bike_id":"00038f59-aea6-4085-980a-4c2da878fc59","system_id":"levelo_inurba_marseille","lat":43.28925,"lon":5.38399,"is_reserved":false,"is_disabled":false,"rental_uris":{"android":"levelo://app?vid=00038f59-aea6-4085-980a-4c2da878fc59","ios":"levelo://app?vid=00038f59-aea6-4085-980a-4c2da878fc59"},"vehicle_type_id":"4","last_reported":1744477711,"current_range_meters":14000,"station_id":"ce4bh612rcd13ifvqe6g","pricing_plan_id":"cebpf4jnsgd1na2vs0mg"},{"bike_id":"632a6501-2739-4031-8d86-8a1e8657cfad","system_id":"levelo_inurba_marseille","lat":43.29205,"lon":5.39323,"is_reserved":false,"is_disabled":false,"rental_uris":{"android":"levelo://app?vid=632a6501-2739-4031-8d86-8a1e8657cfad","ios":"levelo://app?vid=632a6501-2739-4031-8d86-8a1e8657cfad"},"vehicle_type_id":"4","last_reported":1744477711,"current_range_meters":14000,"station_id":"ce4bh192rcd13ifvqdd0","pricing_plan_id":"cebpf4jnsgd1na2vs0mg"},{"bike_id":"c5de9f04-a68c-4314-9995-789e3d717983","system_id":"levelo_inurba_marseille","lat":43.24398,"lon":5.37065,"is_reserved":false,"is_disabled":true,"rental_uris":{"android":"levelo://app?vid=c5de9f04-a68c-4314-9995-789e3d717983","ios":"levelo://app?vid=c5de9f04-a68c-4314-9995-789e3d717983"},"vehicle_type_id":"4","last_reported":1744477711,"current_range_meters":14000,"station_id":"ce4bhhh2rcd13ifvqfk0","pricing_plan_id":"cebpf4jnsgd1na2vs0mg"},{"bike_id":"2980ffa7-7783-4a57-b9dc-66b0f5b0cadd","system_id":"levelo_inurba_marseille","lat":43.25501,"lon":5.37656,"is_reserved":false,"is_disabled":false,"rental_uris":{"android":"levelo://app?vid=2980ffa7-7783-4a57-b9dc-66b0f5b0cadd","ios":"levelo://app?vid=2980ffa7-7783-4a57-b9dc-66b0f5b0cadd"},"vehicle_type_id":"4","last_reported":1744477711,"current_range_meters":14000,"station_id":"ce4bhh12rcd13ifvqff0","pricing_plan_id":"cebpf4jnsgd1na2vs0mg"},{"bike_id":"a521fe36-fbc9-42be-85b6-70506bb9db5f","system_id":"levelo_inurba_marseille","lat":43.30435,"lon":5.38901,"is_reserved":false,"is_disabled":false,"rental_uris":{"android":"levelo://app?vid=a521fe36-fbc9-42be-85b6-70506bb9db5f","ios":"levelo://app?vid=a521fe36-fbc9-42be-85b6-70506bb9db5f"},"vehicle_type_id":"4","last_reported":1744477711,"current_range_meters":14000,"station_id":"ce4bgk12rcd13ifvqbi0","pricing_plan_id":"cebpf4jnsgd1na2vs0mg"},{"bike_id":"72c6aab6-3a44-430e-a84d-843d2a93e616","system_id":"levelo_inurba_marseille","lat":43.21206,"lon":5.35068,"is_reserved":false,"is_disabled":true,"rental_uris":{"android":"levelo://app?vid=72c6aab6-3a44-430e-a84d-843d2a93e616","ios":"levelo://app?vid=72c6aab6-3a44-430e-a84d-843d2a93e616"},"vehicle_type_id":"4","last_reported":1744477711,"current_range_meters":14400,"station_id":"st_cvj6sg6p6f1abm77japg","pricing_plan_id":"cebpf4jnsgd1na2vs0mg"},{"bike_id":"50e87622-3d3d-4c1e-840a-02d35a97d4d4","system_id":"levelo_inurba_marseille","lat":43.27376,"lon":5.36252,"is_reserved":false,"is_disabled":false,"rental_uris":{"android":"levelo://app?vid=50e87622-3d3d-4c1e-840a-02d35a97d4d4","ios":"levelo://app?vid=50e87622-3d3d-4c1e-840a-02d35a97d4d4"},"vehicle_type_id":"4","last_reported":1744477711,"current_range_meters":14400,"station_id":"ce4bhbh2rcd13ifvqeo0","pricing_plan_id":"cebpf4jnsgd1na2vs0mg"},{"bike_id":"d51a8c93-4a62-49ae-82cb-4bd383d80bde","system_id":"levelo_inurba_marseille","lat":43.28175,"lon":5.42665,"is_reserved":false,"is_disabled":false,"rental_uris":{"android":"levelo://app?vid=d51a8c93-4a62-49ae-82cb-4bd383d80bde","ios":"levelo://app?vid=d51a8c93-4a62-49ae-82cb-4bd383d80bde"},"vehicle_type_id":"4","last_reported":1744477711,"current_range_meters":14400,"station_id":"ce4bhnh2rcd13ifvqgug","pricing_plan_id":"cebpf4jnsgd1na2vs0mg"},{"bike_id":"7a84109b-7420-42da-8064-c58d3c97066c","system_id":"levelo_inurba_marseille","lat":43.27943,"lon":5.4105,"is_reserved":false,"is_disabled":false,"rental_uris":{"android":"levelo://app?vid=7a84109b-7420-42da-8064-c58d3c97066c","ios":"levelo://app?vid=7a84109b-7420-42da-8064-c58d3c97066c"},"vehicle_type_id":"4","last_reported":1744477711,"current_range_meters":14400,"station_id":"ce4bhnp2rcd13ifvqh0g","pricing_plan_id":"cebpf4jnsgd1na2vs0mg"},{"bike_id":"436df8c8-cd7b-48c7-b865-e0d3f9bc4087","system_id":"levelo_inurba_marseille","lat":43.24806,"lon":5.37457,"is_reserved":false,"is_disabled":false,"rental_uris":{"android":"levelo://app?vid=436df8c8-cd7b-48c7-b865-e0d3f9bc4087","ios":"levelo://app?vid=436df8c8-cd7b-48c7-b865-e0d3f9bc4087"},"vehicle_type_id":"4","last_reported":1744477711,"current_range_meters":14400,"station_id":"ce4bhgh2rcd13ifvqfb0","pricing_plan_id":"cebpf4jnsgd1na2vs0mg"},{"bike_id":"8043ed93-c0e0-4b20-a22a-1ce703744524","system_id":"levelo_inurba_marseille","lat":43.28942,"lon":5.36634,"is_reserved":false,"is_disabled":true,"rental_uris":{"android":"levelo://app?vid=8043ed93-c0e0-4b20-a22a-1ce703744524","ios":"levelo://app?vid=8043ed93-c0e0-4b20-a22a-1ce703744524"},"vehicle_type_id":"4","last_reported":1744477711,"current_range_meters":14400,"station_id":"ce4bhap2rcd13ifvqek0","pricing_plan_id":"cebpf4jnsgd1na2vs0mg"},{"bike_id":"7a6be387-66f3-49c7-ac7f-efcf7f08f9dc","system_id":"levelo_inurba_marseille","lat":43.28982,"lon":5.3783,"is_reserved":false,"is_disabled":false,"rental_uris":{"android":"levelo://app?vid=7a6be387-66f3-49c7-ac7f-efcf7f08f9dc","ios":"levelo://app?vid=7a6be387-66f3-49c7-ac7f-efcf7f08f9dc"},"vehicle_type_id":"4","last_reported":1744477711,"current_range_meters":14800,"station_id":"ce4bh9p2rcd13ifvqed0","pricing_plan_id":"cebpf4jnsgd1na2vs0mg"},{"bike_id":"9c98a308-4efd-4704-bf46-fc11a3f21b95","system_id":"levelo_inurba_marseille","lat":43.26971,"lon":5.38632,"is_reserved":false,"is_disabled":false,"rental_uris":{"android":"levelo://app?vid=9c98a308-4efd-4704-bf46-fc11a3f21b95","ios":"levelo://app?vid=9c98a308-4efd-4704-bf46-fc11a3f21b95"},"vehicle_type_id":"4","last_reported":1744477711,"current_range_meters":14800,"station_id":"ce4bhh92rcd13ifvqfh0","pricing_plan_id":"cebpf4jnsgd1na2vs0mg"},{"bike_id":"37a17253-3d16-4b72-9b0b-4b36f84289f9","system_id":"levelo_inurba_marseille","lat":43.254993,"lon":5.376523,"is_reserved":false,"is_disabled":false,"rental_uris":{"android":"levelo://app?vid=37a17253-3d16-4b72-9b0b-4b36f84289f9","ios":"levelo://app?vid=37a17253-3d16-4b72-9b0b-4b36f84289f9"},"vehicle_type_id":"4","last_reported":1744477711,"current_range_meters":14800,"station_id":"ce4bhh12rcd13ifvqff0","pricing_plan_id":"cebpf4jnsgd1na2vs0mg"},{"bike_id":"d9359b49-4671-4ad1-96b2-59bbd0968a0c","system_id":"levelo_inurba_marseille","lat":43.29788,"lon":5.39347,"is_reserved":false,"is_disabled":false,"rental_uris":{"android":"levelo://app?vid=d9359b49-4671-4ad1-96b2-59bbd0968a0c","ios":"levelo://app?vid=d9359b49-4671-4ad1-96b2-59bbd0968a0c"},"vehicle_type_id":"4","last_reported":1744477711,"current_range_meters":14800,"station_id":"chh1huq6cuj3fo74tm60","pricing_plan_id":"cebpf4jnsgd1na2vs0mg"},{"bike_id":"52d88a86-3f11-4593-8a7c-5d0b9dcebd69","system_id":"levelo_inurba_marseille","lat":43.31368,"lon":5.38497,"is_reserved":false,"is_disabled":false,"rental_uris":{"android":"levelo://app?vid=52d88a86-3f11-4593-8a7c-5d0b9dcebd69","ios":"levelo://app?vid=52d88a86-3f11-4593-8a7c-5d0b9dcebd69"},"vehicle_type_id":"4","last_reported":1744477711,"current_range_meters":14800,"station_id":"ce4bgt92rcd13ifvqcf0","pricing_plan_id":"cebpf4jnsgd1na2vs0mg"},{"bike_id":"3d262ed0-fa6d-4eed-98f1-f0cecf15b645","system_id":"levelo_inurba_marseille","lat":43.2749,"lon":5.42457,"is_reserved":false,"is_disabled":false,"rental_uris":{"android":"levelo://app?vid=3d262ed0-fa6d-4eed-98f1-f0cecf15b645","ios":"levelo://app?vid=3d262ed0-fa6d-4eed-98f1-f0cecf15b645"},"vehicle_type_id":"4","last_reported":1744477711,"current_range_meters":15200,"station_id":"ce4bhn92rcd13ifvqgrg","pricing_plan_id":"cebpf4jnsgd1na2vs0mg"},{"bike_id":"db9cdcec-b5ee-409b-adf3-2fb9b83088c4","system_id":"levelo_inurba_marseille","lat":43.30967,"lon":5.37339,"is_reserved":false,"is_disabled":false,"rental_uris":{"android":"levelo://app?vid=db9cdcec-b5ee-409b-adf3-2fb9b83088c4","ios":"levelo://app?vid=db9cdcec-b5ee-409b-adf3-2fb9b83088c4"},"vehicle_type_id":"4","last_reported":1744477711,"current_range_meters":15200,"station_id":"","pricing_plan_id":"cebpf4jnsgd1na2vs0mg"},{"bike_id":"acc274ec-37c1-44e0-8e0e-1df14bac113b","system_id":"levelo_inurba_marseille","lat":43.29688,"lon":5.37303,"is_reserved":false,"is_disabled":false,"rental_uris":{"android":"levelo://app?vid=acc274ec-37c1-44e0-8e0e-1df14bac113b","ios":"levelo://app?vid=acc274ec-37c1-44e0-8e0e-1df14bac113b"},"vehicle_type_id":"4","last_reported":1744477711,"current_range_meters":14800,"station_id":"ce4bgk12rcd13ifvqbj0","pricing_plan_id":"cebpf4jnsgd1na2vs0mg"},{"bike_id":"82d38bd3-c046-4f55-aec8-4eb686f05e29","system_id":"levelo_inurba_marseille","lat":43.229267,"lon":5.353787,"is_reserved":false,"is_disabled":true,"rental_uris":{"android":"levelo://app?vid=82d38bd3-c046-4f55-aec8-4eb686f05e29","ios":"levelo://app?vid=82d38bd3-c046-4f55-aec8-4eb686f05e29"},"vehicle_type_id":"4","last_reported":1744477711,"current_range_meters":15200,"station_id":"cpo3532slgdg3j2ikp40","pricing_plan_id":"cebpf4jnsgd1na2vs0mg"},{"bike_id":"723114bc-e2d3-4dfc-b6e3-458fa4ed1f85","system_id":"levelo_inurba_marseille","lat":43.30794,"lon":5.43528,"is_reserved":false,"is_disabled":false,"rental_uris":{"android":"levelo://app?vid=723114bc-e2d3-4dfc-b6e3-458fa4ed1f85","ios":"levelo://app?vid=723114bc-e2d3-4dfc-b6e3-458fa4ed1f85"},"vehicle_type_id":"4","last_reported":1744477711,"current_range_meters":15200,"station_id":"ce4bhph2rcd13ifvqheg","pricing_plan_id":"cebpf4jnsgd1na2vs0mg"},{"bike_id":"efd328ca-f8bf-4550-bd94-c2fd75978f3c","system_id":"levelo_inurba_marseille","lat":43.3305,"lon":5.38091,"is_reserved":false,"is_disabled":false,"rental_uris":{"android":"levelo://app?vid=efd328ca-f8bf-4550-bd94-c2fd75978f3c","ios":"levelo://app?vid=efd328ca-f8bf-4550-bd94-c2fd75978f3c"},"vehicle_type_id":"4","last_reported":1744477711,"current_range_meters":15200,"station_id":"","pricing_plan_id":"cebpf4jnsgd1na2vs0mg"},{"bike_id":"4bbe6e48-9bfa-4dec-aab0-5597477f7da1","system_id":"levelo_inurba_marseille","lat":43.32412,"lon":5.39141,"is_reserved":false,"is_disabled":false,"rental_uris":{"android":"levelo://app?vid=4bbe6e48-9bfa-4dec-aab0-5597477f7da1","ios":"levelo://app?vid=4bbe6e48-9bfa-4dec-aab0-5597477f7da1"},"vehicle_type_id":"4","last_reported":1744477711,"current_range_meters":15200,"station_id":"","pricing_plan_id":"cebpf4jnsgd1na2vs0mg"},{"bike_id":"e7398dba-b2e4-421f-916a-25cb653b80c0","system_id":"levelo_inurba_marseille","lat":43.30923,"lon":5.36854,"is_reserved":false,"is_disabled":false,"rental_uris":{"android":"levelo://app?vid=e7398dba-b2e4-421f-916a-25cb653b80c0","ios":"levelo://app?vid=e7398dba-b2e4-421f-916a-25cb653b80c0"},"vehicle_type_id":"4","last_reported":1744477711,"current_range_meters":16000,"station_id":"ce4bgn92rcd13ifvqbvg","pricing_plan_id":"cebpf4jnsgd1na2vs0mg"},{"bike_id":"020e9999-d552-48d0-ae5f-b725af0dbea2","system_id":"levelo_inurba_marseille","lat":43.29904,"lon":5.43767,"is_reserved":false,"is_disabled":false,"rental_uris":{"android":"levelo://app?vid=020e9999-d552-48d0-ae5f-b725af0dbea2","ios":"levelo://app?vid=020e9999-d552-48d0-ae5f-b725af0dbea2"},"vehicle_type_id":"4","last_reported":1744477711,"current_range_meters":16000,"station_id":"","pricing_plan_id":"cebpf4jnsgd1na2vs0mg"},{"bike_id":"0eceb99a-0069-41ae-adf2-70785bb6a0d7","system_id":"levelo_inurba_marseille","lat":43.265645,"lon":5.37314,"is_reserved":false,"is_disabled":false,"rental_uris":{"android":"levelo://app?vid=0eceb99a-0069-41ae-adf2-70785bb6a0d7","ios":"levelo://app?vid=0eceb99a-0069-41ae-adf2-70785bb6a0d7"},"vehicle_type_id":"4","last_reported":1744477711,"current_range_meters":16000,"station_id":"ce4bhg12rcd13ifvqf70","pricing_plan_id":"cebpf4jnsgd1na2vs0mg"},{"bike_id":"a3bf51d9-08b7-458c-9b6d-ef5680cc95d6","system_id":"levelo_inurba_marseille","lat":43.21761,"lon":5.34618,"is_reserved":false,"is_disabled":true,"rental_uris":{"android":"levelo://app?vid=a3bf51d9-08b7-458c-9b6d-ef5680cc95d6","ios":"levelo://app?vid=a3bf51d9-08b7-458c-9b6d-ef5680cc95d6"},"vehicle_type_id":"4","last_reported":1744477711,"current_range_meters":16000,"station_id":"cpo36qri1sfpv3e86is0","pricing_plan_id":"cebpf4jnsgd1na2vs0mg"},{"bike_id":"c005899b-df58-4957-94f3-4b06094b73b6","system_id":"levelo_inurba_marseille","lat":43.23192,"lon":5.39988,"is_reserved":false,"is_disabled":false,"rental_uris":{"android":"levelo://app?vid=c005899b-df58-4957-94f3-4b06094b73b6","ios":"levelo://app?vid=c005899b-df58-4957-94f3-4b06094b73b6"},"vehicle_type_id":"4","last_reported":1744477711,"current_range_meters":16000,"station_id":"ce4bhn12rcd13ifvqgqg","pricing_plan_id":"cebpf4jnsgd1na2vs0mg"},{"bike_id":"a356fea8-f93a-4a18-b63b-ef6e58fc814b","system_id":"levelo_inurba_marseille","lat":43.29882,"lon":5.39736,"is_reserved":false,"is_disabled":false,"rental_uris":{"android":"levelo://app?vid=a356fea8-f93a-4a18-b63b-ef6e58fc814b","ios":"levelo://app?vid=a356fea8-f93a-4a18-b63b-ef6e58fc814b"},"vehicle_type_id":"4","last_reported":1744477711,"current_range_meters":15200,"station_id":"ce4bh0h2rcd13ifvqd50","pricing_plan_id":"cebpf4jnsgd1na2vs0mg"},{"bike_id":"8476ceca-cdeb-4613-b22e-769e8c6c0862","system_id":"levelo_inurba_marseille","lat":43.30793,"lon":5.43529,"is_reserved":false,"is_disabled":false,"rental_uris":{"android":"levelo://app?vid=8476ceca-cdeb-4613-b22e-769e8c6c0862","ios":"levelo://app?vid=8476ceca-cdeb-4613-b22e-769e8c6c0862"},"vehicle_type_id":"4","last_reported":1744477711,"current_range_meters":16000,"station_id":"ce4bhph2rcd13ifvqheg","pricing_plan_id":"cebpf4jnsgd1na2vs0mg"},{"bike_id":"3e6b25d8-28f5-449f-b162-99fd1204c274","system_id":"levelo_inurba_marseille","lat":43.23196,"lon":5.35563,"is_reserved":false,"is_disabled":false,"rental_uris":{"android":"levelo://app?vid=3e6b25d8-28f5-449f-b162-99fd1204c274","ios":"levelo://app?vid=3e6b25d8-28f5-449f-b162-99fd1204c274"},"vehicle_type_id":"4","last_reported":1744477711,"current_range_meters":16400,"station_id":"ce4bhu92rcd13ifvqi70","pricing_plan_id":"cebpf4jnsgd1na2vs0mg"},{"bike_id":"b55dd5e7-54b2-4035-b945-7b626dd7afc7","system_id":"levelo_inurba_marseille","lat":43.27526,"lon":5.40912,"is_reserved":false,"is_disabled":false,"rental_uris":{"android":"levelo://app?vid=b55dd5e7-54b2-4035-b945-7b626dd7afc7","ios":"levelo://app?vid=b55dd5e7-54b2-4035-b945-7b626dd7afc7"},"vehicle_type_id":"4","last_reported":1744477711,"current_range_meters":16400,"station_id":"","pricing_plan_id":"cebpf4jnsgd1na2vs0mg"},{"bike_id":"982bb1bc-457f-43d7-ae21-85035c856353","system_id":"levelo_inurba_marseille","lat":43.22492,"lon":5.34785,"is_reserved":false,"is_disabled":false,"rental_uris":{"android":"levelo://app?vid=982bb1bc-457f-43d7-ae21-85035c856353","ios":"levelo://app?vid=982bb1bc-457f-43d7-ae21-85035c856353"},"vehicle_type_id":"4","last_reported":1744477711,"current_range_meters":16400,"station_id":"st_cvj5dfep6f1abm77gieg","pricing_plan_id":"cebpf4jnsgd1na2vs0mg"},{"bike_id":"83bf451d-ce5d-488b-b150-64abd01300cd","system_id":"levelo_inurba_marseille","lat":43.26061,"lon":5.39399,"is_reserved":false,"is_disabled":false,"rental_uris":{"android":"levelo://app?vid=83bf451d-ce5d-488b-b150-64abd01300cd","ios":"levelo://app?vid=83bf451d-ce5d-488b-b150-64abd01300cd"},"vehicle_type_id":"4","last_reported":1744477711,"current_range_meters":16400,"station_id":"ce4bhh92rcd13ifvqfj0","pricing_plan_id":"cebpf4jnsgd1na2vs0mg"},{"bike_id":"8672c2b4-b5c7-4782-a699-43428fe48b2e","system_id":"levelo_inurba_marseille","lat":43.24653,"lon":5.38896,"is_reserved":false,"is_disabled":false,"rental_uris":{"android":"levelo://app?vid=8672c2b4-b5c7-4782-a699-43428fe48b2e","ios":"levelo://app?vid=8672c2b4-b5c7-4782-a699-43428fe48b2e"},"vehicle_type_id":"4","last_reported":1744477711,"current_range_meters":16400,"station_id":"ce4bhg12rcd13ifvqf60","pricing_plan_id":"cebpf4jnsgd1na2vs0mg"},{"bike_id":"144af090-2c17-4706-936a-f6c407fa5773","system_id":"levelo_inurba_marseille","lat":43.26956,"lon":5.38639,"is_reserved":false,"is_disabled":false,"rental_uris":{"android":"levelo://app?vid=144af090-2c17-4706-936a-f6c407fa5773","ios":"levelo://app?vid=144af090-2c17-4706-936a-f6c407fa5773"},"vehicle_type_id":"4","last_reported":1744477711,"current_range_meters":16400,"station_id":"ce4bhh92rcd13ifvqfh0","pricing_plan_id":"cebpf4jnsgd1na2vs0mg"},{"bike_id":"bfaad5cb-ff99-4300-ad0b-6a6592271fc7","system_id":"levelo_inurba_marseille","lat":43.2927,"lon":5.38436,"is_reserved":false,"is_disabled":false,"rental_uris":{"android":"levelo://app?vid=bfaad5cb-ff99-4300-ad0b-6a6592271fc7","ios":"levelo://app?vid=bfaad5cb-ff99-4300-ad0b-6a6592271fc7"},"vehicle_type_id":"4","last_reported":1744477711,"current_range_meters":16400,"station_id":"ce4bh692rcd13ifvqea0","pricing_plan_id":"cebpf4jnsgd1na2vs0mg"},{"bike_id":"ef8e6fe8-1f8b-4caa-bcc0-d5d40f95e6ef","system_id":"levelo_inurba_marseille","lat":43.29985,"lon":5.37175,"is_reserved":false,"is_disabled":false,"rental_uris":{"android":"levelo://app?vid=ef8e6fe8-1f8b-4caa-bcc0-d5d40f95e6ef","ios":"levelo://app?vid=ef8e6fe8-1f8b-4caa-bcc0-d5d40f95e6ef"},"vehicle_type_id":"4","last_reported":1744477711,"current_range_meters":16400,"station_id":"ce4bgr92rcd13ifvqc7g","pricing_plan_id":"cebpf4jnsgd1na2vs0mg"},{"bike_id":"0480065c-ee81-4e3f-8995-f708d0dd65b6","system_id":"levelo_inurba_marseille","lat":43.29962,"lon":5.41324,"is_reserved":false,"is_disabled":false,"rental_uris":{"android":"levelo://app?vid=0480065c-ee81-4e3f-8995-f708d0dd65b6","ios":"levelo://app?vid=0480065c-ee81-4e3f-8995-f708d0dd65b6"},"vehicle_type_id":"4","last_reported":1744477711,"current_range_meters":16400,"station_id":"ce4bhp12rcd13ifvqh9g","pricing_plan_id":"cebpf4jnsgd1na2vs0mg"},{"bike_id":"56f74166-d1c1-47d4-8596-6b4ae27cc2ca","system_id":"levelo_inurba_marseille","lat":43.26061,"lon":5.39396,"is_reserved":false,"is_disabled":false,"rental_uris":{"android":"levelo://app?vid=56f74166-d1c1-47d4-8596-6b4ae27cc2ca","ios":"levelo://app?vid=56f74166-d1c1-47d4-8596-6b4ae27cc2ca"},"vehicle_type_id":"4","last_reported":1744477711,"current_range_meters":16800,"station_id":"ce4bhh92rcd13ifvqfj0","pricing_plan_id":"cebpf4jnsgd1na2vs0mg"},{"bike_id":"2fc88268-9338-4674-a8f4-36dfb8363ca0","system_id":"levelo_inurba_marseille","lat":43.211933,"lon":5.350767,"is_reserved":false,"is_disabled":true,"rental_uris":{"android":"levelo://app?vid=2fc88268-9338-4674-a8f4-36dfb8363ca0","ios":"levelo://app?vid=2fc88268-9338-4674-a8f4-36dfb8363ca0"},"vehicle_type_id":"4","last_reported":1744477711,"current_range_meters":16800,"station_id":"st_cvj6sg6p6f1abm77japg","pricing_plan_id":"cebpf4jnsgd1na2vs0mg"},{"bike_id":"d8b9884b-4022-4710-9f87-50e0dbfd421d","system_id":"levelo_inurba_marseille","lat":43.24171,"lon":5.36431,"is_reserved":false,"is_disabled":false,"rental_uris":{"android":"levelo://app?vid=d8b9884b-4022-4710-9f87-50e0dbfd421d","ios":"levelo://app?vid=d8b9884b-4022-4710-9f87-50e0dbfd421d"},"vehicle_type_id":"4","last_reported":1744477711,"current_range_meters":16800,"station_id":"cpo36qri1sfpv3e86is0","pricing_plan_id":"cebpf4jnsgd1na2vs0mg"},{"bike_id":"5521b2c4-946f-45a3-a08a-72182ba949eb","system_id":"levelo_inurba_marseille","lat":43.29628,"lon":5.37171,"is_reserved":false,"is_disabled":false,"rental_uris":{"android":"levelo://app?vid=5521b2c4-946f-45a3-a08a-72182ba949eb","ios":"levelo://app?vid=5521b2c4-946f-45a3-a08a-72182ba949eb"},"vehicle_type_id":"4","last_reported":1744477711,"current_range_meters":16800,"station_id":"ce4bgpp2rcd13ifvqc3g","pricing_plan_id":"cebpf4jnsgd1na2vs0mg"},{"bike_id":"21127257-eff7-474d-8ad8-e3337a0a4ddf","system_id":"levelo_inurba_marseille","lat":43.29845,"lon":5.36159,"is_reserved":false,"is_disabled":false,"rental_uris":{"android":"levelo://app?vid=21127257-eff7-474d-8ad8-e3337a0a4ddf","ios":"levelo://app?vid=21127257-eff7-474d-8ad8-e3337a0a4ddf"},"vehicle_type_id":"4","last_reported":1744477711,"current_range_meters":16800,"station_id":"","pricing_plan_id":"cebpf4jnsgd1na2vs0mg"},{"bike_id":"79ba5f06-75b8-461c-b5ee-624d8af03be6","system_id":"levelo_inurba_marseille","lat":43.30101,"lon":5.39082,"is_reserved":false,"is_disabled":false,"rental_uris":{"android":"levelo://app?vid=79ba5f06-75b8-461c-b5ee-624d8af03be6","ios":"levelo://app?vid=79ba5f06-75b8-461c-b5ee-624d8af03be6"},"vehicle_type_id":"4","last_reported":1744477711,"current_range_meters":16800,"station_id":"ce4bh192rcd13ifvqdb0","pricing_plan_id":"cebpf4jnsgd1na2vs0mg"},{"bike_id":"d49ed5f3-63dd-41d8-a7c3-7b7860b035b1","system_id":"levelo_inurba_marseille","lat":43.24821,"lon":5.37448,"is_reserved":false,"is_disabled":true,"rental_uris":{"android":"levelo://app?vid=d49ed5f3-63dd-41d8-a7c3-7b7860b035b1","ios":"levelo://app?vid=d49ed5f3-63dd-41d8-a7c3-7b7860b035b1"},"vehicle_type_id":"4","last_reported":1744477711,"current_range_meters":16800,"station_id":"ce4bhgh2rcd13ifvqfb0","pricing_plan_id":"cebpf4jnsgd1na2vs0mg"},{"bike_id":"5591936e-ca63-41c7-89f3-9c9493c86f89","system_id":"levelo_inurba_marseille","lat":43.24164,"lon":5.36398,"is_reserved":false,"is_disabled":false,"rental_uris":{"android":"levelo://app?vid=5591936e-ca63-41c7-89f3-9c9493c86f89","ios":"levelo://app?vid=5591936e-ca63-41c7-89f3-9c9493c86f89"},"vehicle_type_id":"4","last_reported":1744477711,"current_range_meters":16800,"station_id":"cpo36qri1sfpv3e86is0","pricing_plan_id":"cebpf4jnsgd1na2vs0mg"},{"bike_id":"eff10d2b-6c06-40b4-bf8f-9d7439165899","system_id":"levelo_inurba_marseille","lat":43.232,"lon":5.35542,"is_reserved":false,"is_disabled":false,"rental_uris":{"android":"levelo://app?vid=eff10d2b-6c06-40b4-bf8f-9d7439165899","ios":"levelo://app?vid=eff10d2b-6c06-40b4-bf8f-9d7439165899"},"vehicle_type_id":"4","last_reported":1744477711,"current_range_meters":16800,"station_id":"ce4bhu92rcd13ifvqi70","pricing_plan_id":"cebpf4jnsgd1na2vs0mg"},{"bike_id":"6bc92096-811b-4a22-a679-35317d63a3be","system_id":"levelo_inurba_marseille","lat":43.31722,"lon":5.42397,"is_reserved":false,"is_disabled":false,"rental_uris":{"android":"levelo://app?vid=6bc92096-811b-4a22-a679-35317d63a3be","ios":"levelo://app?vid=6bc92096-811b-4a22-a679-35317d63a3be"},"vehicle_type_id":"4","last_reported":1744477711,"current_range_meters":16800,"station_id":"ce4bhp92rcd13ifvqhbg","pricing_plan_id":"cebpf4jnsgd1na2vs0mg"},{"bike_id":"f44be64b-6eee-4b45-a654-c0b4597bf03b","system_id":"levelo_inurba_marseille","lat":43.29313,"lon":5.37173,"is_reserved":false,"is_disabled":false,"rental_uris":{"android":"levelo://app?vid=f44be64b-6eee-4b45-a654-c0b4597bf03b","ios":"levelo://app?vid=f44be64b-6eee-4b45-a654-c0b4597bf03b"},"vehicle_type_id":"4","last_reported":1744477711,"current_range_meters":17200,"station_id":"ce4bgh92rcd13ifvqb40","pricing_plan_id":"cebpf4jnsgd1na2vs0mg"},