{"last_updated":1760717543,"ttl":60,"version":"2.2","data":{"bikes":[{"bike_id":"4de742de-6265-41c4-a50d-7246bd48586e","system_id":"levelo_inurba_marseille","lat":43.26224,"lon":5.40445,"is_reserved":false,"is_disabled":false,"rental_uris":{"android":"levelo://app?vid=4de742de-6265-41c4-a50d-7246bd48586e","ios":"levelo://app?vid=4de742de-6265-41c4-a50d-7246bd48586e"},"vehicle_type_id":"4","last_reported":1760717544,"current_range_meters":2800,"station_id":"ce4bhmh2rcd13ifvqgmg","pricing_plan_id":"cebpf4jnsgd1na2vs0mg"},{"bike_id":"72d5f264-d9ce-4d49-ab01-239737afe696","system_id":"levelo_inurba_marseille","lat":43.28266,"lon":5.35079,"is_reserved":false,"is_disabled":false,"rental_uris":{"android":"levelo://app?vid=72d5f264-d9ce-4d49-ab01-239737afe696","ios":"levelo://app?vid=72d5f264-d9ce-4d49-ab01-239737afe696"},"vehicle_type_id":"4","last_reported":1760717544,"current_range_meters":2800,"station_id":"ce4bhbp2rcd13ifvqerg","pricing_plan_id":"cebpf4jnsgd1na2vs0mg"},{"bike_id":"56e8f168-0239-4dab-a231-9caf80fb776c","system_id":"levelo_inurba_marseille","lat":43.292676,"lon":5.376168,"is_reserved":false,"is_disabled":false,"rental_uris":{"android":"levelo://app?vid=56e8f168-0239-4dab-a231-9caf80fb776c","ios":"levelo://app?vid=56e8f168-0239-4dab-a231-9caf80fb776c"},"vehicle_type_id":"4","last_reported":1760717544,"current_range_meters":2800,"station_id":"","pricing_plan_id":"cebpf4jnsgd1na2vs0mg"},{"bike_id":"e0863f88-6065-41da-9ecd-468f1156f9d8","system_id":"levelo_inurba_marseille","lat":43.273406,"lon":5.414168,"is_reserved":false,"is_disabled":false,"rental_uris":{"android":"levelo://app?vid=e0863f88-6065-41da-9ecd-468f1156f9d8","ios":"levelo://app?vid=e0863f88-6065-41da-9ecd-468f1156f9d8"},"vehicle_type_id":"4","last_reported":1760717544,"current_range_meters":2800,"station_id":"","pricing_plan_id":"cebpf4jnsgd1na2vs0mg"},{"bike_id":"b443e431-a7fc-4274-b6f6-10ad58018982","system_id":"levelo_inurba_marseille","lat":43.225311,"lon":5.34834,"is_reserved":false,"is_disabled":false,"rental_uris":{"android":"levelo://app?vid=b443e431-a7fc-4274-b6f6-10ad58018982","ios":"levelo://app?vid=b443e431-a7fc-4274-b6f6-10ad58018982"},"vehicle_type_id":"4","last_reported":1760717544,"current_range_meters":2800,"station_id":"","pricing_plan_id":"cebpf4jnsgd1na2vs0mg"},{"bike_id":"66cff7ac-7cbd-4e0a-9bcc-f3e132e5b155","system_id":"levelo_inurba_marseille","lat":43.29681,"lon":5.38569,"is_reserved":false,"is_disabled":false,"rental_uris":{"android":"levelo://app?vid=66cff7ac-7cbd-4e0a-9bcc-f3e132e5b155","ios":"levelo://app?vid=66cff7ac-7cbd-4e0a-9bcc-f3e132e5b155"},"vehicle_type_id":"4","last_reported":1760717544,"current_range_meters":2800,"station_id":"","pricing_plan_id":"cebpf4jnsgd1na2vs0mg"},{"bike_id":"0c823f7b-6040-46fa-a661-b1914636b4ab","system_id":"levelo_inurba_marseille","lat":43.24941,"lon":5.40498,"is_reserved":false,"is_disabled":false,"rental_uris":{"android":"levelo://app?vid=0c823f7b-6040-46fa-a661-b1914636b4ab","ios":"levelo://app?vid=0c823f7b-6040-46fa-a661-b1914636b4ab"},"vehicle_type_id":"4","last_reported":1760717544,"current_range_meters":2800,"station_id":"st_d2ngiaodas8pm72gd1h0","pricing_plan_id":"cebpf4jnsgd1na2vs0mg"},{"bike_id":"f0622547-115c-4aab-a330-c8c9f80dea9e","system_id":"levelo_inurba_marseille","lat":43.280797,"lon":5.352315,"is_reserved":false,"is_disabled":false,"rental_uris":{"android":"levelo://app?vid=f0622547-115c-4aab-a330-c8c9f80dea9e","ios":"levelo://app?vid=f0622547-115c-4aab-a330-c8c9f80dea9e"},"vehicle_type_id":"4","last_reported":1760717544,"current_range_meters":2800,"station_id":"","pricing_plan_id":"cebpf4jnsgd1na2vs0mg"},{"bike_id":"02b104cc-506b-47e6-b9f9-bbc6efbe964a","system_id":"levelo_inurba_marseille","lat":43.301383,"lon":5.38778,"is_reserved":false,"is_disabled":false,"rental_uris":{"android":"levelo://app?vid=02b104cc-506b-47e6-b9f9-bbc6efbe964a","ios":"levelo://app?vid=02b104cc-506b-47e6-b9f9-bbc6efbe964a"},"vehicle_type_id":"4","last_reported":1760717544,"current_range_meters":3200,"station_id":"ce4bghh2rcd13ifvqb60","pricing_plan_id":"cebpf4jnsgd1na2vs0mg"},{"bike_id":"84cd9da6-0846-4050-8b52-c1e7238d3cc9","system_id":"levelo_inurba_marseille","lat":43.225334,"lon":5.348304,"is_reserved":false,"is_disabled":false,"rental_uris":{"android":"levelo://app?vid=84cd9da6-0846-4050-8b52-c1e7238d3cc9","ios":"levelo://app?vid=84cd9da6-0846-4050-8b52-c1e7238d3cc9"},"vehicle_type_id":"4","last_reported":1760717544,"current_range_meters":3200,"station_id":"","pricing_plan_id":"cebpf4jnsgd1na2vs0mg"},{"bike_id":"bfd18b97-0722-4dd7-b387-51ba38a9f0aa","system_id":"levelo_inurba_marseille","lat":43.257197,"lon":5.41117,"is_reserved":false,"is_disabled":false,"rental_uris":{"android":"levelo://app?vid=bfd18b97-0722-4dd7-b387-51ba38a9f0aa","ios":"levelo://app?vid=bfd18b97-0722-4dd7-b387-51ba38a9f0aa"},"vehicle_type_id":"4","last_reported":1760717544,"current_range_meters":3200,"station_id":"ce4bhkp2rcd13ifvqgd0","pricing_plan_id":"cebpf4jnsgd1na2vs0mg"},{"bike_id":"b0e3fac0-2cba-43db-8a27-05393f9977ec","system_id":"levelo_inurba_marseille","lat":43.297242,"lon":5.373265,"is_reserved":false,"is_disabled":false,"rental_uris":{"android":"levelo://app?vid=b0e3fac0-2cba-43db-8a27-05393f9977ec","ios":"levelo://app?vid=b0e3fac0-2cba-43db-8a27-05393f9977ec"},"vehicle_type_id":"4","last_reported":1760717544,"current_range_meters":3200,"station_id":"","pricing_plan_id":"cebpf4jnsgd1na2vs0mg"},{"bike_id":"f23a8338-19b9-4975-be03-52c84b6b28f3","system_id":"levelo_inurba_marseille","lat":43.229305,"lon":5.353783,"is_reserved":false,"is_disabled":false,"rental_uris":{"android":"levelo://app?vid=f23a8338-19b9-4975-be03-52c84b6b28f3","ios":"levelo://app?vid=f23a8338-19b9-4975-be03-52c84b6b28f3"},"vehicle_type_id":"4","last_reported":1760717544,"current_range_meters":3200,"station_id":"cpo3532slgdg3j2ikp40","pricing_plan_id":"cebpf4jnsgd1na2vs0mg"},{"bike_id":"53084200-123a-450b-b872-d822ad1684eb","system_id":"levelo_inurba_marseille","lat":43.29774,"lon":5.37107,"is_reserved":false,"is_disabled":false,"rental_uris":{"android":"levelo://app?vid=53084200-123a-450b-b872-d822ad1684eb","ios":"levelo://app?vid=53084200-123a-450b-b872-d822ad1684eb"},"vehicle_type_id":"4","last_reported":1760717544,"current_range_meters":3200,"station_id":"ce4bgop2rcd13ifvqc1g","pricing_plan_id":"cebpf4jnsgd1na2vs0mg"},{"bike_id":"d61e2765-007d-41b9-996a-f30e581845eb","system_id":"levelo_inurba_marseille","lat":43.24397,"lon":5.37048,"is_reserved":false,"is_disabled":false,"rental_uris":{"android":"levelo://app?vid=d61e2765-007d-41b9-996a-f30e581845eb","ios":"levelo://app?vid=d61e2765-007d-41b9-996a-f30e581845eb"},"vehicle_type_id":"4","last_reported":1760717544,"current_range_meters":3600,"station_id":"ce4bhhh2rcd13ifvqfk0","pricing_plan_id":"cebpf4jnsgd1na2vs0mg"},{"bike_id":"06f95f9c-25c1-4aac-9758-ca32a8cc08ef","system_id":"levelo_inurba_marseille","lat":43.28613,"lon":5.35109,"is_reserved":false,"is_disabled":false,"rental_uris":{"android":"levelo://app?vid=06f95f9c-25c1-4aac-9758-ca32a8cc08ef","ios":"levelo://app?vid=06f95f9c-25c1-4aac-9758-ca32a8cc08ef"},"vehicle_type_id":"4","last_reported":1760717544,"current_range_meters":3600,"station_id":"ce4bhch2rcd13ifvqeug","pricing_plan_id":"cebpf4jnsgd1na2vs0mg"},{"bike_id":"68485491-37e0-4f21-8ef0-7546386eb9cb","system_id":"levelo_inurba_marseille","lat":43.301979,"lon":5.366309,"is_reserved":false,"is_disabled":false,"rental_uris":{"android":"levelo://app?vid=68485491-37e0-4f21-8ef0-7546386eb9cb","ios":"levelo://app?vid=68485491-37e0-4f21-8ef0-7546386eb9cb"},"vehicle_type_id":"4","last_reported":1760717544,"current_range_meters":3600,"station_id":"ce4bgrh2rcd13ifvqc8g","pricing_plan_id":"cebpf4jnsgd1na2vs0mg"},{"bike_id":"dc519fd0-f400-4fe1-aa43-a8f578973d20","system_id":"levelo_inurba_marseille","lat":43.301367,"lon":5.387833,"is_reserved":false,"is_disabled":false,"rental_uris":{"android":"levelo://app?vid=dc519fd0-f400-4fe1-aa43-a8f578973d20","ios":"levelo://app?vid=dc519fd0-f400-4fe1-aa43-a8f578973d20"},"vehicle_type_id":"4","last_reported":1760717544,"current_range_meters":3600,"station_id":"ce4bghh2rcd13ifvqb60","pricing_plan_id":"cebpf4jnsgd1na2vs0mg"},{"bike_id":"984a981b-cd82-42b0-a62a-8180eb1296e4","system_id":"levelo_inurba_marseille","lat":43.283508,"lon":5.381055,"is_reserved":false,"is_disabled":false,"rental_uris":{"android":"levelo://app?vid=984a981b-cd82-42b0-a62a-8180eb1296e4","ios":"levelo://app?vid=984a981b-cd82-42b0-a62a-8180eb1296e4"},"vehicle_type_id":"4","last_reported":1760717544,"current_range_meters":3600,"station_id":"ce4bh412rcd13ifvqdr0","pricing_plan_id":"cebpf4jnsgd1na2vs0mg"},{"bike_id":"b3219c15-e842-46d1-9b8b-c08535ce46b9","system_id":"levelo_inurba_marseille","lat":43.290013,"lon":5.35639,"is_reserved":false,"is_disabled":false,"rental_uris":{"android":"levelo://app?vid=b3219c15-e842-46d1-9b8b-c08535ce46b9","ios":"levelo://app?vid=b3219c15-e842-46d1-9b8b-c08535ce46b9"},"vehicle_type_id":"4","last_reported":1760717544,"current_range_meters":3600,"station_id":"ce4bhb92rcd13ifvqen0","pricing_plan_id":"cebpf4jnsgd1na2vs0mg"},{"bike_id":"a8358684-2999-4c5f-9b05-2cabe89b9329","system_id":"levelo_inurba_marseille","lat":43.30134,"lon":5.38784,"is_reserved":false,"is_disabled":false,"rental_uris":{"android":"levelo://app?vid=a8358684-2999-4c5f-9b05-2cabe89b9329","ios":"levelo://app?vid=a8358684-2999-4c5f-9b05-2cabe89b9329"},"vehicle_type_id":"4","last_reported":1760717544,"current_range_meters":3600,"station_id":"ce4bghh2rcd13ifvqb60","pricing_plan_id":"cebpf4jnsgd1na2vs0mg"},{"bike_id":"93030163-b094-47d9-b371-3574e4c9e962","system_id":"levelo_inurba_marseille","lat":43.2847,"lon":5.3844,"is_reserved":false,"is_disabled":false,"rental_uris":{"android":"levelo://app?vid=93030163-b094-47d9-b371-3574e4c9e962","ios":"levelo://app?vid=93030163-b094-47d9-b371-3574e4c9e962"},"vehicle_type_id":"4","last_reported":1760717544,"current_range_meters":4000,"station_id":"ce4bh512rcd13ifvqe3g","pricing_plan_id":"cebpf4jnsgd1na2vs0mg"},{"bike_id":"afb588ae-ab59-4620-a508-54c23b74e3e7","system_id":"levelo_inurba_marseille","lat":43.24659,"lon":5.38167,"is_reserved":false,"is_disabled":false,"rental_uris":{"android":"levelo://app?vid=afb588ae-ab59-4620-a508-54c23b74e3e7","ios":"levelo://app?vid=afb588ae-ab59-4620-a508-54c23b74e3e7"},"vehicle_type_id":"4","last_reported":1760717544,"current_range_meters":4000,"station_id":"ce4bhih2rcd13ifvqfr0","pricing_plan_id":"cebpf4jnsgd1na2vs0mg"},{"bike_id":"52c1df48-fa7d-4331-ba11-b9b8ed1f84ba","system_id":"levelo_inurba_marseille","lat":43.29504,"lon":5.3752,"is_reserved":false,"is_disabled":false,"rental_uris":{"android":"levelo://app?vid=52c1df48-fa7d-4331-ba11-b9b8ed1f84ba","ios":"levelo://app?vid=52c1df48-fa7d-4331-ba11-b9b8ed1f84ba"},"vehicle_type_id":"4","last_reported":1760717544,"current_range_meters":4000,"station_id":"ce4bgkp2rcd13ifvqbmg","pricing_plan_id":"cebpf4jnsgd1na2vs0mg"},{"bike_id":"6cd16192-c813-4136-876c-ae8ebf20d344","system_id":"levelo_inurba_marseille","lat":43.33762,"lon":5.37484,"is_reserved":false,"is_disabled":false,"rental_uris":{"android":"levelo://app?vid=6cd16192-c813-4136-876c-ae8ebf20d344","ios":"levelo://app?vid=6cd16192-c813-4136-876c-ae8ebf20d344"},"vehicle_type_id":"4","last_reported":1760717544,"current_range_meters":4000,"station_id":"","pricing_plan_id":"cebpf4jnsgd1na2vs0mg"},{"bike_id":"c14ae581-ee51-45c2-aadd-ac6ba660d456","system_id":"levelo_inurba_marseille","lat":43.28029,"lon":5.36938,"is_reserved":false,"is_disabled":false,"rental_uris":{"android":"levelo://app?vid=c14ae581-ee51-45c2-aadd-ac6ba660d456","ios":"levelo://app?vid=c14ae581-ee51-45c2-aadd-ac6ba660d456"},"vehicle_type_id":"4","last_reported":1760717544,"current_range_meters":4000,"station_id":"ce4bha12rcd13ifvqef0","pricing_plan_id":"cebpf4jnsgd1na2vs0mg"},{"bike_id":"b81fe7a1-81fd-4b2b-9979-d0492562fd5f","system_id":"levelo_inurba_marseille","lat":43.292206,"lon":5.360737,"is_reserved":false,"is_disabled":false,"rental_uris":{"android":"levelo://app?vid=b81fe7a1-81fd-4b2b-9979-d0492562fd5f","ios":"levelo://app?vid=b81fe7a1-81fd-4b2b-9979-d0492562fd5f"},"vehicle_type_id":"4","last_reported":1760717544,"current_range_meters":4000,"station_id":"ce4bhbh2rcd13ifvqeqg","pricing_plan_id":"cebpf4jnsgd1na2vs0mg"},{"bike_id":"0c6bdeb4-1f12-4269-848e-5df58cd27e52","system_id":"levelo_inurba_marseille","lat":43.305468,"lon":5.365674,"is_reserved":false,"is_disabled":false,"rental_uris":{"android":"levelo://app?vid=0c6bdeb4-1f12-4269-848e-5df58cd27e52","ios":"levelo://app?vid=0c6bdeb4-1f12-4269-848e-5df58cd27e52"},"vehicle_type_id":"4","last_reported":1760717544,"current_range_meters":4000,"station_id":"ce4bgs12rcd13ifvqcag","pricing_plan_id":"cebpf4jnsgd1na2vs0mg"},{"bike_id":"c94323f2-4ec5-4f84-9f69-c3d049487e22","system_id":"levelo_inurba_marseille","lat":43.30784,"lon":5.37661,"is_reserved":false,"is_disabled":false,"rental_uris":{"android":"levelo://app?vid=c94323f2-4ec5-4f84-9f69-c3d049487e22","ios":"levelo://app?vid=c94323f2-4ec5-4f84-9f69-c3d049487e22"},"vehicle_type_id":"4","last_reported":1760717544,"current_range_meters":4000,"station_id":"ce4bgv92rcd13ifvqcq0","pricing_plan_id":"cebpf4jnsgd1na2vs0mg"},{"bike_id":"ecd9150a-82d1-439a-8ac1-0ab83b979277","system_id":"levelo_inurba_marseille","lat":43.30806,"lon":5.43498,"is_reserved":false,"is_disabled":true,"rental_uris":{"android":"levelo://app?vid=ecd9150a-82d1-439a-8ac1-0ab83b979277","ios":"levelo://app?vid=ecd9150a-82d1-439a-8ac1-0ab83b979277"},"vehicle_type_id":"4","last_reported":1760717544,"current_range_meters":4000,"station_id":"ce4bhph2rcd13ifvqheg","pricing_plan_id":"cebpf4jnsgd1na2vs0mg"},{"bike_id":"3a48cca6-95bf-43f0-aa42-cf09c19653bc","system_id":"levelo_inurba_marseille","lat":43.3097,"lon":5.39057,"is_reserved":false,"is_disabled":false,"rental_uris":{"android":"levelo://app?vid=3a48cca6-95bf-43f0-aa42-cf09c19653bc","ios":"levelo://app?vid=3a48cca6-95bf-43f0-aa42-cf09c19653bc"},"vehicle_type_id":"4","last_reported":1760717544,"current_range_meters":4400,"station_id":"ce4bgup2rcd13ifvqco0","pricing_plan_id":"cebpf4jnsgd1na2vs0mg"},{"bike_id":"b660ff74-c133-4839-82a1-d4f110d6f613","system_id":"levelo_inurba_marseille","lat":43.29771,"lon":5.37056,"is_reserved":false,"is_disabled":false,"rental_uris":{"android":"levelo://app?vid=b660ff74-c133-4839-82a1-d4f110d6f613","ios":"levelo://app?vid=b660ff74-c133-4839-82a1-d4f110d6f613"},"vehicle_type_id":"4","last_reported":1760717544,"current_range_meters":4400,"station_id":"ce4bgop2rcd13ifvqc1g","pricing_plan_id":"cebpf4jnsgd1na2vs0mg"},{"bike_id":"c7396221-6fe0-499d-bb8d-7c4f4cd6e9d8","system_id":"levelo_inurba_marseille","lat":43.27994,"lon":5.40029,"is_reserved":false,"is_disabled":false,"rental_uris":{"android":"levelo://app?vid=c7396221-6fe0-499d-bb8d-7c4f4cd6e9d8","ios":"levelo://app?vid=c7396221-6fe0-499d-bb8d-7c4f4cd6e9d8"},"vehicle_type_id":"4","last_reported":1760717544,"current_range_meters":4400,"station_id":"ce4bho92rcd13ifvqh4g","pricing_plan_id":"cebpf4jnsgd1na2vs0mg"},{"bike_id":"63e690eb-4b9d-444d-b606-91819122121b","system_id":"levelo_inurba_marseille","lat":43.30144,"lon":5.3876,"is_reserved":false,"is_disabled":false,"rental_uris":{"android":"levelo://app?vid=63e690eb-4b9d-444d-b606-91819122121b","ios":"levelo://app?vid=63e690eb-4b9d-444d-b606-91819122121b"},"vehicle_type_id":"4","last_reported":1760717544,"current_range_meters":4400,"station_id":"ce4bghh2rcd13ifvqb60","pricing_plan_id":"cebpf4jnsgd1na2vs0mg"},{"bike_id":"338323bd-fb63-41d9-acc6-e88695eb4771","system_id":"levelo_inurba_marseille","lat":43.292236,"lon":5.360725,"is_reserved":false,"is_disabled":false,"rental_uris":{"android":"levelo://app?vid=338323bd-fb63-41d9-acc6-e88695eb4771","ios":"levelo://app?vid=338323bd-fb63-41d9-acc6-e88695eb4771"},"vehicle_type_id":"4","last_reported":1760717544,"current_range_meters":4800,"station_id":"ce4bhbh2rcd13ifvqeqg","pricing_plan_id":"cebpf4jnsgd1na2vs0mg"},{"bike_id":"ed506af0-ab8c-4089-ad1a-25824b6f70de","system_id":"levelo_inurba_marseille","lat":43.31758,"lon":5.39021,"is_reserved":false,"is_disabled":false,"rental_uris":{"android":"levelo://app?vid=ed506af0-ab8c-4089-ad1a-25824b6f70de","ios":"levelo://app?vid=ed506af0-ab8c-4089-ad1a-25824b6f70de"},"vehicle_type_id":"4","last_reported":1760717544,"current_range_meters":4800,"station_id":"ce4bhqp2rcd13ifvqhng","pricing_plan_id":"cebpf4jnsgd1na2vs0mg"},{"bike_id":"20b2e53b-fb6b-4ad8-8cec-cf3786e2979c","system_id":"levelo_inurba_marseille","lat":43.30336,"lon":5.40434,"is_reserved":false,"is_disabled":false,"rental_uris":{"android":"levelo://app?vid=20b2e53b-fb6b-4ad8-8cec-cf3786e2979c","ios":"levelo://app?vid=20b2e53b-fb6b-4ad8-8cec-cf3786e2979c"},"vehicle_type_id":"4","last_reported":1760717544,"current_range_meters":4800,"station_id":"ce4bh012rcd13ifvqd10","pricing_plan_id":"cebpf4jnsgd1na2vs0mg"},{"bike_id":"afd3a141-6f64-4928-ba91-fca21b7af038","system_id":"levelo_inurba_marseille","lat":43.29669,"lon":5.36516,"is_reserved":false,"is_disabled":false,"rental_uris":{"android":"levelo://app?vid=afd3a141-6f64-4928-ba91-fca21b7af038","ios":"levelo://app?vid=afd3a141-6f64-4928-ba91-fca21b7af038"},"vehicle_type_id":"4","last_reported":1760717544,"current_range_meters":4800,"station_id":"","pricing_plan_id":"cebpf4jnsgd1na2vs0mg"},{"bike_id":"e8731235-1b84-4e8c-9b44-8d6e90643147","system_id":"levelo_inurba_marseille","lat":43.29169,"lon":5.37161,"is_reserved":false,"is_disabled":false,"rental_uris":{"android":"levelo://app?vid=e8731235-1b84-4e8c-9b44-8d6e90643147","ios":"levelo://app?vid=e8731235-1b84-4e8c-9b44-8d6e90643147"},"vehicle_type_id":"4","last_reported":1760717544,"current_range_meters":4800,"station_id":"ce4bha92rcd13ifvqeh0","pricing_plan_id":"cebpf4jnsgd1na2vs0mg"},{"bike_id":"f59d6867-72b4-4169-ae46-a4aa30ca4ecb","system_id":"levelo_inurba_marseille","lat":43.28717,"lon":5.37939,"is_reserved":false,"is_disabled":false,"rental_uris":{"android":"levelo://app?vid=f59d6867-72b4-4169-ae46-a4aa30ca4ecb","ios":"levelo://app?vid=f59d6867-72b4-4169-ae46-a4aa30ca4ecb"},"vehicle_type_id":"4","last_reported":1760717544,"current_range_meters":4800,"station_id":"ce4bh9p2rcd13ifvqec0","pricing_plan_id":"cebpf4jnsgd1na2vs0mg"},{"bike_id":"a794a8d7-b0f4-4816-9567-10e9d8cf2529","system_id":"levelo_inurba_marseille","lat":43.27347,"lon":5.39091,"is_reserved":false,"is_disabled":false,"rental_uris":{"android":"levelo://app?vid=a794a8d7-b0f4-4816-9567-10e9d8cf2529","ios":"levelo://app?vid=a794a8d7-b0f4-4816-9567-10e9d8cf2529"},"vehicle_type_id":"4","last_reported":1760717544,"current_range_meters":5600,"station_id":"","pricing_plan_id":"cebpf4jnsgd1na2vs0mg"},{"bike_id":"764a5a40-2cd3-439f-b377-61461a0574cf","system_id":"levelo_inurba_marseille","lat":43.29532,"lon":5.38548,"is_reserved":false,"is_disabled":false,"rental_uris":{"android":"levelo://app?vid=764a5a40-2cd3-439f-b377-61461a0574cf","ios":"levelo://app?vid=764a5a40-2cd3-439f-b377-61461a0574cf"},"vehicle_type_id":"4","last_reported":1760717544,"current_range_meters":5600,"station_id":"ce4bgih2rcd13ifvqba0","pricing_plan_id":"cebpf4jnsgd1na2vs0mg"},{"bike_id":"941e2514-bda5-4c68-8202-43709ac9856b","system_id":"levelo_inurba_marseille","lat":43.31517,"lon":5.38032,"is_reserved":false,"is_disabled":false,"rental_uris":{"android":"levelo://app?vid=941e2514-bda5-4c68-8202-43709ac9856b","ios":"levelo://app?vid=941e2514-bda5-4c68-8202-43709ac9856b"},"vehicle_type_id":"4","last_reported":1760717544,"current_range_meters":5600,"station_id":"ce4bhsp2rcd13ifvqi50","pricing_plan_id":"cebpf4jnsgd1na2vs0mg"},{"bike_id":"863efffc-8e3b-45b3-a96b-1a7728ca64e8","system_id":"levelo_inurba_marseille","lat":43.25122,"lon":5.40319,"is_reserved":false,"is_disabled":false,"rental_uris":{"android":"levelo://app?vid=863efffc-8e3b-45b3-a96b-1a7728ca64e8","ios":"levelo://app?vid=863efffc-8e3b-45b3-a96b-1a7728ca64e8"},"vehicle_type_id":"4","last_reported":1760717544,"current_range_meters":5600,"station_id":"ce4bhlh2rcd13ifvqgig","pricing_plan_id":"cebpf4jnsgd1na2vs0mg"},{"bike_id":"d68b41be-366f-40d7-a414-434cfe0517a5","system_id":"levelo_inurba_marseille","lat":43.31763,"lon":5.42225,"is_reserved":false,"is_disabled":false,"rental_uris":{"android":"levelo://app?vid=d68b41be-366f-40d7-a414-434cfe0517a5","ios":"levelo://app?vid=d68b41be-366f-40d7-a414-434cfe0517a5"},"vehicle_type_id":"4","last_reported":1760717544,"current_range_meters":5600,"station_id":"","pricing_plan_id":"cebpf4jnsgd1na2vs0mg"},{"bike_id":"a51436ec-23f2-4ca5-a4ab-4d3b87875d56","system_id":"levelo_inurba_marseille","lat":43.30633,"lon":5.40089,"is_reserved":false,"is_disabled":false,"rental_uris":{"android":"levelo://app?vid=a51436ec-23f2-4ca5-a4ab-4d3b87875d56","ios":"levelo://app?vid=a51436ec-23f2-4ca5-a4ab-4d3b87875d56"},"vehicle_type_id":"4","last_reported":1760717544,"current_range_meters":5600,"station_id":"ce4bh112rcd13ifvqda0","pricing_plan_id":"cebpf4jnsgd1na2vs0mg"},{"bike_id":"1f587b88-1111-4131-8204-bc0eec380f6d","system_id":"levelo_inurba_marseille","lat":43.29709,"lon":5.37701,"is_reserved":false,"is_disabled":false,"rental_uris":{"android":"levelo://app?vid=1f587b88-1111-4131-8204-bc0eec380f6d","ios":"levelo://app?vid=1f587b88-1111-4131-8204-bc0eec380f6d"},"vehicle_type_id":"4","last_reported":1760717544,"current_range_meters":5600,"station_id":"ce4bgkh2rcd13ifvqbl0","pricing_plan_id":"cebpf4jnsgd1na2vs0mg"},{"bike_id":"e4edc0e4-97af-4a7f-9878-b6aac0ce2f65","system_id":"levelo_inurba_marseille","lat":43.279987,"lon":5.400026,"is_reserved":false,"is_disabled":false,"rental_uris":{"android":"levelo://app?vid=e4edc0e4-97af-4a7f-9878-b6aac0ce2f65","ios":"levelo://app?vid=e4edc0e4-97af-4a7f-9878-b6aac0ce2f65"},"vehicle_type_id":"4","last_reported":1760717544,"current_range_meters":5600,"station_id":"ce4bho92rcd13ifvqh4g","pricing_plan_id":"cebpf4jnsgd1na2vs0mg"},{"bike_id":"52e753f3-e73b-439e-beb1-c3ec2bb1af3c","system_id":"levelo_inurba_marseille","lat":43.29448,"lon":5.39734,"is_reserved":false,"is_disabled":false,"rental_uris":{"android":"levelo://app?vid=52e753f3-e73b-439e-beb1-c3ec2bb1af3c","ios":"levelo://app?vid=52e753f3-e73b-439e-beb1-c3ec2bb1af3c"},"vehicle_type_id":"4","last_reported":1760717544,"current_range_meters":5600,"station_id":"ce4bh3h2rcd13ifvqdo0","pricing_plan_id":"cebpf4jnsgd1na2vs0mg"},{"bike_id":"fdf26eff-9110-4ea5-be39-de34c6f97f17","system_id":"levelo_inurba_marseille","lat":43.28414,"lon":5.34996,"is_reserved":false,"is_disabled":false,"rental_uris":{"android":"levelo://app?vid=fdf26eff-9110-4ea5-be39-de34c6f97f17","ios":"levelo://app?vid=fdf26eff-9110-4ea5-be39-de34c6f97f17"},"vehicle_type_id":"4","last_reported":1760717544,"current_range_meters":5600,"station_id":"ce4bhbh2rcd13ifvqepg","pricing_plan_id":"cebpf4jnsgd1na2vs0mg"},{"bike_id":"c4da24cb-4ecb-4623-b683-cd69243d050f","system_id":"levelo_inurba_marseille","lat":43.30891,"lon":5.37192,"is_reserved":false,"is_disabled":false,"rental_uris":{"android":"levelo://app?vid=c4da24cb-4ecb-4623-b683-cd69243d050f","ios":"levelo://app?vid=c4da24cb-4ecb-4623-b683-cd69243d050f"},"vehicle_type_id":"4","last_reported":1760717544,"current_range_meters":5600,"station_id":"ce4bguh2rcd13ifvqckg","pricing_plan_id":"cebpf4jnsgd1na2vs0mg"},{"bike_id":"daf3b6a4-9aab-4203-81c5-095461705038","system_id":"levelo_inurba_marseille","lat":43.28456,"lon":5.35882,"is_reserved":false,"is_disabled":false,"rental_uris":{"android":"levelo://app?vid=daf3b6a4-9aab-4203-81c5-095461705038","ios":"levelo://app?vid=daf3b6a4-9aab-4203-81c5-095461705038"},"vehicle_type_id":"4","last_reported":1760717544,"current_range_meters":5600,"station_id":"ce4bhah2rcd13ifvqei0","pricing_plan_id":"cebpf4jnsgd1na2vs0mg"},{"bike_id":"75e75e22-6cb0-41d4-ac91-2c85089fd8f0","system_id":"levelo_inurba_marseille","lat":43.296,"lon":5.38087,"is_reserved":false,"is_disabled":false,"rental_uris":{"android":"levelo://app?vid=75e75e22-6cb0-41d4-ac91-2c85089fd8f0","ios":"levelo://app?vid=75e75e22-6cb0-41d4-ac91-2c85089fd8f0"},"vehicle_type_id":"4","last_reported":1760717544,"current_range_meters":6000,"station_id":"ce4bgl12rcd13ifvqbo0","pricing_plan_id":"cebpf4jnsgd1na2vs0mg"},{"bike_id":"9d3262e2-cb61-4311-8df1-e9193baf1bf6","system_id":"levelo_inurba_marseille","lat":43.283663,"lon":5.386361,"is_reserved":false,"is_disabled":false,"rental_uris":{"android":"levelo://app?vid=9d3262e2-cb61-4311-8df1-e9193baf1bf6","ios":"levelo://app?vid=9d3262e2-cb61-4311-8df1-e9193baf1bf6"},"vehicle_type_id":"4","last_reported":1760717544,"current_range_meters":6000,"station_id":"ce4bh492rcd13ifvqdvg","pricing_plan_id":"cebpf4jnsgd1na2vs0mg"},{"bike_id":"af96e380-ef8b-412e-8dbe-07ad526806b5","system_id":"levelo_inurba_marseille","lat":43.33774,"lon":5.37462,"is_reserved":false,"is_disabled":false,"rental_uris":{"android":"levelo://app?vid=af96e380-ef8b-412e-8dbe-07ad526806b5","ios":"levelo://app?vid=af96e380-ef8b-412e-8dbe-07ad526806b5"},"vehicle_type_id":"4","last_reported":1760717544,"current_range_meters":6000,"station_id":"","pricing_plan_id":"cebpf4jnsgd1na2vs0mg"},{"bike_id":"7a69a16e-1055-4324-864e-110a3d95c2b9","system_id":"levelo_inurba_marseille","lat":43.22533,"lon":5.34834,"is_reserved":false,"is_disabled":false,"rental_uris":{"android":"levelo://app?vid=7a69a16e-1055-4324-864e-110a3d95c2b9","ios":"levelo://app?vid=7a69a16e-1055-4324-864e-110a3d95c2b9"},"vehicle_type_id":"4","last_reported":1760717544,"current_range_meters":6000,"station_id":"","pricing_plan_id":"cebpf4jnsgd1na2vs0mg"},{"bike_id":"ee039e32-deb1-4233-90ca-8747af0a2817","system_id":"levelo_inurba_marseille","lat":43.26503,"lon":5.3955,"is_reserved":false,"is_disabled":false,"rental_uris":{"android":"levelo://app?vid=ee039e32-deb1-4233-90ca-8747af0a2817","ios":"levelo://app?vid=ee039e32-deb1-4233-90ca-8747af0a2817"},"vehicle_type_id":"4","last_reported":1760717544,"current_range_meters":6000,"station_id":"ce4bhi12rcd13ifvqfq0","pricing_plan_id":"cebpf4jnsgd1na2vs0mg"},{"bike_id":"4b150ed4-2a96-4f05-bf50-dde36c31ec68","system_id":"levelo_inurba_marseille","lat":43.33024,"lon":5.39047,"is_reserved":false,"is_disabled":false,"rental_uris":{"android":"levelo://app?vid=4b150ed4-2a96-4f05-bf50-dde36c31ec68","ios":"levelo://app?vid=4b150ed4-2a96-4f05-bf50-dde36c31ec68"},"vehicle_type_id":"4","last_reported":1760717544,"current_range_meters":6000,"station_id":"ce4bhr92rcd13ifvqhrg","pricing_plan_id":"cebpf4jnsgd1na2vs0mg"},{"bike_id":"29b5980b-54ca-4a56-8fe7-fd8804799cf3","system_id":"levelo_inurba_marseille","lat":43.28556,"lon":5.44091,"is_reserved":false,"is_disabled":false,"rental_uris":{"android":"levelo://app?vid=29b5980b-54ca-4a56-8fe7-fd8804799cf3","ios":"levelo://app?vid=29b5980b-54ca-4a56-8fe7-fd8804799cf3"},"vehicle_type_id":"4","last_reported":1760717544,"current_range_meters":6000,"station_id":"st_d3j3df2ikq2c7380ej80","pricing_plan_id":"cebpf4jnsgd1na2vs0mg"},{"bike_id":"6f2aad37-a6a4-4947-a2b5-9c68cf9db50d","system_id":"levelo_inurba_marseille","lat":43.29443,"lon":5.39745,"is_reserved":false,"is_disabled":false,"rental_uris":{"android":"levelo://app?vid=6f2aad37-a6a4-4947-a2b5-9c68cf9db50d","ios":"levelo://app?vid=6f2aad37-a6a4-4947-a2b5-9c68cf9db50d"},"vehicle_type_id":"4","last_reported":1760717544,"current_range_meters":6000,"station_id":"ce4bh3h2rcd13ifvqdo0","pricing_plan_id":"cebpf4jnsgd1na2vs0mg"},{"bike_id":"d8e9b8f7-08e2-4408-ba5a-bf3e71307936","system_id":"levelo_inurba_marseille","lat":43.21191,"lon":5.35074,"is_reserved":false,"is_disabled":false,"rental_uris":{"android":"levelo://app?vid=d8e9b8f7-08e2-4408-ba5a-bf3e71307936","ios":"levelo://app?vid=d8e9b8f7-08e2-4408-ba5a-bf3e71307936"},"vehicle_type_id":"4","last_reported":1760717544,"current_range_meters":6400,"station_id":"st_cvj6sg6p6f1abm77japg","pricing_plan_id":"cebpf4jnsgd1na2vs0mg"},{"bike_id":"020799f2-937d-46fd-b228-a39af6ff2b2b","system_id":"levelo_inurba_marseille","lat":43.3058,"lon":5.37234,"is_reserved":false,"is_disabled":false,"rental_uris":{"android":"levelo://app?vid=020799f2-937d-46fd-b228-a39af6ff2b2b","ios":"levelo://app?vid=020799f2-937d-46fd-b228-a39af6ff2b2b"},"vehicle_type_id":"4","last_reported":1760717544,"current_range_meters":6400,"station_id":"ce4bgqh2rcd13ifvqc4g","pricing_plan_id":"cebpf4jnsgd1na2vs0mg"},{"bike_id":"809b0c22-60c1-425c-9233-4b2a7d53e7fc","system_id":"levelo_inurba_marseille","lat":43.301354,"lon":5.398696,"is_reserved":false,"is_disabled":false,"rental_uris":{"android":"levelo://app?vid=809b0c22-60c1-425c-9233-4b2a7d53e7fc","ios":"levelo://app?vid=809b0c22-60c1-425c-9233-4b2a7d53e7fc"},"vehicle_type_id":"4","last_reported":1760717544,"current_range_meters":6400,"station_id":"ce4bh0h2rcd13ifvqd40","pricing_plan_id":"cebpf4jnsgd1na2vs0mg"},{"bike_id":"817e90b6-3500-48bf-9da7-dcd6a192f2f5","system_id":"levelo_inurba_marseille","lat":43.315213,"lon":5.380275,"is_reserved":false,"is_disabled":true,"rental_uris":{"android":"levelo://app?vid=817e90b6-3500-48bf-9da7-dcd6a192f2f5","ios":"levelo://app?vid=817e90b6-3500-48bf-9da7-dcd6a192f2f5"},"vehicle_type_id":"4","last_reported":1760717544,"current_range_meters":6400,"station_id":"ce4bhsp2rcd13ifvqi50","pricing_plan_id":"cebpf4jnsgd1na2vs0mg"},{"bike_id":"500dade4-7d04-4844-b9d2-f77a2532b019","system_id":"levelo_inurba_marseille","lat":43.28267,"lon":5.35061,"is_reserved":false,"is_disabled":false,"rental_uris":{"android":"levelo://app?vid=500dade4-7d04-4844-b9d2-f77a2532b019","ios":"levelo://app?vid=500dade4-7d04-4844-b9d2-f77a2532b019"},"vehicle_type_id":"4","last_reported":1760717544,"current_range_meters":6400,"station_id":"ce4bhbp2rcd13ifvqerg","pricing_plan_id":"cebpf4jnsgd1na2vs0mg"},{"bike_id":"93fcaf4b-075b-45a7-aa01-d8dbd66a2f69","system_id":"levelo_inurba_marseille","lat":43.28454,"lon":5.35888,"is_reserved":false,"is_disabled":false,"rental_uris":{"android":"levelo://app?vid=93fcaf4b-075b-45a7-aa01-d8dbd66a2f69","ios":"levelo://app?vid=93fcaf4b-075b-45a7-aa01-d8dbd66a2f69"},"vehicle_type_id":"4","last_reported":1760717544,"current_range_meters":6400,"station_id":"ce4bhah2rcd13ifvqei0","pricing_plan_id":"cebpf4jnsgd1na2vs0mg"},{"bike_id":"7856590a-1572-412a-918e-77843d1b598a","system_id":"levelo_inurba_marseille","lat":43.28073,"lon":5.42198,"is_reserved":false,"is_disabled":false,"rental_uris":{"android":"levelo://app?vid=7856590a-1572-412a-918e-77843d1b598a","ios":"levelo://app?vid=7856590a-1572-412a-918e-77843d1b598a"},"vehicle_type_id":"4","last_reported":1760717544,"current_range_meters":6400,"station_id":"","pricing_plan_id":"cebpf4jnsgd1na2vs0mg"},{"bike_id":"7a63795d-d6ae-4db3-866d-c16b2af002f1","system_id":"levelo_inurba_marseille","lat":43.29922,"lon":5.37598,"is_reserved":false,"is_disabled":false,"rental_uris":{"android":"levelo://app?vid=7a63795d-d6ae-4db3-866d-c16b2af002f1","ios":"levelo://app?vid=7a63795d-d6ae-4db3-866d-c16b2af002f1"},"vehicle_type_id":"4","last_reported":1760717544,"current_range_meters":6400,"station_id":"","pricing_plan_id":"cebpf4jnsgd1na2vs0mg"},{"bike_id":"6aed8194-f886-4e8d-8b59-176aa0c7970a","system_id":"levelo_inurba_marseille","lat":43.28611,"lon":5.35113,"is_reserved":false,"is_disabled":false,"rental_uris":{"android":"levelo://app?vid=6aed8194-f886-4e8d-8b59-176aa0c7970a","ios":"levelo://app?vid=6aed8194-f886-4e8d-8b59-176aa0c7970a"},"vehicle_type_id":"4","last_reported":1760717544,"current_range_meters":6400,"station_id":"ce4bhch2rcd13ifvqeug","pricing_plan_id":"cebpf4jnsgd1na2vs0mg"},{"bike_id":"7e444206-20cf-47e2-a819-82c6ab3d59a7","system_id":"levelo_inurba_marseille","lat":43.33699,"lon":5.4064,"is_reserved":false,"is_disabled":false,"rental_uris":{"android":"levelo://app?vid=7e444206-20cf-47e2-a819-82c6ab3d59a7","ios":"levelo://app?vid=7e444206-20cf-47e2-a819-82c6ab3d59a7"},"vehicle_type_id":"4","last_reported":1760717544,"current_range_meters":6400,"station_id":"","pricing_plan_id":"cebpf4jnsgd1na2vs0mg"},{"bike_id":"6bed5ae2-7d10-4d79-824c-7d88af50fda8","system_id":"levelo_inurba_marseille","lat":43.273773,"lon":5.362582,"is_reserved":false,"is_disabled":false,"rental_uris":{"android":"levelo://app?vid=6bed5ae2-7d10-4d79-824c-7d88af50fda8","ios":"levelo://app?vid=6bed5ae2-7d10-4d79-824c-7d88af50fda8"},"vehicle_type_id":"4","last_reported":1760717544,"current_range_meters":6400,"station_id":"ce4bhbh2rcd13ifvqeo0","pricing_plan_id":"cebpf4jnsgd1na2vs0mg"},{"bike_id":"1dc3768d-0b4e-4859-817c-5a4ee299d7ad","system_id":"levelo_inurba_marseille","lat":43.29724,"lon":5.37866,"is_reserved":false,"is_disabled":false,"rental_uris":{"android":"levelo://app?vid=1dc3768d-0b4e-4859-817c-5a4ee299d7ad","ios":"levelo://app?vid=1dc3768d-0b4e-4859-817c-5a4ee299d7ad"},"vehicle_type_id":"4","last_reported":1760717544,"current_range_meters":6400,"station_id":"","pricing_plan_id":"cebpf4jnsgd1na2vs0mg"},{"bike_id":"b2c86985-5186-4767-bd21-191cd88b6806","system_id":"levelo_inurba_marseille","lat":43.271036,"lon":5.36435,"is_reserved":false,"is_disabled":false,"rental_uris":{"android":"levelo://app?vid=b2c86985-5186-4767-bd21-191cd88b6806","ios":"levelo://app?vid=b2c86985-5186-4767-bd21-191cd88b6806"},"vehicle_type_id":"4","last_reported":1760717544,"current_range_meters":6800,"station_id":"ce4bhgp2rcd13ifvqfc0","pricing_plan_id":"cebpf4jnsgd1na2vs0mg"},{"bike_id":"4405ec63-9f02-4d1c-9b47-ab2b427b77e9","system_id":"levelo_inurba_marseille","lat":43.28461,"lon":5.38449,"is_reserved":false,"is_disabled":false,"rental_uris":{"android":"levelo://app?vid=4405ec63-9f02-4d1c-9b47-ab2b427b77e9","ios":"levelo://app?vid=4405ec63-9f02-4d1c-9b47-ab2b427b77e9"},"vehicle_type_id":"4","last_reported":1760717544,"current_range_meters":6800,"station_id":"ce4bh512rcd13ifvqe3g","pricing_plan_id":"cebpf4jnsgd1na2vs0mg"},{"bike_id":"9f1251af-0a96-4719-9db6-60839db90c4d","system_id":"levelo_inurba_marseille","lat":43.29851,"lon":5.36284,"is_reserved":false,"is_disabled":false,"rental_uris":{"android":"levelo://app?vid=9f1251af-0a96-4719-9db6-60839db90c4d","ios":"levelo://app?vid=9f1251af-0a96-4719-9db6-60839db90c4d"},"vehicle_type_id":"4","last_reported":1760717544,"current_range_meters":6800,"station_id":"ce4bgpp2rcd13ifvqc3g","pricing_plan_id":"cebpf4jnsgd1na2vs0mg"},{"bike_id":"e0ec5506-e2ba-40de-887e-e2b379e856f1","system_id":"levelo_inurba_marseille","lat":43.323633,"lon":5.367546,"is_reserved":false,"is_disabled":false,"rental_uris":{"android":"levelo://app?vid=e0ec5506-e2ba-40de-887e-e2b379e856f1","ios":"levelo://app?vid=e0ec5506-e2ba-40de-887e-e2b379e856f1"},"vehicle_type_id":"4","last_reported":1760717544,"current_range_meters":6800,"station_id":"ce4bgrp2rcd13ifvqc9g","pricing_plan_id":"cebpf4jnsgd1na2vs0mg"},{"bike_id":"662e034f-ec92-417c-a838-68762f3020bc","system_id":"levelo_inurba_marseille","lat":43.30473,"lon":5.36826,"is_reserved":false,"is_disabled":false,"rental_uris":{"android":"levelo://app?vid=662e034f-ec92-417c-a838-68762f3020bc","ios":"levelo://app?vid=662e034f-ec92-417c-a838-68762f3020bc"},"vehicle_type_id":"4","last_reported":1760717544,"current_range_meters":6800,"station_id":"","pricing_plan_id":"cebpf4jnsgd1na2vs0mg"},{"bike_id":"c792d111-b711-4667-8b77-c74b08ded173","system_id":"levelo_inurba_marseille","lat":43.28419,"lon":5.37502,"is_reserved":false,"is_disabled":false,"rental_uris":{"android":"levelo://app?vid=c792d111-b711-4667-8b77-c74b08ded173","ios":"levelo://app?vid=c792d111-b711-4667-8b77-c74b08ded173"},"vehicle_type_id":"4","last_reported":1760717544,"current_range_meters":6800,"station_id":"ce4bh412rcd13ifvqds0","pricing_plan_id":"cebpf4jnsgd1na2vs0mg"},{"bike_id":"7e354d59-d455-45a4-86b9-7ac349b56f10","system_id":"levelo_inurba_marseille","lat":43.29195,"lon":5.35797,"is_reserved":false,"is_disabled":false,"rental_uris":{"android":"levelo://app?vid=7e354d59-d455-45a4-86b9-7ac349b56f10","ios":"levelo://app?vid=7e354d59-d455-45a4-86b9-7ac349b56f10"},"vehicle_type_id":"4","last_reported":1760717544,"current_range_meters":7200,"station_id":"ce4bhb12rcd13ifvqel0","pricing_plan_id":"cebpf4jnsgd1na2vs0mg"},{"bike_id":"ed6a7fab-ea7d-49bc-8e7a-c7976c252eed","system_id":"levelo_inurba_marseille","lat":43.280784,"lon":5.396622,"is_reserved":false,"is_disabled":false,"rental_uris":{"android":"levelo://app?vid=ed6a7fab-ea7d-49bc-8e7a-c7976c252eed","ios":"levelo://app?vid=ed6a7fab-ea7d-49bc-8e7a-c7976c252eed"},"vehicle_type_id":"4","last_reported":1760717544,"current_range_meters":7200,"station_id":"ce4bho12rcd13ifvqh2g","pricing_plan_id":"cebpf4jnsgd1na2vs0mg"},{"bike_id":"a5b27df3-a918-4261-ab48-66291b56aa89","system_id":"levelo_inurba_marseille","lat":43.28615,"lon":5.35114,"is_reserved":false,"is_disabled":false,"rental_uris":{"android":"levelo://app?vid=a5b27df3-a918-4261-ab48-66291b56aa89","ios":"levelo://app?vid=a5b27df3-a918-4261-ab48-66291b56aa89"},"vehicle_type_id":"4","last_reported":1760717544,"current_range_meters":7200,"station_id":"ce4bhch2rcd13ifvqeug","pricing_plan_id":"cebpf4jnsgd1na2vs0mg"},{"bike_id":"c871ca87-9ea0-4c82-8f96-1d74fe568265","system_id":"levelo_inurba_marseille","lat":43.28584,"lon":5.41472,"is_reserved":false,"is_disabled":false,"rental_uris":{"android":"levelo://app?vid=c871ca87-9ea0-4c82-8f96-1d74fe568265","ios":"levelo://app?vid=c871ca87-9ea0-4c82-8f96-1d74fe568265"},"vehicle_type_id":"4","last_reported":1760717544,"current_range_meters":7200,"station_id":"","pricing_plan_id":"cebpf4jnsgd1na2vs0mg"},{"bike_id":"6bf316da-18cb-40c3-91d9-64810e635b23","system_id":"levelo_inurba_marseille","lat":43.2949,"lon":5.38526,"is_reserved":false,"is_disabled":false,"rental_uris":{"android":"levelo://app?vid=6bf316da-18cb-40c3-91d9-64810e635b23","ios":"levelo://app?vid=6bf316da-18cb-40c3-91d9-64810e635b23"},"vehicle_type_id":"4","last_reported":1760717544,"current_range_meters":8000,"station_id":"","pricing_plan_id":"cebpf4jnsgd1na2vs0mg"},{"bike_id":"47b6a661-48b8-461f-9827-f48295e67bbf","system_id":"levelo_inurba_marseille","lat":43.26328,"lon":5.39837,"is_reserved":false,"is_disabled":false,"rental_uris":{"android":"levelo://app?vid=47b6a661-48b8-461f-9827-f48295e67bbf","ios":"levelo://app?vid=47b6a661-48b8-461f-9827-f48295e67bbf"},"vehicle_type_id":"4","last_reported":1760717544,"current_range_meters":8000,"station_id":"","pricing_plan_id":"cebpf4jnsgd1na2vs0mg"},{"bike_id":"6235bad9-b2fa-4d06-a194-bbd71975b4ed","system_id":"levelo_inurba_marseille","lat":43.30256,"lon":5.40078,"is_reserved":false,"is_disabled":false,"rental_uris":{"android":"levelo://app?vid=6235bad9-b2fa-4d06-a194-bbd71975b4ed","ios":"levelo://app?vid=6235bad9-b2fa-4d06-a194-bbd71975b4ed"},"vehicle_type_id":"4","last_reported":1760717544,"current_range_meters":8000,"station_id":"ce4bgvh2rcd13ifvqcs0","pricing_plan_id":"cebpf4jnsgd1na2vs0mg"},{"bike_id":"8b3a37fc-8bd1-4e9d-8d32-03e471d09683","system_id":"levelo_inurba_marseille","lat":43.246603,"lon":5.381614,"is_reserved":false,"is_disabled":false,"rental_uris":{"android":"levelo://app?vid=8b3a37fc-8bd1-4e9d-8d32-03e471d09683","ios":"levelo://app?vid=8b3a37fc-8bd1-4e9d-8d32-03e471d09683"},"vehicle_type_id":"4","last_reported":1760717544,"current_range_meters":8000,"station_id":"ce4bhih2rcd13ifvqfr0","pricing_plan_id":"cebpf4jnsgd1na2vs0mg"},{"bike_id":"d1b07b15-8b21-4065-8a68-6b17ae21714e","system_id":"levelo_inurba_marseille","lat":43.248,"lon":5.37464,"is_reserved":false,"is_disabled":false,"rental_uris":{"android":"levelo://app?vid=d1b07b15-8b21-4065-8a68-6b17ae21714e","ios":"levelo://app?vid=d1b07b15-8b21-4065-8a68-6b17ae21714e"},"vehicle_type_id":"4","last_reported":1760717544,"current_range_meters":8000,"station_id":"ce4bhgh2rcd13ifvqfb0","pricing_plan_id":"cebpf4jnsgd1na2vs0mg"},{"bike_id":"5511cbb7-31b9-499a-b428-71f4b047b84d","system_id":"levelo_inurba_marseille","lat":43.28438,"lon":5.39208,"is_reserved":false,"is_disabled":false,"rental_uris":{"android":"levelo://app?vid=5511cbb7-31b9-499a-b428-71f4b047b84d","ios":"levelo://app?vid=5511cbb7-31b9-499a-b428-71f4b047b84d"},"vehicle_type_id":"4","last_reported":1760717544,"current_range_meters":8000,"station_id":"ce4bhoh2rcd13ifvqh5g","pricing_plan_id":"cebpf4jnsgd1na2vs0mg"},{"bike_id":"43c3a9ba-4516-4a9f-ac0e-ab4e2f7926ed","system_id":"levelo_inurba_marseille","lat":43.27502,"lon":5.42448,"is_reserved":false,"is_disabled":false,"rental_uris":{"android":"levelo://app?vid=43c3a9ba-4516-4a9f-ac0e-ab4e2f7926ed","ios":"levelo://app?vid=43c3a9ba-4516-4a9f-ac0e-ab4e2f7926ed"},"vehicle_type_id":"4","last_reported":1760717544,"current_range_meters":8400,"station_id":"ce4bhn92rcd13ifvqgrg","pricing_plan_id":"cebpf4jnsgd1na2vs0mg"},{"bike_id":"68621620-8760-401d-b036-7f27f95adc07","system_id":"levelo_inurba_marseille","lat":43.28786,"lon":5.38843,"is_reserved":false,"is_disabled":false,"rental_uris":{"android":"levelo://app?vid=68621620-8760-401d-b036-7f27f95adc07","ios":"levelo://app?vid=68621620-8760-401d-b036-7f27f95adc07"},"vehicle_type_id":"4","last_reported":1760717544,"current_range_meters":8400,"station_id":"","pricing_plan_id":"cebpf4jnsgd1na2vs0mg"},{"bike_id":"a87e59d0-85ba-4fa4-a853-bd5d970beee9","system_id":"levelo_inurba_marseille","lat":43.30961,"lon":5.39024,"is_reserved":false,"is_disabled":true,"rental_uris":{"android":"levelo://app?vid=a87e59d0-85ba-4fa4-a853-bd5d970beee9","ios":"levelo://app?vid=a87e59d0-85ba-4fa4-a853-bd5d970beee9"},"vehicle_type_id":"4","last_reported":1760717544,"current_range_meters":8400,"station_id":"ce4bgup2rcd13ifvqco0","pricing_plan_id":"cebpf4jnsgd1na2vs0mg"},{"bike_id":"121f55c8-5a85-4142-a96c-bf52eb873442","system_id":"levelo_inurba_marseille","lat":43.30448,"lon":5.36919,"is_reserved":false,"is_disabled":false,"rental_uris":{"android":"levelo://app?vid=121f55c8-5a85-4142-a96c-bf52eb873442","ios":"levelo://app?vid=121f55c8-5a85-4142-a96c-bf52eb873442"},"vehicle_type_id":"4","last_reported":1760717544,"current_range_meters":8400,"station_id":"","pricing_plan_id":"cebpf4jnsgd1na2vs0mg"},{"bike_id":"0670def4-b15a-4c00-8829-0cd906a61bcb","system_id":"levelo_inurba_marseille","lat":43.33804,"lon":5.37444,"is_reserved":false,"is_disabled":false,"rental_uris":{"android":"levelo://app?vid=0670def4-b15a-4c00-8829-0cd906a61bcb","ios":"levelo://app?vid=0670def4-b15a-4c00-8829-0cd906a61bcb"},"vehicle_type_id":"4","last_reported":1760717544,"current_range_meters":8400,"station_id":"","pricing_plan_id":"cebpf4jnsgd1na2vs0mg"},{"bike_id":"2bf32494-c9cd-4b28-8849-b238204b84a3","system_id":"levelo_inurba_marseille","lat":43.27376,"lon":5.36247,"is_reserved":false,"is_disabled":false,"rental_uris":{"android":"levelo://app?vid=2bf32494-c9cd-4b28-8849-b238204b84a3","ios":"levelo://app?vid=2bf32494-c9cd-4b28-8849-b238204b84a3"},"vehicle_type_id":"4","last_reported":1760717544,"current_range_meters":8400,"station_id":"ce4bhbh2rcd13ifvqeo0","pricing_plan_id":"cebpf4jnsgd1na2vs0mg"},{"bike_id":"858922c8-a05e-497c-b27e-42a64cc2dc46","system_id":"levelo_inurba_marseille","lat":43.2997,"lon":5.38493,"is_reserved":false,"is_disabled":false,"rental_uris":{"android":"levelo://app?vid=858922c8-a05e-497c-b27e-42a64cc2dc46","ios":"levelo://app?vid=858922c8-a05e-497c-b27e-42a64cc2dc46"},"vehicle_type_id":"4","last_reported":1760717544,"current_range_meters":8400,"station_id":"ce4bgj92rcd13ifvqbd0","pricing_plan_id":"cebpf4jnsgd1na2vs0mg"},{"bike_id":"e257a5c9-b99e-4af1-ac4f-b017f1c8b418","system_id":"levelo_inurba_marseille","lat":43.33759,"lon":5.37438,"is_reserved":false,"is_disabled":false,"rental_uris":{"android":"levelo://app?vid=e257a5c9-b99e-4af1-ac4f-b017f1c8b418","ios":"levelo://app?vid=e257a5c9-b99e-4af1-ac4f-b017f1c8b418"},"vehicle_type_id":"4","last_reported":1760717544,"current_range_meters":8800,"station_id":"","pricing_plan_id":"cebpf4jnsgd1na2vs0mg"},{"bike_id":"245a030c-0c43-41f8-a4cc-088d55252b06","system_id":"levelo_inurba_marseille","lat":43.24468,"lon":5.36945,"is_reserved":false,"is_disabled":false,"rental_uris":{"android":"levelo://app?vid=245a030c-0c43-41f8-a4cc-088d55252b06","ios":"levelo://app?vid=245a030c-0c43-41f8-a4cc-088d55252b06"},"vehicle_type_id":"4","last_reported":1760717544,"current_range_meters":8800,"station_id":"","pricing_plan_id":"cebpf4jnsgd1na2vs0mg"},{"bike_id":"be1c4bc2-ea26-4165-ae2c-40ac4665f215","system_id":"levelo_inurba_marseille","lat":43.29467,"lon":5.39605,"is_reserved":false,"is_disabled":true,"rental_uris":{"android":"levelo://app?vid=be1c4bc2-ea26-4165-ae2c-40ac4665f215","ios":"levelo://app?vid=be1c4bc2-ea26-4165-ae2c-40ac4665f215"},"vehicle_type_id":"4","last_reported":1760717544,"current_range_meters":8800,"station_id":"","pricing_plan_id":"cebpf4jnsgd1na2vs0mg"},{"bike_id":"fa8ca61a-e894-4f15-bf25-828ed49c69a6","system_id":"levelo_inurba_marseille","lat":43.23188,"lon":5.35562,"is_reserved":false,"is_disabled":false,"rental_uris":{"android":"levelo://app?vid=fa8ca61a-e894-4f15-bf25-828ed49c69a6","ios":"levelo://app?vid=fa8ca61a-e894-4f15-bf25-828ed49c69a6"},"vehicle_type_id":"4","last_reported":1760717544,"current_range_meters":8800,"station_id":"ce4bhu92rcd13ifvqi70","pricing_plan_id":"cebpf4jnsgd1na2vs0mg"},{"bike_id":"256e41e1-4dff-452f-b332-4897e20edf26","system_id":"levelo_inurba_marseille","lat":43.295282,"lon":5.385389,"is_reserved":false,"is_disabled":false,"rental_uris":{"android":"levelo://app?vid=256e41e1-4dff-452f-b332-4897e20edf26","ios":"levelo://app?vid=256e41e1-4dff-452f-b332-4897e20edf26"},"vehicle_type_id":"4","last_reported":1760717544,"current_range_meters":8800,"station_id":"ce4bgih2rcd13ifvqba0","pricing_plan_id":"cebpf4jnsgd1na2vs0mg"},{"bike_id":"2555377f-ca02-46a8-ba6f-eed20518396b","system_id":"levelo_inurba_marseille","lat":43.29959,"lon":5.37169,"is_reserved":false,"is_disabled":false,"rental_uris":{"android":"levelo://app?vid=2555377f-ca02-46a8-ba6f-eed20518396b","ios":"levelo://app?vid=2555377f-ca02-46a8-ba6f-eed20518396b"},"vehicle_type_id":"4","last_reported":1760717544,"current_range_meters":9200,"station_id":"ce4bgr92rcd13ifvqc7g","pricing_plan_id":"cebpf4jnsgd1na2vs0mg"},{"bike_id":"26416dae-68db-465d-ba83-72f605f27523","system_id":"levelo_inurba_marseille","lat":43.337444,"lon":5.374475,"is_reserved":false,"is_disabled":false,"rental_uris":{"android":"levelo://app?vid=26416dae-68db-465d-ba83-72f605f27523","ios":"levelo://app?vid=26416dae-68db-465d-ba83-72f605f27523"},"vehicle_type_id":"4","last_reported":1760717544,"current_range_meters":9200,"station_id":"","pricing_plan_id":"cebpf4jnsgd1na2vs0mg"},{"bike_id":"f71bb932-c8b7-4ad0-a1c2-ed718a53948d","system_id":"levelo_inurba_marseille","lat":43.295992,"lon":5.38104,"is_reserved":false,"is_disabled":false,"rental_uris":{"android":"levelo://app?vid=f71bb932-c8b7-4ad0-a1c2-ed718a53948d","ios":"levelo://app?vid=f71bb932-c8b7-4ad0-a1c2-ed718a53948d"},"vehicle_type_id":"4","last_reported":1760717544,"current_range_meters":9600,"station_id":"ce4bgl12rcd13ifvqbo0","pricing_plan_id":"cebpf4jnsgd1na2vs0mg"},{"bike_id":"9dd1d8fe-c2a8-4a70-a175-61f5f9fe7fd2","system_id":"levelo_inurba_marseille","lat":43.32297,"lon":5.38268,"is_reserved":false,"is_disabled":false,"rental_uris":{"android":"levelo://app?vid=9dd1d8fe-c2a8-4a70-a175-61f5f9fe7fd2","ios":"levelo://app?vid=9dd1d8fe-c2a8-4a70-a175-61f5f9fe7fd2"},"vehicle_type_id":"4","last_reported":1760717544,"current_range_meters":9600,"station_id":"ce4bhr12rcd13ifvqhqg","pricing_plan_id":"cebpf4jnsgd1na2vs0mg"},{"bike_id":"2a5498ee-d604-476f-a7c3-7260eebaa7f3","system_id":"levelo_inurba_marseille","lat":43.29571,"lon":5.37426,"is_reserved":false,"is_disabled":false,"rental_uris":{"android":"levelo://app?vid=2a5498ee-d604-476f-a7c3-7260eebaa7f3","ios":"levelo://app?vid=2a5498ee-d604-476f-a7c3-7260eebaa7f3"},"vehicle_type_id":"4","last_reported":1760717544,"current_range_meters":9600,"station_id":"","pricing_plan_id":"cebpf4jnsgd1na2vs0mg"},{"bike_id":"ab6a271b-fce5-4eb3-b867-76ad5ef32ff8","system_id":"levelo_inurba_marseille","lat":43.24385,"lon":5.37058,"is_reserved":false,"is_disabled":false,"rental_uris":{"android":"levelo://app?vid=ab6a271b-fce5-4eb3-b867-76ad5ef32ff8","ios":"levelo://app?vid=ab6a271b-fce5-4eb3-b867-76ad5ef32ff8"},"vehicle_type_id":"4","last_reported":1760717544,"current_range_meters":9600,"station_id":"ce4bhhh2rcd13ifvqfk0","pricing_plan_id":"cebpf4jnsgd1na2vs0mg"},{"bike_id":"0a1ca430-2cd2-41e6-bf93-3073dbda113c","system_id":"levelo_inurba_marseille","lat":43.284426,"lon":5.392092,"is_reserved":false,"is_disabled":false,"rental_uris":{"android":"levelo://app?vid=0a1ca430-2cd2-41e6-bf93-3073dbda113c","ios":"levelo://app?vid=0a1ca430-2cd2-41e6-bf93-3073dbda113c"},"vehicle_type_id":"4","last_reported":1760717544,"current_range_meters":9600,"station_id":"ce4bhoh2rcd13ifvqh5g","pricing_plan_id":"cebpf4jnsgd1na2vs0mg"},{"bike_id":"3b09152f-47ec-488b-80c5-6b51f21d588e","system_id":"levelo_inurba_marseille","lat":43.2558,"lon":5.38234,"is_reserved":false,"is_disabled":false,"rental_uris":{"android":"levelo://app?vid=3b09152f-47ec-488b-80c5-6b51f21d588e","ios":"levelo://app?vid=3b09152f-47ec-488b-80c5-6b51f21d588e"},"vehicle_type_id":"4","last_reported":1760717544,"current_range_meters":9600,"station_id":"ce4bhih2rcd13ifvqfs0","pricing_plan_id":"cebpf4jnsgd1na2vs0mg"},{"bike_id":"7260fbd3-926b-4214-a9b1-9423223c590b","system_id":"levelo_inurba_marseille","lat":43.301374,"lon":5.387768,"is_reserved":false,"is_disabled":false,"rental_uris":{"android":"levelo://app?vid=7260fbd3-926b-4214-a9b1-9423223c590b","ios":"levelo://app?vid=7260fbd3-926b-4214-a9b1-9423223c590b"},"vehicle_type_id":"4","last_reported":1760717544,"current_range_meters":9600,"station_id":"ce4bghh2rcd13ifvqb60","pricing_plan_id":"cebpf4jnsgd1na2vs0mg"},{"bike_id":"ee638c26-943e-4d4d-856f-8611fa682b11","system_id":"levelo_inurba_marseille","lat":43.30797,"lon":5.38169,"is_reserved":false,"is_disabled":false,"rental_uris":{"android":"levelo://app?vid=ee638c26-943e-4d4d-856f-8611fa682b11","ios":"levelo://app?vid=ee638c26-943e-4d4d-856f-8611fa682b11"},"vehicle_type_id":"4","last_reported":1760717544,"current_range_meters":10000,"station_id":"ce4bgt12rcd13ifvqce0","pricing_plan_id":"cebpf4jnsgd1na2vs0mg"},{"bike_id":"2c8d8491-37a1-4a4e-a42d-e2cfd44f58d6","system_id":"levelo_inurba_marseille","lat":43.28536,"lon":5.44092,"is_reserved":false,"is_disabled":false,"rental_uris":{"android":"levelo://app?vid=2c8d8491-37a1-4a4e-a42d-e2cfd44f58d6","ios":"levelo://app?vid=2c8d8491-37a1-4a4e-a42d-e2cfd44f58d6"},"vehicle_type_id":"4","last_reported":1760717544,"current_range_meters":10000,"station_id":"st_d3j3df2ikq2c7380ej80","pricing_plan_id":"cebpf4jnsgd1na2vs0mg"},{"bike_id":"85305e89-a29d-4c8f-a7b3-c9e394d8bc4c","system_id":"levelo_inurba_marseille","lat":43.286092,"lon":5.351117,"is_reserved":false,"is_disabled":false,"rental_uris":{"android":"levelo://app?vid=85305e89-a29d-4c8f-a7b3-c9e394d8bc4c","ios":"levelo://app?vid=85305e89-a29d-4c8f-a7b3-c9e394d8bc4c"},"vehicle_type_id":"4","last_reported":1760717544,"current_range_meters":10000,"station_id":"ce4bhch2rcd13ifvqeug","pricing_plan_id":"cebpf4jnsgd1na2vs0mg"},{"bike_id":"77cfbff5-f5dc-497a-a38b-9bd6b6a3087a","system_id":"levelo_inurba_marseille","lat":43.246707,"lon":5.381643,"is_reserved":false,"is_disabled":false,"rental_uris":{"android":"levelo://app?vid=77cfbff5-f5dc-497a-a38b-9bd6b6a3087a","ios":"levelo://app?vid=77cfbff5-f5dc-497a-a38b-9bd6b6a3087a"},"vehicle_type_id":"4","last_reported":1760717544,"current_range_meters":10000,"station_id":"ce4bhih2rcd13ifvqfr0","pricing_plan_id":"cebpf4jnsgd1na2vs0mg"},{"bike_id":"24d82d64-1145-442f-a9f5-19238b0b39ef","system_id":"levelo_inurba_marseille","lat":43.272133,"lon":5.391866,"is_reserved":false,"is_disabled":false,"rental_uris":{"android":"levelo://app?vid=24d82d64-1145-442f-a9f5-19238b0b39ef","ios":"levelo://app?vid=24d82d64-1145-442f-a9f5-19238b0b39ef"},"vehicle_type_id":"4","last_reported":1760717544,"current_range_meters":10000,"station_id":"","pricing_plan_id":"cebpf4jnsgd1na2vs0mg"},{"bike_id":"23f4dfa1-89ab-4e74-82b3-ca2bbe83fe3b","system_id":"levelo_inurba_marseille","lat":43.31712,"lon":5.43703,"is_reserved":false,"is_disabled":false,"rental_uris":{"android":"levelo://app?vid=23f4dfa1-89ab-4e74-82b3-ca2bbe83fe3b","ios":"levelo://app?vid=23f4dfa1-89ab-4e74-82b3-ca2bbe83fe3b"},"vehicle_type_id":"4","last_reported":1760717544,"current_range_meters":10000,"station_id":"ce4bhp92rcd13ifvqhcg","pricing_plan_id":"cebpf4jnsgd1na2vs0mg"},{"bike_id":"62abc307-37eb-4423-a156-7a185419a40a","system_id":"levelo_inurba_marseille","lat":43.28264,"lon":5.35068,"is_reserved":false,"is_disabled":false,"rental_uris":{"android":"levelo://app?vid=62abc307-37eb-4423-a156-7a185419a40a","ios":"levelo://app?vid=62abc307-37eb-4423-a156-7a185419a40a"},"vehicle_type_id":"4","last_reported":1760717544,"current_range_meters":10000,"station_id":"ce4bhbp2rcd13ifvqerg","pricing_plan_id":"cebpf4jnsgd1na2vs0mg"},{"bike_id":"edc2b540-f4d1-424e-9002-80823ed0b6b2","system_id":"levelo_inurba_marseille","lat":43.2838,"lon":5.37063,"is_reserved":false,"is_disabled":false,"rental_uris":{"android":"levelo://app?vid=edc2b540-f4d1-424e-9002-80823ed0b6b2","ios":"levelo://app?vid=edc2b540-f4d1-424e-9002-80823ed0b6b2"},"vehicle_type_id":"4","last_reported":1760717544,"current_range_meters":10000,"station_id":"","pricing_plan_id":"cebpf4jnsgd1na2vs0mg"},{"bike_id":"92ed8b3a-f787-4414-9ac9-ee7e89fd6028","system_id":"levelo_inurba_marseille","lat":43.289637,"lon":5.378396,"is_reserved":false,"is_disabled":false,"rental_uris":{"android":"levelo://app?vid=92ed8b3a-f787-4414-9ac9-ee7e89fd6028","ios":"levelo://app?vid=92ed8b3a-f787-4414-9ac9-ee7e89fd6028"},"vehicle_type_id":"4","last_reported":1760717544,"current_range_meters":10800,"station_id":"ce4bh9p2rcd13ifvqed0","pricing_plan_id":"cebpf4jnsgd1na2vs0mg"},{"bike_id":"bce30842-8e75-4a0a-85be-d265e9f9b164","system_id":"levelo_inurba_marseille","lat":43.284058,"lon":5.349747,"is_reserved":false,"is_disabled":false,"rental_uris":{"android":"levelo://app?vid=bce30842-8e75-4a0a-85be-d265e9f9b164","ios":"levelo://app?vid=bce30842-8e75-4a0a-85be-d265e9f9b164"},"vehicle_type_id":"4","last_reported":1760717544,"current_range_meters":10800,"station_id":"ce4bhbh2rcd13ifvqepg","pricing_plan_id":"cebpf4jnsgd1na2vs0mg"},{"bike_id":"e4601257-9987-4e30-b78f-04ac07240b86","system_id":"levelo_inurba_marseille","lat":43.28707,"lon":5.37398,"is_reserved":false,"is_disabled":true,"rental_uris":{"android":"levelo://app?vid=e4601257-9987-4e30-b78f-04ac07240b86","ios":"levelo://app?vid=e4601257-9987-4e30-b78f-04ac07240b86"},"vehicle_type_id":"4","last_reported":1760717544,"current_range_meters":10800,"station_id":"ce4bh3p2rcd13ifvqdq0","pricing_plan_id":"cebpf4jnsgd1na2vs0mg"},{"bike_id":"34499578-aa76-4e2f-a7ff-dee0cb100571","system_id":"levelo_inurba_marseille","lat":43.25312,"lon":5.42159,"is_reserved":false,"is_disabled":false,"rental_uris":{"android":"levelo://app?vid=34499578-aa76-4e2f-a7ff-dee0cb100571","ios":"levelo://app?vid=34499578-aa76-4e2f-a7ff-dee0cb100571"},"vehicle_type_id":"4","last_reported":1760717544,"current_range_meters":10800,"station_id":"st_d2m65c5bi1j21697t3ng","pricing_plan_id":"cebpf4jnsgd1na2vs0mg"},{"bike_id":"e028c179-e00b-4de5-9424-158e243c3403","system_id":"levelo_inurba_marseille","lat":43.255829,"lon":5.382275,"is_reserved":false,"is_disabled":false,"rental_uris":{"android":"levelo://app?vid=e028c179-e00b-4de5-9424-158e243c3403","ios":"levelo://app?vid=e028c179-e00b-4de5-9424-158e243c3403"},"vehicle_type_id":"4","last_reported":1760717544,"current_range_meters":10800,"station_id":"ce4bhih2rcd13ifvqfs0","pricing_plan_id":"cebpf4jnsgd1na2vs0mg"},{"bike_id":"416f580b-31c7-4ade-8604-dbd86eb8155f","system_id":"levelo_inurba_marseille","lat":43.28161,"lon":5.42117,"is_reserved":false,"is_disabled":false,"rental_uris":{"android":"levelo://app?vid=416f580b-31c7-4ade-8604-dbd86eb8155f","ios":"levelo://app?vid=416f580b-31c7-4ade-8604-dbd86eb8155f"},"vehicle_type_id":"4","last_reported":1760717544,"current_range_meters":10800,"station_id":"","pricing_plan_id":"cebpf4jnsgd1na2vs0mg"},{"bike_id":"959a466e-32ce-4119-a08d-afe34942b5e5","system_id":"levelo_inurba_marseille","lat":43.289356,"lon":5.366386,"is_reserved":false,"is_disabled":false,"rental_uris":{"android":"levelo://app?vid=959a466e-32ce-4119-a08d-afe34942b5e5","ios":"levelo://app?vid=959a466e-32ce-4119-a08d-afe34942b5e5"},"vehicle_type_id":"4","last_reported":1760717544,"current_range_meters":10800,"station_id":"ce4bhap2rcd13ifvqek0","pricing_plan_id":"cebpf4jnsgd1na2vs0mg"},{"bike_id":"bb81d772-77e2-4361-9406-3fcc6f9127ae","system_id":"levelo_inurba_marseille","lat":43.304119,"lon":5.412835,"is_reserved":false,"is_disabled":false,"rental_uris":{"android":"levelo://app?vid=bb81d772-77e2-4361-9406-3fcc6f9127ae","ios":"levelo://app?vid=bb81d772-77e2-4361-9406-3fcc6f9127ae"},"vehicle_type_id":"4","last_reported":1760717544,"current_range_meters":10800,"station_id":"ce4bhop2rcd13ifvqh8g","pricing_plan_id":"cebpf4jnsgd1na2vs0mg"},{"bike_id":"2358dfa3-f912-4a4a-9cde-940126571b60","system_id":"levelo_inurba_marseille","lat":43.28033,"lon":5.36949,"is_reserved":false,"is_disabled":false,"rental_uris":{"android":"levelo://app?vid=2358dfa3-f912-4a4a-9cde-940126571b60","ios":"levelo://app?vid=2358dfa3-f912-4a4a-9cde-940126571b60"},"vehicle_type_id":"4","last_reported":1760717544,"current_range_meters":11200,"station_id":"ce4bha12rcd13ifvqef0","pricing_plan_id":"cebpf4jnsgd1na2vs0mg"},{"bike_id":"e67bc310-3d3e-4a88-89fb-5338c2b542bd","system_id":"levelo_inurba_marseille","lat":43.29527,"lon":5.38542,"is_reserved":false,"is_disabled":false,"rental_uris":{"android":"levelo://app?vid=e67bc310-3d3e-4a88-89fb-5338c2b542bd","ios":"levelo://app?vid=e67bc310-3d3e-4a88-89fb-5338c2b542bd"},"vehicle_type_id":"4","last_reported":1760717544,"current_range_meters":11200,"station_id":"ce4bgih2rcd13ifvqba0","pricing_plan_id":"cebpf4jnsgd1na2vs0mg"},{"bike_id":"9e163b14-1c9e-4de8-9cc3-66ac5b3fb879","system_id":"levelo_inurba_marseille","lat":43.29792,"lon":5.38546,"is_reserved":false,"is_disabled":false,"rental_uris":{"android":"levelo://app?vid=9e163b14-1c9e-4de8-9cc3-66ac5b3fb879","ios":"levelo://app?vid=9e163b14-1c9e-4de8-9cc3-66ac5b3fb879"},"vehicle_type_id":"4","last_reported":1760717544,"current_range_meters":11600,"station_id":"ce4bgih2rcd13ifvqba0","pricing_plan_id":"cebpf4jnsgd1na2vs0mg"},{"bike_id":"eee6fc5a-a5e6-4f0c-a6a4-97824048b485","system_id":"levelo_inurba_marseille","lat":43.2396,"lon":5.36638,"is_reserved":false,"is_disabled":false,"rental_uris":{"android":"levelo://app?vid=eee6fc5a-a5e6-4f0c-a6a4-97824048b485","ios":"levelo://app?vid=eee6fc5a-a5e6-4f0c-a6a4-97824048b485"},"vehicle_type_id":"4","last_reported":1760717544,"current_range_meters":11600,"station_id":"ce4bhi12rcd13ifvqfp0","pricing_plan_id":"cebpf4jnsgd1na2vs0mg"},{"bike_id":"9893867c-39cd-451e-aad8-27bf079e7abe","system_id":"levelo_inurba_marseille","lat":43.2479,"lon":5.37459,"is_reserved":false,"is_disabled":false,"rental_uris":{"android":"levelo://app?vid=9893867c-39cd-451e-aad8-27bf079e7abe","ios":"levelo://app?vid=9893867c-39cd-451e-aad8-27bf079e7abe"},"vehicle_type_id":"4","last_reported":1760717544,"current_range_meters":11600,"station_id":"ce4bhgh2rcd13ifvqfb0","pricing_plan_id":"cebpf4jnsgd1na2vs0mg"},{"bike_id":"d45d809c-ef19-4165-9757-3946cde58ead","system_id":"levelo_inurba_marseille","lat":43.272126,"lon":5.421215,"is_reserved":false,"is_disabled":false,"rental_uris":{"android":"levelo://app?vid=d45d809c-ef19-4165-9757-3946cde58ead","ios":"levelo://app?vid=d45d809c-ef19-4165-9757-3946cde58ead"},"vehicle_type_id":"4","last_reported":1760717544,"current_range_meters":11600,"station_id":"ce4bhk92rcd13ifvqgb0","pricing_plan_id":"cebpf4jnsgd1na2vs0mg"},{"bike_id":"217caaba-831e-4765-bd6a-7ff79f645c3e","system_id":"levelo_inurba_marseille","lat":43.29969,"lon":5.38501,"is_reserved":false,"is_disabled":false,"rental_uris":{"android":"levelo://app?vid=217caaba-831e-4765-bd6a-7ff79f645c3e","ios":"levelo://app?vid=217caaba-831e-4765-bd6a-7ff79f645c3e"},"vehicle_type_id":"4","last_reported":1760717544,"current_range_meters":11600,"station_id":"ce4bgj92rcd13ifvqbd0","pricing_plan_id":"cebpf4jnsgd1na2vs0mg"},{"bike_id":"a12848eb-3f38-4473-b4e0-c8bf39e45f38","system_id":"levelo_inurba_marseille","lat":43.29976,"lon":5.38485,"is_reserved":false,"is_disabled":false,"rental_uris":{"android":"levelo://app?vid=a12848eb-3f38-4473-b4e0-c8bf39e45f38","ios":"levelo://app?vid=a12848eb-3f38-4473-b4e0-c8bf39e45f38"},"vehicle_type_id":"4","last_reported":1760717544,"current_range_meters":11600,"station_id":"ce4bgj92rcd13ifvqbd0","pricing_plan_id":"cebpf4jnsgd1na2vs0mg"},{"bike_id":"5fe6e873-dba1-40dd-bc65-77de126f2710","system_id":"levelo_inurba_marseille","lat":43.332893,"lon":5.395256,"is_reserved":false,"is_disabled":false,"rental_uris":{"android":"levelo://app?vid=5fe6e873-dba1-40dd-bc65-77de126f2710","ios":"levelo://app?vid=5fe6e873-dba1-40dd-bc65-77de126f2710"},"vehicle_type_id":"4","last_reported":1760717544,"current_range_meters":11600,"station_id":"","pricing_plan_id":"cebpf4jnsgd1na2vs0mg"},{"bike_id":"ec712c62-0650-4172-a45a-93576438b0df","system_id":"levelo_inurba_marseille","lat":43.270659,"lon":5.402633,"is_reserved":false,"is_disabled":false,"rental_uris":{"android":"levelo://app?vid=ec712c62-0650-4172-a45a-93576438b0df","ios":"levelo://app?vid=ec712c62-0650-4172-a45a-93576438b0df"},"vehicle_type_id":"4","last_reported":1760717544,"current_range_meters":12000,"station_id":"ce4bhk92rcd13ifvqgc0","pricing_plan_id":"cebpf4jnsgd1na2vs0mg"},{"bike_id":"95516237-b73c-4b21-b878-2d100eb9cb0c","system_id":"levelo_inurba_marseille","lat":43.241739,"lon":5.397239,"is_reserved":false,"is_disabled":false,"rental_uris":{"android":"levelo://app?vid=95516237-b73c-4b21-b878-2d100eb9cb0c","ios":"levelo://app?vid=95516237-b73c-4b21-b878-2d100eb9cb0c"},"vehicle_type_id":"4","last_reported":1760717544,"current_range_meters":12000,"station_id":"ce4bhn12rcd13ifvqgpg","pricing_plan_id":"cebpf4jnsgd1na2vs0mg"},{"bike_id":"0f9c20ae-f80b-4bc4-a84d-e94070c41d3b","system_id":"levelo_inurba_marseille","lat":43.22567,"lon":5.41632,"is_reserved":false,"is_disabled":false,"rental_uris":{"android":"levelo://app?vid=0f9c20ae-f80b-4bc4-a84d-e94070c41d3b","ios":"levelo://app?vid=0f9c20ae-f80b-4bc4-a84d-e94070c41d3b"},"vehicle_type_id":"4","last_reported":1760717544,"current_range_meters":12000,"station_id":"st_d2o4gvlbi1j2169b742g","pricing_plan_id":"cebpf4jnsgd1na2vs0mg"},{"bike_id":"582d3fae-cdb9-45e9-b9eb-7cef4a760b9a","system_id":"levelo_inurba_marseille","lat":43.28356,"lon":5.38647,"is_reserved":false,"is_disabled":false,"rental_uris":{"android":"levelo://app?vid=582d3fae-cdb9-45e9-b9eb-7cef4a760b9a","ios":"levelo://app?vid=582d3fae-cdb9-45e9-b9eb-7cef4a760b9a"},"vehicle_type_id":"4","last_reported":1760717544,"current_range_meters":12000,"station_id":"ce4bh492rcd13ifvqdvg","pricing_plan_id":"cebpf4jnsgd1na2vs0mg"},{"bike_id":"a1cdd9be-4419-452b-8046-1ef8aa2e83ca","system_id":"levelo_inurba_marseille","lat":43.29253,"lon":5.40909,"is_reserved":false,"is_disabled":false,"rental_uris":{"android":"levelo://app?vid=a1cdd9be-4419-452b-8046-1ef8aa2e83ca","ios":"levelo://app?vid=a1cdd9be-4419-452b-8046-1ef8aa2e83ca"},"vehicle_type_id":"4","last_reported":1760717544,"current_range_meters":12000,"station_id":"ce4bh192rcd13ifvqdc0","pricing_plan_id":"cebpf4jnsgd1na2vs0mg"},{"bike_id":"627e531b-d7f7-4b22-80ec-13304ffd1216","system_id":"levelo_inurba_marseille","lat":43.26192,"lon":5.3745,"is_reserved":false,"is_disabled":false,"rental_uris":{"android":"levelo://app?vid=627e531b-d7f7-4b22-80ec-13304ffd1216","ios":"levelo://app?vid=627e531b-d7f7-4b22-80ec-13304ffd1216"},"vehicle_type_id":"4","last_reported":1760717544,"current_range_meters":12000,"station_id":"ce4bhgp2rcd13ifvqfc0","pricing_plan_id":"cebpf4jnsgd1na2vs0mg"},{"bike_id":"a817b630-bbed-48d3-97f4-9bd571b9ebab","system_id":"levelo_inurba_marseille","lat":43.30004,"lon":5.3734,"is_reserved":false,"is_disabled":false,"rental_uris":{"android":"levelo://app?vid=a817b630-bbed-48d3-97f4-9bd571b9ebab","ios":"levelo://app?vid=a817b630-bbed-48d3-97f4-9bd571b9ebab"},"vehicle_type_id":"4","last_reported":1760717544,"current_range_meters":12000,"station_id":"","pricing_plan_id":"cebpf4jnsgd1na2vs0mg"},{"bike_id":"aa97a038-de4a-498d-a4b4-8ec99e18be3a","system_id":"levelo_inurba_marseille","lat":43.30871,"lon":5.3964,"is_reserved":false,"is_disabled":true,"rental_uris":{"android":"levelo://app?vid=aa97a038-de4a-498d-a4b4-8ec99e18be3a","ios":"levelo://app?vid=aa97a038-de4a-498d-a4b4-8ec99e18be3a"},"vehicle_type_id":"4","last_reported":1760717544,"current_range_meters":12000,"station_id":"ce4bh012rcd13ifvqcv0","pricing_plan_id":"cebpf4jnsgd1na2vs0mg"},{"bike_id":"dbf248bd-0259-4f5b-b82c-7a8ca2e00bc3","system_id":"levelo_inurba_marseille","lat":43.22921,"lon":5.35403,"is_reserved":false,"is_disabled":false,"rental_uris":{"android":"levelo://app?vid=dbf248bd-0259-4f5b-b82c-7a8ca2e00bc3","ios":"levelo://app?vid=dbf248bd-0259-4f5b-b82c-7a8ca2e00bc3"},"vehicle_type_id":"4","last_reported":1760717544,"current_range_meters":12000,"station_id":"cpo3532slgdg3j2ikp40","pricing_plan_id":"cebpf4jnsgd1na2vs0mg"},{"bike_id":"df428950-0e5c-45ae-a8fa-ce95cd1107dd","system_id":"levelo_inurba_marseille","lat":43.225358,"lon":5.348298,"is_reserved":false,"is_disabled":false,"rental_uris":{"android":"levelo://app?vid=df428950-0e5c-45ae-a8fa-ce95cd1107dd","ios":"levelo://app?vid=df428950-0e5c-45ae-a8fa-ce95cd1107dd"},"vehicle_type_id":"4","last_reported":1760717544,"current_range_meters":12000,"station_id":"","pricing_plan_id":"cebpf4jnsgd1na2vs0mg"},{"bike_id":"94f60e57-4ea5-4506-9b0b-d49e351bbd01","system_id":"levelo_inurba_marseille","lat":43.29376,"lon":5.38353,"is_reserved":false,"is_disabled":false,"rental_uris":{"android":"levelo://app?vid=94f60e57-4ea5-4506-9b0b-d49e351bbd01","ios":"levelo://app?vid=94f60e57-4ea5-4506-9b0b-d49e351bbd01"},"vehicle_type_id":"4","last_reported":1760717544,"current_range_meters":12400,"station_id":"","pricing_plan_id":"cebpf4jnsgd1na2vs0mg"},{"bike_id":"51c19982-4c6b-4464-99c9-f8ea4d54131f","system_id":"levelo_inurba_marseille","lat":43.25324,"lon":5.42173,"is_reserved":false,"is_disabled":false,"rental_uris":{"android":"levelo://app?vid=51c19982-4c6b-4464-99c9-f8ea4d54131f","ios":"levelo://app?vid=51c19982-4c6b-4464-99c9-f8ea4d54131f"},"vehicle_type_id":"4","last_reported":1760717544,"current_range_meters":12400,"station_id":"st_d2m65c5bi1j21697t3ng","pricing_plan_id":"cebpf4jnsgd1na2vs0mg"},{"bike_id":"ea883585-d0e4-4bcb-922c-57b2a3efdeac","system_id":"levelo_inurba_marseille","lat":43.30537,"lon":5.36795,"is_reserved":false,"is_disabled":false,"rental_uris":{"android":"levelo://app?vid=ea883585-d0e4-4bcb-922c-57b2a3efdeac","ios":"levelo://app?vid=ea883585-d0e4-4bcb-922c-57b2a3efdeac"},"vehicle_type_id":"4","last_reported":1760717544,"current_range_meters":12400,"station_id":"ce4bgrp2rcd13ifvqc9g","pricing_plan_id":"cebpf4jnsgd1na2vs0mg"},{"bike_id":"424f4935-98df-4229-88c5-d8f836201cec","system_id":"levelo_inurba_marseille","lat":43.2319,"lon":5.35558,"is_reserved":false,"is_disabled":false,"rental_uris":{"android":"levelo://app?vid=424f4935-98df-4229-88c5-d8f836201cec","ios":"levelo://app?vid=424f4935-98df-4229-88c5-d8f836201cec"},"vehicle_type_id":"4","last_reported":1760717544,"current_range_meters":12400,"station_id":"ce4bhu92rcd13ifvqi70","pricing_plan_id":"cebpf4jnsgd1na2vs0mg"},{"bike_id":"efeed3e0-0d89-49c8-88ee-54fc372b67ef","system_id":"levelo_inurba_marseille","lat":43.275024,"lon":5.424396,"is_reserved":false,"is_disabled":true,"rental_uris":{"android":"levelo://app?vid=efeed3e0-0d89-49c8-88ee-54fc372b67ef","ios":"levelo://app?vid=efeed3e0-0d89-49c8-88ee-54fc372b67ef"},"vehicle_type_id":"4","last_reported":1760717544,"current_range_meters":12800,"station_id":"ce4bhn92rcd13ifvqgrg","pricing_plan_id":"cebpf4jnsgd1na2vs0mg"},{"bike_id":"beeab6ab-4164-40a3-9d9a-4e402e6a69d1","system_id":"levelo_inurba_marseille","lat":43.28155,"lon":5.42653,"is_reserved":false,"is_disabled":false,"rental_uris":{"android":"levelo://app?vid=beeab6ab-4164-40a3-9d9a-4e402e6a69d1","ios":"levelo://app?vid=beeab6ab-4164-40a3-9d9a-4e402e6a69d1"},"vehicle_type_id":"4","last_reported":1760717544,"current_range_meters":12800,"station_id":"ce4bhnh2rcd13ifvqgug","pricing_plan_id":"cebpf4jnsgd1na2vs0mg"},{"bike_id":"2f427ffa-023f-4f18-948d-448a449d3df0","system_id":"levelo_inurba_marseille","lat":43.241712,"lon":5.364034,"is_reserved":false,"is_disabled":false,"rental_uris":{"android":"levelo://app?vid=2f427ffa-023f-4f18-948d-448a449d3df0","ios":"levelo://app?vid=2f427ffa-023f-4f18-948d-448a449d3df0"},"vehicle_type_id":"4","last_reported":1760717544,"current_range_meters":12800,"station_id":"cpo36qri1sfpv3e86is0","pricing_plan_id":"cebpf4jnsgd1na2vs0mg"},{"bike_id":"59ee4d43-eb61-4aed-a406-b083fa9d27d8","system_id":"levelo_inurba_marseille","lat":43.31069,"lon":5.383495,"is_reserved":false,"is_disabled":true,"rental_uris":{"android":"levelo://app?vid=59ee4d43-eb61-4aed-a406-b083fa9d27d8","ios":"levelo://app?vid=59ee4d43-eb61-4aed-a406-b083fa9d27d8"},"vehicle_type_id":"4","last_reported":1760717544,"current_range_meters":12800,"station_id":"ce4bgv92rcd13ifvqcr0","pricing_plan_id":"cebpf4jnsgd1na2vs0mg"},{"bike_id":"a618d75f-c056-4d7b-8ccd-3fcd16a7d304","system_id":"levelo_inurba_marseille","lat":43.34146,"lon":5.409077,"is_reserved":false,"is_disabled":false,"rental_uris":{"android":"levelo://app?vid=a618d75f-c056-4d7b-8ccd-3fcd16a7d304","ios":"levelo://app?vid=a618d75f-c056-4d7b-8ccd-3fcd16a7d304"},"vehicle_type_id":"4","last_reported":1760717544,"current_range_meters":12800,"station_id":"cki0cbj6b192h4jlfktg","pricing_plan_id":"cebpf4jnsgd1na2vs0mg"},{"bike_id":"c4c8e762-8a26-4257-9d60-d747eb2d8508","system_id":"levelo_inurba_marseille","lat":43.3317,"lon":5.35579,"is_reserved":false,"is_disabled":false,"rental_uris":{"android":"levelo://app?vid=c4c8e762-8a26-4257-9d60-d747eb2d8508","ios":"levelo://app?vid=c4c8e762-8a26-4257-9d60-d747eb2d8508"},"vehicle_type_id":"4","last_reported":1760717544,"current_range_meters":12800,"station_id":"","pricing_plan_id":"cebpf4jnsgd1na2vs0mg"},{"bike_id":"ba2479bd-5a5a-46c2-83c3-00588f4cf74a","system_id":"levelo_inurba_marseille","lat":43.29792,"lon":5.36472,"is_reserved":false,"is_disabled":false,"rental_uris":{"android":"levelo://app?vid=ba2479bd-5a5a-46c2-83c3-00588f4cf74a","ios":"levelo://app?vid=ba2479bd-5a5a-46c2-83c3-00588f4cf74a"},"vehicle_type_id":"4","last_reported":1760717544,"current_range_meters":13600,"station_id":"","pricing_plan_id":"cebpf4jnsgd1na2vs0mg"},{"bike_id":"c5e45447-2956-450f-bd7e-88aaf308c04d","system_id":"levelo_inurba_marseille","lat":43.28991,"lon":5.36537,"is_reserved":false,"is_disabled":false,"rental_uris":{"android":"levelo://app?vid=c5e45447-2956-450f-bd7e-88aaf308c04d","ios":"levelo://app?vid=c5e45447-2956-450f-bd7e-88aaf308c04d"},"vehicle_type_id":"4","last_reported":1760717544,"current_range_meters":13600,"station_id":"","pricing_plan_id":"cebpf4jnsgd1na2vs0mg"},{"bike_id":"de8c156e-6698-4e2b-aaf4-ca3a7eb6c375","system_id":"levelo_inurba_marseille","lat":43.24999,"lon":5.38924,"is_reserved":false,"is_disabled":false,"rental_uris":{"android":"levelo://app?vid=de8c156e-6698-4e2b-aaf4-ca3a7eb6c375","ios":"levelo://app?vid=de8c156e-6698-4e2b-aaf4-ca3a7eb6c375"},"vehicle_type_id":"4","last_reported":1760717544,"current_range_meters":13600,"station_id":"ce4bhgp2rcd13ifvqfd0","pricing_plan_id":"cebpf4jnsgd1na2vs0mg"},{"bike_id":"53e45f66-6c88-47d1-a739-fad578ecef73","system_id":"levelo_inurba_marseille","lat":43.23787,"lon":5.36635,"is_reserved":false,"is_disabled":false,"rental_uris":{"android":"levelo://app?vid=53e45f66-6c88-47d1-a739-fad578ecef73","ios":"levelo://app?vid=53e45f66-6c88-47d1-a739-fad578ecef73"},"vehicle_type_id":"4","last_reported":1760717544,"current_range_meters":13600,"station_id":"st_d3nk18o9ro0c73en2l3g","pricing_plan_id":"cebpf4jnsgd1na2vs0mg"},{"bike_id":"c25a8a37-6395-4161-a858-99a577cc3e64","system_id":"levelo_inurba_marseille","lat":43.24808,"lon":5.37459,"is_reserved":false,"is_disabled":false,"rental_uris":{"android":"levelo://app?vid=c25a8a37-6395-4161-a858-99a577cc3e64","ios":"levelo://app?vid=c25a8a37-6395-4161-a858-99a577cc3e64"},"vehicle_type_id":"4","last_reported":1760717544,"current_range_meters":14000,"station_id":"ce4bhgh2rcd13ifvqfb0","pricing_plan_id":"cebpf4jnsgd1na2vs0mg"},{"bike_id":"8475d55e-bcf0-4017-8dce-044db1ba298f","system_id":"levelo_inurba_marseille","lat":43.24994,"lon":5.38934,"is_reserved":false,"is_disabled":false,"rental_uris":{"android":"levelo://app?vid=8475d55e-bcf0-4017-8dce-044db1ba298f","ios":"levelo://app?vid=8475d55e-bcf0-4017-8dce-044db1ba298f"},"vehicle_type_id":"4","last_reported":1760717544,"current_range_meters":14000,"station_id":"ce4bhgp2rcd13ifvqfd0","pricing_plan_id":"cebpf4jnsgd1na2vs0mg"},{"bike_id":"0490729d-332b-4c2f-b2fc-369e9f1317d3","system_id":"levelo_inurba_marseille","lat":43.3133,"lon":5.39696,"is_reserved":false,"is_disabled":false,"rental_uris":{"android":"levelo://app?vid=0490729d-332b-4c2f-b2fc-369e9f1317d3","ios":"levelo://app?vid=0490729d-332b-4c2f-b2fc-369e9f1317d3"},"vehicle_type_id":"4","last_reported":1760717544,"current_range_meters":14000,"station_id":"ce4bgvp2rcd13ifvqcu0","pricing_plan_id":"cebpf4jnsgd1na2vs0mg"},{"bike_id":"789d9cbf-dd90-4f24-9595-28d0c842123c","system_id":"levelo_inurba_marseille","lat":43.28981,"lon":5.3783,"is_reserved":false,"is_disabled":false,"rental_uris":{"android":"levelo://app?vid=789d9cbf-dd90-4f24-9595-28d0c842123c","ios":"levelo://app?vid=789d9cbf-dd90-4f24-9595-28d0c842123c"},"vehicle_type_id":"4","last_reported":1760717544,"current_range_meters":14000,"station_id":"ce4bh9p2rcd13ifvqed0","pricing_plan_id":"cebpf4jnsgd1na2vs0mg"},{"bike_id":"b97b8dd3-ec5f-4c29-94c8-345abca3a938","system_id":"levelo_inurba_marseille","lat":43.23787,"lon":5.36626,"is_reserved":false,"is_disabled":false,"rental_uris":{"android":"levelo://app?vid=b97b8dd3-ec5f-4c29-94c8-345abca3a938","ios":"levelo://app?vid=b97b8dd3-ec5f-4c29-94c8-345abca3a938"},"vehicle_type_id":"4","last_reported":1760717544,"current_range_meters":14400,"station_id":"st_d3nk18o9ro0c73en2l3g","pricing_plan_id":"cebpf4jnsgd1na2vs0mg"},{"bike_id":"3719af8e-a63b-4819-98f6-8dc7999a623a","system_id":"levelo_inurba_marseille","lat":43.292572,"lon":5.38442,"is_reserved":false,"is_disabled":false,"rental_uris":{"android":"levelo://app?vid=3719af8e-a63b-4819-98f6-8dc7999a623a","ios":"levelo://app?vid=3719af8e-a63b-4819-98f6-8dc7999a623a"},"vehicle_type_id":"4","last_reported":1760717544,"current_range_meters":14400,"station_id":"","pricing_plan_id":"cebpf4jnsgd1na2vs0mg"},{"bike_id":"ef6f748d-94e3-4cb1-b34b-ef7ad50a1257","system_id":"levelo_inurba_marseille","lat":43.28423,"lon":5.349878,"is_reserved":false,"is_disabled":false,"rental_uris":{"android":"levelo://app?vid=ef6f748d-94e3-4cb1-b34b-ef7ad50a1257","ios":"levelo://app?vid=ef6f748d-94e3-4cb1-b34b-ef7ad50a1257"},"vehicle_type_id":"4","last_reported":1760717544,"current_range_meters":14400,"station_id":"ce4bhbh2rcd13ifvqepg","pricing_plan_id":"cebpf4jnsgd1na2vs0mg"},{"bike_id":"ab8dbe06-49f3-423b-99b1-2274be7ed343","system_id":"levelo_inurba_marseille","lat":43.29711,"lon":5.36621,"is_reserved":false,"is_disabled":true,"rental_uris":{"android":"levelo://app?vid=ab8dbe06-49f3-423b-99b1-2274be7ed343","ios":"levelo://app?vid=ab8dbe06-49f3-423b-99b1-2274be7ed343"},"vehicle_type_id":"4","last_reported":1760717544,"current_range_meters":14400,"station_id":"ce4bgn12rcd13ifvqbt0","pricing_plan_id":"cebpf4jnsgd1na2vs0mg"},{"bike_id":"924ac669-be8b-47aa-9a8e-6f22baf815eb","system_id":"levelo_inurba_marseille","lat":43.3377,"lon":5.3748,"is_reserved":false,"is_disabled":false,"rental_uris":{"android":"levelo://app?vid=924ac669-be8b-47aa-9a8e-6f22baf815eb","ios":"levelo://app?vid=924ac669-be8b-47aa-9a8e-6f22baf815eb"},"vehicle_type_id":"4","last_reported":1760717544,"current_range_meters":14800,"station_id":"","pricing_plan_id":"cebpf4jnsgd1na2vs0mg"},{"bike_id":"1ea58d06-2bc8-43e6-9700-ceffc676d32c","system_id":"levelo_inurba_marseille","lat":43.217213,"lon":5.346152,"is_reserved":false,"is_disabled":true,"rental_uris":{"android":"levelo://app?vid=1ea58d06-2bc8-43e6-9700-ceffc676d32c","ios":"levelo://app?vid=1ea58d06-2bc8-43e6-9700-ceffc676d32c"},"vehicle_type_id":"4","last_reported":1760717544,"current_range_meters":14800,"station_id":"cpo36qri1sfpv3e86is0","pricing_plan_id":"cebpf4jnsgd1na2vs0mg"},{"bike_id":"d140a5f7-e57b-42c0-8afa-48220d3859c9","system_id":"levelo_inurba_marseille","lat":43.28346,"lon":5.38115,"is_reserved":false,"is_disabled":false,"rental_uris":{"android":"levelo://app?vid=d140a5f7-e57b-42c0-8afa-48220d3859c9","ios":"levelo://app?vid=d140a5f7-e57b-42c0-8afa-48220d3859c9"},"vehicle_type_id":"4","last_reported":1760717544,"current_range_meters":14800,"station_id":"ce4bh412rcd13ifvqdr0","pricing_plan_id":"cebpf4jnsgd1na2vs0mg"},{"bike_id":"8cf9d5fa-13e1-4edc-99f1-d1b1a166b14c","system_id":"levelo_inurba_marseille","lat":43.28842,"lon":5.39312,"is_reserved":false,"is_disabled":false,"rental_uris":{"android":"levelo://app?vid=8cf9d5fa-13e1-4edc-99f1-d1b1a166b14c","ios":"levelo://app?vid=8cf9d5fa-13e1-4edc-99f1-d1b1a166b14c"},"vehicle_type_id":"4","last_reported":1760717544,"current_range_meters":14800,"station_id":"ce4bh2p2rcd13ifvqdi0","pricing_plan_id":"cebpf4jnsgd1na2vs0mg"},{"bike_id":"6eb2acec-d68e-4c9a-ad73-90879ab30bc2","system_id":"levelo_inurba_marseille","lat":43.31506,"lon":5.37408,"is_reserved":false,"is_disabled":false,"rental_uris":{"android":"levelo://app?vid=6eb2acec-d68e-4c9a-ad73-90879ab30bc2","ios":"levelo://app?vid=6eb2acec-d68e-4c9a-ad73-90879ab30bc2"},"vehicle_type_id":"4","last_reported":1760717544,"current_range_meters":15200,"station_id":"","pricing_plan_id":"cebpf4jnsgd1na2vs0mg"},{"bike_id":"75b02a51-1325-435e-9661-29bb451a696a","system_id":"levelo_inurba_marseille","lat":43.31448,"lon":5.38488,"is_reserved":false,"is_disabled":false,"rental_uris":{"android":"levelo://app?vid=75b02a51-1325-435e-9661-29bb451a696a","ios":"levelo://app?vid=75b02a51-1325-435e-9661-29bb451a696a"},"vehicle_type_id":"4","last_reported":1760717544,"current_range_meters":15200,"station_id":"","pricing_plan_id":"cebpf4jnsgd1na2vs0mg"},{"bike_id":"34bc09c7-ccc4-4a8c-9397-b16380b3057d","system_id":"levelo_inurba_marseille","lat":43.28043,"lon":5.3694,"is_reserved":false,"is_disabled":false,"rental_uris":{"android":"levelo://app?vid=34bc09c7-ccc4-4a8c-9397-b16380b3057d","ios":"levelo://app?vid=34bc09c7-ccc4-4a8c-9397-b16380b3057d"},"vehicle_type_id":"4","last_reported":1760717544,"current_range_meters":15200,"station_id":"ce4bha12rcd13ifvqef0","pricing_plan_id":"cebpf4jnsgd1na2vs0mg"},{"bike_id":"4c435c82-0bc4-4369-80cf-ae9046a83658","system_id":"levelo_inurba_marseille","lat":43.24163,"lon":5.36411,"is_reserved":false,"is_disabled":false,"rental_uris":{"android":"levelo://app?vid=4c435c82-0bc4-4369-80cf-ae9046a83658","ios":"levelo://app?vid=4c435c82-0bc4-4369-80cf-ae9046a83658"},"vehicle_type_id":"4","last_reported":1760717544,"current_range_meters":15200,"station_id":"cpo36qri1sfpv3e86is0","pricing_plan_id":"cebpf4jnsgd1na2vs0mg"},{"bike_id":"e84bce0b-ced3-4f34-b6ea-9d63a5640007","system_id":"levelo_inurba_marseille","lat":43.279775,"lon":5.387441,"is_reserved":false,"is_disabled":false,"rental_uris":{"android":"levelo://app?vid=e84bce0b-ced3-4f34-b6ea-9d63a5640007","ios":"levelo://app?vid=e84bce0b-ced3-4f34-b6ea-9d63a5640007"},"vehicle_type_id":"4","last_reported":1760717544,"current_range_meters":15200,"station_id":"ce4bhg12rcd13ifvqf80","pricing_plan_id":"cebpf4jnsgd1na2vs0mg"},{"bike_id":"a48ee852-2578-4ed3-a541-bd9f1114f97c","system_id":"levelo_inurba_marseille","lat":43.239593,"lon":5.366489,"is_reserved":false,"is_disabled":false,"rental_uris":{"android":"levelo://app?vid=a48ee852-2578-4ed3-a541-bd9f1114f97c","ios":"levelo://app?vid=a48ee852-2578-4ed3-a541-bd9f1114f97c"},"vehicle_type_id":"4","last_reported":1760717544,"current_range_meters":16000,"station_id":"ce4bhi12rcd13ifvqfp0","pricing_plan_id":"cebpf4jnsgd1na2vs0mg"},{"bike_id":"eed62b50-e935-492c-91b5-4172d1fa16f7","system_id":"levelo_inurba_marseille","lat":43.244734,"lon":5.372527,"is_reserved":false,"is_disabled":false,"rental_uris":{"android":"levelo://app?vid=eed62b50-e935-492c-91b5-4172d1fa16f7","ios":"levelo://app?vid=eed62b50-e935-492c-91b5-4172d1fa16f7"},"vehicle_type_id":"4","last_reported":1760717544,"current_range_meters":16000,"station_id":"ce4bhnp2rcd13ifvqgvg","pricing_plan_id":"cebpf4jnsgd1na2vs0mg"},{"bike_id":"639ac8e2-3a75-4757-b7de-11fb3cac54a7","system_id":"levelo_inurba_marseille","lat":43.3236,"lon":5.36754,"is_reserved":false,"is_disabled":false,"rental_uris":{"android":"levelo://app?vid=639ac8e2-3a75-4757-b7de-11fb3cac54a7","ios":"levelo://app?vid=639ac8e2-3a75-4757-b7de-11fb3cac54a7"},"vehicle_type_id":"4","last_reported":1760717544,"current_range_meters":16000,"station_id":"ce4bhsh2rcd13ifvqi2g","pricing_plan_id":"cebpf4jnsgd1na2vs0mg"},{"bike_id":"a10adb23-44ae-419a-a0db-54b53d74fb30","system_id":"levelo_inurba_marseille","lat":43.28932,"lon":5.36644,"is_reserved":false,"is_disabled":false,"rental_uris":{"android":"levelo://app?vid=a10adb23-44ae-419a-a0db-54b53d74fb30","ios":"levelo://app?vid=a10adb23-44ae-419a-a0db-54b53d74fb30"},"vehicle_type_id":"4","last_reported":1760717544,"current_range_meters":16000,"station_id":"ce4bhap2rcd13ifvqek0","pricing_plan_id":"cebpf4jnsgd1na2vs0mg"},{"bike_id":"228c4134-4cbd-46a6-b506-da3773c9b798","system_id":"levelo_inurba_marseille","lat":43.28439,"lon":5.392,"is_reserved":false,"is_disabled":false,"rental_uris":{"android":"levelo://app?vid=228c4134-4cbd-46a6-b506-da3773c9b798","ios":"levelo://app?vid=228c4134-4cbd-46a6-b506-da3773c9b798"},"vehicle_type_id":"4","last_reported":1760717544,"current_range_meters":16400,"station_id":"ce4bhoh2rcd13ifvqh5g","pricing_plan_id":"cebpf4jnsgd1na2vs0mg"},{"bike_id":"0b170382-a38a-48fc-b060-b901de311f1a","system_id":"levelo_inurba_marseille","lat":43.33047,"lon":5.39024,"is_reserved":false,"is_disabled":false,"rental_uris":{"android":"levelo://app?vid=0b170382-a38a-48fc-b060-b901de311f1a","ios":"levelo://app?vid=0b170382-a38a-48fc-b060-b901de311f1a"},"vehicle_type_id":"4","last_reported":1760717544,"current_range_meters":16400,"station_id":"ce4bhr92rcd13ifvqhrg","pricing_plan_id":"cebpf4jnsgd1na2vs0mg"},{"bike_id":"8aa3ec83-557d-4118-b42f-7e9ff74932f2","system_id":"levelo_inurba_marseille","lat":43.2417,"lon":5.36398,"is_reserved":false,"is_disabled":false,"rental_uris":{"android":"levelo://app?vid=8aa3ec83-557d-4118-b42f-7e9ff74932f2","ios":"levelo://app?vid=8aa3ec83-557d-4118-b42f-7e9ff74932f2"},"vehicle_type_id":"4","last_reported":1760717544,"current_range_meters":16400,"station_id":"cpo36qri1sfpv3e86is0","pricing_plan_id":"cebpf4jnsgd1na2vs0mg"},{"bike_id":"8c30526d-4d62-49e0-92a1-2ed039e24496","system_id":"levelo_inurba_marseille","lat":43.28706,"lon":5.38418,"is_reserved":false,"is_disabled":false,"rental_uris":{"android":"levelo://app?vid=8c30526d-4d62-49e0-92a1-2ed039e24496","ios":"levelo://app?vid=8c30526d-4d62-49e0-92a1-2ed039e24496"},"vehicle_type_id":"4","last_reported":1760717544,"current_range_meters":16400,"station_id":"","pricing_plan_id":"cebpf4jnsgd1na2vs0mg"},{"bike_id":"df2d3d6e-26dc-4145-b74c-60aa297416fb","system_id":"levelo_inurba_marseille","lat":43.27662,"lon":5.38931,"is_reserved":false,"is_disabled":true,"rental_uris":{"android":"levelo://app?vid=df2d3d6e-26dc-4145-b74c-60aa297416fb","ios":"levelo://app?vid=df2d3d6e-26dc-4145-b74c-60aa297416fb"},"vehicle_type_id":"4","last_reported":1760717544,"current_range_meters":16400,"station_id":"ce4bhi12rcd13ifvqfo0","pricing_plan_id":"cebpf4jnsgd1na2vs0mg"},{"bike_id":"edcb744a-1021-4493-86cd-94aad7a8dbc8","system_id":"levelo_inurba_marseille","lat":43.3093,"lon":5.3726,"is_reserved":false,"is_disabled":false,"rental_uris":{"android":"levelo://app?vid=edcb744a-1021-4493-86cd-94aad7a8dbc8","ios":"levelo://app?vid=edcb744a-1021-4493-86cd-94aad7a8dbc8"},"vehicle_type_id":"4","last_reported":1760717544,"current_range_meters":16400,"station_id":"","pricing_plan_id":"cebpf4jnsgd1na2vs0mg"},{"bike_id":"4675907b-c717-4094-81ca-d76d2269601d","system_id":"levelo_inurba_marseille","lat":43.32109,"lon":5.36775,"is_reserved":false,"is_disabled":false,"rental_uris":{"android":"levelo://app?vid=4675907b-c717-4094-81ca-d76d2269601d","ios":"levelo://app?vid=4675907b-c717-4094-81ca-d76d2269601d"},"vehicle_type_id":"4","last_reported":1760717544,"current_range_meters":16400,"station_id":"ce4bhrh2rcd13ifvqhug","pricing_plan_id":"cebpf4jnsgd1na2vs0mg"},{"bike_id":"5afedf2c-9f26-4bb9-8210-0ff4d77a4b7f","system_id":"levelo_inurba_marseille","lat":43.28407,"lon":5.35004,"is_reserved":false,"is_disabled":false,"rental_uris":{"android":"levelo://app?vid=5afedf2c-9f26-4bb9-8210-0ff4d77a4b7f","ios":"levelo://app?vid=5afedf2c-9f26-4bb9-8210-0ff4d77a4b7f"},"vehicle_type_id":"4","last_reported":1760717544,"current_range_meters":16800,"station_id":"ce4bhbh2rcd13ifvqepg","pricing_plan_id":"cebpf4jnsgd1na2vs0mg"},{"bike_id":"38e9bc50-eb8b-417a-91d9-58a816766350","system_id":"levelo_inurba_marseille","lat":43.28603,"lon":5.3512,"is_reserved":false,"is_disabled":false,"rental_uris":{"android":"levelo://app?vid=38e9bc50-eb8b-417a-91d9-58a816766350","ios":"levelo://app?vid=38e9bc50-eb8b-417a-91d9-58a816766350"},"vehicle_type_id":"4","last_reported":1760717544,"current_range_meters":16800,"station_id":"ce4bhch2rcd13ifvqeug","pricing_plan_id":"cebpf4jnsgd1na2vs0mg"},{"bike_id":"b3f02386-ff16-4d2a-8471-7d112043a4ca","system_id":"levelo_inurba_marseille","lat":43.28602,"lon":5.35116,"is_reserved":false,"is_disabled":false,"rental_uris":{"android":"levelo://app?vid=b3f02386-ff16-4d2a-8471-7d112043a4ca","ios":"levelo://app?vid=b3f02386-ff16-4d2a-8471-7d112043a4ca"},"vehicle_type_id":"4","last_reported":1760717544,"current_range_meters":16800,"station_id":"ce4bhch2rcd13ifvqeug","pricing_plan_id":"cebpf4jnsgd1na2vs0mg"},{"bike_id":"b3de5f35-da94-4965-b940-8cd14144ea0b","system_id":"levelo_inurba_marseille","lat":43.28542,"lon":5.44106,"is_reserved":false,"is_disabled":false,"rental_uris":{"android":"levelo://app?vid=b3de5f35-da94-4965-b940-8cd14144ea0b","ios":"levelo://app?vid=b3de5f35-da94-4965-b940-8cd14144ea0b"},"vehicle_type_id":"4","last_reported":1760717544,"current_range_meters":16800,"station_id":"st_d3j3df2ikq2c7380ej80","pricing_plan_id":"cebpf4jnsgd1na2vs0mg"},{"bike_id":"d339b5a7-e47c-4fea-94d2-18cdf0b9fdf6","system_id":"levelo_inurba_marseille","lat":43.312714,"lon":5.401648,"is_reserved":false,"is_disabled":false,"rental_uris":{"android":"levelo://app?vid=d339b5a7-e47c-4fea-94d2-18cdf0b9fdf6","ios":"levelo://app?vid=d339b5a7-e47c-4fea-94d2-18cdf0b9fdf6"},"vehicle_type_id":"4","last_reported":1760717544,"current_range_meters":17200,"station_id":"ce4bh092rcd13ifvqd30","pricing_plan_id":"cebpf4jnsgd1na2vs0mg"},{"bike_id":"0a414463-fe1a-4833-8a11-178a3c2c879a","system_id":"levelo_inurba_marseille","lat":43.29852,"lon":5.37897,"is_reserved":false,"is_disabled":false,"rental_uris":{"android":"levelo://app?vid=0a414463-fe1a-4833-8a11-178a3c2c879a","ios":"levelo://app?vid=0a414463-fe1a-4833-8a11-178a3c2c879a"},"vehicle_type_id":"4","last_reported":1760717544,"current_range_meters":17200,"station_id":"","pricing_plan_id":"cebpf4jnsgd1na2vs0mg"},{"bike_id":"eafdd7fd-ef38-43b6-b7e5-434afd637dc3","system_id":"levelo_inurba_marseille","lat":43.301355,"lon":5.398704,"is_reserved":false,"is_disabled":false,"rental_uris":{"android":"levelo://app?vid=eafdd7fd-ef38-43b6-b7e5-434afd637dc3","ios":"levelo://app?vid=eafdd7fd-ef38-43b6-b7e5-434afd637dc3"},"vehicle_type_id":"4","last_reported":1760717544,"current_range_meters":17200,"station_id":"","pricing_plan_id":"cebpf4jnsgd1na2vs0mg"},{"bike_id":"1b4b4a98-1c67-4514-860b-a6685f84a497","system_id":"levelo_inurba_marseille","lat":43.2466,"lon":5.38167,"is_reserved":false,"is_disabled":false,"rental_uris":{"android":"levelo://app?vid=1b4b4a98-1c67-4514-860b-a6685f84a497","ios":"levelo://app?vid=1b4b4a98-1c67-4514-860b-a6685f84a497"},"vehicle_type_id":"4","last_reported":1760717544,"current_range_meters":17200,"station_id":"ce4bhih2rcd13ifvqfr0","pricing_plan_id":"cebpf4jnsgd1na2vs0mg"},{"bike_id":"4b360fbd-af26-4a98-98f4-4a87c75be949","system_id":"levelo_inurba_marseille","lat":43.309265,"lon":5.40143,"is_reserved":false,"is_disabled":false,"rental_uris":{"android":"levelo://app?vid=4b360fbd-af26-4a98-98f4-4a87c75be949","ios":"levelo://app?vid=4b360fbd-af26-4a98-98f4-4a87c75be949"},"vehicle_type_id":"4","last_reported":1760717544,"current_range_meters":17200,"station_id":"ce4bgvp2rcd13ifvqct0","pricing_plan_id":"cebpf4jnsgd1na2vs0mg"},{"bike_id":"3b2a1cbe-cfe6-4577-98b9-52dc49aa37fa","system_id":"levelo_inurba_marseille","lat":43.30087,"lon":5.39077,"is_reserved":false,"is_disabled":false,"rental_uris":{"android":"levelo://app?vid=3b2a1cbe-cfe6-4577-98b9-52dc49aa37fa","ios":"levelo://app?vid=3b2a1cbe-cfe6-4577-98b9-52dc49aa37fa"},"vehicle_type_id":"4","last_reported":1760717544,"current_range_meters":17200,"station_id":"ce4bh192rcd13ifvqdb0","pricing_plan_id":"cebpf4jnsgd1na2vs0mg"},{"bike_id":"4b08cfe7-5df1-4e29-905e-03a9992f8dfa","system_id":"levelo_inurba_marseille","lat":43.33766,"lon":5.37421,"is_reserved":false,"is_disabled":false,"rental_uris":{"android":"levelo://app?vid=4b08cfe7-5df1-4e29-905e-03a9992f8dfa","ios":"levelo://app?vid=4b08cfe7-5df1-4e29-905e-03a9992f8dfa"},"vehicle_type_id":"4","last_reported":1760717544,"current_range_meters":17600,"station_id":"","pricing_plan_id":"cebpf4jnsgd1na2vs0mg"},{"bike_id":"c1573923-cb31-4221-a367-1e4b04217495","system_id":"levelo_inurba_marseille","lat":43.28999,"lon":5.35616,"is_reserved":false,"is_disabled":false,"rental_uris":{"android":"levelo://app?vid=c1573923-cb31-4221-a367-1e4b04217495","ios":"levelo://app?vid=c1573923-cb31-4221-a367-1e4b04217495"},"vehicle_type_id":"4","last_reported":1760717544,"current_range_meters":17600,"station_id":"ce4bhb92rcd13ifvqen0","pricing_plan_id":"cebpf4jnsgd1na2vs0mg"},{"bike_id":"c3acb9dc-3178-4e4f-8a89-24595d17b881","system_id":"levelo_inurba_marseille","lat":43.33027,"lon":5.39044,"is_reserved":false,"is_disabled":false,"rental_uris":{"android":"levelo://app?vid=c3acb9dc-3178-4e4f-8a89-24595d17b881","ios":"levelo://app?vid=c3acb9dc-3178-4e4f-8a89-24595d17b881"},"vehicle_type_id":"4","last_reported":1760717544,"current_range_meters":17600,"station_id":"ce4bhr92rcd13ifvqhrg","pricing_plan_id":"cebpf4jnsgd1na2vs0mg"},{"bike_id":"80dc9e43-13a2-4137-b416-692681fb8c55","system_id":"levelo_inurba_marseille","lat":43.24809,"lon":5.37461,"is_reserved":false,"is_disabled":false,"rental_uris":{"android":"levelo://app?vid=80dc9e43-13a2-4137-b416-692681fb8c55","ios":"levelo://app?vid=80dc9e43-13a2-4137-b416-692681fb8c55"},"vehicle_type_id":"4","last_reported":1760717544,"current_range_meters":17600,"station_id":"ce4bhgh2rcd13ifvqfb0","pricing_plan_id":"cebpf4jnsgd1na2vs0mg"},{"bike_id":"6f274092-c836-4709-8bf1-a7cdbeb6f733","system_id":"levelo_inurba_marseille","lat":43.3377,"lon":5.3747,"is_reserved":false,"is_disabled":false,"rental_uris":{"android":"levelo://app?vid=6f274092-c836-4709-8bf1-a7cdbeb6f733","ios":"levelo://app?vid=6f274092-c836-4709-8bf1-a7cdbeb6f733"},"vehicle_type_id":"4","last_reported":1760717544,"current_range_meters":17600,"station_id":"","pricing_plan_id":"cebpf4jnsgd1na2vs0mg"},{"bike_id":"edf6b708-feaf-4e43-8c54-5f164fcb6ced","system_id":"levelo_inurba_marseille","lat":43.284723,"lon":5.35885,"is_reserved":false,"is_disabled":false,"rental_uris":{"android":"levelo://app?vid=edf6b708-feaf-4e43-8c54-5f164fcb6ced","ios":"levelo://app?vid=edf6b708-feaf-4e43-8c54-5f164fcb6ced"},"vehicle_type_id":"4","last_reported":1760717544,"current_range_meters":17600,"station_id":"ce4bhah2rcd13ifvqei0","pricing_plan_id":"cebpf4jnsgd1na2vs0mg"},{"bike_id":"74e3e01c-66c4-481d-b08c-6c10af99936d","system_id":"levelo_inurba_marseille","lat":43.3411,"lon":5.40432,"is_reserved":false,"is_disabled":false,"rental_uris":{"android":"levelo://app?vid=74e3e01c-66c4-481d-b08c-6c10af99936d","ios":"levelo://app?vid=74e3e01c-66c4-481d-b08c-6c10af99936d"},"vehicle_type_id":"4","last_reported":1760717544,"current_range_meters":17600,"station_id":"","pricing_plan_id":"cebpf4jnsgd1na2vs0mg"},{"bike_id":"8b2af755-2c12-431a-aa02-04ac488b369e","system_id":"levelo_inurba_marseille","lat":43.27942,"lon":5.41052,"is_reserved":false,"is_disabled":false,"rental_uris":{"android":"levelo://app?vid=8b2af755-2c12-431a-aa02-04ac488b369e","ios":"levelo://app?vid=8b2af755-2c12-431a-aa02-04ac488b369e"},"vehicle_type_id":"4","last_reported":1760717544,"current_range_meters":17600,"station_id":"ce4bhnp2rcd13ifvqh0g","pricing_plan_id":"cebpf4jnsgd1na2vs0mg"},{"bike_id":"6977beda-5ff5-44e6-b8f9-765108f98d50","system_id":"levelo_inurba_marseille","lat":43.29566,"lon":5.38499,"is_reserved":false,"is_disabled":false,"rental_uris":{"android":"levelo://app?vid=6977beda-5ff5-44e6-b8f9-765108f98d50","ios":"levelo://app?vid=6977beda-5ff5-44e6-b8f9-765108f98d50"},"vehicle_type_id":"4","last_reported":1760717544,"current_range_meters":17600,"station_id":"","pricing_plan_id":"cebpf4jnsgd1na2vs0mg"},{"bike_id":"a98af77f-1fd9-4196-813a-049c4dcf70a5","system_id":"levelo_inurba_marseille","lat":43.295331,"lon":5.385429,"is_reserved":false,"is_disabled":false,"rental_uris":{"android":"levelo://app?vid=a98af77f-1fd9-4196-813a-049c4dcf70a5","ios":"levelo://app?vid=a98af77f-1fd9-4196-813a-049c4dcf70a5"},"vehicle_type_id":"4","last_reported":1760717544,"current_range_meters":18000,"station_id":"ce4bgih2rcd13ifvqba0","pricing_plan_id":"cebpf4jnsgd1na2vs0mg"},{"bike_id":"b5384ef3-f722-490e-a099-66d8c4d1cd6b","system_id":"levelo_inurba_marseille","lat":43.28541,"lon":5.44125,"is_reserved":false,"is_disabled":false,"rental_uris":{"android":"levelo://app?vid=b5384ef3-f722-490e-a099-66d8c4d1cd6b","ios":"levelo://app?vid=b5384ef3-f722-490e-a099-66d8c4d1cd6b"},"vehicle_type_id":"4","last_reported":1760717544,"current_range_meters":18000,"station_id":"st_d3j3df2ikq2c7380ej80","pricing_plan_id":"cebpf4jnsgd1na2vs0mg"},{"bike_id":"4d5537f2-c344-4dc8-9942-9236bca2e3b5","system_id":"levelo_inurba_marseille","lat":43.29234,"lon":5.36075,"is_reserved":false,"is_disabled":false,"rental_uris":{"android":"levelo://app?vid=4d5537f2-c344-4dc8-9942-9236bca2e3b5","ios":"levelo://app?vid=4d5537f2-c344-4dc8-9942-9236bca2e3b5"},"vehicle_type_id":"4","last_reported":1760717544,"current_range_meters":18000,"station_id":"ce4bhbh2rcd13ifvqeqg","pricing_plan_id":"cebpf4jnsgd1na2vs0mg"},{"bike_id":"7a81d056-0176-460d-b95f-3c89febb70dc","system_id":"levelo_inurba_marseille","lat":43.23191,"lon":5.35547,"is_reserved":false,"is_disabled":false,"rental_uris":{"android":"levelo://app?vid=7a81d056-0176-460d-b95f-3c89febb70dc","ios":"levelo://app?vid=7a81d056-0176-460d-b95f-3c89febb70dc"},"vehicle_type_id":"4","last_reported":1760717544,"current_range_meters":18000,"station_id":"ce4bhu92rcd13ifvqi70","pricing_plan_id":"cebpf4jnsgd1na2vs0mg"},{"bike_id":"ffef0359-ca92-46c1-a402-c5ab0451dfea","system_id":"levelo_inurba_marseille","lat":43.29265,"lon":5.36848,"is_reserved":false,"is_disabled":false,"rental_uris":{"android":"levelo://app?vid=ffef0359-ca92-46c1-a402-c5ab0451dfea","ios":"levelo://app?vid=ffef0359-ca92-46c1-a402-c5ab0451dfea"},"vehicle_type_id":"4","last_reported":1760717544,"current_range_meters":18000,"station_id":"ce4bhbp2rcd13ifvqesg","pricing_plan_id":"cebpf4jnsgd1na2vs0mg"},{"bike_id":"fe7920d6-b206-4df3-8e6d-474483711cfd","system_id":"levelo_inurba_marseille","lat":43.30399,"lon":5.413,"is_reserved":false,"is_disabled":false,"rental_uris":{"android":"levelo://app?vid=fe7920d6-b206-4df3-8e6d-474483711cfd","ios":"levelo://app?vid=fe7920d6-b206-4df3-8e6d-474483711cfd"},"vehicle_type_id":"4","last_reported":1760717544,"current_range_meters":18000,"station_id":"ce4bhop2rcd13ifvqh8g","pricing_plan_id":"cebpf4jnsgd1na2vs0mg"},{"bike_id":"ae6eb0f2-4874-4ceb-8d8c-7385a8266f58","system_id":"levelo_inurba_marseille","lat":43.29491,"lon":5.37925,"is_reserved":false,"is_disabled":false,"rental_uris":{"android":"levelo://app?vid=ae6eb0f2-4874-4ceb-8d8c-7385a8266f58","ios":"levelo://app?vid=ae6eb0f2-4874-4ceb-8d8c-7385a8266f58"},"vehicle_type_id":"4","last_reported":1760717544,"current_range_meters":18000,"station_id":"","pricing_plan_id":"cebpf4jnsgd1na2vs0mg"},{"bike_id":"72931a2f-deaf-4fee-808c-42bb9da487c0","system_id":"levelo_inurba_marseille","lat":43.231975,"lon":5.355542,"is_reserved":false,"is_disabled":false,"rental_uris":{"android":"levelo://app?vid=72931a2f-deaf-4fee-808c-42bb9da487c0","ios":"levelo://app?vid=72931a2f-deaf-4fee-808c-42bb9da487c0"},"vehicle_type_id":"4","last_reported":1760717544,"current_range_meters":18000,"station_id":"ce4bhu92rcd13ifvqi70","pricing_plan_id":"cebpf4jnsgd1na2vs0mg"},{"bike_id":"ca95f5e3-2b9a-4628-b50a-de027804662e","system_id":"levelo_inurba_marseille","lat":43.28103,"lon":5.37837,"is_reserved":false,"is_disabled":false,"rental_uris":{"android":"levelo://app?vid=ca95f5e3-2b9a-4628-b50a-de027804662e","ios":"levelo://app?vid=ca95f5e3-2b9a-4628-b50a-de027804662e"},"vehicle_type_id":"4","last_reported":1760717544,"current_range_meters":18800,"station_id":"ce4bha12rcd13ifvqee0","pricing_plan_id":"cebpf4jnsgd1na2vs0mg"},{"bike_id":"08bf6c02-1942-4851-81d6-a5bb3b5bede8","system_id":"levelo_inurba_marseille","lat":43.27998,"lon":5.40019,"is_reserved":false,"is_disabled":false,"rental_uris":{"android":"levelo://app?vid=08bf6c02-1942-4851-81d6-a5bb3b5bede8","ios":"levelo://app?vid=08bf6c02-1942-4851-81d6-a5bb3b5bede8"},"vehicle_type_id":"4","last_reported":1760717544,"current_range_meters":18800,"station_id":"ce4bho92rcd13ifvqh4g","pricing_plan_id":"cebpf4jnsgd1na2vs0mg"},{"bike_id":"8ba4d5cb-a801-4c51-9a43-0ed6ff8b6d12","system_id":"levelo_inurba_marseille","lat":43.24076,"lon":5.37768,"is_reserved":false,"is_disabled":false,"rental_uris":{"android":"levelo://app?vid=8ba4d5cb-a801-4c51-9a43-0ed6ff8b6d12","ios":"levelo://app?vid=8ba4d5cb-a801-4c51-9a43-0ed6ff8b6d12"},"vehicle_type_id":"4","last_reported":1760717544,"current_range_meters":18800,"station_id":"ce4bhnp2rcd13ifvqgvg","pricing_plan_id":"cebpf4jnsgd1na2vs0mg"},{"bike_id":"d346dedb-f963-4541-9569-e4cccd66a538","system_id":"levelo_inurba_marseille","lat":43.26557,"lon":5.40321,"is_reserved":false,"is_disabled":false,"rental_uris":{"android":"levelo://app?vid=d346dedb-f963-4541-9569-e4cccd66a538","ios":"levelo://app?vid=d346dedb-f963-4541-9569-e4cccd66a538"},"vehicle_type_id":"4","last_reported":1760717544,"current_range_meters":18800,"station_id":"ce4bhmp2rcd13ifvqgng","pricing_plan_id":"cebpf4jnsgd1na2vs0mg"},{"bike_id":"e9b42dd2-63ad-4090-b4e1-d0798255957c","system_id":"levelo_inurba_marseille","lat":43.23962,"lon":5.3663,"is_reserved":false,"is_disabled":false,"rental_uris":{"android":"levelo://app?vid=e9b42dd2-63ad-4090-b4e1-d0798255957c","ios":"levelo://app?vid=e9b42dd2-63ad-4090-b4e1-d0798255957c"},"vehicle_type_id":"4","last_reported":1760717544,"current_range_meters":18800,"station_id":"ce4bhi12rcd13ifvqfp0","pricing_plan_id":"cebpf4jnsgd1na2vs0mg"},{"bike_id":"5cd2420c-8654-47f6-8e43-ac3bea09e236","system_id":"levelo_inurba_marseille","lat":43.258216,"lon":5.394407,"is_reserved":false,"is_disabled":false,"rental_uris":{"android":"levelo://app?vid=5cd2420c-8654-47f6-8e43-ac3bea09e236","ios":"levelo://app?vid=5cd2420c-8654-47f6-8e43-ac3bea09e236"},"vehicle_type_id":"4","last_reported":1760717544,"current_range_meters":18800,"station_id":"ce4bhip2rcd13ifvqft0","pricing_plan_id":"cebpf4jnsgd1na2vs0mg"},{"bike_id":"913ec7bc-369f-40ae-ada7-9c541a1924ac","system_id":"levelo_inurba_marseille","lat":43.30609,"lon":5.37222,"is_reserved":false,"is_disabled":false,"rental_uris":{"android":"levelo://app?vid=913ec7bc-369f-40ae-ada7-9c541a1924ac","ios":"levelo://app?vid=913ec7bc-369f-40ae-ada7-9c541a1924ac"},"vehicle_type_id":"4","last_reported":1760717544,"current_range_meters":18800,"station_id":"ce4bgqh2rcd13ifvqc4g","pricing_plan_id":"cebpf4jnsgd1na2vs0mg"},{"bike_id":"513acb9f-c3cf-452e-9444-d77ac84e87e8","system_id":"levelo_inurba_marseille","lat":43.30412,"lon":5.41292,"is_reserved":false,"is_disabled":false,"rental_uris":{"android":"levelo://app?vid=513acb9f-c3cf-452e-9444-d77ac84e87e8","ios":"levelo://app?vid=513acb9f-c3cf-452e-9444-d77ac84e87e8"},