{"last_updated":1723223252,"ttl":30,"version":"2.2","data":{"bikes":[{"bike_id":"f8cb1be8-ede2-4cf7-a286-503dbac7a983","system_id":"levelo_inurba_marseille","lat":43.312239,"lon":5.368562,"is_reserved":false,"is_disabled":false,"rental_uris":{"android":"levelo://app?vid=f8cb1be8-ede2-4cf7-a286-503dbac7a983","ios":"levelo://app?vid=f8cb1be8-ede2-4cf7-a286-503dbac7a983"},"vehicle_type_id":"4","last_reported":1723223253,"current_range_meters":2800,"station_id":"ce4bgl92rcd13ifvqbq0","pricing_plan_id":"cebpf4jnsgd1na2vs0mg"},{"bike_id":"8f547097-401e-4291-9e8c-d662091a5008","system_id":"levelo_inurba_marseille","lat":43.312327,"lon":5.368611,"is_reserved":false,"is_disabled":false,"rental_uris":{"android":"levelo://app?vid=8f547097-401e-4291-9e8c-d662091a5008","ios":"levelo://app?vid=8f547097-401e-4291-9e8c-d662091a5008"},"vehicle_type_id":"4","last_reported":1723223253,"current_range_meters":0,"station_id":"ce4bgl92rcd13ifvqbq0","pricing_plan_id":"cebpf4jnsgd1na2vs0mg"},{"bike_id":"dceb7393-da0f-449c-abe1-ce72972c64b4","system_id":"levelo_inurba_marseille","lat":43.315686,"lon":5.372364,"is_reserved":false,"is_disabled":false,"rental_uris":{"android":"levelo://app?vid=dceb7393-da0f-449c-abe1-ce72972c64b4","ios":"levelo://app?vid=dceb7393-da0f-449c-abe1-ce72972c64b4"},"vehicle_type_id":"4","last_reported":1723223253,"current_range_meters":15600,"station_id":"","pricing_plan_id":"cebpf4jnsgd1na2vs0mg"},{"bike_id":"d90b3389-bbea-4f41-bcc6-d8123dd26592","system_id":"levelo_inurba_marseille","lat":43.309039,"lon":5.371797,"is_reserved":false,"is_disabled":false,"rental_uris":{"android":"levelo://app?vid=d90b3389-bbea-4f41-bcc6-d8123dd26592","ios":"levelo://app?vid=d90b3389-bbea-4f41-bcc6-d8123dd26592"},"vehicle_type_id":"4","last_reported":1723223253,"current_range_meters":12400,"station_id":"ce4bguh2rcd13ifvqckg","pricing_plan_id":"cebpf4jnsgd1na2vs0mg"},{"bike_id":"856b0484-86c9-4833-8fc9-94f3401a84ca","system_id":"levelo_inurba_marseille","lat":43.305368,"lon":5.367343,"is_reserved":false,"is_disabled":false,"rental_uris":{"android":"levelo://app?vid=856b0484-86c9-4833-8fc9-94f3401a84ca","ios":"levelo://app?vid=856b0484-86c9-4833-8fc9-94f3401a84ca"},"vehicle_type_id":"4","last_reported":1723223253,"current_range_meters":1200,"station_id":"ce4bgrp2rcd13ifvqc9g","pricing_plan_id":"cebpf4jnsgd1na2vs0mg"},{"bike_id":"0ef449d9-7cf7-4a68-ae65-8e6f12f0055d","system_id":"levelo_inurba_marseille","lat":43.30614,"lon":5.36553,"is_reserved":false,"is_disabled":false,"rental_uris":{"android":"levelo://app?vid=0ef449d9-7cf7-4a68-ae65-8e6f12f0055d","ios":"levelo://app?vid=0ef449d9-7cf7-4a68-ae65-8e6f12f0055d"},"vehicle_type_id":"4","last_reported":1723223253,"current_range_meters":21200,"station_id":"","pricing_plan_id":"cebpf4jnsgd1na2vs0mg"},{"bike_id":"0322dd75-d741-4495-bef5-1c20b8e8e42a","system_id":"levelo_inurba_marseille","lat":43.30551,"lon":5.36564,"is_reserved":false,"is_disabled":false,"rental_uris":{"android":"levelo://app?vid=0322dd75-d741-4495-bef5-1c20b8e8e42a","ios":"levelo://app?vid=0322dd75-d741-4495-bef5-1c20b8e8e42a"},"vehicle_type_id":"4","last_reported":1723223253,"current_range_meters":6400,"station_id":"ce4bgs12rcd13ifvqcag","pricing_plan_id":"cebpf4jnsgd1na2vs0mg"},{"bike_id":"f15285b3-394f-48f1-b84a-85e1053731af","system_id":"levelo_inurba_marseille","lat":43.305706,"lon":5.365654,"is_reserved":false,"is_disabled":false,"rental_uris":{"android":"levelo://app?vid=f15285b3-394f-48f1-b84a-85e1053731af","ios":"levelo://app?vid=f15285b3-394f-48f1-b84a-85e1053731af"},"vehicle_type_id":"4","last_reported":1723223253,"current_range_meters":21200,"station_id":"ce4bgs12rcd13ifvqcag","pricing_plan_id":"cebpf4jnsgd1na2vs0mg"},{"bike_id":"dd0cbadd-a825-449f-8112-36dc8f1e5649","system_id":"levelo_inurba_marseille","lat":43.315289,"lon":5.380349,"is_reserved":false,"is_disabled":false,"rental_uris":{"android":"levelo://app?vid=dd0cbadd-a825-449f-8112-36dc8f1e5649","ios":"levelo://app?vid=dd0cbadd-a825-449f-8112-36dc8f1e5649"},"vehicle_type_id":"4","last_reported":1723223253,"current_range_meters":7600,"station_id":"ce4bhsp2rcd13ifvqi50","pricing_plan_id":"cebpf4jnsgd1na2vs0mg"},{"bike_id":"3b9a2c21-d7e6-40c5-85d9-633e7243c824","system_id":"levelo_inurba_marseille","lat":43.315289,"lon":5.380349,"is_reserved":false,"is_disabled":false,"rental_uris":{"android":"levelo://app?vid=3b9a2c21-d7e6-40c5-85d9-633e7243c824","ios":"levelo://app?vid=3b9a2c21-d7e6-40c5-85d9-633e7243c824"},"vehicle_type_id":"4","last_reported":1723223253,"current_range_meters":11200,"station_id":"ce4bhsp2rcd13ifvqi50","pricing_plan_id":"cebpf4jnsgd1na2vs0mg"},{"bike_id":"cbf1a824-1c0f-4230-9ee0-f2b92b9becd7","system_id":"levelo_inurba_marseille","lat":43.315289,"lon":5.380349,"is_reserved":false,"is_disabled":false,"rental_uris":{"android":"levelo://app?vid=cbf1a824-1c0f-4230-9ee0-f2b92b9becd7","ios":"levelo://app?vid=cbf1a824-1c0f-4230-9ee0-f2b92b9becd7"},"vehicle_type_id":"4","last_reported":1723223253,"current_range_meters":11600,"station_id":"ce4bhsp2rcd13ifvqi50","pricing_plan_id":"cebpf4jnsgd1na2vs0mg"},{"bike_id":"09dd09d7-2641-48cc-babf-bff6f9018875","system_id":"levelo_inurba_marseille","lat":43.307857,"lon":5.3796,"is_reserved":false,"is_disabled":false,"rental_uris":{"android":"levelo://app?vid=09dd09d7-2641-48cc-babf-bff6f9018875","ios":"levelo://app?vid=09dd09d7-2641-48cc-babf-bff6f9018875"},"vehicle_type_id":"4","last_reported":1723223253,"current_range_meters":0,"station_id":"","pricing_plan_id":"cebpf4jnsgd1na2vs0mg"},{"bike_id":"192bc778-be1f-402d-b1df-16d7172e5519","system_id":"levelo_inurba_marseille","lat":43.31359,"lon":5.38283,"is_reserved":false,"is_disabled":false,"rental_uris":{"android":"levelo://app?vid=192bc778-be1f-402d-b1df-16d7172e5519","ios":"levelo://app?vid=192bc778-be1f-402d-b1df-16d7172e5519"},"vehicle_type_id":"4","last_reported":1723223253,"current_range_meters":4400,"station_id":"","pricing_plan_id":"cebpf4jnsgd1na2vs0mg"},{"bike_id":"30047688-df01-4beb-bb69-8da0365abc41","system_id":"levelo_inurba_marseille","lat":43.324771,"lon":5.36557,"is_reserved":false,"is_disabled":false,"rental_uris":{"android":"levelo://app?vid=30047688-df01-4beb-bb69-8da0365abc41","ios":"levelo://app?vid=30047688-df01-4beb-bb69-8da0365abc41"},"vehicle_type_id":"4","last_reported":1723223253,"current_range_meters":14400,"station_id":"ce4bhs12rcd13ifvqhvg","pricing_plan_id":"cebpf4jnsgd1na2vs0mg"},{"bike_id":"68ed2792-c496-4a62-ba93-80fff03ff672","system_id":"levelo_inurba_marseille","lat":43.324771,"lon":5.36557,"is_reserved":false,"is_disabled":false,"rental_uris":{"android":"levelo://app?vid=68ed2792-c496-4a62-ba93-80fff03ff672","ios":"levelo://app?vid=68ed2792-c496-4a62-ba93-80fff03ff672"},"vehicle_type_id":"4","last_reported":1723223253,"current_range_meters":31600,"station_id":"ce4bhs12rcd13ifvqhvg","pricing_plan_id":"cebpf4jnsgd1na2vs0mg"},{"bike_id":"4398cd50-4799-43a9-9e4e-38e93a2dde9c","system_id":"levelo_inurba_marseille","lat":43.3248,"lon":5.36574,"is_reserved":false,"is_disabled":false,"rental_uris":{"android":"levelo://app?vid=4398cd50-4799-43a9-9e4e-38e93a2dde9c","ios":"levelo://app?vid=4398cd50-4799-43a9-9e4e-38e93a2dde9c"},"vehicle_type_id":"4","last_reported":1723223253,"current_range_meters":20800,"station_id":"ce4bhs12rcd13ifvqhvg","pricing_plan_id":"cebpf4jnsgd1na2vs0mg"},{"bike_id":"a6d7d5f9-58e9-4d56-913b-34bdb381bc1d","system_id":"levelo_inurba_marseille","lat":43.32488,"lon":5.36588,"is_reserved":false,"is_disabled":false,"rental_uris":{"android":"levelo://app?vid=a6d7d5f9-58e9-4d56-913b-34bdb381bc1d","ios":"levelo://app?vid=a6d7d5f9-58e9-4d56-913b-34bdb381bc1d"},"vehicle_type_id":"4","last_reported":1723223253,"current_range_meters":11600,"station_id":"ce4bhs12rcd13ifvqhvg","pricing_plan_id":"cebpf4jnsgd1na2vs0mg"},{"bike_id":"bd32bf4f-dae5-48c8-bc79-d055403534e2","system_id":"levelo_inurba_marseille","lat":43.32487,"lon":5.36556,"is_reserved":false,"is_disabled":false,"rental_uris":{"android":"levelo://app?vid=bd32bf4f-dae5-48c8-bc79-d055403534e2","ios":"levelo://app?vid=bd32bf4f-dae5-48c8-bc79-d055403534e2"},"vehicle_type_id":"4","last_reported":1723223253,"current_range_meters":0,"station_id":"ce4bhs12rcd13ifvqhvg","pricing_plan_id":"cebpf4jnsgd1na2vs0mg"},{"bike_id":"47dc803b-0ae4-4e60-a251-c163bd6c8138","system_id":"levelo_inurba_marseille","lat":43.310804,"lon":5.38359,"is_reserved":false,"is_disabled":false,"rental_uris":{"android":"levelo://app?vid=47dc803b-0ae4-4e60-a251-c163bd6c8138","ios":"levelo://app?vid=47dc803b-0ae4-4e60-a251-c163bd6c8138"},"vehicle_type_id":"4","last_reported":1723223253,"current_range_meters":5200,"station_id":"ce4bgv92rcd13ifvqcr0","pricing_plan_id":"cebpf4jnsgd1na2vs0mg"},{"bike_id":"c316ecd5-e289-4460-9c76-7a8e6190c3f6","system_id":"levelo_inurba_marseille","lat":43.310804,"lon":5.38359,"is_reserved":false,"is_disabled":false,"rental_uris":{"android":"levelo://app?vid=c316ecd5-e289-4460-9c76-7a8e6190c3f6","ios":"levelo://app?vid=c316ecd5-e289-4460-9c76-7a8e6190c3f6"},"vehicle_type_id":"4","last_reported":1723223253,"current_range_meters":18800,"station_id":"ce4bgv92rcd13ifvqcr0","pricing_plan_id":"cebpf4jnsgd1na2vs0mg"},{"bike_id":"ec55ab17-2cd5-4364-8f8e-e99ad444c100","system_id":"levelo_inurba_marseille","lat":43.310804,"lon":5.38359,"is_reserved":false,"is_disabled":false,"rental_uris":{"android":"levelo://app?vid=ec55ab17-2cd5-4364-8f8e-e99ad444c100","ios":"levelo://app?vid=ec55ab17-2cd5-4364-8f8e-e99ad444c100"},"vehicle_type_id":"4","last_reported":1723223253,"current_range_meters":28800,"station_id":"ce4bgv92rcd13ifvqcr0","pricing_plan_id":"cebpf4jnsgd1na2vs0mg"},{"bike_id":"cbe12244-ddd3-44c2-99d8-85090b41a94b","system_id":"levelo_inurba_marseille","lat":43.302784,"lon":5.377158,"is_reserved":false,"is_disabled":false,"rental_uris":{"android":"levelo://app?vid=cbe12244-ddd3-44c2-99d8-85090b41a94b","ios":"levelo://app?vid=cbe12244-ddd3-44c2-99d8-85090b41a94b"},"vehicle_type_id":"4","last_reported":1723223253,"current_range_meters":20000,"station_id":"ce4bguh2rcd13ifvqcj0","pricing_plan_id":"cebpf4jnsgd1na2vs0mg"},{"bike_id":"a3ead3dd-f7a5-4742-9e1a-b92a723511ae","system_id":"levelo_inurba_marseille","lat":43.319935,"lon":5.381699,"is_reserved":false,"is_disabled":false,"rental_uris":{"android":"levelo://app?vid=a3ead3dd-f7a5-4742-9e1a-b92a723511ae","ios":"levelo://app?vid=a3ead3dd-f7a5-4742-9e1a-b92a723511ae"},"vehicle_type_id":"4","last_reported":1723223253,"current_range_meters":23200,"station_id":"ce4bhr12rcd13ifvqhpg","pricing_plan_id":"cebpf4jnsgd1na2vs0mg"},{"bike_id":"37975418-7dbd-451a-889a-04d69c6d20a5","system_id":"levelo_inurba_marseille","lat":43.313571,"lon":5.384829,"is_reserved":false,"is_disabled":false,"rental_uris":{"android":"levelo://app?vid=37975418-7dbd-451a-889a-04d69c6d20a5","ios":"levelo://app?vid=37975418-7dbd-451a-889a-04d69c6d20a5"},"vehicle_type_id":"4","last_reported":1723223253,"current_range_meters":11200,"station_id":"ce4bgt92rcd13ifvqcf0","pricing_plan_id":"cebpf4jnsgd1na2vs0mg"},{"bike_id":"e8999ba1-edb2-4fe1-a559-b0459119d637","system_id":"levelo_inurba_marseille","lat":43.313571,"lon":5.384829,"is_reserved":false,"is_disabled":false,"rental_uris":{"android":"levelo://app?vid=e8999ba1-edb2-4fe1-a559-b0459119d637","ios":"levelo://app?vid=e8999ba1-edb2-4fe1-a559-b0459119d637"},"vehicle_type_id":"4","last_reported":1723223253,"current_range_meters":1200,"station_id":"ce4bgt92rcd13ifvqcf0","pricing_plan_id":"cebpf4jnsgd1na2vs0mg"},{"bike_id":"8a6122e3-f9de-4422-8948-52a96f6679df","system_id":"levelo_inurba_marseille","lat":43.299222,"lon":5.365554,"is_reserved":false,"is_disabled":false,"rental_uris":{"android":"levelo://app?vid=8a6122e3-f9de-4422-8948-52a96f6679df","ios":"levelo://app?vid=8a6122e3-f9de-4422-8948-52a96f6679df"},"vehicle_type_id":"4","last_reported":1723223253,"current_range_meters":0,"station_id":"ce4bgm92rcd13ifvqbr0","pricing_plan_id":"cebpf4jnsgd1na2vs0mg"},{"bike_id":"596be26b-245b-4737-b3ec-a4951099003a","system_id":"levelo_inurba_marseille","lat":43.298433,"lon":5.362774,"is_reserved":false,"is_disabled":false,"rental_uris":{"android":"levelo://app?vid=596be26b-245b-4737-b3ec-a4951099003a","ios":"levelo://app?vid=596be26b-245b-4737-b3ec-a4951099003a"},"vehicle_type_id":"4","last_reported":1723223253,"current_range_meters":800,"station_id":"ce4bgpp2rcd13ifvqc3g","pricing_plan_id":"cebpf4jnsgd1na2vs0mg"},{"bike_id":"2c108760-752e-4136-8430-eeb01e9ca6ac","system_id":"levelo_inurba_marseille","lat":43.299243,"lon":5.37481,"is_reserved":false,"is_disabled":false,"rental_uris":{"android":"levelo://app?vid=2c108760-752e-4136-8430-eeb01e9ca6ac","ios":"levelo://app?vid=2c108760-752e-4136-8430-eeb01e9ca6ac"},"vehicle_type_id":"4","last_reported":1723223253,"current_range_meters":400,"station_id":"ce4bgjh2rcd13ifvqbg0","pricing_plan_id":"cebpf4jnsgd1na2vs0mg"},{"bike_id":"7d0243e8-2b6a-47c9-826f-595587b8aca6","system_id":"levelo_inurba_marseille","lat":43.297794,"lon":5.370888,"is_reserved":false,"is_disabled":false,"rental_uris":{"android":"levelo://app?vid=7d0243e8-2b6a-47c9-826f-595587b8aca6","ios":"levelo://app?vid=7d0243e8-2b6a-47c9-826f-595587b8aca6"},"vehicle_type_id":"4","last_reported":1723223253,"current_range_meters":28000,"station_id":"ce4bgop2rcd13ifvqc1g","pricing_plan_id":"cebpf4jnsgd1na2vs0mg"},{"bike_id":"216240ef-238f-48ba-bd26-5d1c9cf540df","system_id":"levelo_inurba_marseille","lat":43.31456,"lon":5.38784,"is_reserved":false,"is_disabled":false,"rental_uris":{"android":"levelo://app?vid=216240ef-238f-48ba-bd26-5d1c9cf540df","ios":"levelo://app?vid=216240ef-238f-48ba-bd26-5d1c9cf540df"},"vehicle_type_id":"4","last_reported":1723223253,"current_range_meters":4000,"station_id":"","pricing_plan_id":"cebpf4jnsgd1na2vs0mg"},{"bike_id":"56336070-270e-4688-977a-33923fe7af06","system_id":"levelo_inurba_marseille","lat":43.29573,"lon":5.367355,"is_reserved":false,"is_disabled":false,"rental_uris":{"android":"levelo://app?vid=56336070-270e-4688-977a-33923fe7af06","ios":"levelo://app?vid=56336070-270e-4688-977a-33923fe7af06"},"vehicle_type_id":"4","last_reported":1723223253,"current_range_meters":0,"station_id":"ce4bgph2rcd13ifvqc2g","pricing_plan_id":"cebpf4jnsgd1na2vs0mg"},{"bike_id":"4c2d6a06-d98e-4caf-957b-5b4586618067","system_id":"levelo_inurba_marseille","lat":43.29573,"lon":5.367355,"is_reserved":false,"is_disabled":false,"rental_uris":{"android":"levelo://app?vid=4c2d6a06-d98e-4caf-957b-5b4586618067","ios":"levelo://app?vid=4c2d6a06-d98e-4caf-957b-5b4586618067"},"vehicle_type_id":"4","last_reported":1723223253,"current_range_meters":0,"station_id":"ce4bgph2rcd13ifvqc2g","pricing_plan_id":"cebpf4jnsgd1na2vs0mg"},{"bike_id":"baa03af2-20ec-46a2-b71f-2f97bdd658df","system_id":"levelo_inurba_marseille","lat":43.296935,"lon":5.376544,"is_reserved":false,"is_disabled":false,"rental_uris":{"android":"levelo://app?vid=baa03af2-20ec-46a2-b71f-2f97bdd658df","ios":"levelo://app?vid=baa03af2-20ec-46a2-b71f-2f97bdd658df"},"vehicle_type_id":"4","last_reported":1723223253,"current_range_meters":0,"station_id":"ce4bgkh2rcd13ifvqbl0","pricing_plan_id":"cebpf4jnsgd1na2vs0mg"},{"bike_id":"2a7e47e2-f6e0-4b89-969f-0d49e92197e4","system_id":"levelo_inurba_marseille","lat":43.309589,"lon":5.390258,"is_reserved":false,"is_disabled":false,"rental_uris":{"android":"levelo://app?vid=2a7e47e2-f6e0-4b89-969f-0d49e92197e4","ios":"levelo://app?vid=2a7e47e2-f6e0-4b89-969f-0d49e92197e4"},"vehicle_type_id":"4","last_reported":1723223253,"current_range_meters":4800,"station_id":"ce4bgup2rcd13ifvqco0","pricing_plan_id":"cebpf4jnsgd1na2vs0mg"},{"bike_id":"1d5ea4de-38fb-4025-8d12-24299de97960","system_id":"levelo_inurba_marseille","lat":43.30963,"lon":5.39036,"is_reserved":false,"is_disabled":false,"rental_uris":{"android":"levelo://app?vid=1d5ea4de-38fb-4025-8d12-24299de97960","ios":"levelo://app?vid=1d5ea4de-38fb-4025-8d12-24299de97960"},"vehicle_type_id":"4","last_reported":1723223253,"current_range_meters":1200,"station_id":"ce4bgup2rcd13ifvqco0","pricing_plan_id":"cebpf4jnsgd1na2vs0mg"},{"bike_id":"7824aa32-310f-43ea-8f51-fb36dc7aad46","system_id":"levelo_inurba_marseille","lat":43.309589,"lon":5.390258,"is_reserved":false,"is_disabled":false,"rental_uris":{"android":"levelo://app?vid=7824aa32-310f-43ea-8f51-fb36dc7aad46","ios":"levelo://app?vid=7824aa32-310f-43ea-8f51-fb36dc7aad46"},"vehicle_type_id":"4","last_reported":1723223253,"current_range_meters":14000,"station_id":"ce4bgup2rcd13ifvqco0","pricing_plan_id":"cebpf4jnsgd1na2vs0mg"},{"bike_id":"b7fd525c-36d9-4e77-b492-cfd4c4e1fb26","system_id":"levelo_inurba_marseille","lat":43.309589,"lon":5.390258,"is_reserved":false,"is_disabled":false,"rental_uris":{"android":"levelo://app?vid=b7fd525c-36d9-4e77-b492-cfd4c4e1fb26","ios":"levelo://app?vid=b7fd525c-36d9-4e77-b492-cfd4c4e1fb26"},"vehicle_type_id":"4","last_reported":1723223253,"current_range_meters":3600,"station_id":"ce4bgup2rcd13ifvqco0","pricing_plan_id":"cebpf4jnsgd1na2vs0mg"},{"bike_id":"1fd32339-88d0-44c9-830c-7602a68521af","system_id":"levelo_inurba_marseille","lat":43.309589,"lon":5.390258,"is_reserved":false,"is_disabled":false,"rental_uris":{"android":"levelo://app?vid=1fd32339-88d0-44c9-830c-7602a68521af","ios":"levelo://app?vid=1fd32339-88d0-44c9-830c-7602a68521af"},"vehicle_type_id":"4","last_reported":1723223253,"current_range_meters":12000,"station_id":"ce4bgup2rcd13ifvqco0","pricing_plan_id":"cebpf4jnsgd1na2vs0mg"},{"bike_id":"fede1f57-05c0-46b3-bf55-0ddd0d6eba45","system_id":"levelo_inurba_marseille","lat":43.31759,"lon":5.39017,"is_reserved":false,"is_disabled":false,"rental_uris":{"android":"levelo://app?vid=fede1f57-05c0-46b3-bf55-0ddd0d6eba45","ios":"levelo://app?vid=fede1f57-05c0-46b3-bf55-0ddd0d6eba45"},"vehicle_type_id":"4","last_reported":1723223253,"current_range_meters":28800,"station_id":"ce4bhqp2rcd13ifvqhng","pricing_plan_id":"cebpf4jnsgd1na2vs0mg"},{"bike_id":"53e7fe89-fd91-401a-8d71-3d9fd7fc78f6","system_id":"levelo_inurba_marseille","lat":43.31766,"lon":5.3902,"is_reserved":false,"is_disabled":false,"rental_uris":{"android":"levelo://app?vid=53e7fe89-fd91-401a-8d71-3d9fd7fc78f6","ios":"levelo://app?vid=53e7fe89-fd91-401a-8d71-3d9fd7fc78f6"},"vehicle_type_id":"4","last_reported":1723223253,"current_range_meters":13200,"station_id":"ce4bhqp2rcd13ifvqhng","pricing_plan_id":"cebpf4jnsgd1na2vs0mg"},{"bike_id":"835a6d3b-8fc6-41f7-aa55-14753a660dec","system_id":"levelo_inurba_marseille","lat":43.296277,"lon":5.377108,"is_reserved":false,"is_disabled":false,"rental_uris":{"android":"levelo://app?vid=835a6d3b-8fc6-41f7-aa55-14753a660dec","ios":"levelo://app?vid=835a6d3b-8fc6-41f7-aa55-14753a660dec"},"vehicle_type_id":"4","last_reported":1723223253,"current_range_meters":28800,"station_id":"ce4bgi92rcd13ifvqb90","pricing_plan_id":"cebpf4jnsgd1na2vs0mg"},{"bike_id":"5e1c5270-9045-466a-a53c-7cd7ee6f166f","system_id":"levelo_inurba_marseille","lat":43.304278,"lon":5.388868,"is_reserved":false,"is_disabled":false,"rental_uris":{"android":"levelo://app?vid=5e1c5270-9045-466a-a53c-7cd7ee6f166f","ios":"levelo://app?vid=5e1c5270-9045-466a-a53c-7cd7ee6f166f"},"vehicle_type_id":"4","last_reported":1723223253,"current_range_meters":28400,"station_id":"ce4bgk12rcd13ifvqbi0","pricing_plan_id":"cebpf4jnsgd1na2vs0mg"},{"bike_id":"d3ac4746-3993-4f0d-9ea5-c1d0aa9aab93","system_id":"levelo_inurba_marseille","lat":43.296277,"lon":5.377108,"is_reserved":false,"is_disabled":false,"rental_uris":{"android":"levelo://app?vid=d3ac4746-3993-4f0d-9ea5-c1d0aa9aab93","ios":"levelo://app?vid=d3ac4746-3993-4f0d-9ea5-c1d0aa9aab93"},"vehicle_type_id":"4","last_reported":1723223253,"current_range_meters":0,"station_id":"ce4bgi92rcd13ifvqb90","pricing_plan_id":"cebpf4jnsgd1na2vs0mg"},{"bike_id":"49be5985-c088-4d47-9aef-4219cea527d2","system_id":"levelo_inurba_marseille","lat":43.304274,"lon":5.388873,"is_reserved":false,"is_disabled":false,"rental_uris":{"android":"levelo://app?vid=49be5985-c088-4d47-9aef-4219cea527d2","ios":"levelo://app?vid=49be5985-c088-4d47-9aef-4219cea527d2"},"vehicle_type_id":"4","last_reported":1723223253,"current_range_meters":31200,"station_id":"ce4bgk12rcd13ifvqbi0","pricing_plan_id":"cebpf4jnsgd1na2vs0mg"},{"bike_id":"c42c5c0b-eaa8-4b94-a6a1-0c1b56372cba","system_id":"levelo_inurba_marseille","lat":43.30085,"lon":5.390856,"is_reserved":false,"is_disabled":false,"rental_uris":{"android":"levelo://app?vid=c42c5c0b-eaa8-4b94-a6a1-0c1b56372cba","ios":"levelo://app?vid=c42c5c0b-eaa8-4b94-a6a1-0c1b56372cba"},"vehicle_type_id":"4","last_reported":1723223253,"current_range_meters":2400,"station_id":"ce4bh192rcd13ifvqdb0","pricing_plan_id":"cebpf4jnsgd1na2vs0mg"},{"bike_id":"854a8115-54a8-4826-a4b4-70da238d4f19","system_id":"levelo_inurba_marseille","lat":43.29602,"lon":5.381084,"is_reserved":false,"is_disabled":false,"rental_uris":{"android":"levelo://app?vid=854a8115-54a8-4826-a4b4-70da238d4f19","ios":"levelo://app?vid=854a8115-54a8-4826-a4b4-70da238d4f19"},"vehicle_type_id":"4","last_reported":1723223253,"current_range_meters":29600,"station_id":"ce4bgl12rcd13ifvqbo0","pricing_plan_id":"cebpf4jnsgd1na2vs0mg"},{"bike_id":"083fad3d-3b75-4b2c-9cc0-9cb56d4eea9e","system_id":"levelo_inurba_marseille","lat":43.29601,"lon":5.381084,"is_reserved":false,"is_disabled":false,"rental_uris":{"android":"levelo://app?vid=083fad3d-3b75-4b2c-9cc0-9cb56d4eea9e","ios":"levelo://app?vid=083fad3d-3b75-4b2c-9cc0-9cb56d4eea9e"},"vehicle_type_id":"4","last_reported":1723223253,"current_range_meters":13600,"station_id":"ce4bgl12rcd13ifvqbo0","pricing_plan_id":"cebpf4jnsgd1na2vs0mg"},{"bike_id":"3f3ac0e3-25b4-488e-8c1a-cc904157d774","system_id":"levelo_inurba_marseille","lat":43.293249,"lon":5.371578,"is_reserved":false,"is_disabled":false,"rental_uris":{"android":"levelo://app?vid=3f3ac0e3-25b4-488e-8c1a-cc904157d774","ios":"levelo://app?vid=3f3ac0e3-25b4-488e-8c1a-cc904157d774"},"vehicle_type_id":"4","last_reported":1723223253,"current_range_meters":18800,"station_id":"ce4bgh92rcd13ifvqb40","pricing_plan_id":"cebpf4jnsgd1na2vs0mg"},{"bike_id":"8885c26f-ed38-4522-8ed1-68eba086526c","system_id":"levelo_inurba_marseille","lat":43.2931,"lon":5.3718,"is_reserved":false,"is_disabled":false,"rental_uris":{"android":"levelo://app?vid=8885c26f-ed38-4522-8ed1-68eba086526c","ios":"levelo://app?vid=8885c26f-ed38-4522-8ed1-68eba086526c"},"vehicle_type_id":"4","last_reported":1723223253,"current_range_meters":0,"station_id":"ce4bgh92rcd13ifvqb40","pricing_plan_id":"cebpf4jnsgd1na2vs0mg"},{"bike_id":"f0418e20-f98e-4d43-9f92-e49d0cbe2b48","system_id":"levelo_inurba_marseille","lat":43.293259,"lon":5.371586,"is_reserved":false,"is_disabled":false,"rental_uris":{"android":"levelo://app?vid=f0418e20-f98e-4d43-9f92-e49d0cbe2b48","ios":"levelo://app?vid=f0418e20-f98e-4d43-9f92-e49d0cbe2b48"},"vehicle_type_id":"4","last_reported":1723223253,"current_range_meters":2400,"station_id":"ce4bgh92rcd13ifvqb40","pricing_plan_id":"cebpf4jnsgd1na2vs0mg"},{"bike_id":"cbf50f8e-6eda-44ce-a556-b33e985ef0e6","system_id":"levelo_inurba_marseille","lat":43.29529,"lon":5.38033,"is_reserved":false,"is_disabled":false,"rental_uris":{"android":"levelo://app?vid=cbf50f8e-6eda-44ce-a556-b33e985ef0e6","ios":"levelo://app?vid=cbf50f8e-6eda-44ce-a556-b33e985ef0e6"},"vehicle_type_id":"4","last_reported":1723223253,"current_range_meters":24000,"station_id":"","pricing_plan_id":"cebpf4jnsgd1na2vs0mg"},{"bike_id":"9399fe91-c7cb-4690-9b66-b7d7ab733f93","system_id":"levelo_inurba_marseille","lat":43.293259,"lon":5.371586,"is_reserved":false,"is_disabled":false,"rental_uris":{"android":"levelo://app?vid=9399fe91-c7cb-4690-9b66-b7d7ab733f93","ios":"levelo://app?vid=9399fe91-c7cb-4690-9b66-b7d7ab733f93"},"vehicle_type_id":"4","last_reported":1723223253,"current_range_meters":14000,"station_id":"ce4bgh92rcd13ifvqb40","pricing_plan_id":"cebpf4jnsgd1na2vs0mg"},{"bike_id":"73809166-16cc-42f7-8409-010488022a2f","system_id":"levelo_inurba_marseille","lat":43.29273,"lon":5.36844,"is_reserved":false,"is_disabled":false,"rental_uris":{"android":"levelo://app?vid=73809166-16cc-42f7-8409-010488022a2f","ios":"levelo://app?vid=73809166-16cc-42f7-8409-010488022a2f"},"vehicle_type_id":"4","last_reported":1723223253,"current_range_meters":15200,"station_id":"ce4bhbp2rcd13ifvqesg","pricing_plan_id":"cebpf4jnsgd1na2vs0mg"},{"bike_id":"cb28aa7e-30ac-40d3-bf82-fc1920504953","system_id":"levelo_inurba_marseille","lat":43.292749,"lon":5.368402,"is_reserved":false,"is_disabled":false,"rental_uris":{"android":"levelo://app?vid=cb28aa7e-30ac-40d3-bf82-fc1920504953","ios":"levelo://app?vid=cb28aa7e-30ac-40d3-bf82-fc1920504953"},"vehicle_type_id":"4","last_reported":1723223253,"current_range_meters":0,"station_id":"ce4bhbp2rcd13ifvqesg","pricing_plan_id":"cebpf4jnsgd1na2vs0mg"},{"bike_id":"04fbfc8e-b001-4038-b056-cfddb241ad93","system_id":"levelo_inurba_marseille","lat":43.292749,"lon":5.368402,"is_reserved":false,"is_disabled":false,"rental_uris":{"android":"levelo://app?vid=04fbfc8e-b001-4038-b056-cfddb241ad93","ios":"levelo://app?vid=04fbfc8e-b001-4038-b056-cfddb241ad93"},"vehicle_type_id":"4","last_reported":1723223253,"current_range_meters":4000,"station_id":"ce4bhbp2rcd13ifvqesg","pricing_plan_id":"cebpf4jnsgd1na2vs0mg"},{"bike_id":"c657496e-9af8-49a6-85bf-9cef05cfd778","system_id":"levelo_inurba_marseille","lat":43.304274,"lon":5.388873,"is_reserved":false,"is_disabled":false,"rental_uris":{"android":"levelo://app?vid=c657496e-9af8-49a6-85bf-9cef05cfd778","ios":"levelo://app?vid=c657496e-9af8-49a6-85bf-9cef05cfd778"},"vehicle_type_id":"4","last_reported":1723223253,"current_range_meters":27200,"station_id":"ce4bgk12rcd13ifvqbi0","pricing_plan_id":"cebpf4jnsgd1na2vs0mg"},{"bike_id":"30bda107-cdfe-4f4a-83e3-c821949e475d","system_id":"levelo_inurba_marseille","lat":43.293009,"lon":5.374584,"is_reserved":false,"is_disabled":false,"rental_uris":{"android":"levelo://app?vid=30bda107-cdfe-4f4a-83e3-c821949e475d","ios":"levelo://app?vid=30bda107-cdfe-4f4a-83e3-c821949e475d"},"vehicle_type_id":"4","last_reported":1723223253,"current_range_meters":0,"station_id":"ce4bgi12rcd13ifvqb70","pricing_plan_id":"cebpf4jnsgd1na2vs0mg"},{"bike_id":"dfc3333a-0c69-4f22-a575-6c7c94d86817","system_id":"levelo_inurba_marseille","lat":43.305994,"lon":5.393687,"is_reserved":false,"is_disabled":false,"rental_uris":{"android":"levelo://app?vid=dfc3333a-0c69-4f22-a575-6c7c94d86817","ios":"levelo://app?vid=dfc3333a-0c69-4f22-a575-6c7c94d86817"},"vehicle_type_id":"4","last_reported":1723223253,"current_range_meters":27600,"station_id":"ce4bh0p2rcd13ifvqd80","pricing_plan_id":"cebpf4jnsgd1na2vs0mg"},{"bike_id":"9f34b58a-d548-4075-9f25-7689337f1aad","system_id":"levelo_inurba_marseille","lat":43.30598,"lon":5.39357,"is_reserved":false,"is_disabled":false,"rental_uris":{"android":"levelo://app?vid=9f34b58a-d548-4075-9f25-7689337f1aad","ios":"levelo://app?vid=9f34b58a-d548-4075-9f25-7689337f1aad"},"vehicle_type_id":"4","last_reported":1723223253,"current_range_meters":31200,"station_id":"ce4bh0p2rcd13ifvqd80","pricing_plan_id":"cebpf4jnsgd1na2vs0mg"},{"bike_id":"f1c35463-abc8-4750-8f45-f1f9447f61a6","system_id":"levelo_inurba_marseille","lat":43.305994,"lon":5.393687,"is_reserved":false,"is_disabled":false,"rental_uris":{"android":"levelo://app?vid=f1c35463-abc8-4750-8f45-f1f9447f61a6","ios":"levelo://app?vid=f1c35463-abc8-4750-8f45-f1f9447f61a6"},"vehicle_type_id":"4","last_reported":1723223253,"current_range_meters":31200,"station_id":"ce4bh0p2rcd13ifvqd80","pricing_plan_id":"cebpf4jnsgd1na2vs0mg"},{"bike_id":"17173c8f-e6c3-40a2-9c70-b84055e9fe1c","system_id":"levelo_inurba_marseille","lat":43.305994,"lon":5.393687,"is_reserved":false,"is_disabled":false,"rental_uris":{"android":"levelo://app?vid=17173c8f-e6c3-40a2-9c70-b84055e9fe1c","ios":"levelo://app?vid=17173c8f-e6c3-40a2-9c70-b84055e9fe1c"},"vehicle_type_id":"4","last_reported":1723223253,"current_range_meters":400,"station_id":"ce4bh0p2rcd13ifvqd80","pricing_plan_id":"cebpf4jnsgd1na2vs0mg"},{"bike_id":"8db1652c-c029-4ed9-ab87-551f06a01c7d","system_id":"levelo_inurba_marseille","lat":43.293009,"lon":5.374584,"is_reserved":false,"is_disabled":false,"rental_uris":{"android":"levelo://app?vid=8db1652c-c029-4ed9-ab87-551f06a01c7d","ios":"levelo://app?vid=8db1652c-c029-4ed9-ab87-551f06a01c7d"},"vehicle_type_id":"4","last_reported":1723223253,"current_range_meters":0,"station_id":"ce4bgi12rcd13ifvqb70","pricing_plan_id":"cebpf4jnsgd1na2vs0mg"},{"bike_id":"79f38d0c-e410-4760-941e-96a5c11958a4","system_id":"levelo_inurba_marseille","lat":43.31144,"lon":5.39518,"is_reserved":false,"is_disabled":false,"rental_uris":{"android":"levelo://app?vid=79f38d0c-e410-4760-941e-96a5c11958a4","ios":"levelo://app?vid=79f38d0c-e410-4760-941e-96a5c11958a4"},"vehicle_type_id":"4","last_reported":1723223253,"current_range_meters":16000,"station_id":"","pricing_plan_id":"cebpf4jnsgd1na2vs0mg"},{"bike_id":"8d37495d-9961-45f8-ba67-ee81725ae3ae","system_id":"levelo_inurba_marseille","lat":43.29228,"lon":5.36363,"is_reserved":false,"is_disabled":false,"rental_uris":{"android":"levelo://app?vid=8d37495d-9961-45f8-ba67-ee81725ae3ae","ios":"levelo://app?vid=8d37495d-9961-45f8-ba67-ee81725ae3ae"},"vehicle_type_id":"4","last_reported":1723223253,"current_range_meters":12000,"station_id":"","pricing_plan_id":"cebpf4jnsgd1na2vs0mg"},{"bike_id":"aece1d72-c861-4930-a158-2d3408d4999e","system_id":"levelo_inurba_marseille","lat":43.303002,"lon":5.392142,"is_reserved":false,"is_disabled":false,"rental_uris":{"android":"levelo://app?vid=aece1d72-c861-4930-a158-2d3408d4999e","ios":"levelo://app?vid=aece1d72-c861-4930-a158-2d3408d4999e"},"vehicle_type_id":"4","last_reported":1723223253,"current_range_meters":0,"station_id":"ce4bgkh2rcd13ifvqbk0","pricing_plan_id":"cebpf4jnsgd1na2vs0mg"},{"bike_id":"88884484-8b39-4985-bdc5-1f40a77fa0cd","system_id":"levelo_inurba_marseille","lat":43.295748,"lon":5.37522,"is_reserved":false,"is_disabled":false,"rental_uris":{"android":"levelo://app?vid=88884484-8b39-4985-bdc5-1f40a77fa0cd","ios":"levelo://app?vid=88884484-8b39-4985-bdc5-1f40a77fa0cd"},"vehicle_type_id":"4","last_reported":1723223253,"current_range_meters":28400,"station_id":"ce4bgh92rcd13ifvqb50","pricing_plan_id":"cebpf4jnsgd1na2vs0mg"},{"bike_id":"dab4815d-eec6-4b12-b421-ffe247787eec","system_id":"levelo_inurba_marseille","lat":43.292311,"lon":5.360731,"is_reserved":false,"is_disabled":false,"rental_uris":{"android":"levelo://app?vid=dab4815d-eec6-4b12-b421-ffe247787eec","ios":"levelo://app?vid=dab4815d-eec6-4b12-b421-ffe247787eec"},"vehicle_type_id":"4","last_reported":1723223253,"current_range_meters":31200,"station_id":"ce4bhbh2rcd13ifvqeqg","pricing_plan_id":"cebpf4jnsgd1na2vs0mg"},{"bike_id":"281f43d9-c4cd-4234-af31-4d6999eb7a15","system_id":"levelo_inurba_marseille","lat":43.298764,"lon":5.388973,"is_reserved":false,"is_disabled":false,"rental_uris":{"android":"levelo://app?vid=281f43d9-c4cd-4234-af31-4d6999eb7a15","ios":"levelo://app?vid=281f43d9-c4cd-4234-af31-4d6999eb7a15"},"vehicle_type_id":"4","last_reported":1723223253,"current_range_meters":4000,"station_id":"ce4bh392rcd13ifvqdl0","pricing_plan_id":"cebpf4jnsgd1na2vs0mg"},{"bike_id":"ed9ee6e6-e41a-45da-bf5d-da60a429fba3","system_id":"levelo_inurba_marseille","lat":43.298764,"lon":5.388973,"is_reserved":false,"is_disabled":false,"rental_uris":{"android":"levelo://app?vid=ed9ee6e6-e41a-45da-bf5d-da60a429fba3","ios":"levelo://app?vid=ed9ee6e6-e41a-45da-bf5d-da60a429fba3"},"vehicle_type_id":"4","last_reported":1723223253,"current_range_meters":28000,"station_id":"ce4bh392rcd13ifvqdl0","pricing_plan_id":"cebpf4jnsgd1na2vs0mg"},{"bike_id":"8669c215-f64f-4991-918a-38e605b47e3d","system_id":"levelo_inurba_marseille","lat":43.292914,"lon":5.355544,"is_reserved":false,"is_disabled":false,"rental_uris":{"android":"levelo://app?vid=8669c215-f64f-4991-918a-38e605b47e3d","ios":"levelo://app?vid=8669c215-f64f-4991-918a-38e605b47e3d"},"vehicle_type_id":"4","last_reported":1723223253,"current_range_meters":12000,"station_id":"","pricing_plan_id":"cebpf4jnsgd1na2vs0mg"},{"bike_id":"b30a5533-8ad5-48d6-a9be-4b331fb26b47","system_id":"levelo_inurba_marseille","lat":43.291994,"lon":5.357886,"is_reserved":false,"is_disabled":false,"rental_uris":{"android":"levelo://app?vid=b30a5533-8ad5-48d6-a9be-4b331fb26b47","ios":"levelo://app?vid=b30a5533-8ad5-48d6-a9be-4b331fb26b47"},"vehicle_type_id":"4","last_reported":1723223253,"current_range_meters":18800,"station_id":"ce4bhb12rcd13ifvqel0","pricing_plan_id":"cebpf4jnsgd1na2vs0mg"},{"bike_id":"60c8d394-62cb-4091-b97d-3ef2e4ff174b","system_id":"levelo_inurba_marseille","lat":43.292005,"lon":5.357875,"is_reserved":false,"is_disabled":false,"rental_uris":{"android":"levelo://app?vid=60c8d394-62cb-4091-b97d-3ef2e4ff174b","ios":"levelo://app?vid=60c8d394-62cb-4091-b97d-3ef2e4ff174b"},"vehicle_type_id":"4","last_reported":1723223253,"current_range_meters":10000,"station_id":"ce4bhb12rcd13ifvqel0","pricing_plan_id":"cebpf4jnsgd1na2vs0mg"},{"bike_id":"63b1f53f-0d5f-4810-9968-51194f83298b","system_id":"levelo_inurba_marseille","lat":43.291994,"lon":5.357886,"is_reserved":false,"is_disabled":false,"rental_uris":{"android":"levelo://app?vid=63b1f53f-0d5f-4810-9968-51194f83298b","ios":"levelo://app?vid=63b1f53f-0d5f-4810-9968-51194f83298b"},"vehicle_type_id":"4","last_reported":1723223253,"current_range_meters":4000,"station_id":"ce4bhb12rcd13ifvqel0","pricing_plan_id":"cebpf4jnsgd1na2vs0mg"},{"bike_id":"9d4b68a5-c93f-4844-a235-5ff4a055b660","system_id":"levelo_inurba_marseille","lat":43.292385,"lon":5.37767,"is_reserved":false,"is_disabled":false,"rental_uris":{"android":"levelo://app?vid=9d4b68a5-c93f-4844-a235-5ff4a055b660","ios":"levelo://app?vid=9d4b68a5-c93f-4844-a235-5ff4a055b660"},"vehicle_type_id":"4","last_reported":1723223253,"current_range_meters":15200,"station_id":"","pricing_plan_id":"cebpf4jnsgd1na2vs0mg"},{"bike_id":"170b044d-ff80-4e64-a796-0caaa475197d","system_id":"levelo_inurba_marseille","lat":43.309047,"lon":5.396551,"is_reserved":false,"is_disabled":false,"rental_uris":{"android":"levelo://app?vid=170b044d-ff80-4e64-a796-0caaa475197d","ios":"levelo://app?vid=170b044d-ff80-4e64-a796-0caaa475197d"},"vehicle_type_id":"4","last_reported":1723223253,"current_range_meters":2000,"station_id":"ce4bh012rcd13ifvqcv0","pricing_plan_id":"cebpf4jnsgd1na2vs0mg"},{"bike_id":"1ce9c4fe-3817-440d-8238-7b1c7234f48a","system_id":"levelo_inurba_marseille","lat":43.31335,"lon":5.39691,"is_reserved":false,"is_disabled":false,"rental_uris":{"android":"levelo://app?vid=1ce9c4fe-3817-440d-8238-7b1c7234f48a","ios":"levelo://app?vid=1ce9c4fe-3817-440d-8238-7b1c7234f48a"},"vehicle_type_id":"4","last_reported":1723223253,"current_range_meters":6800,"station_id":"ce4bgvp2rcd13ifvqcu0","pricing_plan_id":"cebpf4jnsgd1na2vs0mg"},{"bike_id":"928a02d2-a94c-40dd-8968-a3a1400b0b8c","system_id":"levelo_inurba_marseille","lat":43.295356,"lon":5.385393,"is_reserved":false,"is_disabled":false,"rental_uris":{"android":"levelo://app?vid=928a02d2-a94c-40dd-8968-a3a1400b0b8c","ios":"levelo://app?vid=928a02d2-a94c-40dd-8968-a3a1400b0b8c"},"vehicle_type_id":"4","last_reported":1723223253,"current_range_meters":0,"station_id":"ce4bgih2rcd13ifvqba0","pricing_plan_id":"cebpf4jnsgd1na2vs0mg"},{"bike_id":"1025f232-2920-497a-a729-821c8ee9d483","system_id":"levelo_inurba_marseille","lat":43.29518,"lon":5.38532,"is_reserved":false,"is_disabled":false,"rental_uris":{"android":"levelo://app?vid=1025f232-2920-497a-a729-821c8ee9d483","ios":"levelo://app?vid=1025f232-2920-497a-a729-821c8ee9d483"},"vehicle_type_id":"4","last_reported":1723223253,"current_range_meters":16400,"station_id":"ce4bgih2rcd13ifvqba0","pricing_plan_id":"cebpf4jnsgd1na2vs0mg"},{"bike_id":"83f8f1fb-85d3-415b-bd4c-9132d49c73d3","system_id":"levelo_inurba_marseille","lat":43.290779,"lon":5.371482,"is_reserved":false,"is_disabled":false,"rental_uris":{"android":"levelo://app?vid=83f8f1fb-85d3-415b-bd4c-9132d49c73d3","ios":"levelo://app?vid=83f8f1fb-85d3-415b-bd4c-9132d49c73d3"},"vehicle_type_id":"4","last_reported":1723223253,"current_range_meters":30400,"station_id":"ce4bh5p2rcd13ifvqe4g","pricing_plan_id":"cebpf4jnsgd1na2vs0mg"},{"bike_id":"c4c02c58-6d55-4755-9327-bf33b3b0bc1a","system_id":"levelo_inurba_marseille","lat":43.33334,"lon":5.37979,"is_reserved":false,"is_disabled":false,"rental_uris":{"android":"levelo://app?vid=c4c02c58-6d55-4755-9327-bf33b3b0bc1a","ios":"levelo://app?vid=c4c02c58-6d55-4755-9327-bf33b3b0bc1a"},"vehicle_type_id":"4","last_reported":1723223253,"current_range_meters":23600,"station_id":"","pricing_plan_id":"cebpf4jnsgd1na2vs0mg"},{"bike_id":"f673e197-9b8a-4107-a875-91f5ff8718c4","system_id":"levelo_inurba_marseille","lat":43.294162,"lon":5.386292,"is_reserved":false,"is_disabled":false,"rental_uris":{"android":"levelo://app?vid=f673e197-9b8a-4107-a875-91f5ff8718c4","ios":"levelo://app?vid=f673e197-9b8a-4107-a875-91f5ff8718c4"},"vehicle_type_id":"4","last_reported":1723223253,"current_range_meters":31200,"station_id":"ce4bh2h2rcd13ifvqdh0","pricing_plan_id":"cebpf4jnsgd1na2vs0mg"},{"bike_id":"b28f6b36-0f15-4479-a44c-e866df7f97f1","system_id":"levelo_inurba_marseille","lat":43.294162,"lon":5.386292,"is_reserved":false,"is_disabled":false,"rental_uris":{"android":"levelo://app?vid=b28f6b36-0f15-4479-a44c-e866df7f97f1","ios":"levelo://app?vid=b28f6b36-0f15-4479-a44c-e866df7f97f1"},"vehicle_type_id":"4","last_reported":1723223253,"current_range_meters":7200,"station_id":"ce4bh2h2rcd13ifvqdh0","pricing_plan_id":"cebpf4jnsgd1na2vs0mg"},{"bike_id":"2c39d0b0-935b-4bff-b283-7f638841f2c5","system_id":"levelo_inurba_marseille","lat":43.294153,"lon":5.386305,"is_reserved":false,"is_disabled":false,"rental_uris":{"android":"levelo://app?vid=2c39d0b0-935b-4bff-b283-7f638841f2c5","ios":"levelo://app?vid=2c39d0b0-935b-4bff-b283-7f638841f2c5"},"vehicle_type_id":"4","last_reported":1723223253,"current_range_meters":22400,"station_id":"ce4bh2h2rcd13ifvqdh0","pricing_plan_id":"cebpf4jnsgd1na2vs0mg"},{"bike_id":"44c40731-b3d2-46c1-b8f8-3c38f1f9f815","system_id":"levelo_inurba_marseille","lat":43.294162,"lon":5.386292,"is_reserved":false,"is_disabled":false,"rental_uris":{"android":"levelo://app?vid=44c40731-b3d2-46c1-b8f8-3c38f1f9f815","ios":"levelo://app?vid=44c40731-b3d2-46c1-b8f8-3c38f1f9f815"},"vehicle_type_id":"4","last_reported":1723223253,"current_range_meters":1200,"station_id":"ce4bh2h2rcd13ifvqdh0","pricing_plan_id":"cebpf4jnsgd1na2vs0mg"},{"bike_id":"e8817a19-1745-4013-9df7-9d5a5f32f567","system_id":"levelo_inurba_marseille","lat":43.289184,"lon":5.366408,"is_reserved":false,"is_disabled":false,"rental_uris":{"android":"levelo://app?vid=e8817a19-1745-4013-9df7-9d5a5f32f567","ios":"levelo://app?vid=e8817a19-1745-4013-9df7-9d5a5f32f567"},"vehicle_type_id":"4","last_reported":1723223253,"current_range_meters":800,"station_id":"ce4bhap2rcd13ifvqek0","pricing_plan_id":"cebpf4jnsgd1na2vs0mg"},{"bike_id":"529d25d3-e722-4f0d-920c-b58f11eebd18","system_id":"levelo_inurba_marseille","lat":43.289184,"lon":5.366408,"is_reserved":false,"is_disabled":false,"rental_uris":{"android":"levelo://app?vid=529d25d3-e722-4f0d-920c-b58f11eebd18","ios":"levelo://app?vid=529d25d3-e722-4f0d-920c-b58f11eebd18"},"vehicle_type_id":"4","last_reported":1723223253,"current_range_meters":1200,"station_id":"ce4bhap2rcd13ifvqek0","pricing_plan_id":"cebpf4jnsgd1na2vs0mg"},{"bike_id":"5ff310fb-917f-4261-a2dc-5bfa1588f4d8","system_id":"levelo_inurba_marseille","lat":43.289184,"lon":5.366408,"is_reserved":false,"is_disabled":false,"rental_uris":{"android":"levelo://app?vid=5ff310fb-917f-4261-a2dc-5bfa1588f4d8","ios":"levelo://app?vid=5ff310fb-917f-4261-a2dc-5bfa1588f4d8"},"vehicle_type_id":"4","last_reported":1723223253,"current_range_meters":30400,"station_id":"ce4bhap2rcd13ifvqek0","pricing_plan_id":"cebpf4jnsgd1na2vs0mg"},{"bike_id":"c0700397-2cc0-4972-a486-a82a971c3e21","system_id":"levelo_inurba_marseille","lat":43.289468,"lon":5.363719,"is_reserved":false,"is_disabled":false,"rental_uris":{"android":"levelo://app?vid=c0700397-2cc0-4972-a486-a82a971c3e21","ios":"levelo://app?vid=c0700397-2cc0-4972-a486-a82a971c3e21"},"vehicle_type_id":"4","last_reported":1723223253,"current_range_meters":16400,"station_id":"ce4bhc92rcd13ifvqetg","pricing_plan_id":"cebpf4jnsgd1na2vs0mg"},{"bike_id":"4633d672-5f39-4cd1-b7ed-3cc0d64f0041","system_id":"levelo_inurba_marseille","lat":43.289468,"lon":5.363719,"is_reserved":false,"is_disabled":false,"rental_uris":{"android":"levelo://app?vid=4633d672-5f39-4cd1-b7ed-3cc0d64f0041","ios":"levelo://app?vid=4633d672-5f39-4cd1-b7ed-3cc0d64f0041"},"vehicle_type_id":"4","last_reported":1723223253,"current_range_meters":10800,"station_id":"ce4bhc92rcd13ifvqetg","pricing_plan_id":"cebpf4jnsgd1na2vs0mg"},{"bike_id":"26a6fb36-8f21-4812-8211-ebc2f1f7f1c9","system_id":"levelo_inurba_marseille","lat":43.289468,"lon":5.363719,"is_reserved":false,"is_disabled":false,"rental_uris":{"android":"levelo://app?vid=26a6fb36-8f21-4812-8211-ebc2f1f7f1c9","ios":"levelo://app?vid=26a6fb36-8f21-4812-8211-ebc2f1f7f1c9"},"vehicle_type_id":"4","last_reported":1723223253,"current_range_meters":0,"station_id":"ce4bhc92rcd13ifvqetg","pricing_plan_id":"cebpf4jnsgd1na2vs0mg"},{"bike_id":"8da5bf65-9fd4-45a0-a7b5-f78bf31b7cce","system_id":"levelo_inurba_marseille","lat":43.292642,"lon":5.384254,"is_reserved":false,"is_disabled":false,"rental_uris":{"android":"levelo://app?vid=8da5bf65-9fd4-45a0-a7b5-f78bf31b7cce","ios":"levelo://app?vid=8da5bf65-9fd4-45a0-a7b5-f78bf31b7cce"},"vehicle_type_id":"4","last_reported":1723223253,"current_range_meters":0,"station_id":"ce4bh692rcd13ifvqea0","pricing_plan_id":"cebpf4jnsgd1na2vs0mg"},{"bike_id":"62fe54ce-793e-4253-aa0a-256e75f26ce9","system_id":"levelo_inurba_marseille","lat":43.292644,"lon":5.384257,"is_reserved":false,"is_disabled":false,"rental_uris":{"android":"levelo://app?vid=62fe54ce-793e-4253-aa0a-256e75f26ce9","ios":"levelo://app?vid=62fe54ce-793e-4253-aa0a-256e75f26ce9"},"vehicle_type_id":"4","last_reported":1723223253,"current_range_meters":7200,"station_id":"ce4bh692rcd13ifvqea0","pricing_plan_id":"cebpf4jnsgd1na2vs0mg"},{"bike_id":"c0f69836-3b72-4ebf-a3bb-9990762a6140","system_id":"levelo_inurba_marseille","lat":43.292703,"lon":5.384317,"is_reserved":false,"is_disabled":false,"rental_uris":{"android":"levelo://app?vid=c0f69836-3b72-4ebf-a3bb-9990762a6140","ios":"levelo://app?vid=c0f69836-3b72-4ebf-a3bb-9990762a6140"},"vehicle_type_id":"4","last_reported":1723223253,"current_range_meters":14400,"station_id":"ce4bh692rcd13ifvqea0","pricing_plan_id":"cebpf4jnsgd1na2vs0mg"},{"bike_id":"47f66dbb-76fa-4d9c-a9e9-fdba724039ae","system_id":"levelo_inurba_marseille","lat":43.292644,"lon":5.384257,"is_reserved":false,"is_disabled":false,"rental_uris":{"android":"levelo://app?vid=47f66dbb-76fa-4d9c-a9e9-fdba724039ae","ios":"levelo://app?vid=47f66dbb-76fa-4d9c-a9e9-fdba724039ae"},"vehicle_type_id":"4","last_reported":1723223253,"current_range_meters":5600,"station_id":"ce4bh692rcd13ifvqea0","pricing_plan_id":"cebpf4jnsgd1na2vs0mg"},{"bike_id":"c5f245c0-496e-48f4-9091-ef19d0ec28e6","system_id":"levelo_inurba_marseille","lat":43.292642,"lon":5.384254,"is_reserved":false,"is_disabled":false,"rental_uris":{"android":"levelo://app?vid=c5f245c0-496e-48f4-9091-ef19d0ec28e6","ios":"levelo://app?vid=c5f245c0-496e-48f4-9091-ef19d0ec28e6"},"vehicle_type_id":"4","last_reported":1723223253,"current_range_meters":5600,"station_id":"ce4bh692rcd13ifvqea0","pricing_plan_id":"cebpf4jnsgd1na2vs0mg"},{"bike_id":"e1176bc6-6098-4d48-8f7c-878975d7d3cb","system_id":"levelo_inurba_marseille","lat":43.304296,"lon":5.397513,"is_reserved":false,"is_disabled":false,"rental_uris":{"android":"levelo://app?vid=e1176bc6-6098-4d48-8f7c-878975d7d3cb","ios":"levelo://app?vid=e1176bc6-6098-4d48-8f7c-878975d7d3cb"},"vehicle_type_id":"4","last_reported":1723223253,"current_range_meters":0,"station_id":"ce4bh092rcd13ifvqd20","pricing_plan_id":"cebpf4jnsgd1na2vs0mg"},{"bike_id":"38ddc316-753d-47f9-92f5-fdc66f021907","system_id":"levelo_inurba_marseille","lat":43.304296,"lon":5.397513,"is_reserved":false,"is_disabled":false,"rental_uris":{"android":"levelo://app?vid=38ddc316-753d-47f9-92f5-fdc66f021907","ios":"levelo://app?vid=38ddc316-753d-47f9-92f5-fdc66f021907"},"vehicle_type_id":"4","last_reported":1723223253,"current_range_meters":0,"station_id":"ce4bh092rcd13ifvqd20","pricing_plan_id":"cebpf4jnsgd1na2vs0mg"},{"bike_id":"92102458-2096-483a-a168-b8ce0d4c762d","system_id":"levelo_inurba_marseille","lat":43.292642,"lon":5.384254,"is_reserved":false,"is_disabled":false,"rental_uris":{"android":"levelo://app?vid=92102458-2096-483a-a168-b8ce0d4c762d","ios":"levelo://app?vid=92102458-2096-483a-a168-b8ce0d4c762d"},"vehicle_type_id":"4","last_reported":1723223253,"current_range_meters":20800,"station_id":"ce4bh692rcd13ifvqea0","pricing_plan_id":"cebpf4jnsgd1na2vs0mg"},{"bike_id":"882da133-6db4-44d1-a8e8-6e26406f7657","system_id":"levelo_inurba_marseille","lat":43.29255,"lon":5.384423,"is_reserved":false,"is_disabled":false,"rental_uris":{"android":"levelo://app?vid=882da133-6db4-44d1-a8e8-6e26406f7657","ios":"levelo://app?vid=882da133-6db4-44d1-a8e8-6e26406f7657"},"vehicle_type_id":"4","last_reported":1723223253,"current_range_meters":0,"station_id":"ce4bh692rcd13ifvqea0","pricing_plan_id":"cebpf4jnsgd1na2vs0mg"},{"bike_id":"9468c0e5-891c-4537-9102-3196d1702a84","system_id":"levelo_inurba_marseille","lat":43.290104,"lon":5.356111,"is_reserved":false,"is_disabled":false,"rental_uris":{"android":"levelo://app?vid=9468c0e5-891c-4537-9102-3196d1702a84","ios":"levelo://app?vid=9468c0e5-891c-4537-9102-3196d1702a84"},"vehicle_type_id":"4","last_reported":1723223253,"current_range_meters":400,"station_id":"ce4bhb92rcd13ifvqen0","pricing_plan_id":"cebpf4jnsgd1na2vs0mg"},{"bike_id":"9486e3ff-74b7-4cdb-9160-1df745574b8f","system_id":"levelo_inurba_marseille","lat":43.29008,"lon":5.35616,"is_reserved":false,"is_disabled":false,"rental_uris":{"android":"levelo://app?vid=9486e3ff-74b7-4cdb-9160-1df745574b8f","ios":"levelo://app?vid=9486e3ff-74b7-4cdb-9160-1df745574b8f"},"vehicle_type_id":"4","last_reported":1723223253,"current_range_meters":30000,"station_id":"ce4bhb92rcd13ifvqen0","pricing_plan_id":"cebpf4jnsgd1na2vs0mg"},{"bike_id":"a188560c-d1f7-4250-b92b-8f0a2908178d","system_id":"levelo_inurba_marseille","lat":43.290103,"lon":5.356114,"is_reserved":false,"is_disabled":false,"rental_uris":{"android":"levelo://app?vid=a188560c-d1f7-4250-b92b-8f0a2908178d","ios":"levelo://app?vid=a188560c-d1f7-4250-b92b-8f0a2908178d"},"vehicle_type_id":"4","last_reported":1723223253,"current_range_meters":11200,"station_id":"ce4bhb92rcd13ifvqen0","pricing_plan_id":"cebpf4jnsgd1na2vs0mg"},{"bike_id":"7ba0daef-2705-44b0-ac43-8136bd6c8725","system_id":"levelo_inurba_marseille","lat":43.290103,"lon":5.356114,"is_reserved":false,"is_disabled":false,"rental_uris":{"android":"levelo://app?vid=7ba0daef-2705-44b0-ac43-8136bd6c8725","ios":"levelo://app?vid=7ba0daef-2705-44b0-ac43-8136bd6c8725"},"vehicle_type_id":"4","last_reported":1723223253,"current_range_meters":30800,"station_id":"ce4bhb92rcd13ifvqen0","pricing_plan_id":"cebpf4jnsgd1na2vs0mg"},{"bike_id":"335d840e-1955-43ea-933c-07759a79943b","system_id":"levelo_inurba_marseille","lat":43.290103,"lon":5.356114,"is_reserved":false,"is_disabled":false,"rental_uris":{"android":"levelo://app?vid=335d840e-1955-43ea-933c-07759a79943b","ios":"levelo://app?vid=335d840e-1955-43ea-933c-07759a79943b"},"vehicle_type_id":"4","last_reported":1723223253,"current_range_meters":30800,"station_id":"ce4bhb92rcd13ifvqen0","pricing_plan_id":"cebpf4jnsgd1na2vs0mg"},{"bike_id":"6c6f3fce-e101-45bb-b2fc-832b05f1aa2a","system_id":"levelo_inurba_marseille","lat":43.29007,"lon":5.35611,"is_reserved":false,"is_disabled":false,"rental_uris":{"android":"levelo://app?vid=6c6f3fce-e101-45bb-b2fc-832b05f1aa2a","ios":"levelo://app?vid=6c6f3fce-e101-45bb-b2fc-832b05f1aa2a"},"vehicle_type_id":"4","last_reported":1723223253,"current_range_meters":0,"station_id":"ce4bhb92rcd13ifvqen0","pricing_plan_id":"cebpf4jnsgd1na2vs0mg"},{"bike_id":"02cf2e15-8e71-49c9-a4eb-e60948c08a39","system_id":"levelo_inurba_marseille","lat":43.29007,"lon":5.35611,"is_reserved":false,"is_disabled":false,"rental_uris":{"android":"levelo://app?vid=02cf2e15-8e71-49c9-a4eb-e60948c08a39","ios":"levelo://app?vid=02cf2e15-8e71-49c9-a4eb-e60948c08a39"},"vehicle_type_id":"4","last_reported":1723223253,"current_range_meters":0,"station_id":"ce4bhb92rcd13ifvqen0","pricing_plan_id":"cebpf4jnsgd1na2vs0mg"},{"bike_id":"6f83687a-dc6f-4cdf-86b9-a979dc8ec6ae","system_id":"levelo_inurba_marseille","lat":43.290103,"lon":5.356114,"is_reserved":false,"is_disabled":false,"rental_uris":{"android":"levelo://app?vid=6f83687a-dc6f-4cdf-86b9-a979dc8ec6ae","ios":"levelo://app?vid=6f83687a-dc6f-4cdf-86b9-a979dc8ec6ae"},"vehicle_type_id":"4","last_reported":1723223253,"current_range_meters":10400,"station_id":"ce4bhb92rcd13ifvqen0","pricing_plan_id":"cebpf4jnsgd1na2vs0mg"},{"bike_id":"24298da5-81de-4d81-9caa-b0b1e1b8d585","system_id":"levelo_inurba_marseille","lat":43.290104,"lon":5.356111,"is_reserved":false,"is_disabled":false,"rental_uris":{"android":"levelo://app?vid=24298da5-81de-4d81-9caa-b0b1e1b8d585","ios":"levelo://app?vid=24298da5-81de-4d81-9caa-b0b1e1b8d585"},"vehicle_type_id":"4","last_reported":1723223253,"current_range_meters":400,"station_id":"ce4bhb92rcd13ifvqen0","pricing_plan_id":"cebpf4jnsgd1na2vs0mg"},{"bike_id":"c97b9541-0a5f-40c7-a520-92a5db8d7601","system_id":"levelo_inurba_marseille","lat":43.290995,"lon":5.381361,"is_reserved":false,"is_disabled":false,"rental_uris":{"android":"levelo://app?vid=c97b9541-0a5f-40c7-a520-92a5db8d7601","ios":"levelo://app?vid=c97b9541-0a5f-40c7-a520-92a5db8d7601"},"vehicle_type_id":"4","last_reported":1723223253,"current_range_meters":0,"station_id":"ce4bh512rcd13ifvqe2g","pricing_plan_id":"cebpf4jnsgd1na2vs0mg"},{"bike_id":"8581e60a-48a2-49bf-98ca-e94cf944e0c0","system_id":"levelo_inurba_marseille","lat":43.282744,"lon":5.350533,"is_reserved":false,"is_disabled":false,"rental_uris":{"android":"levelo://app?vid=8581e60a-48a2-49bf-98ca-e94cf944e0c0","ios":"levelo://app?vid=8581e60a-48a2-49bf-98ca-e94cf944e0c0"},"vehicle_type_id":"4","last_reported":1723223253,"current_range_meters":3200,"station_id":"ce4bhbp2rcd13ifvqerg","pricing_plan_id":"cebpf4jnsgd1na2vs0mg"},{"bike_id":"a85b6c59-bbed-434d-84a6-4e78e1174a0a","system_id":"levelo_inurba_marseille","lat":43.297815,"lon":5.393548,"is_reserved":false,"is_disabled":false,"rental_uris":{"android":"levelo://app?vid=a85b6c59-bbed-434d-84a6-4e78e1174a0a","ios":"levelo://app?vid=a85b6c59-bbed-434d-84a6-4e78e1174a0a"},"vehicle_type_id":"4","last_reported":1723223253,"current_range_meters":0,"station_id":"chh1huq6cuj3fo74tm60","pricing_plan_id":"cebpf4jnsgd1na2vs0mg"},{"bike_id":"e42a8469-a4e0-4bbc-97da-5b7d0df6242d","system_id":"levelo_inurba_marseille","lat":43.297815,"lon":5.393548,"is_reserved":false,"is_disabled":false,"rental_uris":{"android":"levelo://app?vid=e42a8469-a4e0-4bbc-97da-5b7d0df6242d","ios":"levelo://app?vid=e42a8469-a4e0-4bbc-97da-5b7d0df6242d"},"vehicle_type_id":"4","last_reported":1723223253,"current_range_meters":0,"station_id":"chh1huq6cuj3fo74tm60","pricing_plan_id":"cebpf4jnsgd1na2vs0mg"},{"bike_id":"c808b27c-e707-45ba-8ab0-fb9b16359f74","system_id":"levelo_inurba_marseille","lat":43.295169,"lon":5.390426,"is_reserved":false,"is_disabled":false,"rental_uris":{"android":"levelo://app?vid=c808b27c-e707-45ba-8ab0-fb9b16359f74","ios":"levelo://app?vid=c808b27c-e707-45ba-8ab0-fb9b16359f74"},"vehicle_type_id":"4","last_reported":1723223253,"current_range_meters":2800,"station_id":"ce4bh3p2rcd13ifvqdp0","pricing_plan_id":"cebpf4jnsgd1na2vs0mg"},{"bike_id":"be0eb9a7-cd00-4fb2-8a5f-dd5a72b71ef6","system_id":"levelo_inurba_marseille","lat":43.295169,"lon":5.390426,"is_reserved":false,"is_disabled":false,"rental_uris":{"android":"levelo://app?vid=be0eb9a7-cd00-4fb2-8a5f-dd5a72b71ef6","ios":"levelo://app?vid=be0eb9a7-cd00-4fb2-8a5f-dd5a72b71ef6"},"vehicle_type_id":"4","last_reported":1723223253,"current_range_meters":24000,"station_id":"ce4bh3p2rcd13ifvqdp0","pricing_plan_id":"cebpf4jnsgd1na2vs0mg"},{"bike_id":"d60f18e3-8288-4d96-9194-40133d94f7b6","system_id":"levelo_inurba_marseille","lat":43.295169,"lon":5.390426,"is_reserved":false,"is_disabled":false,"rental_uris":{"android":"levelo://app?vid=d60f18e3-8288-4d96-9194-40133d94f7b6","ios":"levelo://app?vid=d60f18e3-8288-4d96-9194-40133d94f7b6"},"vehicle_type_id":"4","last_reported":1723223253,"current_range_meters":31200,"station_id":"ce4bh3p2rcd13ifvqdp0","pricing_plan_id":"cebpf4jnsgd1na2vs0mg"},{"bike_id":"dd069a4e-60e0-4d57-b80c-31ae094c90de","system_id":"levelo_inurba_marseille","lat":43.33028,"lon":5.39043,"is_reserved":false,"is_disabled":false,"rental_uris":{"android":"levelo://app?vid=dd069a4e-60e0-4d57-b80c-31ae094c90de","ios":"levelo://app?vid=dd069a4e-60e0-4d57-b80c-31ae094c90de"},"vehicle_type_id":"4","last_reported":1723223253,"current_range_meters":0,"station_id":"ce4bhr92rcd13ifvqhrg","pricing_plan_id":"cebpf4jnsgd1na2vs0mg"},{"bike_id":"5f3013f0-7589-4ef4-b63a-a8efaeb85157","system_id":"levelo_inurba_marseille","lat":43.2901,"lon":5.381269,"is_reserved":false,"is_disabled":false,"rental_uris":{"android":"levelo://app?vid=5f3013f0-7589-4ef4-b63a-a8efaeb85157","ios":"levelo://app?vid=5f3013f0-7589-4ef4-b63a-a8efaeb85157"},"vehicle_type_id":"4","last_reported":1723223253,"current_range_meters":0,"station_id":"ce4bh4p2rcd13ifvqe1g","pricing_plan_id":"cebpf4jnsgd1na2vs0mg"},{"bike_id":"81fbadb7-7706-4c91-a2d0-2d6b485a3e43","system_id":"levelo_inurba_marseille","lat":43.31065,"lon":5.40103,"is_reserved":false,"is_disabled":false,"rental_uris":{"android":"levelo://app?vid=81fbadb7-7706-4c91-a2d0-2d6b485a3e43","ios":"levelo://app?vid=81fbadb7-7706-4c91-a2d0-2d6b485a3e43"},"vehicle_type_id":"4","last_reported":1723223253,"current_range_meters":6800,"station_id":"","pricing_plan_id":"cebpf4jnsgd1na2vs0mg"},{"bike_id":"d34e1df8-4743-421c-a826-e436c2ca3d84","system_id":"levelo_inurba_marseille","lat":43.28856,"lon":5.358371,"is_reserved":false,"is_disabled":false,"rental_uris":{"android":"levelo://app?vid=d34e1df8-4743-421c-a826-e436c2ca3d84","ios":"levelo://app?vid=d34e1df8-4743-421c-a826-e436c2ca3d84"},"vehicle_type_id":"4","last_reported":1723223253,"current_range_meters":21600,"station_id":"ce4bhb12rcd13ifvqem0","pricing_plan_id":"cebpf4jnsgd1na2vs0mg"},{"bike_id":"b82d858a-91a0-49bf-a6fc-8ae898ab18fa","system_id":"levelo_inurba_marseille","lat":43.312609,"lon":5.401662,"is_reserved":false,"is_disabled":false,"rental_uris":{"android":"levelo://app?vid=b82d858a-91a0-49bf-a6fc-8ae898ab18fa","ios":"levelo://app?vid=b82d858a-91a0-49bf-a6fc-8ae898ab18fa"},"vehicle_type_id":"4","last_reported":1723223253,"current_range_meters":31200,"station_id":"ce4bh092rcd13ifvqd30","pricing_plan_id":"cebpf4jnsgd1na2vs0mg"},{"bike_id":"ac75d8e5-5139-4e43-a64e-51e7994c2517","system_id":"levelo_inurba_marseille","lat":43.337444,"lon":5.374475,"is_reserved":false,"is_disabled":false,"rental_uris":{"android":"levelo://app?vid=ac75d8e5-5139-4e43-a64e-51e7994c2517","ios":"levelo://app?vid=ac75d8e5-5139-4e43-a64e-51e7994c2517"},"vehicle_type_id":"3","last_reported":1723223253,"current_range_meters":24800,"station_id":"","pricing_plan_id":"cebpf4jnsgd1na2vs0mg"},{"bike_id":"1596ed5a-2748-4147-884b-51e994b2b8ca","system_id":"levelo_inurba_marseille","lat":43.337482,"lon":5.374568,"is_reserved":false,"is_disabled":false,"rental_uris":{"android":"levelo://app?vid=1596ed5a-2748-4147-884b-51e994b2b8ca","ios":"levelo://app?vid=1596ed5a-2748-4147-884b-51e994b2b8ca"},"vehicle_type_id":"4","last_reported":1723223253,"current_range_meters":19600,"station_id":"","pricing_plan_id":"cebpf4jnsgd1na2vs0mg"},{"bike_id":"6137b86e-8de9-4c4f-94ef-bfa372175031","system_id":"levelo_inurba_marseille","lat":43.337513,"lon":5.37454,"is_reserved":false,"is_disabled":false,"rental_uris":{"android":"levelo://app?vid=6137b86e-8de9-4c4f-94ef-bfa372175031","ios":"levelo://app?vid=6137b86e-8de9-4c4f-94ef-bfa372175031"},"vehicle_type_id":"4","last_reported":1723223253,"current_range_meters":19200,"station_id":"","pricing_plan_id":"cebpf4jnsgd1na2vs0mg"},{"bike_id":"f2c39657-f64b-4c05-b0b3-af94dc52094d","system_id":"levelo_inurba_marseille","lat":43.337541,"lon":5.374497,"is_reserved":false,"is_disabled":false,"rental_uris":{"android":"levelo://app?vid=f2c39657-f64b-4c05-b0b3-af94dc52094d","ios":"levelo://app?vid=f2c39657-f64b-4c05-b0b3-af94dc52094d"},"vehicle_type_id":"4","last_reported":1723223253,"current_range_meters":3600,"station_id":"","pricing_plan_id":"cebpf4jnsgd1na2vs0mg"},{"bike_id":"c24ccdf3-8374-4625-a41a-8280c7fc42b0","system_id":"levelo_inurba_marseille","lat":43.337554,"lon":5.374452,"is_reserved":false,"is_disabled":false,"rental_uris":{"android":"levelo://app?vid=c24ccdf3-8374-4625-a41a-8280c7fc42b0","ios":"levelo://app?vid=c24ccdf3-8374-4625-a41a-8280c7fc42b0"},"vehicle_type_id":"4","last_reported":1723223253,"current_range_meters":28400,"station_id":"","pricing_plan_id":"cebpf4jnsgd1na2vs0mg"},{"bike_id":"95e665ed-afbb-4ece-97e4-ecc3d1a7e7e9","system_id":"levelo_inurba_marseille","lat":43.337648,"lon":5.374354,"is_reserved":false,"is_disabled":false,"rental_uris":{"android":"levelo://app?vid=95e665ed-afbb-4ece-97e4-ecc3d1a7e7e9","ios":"levelo://app?vid=95e665ed-afbb-4ece-97e4-ecc3d1a7e7e9"},"vehicle_type_id":"4","last_reported":1723223253,"current_range_meters":30400,"station_id":"","pricing_plan_id":"cebpf4jnsgd1na2vs0mg"},{"bike_id":"9c370677-6c6f-4d23-8cf0-7d8de4f71f2a","system_id":"levelo_inurba_marseille","lat":43.337698,"lon":5.374308,"is_reserved":false,"is_disabled":false,"rental_uris":{"android":"levelo://app?vid=9c370677-6c6f-4d23-8cf0-7d8de4f71f2a","ios":"levelo://app?vid=9c370677-6c6f-4d23-8cf0-7d8de4f71f2a"},"vehicle_type_id":"4","last_reported":1723223253,"current_range_meters":22400,"station_id":"","pricing_plan_id":"cebpf4jnsgd1na2vs0mg"},{"bike_id":"475ed14f-5d86-4ce1-9e44-9d4d1bef7035","system_id":"levelo_inurba_marseille","lat":43.33769,"lon":5.37475,"is_reserved":false,"is_disabled":false,"rental_uris":{"android":"levelo://app?vid=475ed14f-5d86-4ce1-9e44-9d4d1bef7035","ios":"levelo://app?vid=475ed14f-5d86-4ce1-9e44-9d4d1bef7035"},"vehicle_type_id":"4","last_reported":1723223253,"current_range_meters":27200,"station_id":"","pricing_plan_id":"cebpf4jnsgd1na2vs0mg"},{"bike_id":"e112fd0b-4672-41b8-8d6c-85400c3614ba","system_id":"levelo_inurba_marseille","lat":43.28727,"lon":5.36078,"is_reserved":false,"is_disabled":false,"rental_uris":{"android":"levelo://app?vid=e112fd0b-4672-41b8-8d6c-85400c3614ba","ios":"levelo://app?vid=e112fd0b-4672-41b8-8d6c-85400c3614ba"},"vehicle_type_id":"4","last_reported":1723223253,"current_range_meters":23600,"station_id":"cki0cbj6b192h4jlfktg","pricing_plan_id":"cebpf4jnsgd1na2vs0mg"},{"bike_id":"70282d61-22cf-46ed-864a-24f4e86d762a","system_id":"levelo_inurba_marseille","lat":43.28727,"lon":5.36078,"is_reserved":false,"is_disabled":false,"rental_uris":{"android":"levelo://app?vid=70282d61-22cf-46ed-864a-24f4e86d762a","ios":"levelo://app?vid=70282d61-22cf-46ed-864a-24f4e86d762a"},"vehicle_type_id":"4","last_reported":1723223253,"current_range_meters":1600,"station_id":"cki0cbj6b192h4jlfktg","pricing_plan_id":"cebpf4jnsgd1na2vs0mg"},{"bike_id":"d685b03c-795e-417b-af0c-567ad42f20cb","system_id":"levelo_inurba_marseille","lat":43.28776,"lon":5.357214,"is_reserved":false,"is_disabled":false,"rental_uris":{"android":"levelo://app?vid=d685b03c-795e-417b-af0c-567ad42f20cb","ios":"levelo://app?vid=d685b03c-795e-417b-af0c-567ad42f20cb"},"vehicle_type_id":"4","last_reported":1723223253,"current_range_meters":11600,"station_id":"","pricing_plan_id":"cebpf4jnsgd1na2vs0mg"},{"bike_id":"43d078f9-b122-4b54-9ff9-a2ec9f7b3873","system_id":"levelo_inurba_marseille","lat":43.28682,"lon":5.36345,"is_reserved":false,"is_disabled":false,"rental_uris":{"android":"levelo://app?vid=43d078f9-b122-4b54-9ff9-a2ec9f7b3873","ios":"levelo://app?vid=43d078f9-b122-4b54-9ff9-a2ec9f7b3873"},"vehicle_type_id":"4","last_reported":1723223253,"current_range_meters":0,"station_id":"ce4bhah2rcd13ifvqej0","pricing_plan_id":"cebpf4jnsgd1na2vs0mg"},{"bike_id":"39884811-5408-4d3b-ba88-3d38bde7bd9f","system_id":"levelo_inurba_marseille","lat":43.28664,"lon":5.36344,"is_reserved":false,"is_disabled":false,"rental_uris":{"android":"levelo://app?vid=39884811-5408-4d3b-ba88-3d38bde7bd9f","ios":"levelo://app?vid=39884811-5408-4d3b-ba88-3d38bde7bd9f"},"vehicle_type_id":"4","last_reported":1723223253,"current_range_meters":0,"station_id":"ce4bhah2rcd13ifvqej0","pricing_plan_id":"cebpf4jnsgd1na2vs0mg"},{"bike_id":"84a5a442-5455-47cd-91a8-4195aa7b2516","system_id":"levelo_inurba_marseille","lat":43.286961,"lon":5.373785,"is_reserved":false,"is_disabled":false,"rental_uris":{"android":"levelo://app?vid=84a5a442-5455-47cd-91a8-4195aa7b2516","ios":"levelo://app?vid=84a5a442-5455-47cd-91a8-4195aa7b2516"},"vehicle_type_id":"4","last_reported":1723223253,"current_range_meters":0,"station_id":"ce4bh3p2rcd13ifvqdq0","pricing_plan_id":"cebpf4jnsgd1na2vs0mg"},{"bike_id":"8b91ce58-d86c-4ba4-a84c-d9a4584c9018","system_id":"levelo_inurba_marseille","lat":43.289307,"lon":5.38406,"is_reserved":false,"is_disabled":false,"rental_uris":{"android":"levelo://app?vid=8b91ce58-d86c-4ba4-a84c-d9a4584c9018","ios":"levelo://app?vid=8b91ce58-d86c-4ba4-a84c-d9a4584c9018"},"vehicle_type_id":"4","last_reported":1723223253,"current_range_meters":13600,"station_id":"ce4bh612rcd13ifvqe6g","pricing_plan_id":"cebpf4jnsgd1na2vs0mg"},{"bike_id":"606f3a43-5604-403b-bec9-7ee6958452d4","system_id":"levelo_inurba_marseille","lat":43.289307,"lon":5.38406,"is_reserved":false,"is_disabled":false,"rental_uris":{"android":"levelo://app?vid=606f3a43-5604-403b-bec9-7ee6958452d4","ios":"levelo://app?vid=606f3a43-5604-403b-bec9-7ee6958452d4"},"vehicle_type_id":"4","last_reported":1723223253,"current_range_meters":1200,"station_id":"ce4bh612rcd13ifvqe6g","pricing_plan_id":"cebpf4jnsgd1na2vs0mg"},{"bike_id":"b15541c7-bbf9-423d-b2a4-8b237a92d7bd","system_id":"levelo_inurba_marseille","lat":43.290336,"lon":5.386425,"is_reserved":false,"is_disabled":false,"rental_uris":{"android":"levelo://app?vid=b15541c7-bbf9-423d-b2a4-8b237a92d7bd","ios":"levelo://app?vid=b15541c7-bbf9-423d-b2a4-8b237a92d7bd"},"vehicle_type_id":"4","last_reported":1723223253,"current_range_meters":30800,"station_id":"ce4bh4p2rcd13ifvqe0g","pricing_plan_id":"cebpf4jnsgd1na2vs0mg"},{"bike_id":"efdce5b2-4b2e-40cc-a0b2-acb6820d54a2","system_id":"levelo_inurba_marseille","lat":43.289307,"lon":5.38406,"is_reserved":false,"is_disabled":false,"rental_uris":{"android":"levelo://app?vid=efdce5b2-4b2e-40cc-a0b2-acb6820d54a2","ios":"levelo://app?vid=efdce5b2-4b2e-40cc-a0b2-acb6820d54a2"},"vehicle_type_id":"4","last_reported":1723223253,"current_range_meters":3600,"station_id":"ce4bh612rcd13ifvqe6g","pricing_plan_id":"cebpf4jnsgd1na2vs0mg"},{"bike_id":"67c0d46e-3b26-4b28-b28e-a911f1bb004b","system_id":"levelo_inurba_marseille","lat":43.290336,"lon":5.386425,"is_reserved":false,"is_disabled":false,"rental_uris":{"android":"levelo://app?vid=67c0d46e-3b26-4b28-b28e-a911f1bb004b","ios":"levelo://app?vid=67c0d46e-3b26-4b28-b28e-a911f1bb004b"},"vehicle_type_id":"4","last_reported":1723223253,"current_range_meters":1200,"station_id":"ce4bh4p2rcd13ifvqe0g","pricing_plan_id":"cebpf4jnsgd1na2vs0mg"},{"bike_id":"37503a7f-1089-4b55-b37b-c9357f2726dd","system_id":"levelo_inurba_marseille","lat":43.290336,"lon":5.386425,"is_reserved":false,"is_disabled":false,"rental_uris":{"android":"levelo://app?vid=37503a7f-1089-4b55-b37b-c9357f2726dd","ios":"levelo://app?vid=37503a7f-1089-4b55-b37b-c9357f2726dd"},"vehicle_type_id":"4","last_reported":1723223253,"current_range_meters":3600,"station_id":"ce4bh4p2rcd13ifvqe0g","pricing_plan_id":"cebpf4jnsgd1na2vs0mg"},{"bike_id":"e3d76d54-f812-4e20-8781-74b23e3be245","system_id":"levelo_inurba_marseille","lat":43.290336,"lon":5.386425,"is_reserved":false,"is_disabled":false,"rental_uris":{"android":"levelo://app?vid=e3d76d54-f812-4e20-8781-74b23e3be245","ios":"levelo://app?vid=e3d76d54-f812-4e20-8781-74b23e3be245"},"vehicle_type_id":"4","last_reported":1723223253,"current_range_meters":5600,"station_id":"ce4bh4p2rcd13ifvqe0g","pricing_plan_id":"cebpf4jnsgd1na2vs0mg"},{"bike_id":"c53b6255-df45-416a-b158-359b8d3bee6b","system_id":"levelo_inurba_marseille","lat":43.30248,"lon":5.4007,"is_reserved":false,"is_disabled":false,"rental_uris":{"android":"levelo://app?vid=c53b6255-df45-416a-b158-359b8d3bee6b","ios":"levelo://app?vid=c53b6255-df45-416a-b158-359b8d3bee6b"},"vehicle_type_id":"4","last_reported":1723223253,"current_range_meters":29600,"station_id":"ce4bgvh2rcd13ifvqcs0","pricing_plan_id":"cebpf4jnsgd1na2vs0mg"},{"bike_id":"97c7daef-e8e5-4de4-b5c2-aea7fa09fcf3","system_id":"levelo_inurba_marseille","lat":43.286039,"lon":5.370679,"is_reserved":false,"is_disabled":false,"rental_uris":{"android":"levelo://app?vid=97c7daef-e8e5-4de4-b5c2-aea7fa09fcf3","ios":"levelo://app?vid=97c7daef-e8e5-4de4-b5c2-aea7fa09fcf3"},"vehicle_type_id":"4","last_reported":1723223253,"current_range_meters":1200,"station_id":"ce4bht12rcd13ifvqi60","pricing_plan_id":"cebpf4jnsgd1na2vs0mg"},{"bike_id":"31af76ec-b9b8-4187-a64b-383a8ae30b9d","system_id":"levelo_inurba_marseille","lat":43.286039,"lon":5.370679,"is_reserved":false,"is_disabled":false,"rental_uris":{"android":"levelo://app?vid=31af76ec-b9b8-4187-a64b-383a8ae30b9d","ios":"levelo://app?vid=31af76ec-b9b8-4187-a64b-383a8ae30b9d"},"vehicle_type_id":"4","last_reported":1723223253,"current_range_meters":28000,"station_id":"ce4bht12rcd13ifvqi60","pricing_plan_id":"cebpf4jnsgd1na2vs0mg"},{"bike_id":"dc8b7c8a-193f-48a9-8991-f13c8fe5fb39","system_id":"levelo_inurba_marseille","lat":43.286039,"lon":5.370679,"is_reserved":false,"is_disabled":false,"rental_uris":{"android":"levelo://app?vid=dc8b7c8a-193f-48a9-8991-f13c8fe5fb39","ios":"levelo://app?vid=dc8b7c8a-193f-48a9-8991-f13c8fe5fb39"},"vehicle_type_id":"4","last_reported":1723223253,"current_range_meters":16000,"station_id":"ce4bht12rcd13ifvqi60","pricing_plan_id":"cebpf4jnsgd1na2vs0mg"},{"bike_id":"6f4ee892-6088-48db-b6b7-9ca8e650738d","system_id":"levelo_inurba_marseille","lat":43.286039,"lon":5.370681,"is_reserved":false,"is_disabled":false,"rental_uris":{"android":"levelo://app?vid=6f4ee892-6088-48db-b6b7-9ca8e650738d","ios":"levelo://app?vid=6f4ee892-6088-48db-b6b7-9ca8e650738d"},"vehicle_type_id":"4","last_reported":1723223253,"current_range_meters":15200,"station_id":"ce4bht12rcd13ifvqi60","pricing_plan_id":"cebpf4jnsgd1na2vs0mg"},{"bike_id":"08916798-795b-4721-b7ba-bf36b5883456","system_id":"levelo_inurba_marseille","lat":43.28607,"lon":5.370618,"is_reserved":false,"is_disabled":false,"rental_uris":{"android":"levelo://app?vid=08916798-795b-4721-b7ba-bf36b5883456","ios":"levelo://app?vid=08916798-795b-4721-b7ba-bf36b5883456"},"vehicle_type_id":"4","last_reported":1723223253,"current_range_meters":6800,"station_id":"","pricing_plan_id":"cebpf4jnsgd1na2vs0mg"},{"bike_id":"967f5dca-8aa8-4ac7-9223-d7f496eb6c1f","system_id":"levelo_inurba_marseille","lat":43.286039,"lon":5.370681,"is_reserved":false,"is_disabled":false,"rental_uris":{"android":"levelo://app?vid=967f5dca-8aa8-4ac7-9223-d7f496eb6c1f","ios":"levelo://app?vid=967f5dca-8aa8-4ac7-9223-d7f496eb6c1f"},"vehicle_type_id":"4","last_reported":1723223253,"current_range_meters":0,"station_id":"ce4bht12rcd13ifvqi60","pricing_plan_id":"cebpf4jnsgd1na2vs0mg"},{"bike_id":"88bb0160-1692-40dc-9512-ae71bea5b860","system_id":"levelo_inurba_marseille","lat":43.287184,"lon":5.37937,"is_reserved":false,"is_disabled":false,"rental_uris":{"android":"levelo://app?vid=88bb0160-1692-40dc-9512-ae71bea5b860","ios":"levelo://app?vid=88bb0160-1692-40dc-9512-ae71bea5b860"},"vehicle_type_id":"4","last_reported":1723223253,"current_range_meters":5600,"station_id":"ce4bh9p2rcd13ifvqec0","pricing_plan_id":"cebpf4jnsgd1na2vs0mg"},{"bike_id":"033f771e-a5bb-4cff-8219-ccb03daa2387","system_id":"levelo_inurba_marseille","lat":43.28717,"lon":5.3792,"is_reserved":false,"is_disabled":false,"rental_uris":{"android":"levelo://app?vid=033f771e-a5bb-4cff-8219-ccb03daa2387","ios":"levelo://app?vid=033f771e-a5bb-4cff-8219-ccb03daa2387"},"vehicle_type_id":"4","last_reported":1723223253,"current_range_meters":0,"station_id":"ce4bh9p2rcd13ifvqec0","pricing_plan_id":"cebpf4jnsgd1na2vs0mg"},{"bike_id":"3e59f682-43c4-4bdc-9bec-0f64a75decd2","system_id":"levelo_inurba_marseille","lat":43.287184,"lon":5.37937,"is_reserved":false,"is_disabled":false,"rental_uris":{"android":"levelo://app?vid=3e59f682-43c4-4bdc-9bec-0f64a75decd2","ios":"levelo://app?vid=3e59f682-43c4-4bdc-9bec-0f64a75decd2"},"vehicle_type_id":"4","last_reported":1723223253,"current_range_meters":0,"station_id":"ce4bh9p2rcd13ifvqec0","pricing_plan_id":"cebpf4jnsgd1na2vs0mg"},{"bike_id":"a9ca5ee6-3c17-4148-b9c7-5a3f03637bba","system_id":"levelo_inurba_marseille","lat":43.28721,"lon":5.35198,"is_reserved":false,"is_disabled":false,"rental_uris":{"android":"levelo://app?vid=a9ca5ee6-3c17-4148-b9c7-5a3f03637bba","ios":"levelo://app?vid=a9ca5ee6-3c17-4148-b9c7-5a3f03637bba"},"vehicle_type_id":"4","last_reported":1723223253,"current_range_meters":0,"station_id":"","pricing_plan_id":"cebpf4jnsgd1na2vs0mg"},{"bike_id":"e01a7644-6088-4790-86d3-3d3018f47caa","system_id":"levelo_inurba_marseille","lat":43.316821,"lon":5.404737,"is_reserved":false,"is_disabled":false,"rental_uris":{"android":"levelo://app?vid=e01a7644-6088-4790-86d3-3d3018f47caa","ios":"levelo://app?vid=e01a7644-6088-4790-86d3-3d3018f47caa"},"vehicle_type_id":"4","last_reported":1723223253,"current_range_meters":13600,"station_id":"ce4bh012rcd13ifvqd00","pricing_plan_id":"cebpf4jnsgd1na2vs0mg"},{"bike_id":"e01485a5-339e-43a1-80ca-ed6dfb7a00b1","system_id":"levelo_inurba_marseille","lat":43.316828,"lon":5.404723,"is_reserved":false,"is_disabled":false,"rental_uris":{"android":"levelo://app?vid=e01485a5-339e-43a1-80ca-ed6dfb7a00b1","ios":"levelo://app?vid=e01485a5-339e-43a1-80ca-ed6dfb7a00b1"},"vehicle_type_id":"4","last_reported":1723223253,"current_range_meters":5600,"station_id":"ce4bh012rcd13ifvqd00","pricing_plan_id":"cebpf4jnsgd1na2vs0mg"},{"bike_id":"7288b14c-7d46-4386-a0bf-67fe9dd194dd","system_id":"levelo_inurba_marseille","lat":43.291994,"lon":5.392907,"is_reserved":false,"is_disabled":false,"rental_uris":{"android":"levelo://app?vid=7288b14c-7d46-4386-a0bf-67fe9dd194dd","ios":"levelo://app?vid=7288b14c-7d46-4386-a0bf-67fe9dd194dd"},"vehicle_type_id":"4","last_reported":1723223253,"current_range_meters":10400,"station_id":"ce4bh192rcd13ifvqdd0","pricing_plan_id":"cebpf4jnsgd1na2vs0mg"},{"bike_id":"3d779ddc-23f4-4e3b-8f2b-475f9ead9456","system_id":"levelo_inurba_marseille","lat":43.284538,"lon":5.358657,"is_reserved":false,"is_disabled":false,"rental_uris":{"android":"levelo://app?vid=3d779ddc-23f4-4e3b-8f2b-475f9ead9456","ios":"levelo://app?vid=3d779ddc-23f4-4e3b-8f2b-475f9ead9456"},"vehicle_type_id":"4","last_reported":1723223253,"current_range_meters":30400,"station_id":"ce4bhah2rcd13ifvqei0","pricing_plan_id":"cebpf4jnsgd1na2vs0mg"},{"bike_id":"95a1dcba-b8ed-4763-9c46-be5983a8cbbc","system_id":"levelo_inurba_marseille","lat":43.284538,"lon":5.358657,"is_reserved":false,"is_disabled":false,"rental_uris":{"android":"levelo://app?vid=95a1dcba-b8ed-4763-9c46-be5983a8cbbc","ios":"levelo://app?vid=95a1dcba-b8ed-4763-9c46-be5983a8cbbc"},"vehicle_type_id":"4","last_reported":1723223253,"current_range_meters":5600,"station_id":"ce4bhah2rcd13ifvqei0","pricing_plan_id":"cebpf4jnsgd1na2vs0mg"},{"bike_id":"31712489-6c21-4e70-9fad-c91ec2d2bd3c","system_id":"levelo_inurba_marseille","lat":43.28462,"lon":5.35885,"is_reserved":false,"is_disabled":false,"rental_uris":{"android":"levelo://app?vid=31712489-6c21-4e70-9fad-c91ec2d2bd3c","ios":"levelo://app?vid=31712489-6c21-4e70-9fad-c91ec2d2bd3c"},"vehicle_type_id":"4","last_reported":1723223253,"current_range_meters":800,"station_id":"ce4bhah2rcd13ifvqei0","pricing_plan_id":"cebpf4jnsgd1na2vs0mg"},{"bike_id":"950ddbe2-eeac-43f7-a56a-50508bacdc51","system_id":"levelo_inurba_marseille","lat":43.28458,"lon":5.35891,"is_reserved":false,"is_disabled":false,"rental_uris":{"android":"levelo://app?vid=950ddbe2-eeac-43f7-a56a-50508bacdc51","ios":"levelo://app?vid=950ddbe2-eeac-43f7-a56a-50508bacdc51"},"vehicle_type_id":"4","last_reported":1723223253,"current_range_meters":29600,"station_id":"ce4bhah2rcd13ifvqei0","pricing_plan_id":"cebpf4jnsgd1na2vs0mg"},{"bike_id":"54c0e176-cb43-4fa1-90dd-160001c87929","system_id":"levelo_inurba_marseille","lat":43.29438,"lon":5.39746,"is_reserved":false,"is_disabled":false,"rental_uris":{"android":"levelo://app?vid=54c0e176-cb43-4fa1-90dd-160001c87929","ios":"levelo://app?vid=54c0e176-cb43-4fa1-90dd-160001c87929"},"vehicle_type_id":"4","last_reported":1723223253,"current_range_meters":3200,"station_id":"ce4bh3h2rcd13ifvqdo0","pricing_plan_id":"cebpf4jnsgd1na2vs0mg"},{"bike_id":"8f804e5b-488c-45df-8860-c3342512c553","system_id":"levelo_inurba_marseille","lat":43.2862,"lon":5.35112,"is_reserved":false,"is_disabled":false,"rental_uris":{"android":"levelo://app?vid=8f804e5b-488c-45df-8860-c3342512c553","ios":"levelo://app?vid=8f804e5b-488c-45df-8860-c3342512c553"},"vehicle_type_id":"4","last_reported":1723223253,"current_range_meters":31200,"station_id":"ce4bhch2rcd13ifvqeug","pricing_plan_id":"cebpf4jnsgd1na2vs0mg"},{"bike_id":"98f857c1-a0a0-4b2c-91a6-163fb03917c0","system_id":"levelo_inurba_marseille","lat":43.28621,"lon":5.35106,"is_reserved":false,"is_disabled":false,"rental_uris":{"android":"levelo://app?vid=98f857c1-a0a0-4b2c-91a6-163fb03917c0","ios":"levelo://app?vid=98f857c1-a0a0-4b2c-91a6-163fb03917c0"},"vehicle_type_id":"4","last_reported":1723223253,"current_range_meters":0,"station_id":"ce4bhch2rcd13ifvqeug","pricing_plan_id":"cebpf4jnsgd1na2vs0mg"},{"bike_id":"acb72779-48c7-48e4-ad44-700f7a2cd526","system_id":"levelo_inurba_marseille","lat":43.2862,"lon":5.35108,"is_reserved":false,"is_disabled":false,"rental_uris":{"android":"levelo://app?vid=acb72779-48c7-48e4-ad44-700f7a2cd526","ios":"levelo://app?vid=acb72779-48c7-48e4-ad44-700f7a2cd526"},"vehicle_type_id":"4","last_reported":1723223253,"current_range_meters":0,"station_id":"ce4bhch2rcd13ifvqeug","pricing_plan_id":"cebpf4jnsgd1na2vs0mg"},{"bike_id":"abc84d29-1004-4103-9956-d24c1439dd5e","system_id":"levelo_inurba_marseille","lat":43.2862,"lon":5.35105,"is_reserved":false,"is_disabled":false,"rental_uris":{"android":"levelo://app?vid=abc84d29-1004-4103-9956-d24c1439dd5e","ios":"levelo://app?vid=abc84d29-1004-4103-9956-d24c1439dd5e"},"vehicle_type_id":"4","last_reported":1723223253,"current_range_meters":2000,"station_id":"ce4bhch2rcd13ifvqeug","pricing_plan_id":"cebpf4jnsgd1na2vs0mg"},{"bike_id":"ecc5d94e-b73c-42e0-99a9-a00d3b303771","system_id":"levelo_inurba_marseille","lat":43.28618,"lon":5.35105,"is_reserved":false,"is_disabled":false,"rental_uris":{"android":"levelo://app?vid=ecc5d94e-b73c-42e0-99a9-a00d3b303771","ios":"levelo://app?vid=ecc5d94e-b73c-42e0-99a9-a00d3b303771"},"vehicle_type_id":"4","last_reported":1723223253,"current_range_meters":31200,"station_id":"ce4bhch2rcd13ifvqeug","pricing_plan_id":"cebpf4jnsgd1na2vs0mg"},{"bike_id":"e80a2755-1b6f-48fe-8874-5365db9c64f2","system_id":"levelo_inurba_marseille","lat":43.28618,"lon":5.35105,"is_reserved":false,"is_disabled":false,"rental_uris":{"android":"levelo://app?vid=e80a2755-1b6f-48fe-8874-5365db9c64f2","ios":"levelo://app?vid=e80a2755-1b6f-48fe-8874-5365db9c64f2"},"vehicle_type_id":"4","last_reported":1723223253,"current_range_meters":31200,"station_id":"ce4bhch2rcd13ifvqeug","pricing_plan_id":"cebpf4jnsgd1na2vs0mg"},{"bike_id":"833dcb91-e6bb-4b5e-b886-b363152dcb8c","system_id":"levelo_inurba_marseille","lat":43.28617,"lon":5.35106,"is_reserved":false,"is_disabled":false,"rental_uris":{"android":"levelo://app?vid=833dcb91-e6bb-4b5e-b886-b363152dcb8c","ios":"levelo://app?vid=833dcb91-e6bb-4b5e-b886-b363152dcb8c"},"vehicle_type_id":"4","last_reported":1723223253,"current_range_meters":31200,"station_id":"ce4bhch2rcd13ifvqeug","pricing_plan_id":"cebpf4jnsgd1na2vs0mg"},{"bike_id":"2ad6f5e1-bae8-4dc1-9083-d3907c5c3df4","system_id":"levelo_inurba_marseille","lat":43.28618,"lon":5.351,"is_reserved":false,"is_disabled":false,"rental_uris":{"android":"levelo://app?vid=2ad6f5e1-bae8-4dc1-9083-d3907c5c3df4","ios":"levelo://app?vid=2ad6f5e1-bae8-4dc1-9083-d3907c5c3df4"},"vehicle_type_id":"4","last_reported":1723223253,"current_range_meters":0,"station_id":"ce4bhch2rcd13ifvqeug","pricing_plan_id":"cebpf4jnsgd1na2vs0mg"},{"bike_id":"f007dfc0-ea07-462b-8697-deaa37a0e7e8","system_id":"levelo_inurba_marseille","lat":43.28616,"lon":5.35103,"is_reserved":false,"is_disabled":false,"rental_uris":{"android":"levelo://app?vid=f007dfc0-ea07-462b-8697-deaa37a0e7e8","ios":"levelo://app?vid=f007dfc0-ea07-462b-8697-deaa37a0e7e8"},"vehicle_type_id":"4","last_reported":1723223253,"current_range_meters":0,"station_id":"ce4bhch2rcd13ifvqeug","pricing_plan_id":"cebpf4jnsgd1na2vs0mg"},{"bike_id":"c1fcceba-ba0f-4cbf-8f74-13f00aca7f83","system_id":"levelo_inurba_marseille","lat":43.28616,"lon":5.35102,"is_reserved":false,"is_disabled":false,"rental_uris":{"android":"levelo://app?vid=c1fcceba-ba0f-4cbf-8f74-13f00aca7f83","ios":"levelo://app?vid=c1fcceba-ba0f-4cbf-8f74-13f00aca7f83"},"vehicle_type_id":"4","last_reported":1723223253,"current_range_meters":28000,"station_id":"ce4bhch2rcd13ifvqeug","pricing_plan_id":"cebpf4jnsgd1na2vs0mg"},{"bike_id":"7ec17879-20ed-4406-a08f-9ed9f0b0e5e7","system_id":"levelo_inurba_marseille","lat":43.28614,"lon":5.35106,"is_reserved":false,"is_disabled":false,"rental_uris":{"android":"levelo://app?vid=7ec17879-20ed-4406-a08f-9ed9f0b0e5e7","ios":"levelo://app?vid=7ec17879-20ed-4406-a08f-9ed9f0b0e5e7"},"vehicle_type_id":"4","last_reported":1723223253,"current_range_meters":0,"station_id":"ce4bhch2rcd13ifvqeug","pricing_plan_id":"cebpf4jnsgd1na2vs0mg"},{"bike_id":"b98b921e-a454-4c62-9113-56e3d5faf2d8","system_id":"levelo_inurba_marseille","lat":43.28615,"lon":5.35102,"is_reserved":false,"is_disabled":false,"rental_uris":{"android":"levelo://app?vid=b98b921e-a454-4c62-9113-56e3d5faf2d8","ios":"levelo://app?vid=b98b921e-a454-4c62-9113-56e3d5faf2d8"},"vehicle_type_id":"4","last_reported":1723223253,"current_range_meters":30800,"station_id":"ce4bhch2rcd13ifvqeug","pricing_plan_id":"cebpf4jnsgd1na2vs0mg"},{"bike_id":"e73eafc5-31a9-4d78-9de4-949fd12ddd93","system_id":"levelo_inurba_marseille","lat":43.28613,"lon":5.35107,"is_reserved":false,"is_disabled":false,"rental_uris":{"android":"levelo://app?vid=e73eafc5-31a9-4d78-9de4-949fd12ddd93","ios":"levelo://app?vid=e73eafc5-31a9-4d78-9de4-949fd12ddd93"},"vehicle_type_id":"4","last_reported":1723223253,"current_range_meters":31200,"station_id":"ce4bhch2rcd13ifvqeug","pricing_plan_id":"cebpf4jnsgd1na2vs0mg"},{"bike_id":"32c18c5a-025f-4d43-9941-54d1fbb75192","system_id":"levelo_inurba_marseille","lat":43.28615,"lon":5.35093,"is_reserved":false,"is_disabled":false,"rental_uris":{"android":"levelo://app?vid=32c18c5a-025f-4d43-9941-54d1fbb75192","ios":"levelo://app?vid=32c18c5a-025f-4d43-9941-54d1fbb75192"},"vehicle_type_id":"4","last_reported":1723223253,"current_range_meters":21200,"station_id":"ce4bhch2rcd13ifvqeug","pricing_plan_id":"cebpf4jnsgd1na2vs0mg"},{"bike_id":"6815484d-c9da-4422-811b-c260499587de","system_id":"levelo_inurba_marseille","lat":43.28613,"lon":5.35099,"is_reserved":false,"is_disabled":false,"rental_uris":{"android":"levelo://app?vid=6815484d-c9da-4422-811b-c260499587de","ios":"levelo://app?vid=6815484d-c9da-4422-811b-c260499587de"},"vehicle_type_id":"4","last_reported":1723223253,"current_range_meters":31200,"station_id":"ce4bhch2rcd13ifvqeug","pricing_plan_id":"cebpf4jnsgd1na2vs0mg"},{"bike_id":"59441cc4-9c6f-4a8f-b64e-b6360258f55a","system_id":"levelo_inurba_marseille","lat":43.28611,"lon":5.35105,"is_reserved":false,"is_disabled":false,"rental_uris":{"android":"levelo://app?vid=59441cc4-9c6f-4a8f-b64e-b6360258f55a","ios":"levelo://app?vid=59441cc4-9c6f-4a8f-b64e-b6360258f55a"},"vehicle_type_id":"4","last_reported":1723223253,"current_range_meters":2800,"station_id":"ce4bhch2rcd13ifvqeug","pricing_plan_id":"cebpf4jnsgd1na2vs0mg"},{"bike_id":"8afdfae2-8d96-40c6-9c21-23ffc29ffa80","system_id":"levelo_inurba_marseille","lat":43.285848,"lon":5.350787,"is_reserved":false,"is_disabled":false,"rental_uris":{"android":"levelo://app?vid=8afdfae2-8d96-40c6-9c21-23ffc29ffa80","ios":"levelo://app?vid=8afdfae2-8d96-40c6-9c21-23ffc29ffa80"},"vehicle_type_id":"4","last_reported":1723223253,"current_range_meters":31200,"station_id":"ce4bhch2rcd13ifvqeug","pricing_plan_id":"cebpf4jnsgd1na2vs0mg"},{"bike_id":"63e2ef81-742c-4b78-9da6-e9da47c0e256","system_id":"levelo_inurba_marseille","lat":43.286025,"lon":5.351077,"is_reserved":false,"is_disabled":false,"rental_uris":{"android":"levelo://app?vid=63e2ef81-742c-4b78-9da6-e9da47c0e256","ios":"levelo://app?vid=63e2ef81-742c-4b78-9da6-e9da47c0e256"},"vehicle_type_id":"4","last_reported":1723223253,"current_range_meters":0,"station_id":"ce4bgi12rcd13ifvqb70","pricing_plan_id":"cebpf4jnsgd1na2vs0mg"},{"bike_id":"bae26861-5d5a-44e6-a88f-90057f8ecdaf","system_id":"levelo_inurba_marseille","lat":43.28413,"lon":5.37498,"is_reserved":false,"is_disabled":false,"rental_uris":{"android":"levelo://app?vid=bae26861-5d5a-44e6-a88f-90057f8ecdaf","ios":"levelo://app?vid=bae26861-5d5a-44e6-a88f-90057f8ecdaf"},"vehicle_type_id":"4","last_reported":1723223253,"current_range_meters":0,"station_id":"ce4bh412rcd13ifvqds0","pricing_plan_id":"cebpf4jnsgd1na2vs0mg"},{"bike_id":"edd50cdf-1d33-4dd3-b4ab-71bf9a1e147a","system_id":"levelo_inurba_marseille","lat":43.283998,"lon":5.375062,"is_reserved":false,"is_disabled":false,"rental_uris":{"android":"levelo://app?vid=edd50cdf-1d33-4dd3-b4ab-71bf9a1e147a","ios":"levelo://app?vid=edd50cdf-1d33-4dd3-b4ab-71bf9a1e147a"},"vehicle_type_id":"4","last_reported":1723223253,"current_range_meters":26400,"station_id":"ce4bh412rcd13ifvqds0","pricing_plan_id":"cebpf4jnsgd1na2vs0mg"},{"bike_id":"04234a0e-c00b-40ae-8cbc-b4c6db7c31c4","system_id":"levelo_inurba_marseille","lat":43.304606,"lon":5.379026,"is_reserved":false,"is_disabled":false,"rental_uris":{"android":"levelo://app?vid=04234a0e-c00b-40ae-8cbc-b4c6db7c31c4","ios":"levelo://app?vid=04234a0e-c00b-40ae-8cbc-b4c6db7c31c4"},"vehicle_type_id":"4","last_reported":1723223253,"current_range_meters":0,"station_id":"ce4bgup2rcd13ifvqcn0","pricing_plan_id":"cebpf4jnsgd1na2vs0mg"},{"bike_id":"167e7cf3-0050-4947-94d0-b2d1228f467c","system_id":"levelo_inurba_marseille","lat":43.319179,"lon":5.407725,"is_reserved":false,"is_disabled":false,"rental_uris":{"android":"levelo://app?vid=167e7cf3-0050-4947-94d0-b2d1228f467c","ios":"levelo://app?vid=167e7cf3-0050-4947-94d0-b2d1228f467c"},"vehicle_type_id":"4","last_reported":1723223253,"current_range_meters":4800,"station_id":"ce4bhq12rcd13ifvqhig","pricing_plan_id":"cebpf4jnsgd1na2vs0mg"},{"bike_id":"f13909ea-d163-4bc7-96c8-865ce911aef4","system_id":"levelo_inurba_marseille","lat":43.323464,"lon":5.406297,"is_reserved":false,"is_disabled":false,"rental_uris":{"android":"levelo://app?vid=f13909ea-d163-4bc7-96c8-865ce911aef4","ios":"levelo://app?vid=f13909ea-d163-4bc7-96c8-865ce911aef4"},"vehicle_type_id":"4","last_reported":1723223253,"current_range_meters":17200,"station_id":"ce4bhq92rcd13ifvqhjg","pricing_plan_id":"cebpf4jnsgd1na2vs0mg"},{"bike_id":"d3ca90c7-7a02-4fa6-9ec5-e9674588ab1c","system_id":"levelo_inurba_marseille","lat":43.28473,"lon":5.38422,"is_reserved":false,"is_disabled":false,"rental_uris":{"android":"levelo://app?vid=d3ca90c7-7a02-4fa6-9ec5-e9674588ab1c","ios":"levelo://app?vid=d3ca90c7-7a02-4fa6-9ec5-e9674588ab1c"},"vehicle_type_id":"4","last_reported":1723223253,"current_range_meters":18000,"station_id":"ce4bh512rcd13ifvqe3g","pricing_plan_id":"cebpf4jnsgd1na2vs0mg"},{"bike_id":"02ceec59-0f69-49d7-9c89-7fc238f02199","system_id":"levelo_inurba_marseille","lat":43.284787,"lon":5.384116,"is_reserved":false,"is_disabled":false,"rental_uris":{"android":"levelo://app?vid=02ceec59-0f69-49d7-9c89-7fc238f02199","ios":"levelo://app?vid=02ceec59-0f69-49d7-9c89-7fc238f02199"},"vehicle_type_id":"4","last_reported":1723223253,"current_range_meters":0,"station_id":"ce4bh512rcd13ifvqe3g","pricing_plan_id":"cebpf4jnsgd1na2vs0mg"},{"bike_id":"18b543ff-d923-4449-8f4e-22f0f7703fdb","system_id":"levelo_inurba_marseille","lat":43.283498,"lon":5.380948,"is_reserved":false,"is_disabled":false,"rental_uris":{"android":"levelo://app?vid=18b543ff-d923-4449-8f4e-22f0f7703fdb","ios":"levelo://app?vid=18b543ff-d923-4449-8f4e-22f0f7703fdb"},"vehicle_type_id":"4","last_reported":1723223253,"current_range_meters":5600,"station_id":"ce4bh412rcd13ifvqdr0","pricing_plan_id":"cebpf4jnsgd1na2vs0mg"},{"bike_id":"3512f23c-ed55-4b8b-a447-0d0a7ceee6b0","system_id":"levelo_inurba_marseille","lat":43.284303,"lon":5.34984,"is_reserved":false,"is_disabled":false,"rental_uris":{"android":"levelo://app?vid=3512f23c-ed55-4b8b-a447-0d0a7ceee6b0","ios":"levelo://app?vid=3512f23c-ed55-4b8b-a447-0d0a7ceee6b0"},"vehicle_type_id":"4","last_reported":1723223253,"current_range_meters":26000,"station_id":"ce4bhbh2rcd13ifvqepg","pricing_plan_id":"cebpf4jnsgd1na2vs0mg"},{"bike_id":"78f64a92-a56b-44a7-b074-f1933126a058","system_id":"levelo_inurba_marseille","lat":43.28425,"lon":5.34991,"is_reserved":false,"is_disabled":false,"rental_uris":{"android":"levelo://app?vid=78f64a92-a56b-44a7-b074-f1933126a058","ios":"levelo://app?vid=78f64a92-a56b-44a7-b074-f1933126a058"},"vehicle_type_id":"4","last_reported":1723223253,"current_range_meters":1600,"station_id":"ce4bhbh2rcd13ifvqepg","pricing_plan_id":"cebpf4jnsgd1na2vs0mg"},{"bike_id":"0abe68b4-97bc-4f60-9063-ddada71c22db","system_id":"levelo_inurba_marseille","lat":43.284255,"lon":5.34984,"is_reserved":false,"is_disabled":false,"rental_uris":{"android":"levelo://app?vid=0abe68b4-97bc-4f60-9063-ddada71c22db","ios":"levelo://app?vid=0abe68b4-97bc-4f60-9063-ddada71c22db"},"vehicle_type_id":"4","last_reported":1723223253,"current_range_meters":9200,"station_id":"ce4bhbh2rcd13ifvqepg","pricing_plan_id":"cebpf4jnsgd1na2vs0mg"},{"bike_id":"23b5bc3d-2135-48ff-af1d-c7d75e45ea43","system_id":"levelo_inurba_marseille","lat":43.28422,"lon":5.3499,"is_reserved":false,"is_disabled":false,"rental_uris":{"android":"levelo://app?vid=23b5bc3d-2135-48ff-af1d-c7d75e45ea43","ios":"levelo://app?vid=23b5bc3d-2135-48ff-af1d-c7d75e45ea43"},"vehicle_type_id":"4","last_reported":1723223253,"current_range_meters":0,"station_id":"ce4bhbh2rcd13ifvqepg","pricing_plan_id":"cebpf4jnsgd1na2vs0mg"},{"bike_id":"627a13b3-77f6-4f43-93e7-d2a074f353a7","system_id":"levelo_inurba_marseille","lat":43.284221,"lon":5.349837,"is_reserved":false,"is_disabled":false,"rental_uris":{"android":"levelo://app?vid=627a13b3-77f6-4f43-93e7-d2a074f353a7","ios":"levelo://app?vid=627a13b3-77f6-4f43-93e7-d2a074f353a7"},"vehicle_type_id":"4","last_reported":1723223253,"current_range_meters":1600,"station_id":"","pricing_plan_id":"cebpf4jnsgd1na2vs0mg"},{"bike_id":"1c2605e1-ce0d-4cae-8d0d-e0c0d9bf2a5d","system_id":"levelo_inurba_marseille","lat":43.284219,"lon":5.3497,"is_reserved":false,"is_disabled":false,"rental_uris":{"android":"levelo://app?vid=1c2605e1-ce0d-4cae-8d0d-e0c0d9bf2a5d","ios":"levelo://app?vid=1c2605e1-ce0d-4cae-8d0d-e0c0d9bf2a5d"},"vehicle_type_id":"4","last_reported":1723223253,"current_range_meters":27600,"station_id":"ce4bhbh2rcd13ifvqepg","pricing_plan_id":"cebpf4jnsgd1na2vs0mg"},{"bike_id":"0e4a147c-e0d8-41d6-8061-2b171dccd251","system_id":"levelo_inurba_marseille","lat":43.28423,"lon":5.34979,"is_reserved":false,"is_disabled":false,"rental_uris":{"android":"levelo://app?vid=0e4a147c-e0d8-41d6-8061-2b171dccd251","ios":"levelo://app?vid=0e4a147c-e0d8-41d6-8061-2b171dccd251"},"vehicle_type_id":"4","last_reported":1723223253,"current_range_meters":13200,"station_id":"ce4bhbh2rcd13ifvqepg","pricing_plan_id":"cebpf4jnsgd1na2vs0mg"},{"bike_id":"3c6dacb6-8ecd-4a28-ac11-2e070c996f29","system_id":"levelo_inurba_marseille","lat":43.2842,"lon":5.34987,"is_reserved":false,"is_disabled":false,"rental_uris":{"android":"levelo://app?vid=3c6dacb6-8ecd-4a28-ac11-2e070c996f29","ios":"levelo://app?vid=3c6dacb6-8ecd-4a28-ac11-2e070c996f29"},"vehicle_type_id":"4","last_reported":1723223253,"current_range_meters":8800,"station_id":"ce4bhbh2rcd13ifvqepg","pricing_plan_id":"cebpf4jnsgd1na2vs0mg"},{"bike_id":"8fb6bc8d-dfab-4d9e-843c-1bb5212707cc","system_id":"levelo_inurba_marseille","lat":43.28419,"lon":5.34986,"is_reserved":false,"is_disabled":false,"rental_uris":{"android":"levelo://app?vid=8fb6bc8d-dfab-4d9e-843c-1bb5212707cc","ios":"levelo://app?vid=8fb6bc8d-dfab-4d9e-843c-1bb5212707cc"},"vehicle_type_id":"4","last_reported":1723223253,"current_range_meters":28800,"station_id":"ce4bhbh2rcd13ifvqepg","pricing_plan_id":"cebpf4jnsgd1na2vs0mg"},{"bike_id":"12690711-30bf-432d-8d42-0fd8f3a5f952","system_id":"levelo_inurba_marseille","lat":43.2842,"lon":5.34982,"is_reserved":false,"is_disabled":false,"rental_uris":{"android":"levelo://app?vid=12690711-30bf-432d-8d42-0fd8f3a5f952","ios":"levelo://app?vid=12690711-30bf-432d-8d42-0fd8f3a5f952"},"vehicle_type_id":"4","last_reported":1723223253,"current_range_meters":18000,"station_id":"ce4bhbh2rcd13ifvqepg","pricing_plan_id":"cebpf4jnsgd1na2vs0mg"},{"bike_id":"5cb6360d-2404-4efb-8a81-27b9fadc8cbf","system_id":"levelo_inurba_marseille","lat":43.284163,"lon":5.349907,"is_reserved":false,"is_disabled":false,"rental_uris":{"android":"levelo://app?vid=5cb6360d-2404-4efb-8a81-27b9fadc8cbf","ios":"levelo://app?vid=5cb6360d-2404-4efb-8a81-27b9fadc8cbf"},"vehicle_type_id":"4","last_reported":1723223253,"current_range_meters":16800,"station_id":"ce4bhbh2rcd13ifvqepg","pricing_plan_id":"cebpf4jnsgd1na2vs0mg"},{"bike_id":"6a73179c-f962-4459-a767-4805d41ba5fe","system_id":"levelo_inurba_marseille","lat":43.284217,"lon":5.349697,"is_reserved":false,"is_disabled":false,"rental_uris":{"android":"levelo://app?vid=6a73179c-f962-4459-a767-4805d41ba5fe","ios":"levelo://app?vid=6a73179c-f962-4459-a767-4805d41ba5fe"},"vehicle_type_id":"4","last_reported":1723223253,"current_range_meters":400,"station_id":"ce4bhbh2rcd13ifvqepg","pricing_plan_id":"cebpf4jnsgd1na2vs0mg"},{"bike_id":"c92a65ae-d928-406b-b465-b00be7311d98","system_id":"levelo_inurba_marseille","lat":43.28414,"lon":5.34985,"is_reserved":false,"is_disabled":false,"rental_uris":{"android":"levelo://app?vid=c92a65ae-d928-406b-b465-b00be7311d98","ios":"levelo://app?vid=c92a65ae-d928-406b-b465-b00be7311d98"},"vehicle_type_id":"4","last_reported":1723223253,"current_range_meters":13200,"station_id":"ce4bhbh2rcd13ifvqepg","pricing_plan_id":"cebpf4jnsgd1na2vs0mg"},{"bike_id":"6ca51349-57e8-48a1-90b3-17433ec779c5","system_id":"levelo_inurba_marseille","lat":43.284137,"lon":5.349823,"is_reserved":false,"is_disabled":false,"rental_uris":{"android":"levelo://app?vid=6ca51349-57e8-48a1-90b3-17433ec779c5","ios":"levelo://app?vid=6ca51349-57e8-48a1-90b3-17433ec779c5"},"vehicle_type_id":"4","last_reported":1723223253,"current_range_meters":8000,"station_id":"ce4bhbh2rcd13ifvqepg","pricing_plan_id":"cebpf4jnsgd1na2vs0mg"},{"bike_id":"2448e1d7-f424-462a-b3eb-8f203173e7fd","system_id":"levelo_inurba_marseille","lat":43.28415,"lon":5.34974,"is_reserved":false,"is_disabled":false,"rental_uris":{"android":"levelo://app?vid=2448e1d7-f424-462a-b3eb-8f203173e7fd","ios":"levelo://app?vid=2448e1d7-f424-462a-b3eb-8f203173e7fd"},"vehicle_type_id":"4","last_reported":1723223253,"current_range_meters":11600,"station_id":"ce4bhbh2rcd13ifvqepg","pricing_plan_id":"cebpf4jnsgd1na2vs0mg"},{"bike_id":"4ace50f1-1dfd-4eb9-b2d4-09db31ac3b36","system_id":"levelo_inurba_marseille","lat":43.28411,"lon":5.34979,"is_reserved":false,"is_disabled":false,"rental_uris":{"android":"levelo://app?vid=4ace50f1-1dfd-4eb9-b2d4-09db31ac3b36","ios":"levelo://app?vid=4ace50f1-1dfd-4eb9-b2d4-09db31ac3b36"},"vehicle_type_id":"4","last_reported":1723223253,"current_range_meters":17600,"station_id":"ce4bhbh2rcd13ifvqepg","pricing_plan_id":"cebpf4jnsgd1na2vs0mg"},{"bike_id":"7f25f42f-9226-4326-a134-badd7a53f00a","system_id":"levelo_inurba_marseille","lat":43.2841,"lon":5.34976,"is_reserved":false,"is_disabled":false,"rental_uris":{"android":"levelo://app?vid=7f25f42f-9226-4326-a134-badd7a53f00a","ios":"levelo://app?vid=7f25f42f-9226-4326-a134-badd7a53f00a"},"vehicle_type_id":"4","last_reported":1723223253,"current_range_meters":20800,"station_id":"ce4bhbh2rcd13ifvqepg","pricing_plan_id":"cebpf4jnsgd1na2vs0mg"},{"bike_id":"d5b542e4-8945-4a19-a499-c32763061ff9","system_id":"levelo_inurba_marseille","lat":43.334592,"lon":5.398018,"is_reserved":false,"is_disabled":false,"rental_uris":{"android":"levelo://app?vid=d5b542e4-8945-4a19-a499-c32763061ff9","ios":"levelo://app?vid=d5b542e4-8945-4a19-a499-c32763061ff9"},"vehicle_type_id":"4","last_reported":1723223253,"current_range_meters":400,"station_id":"","pricing_plan_id":"cebpf4jnsgd1na2vs0mg"},{"bike_id":"274037fa-9ea9-4478-a370-454e9bd18d45","system_id":"levelo_inurba_marseille","lat":43.309921,"lon":5.410627,"is_reserved":false,"is_disabled":false,"rental_uris":{"android":"levelo://app?vid=274037fa-9ea9-4478-a370-454e9bd18d45","ios":"levelo://app?vid=274037fa-9ea9-4478-a370-454e9bd18d45"},"vehicle_type_id":"4","last_reported":1723223253,"current_range_meters":400,"station_id":"","pricing_plan_id":"cebpf4jnsgd1na2vs0mg"},{"bike_id":"7e0df23d-36f5-47cf-8712-19eea19fed3d","system_id":"levelo_inurba_marseille","lat":43.292724,"lon":5.401131,"is_reserved":false,"is_disabled":false,"rental_uris":{"android":"levelo://app?vid=7e0df23d-36f5-47cf-8712-19eea19fed3d","ios":"levelo://app?vid=7e0df23d-36f5-47cf-8712-19eea19fed3d"},"vehicle_type_id":"4","last_reported":1723223253,"current_range_meters":0,"station_id":"ce4bh312rcd13ifvqdk0","pricing_plan_id":"cebpf4jnsgd1na2vs0mg"},{"bike_id":"ec307558-cf56-4b85-8430-27a221352f55","system_id":"levelo_inurba_marseille","lat":43.2807,"lon":5.369,"is_reserved":false,"is_disabled":false,"rental_uris":{"android":"levelo://app?vid=ec307558-cf56-4b85-8430-27a221352f55","ios":"levelo://app?vid=ec307558-cf56-4b85-8430-27a221352f55"},"vehicle_type_id":"4","last_reported":1723223253,"current_range_meters":400,"station_id":"","pricing_plan_id":"cebpf4jnsgd1na2vs0mg"},{"bike_id":"1fd203b0-9f0a-4070-989f-90ca9f4f5935","system_id":"levelo_inurba_marseille","lat":43.28271,"lon":5.35095,"is_reserved":false,"is_disabled":false,"rental_uris":{"android":"levelo://app?vid=1fd203b0-9f0a-4070-989f-90ca9f4f5935","ios":"levelo://app?vid=1fd203b0-9f0a-4070-989f-90ca9f4f5935"},"vehicle_type_id":"4","last_reported":1723223253,"current_range_meters":26000,"station_id":"ce4bhbp2rcd13ifvqerg","pricing_plan_id":"cebpf4jnsgd1na2vs0mg"},{"bike_id":"bf6503b5-5ada-4de1-ab06-9f2272997bfd","system_id":"levelo_inurba_marseille","lat":43.28273,"lon":5.35067,"is_reserved":false,"is_disabled":false,"rental_uris":{"android":"levelo://app?vid=bf6503b5-5ada-4de1-ab06-9f2272997bfd","ios":"levelo://app?vid=bf6503b5-5ada-4de1-ab06-9f2272997bfd"},"vehicle_type_id":"4","last_reported":1723223253,"current_range_meters":0,"station_id":"ce4bhbp2rcd13ifvqerg","pricing_plan_id":"cebpf4jnsgd1na2vs0mg"},{"bike_id":"49613b58-4196-49b9-9fba-20b3fdc28328","system_id":"levelo_inurba_marseille","lat":43.28269,"lon":5.35069,"is_reserved":false,"is_disabled":false,"rental_uris":{"android":"levelo://app?vid=49613b58-4196-49b9-9fba-20b3fdc28328","ios":"levelo://app?vid=49613b58-4196-49b9-9fba-20b3fdc28328"},"vehicle_type_id":"4","last_reported":1723223253,"current_range_meters":29200,"station_id":"ce4bhbp2rcd13ifvqerg","pricing_plan_id":"cebpf4jnsgd1na2vs0mg"},{"bike_id":"9b176bc2-0233-4230-b1d4-584a4759f7db","system_id":"levelo_inurba_marseille","lat":43.282744,"lon":5.350533,"is_reserved":false,"is_disabled":false,"rental_uris":{"android":"levelo://app?vid=9b176bc2-0233-4230-b1d4-584a4759f7db","ios":"levelo://app?vid=9b176bc2-0233-4230-b1d4-584a4759f7db"},"vehicle_type_id":"4","last_reported":1723223253,"current_range_meters":28000,"station_id":"ce4bhbp2rcd13ifvqerg","pricing_plan_id":"cebpf4jnsgd1na2vs0mg"},{"bike_id":"11d6c64f-bdd1-46a9-8a58-ec1986b3dff4","system_id":"levelo_inurba_marseille","lat":43.28254,"lon":5.35068,"is_reserved":false,"is_disabled":false,"rental_uris":{"android":"levelo://app?vid=11d6c64f-bdd1-46a9-8a58-ec1986b3dff4","ios":"levelo://app?vid=11d6c64f-bdd1-46a9-8a58-ec1986b3dff4"},"vehicle_type_id":"4","last_reported":1723223253,"current_range_meters":800,"station_id":"ce4bhbp2rcd13ifvqerg","pricing_plan_id":"cebpf4jnsgd1na2vs0mg"},{"bike_id":"108cb6f3-379e-4350-a0f7-0b9fcf4a24f7","system_id":"levelo_inurba_marseille","lat":43.28039,"lon":5.369297,"is_reserved":false,"is_disabled":false,"rental_uris":{"android":"levelo://app?vid=108cb6f3-379e-4350-a0f7-0b9fcf4a24f7","ios":"levelo://app?vid=108cb6f3-379e-4350-a0f7-0b9fcf4a24f7"},"vehicle_type_id":"4","last_reported":1723223253,"current_range_meters":11600,"station_id":"ce4bha12rcd13ifvqef0","pricing_plan_id":"cebpf4jnsgd1na2vs0mg"},{"bike_id":"d9794b71-3af7-41cb-8da1-adf5e78a545b","system_id":"levelo_inurba_marseille","lat":43.29041,"lon":5.399634,"is_reserved":false,"is_disabled":false,"rental_uris":{"android":"levelo://app?vid=d9794b71-3af7-41cb-8da1-adf5e78a545b","ios":"levelo://app?vid=d9794b71-3af7-41cb-8da1-adf5e78a545b"},"vehicle_type_id":"4","last_reported":1723223253,"current_range_meters":0,"station_id":"ce4bh392rcd13ifvqdm0","pricing_plan_id":"cebpf4jnsgd1na2vs0mg"},{"bike_id":"f6fdbfe6-994f-4306-9386-5febdcc9ab26","system_id":"levelo_inurba_marseille","lat":43.290412,"lon":5.399633,"is_reserved":false,"is_disabled":false,"rental_uris":{"android":"levelo://app?vid=f6fdbfe6-994f-4306-9386-5febdcc9ab26","ios":"levelo://app?vid=f6fdbfe6-994f-4306-9386-5febdcc9ab26"},"vehicle_type_id":"4","last_reported":1723223253,"current_range_meters":0,"station_id":"ce4bh392rcd13ifvqdm0","pricing_plan_id":"cebpf4jnsgd1na2vs0mg"},{"bike_id":"e3c36a62-245c-4b26-b90b-981fd2673c63","system_id":"levelo_inurba_marseille","lat":43.296263,"lon":5.40601,"is_reserved":false,"is_disabled":false,"rental_uris":{"android":"levelo://app?vid=e3c36a62-245c-4b26-b90b-981fd2673c63","ios":"levelo://app?vid=e3c36a62-245c-4b26-b90b-981fd2673c63"},"vehicle_type_id":"4","last_reported":1723223253,"current_range_meters":4000,"station_id":"ce4bh0h2rcd13ifvqd60","pricing_plan_id":"cebpf4jnsgd1na2vs0mg"},{"bike_id":"d86857e9-71b4-446b-b8f5-335a4ca0e942","system_id":"levelo_inurba_marseille","lat":43.296263,"lon":5.40601,"is_reserved":false,"is_disabled":false,"rental_uris":{"android":"levelo://app?vid=d86857e9-71b4-446b-b8f5-335a4ca0e942","ios":"levelo://app?vid=d86857e9-71b4-446b-b8f5-335a4ca0e942"},"vehicle_type_id":"4","last_reported":1723223253,"current_range_meters":16400,"station_id":"ce4bh0h2rcd13ifvqd60","pricing_plan_id":"cebpf4jnsgd1na2vs0mg"},{"bike_id":"f6724530-4bf2-4eaf-b1f0-638914e12ae3","system_id":"levelo_inurba_marseille","lat":43.284462,"lon":5.392121,"is_reserved":false,"is_disabled":false,"rental_uris":{"android":"levelo://app?vid=f6724530-4bf2-4eaf-b1f0-638914e12ae3","ios":"levelo://app?vid=f6724530-4bf2-4eaf-b1f0-638914e12ae3"},"vehicle_type_id":"4","last_reported":1723223253,"current_range_meters":800,"station_id":"ce4bhoh2rcd13ifvqh5g","pricing_plan_id":"cebpf4jnsgd1na2vs0mg"},{"bike_id":"58723910-f269-4c76-bd72-0f6c7a80f834","system_id":"levelo_inurba_marseille","lat":43.28573,"lon":5.394992,"is_reserved":false,"is_disabled":false,"rental_uris":{"android":"levelo://app?vid=58723910-f269-4c76-bd72-0f6c7a80f834","ios":"levelo://app?vid=58723910-f269-4c76-bd72-0f6c7a80f834"},"vehicle_type_id":"4","last_reported":1723223253,"current_range_meters":2400,"station_id":"ce4bh292rcd13ifvqdg0","pricing_plan_id":"cebpf4jnsgd1na2vs0mg"},{"bike_id":"527c4f4b-9d4c-45b8-bee0-132f16176db3","system_id":"levelo_inurba_marseille","lat":43.304188,"lon":5.412904,"is_reserved":false,"is_disabled":false,"rental_uris":{"android":"levelo://app?vid=527c4f4b-9d4c-45b8-bee0-132f16176db3","ios":"levelo://app?vid=527c4f4b-9d4c-45b8-bee0-132f16176db3"},