{"last_updated":1767222648,"ttl":60,"version":"2.2","data":{"bikes":[{"bike_id":"4db762e1-661b-4766-8eda-f3283dbe02e9","system_id":"levelo_inurba_marseille","lat":43.31258,"lon":5.36864,"is_reserved":false,"is_disabled":false,"rental_uris":{"android":"levelo://app?vid=4db762e1-661b-4766-8eda-f3283dbe02e9","ios":"levelo://app?vid=4db762e1-661b-4766-8eda-f3283dbe02e9"},"vehicle_type_id":"4","last_reported":1767222648,"current_range_meters":2800,"station_id":"ce4bgl92rcd13ifvqbq0","pricing_plan_id":"cebpf4jnsgd1na2vs0mg"},{"bike_id":"b79a9b04-e91b-4546-ad4d-0a29e8ee6c3a","system_id":"levelo_inurba_marseille","lat":43.27995,"lon":5.40015,"is_reserved":false,"is_disabled":false,"rental_uris":{"android":"levelo://app?vid=b79a9b04-e91b-4546-ad4d-0a29e8ee6c3a","ios":"levelo://app?vid=b79a9b04-e91b-4546-ad4d-0a29e8ee6c3a"},"vehicle_type_id":"4","last_reported":1767222648,"current_range_meters":2800,"station_id":"ce4bho92rcd13ifvqh4g","pricing_plan_id":"cebpf4jnsgd1na2vs0mg"},{"bike_id":"2ac273c3-42bf-4c60-9c15-2c0d048824d2","system_id":"levelo_inurba_marseille","lat":43.284768,"lon":5.48403,"is_reserved":false,"is_disabled":false,"rental_uris":{"android":"levelo://app?vid=2ac273c3-42bf-4c60-9c15-2c0d048824d2","ios":"levelo://app?vid=2ac273c3-42bf-4c60-9c15-2c0d048824d2"},"vehicle_type_id":"4","last_reported":1767222648,"current_range_meters":3200,"station_id":"","pricing_plan_id":"cebpf4jnsgd1na2vs0mg"},{"bike_id":"25c9549a-13af-40e9-9208-6d8a142663e5","system_id":"levelo_inurba_marseille","lat":43.31726,"lon":5.42396,"is_reserved":false,"is_disabled":false,"rental_uris":{"android":"levelo://app?vid=25c9549a-13af-40e9-9208-6d8a142663e5","ios":"levelo://app?vid=25c9549a-13af-40e9-9208-6d8a142663e5"},"vehicle_type_id":"4","last_reported":1767222648,"current_range_meters":3600,"station_id":"ce4bhp92rcd13ifvqhbg","pricing_plan_id":"cebpf4jnsgd1na2vs0mg"},{"bike_id":"7301577d-2578-4570-9f68-334d7b7895b2","system_id":"levelo_inurba_marseille","lat":43.29181,"lon":5.38731,"is_reserved":false,"is_disabled":false,"rental_uris":{"android":"levelo://app?vid=7301577d-2578-4570-9f68-334d7b7895b2","ios":"levelo://app?vid=7301577d-2578-4570-9f68-334d7b7895b2"},"vehicle_type_id":"4","last_reported":1767222648,"current_range_meters":3600,"station_id":"","pricing_plan_id":"cebpf4jnsgd1na2vs0mg"},{"bike_id":"893ba8a0-157f-4e5d-917e-08bfc2989854","system_id":"levelo_inurba_marseille","lat":43.30169,"lon":5.38903,"is_reserved":false,"is_disabled":false,"rental_uris":{"android":"levelo://app?vid=893ba8a0-157f-4e5d-917e-08bfc2989854","ios":"levelo://app?vid=893ba8a0-157f-4e5d-917e-08bfc2989854"},"vehicle_type_id":"4","last_reported":1767222648,"current_range_meters":3600,"station_id":"","pricing_plan_id":"cebpf4jnsgd1na2vs0mg"},{"bike_id":"1f986bde-e823-4547-a8eb-43be952db802","system_id":"levelo_inurba_marseille","lat":43.29442,"lon":5.37288,"is_reserved":false,"is_disabled":false,"rental_uris":{"android":"levelo://app?vid=1f986bde-e823-4547-a8eb-43be952db802","ios":"levelo://app?vid=1f986bde-e823-4547-a8eb-43be952db802"},"vehicle_type_id":"4","last_reported":1767222648,"current_range_meters":3600,"station_id":"","pricing_plan_id":"cebpf4jnsgd1na2vs0mg"},{"bike_id":"21c10b47-6258-4ed4-bb93-3effb75431f2","system_id":"levelo_inurba_marseille","lat":43.23776,"lon":5.36658,"is_reserved":false,"is_disabled":false,"rental_uris":{"android":"levelo://app?vid=21c10b47-6258-4ed4-bb93-3effb75431f2","ios":"levelo://app?vid=21c10b47-6258-4ed4-bb93-3effb75431f2"},"vehicle_type_id":"4","last_reported":1767222648,"current_range_meters":3600,"station_id":"st_d3nk18o9ro0c73en2l3g","pricing_plan_id":"cebpf4jnsgd1na2vs0mg"},{"bike_id":"3400d737-a32e-4dca-a00a-47ca201c9735","system_id":"levelo_inurba_marseille","lat":43.29543,"lon":5.42285,"is_reserved":false,"is_disabled":true,"rental_uris":{"android":"levelo://app?vid=3400d737-a32e-4dca-a00a-47ca201c9735","ios":"levelo://app?vid=3400d737-a32e-4dca-a00a-47ca201c9735"},"vehicle_type_id":"4","last_reported":1767222648,"current_range_meters":4000,"station_id":"ce4bhph2rcd13ifvqhdg","pricing_plan_id":"cebpf4jnsgd1na2vs0mg"},{"bike_id":"4d2c2342-a186-4d67-b605-144bd84ed365","system_id":"levelo_inurba_marseille","lat":43.29303,"lon":5.37464,"is_reserved":false,"is_disabled":false,"rental_uris":{"android":"levelo://app?vid=4d2c2342-a186-4d67-b605-144bd84ed365","ios":"levelo://app?vid=4d2c2342-a186-4d67-b605-144bd84ed365"},"vehicle_type_id":"4","last_reported":1767222648,"current_range_meters":4000,"station_id":"ce4bgi12rcd13ifvqb70","pricing_plan_id":"cebpf4jnsgd1na2vs0mg"},{"bike_id":"cac37c7e-5d3e-4784-9eff-f6fa7145bdb8","system_id":"levelo_inurba_marseille","lat":43.23953,"lon":5.36645,"is_reserved":false,"is_disabled":false,"rental_uris":{"android":"levelo://app?vid=cac37c7e-5d3e-4784-9eff-f6fa7145bdb8","ios":"levelo://app?vid=cac37c7e-5d3e-4784-9eff-f6fa7145bdb8"},"vehicle_type_id":"4","last_reported":1767222648,"current_range_meters":4400,"station_id":"ce4bhi12rcd13ifvqfp0","pricing_plan_id":"cebpf4jnsgd1na2vs0mg"},{"bike_id":"6f9087a9-63aa-4f55-a43b-8f834c8ecf29","system_id":"levelo_inurba_marseille","lat":43.29946,"lon":5.36527,"is_reserved":false,"is_disabled":false,"rental_uris":{"android":"levelo://app?vid=6f9087a9-63aa-4f55-a43b-8f834c8ecf29","ios":"levelo://app?vid=6f9087a9-63aa-4f55-a43b-8f834c8ecf29"},"vehicle_type_id":"4","last_reported":1767222648,"current_range_meters":4400,"station_id":"ce4bgm92rcd13ifvqbr0","pricing_plan_id":"cebpf4jnsgd1na2vs0mg"},{"bike_id":"7451e2f1-97cc-4a6a-824e-1c725c74e9d6","system_id":"levelo_inurba_marseille","lat":43.293656,"lon":5.381034,"is_reserved":false,"is_disabled":false,"rental_uris":{"android":"levelo://app?vid=7451e2f1-97cc-4a6a-824e-1c725c74e9d6","ios":"levelo://app?vid=7451e2f1-97cc-4a6a-824e-1c725c74e9d6"},"vehicle_type_id":"4","last_reported":1767222648,"current_range_meters":4400,"station_id":"","pricing_plan_id":"cebpf4jnsgd1na2vs0mg"},{"bike_id":"62bbb4f8-cd37-4703-914d-4c2cbb4345e1","system_id":"levelo_inurba_marseille","lat":43.28077,"lon":5.39649,"is_reserved":false,"is_disabled":false,"rental_uris":{"android":"levelo://app?vid=62bbb4f8-cd37-4703-914d-4c2cbb4345e1","ios":"levelo://app?vid=62bbb4f8-cd37-4703-914d-4c2cbb4345e1"},"vehicle_type_id":"4","last_reported":1767222648,"current_range_meters":4800,"station_id":"ce4bho12rcd13ifvqh2g","pricing_plan_id":"cebpf4jnsgd1na2vs0mg"},{"bike_id":"c3783211-0c40-4763-9f42-fcda85ffc0a0","system_id":"levelo_inurba_marseille","lat":43.25051,"lon":5.403585,"is_reserved":false,"is_disabled":false,"rental_uris":{"android":"levelo://app?vid=c3783211-0c40-4763-9f42-fcda85ffc0a0","ios":"levelo://app?vid=c3783211-0c40-4763-9f42-fcda85ffc0a0"},"vehicle_type_id":"4","last_reported":1767222648,"current_range_meters":4800,"station_id":"ce4bhlh2rcd13ifvqgig","pricing_plan_id":"cebpf4jnsgd1na2vs0mg"},{"bike_id":"742f1e99-972a-4415-9c07-2696da1383a1","system_id":"levelo_inurba_marseille","lat":43.29646,"lon":5.40587,"is_reserved":false,"is_disabled":false,"rental_uris":{"android":"levelo://app?vid=742f1e99-972a-4415-9c07-2696da1383a1","ios":"levelo://app?vid=742f1e99-972a-4415-9c07-2696da1383a1"},"vehicle_type_id":"4","last_reported":1767222648,"current_range_meters":5600,"station_id":"","pricing_plan_id":"cebpf4jnsgd1na2vs0mg"},{"bike_id":"7a5f590c-87af-4137-ab75-3e4395ccdfb1","system_id":"levelo_inurba_marseille","lat":43.284866,"lon":5.384137,"is_reserved":false,"is_disabled":false,"rental_uris":{"android":"levelo://app?vid=7a5f590c-87af-4137-ab75-3e4395ccdfb1","ios":"levelo://app?vid=7a5f590c-87af-4137-ab75-3e4395ccdfb1"},"vehicle_type_id":"4","last_reported":1767222648,"current_range_meters":5600,"station_id":"ce4bh512rcd13ifvqe3g","pricing_plan_id":"cebpf4jnsgd1na2vs0mg"},{"bike_id":"f4c65b6f-28a2-40a8-a428-1e8f3572a9dc","system_id":"levelo_inurba_marseille","lat":43.289,"lon":5.36184,"is_reserved":false,"is_disabled":false,"rental_uris":{"android":"levelo://app?vid=f4c65b6f-28a2-40a8-a428-1e8f3572a9dc","ios":"levelo://app?vid=f4c65b6f-28a2-40a8-a428-1e8f3572a9dc"},"vehicle_type_id":"4","last_reported":1767222648,"current_range_meters":5600,"station_id":"","pricing_plan_id":"cebpf4jnsgd1na2vs0mg"},{"bike_id":"2a8954ac-6156-406b-ae41-82ecb7a20a06","system_id":"levelo_inurba_marseille","lat":43.30759,"lon":5.43512,"is_reserved":false,"is_disabled":false,"rental_uris":{"android":"levelo://app?vid=2a8954ac-6156-406b-ae41-82ecb7a20a06","ios":"levelo://app?vid=2a8954ac-6156-406b-ae41-82ecb7a20a06"},"vehicle_type_id":"4","last_reported":1767222648,"current_range_meters":5600,"station_id":"","pricing_plan_id":"cebpf4jnsgd1na2vs0mg"},{"bike_id":"c2b69443-bbd5-4d10-9d30-b4aae281dfc1","system_id":"levelo_inurba_marseille","lat":43.307309,"lon":5.370979,"is_reserved":false,"is_disabled":false,"rental_uris":{"android":"levelo://app?vid=c2b69443-bbd5-4d10-9d30-b4aae281dfc1","ios":"levelo://app?vid=c2b69443-bbd5-4d10-9d30-b4aae281dfc1"},"vehicle_type_id":"4","last_reported":1767222648,"current_range_meters":6000,"station_id":"","pricing_plan_id":"cebpf4jnsgd1na2vs0mg"},{"bike_id":"3ae180a1-ad81-4fbd-8d8e-5122c1af76f4","system_id":"levelo_inurba_marseille","lat":43.337444,"lon":5.374475,"is_reserved":false,"is_disabled":false,"rental_uris":{"android":"levelo://app?vid=3ae180a1-ad81-4fbd-8d8e-5122c1af76f4","ios":"levelo://app?vid=3ae180a1-ad81-4fbd-8d8e-5122c1af76f4"},"vehicle_type_id":"4","last_reported":1767222648,"current_range_meters":6000,"station_id":"","pricing_plan_id":"cebpf4jnsgd1na2vs0mg"},{"bike_id":"a3577401-fd29-44f2-8995-0e5fa25bba73","system_id":"levelo_inurba_marseille","lat":43.309453,"lon":5.390215,"is_reserved":false,"is_disabled":false,"rental_uris":{"android":"levelo://app?vid=a3577401-fd29-44f2-8995-0e5fa25bba73","ios":"levelo://app?vid=a3577401-fd29-44f2-8995-0e5fa25bba73"},"vehicle_type_id":"4","last_reported":1767222648,"current_range_meters":6000,"station_id":"ce4bgup2rcd13ifvqco0","pricing_plan_id":"cebpf4jnsgd1na2vs0mg"},{"bike_id":"195d0622-d5d7-452d-b1a2-cb7d4c2d6722","system_id":"levelo_inurba_marseille","lat":43.24186,"lon":5.3974,"is_reserved":false,"is_disabled":false,"rental_uris":{"android":"levelo://app?vid=195d0622-d5d7-452d-b1a2-cb7d4c2d6722","ios":"levelo://app?vid=195d0622-d5d7-452d-b1a2-cb7d4c2d6722"},"vehicle_type_id":"4","last_reported":1767222648,"current_range_meters":6000,"station_id":"ce4bhn12rcd13ifvqgpg","pricing_plan_id":"cebpf4jnsgd1na2vs0mg"},{"bike_id":"32cca5aa-f31c-4dff-906d-d86d633f564f","system_id":"levelo_inurba_marseille","lat":43.22917,"lon":5.3541,"is_reserved":false,"is_disabled":false,"rental_uris":{"android":"levelo://app?vid=32cca5aa-f31c-4dff-906d-d86d633f564f","ios":"levelo://app?vid=32cca5aa-f31c-4dff-906d-d86d633f564f"},"vehicle_type_id":"4","last_reported":1767222648,"current_range_meters":6000,"station_id":"cpo3532slgdg3j2ikp40","pricing_plan_id":"cebpf4jnsgd1na2vs0mg"},{"bike_id":"baf8eeb7-e209-42c0-8213-8014ca078ed5","system_id":"levelo_inurba_marseille","lat":43.307443,"lon":5.418202,"is_reserved":false,"is_disabled":false,"rental_uris":{"android":"levelo://app?vid=baf8eeb7-e209-42c0-8213-8014ca078ed5","ios":"levelo://app?vid=baf8eeb7-e209-42c0-8213-8014ca078ed5"},"vehicle_type_id":"4","last_reported":1767222648,"current_range_meters":6000,"station_id":"","pricing_plan_id":"cebpf4jnsgd1na2vs0mg"},{"bike_id":"7c6af272-d854-4cac-a893-c6faf1234d18","system_id":"levelo_inurba_marseille","lat":43.27059,"lon":5.38301,"is_reserved":false,"is_disabled":false,"rental_uris":{"android":"levelo://app?vid=7c6af272-d854-4cac-a893-c6faf1234d18","ios":"levelo://app?vid=7c6af272-d854-4cac-a893-c6faf1234d18"},"vehicle_type_id":"4","last_reported":1767222648,"current_range_meters":6400,"station_id":"st_d3n2fo6cfp8s73cte1j0","pricing_plan_id":"cebpf4jnsgd1na2vs0mg"},{"bike_id":"ec5fae6d-47b5-4030-bf64-4af050af9ecb","system_id":"levelo_inurba_marseille","lat":43.30956,"lon":5.37802,"is_reserved":false,"is_disabled":false,"rental_uris":{"android":"levelo://app?vid=ec5fae6d-47b5-4030-bf64-4af050af9ecb","ios":"levelo://app?vid=ec5fae6d-47b5-4030-bf64-4af050af9ecb"},"vehicle_type_id":"4","last_reported":1767222648,"current_range_meters":6400,"station_id":"","pricing_plan_id":"cebpf4jnsgd1na2vs0mg"},{"bike_id":"553dc950-9a8c-463e-bd3c-210b3d4af814","system_id":"levelo_inurba_marseille","lat":43.29222,"lon":5.36056,"is_reserved":false,"is_disabled":true,"rental_uris":{"android":"levelo://app?vid=553dc950-9a8c-463e-bd3c-210b3d4af814","ios":"levelo://app?vid=553dc950-9a8c-463e-bd3c-210b3d4af814"},"vehicle_type_id":"4","last_reported":1767222648,"current_range_meters":6400,"station_id":"ce4bhbh2rcd13ifvqeqg","pricing_plan_id":"cebpf4jnsgd1na2vs0mg"},{"bike_id":"8948b666-b72d-4467-a9ed-39db870acea5","system_id":"levelo_inurba_marseille","lat":43.30801,"lon":5.39222,"is_reserved":false,"is_disabled":false,"rental_uris":{"android":"levelo://app?vid=8948b666-b72d-4467-a9ed-39db870acea5","ios":"levelo://app?vid=8948b666-b72d-4467-a9ed-39db870acea5"},"vehicle_type_id":"4","last_reported":1767222648,"current_range_meters":6800,"station_id":"","pricing_plan_id":"cebpf4jnsgd1na2vs0mg"},{"bike_id":"dc9feb7e-742c-4c15-83bb-7db4fa4848d4","system_id":"levelo_inurba_marseille","lat":43.31757,"lon":5.39019,"is_reserved":false,"is_disabled":false,"rental_uris":{"android":"levelo://app?vid=dc9feb7e-742c-4c15-83bb-7db4fa4848d4","ios":"levelo://app?vid=dc9feb7e-742c-4c15-83bb-7db4fa4848d4"},"vehicle_type_id":"4","last_reported":1767222648,"current_range_meters":6800,"station_id":"ce4bhqp2rcd13ifvqhng","pricing_plan_id":"cebpf4jnsgd1na2vs0mg"},{"bike_id":"aba56cc4-ac04-469f-af34-f017221c0700","system_id":"levelo_inurba_marseille","lat":43.30096,"lon":5.39066,"is_reserved":false,"is_disabled":false,"rental_uris":{"android":"levelo://app?vid=aba56cc4-ac04-469f-af34-f017221c0700","ios":"levelo://app?vid=aba56cc4-ac04-469f-af34-f017221c0700"},"vehicle_type_id":"4","last_reported":1767222648,"current_range_meters":6800,"station_id":"ce4bh192rcd13ifvqdb0","pricing_plan_id":"cebpf4jnsgd1na2vs0mg"},{"bike_id":"29bbd316-a3ba-4fba-9255-99b4397329c1","system_id":"levelo_inurba_marseille","lat":43.249548,"lon":5.404873,"is_reserved":false,"is_disabled":false,"rental_uris":{"android":"levelo://app?vid=29bbd316-a3ba-4fba-9255-99b4397329c1","ios":"levelo://app?vid=29bbd316-a3ba-4fba-9255-99b4397329c1"},"vehicle_type_id":"4","last_reported":1767222648,"current_range_meters":6800,"station_id":"st_d2ngiaodas8pm72gd1h0","pricing_plan_id":"cebpf4jnsgd1na2vs0mg"},{"bike_id":"e973bed7-e75a-4b88-bb85-a8ec730da809","system_id":"levelo_inurba_marseille","lat":43.29631,"lon":5.37742,"is_reserved":false,"is_disabled":false,"rental_uris":{"android":"levelo://app?vid=e973bed7-e75a-4b88-bb85-a8ec730da809","ios":"levelo://app?vid=e973bed7-e75a-4b88-bb85-a8ec730da809"},"vehicle_type_id":"4","last_reported":1767222648,"current_range_meters":6800,"station_id":"ce4bgi92rcd13ifvqb90","pricing_plan_id":"cebpf4jnsgd1na2vs0mg"},{"bike_id":"996a750a-2eae-42cb-a184-e2623e82e719","system_id":"levelo_inurba_marseille","lat":43.289214,"lon":5.384106,"is_reserved":false,"is_disabled":false,"rental_uris":{"android":"levelo://app?vid=996a750a-2eae-42cb-a184-e2623e82e719","ios":"levelo://app?vid=996a750a-2eae-42cb-a184-e2623e82e719"},"vehicle_type_id":"4","last_reported":1767222648,"current_range_meters":6800,"station_id":"ce4bh612rcd13ifvqe6g","pricing_plan_id":"cebpf4jnsgd1na2vs0mg"},{"bike_id":"efd33062-2cef-445f-af98-648f578e9c2a","system_id":"levelo_inurba_marseille","lat":43.32627,"lon":5.41991,"is_reserved":false,"is_disabled":false,"rental_uris":{"android":"levelo://app?vid=efd33062-2cef-445f-af98-648f578e9c2a","ios":"levelo://app?vid=efd33062-2cef-445f-af98-648f578e9c2a"},"vehicle_type_id":"4","last_reported":1767222648,"current_range_meters":7200,"station_id":"","pricing_plan_id":"cebpf4jnsgd1na2vs0mg"},{"bike_id":"9cf20d61-ddfa-467e-90ea-ddf7859b95f0","system_id":"levelo_inurba_marseille","lat":43.30375,"lon":5.42484,"is_reserved":false,"is_disabled":false,"rental_uris":{"android":"levelo://app?vid=9cf20d61-ddfa-467e-90ea-ddf7859b95f0","ios":"levelo://app?vid=9cf20d61-ddfa-467e-90ea-ddf7859b95f0"},"vehicle_type_id":"4","last_reported":1767222648,"current_range_meters":7200,"station_id":"ce4bhoh2rcd13ifvqh6g","pricing_plan_id":"cebpf4jnsgd1na2vs0mg"},{"bike_id":"dce28840-1b59-4930-917a-12d88071d00f","system_id":"levelo_inurba_marseille","lat":43.28568,"lon":5.44131,"is_reserved":false,"is_disabled":false,"rental_uris":{"android":"levelo://app?vid=dce28840-1b59-4930-917a-12d88071d00f","ios":"levelo://app?vid=dce28840-1b59-4930-917a-12d88071d00f"},"vehicle_type_id":"4","last_reported":1767222648,"current_range_meters":7200,"station_id":"st_d3j3df2ikq2c7380ej80","pricing_plan_id":"cebpf4jnsgd1na2vs0mg"},{"bike_id":"06c4d338-d931-4d47-bc90-4f996833d006","system_id":"levelo_inurba_marseille","lat":43.27181,"lon":5.390489,"is_reserved":false,"is_disabled":false,"rental_uris":{"android":"levelo://app?vid=06c4d338-d931-4d47-bc90-4f996833d006","ios":"levelo://app?vid=06c4d338-d931-4d47-bc90-4f996833d006"},"vehicle_type_id":"4","last_reported":1767222648,"current_range_meters":7200,"station_id":"ce4bhhp2rcd13ifvqfm0","pricing_plan_id":"cebpf4jnsgd1na2vs0mg"},{"bike_id":"7c20e148-2a07-439c-8007-95ff3dd732b8","system_id":"levelo_inurba_marseille","lat":43.21204,"lon":5.35079,"is_reserved":false,"is_disabled":true,"rental_uris":{"android":"levelo://app?vid=7c20e148-2a07-439c-8007-95ff3dd732b8","ios":"levelo://app?vid=7c20e148-2a07-439c-8007-95ff3dd732b8"},"vehicle_type_id":"4","last_reported":1767222648,"current_range_meters":7200,"station_id":"st_cvj6sg6p6f1abm77japg","pricing_plan_id":"cebpf4jnsgd1na2vs0mg"},{"bike_id":"a274e1f3-90e8-4548-9a2a-4f53c59abc4e","system_id":"levelo_inurba_marseille","lat":43.31733,"lon":5.40542,"is_reserved":false,"is_disabled":true,"rental_uris":{"android":"levelo://app?vid=a274e1f3-90e8-4548-9a2a-4f53c59abc4e","ios":"levelo://app?vid=a274e1f3-90e8-4548-9a2a-4f53c59abc4e"},"vehicle_type_id":"4","last_reported":1767222648,"current_range_meters":7200,"station_id":"ce4bh012rcd13ifvqd00","pricing_plan_id":"cebpf4jnsgd1na2vs0mg"},{"bike_id":"0fa76090-b264-4d7f-a0bc-7de1e50f19da","system_id":"levelo_inurba_marseille","lat":43.28023,"lon":5.40446,"is_reserved":false,"is_disabled":false,"rental_uris":{"android":"levelo://app?vid=0fa76090-b264-4d7f-a0bc-7de1e50f19da","ios":"levelo://app?vid=0fa76090-b264-4d7f-a0bc-7de1e50f19da"},"vehicle_type_id":"4","last_reported":1767222648,"current_range_meters":7200,"station_id":"","pricing_plan_id":"cebpf4jnsgd1na2vs0mg"},{"bike_id":"78ed77cb-47f0-4c82-bf8a-f958576ec953","system_id":"levelo_inurba_marseille","lat":43.28167,"lon":5.42632,"is_reserved":false,"is_disabled":false,"rental_uris":{"android":"levelo://app?vid=78ed77cb-47f0-4c82-bf8a-f958576ec953","ios":"levelo://app?vid=78ed77cb-47f0-4c82-bf8a-f958576ec953"},"vehicle_type_id":"4","last_reported":1767222648,"current_range_meters":8000,"station_id":"ce4bhnh2rcd13ifvqgug","pricing_plan_id":"cebpf4jnsgd1na2vs0mg"},{"bike_id":"4a1beb8d-47c8-4be5-9d26-218abc6be083","system_id":"levelo_inurba_marseille","lat":43.3061,"lon":5.37227,"is_reserved":false,"is_disabled":false,"rental_uris":{"android":"levelo://app?vid=4a1beb8d-47c8-4be5-9d26-218abc6be083","ios":"levelo://app?vid=4a1beb8d-47c8-4be5-9d26-218abc6be083"},"vehicle_type_id":"4","last_reported":1767222648,"current_range_meters":8000,"station_id":"ce4bgqh2rcd13ifvqc4g","pricing_plan_id":"cebpf4jnsgd1na2vs0mg"},{"bike_id":"149a94e7-8065-4440-a1ab-1ba416a8f181","system_id":"levelo_inurba_marseille","lat":43.285,"lon":5.48378,"is_reserved":false,"is_disabled":false,"rental_uris":{"android":"levelo://app?vid=149a94e7-8065-4440-a1ab-1ba416a8f181","ios":"levelo://app?vid=149a94e7-8065-4440-a1ab-1ba416a8f181"},"vehicle_type_id":"4","last_reported":1767222648,"current_range_meters":8000,"station_id":"","pricing_plan_id":"cebpf4jnsgd1na2vs0mg"},{"bike_id":"09adfd55-e7de-4b70-a324-ef7f9479d78f","system_id":"levelo_inurba_marseille","lat":43.29018,"lon":5.38127,"is_reserved":false,"is_disabled":false,"rental_uris":{"android":"levelo://app?vid=09adfd55-e7de-4b70-a324-ef7f9479d78f","ios":"levelo://app?vid=09adfd55-e7de-4b70-a324-ef7f9479d78f"},"vehicle_type_id":"4","last_reported":1767222648,"current_range_meters":8000,"station_id":"ce4bh4p2rcd13ifvqe1g","pricing_plan_id":"cebpf4jnsgd1na2vs0mg"},{"bike_id":"b9f5bb9a-d9aa-4714-a9ae-ceaed3ab533e","system_id":"levelo_inurba_marseille","lat":43.296518,"lon":5.380555,"is_reserved":false,"is_disabled":false,"rental_uris":{"android":"levelo://app?vid=b9f5bb9a-d9aa-4714-a9ae-ceaed3ab533e","ios":"levelo://app?vid=b9f5bb9a-d9aa-4714-a9ae-ceaed3ab533e"},"vehicle_type_id":"4","last_reported":1767222648,"current_range_meters":8000,"station_id":"","pricing_plan_id":"cebpf4jnsgd1na2vs0mg"},{"bike_id":"9a2077a2-cebc-468c-82f9-fecda68a9ec3","system_id":"levelo_inurba_marseille","lat":43.2949,"lon":5.40896,"is_reserved":false,"is_disabled":false,"rental_uris":{"android":"levelo://app?vid=9a2077a2-cebc-468c-82f9-fecda68a9ec3","ios":"levelo://app?vid=9a2077a2-cebc-468c-82f9-fecda68a9ec3"},"vehicle_type_id":"4","last_reported":1767222648,"current_range_meters":8000,"station_id":"","pricing_plan_id":"cebpf4jnsgd1na2vs0mg"},{"bike_id":"0c9ca243-897c-4d38-8127-8933d39eb60f","system_id":"levelo_inurba_marseille","lat":43.2887,"lon":5.42518,"is_reserved":false,"is_disabled":false,"rental_uris":{"android":"levelo://app?vid=0c9ca243-897c-4d38-8127-8933d39eb60f","ios":"levelo://app?vid=0c9ca243-897c-4d38-8127-8933d39eb60f"},"vehicle_type_id":"4","last_reported":1767222648,"current_range_meters":8000,"station_id":"st_d3b462108ojc7389ooeg","pricing_plan_id":"cebpf4jnsgd1na2vs0mg"},{"bike_id":"d524be35-c5f1-4e43-98a4-f3f4cb1f434f","system_id":"levelo_inurba_marseille","lat":43.27837,"lon":5.39207,"is_reserved":false,"is_disabled":false,"rental_uris":{"android":"levelo://app?vid=d524be35-c5f1-4e43-98a4-f3f4cb1f434f","ios":"levelo://app?vid=d524be35-c5f1-4e43-98a4-f3f4cb1f434f"},"vehicle_type_id":"4","last_reported":1767222648,"current_range_meters":8000,"station_id":"ce4bhjp2rcd13ifvqga0","pricing_plan_id":"cebpf4jnsgd1na2vs0mg"},{"bike_id":"61238b39-2143-4371-91d0-32b97b91a9ed","system_id":"levelo_inurba_marseille","lat":43.28263,"lon":5.35068,"is_reserved":false,"is_disabled":false,"rental_uris":{"android":"levelo://app?vid=61238b39-2143-4371-91d0-32b97b91a9ed","ios":"levelo://app?vid=61238b39-2143-4371-91d0-32b97b91a9ed"},"vehicle_type_id":"4","last_reported":1767222648,"current_range_meters":8400,"station_id":"ce4bhbp2rcd13ifvqerg","pricing_plan_id":"cebpf4jnsgd1na2vs0mg"},{"bike_id":"9cb5ae99-5884-40a4-9c3b-7a9c989d5f03","system_id":"levelo_inurba_marseille","lat":43.28482,"lon":5.38459,"is_reserved":false,"is_disabled":false,"rental_uris":{"android":"levelo://app?vid=9cb5ae99-5884-40a4-9c3b-7a9c989d5f03","ios":"levelo://app?vid=9cb5ae99-5884-40a4-9c3b-7a9c989d5f03"},"vehicle_type_id":"4","last_reported":1767222648,"current_range_meters":8400,"station_id":"ce4bh512rcd13ifvqe3g","pricing_plan_id":"cebpf4jnsgd1na2vs0mg"},{"bike_id":"181d5432-364a-418f-9ec0-43aa1234abd9","system_id":"levelo_inurba_marseille","lat":43.29518,"lon":5.39058,"is_reserved":false,"is_disabled":false,"rental_uris":{"android":"levelo://app?vid=181d5432-364a-418f-9ec0-43aa1234abd9","ios":"levelo://app?vid=181d5432-364a-418f-9ec0-43aa1234abd9"},"vehicle_type_id":"4","last_reported":1767222648,"current_range_meters":8400,"station_id":"ce4bh3p2rcd13ifvqdp0","pricing_plan_id":"cebpf4jnsgd1na2vs0mg"},{"bike_id":"1485075b-1bb5-48d2-b0e5-402379126b05","system_id":"levelo_inurba_marseille","lat":43.29866,"lon":5.38093,"is_reserved":false,"is_disabled":false,"rental_uris":{"android":"levelo://app?vid=1485075b-1bb5-48d2-b0e5-402379126b05","ios":"levelo://app?vid=1485075b-1bb5-48d2-b0e5-402379126b05"},"vehicle_type_id":"4","last_reported":1767222648,"current_range_meters":8400,"station_id":"","pricing_plan_id":"cebpf4jnsgd1na2vs0mg"},{"bike_id":"19aaca0d-bef4-4229-bd04-f3b6603c8a89","system_id":"levelo_inurba_marseille","lat":43.30387,"lon":5.42656,"is_reserved":false,"is_disabled":false,"rental_uris":{"android":"levelo://app?vid=19aaca0d-bef4-4229-bd04-f3b6603c8a89","ios":"levelo://app?vid=19aaca0d-bef4-4229-bd04-f3b6603c8a89"},"vehicle_type_id":"4","last_reported":1767222648,"current_range_meters":8400,"station_id":"","pricing_plan_id":"cebpf4jnsgd1na2vs0mg"},{"bike_id":"5265762e-9468-4f8e-963d-e1d647f4d72d","system_id":"levelo_inurba_marseille","lat":43.337444,"lon":5.374475,"is_reserved":false,"is_disabled":false,"rental_uris":{"android":"levelo://app?vid=5265762e-9468-4f8e-963d-e1d647f4d72d","ios":"levelo://app?vid=5265762e-9468-4f8e-963d-e1d647f4d72d"},"vehicle_type_id":"4","last_reported":1767222648,"current_range_meters":8800,"station_id":"","pricing_plan_id":"cebpf4jnsgd1na2vs0mg"},{"bike_id":"90dac6f2-4e58-4623-b929-4f8d06ec1c31","system_id":"levelo_inurba_marseille","lat":43.28518,"lon":5.42529,"is_reserved":false,"is_disabled":false,"rental_uris":{"android":"levelo://app?vid=90dac6f2-4e58-4623-b929-4f8d06ec1c31","ios":"levelo://app?vid=90dac6f2-4e58-4623-b929-4f8d06ec1c31"},"vehicle_type_id":"4","last_reported":1767222648,"current_range_meters":8800,"station_id":"","pricing_plan_id":"cebpf4jnsgd1na2vs0mg"},{"bike_id":"e93c83d5-bafc-41ab-b80f-422d8d8d6d2a","system_id":"levelo_inurba_marseille","lat":43.26848,"lon":5.40078,"is_reserved":false,"is_disabled":false,"rental_uris":{"android":"levelo://app?vid=e93c83d5-bafc-41ab-b80f-422d8d8d6d2a","ios":"levelo://app?vid=e93c83d5-bafc-41ab-b80f-422d8d8d6d2a"},"vehicle_type_id":"4","last_reported":1767222648,"current_range_meters":8800,"station_id":"","pricing_plan_id":"cebpf4jnsgd1na2vs0mg"},{"bike_id":"d41a2b21-5fd7-4e64-b523-8d389f864382","system_id":"levelo_inurba_marseille","lat":43.32344,"lon":5.38499,"is_reserved":false,"is_disabled":false,"rental_uris":{"android":"levelo://app?vid=d41a2b21-5fd7-4e64-b523-8d389f864382","ios":"levelo://app?vid=d41a2b21-5fd7-4e64-b523-8d389f864382"},"vehicle_type_id":"4","last_reported":1767222648,"current_range_meters":8800,"station_id":"st_d45171o9ee8s73djdqug","pricing_plan_id":"cebpf4jnsgd1na2vs0mg"},{"bike_id":"8c9f703d-219a-46f5-bb1d-6f7b59f09c24","system_id":"levelo_inurba_marseille","lat":43.30161,"lon":5.37362,"is_reserved":false,"is_disabled":false,"rental_uris":{"android":"levelo://app?vid=8c9f703d-219a-46f5-bb1d-6f7b59f09c24","ios":"levelo://app?vid=8c9f703d-219a-46f5-bb1d-6f7b59f09c24"},"vehicle_type_id":"4","last_reported":1767222648,"current_range_meters":8800,"station_id":"ce4bgs92rcd13ifvqcc0","pricing_plan_id":"cebpf4jnsgd1na2vs0mg"},{"bike_id":"96657df9-7d68-4cd8-9f06-a5e501866c49","system_id":"levelo_inurba_marseille","lat":43.29308,"lon":5.37582,"is_reserved":false,"is_disabled":false,"rental_uris":{"android":"levelo://app?vid=96657df9-7d68-4cd8-9f06-a5e501866c49","ios":"levelo://app?vid=96657df9-7d68-4cd8-9f06-a5e501866c49"},"vehicle_type_id":"4","last_reported":1767222648,"current_range_meters":8800,"station_id":"","pricing_plan_id":"cebpf4jnsgd1na2vs0mg"},{"bike_id":"650cf425-f87e-4c30-9156-354d5fef94cd","system_id":"levelo_inurba_marseille","lat":43.30131,"lon":5.36752,"is_reserved":false,"is_disabled":false,"rental_uris":{"android":"levelo://app?vid=650cf425-f87e-4c30-9156-354d5fef94cd","ios":"levelo://app?vid=650cf425-f87e-4c30-9156-354d5fef94cd"},"vehicle_type_id":"4","last_reported":1767222648,"current_range_meters":8800,"station_id":"","pricing_plan_id":"cebpf4jnsgd1na2vs0mg"},{"bike_id":"9d0a72c1-4d35-4683-bce1-77ea14d9db1b","system_id":"levelo_inurba_marseille","lat":43.26198,"lon":5.3745,"is_reserved":false,"is_disabled":false,"rental_uris":{"android":"levelo://app?vid=9d0a72c1-4d35-4683-bce1-77ea14d9db1b","ios":"levelo://app?vid=9d0a72c1-4d35-4683-bce1-77ea14d9db1b"},"vehicle_type_id":"4","last_reported":1767222648,"current_range_meters":8800,"station_id":"ce4bhgp2rcd13ifvqfc0","pricing_plan_id":"cebpf4jnsgd1na2vs0mg"},{"bike_id":"b7142933-5bc0-4beb-a4ab-a3152aae03ce","system_id":"levelo_inurba_marseille","lat":43.26038,"lon":5.41736,"is_reserved":false,"is_disabled":false,"rental_uris":{"android":"levelo://app?vid=b7142933-5bc0-4beb-a4ab-a3152aae03ce","ios":"levelo://app?vid=b7142933-5bc0-4beb-a4ab-a3152aae03ce"},"vehicle_type_id":"4","last_reported":1767222648,"current_range_meters":8800,"station_id":"","pricing_plan_id":"cebpf4jnsgd1na2vs0mg"},{"bike_id":"6c64f274-0bd3-4e0d-9786-807cc26b1015","system_id":"levelo_inurba_marseille","lat":43.30748,"lon":5.42453,"is_reserved":false,"is_disabled":false,"rental_uris":{"android":"levelo://app?vid=6c64f274-0bd3-4e0d-9786-807cc26b1015","ios":"levelo://app?vid=6c64f274-0bd3-4e0d-9786-807cc26b1015"},"vehicle_type_id":"4","last_reported":1767222648,"current_range_meters":8800,"station_id":"st_cvj6ca6bvosntc0bfgr0","pricing_plan_id":"cebpf4jnsgd1na2vs0mg"},{"bike_id":"a6f35619-2f0f-46db-aa0a-b577e41ad41f","system_id":"levelo_inurba_marseille","lat":43.24071,"lon":5.37755,"is_reserved":false,"is_disabled":false,"rental_uris":{"android":"levelo://app?vid=a6f35619-2f0f-46db-aa0a-b577e41ad41f","ios":"levelo://app?vid=a6f35619-2f0f-46db-aa0a-b577e41ad41f"},"vehicle_type_id":"4","last_reported":1767222648,"current_range_meters":9200,"station_id":"ce4bhnp2rcd13ifvqgvg","pricing_plan_id":"cebpf4jnsgd1na2vs0mg"},{"bike_id":"4372a42a-b334-4e8f-9141-9b6d15dd3e03","system_id":"levelo_inurba_marseille","lat":43.2849,"lon":5.48386,"is_reserved":false,"is_disabled":false,"rental_uris":{"android":"levelo://app?vid=4372a42a-b334-4e8f-9141-9b6d15dd3e03","ios":"levelo://app?vid=4372a42a-b334-4e8f-9141-9b6d15dd3e03"},"vehicle_type_id":"4","last_reported":1767222648,"current_range_meters":9200,"station_id":"","pricing_plan_id":"cebpf4jnsgd1na2vs0mg"},{"bike_id":"cf61d156-dac6-4f0e-b382-70446db78ff3","system_id":"levelo_inurba_marseille","lat":43.32385,"lon":5.36727,"is_reserved":false,"is_disabled":false,"rental_uris":{"android":"levelo://app?vid=cf61d156-dac6-4f0e-b382-70446db78ff3","ios":"levelo://app?vid=cf61d156-dac6-4f0e-b382-70446db78ff3"},"vehicle_type_id":"4","last_reported":1767222648,"current_range_meters":9200,"station_id":"","pricing_plan_id":"cebpf4jnsgd1na2vs0mg"},{"bike_id":"1e979309-d823-4aaf-b851-f1be8461cefe","system_id":"levelo_inurba_marseille","lat":43.28478,"lon":5.48397,"is_reserved":false,"is_disabled":false,"rental_uris":{"android":"levelo://app?vid=1e979309-d823-4aaf-b851-f1be8461cefe","ios":"levelo://app?vid=1e979309-d823-4aaf-b851-f1be8461cefe"},"vehicle_type_id":"4","last_reported":1767222648,"current_range_meters":9200,"station_id":"st_d3svhcjqgbts73a3dn0g","pricing_plan_id":"cebpf4jnsgd1na2vs0mg"},{"bike_id":"1f5e6030-7683-49ad-acd1-2bd236b74619","system_id":"levelo_inurba_marseille","lat":43.28612,"lon":5.39868,"is_reserved":false,"is_disabled":false,"rental_uris":{"android":"levelo://app?vid=1f5e6030-7683-49ad-acd1-2bd236b74619","ios":"levelo://app?vid=1f5e6030-7683-49ad-acd1-2bd236b74619"},"vehicle_type_id":"4","last_reported":1767222648,"current_range_meters":9200,"station_id":"st_d4a7ka997mjs738ck50g","pricing_plan_id":"cebpf4jnsgd1na2vs0mg"},{"bike_id":"94f95b46-e6bf-4a80-a009-33ee47ec8d03","system_id":"levelo_inurba_marseille","lat":43.29624,"lon":5.37395,"is_reserved":false,"is_disabled":false,"rental_uris":{"android":"levelo://app?vid=94f95b46-e6bf-4a80-a009-33ee47ec8d03","ios":"levelo://app?vid=94f95b46-e6bf-4a80-a009-33ee47ec8d03"},"vehicle_type_id":"4","last_reported":1767222648,"current_range_meters":9200,"station_id":"","pricing_plan_id":"cebpf4jnsgd1na2vs0mg"},{"bike_id":"501483bf-b183-47b2-951d-2cf6e5b620c4","system_id":"levelo_inurba_marseille","lat":43.29606,"lon":5.38106,"is_reserved":false,"is_disabled":false,"rental_uris":{"android":"levelo://app?vid=501483bf-b183-47b2-951d-2cf6e5b620c4","ios":"levelo://app?vid=501483bf-b183-47b2-951d-2cf6e5b620c4"},"vehicle_type_id":"4","last_reported":1767222648,"current_range_meters":9200,"station_id":"ce4bgl12rcd13ifvqbo0","pricing_plan_id":"cebpf4jnsgd1na2vs0mg"},{"bike_id":"1ca28f2e-b31b-49cc-82b6-dc19ed0a9501","system_id":"levelo_inurba_marseille","lat":43.28731,"lon":5.39991,"is_reserved":false,"is_disabled":false,"rental_uris":{"android":"levelo://app?vid=1ca28f2e-b31b-49cc-82b6-dc19ed0a9501","ios":"levelo://app?vid=1ca28f2e-b31b-49cc-82b6-dc19ed0a9501"},"vehicle_type_id":"4","last_reported":1767222648,"current_range_meters":9200,"station_id":"ce4bho92rcd13ifvqh3g","pricing_plan_id":"cebpf4jnsgd1na2vs0mg"},{"bike_id":"2834190f-d6dd-4fd4-ab9b-c9a4d2c5bac0","system_id":"levelo_inurba_marseille","lat":43.24071,"lon":5.377655,"is_reserved":false,"is_disabled":false,"rental_uris":{"android":"levelo://app?vid=2834190f-d6dd-4fd4-ab9b-c9a4d2c5bac0","ios":"levelo://app?vid=2834190f-d6dd-4fd4-ab9b-c9a4d2c5bac0"},"vehicle_type_id":"4","last_reported":1767222648,"current_range_meters":9600,"station_id":"ce4bhnp2rcd13ifvqgvg","pricing_plan_id":"cebpf4jnsgd1na2vs0mg"},{"bike_id":"3282aea1-9bed-44e6-a833-eea50b551ac8","system_id":"levelo_inurba_marseille","lat":43.26969,"lon":5.38919,"is_reserved":false,"is_disabled":false,"rental_uris":{"android":"levelo://app?vid=3282aea1-9bed-44e6-a833-eea50b551ac8","ios":"levelo://app?vid=3282aea1-9bed-44e6-a833-eea50b551ac8"},"vehicle_type_id":"4","last_reported":1767222648,"current_range_meters":9600,"station_id":"ce4bhhh2rcd13ifvqfl0","pricing_plan_id":"cebpf4jnsgd1na2vs0mg"},{"bike_id":"8fa53ddb-80a9-4b81-a17d-6b07554edef4","system_id":"levelo_inurba_marseille","lat":43.28474,"lon":5.48396,"is_reserved":false,"is_disabled":false,"rental_uris":{"android":"levelo://app?vid=8fa53ddb-80a9-4b81-a17d-6b07554edef4","ios":"levelo://app?vid=8fa53ddb-80a9-4b81-a17d-6b07554edef4"},"vehicle_type_id":"4","last_reported":1767222648,"current_range_meters":9600,"station_id":"st_d3svhcjqgbts73a3dn0g","pricing_plan_id":"cebpf4jnsgd1na2vs0mg"},{"bike_id":"a02fb672-5bdf-46c8-9fc1-e8fcbc8dc4d2","system_id":"levelo_inurba_marseille","lat":43.303199,"lon":5.386564,"is_reserved":false,"is_disabled":false,"rental_uris":{"android":"levelo://app?vid=a02fb672-5bdf-46c8-9fc1-e8fcbc8dc4d2","ios":"levelo://app?vid=a02fb672-5bdf-46c8-9fc1-e8fcbc8dc4d2"},"vehicle_type_id":"4","last_reported":1767222648,"current_range_meters":9600,"station_id":"","pricing_plan_id":"cebpf4jnsgd1na2vs0mg"},{"bike_id":"d285cd77-c7b4-4ad4-ad28-ed6edfeaa990","system_id":"levelo_inurba_marseille","lat":43.29599,"lon":5.38123,"is_reserved":false,"is_disabled":true,"rental_uris":{"android":"levelo://app?vid=d285cd77-c7b4-4ad4-ad28-ed6edfeaa990","ios":"levelo://app?vid=d285cd77-c7b4-4ad4-ad28-ed6edfeaa990"},"vehicle_type_id":"4","last_reported":1767222648,"current_range_meters":9600,"station_id":"ce4bgl12rcd13ifvqbo0","pricing_plan_id":"cebpf4jnsgd1na2vs0mg"},{"bike_id":"d49fd2c9-dca5-4864-87e0-359520dd27b8","system_id":"levelo_inurba_marseille","lat":43.26142,"lon":5.39736,"is_reserved":false,"is_disabled":false,"rental_uris":{"android":"levelo://app?vid=d49fd2c9-dca5-4864-87e0-359520dd27b8","ios":"levelo://app?vid=d49fd2c9-dca5-4864-87e0-359520dd27b8"},"vehicle_type_id":"4","last_reported":1767222648,"current_range_meters":9600,"station_id":"","pricing_plan_id":"cebpf4jnsgd1na2vs0mg"},{"bike_id":"f297e1d0-d6d1-470d-832a-7cfd1d704b5f","system_id":"levelo_inurba_marseille","lat":43.26954,"lon":5.39311,"is_reserved":false,"is_disabled":false,"rental_uris":{"android":"levelo://app?vid=f297e1d0-d6d1-470d-832a-7cfd1d704b5f","ios":"levelo://app?vid=f297e1d0-d6d1-470d-832a-7cfd1d704b5f"},"vehicle_type_id":"4","last_reported":1767222648,"current_range_meters":9600,"station_id":"","pricing_plan_id":"cebpf4jnsgd1na2vs0mg"},{"bike_id":"fbdeeb8a-4fdb-448f-ad67-296f8a77f57b","system_id":"levelo_inurba_marseille","lat":43.288447,"lon":5.393242,"is_reserved":false,"is_disabled":false,"rental_uris":{"android":"levelo://app?vid=fbdeeb8a-4fdb-448f-ad67-296f8a77f57b","ios":"levelo://app?vid=fbdeeb8a-4fdb-448f-ad67-296f8a77f57b"},"vehicle_type_id":"4","last_reported":1767222648,"current_range_meters":9600,"station_id":"ce4bh2p2rcd13ifvqdi0","pricing_plan_id":"cebpf4jnsgd1na2vs0mg"},{"bike_id":"cb433141-825a-49cd-bbee-623c4e5c0fcd","system_id":"levelo_inurba_marseille","lat":43.29754,"lon":5.42781,"is_reserved":false,"is_disabled":false,"rental_uris":{"android":"levelo://app?vid=cb433141-825a-49cd-bbee-623c4e5c0fcd","ios":"levelo://app?vid=cb433141-825a-49cd-bbee-623c4e5c0fcd"},"vehicle_type_id":"4","last_reported":1767222648,"current_range_meters":9600,"station_id":"st_d3md5207bmas73dh9klg","pricing_plan_id":"cebpf4jnsgd1na2vs0mg"},{"bike_id":"5aeb6241-cfc5-405d-9a57-069e20b1ea87","system_id":"levelo_inurba_marseille","lat":43.287,"lon":5.38668,"is_reserved":false,"is_disabled":false,"rental_uris":{"android":"levelo://app?vid=5aeb6241-cfc5-405d-9a57-069e20b1ea87","ios":"levelo://app?vid=5aeb6241-cfc5-405d-9a57-069e20b1ea87"},"vehicle_type_id":"4","last_reported":1767222648,"current_range_meters":10000,"station_id":"ce4bh492rcd13ifvqdug","pricing_plan_id":"cebpf4jnsgd1na2vs0mg"},{"bike_id":"4b33b5cb-7bec-4712-9fcc-36239248ffed","system_id":"levelo_inurba_marseille","lat":43.271314,"lon":5.392445,"is_reserved":false,"is_disabled":false,"rental_uris":{"android":"levelo://app?vid=4b33b5cb-7bec-4712-9fcc-36239248ffed","ios":"levelo://app?vid=4b33b5cb-7bec-4712-9fcc-36239248ffed"},"vehicle_type_id":"4","last_reported":1767222648,"current_range_meters":10000,"station_id":"","pricing_plan_id":"cebpf4jnsgd1na2vs0mg"},{"bike_id":"cbca4d7a-b018-483f-ae5c-907a8493d20c","system_id":"levelo_inurba_marseille","lat":43.29517,"lon":5.37501,"is_reserved":false,"is_disabled":false,"rental_uris":{"android":"levelo://app?vid=cbca4d7a-b018-483f-ae5c-907a8493d20c","ios":"levelo://app?vid=cbca4d7a-b018-483f-ae5c-907a8493d20c"},"vehicle_type_id":"4","last_reported":1767222648,"current_range_meters":10000,"station_id":"ce4bgkp2rcd13ifvqbmg","pricing_plan_id":"cebpf4jnsgd1na2vs0mg"},{"bike_id":"b5f80a1c-7345-44ae-9c2d-843287ace1f8","system_id":"levelo_inurba_marseille","lat":43.27447,"lon":5.42415,"is_reserved":false,"is_disabled":false,"rental_uris":{"android":"levelo://app?vid=b5f80a1c-7345-44ae-9c2d-843287ace1f8","ios":"levelo://app?vid=b5f80a1c-7345-44ae-9c2d-843287ace1f8"},"vehicle_type_id":"4","last_reported":1767222648,"current_range_meters":10000,"station_id":"","pricing_plan_id":"cebpf4jnsgd1na2vs0mg"},{"bike_id":"8ca67cad-1400-4ff3-9519-d8388ce65a84","system_id":"levelo_inurba_marseille","lat":43.29361,"lon":5.37853,"is_reserved":false,"is_disabled":false,"rental_uris":{"android":"levelo://app?vid=8ca67cad-1400-4ff3-9519-d8388ce65a84","ios":"levelo://app?vid=8ca67cad-1400-4ff3-9519-d8388ce65a84"},"vehicle_type_id":"4","last_reported":1767222648,"current_range_meters":10000,"station_id":"ce4bgjh2rcd13ifvqbf0","pricing_plan_id":"cebpf4jnsgd1na2vs0mg"},{"bike_id":"602f0694-d002-4ef3-ad6b-d90ada23311f","system_id":"levelo_inurba_marseille","lat":43.297787,"lon":5.371014,"is_reserved":false,"is_disabled":false,"rental_uris":{"android":"levelo://app?vid=602f0694-d002-4ef3-ad6b-d90ada23311f","ios":"levelo://app?vid=602f0694-d002-4ef3-ad6b-d90ada23311f"},"vehicle_type_id":"4","last_reported":1767222648,"current_range_meters":10000,"station_id":"ce4bgop2rcd13ifvqc1g","pricing_plan_id":"cebpf4jnsgd1na2vs0mg"},{"bike_id":"1a670a54-1840-4940-b62b-05b0e394ae95","system_id":"levelo_inurba_marseille","lat":43.28433,"lon":5.34995,"is_reserved":false,"is_disabled":false,"rental_uris":{"android":"levelo://app?vid=1a670a54-1840-4940-b62b-05b0e394ae95","ios":"levelo://app?vid=1a670a54-1840-4940-b62b-05b0e394ae95"},"vehicle_type_id":"4","last_reported":1767222648,"current_range_meters":10000,"station_id":"ce4bhbh2rcd13ifvqepg","pricing_plan_id":"cebpf4jnsgd1na2vs0mg"},{"bike_id":"c255b81a-3348-466e-9e0b-551409392c0b","system_id":"levelo_inurba_marseille","lat":43.26691,"lon":5.38268,"is_reserved":false,"is_disabled":true,"rental_uris":{"android":"levelo://app?vid=c255b81a-3348-466e-9e0b-551409392c0b","ios":"levelo://app?vid=c255b81a-3348-466e-9e0b-551409392c0b"},"vehicle_type_id":"4","last_reported":1767222648,"current_range_meters":10000,"station_id":"ce4bhg92rcd13ifvqf90","pricing_plan_id":"cebpf4jnsgd1na2vs0mg"},{"bike_id":"5528f973-2cab-4558-9d16-a544f4d7c11a","system_id":"levelo_inurba_marseille","lat":43.28933,"lon":5.3838,"is_reserved":false,"is_disabled":false,"rental_uris":{"android":"levelo://app?vid=5528f973-2cab-4558-9d16-a544f4d7c11a","ios":"levelo://app?vid=5528f973-2cab-4558-9d16-a544f4d7c11a"},"vehicle_type_id":"4","last_reported":1767222648,"current_range_meters":10000,"station_id":"ce4bh612rcd13ifvqe6g","pricing_plan_id":"cebpf4jnsgd1na2vs0mg"},{"bike_id":"7df75586-262d-4ec2-8f98-c0691702c6c8","system_id":"levelo_inurba_marseille","lat":43.28161,"lon":5.42642,"is_reserved":false,"is_disabled":false,"rental_uris":{"android":"levelo://app?vid=7df75586-262d-4ec2-8f98-c0691702c6c8","ios":"levelo://app?vid=7df75586-262d-4ec2-8f98-c0691702c6c8"},"vehicle_type_id":"4","last_reported":1767222648,"current_range_meters":10000,"station_id":"ce4bhnh2rcd13ifvqgug","pricing_plan_id":"cebpf4jnsgd1na2vs0mg"},{"bike_id":"6f6528b2-b1ef-4d33-baec-99c75a4b7320","system_id":"levelo_inurba_marseille","lat":43.2917,"lon":5.37145,"is_reserved":false,"is_disabled":false,"rental_uris":{"android":"levelo://app?vid=6f6528b2-b1ef-4d33-baec-99c75a4b7320","ios":"levelo://app?vid=6f6528b2-b1ef-4d33-baec-99c75a4b7320"},"vehicle_type_id":"4","last_reported":1767222648,"current_range_meters":10000,"station_id":"ce4bha92rcd13ifvqeh0","pricing_plan_id":"cebpf4jnsgd1na2vs0mg"},{"bike_id":"fd1a5202-a639-4b55-b620-7d3d03aa099e","system_id":"levelo_inurba_marseille","lat":43.30336,"lon":5.40444,"is_reserved":false,"is_disabled":false,"rental_uris":{"android":"levelo://app?vid=fd1a5202-a639-4b55-b620-7d3d03aa099e","ios":"levelo://app?vid=fd1a5202-a639-4b55-b620-7d3d03aa099e"},"vehicle_type_id":"4","last_reported":1767222648,"current_range_meters":10800,"station_id":"ce4bh012rcd13ifvqd10","pricing_plan_id":"cebpf4jnsgd1na2vs0mg"},{"bike_id":"e5ee2bbe-5021-486f-909d-03022edb9a00","system_id":"levelo_inurba_marseille","lat":43.267808,"lon":5.394177,"is_reserved":false,"is_disabled":false,"rental_uris":{"android":"levelo://app?vid=e5ee2bbe-5021-486f-909d-03022edb9a00","ios":"levelo://app?vid=e5ee2bbe-5021-486f-909d-03022edb9a00"},"vehicle_type_id":"4","last_reported":1767222648,"current_range_meters":10800,"station_id":"ce4bhh12rcd13ifvqfg0","pricing_plan_id":"cebpf4jnsgd1na2vs0mg"},{"bike_id":"25f3b82f-06ca-4f8f-a005-18bf90572843","system_id":"levelo_inurba_marseille","lat":43.30181,"lon":5.36617,"is_reserved":false,"is_disabled":false,"rental_uris":{"android":"levelo://app?vid=25f3b82f-06ca-4f8f-a005-18bf90572843","ios":"levelo://app?vid=25f3b82f-06ca-4f8f-a005-18bf90572843"},"vehicle_type_id":"4","last_reported":1767222648,"current_range_meters":10800,"station_id":"ce4bgrh2rcd13ifvqc8g","pricing_plan_id":"cebpf4jnsgd1na2vs0mg"},{"bike_id":"9e5dafc7-f2da-4d0b-b668-e32cc043ceb4","system_id":"levelo_inurba_marseille","lat":43.28047,"lon":5.40073,"is_reserved":false,"is_disabled":false,"rental_uris":{"android":"levelo://app?vid=9e5dafc7-f2da-4d0b-b668-e32cc043ceb4","ios":"levelo://app?vid=9e5dafc7-f2da-4d0b-b668-e32cc043ceb4"},"vehicle_type_id":"4","last_reported":1767222648,"current_range_meters":10800,"station_id":"","pricing_plan_id":"cebpf4jnsgd1na2vs0mg"},{"bike_id":"a1bcb6ae-f859-4f66-b5a6-88d7f0b4b287","system_id":"levelo_inurba_marseille","lat":43.28476,"lon":5.38463,"is_reserved":false,"is_disabled":false,"rental_uris":{"android":"levelo://app?vid=a1bcb6ae-f859-4f66-b5a6-88d7f0b4b287","ios":"levelo://app?vid=a1bcb6ae-f859-4f66-b5a6-88d7f0b4b287"},"vehicle_type_id":"4","last_reported":1767222648,"current_range_meters":10800,"station_id":"ce4bh512rcd13ifvqe3g","pricing_plan_id":"cebpf4jnsgd1na2vs0mg"},{"bike_id":"b3e21af0-cd54-4558-9a16-09857bff3a8a","system_id":"levelo_inurba_marseille","lat":43.30308,"lon":5.38927,"is_reserved":false,"is_disabled":false,"rental_uris":{"android":"levelo://app?vid=b3e21af0-cd54-4558-9a16-09857bff3a8a","ios":"levelo://app?vid=b3e21af0-cd54-4558-9a16-09857bff3a8a"},"vehicle_type_id":"4","last_reported":1767222648,"current_range_meters":10800,"station_id":"","pricing_plan_id":"cebpf4jnsgd1na2vs0mg"},{"bike_id":"0d8b64dc-d3a4-4c37-80be-c48d945a81e3","system_id":"levelo_inurba_marseille","lat":43.28471,"lon":5.38449,"is_reserved":false,"is_disabled":true,"rental_uris":{"android":"levelo://app?vid=0d8b64dc-d3a4-4c37-80be-c48d945a81e3","ios":"levelo://app?vid=0d8b64dc-d3a4-4c37-80be-c48d945a81e3"},"vehicle_type_id":"4","last_reported":1767222648,"current_range_meters":10800,"station_id":"ce4bh512rcd13ifvqe3g","pricing_plan_id":"cebpf4jnsgd1na2vs0mg"},{"bike_id":"9b31c737-9919-4753-902d-88d0177986b8","system_id":"levelo_inurba_marseille","lat":43.288643,"lon":5.425162,"is_reserved":false,"is_disabled":false,"rental_uris":{"android":"levelo://app?vid=9b31c737-9919-4753-902d-88d0177986b8","ios":"levelo://app?vid=9b31c737-9919-4753-902d-88d0177986b8"},"vehicle_type_id":"4","last_reported":1767222648,"current_range_meters":10800,"station_id":"st_d3b462108ojc7389ooeg","pricing_plan_id":"cebpf4jnsgd1na2vs0mg"},{"bike_id":"31c8aec9-b94f-471f-8201-cd073495361b","system_id":"levelo_inurba_marseille","lat":43.2847,"lon":5.35888,"is_reserved":false,"is_disabled":false,"rental_uris":{"android":"levelo://app?vid=31c8aec9-b94f-471f-8201-cd073495361b","ios":"levelo://app?vid=31c8aec9-b94f-471f-8201-cd073495361b"},"vehicle_type_id":"4","last_reported":1767222648,"current_range_meters":10800,"station_id":"ce4bhah2rcd13ifvqei0","pricing_plan_id":"cebpf4jnsgd1na2vs0mg"},{"bike_id":"f6b382f1-2f54-4f2a-8abd-265696951f1f","system_id":"levelo_inurba_marseille","lat":43.29608,"lon":5.37665,"is_reserved":false,"is_disabled":false,"rental_uris":{"android":"levelo://app?vid=f6b382f1-2f54-4f2a-8abd-265696951f1f","ios":"levelo://app?vid=f6b382f1-2f54-4f2a-8abd-265696951f1f"},"vehicle_type_id":"4","last_reported":1767222648,"current_range_meters":10800,"station_id":"ce4bgi92rcd13ifvqb90","pricing_plan_id":"cebpf4jnsgd1na2vs0mg"},{"bike_id":"36d67e4b-128f-462b-bf9e-2bbc09bb7b40","system_id":"levelo_inurba_marseille","lat":43.30913,"lon":5.37879,"is_reserved":false,"is_disabled":false,"rental_uris":{"android":"levelo://app?vid=36d67e4b-128f-462b-bf9e-2bbc09bb7b40","ios":"levelo://app?vid=36d67e4b-128f-462b-bf9e-2bbc09bb7b40"},"vehicle_type_id":"4","last_reported":1767222648,"current_range_meters":10800,"station_id":"","pricing_plan_id":"cebpf4jnsgd1na2vs0mg"},{"bike_id":"86adc271-9e98-4793-bcb4-2ecc520fc210","system_id":"levelo_inurba_marseille","lat":43.29536,"lon":5.38507,"is_reserved":false,"is_disabled":false,"rental_uris":{"android":"levelo://app?vid=86adc271-9e98-4793-bcb4-2ecc520fc210","ios":"levelo://app?vid=86adc271-9e98-4793-bcb4-2ecc520fc210"},"vehicle_type_id":"4","last_reported":1767222648,"current_range_meters":10800,"station_id":"ce4bgih2rcd13ifvqba0","pricing_plan_id":"cebpf4jnsgd1na2vs0mg"},{"bike_id":"f489c472-ee6d-42dd-8be8-3a531cfd3f02","system_id":"levelo_inurba_marseille","lat":43.287701,"lon":5.454761,"is_reserved":false,"is_disabled":false,"rental_uris":{"android":"levelo://app?vid=f489c472-ee6d-42dd-8be8-3a531cfd3f02","ios":"levelo://app?vid=f489c472-ee6d-42dd-8be8-3a531cfd3f02"},"vehicle_type_id":"4","last_reported":1767222648,"current_range_meters":10800,"station_id":"","pricing_plan_id":"cebpf4jnsgd1na2vs0mg"},{"bike_id":"c0e7c010-6348-4f1e-8cfa-d665c6702911","system_id":"levelo_inurba_marseille","lat":43.29861,"lon":5.37577,"is_reserved":false,"is_disabled":false,"rental_uris":{"android":"levelo://app?vid=c0e7c010-6348-4f1e-8cfa-d665c6702911","ios":"levelo://app?vid=c0e7c010-6348-4f1e-8cfa-d665c6702911"},"vehicle_type_id":"4","last_reported":1767222648,"current_range_meters":10800,"station_id":"","pricing_plan_id":"cebpf4jnsgd1na2vs0mg"},{"bike_id":"e091a64d-3bea-4eb4-be23-0d33eb28eebf","system_id":"levelo_inurba_marseille","lat":43.26945,"lon":5.40259,"is_reserved":false,"is_disabled":false,"rental_uris":{"android":"levelo://app?vid=e091a64d-3bea-4eb4-be23-0d33eb28eebf","ios":"levelo://app?vid=e091a64d-3bea-4eb4-be23-0d33eb28eebf"},"vehicle_type_id":"4","last_reported":1767222648,"current_range_meters":11200,"station_id":"cjm6bp8fraef2m0cb0m0","pricing_plan_id":"cebpf4jnsgd1na2vs0mg"},{"bike_id":"4b612c97-f84b-459a-bc6d-0cd90c252bf8","system_id":"levelo_inurba_marseille","lat":43.26517,"lon":5.37956,"is_reserved":false,"is_disabled":false,"rental_uris":{"android":"levelo://app?vid=4b612c97-f84b-459a-bc6d-0cd90c252bf8","ios":"levelo://app?vid=4b612c97-f84b-459a-bc6d-0cd90c252bf8"},"vehicle_type_id":"4","last_reported":1767222648,"current_range_meters":11200,"station_id":"","pricing_plan_id":"cebpf4jnsgd1na2vs0mg"},{"bike_id":"0938995e-ba33-411e-93cd-bce44cddc3e7","system_id":"levelo_inurba_marseille","lat":43.30003,"lon":5.3718,"is_reserved":false,"is_disabled":false,"rental_uris":{"android":"levelo://app?vid=0938995e-ba33-411e-93cd-bce44cddc3e7","ios":"levelo://app?vid=0938995e-ba33-411e-93cd-bce44cddc3e7"},"vehicle_type_id":"4","last_reported":1767222648,"current_range_meters":11200,"station_id":"ce4bgr92rcd13ifvqc7g","pricing_plan_id":"cebpf4jnsgd1na2vs0mg"},{"bike_id":"c76690c6-cb2b-4ca1-aa5b-e2cbc4e3d75b","system_id":"levelo_inurba_marseille","lat":43.28956,"lon":5.36341,"is_reserved":false,"is_disabled":false,"rental_uris":{"android":"levelo://app?vid=c76690c6-cb2b-4ca1-aa5b-e2cbc4e3d75b","ios":"levelo://app?vid=c76690c6-cb2b-4ca1-aa5b-e2cbc4e3d75b"},"vehicle_type_id":"4","last_reported":1767222648,"current_range_meters":11200,"station_id":"ce4bhc92rcd13ifvqetg","pricing_plan_id":"cebpf4jnsgd1na2vs0mg"},{"bike_id":"a770eb5f-2a92-46a3-b6fe-450aef9acb4a","system_id":"levelo_inurba_marseille","lat":43.30135,"lon":5.43121,"is_reserved":false,"is_disabled":false,"rental_uris":{"android":"levelo://app?vid=a770eb5f-2a92-46a3-b6fe-450aef9acb4a","ios":"levelo://app?vid=a770eb5f-2a92-46a3-b6fe-450aef9acb4a"},"vehicle_type_id":"4","last_reported":1767222648,"current_range_meters":11200,"station_id":"st_d3js3co5814s73ftftug","pricing_plan_id":"cebpf4jnsgd1na2vs0mg"},{"bike_id":"1763bda5-9a2f-4323-b228-f44726653fd8","system_id":"levelo_inurba_marseille","lat":43.28422,"lon":5.34981,"is_reserved":false,"is_disabled":false,"rental_uris":{"android":"levelo://app?vid=1763bda5-9a2f-4323-b228-f44726653fd8","ios":"levelo://app?vid=1763bda5-9a2f-4323-b228-f44726653fd8"},"vehicle_type_id":"4","last_reported":1767222648,"current_range_meters":11200,"station_id":"ce4bhbh2rcd13ifvqepg","pricing_plan_id":"cebpf4jnsgd1na2vs0mg"},{"bike_id":"ead1444d-eac1-417f-b268-ce9ed5abb843","system_id":"levelo_inurba_marseille","lat":43.29688,"lon":5.37288,"is_reserved":false,"is_disabled":false,"rental_uris":{"android":"levelo://app?vid=ead1444d-eac1-417f-b268-ce9ed5abb843","ios":"levelo://app?vid=ead1444d-eac1-417f-b268-ce9ed5abb843"},"vehicle_type_id":"4","last_reported":1767222648,"current_range_meters":11200,"station_id":"ce4bgk12rcd13ifvqbj0","pricing_plan_id":"cebpf4jnsgd1na2vs0mg"},{"bike_id":"f0c5c8cf-5ff3-45a8-a6bf-446316394055","system_id":"levelo_inurba_marseille","lat":43.30323,"lon":5.40429,"is_reserved":false,"is_disabled":false,"rental_uris":{"android":"levelo://app?vid=f0c5c8cf-5ff3-45a8-a6bf-446316394055","ios":"levelo://app?vid=f0c5c8cf-5ff3-45a8-a6bf-446316394055"},"vehicle_type_id":"4","last_reported":1767222648,"current_range_meters":11200,"station_id":"ce4bh012rcd13ifvqd10","pricing_plan_id":"cebpf4jnsgd1na2vs0mg"},{"bike_id":"819953b1-b6e5-4e7b-93ab-771e36ff1d19","system_id":"levelo_inurba_marseille","lat":43.28015,"lon":5.36951,"is_reserved":false,"is_disabled":false,"rental_uris":{"android":"levelo://app?vid=819953b1-b6e5-4e7b-93ab-771e36ff1d19","ios":"levelo://app?vid=819953b1-b6e5-4e7b-93ab-771e36ff1d19"},"vehicle_type_id":"4","last_reported":1767222648,"current_range_meters":11200,"station_id":"ce4bha12rcd13ifvqef0","pricing_plan_id":"cebpf4jnsgd1na2vs0mg"},{"bike_id":"21473f4e-f067-4773-a7f6-bef2e5432e35","system_id":"levelo_inurba_marseille","lat":43.279707,"lon":5.387657,"is_reserved":false,"is_disabled":false,"rental_uris":{"android":"levelo://app?vid=21473f4e-f067-4773-a7f6-bef2e5432e35","ios":"levelo://app?vid=21473f4e-f067-4773-a7f6-bef2e5432e35"},"vehicle_type_id":"4","last_reported":1767222648,"current_range_meters":11200,"station_id":"ce4bhg12rcd13ifvqf80","pricing_plan_id":"cebpf4jnsgd1na2vs0mg"},{"bike_id":"82b56c36-e361-4d9e-8c3e-2711013c1c1a","system_id":"levelo_inurba_marseille","lat":43.28464,"lon":5.35894,"is_reserved":false,"is_disabled":false,"rental_uris":{"android":"levelo://app?vid=82b56c36-e361-4d9e-8c3e-2711013c1c1a","ios":"levelo://app?vid=82b56c36-e361-4d9e-8c3e-2711013c1c1a"},"vehicle_type_id":"4","last_reported":1767222648,"current_range_meters":11200,"station_id":"ce4bhah2rcd13ifvqei0","pricing_plan_id":"cebpf4jnsgd1na2vs0mg"},{"bike_id":"abacaf92-79ec-4371-ab58-de210dd0eb6b","system_id":"levelo_inurba_marseille","lat":43.28925,"lon":5.38389,"is_reserved":false,"is_disabled":false,"rental_uris":{"android":"levelo://app?vid=abacaf92-79ec-4371-ab58-de210dd0eb6b","ios":"levelo://app?vid=abacaf92-79ec-4371-ab58-de210dd0eb6b"},"vehicle_type_id":"4","last_reported":1767222648,"current_range_meters":11200,"station_id":"ce4bh612rcd13ifvqe6g","pricing_plan_id":"cebpf4jnsgd1na2vs0mg"},{"bike_id":"2f1870a4-93e5-4637-addb-d454f90f136b","system_id":"levelo_inurba_marseille","lat":43.28376,"lon":5.38638,"is_reserved":false,"is_disabled":false,"rental_uris":{"android":"levelo://app?vid=2f1870a4-93e5-4637-addb-d454f90f136b","ios":"levelo://app?vid=2f1870a4-93e5-4637-addb-d454f90f136b"},"vehicle_type_id":"4","last_reported":1767222648,"current_range_meters":11200,"station_id":"ce4bh492rcd13ifvqdvg","pricing_plan_id":"cebpf4jnsgd1na2vs0mg"},{"bike_id":"f7907c1c-af28-49fc-9bf1-6ea5c9b9576d","system_id":"levelo_inurba_marseille","lat":43.281533,"lon":5.426376,"is_reserved":false,"is_disabled":true,"rental_uris":{"android":"levelo://app?vid=f7907c1c-af28-49fc-9bf1-6ea5c9b9576d","ios":"levelo://app?vid=f7907c1c-af28-49fc-9bf1-6ea5c9b9576d"},"vehicle_type_id":"4","last_reported":1767222648,"current_range_meters":11600,"station_id":"ce4bhnh2rcd13ifvqgug","pricing_plan_id":"cebpf4jnsgd1na2vs0mg"},{"bike_id":"a6b35a9b-2cf6-4669-b17f-ed9bea8188e1","system_id":"levelo_inurba_marseille","lat":43.297543,"lon":5.427694,"is_reserved":false,"is_disabled":true,"rental_uris":{"android":"levelo://app?vid=a6b35a9b-2cf6-4669-b17f-ed9bea8188e1","ios":"levelo://app?vid=a6b35a9b-2cf6-4669-b17f-ed9bea8188e1"},"vehicle_type_id":"4","last_reported":1767222648,"current_range_meters":11600,"station_id":"st_d3md5207bmas73dh9klg","pricing_plan_id":"cebpf4jnsgd1na2vs0mg"},{"bike_id":"17b23173-cf81-4ef8-94f8-7e6e50058baf","system_id":"levelo_inurba_marseille","lat":43.275753,"lon":5.384387,"is_reserved":false,"is_disabled":false,"rental_uris":{"android":"levelo://app?vid=17b23173-cf81-4ef8-94f8-7e6e50058baf","ios":"levelo://app?vid=17b23173-cf81-4ef8-94f8-7e6e50058baf"},"vehicle_type_id":"4","last_reported":1767222648,"current_range_meters":11600,"station_id":"ce4bhh92rcd13ifvqfi0","pricing_plan_id":"cebpf4jnsgd1na2vs0mg"},{"bike_id":"a37546a5-5ed0-437a-8b08-467eedf47722","system_id":"levelo_inurba_marseille","lat":43.2455,"lon":5.39517,"is_reserved":false,"is_disabled":false,"rental_uris":{"android":"levelo://app?vid=a37546a5-5ed0-437a-8b08-467eedf47722","ios":"levelo://app?vid=a37546a5-5ed0-437a-8b08-467eedf47722"},"vehicle_type_id":"4","last_reported":1767222648,"current_range_meters":11600,"station_id":"ce4bhlp2rcd13ifvqgjg","pricing_plan_id":"cebpf4jnsgd1na2vs0mg"},{"bike_id":"8ed4747c-ffc4-4952-a58f-ccece03fc778","system_id":"levelo_inurba_marseille","lat":43.27181,"lon":5.40995,"is_reserved":false,"is_disabled":false,"rental_uris":{"android":"levelo://app?vid=8ed4747c-ffc4-4952-a58f-ccece03fc778","ios":"levelo://app?vid=8ed4747c-ffc4-4952-a58f-ccece03fc778"},"vehicle_type_id":"4","last_reported":1767222648,"current_range_meters":11600,"station_id":"ce4bhl12rcd13ifvqgf0","pricing_plan_id":"cebpf4jnsgd1na2vs0mg"},{"bike_id":"5d76c1ba-1a84-4b97-813c-5fad3301fab9","system_id":"levelo_inurba_marseille","lat":43.2985,"lon":5.36276,"is_reserved":false,"is_disabled":false,"rental_uris":{"android":"levelo://app?vid=5d76c1ba-1a84-4b97-813c-5fad3301fab9","ios":"levelo://app?vid=5d76c1ba-1a84-4b97-813c-5fad3301fab9"},"vehicle_type_id":"4","last_reported":1767222648,"current_range_meters":11600,"station_id":"ce4bgpp2rcd13ifvqc3g","pricing_plan_id":"cebpf4jnsgd1na2vs0mg"},{"bike_id":"ea5031e4-b749-4d48-ba29-71e8d8d5383b","system_id":"levelo_inurba_marseille","lat":43.26387,"lon":5.3739,"is_reserved":false,"is_disabled":false,"rental_uris":{"android":"levelo://app?vid=ea5031e4-b749-4d48-ba29-71e8d8d5383b","ios":"levelo://app?vid=ea5031e4-b749-4d48-ba29-71e8d8d5383b"},"vehicle_type_id":"4","last_reported":1767222648,"current_range_meters":11600,"station_id":"","pricing_plan_id":"cebpf4jnsgd1na2vs0mg"},{"bike_id":"edc23396-d5f1-4398-8b61-0e525b7cb9ef","system_id":"levelo_inurba_marseille","lat":43.29535,"lon":5.37515,"is_reserved":false,"is_disabled":false,"rental_uris":{"android":"levelo://app?vid=edc23396-d5f1-4398-8b61-0e525b7cb9ef","ios":"levelo://app?vid=edc23396-d5f1-4398-8b61-0e525b7cb9ef"},"vehicle_type_id":"4","last_reported":1767222648,"current_range_meters":11600,"station_id":"ce4bgkp2rcd13ifvqbmg","pricing_plan_id":"cebpf4jnsgd1na2vs0mg"},{"bike_id":"8d4fa089-4733-4286-83d7-9875eea63312","system_id":"levelo_inurba_marseille","lat":43.31716,"lon":5.43704,"is_reserved":false,"is_disabled":false,"rental_uris":{"android":"levelo://app?vid=8d4fa089-4733-4286-83d7-9875eea63312","ios":"levelo://app?vid=8d4fa089-4733-4286-83d7-9875eea63312"},"vehicle_type_id":"4","last_reported":1767222648,"current_range_meters":11600,"station_id":"ce4bhp92rcd13ifvqhcg","pricing_plan_id":"cebpf4jnsgd1na2vs0mg"},{"bike_id":"83f0a4d3-cd49-43c8-9c4d-cc3d3b0619c5","system_id":"levelo_inurba_marseille","lat":43.29623,"lon":5.37717,"is_reserved":false,"is_disabled":false,"rental_uris":{"android":"levelo://app?vid=83f0a4d3-cd49-43c8-9c4d-cc3d3b0619c5","ios":"levelo://app?vid=83f0a4d3-cd49-43c8-9c4d-cc3d3b0619c5"},"vehicle_type_id":"4","last_reported":1767222648,"current_range_meters":12000,"station_id":"ce4bgi92rcd13ifvqb90","pricing_plan_id":"cebpf4jnsgd1na2vs0mg"},{"bike_id":"ae16ff2f-039d-4cdf-a936-aa3dd9f21d44","system_id":"levelo_inurba_marseille","lat":43.2706,"lon":5.38312,"is_reserved":false,"is_disabled":false,"rental_uris":{"android":"levelo://app?vid=ae16ff2f-039d-4cdf-a936-aa3dd9f21d44","ios":"levelo://app?vid=ae16ff2f-039d-4cdf-a936-aa3dd9f21d44"},"vehicle_type_id":"4","last_reported":1767222648,"current_range_meters":12000,"station_id":"st_d3n2fo6cfp8s73cte1j0","pricing_plan_id":"cebpf4jnsgd1na2vs0mg"},{"bike_id":"27f62b3e-34a5-44c0-b8d2-5a7048902926","system_id":"levelo_inurba_marseille","lat":43.29565,"lon":5.38158,"is_reserved":false,"is_disabled":false,"rental_uris":{"android":"levelo://app?vid=27f62b3e-34a5-44c0-b8d2-5a7048902926","ios":"levelo://app?vid=27f62b3e-34a5-44c0-b8d2-5a7048902926"},"vehicle_type_id":"4","last_reported":1767222648,"current_range_meters":12000,"station_id":"","pricing_plan_id":"cebpf4jnsgd1na2vs0mg"},{"bike_id":"c1c1bbd9-7f85-4a35-831d-72795b1b0948","system_id":"levelo_inurba_marseille","lat":43.32365,"lon":5.36814,"is_reserved":false,"is_disabled":false,"rental_uris":{"android":"levelo://app?vid=c1c1bbd9-7f85-4a35-831d-72795b1b0948","ios":"levelo://app?vid=c1c1bbd9-7f85-4a35-831d-72795b1b0948"},"vehicle_type_id":"4","last_reported":1767222648,"current_range_meters":12000,"station_id":"ce4bhsh2rcd13ifvqi2g","pricing_plan_id":"cebpf4jnsgd1na2vs0mg"},{"bike_id":"174341f2-932a-4756-bd9d-a9bd00cf064d","system_id":"levelo_inurba_marseille","lat":43.25088,"lon":5.3952,"is_reserved":false,"is_disabled":false,"rental_uris":{"android":"levelo://app?vid=174341f2-932a-4756-bd9d-a9bd00cf064d","ios":"levelo://app?vid=174341f2-932a-4756-bd9d-a9bd00cf064d"},"vehicle_type_id":"4","last_reported":1767222648,"current_range_meters":12000,"station_id":"ce4bhm12rcd13ifvqgkg","pricing_plan_id":"cebpf4jnsgd1na2vs0mg"},{"bike_id":"d4c6dc95-f402-4619-8161-a90cb01a834e","system_id":"levelo_inurba_marseille","lat":43.28862,"lon":5.42511,"is_reserved":false,"is_disabled":false,"rental_uris":{"android":"levelo://app?vid=d4c6dc95-f402-4619-8161-a90cb01a834e","ios":"levelo://app?vid=d4c6dc95-f402-4619-8161-a90cb01a834e"},"vehicle_type_id":"4","last_reported":1767222648,"current_range_meters":12000,"station_id":"st_d3b462108ojc7389ooeg","pricing_plan_id":"cebpf4jnsgd1na2vs0mg"},{"bike_id":"cda1f6ab-e0ee-4786-9e08-c7bcb481ee5b","system_id":"levelo_inurba_marseille","lat":43.29603,"lon":5.38099,"is_reserved":false,"is_disabled":false,"rental_uris":{"android":"levelo://app?vid=cda1f6ab-e0ee-4786-9e08-c7bcb481ee5b","ios":"levelo://app?vid=cda1f6ab-e0ee-4786-9e08-c7bcb481ee5b"},"vehicle_type_id":"4","last_reported":1767222648,"current_range_meters":12000,"station_id":"ce4bgl12rcd13ifvqbo0","pricing_plan_id":"cebpf4jnsgd1na2vs0mg"},{"bike_id":"60f84493-eb57-4d78-8a1e-39d4ad3260b4","system_id":"levelo_inurba_marseille","lat":43.29852,"lon":5.37657,"is_reserved":false,"is_disabled":false,"rental_uris":{"android":"levelo://app?vid=60f84493-eb57-4d78-8a1e-39d4ad3260b4","ios":"levelo://app?vid=60f84493-eb57-4d78-8a1e-39d4ad3260b4"},"vehicle_type_id":"4","last_reported":1767222648,"current_range_meters":12000,"station_id":"","pricing_plan_id":"cebpf4jnsgd1na2vs0mg"},{"bike_id":"979d6574-265c-489f-a04e-34127d9787b3","system_id":"levelo_inurba_marseille","lat":43.27906,"lon":5.39597,"is_reserved":false,"is_disabled":false,"rental_uris":{"android":"levelo://app?vid=979d6574-265c-489f-a04e-34127d9787b3","ios":"levelo://app?vid=979d6574-265c-489f-a04e-34127d9787b3"},"vehicle_type_id":"4","last_reported":1767222648,"current_range_meters":12000,"station_id":"ce4bhf92rcd13ifvqf40","pricing_plan_id":"cebpf4jnsgd1na2vs0mg"},{"bike_id":"7aa8deaf-4e60-441f-b4fa-11775b88c73b","system_id":"levelo_inurba_marseille","lat":43.29577,"lon":5.40292,"is_reserved":false,"is_disabled":true,"rental_uris":{"android":"levelo://app?vid=7aa8deaf-4e60-441f-b4fa-11775b88c73b","ios":"levelo://app?vid=7aa8deaf-4e60-441f-b4fa-11775b88c73b"},"vehicle_type_id":"4","last_reported":1767222648,"current_range_meters":12000,"station_id":"","pricing_plan_id":"cebpf4jnsgd1na2vs0mg"},{"bike_id":"71feabac-18bb-4c38-9f1c-553d18ed10d6","system_id":"levelo_inurba_marseille","lat":43.29603,"lon":5.37178,"is_reserved":false,"is_disabled":false,"rental_uris":{"android":"levelo://app?vid=71feabac-18bb-4c38-9f1c-553d18ed10d6","ios":"levelo://app?vid=71feabac-18bb-4c38-9f1c-553d18ed10d6"},"vehicle_type_id":"4","last_reported":1767222648,"current_range_meters":12000,"station_id":"ce4bgnh2rcd13ifvqc0g","pricing_plan_id":"cebpf4jnsgd1na2vs0mg"},{"bike_id":"c2f4c107-8bc8-42f9-93df-084eb12cdb41","system_id":"levelo_inurba_marseille","lat":43.29488,"lon":5.43322,"is_reserved":false,"is_disabled":false,"rental_uris":{"android":"levelo://app?vid=c2f4c107-8bc8-42f9-93df-084eb12cdb41","ios":"levelo://app?vid=c2f4c107-8bc8-42f9-93df-084eb12cdb41"},"vehicle_type_id":"4","last_reported":1767222648,"current_range_meters":12400,"station_id":"st_d3j5ugp08ojc73fj9d10","pricing_plan_id":"cebpf4jnsgd1na2vs0mg"},{"bike_id":"67057471-b7f6-4964-9f3d-d28fd0a7dcdb","system_id":"levelo_inurba_marseille","lat":43.31914,"lon":5.40733,"is_reserved":false,"is_disabled":true,"rental_uris":{"android":"levelo://app?vid=67057471-b7f6-4964-9f3d-d28fd0a7dcdb","ios":"levelo://app?vid=67057471-b7f6-4964-9f3d-d28fd0a7dcdb"},"vehicle_type_id":"4","last_reported":1767222648,"current_range_meters":12400,"station_id":"ce4bhq12rcd13ifvqhig","pricing_plan_id":"cebpf4jnsgd1na2vs0mg"},{"bike_id":"e2a2e75e-e905-4d13-a2d3-1b6050cf01ec","system_id":"levelo_inurba_marseille","lat":43.29305,"lon":5.37455,"is_reserved":false,"is_disabled":false,"rental_uris":{"android":"levelo://app?vid=e2a2e75e-e905-4d13-a2d3-1b6050cf01ec","ios":"levelo://app?vid=e2a2e75e-e905-4d13-a2d3-1b6050cf01ec"},"vehicle_type_id":"4","last_reported":1767222648,"current_range_meters":12400,"station_id":"ce4bgi12rcd13ifvqb70","pricing_plan_id":"cebpf4jnsgd1na2vs0mg"},{"bike_id":"9ffd8e4e-6671-4e68-b198-26c59cc5e3d1","system_id":"levelo_inurba_marseille","lat":43.32624,"lon":5.41989,"is_reserved":false,"is_disabled":false,"rental_uris":{"android":"levelo://app?vid=9ffd8e4e-6671-4e68-b198-26c59cc5e3d1","ios":"levelo://app?vid=9ffd8e4e-6671-4e68-b198-26c59cc5e3d1"},"vehicle_type_id":"4","last_reported":1767222648,"current_range_meters":12400,"station_id":"","pricing_plan_id":"cebpf4jnsgd1na2vs0mg"},{"bike_id":"2e432000-19e4-474b-acb8-4742408d8ecf","system_id":"levelo_inurba_marseille","lat":43.29646,"lon":5.37955,"is_reserved":false,"is_disabled":false,"rental_uris":{"android":"levelo://app?vid=2e432000-19e4-474b-acb8-4742408d8ecf","ios":"levelo://app?vid=2e432000-19e4-474b-acb8-4742408d8ecf"},"vehicle_type_id":"4","last_reported":1767222648,"current_range_meters":12400,"station_id":"","pricing_plan_id":"cebpf4jnsgd1na2vs0mg"},{"bike_id":"2a23ab26-ec07-45e8-be6c-b7129b94a9d1","system_id":"levelo_inurba_marseille","lat":43.2867,"lon":5.36344,"is_reserved":false,"is_disabled":false,"rental_uris":{"android":"levelo://app?vid=2a23ab26-ec07-45e8-be6c-b7129b94a9d1","ios":"levelo://app?vid=2a23ab26-ec07-45e8-be6c-b7129b94a9d1"},"vehicle_type_id":"4","last_reported":1767222648,"current_range_meters":12400,"station_id":"ce4bhah2rcd13ifvqej0","pricing_plan_id":"cebpf4jnsgd1na2vs0mg"},{"bike_id":"0c3b4b3e-5574-4acc-9ce6-160804ae0ebc","system_id":"levelo_inurba_marseille","lat":43.298972,"lon":5.436548,"is_reserved":false,"is_disabled":true,"rental_uris":{"android":"levelo://app?vid=0c3b4b3e-5574-4acc-9ce6-160804ae0ebc","ios":"levelo://app?vid=0c3b4b3e-5574-4acc-9ce6-160804ae0ebc"},"vehicle_type_id":"4","last_reported":1767222648,"current_range_meters":12400,"station_id":"ce4bhpp2rcd13ifvqhfg","pricing_plan_id":"cebpf4jnsgd1na2vs0mg"},{"bike_id":"df63e62e-c06a-462e-903b-d344f6eede77","system_id":"levelo_inurba_marseille","lat":43.28666,"lon":5.36376,"is_reserved":false,"is_disabled":false,"rental_uris":{"android":"levelo://app?vid=df63e62e-c06a-462e-903b-d344f6eede77","ios":"levelo://app?vid=df63e62e-c06a-462e-903b-d344f6eede77"},"vehicle_type_id":"4","last_reported":1767222648,"current_range_meters":12400,"station_id":"ce4bhah2rcd13ifvqej0","pricing_plan_id":"cebpf4jnsgd1na2vs0mg"},{"bike_id":"5af3ef0c-11c8-427a-81d4-698d86d73e7a","system_id":"levelo_inurba_marseille","lat":43.286553,"lon":5.363646,"is_reserved":false,"is_disabled":false,"rental_uris":{"android":"levelo://app?vid=5af3ef0c-11c8-427a-81d4-698d86d73e7a","ios":"levelo://app?vid=5af3ef0c-11c8-427a-81d4-698d86d73e7a"},"vehicle_type_id":"4","last_reported":1767222648,"current_range_meters":12400,"station_id":"ce4bhah2rcd13ifvqej0","pricing_plan_id":"cebpf4jnsgd1na2vs0mg"},{"bike_id":"da51a696-5705-48cd-a174-f63e3c15d9de","system_id":"levelo_inurba_marseille","lat":43.28863,"lon":5.42519,"is_reserved":false,"is_disabled":false,"rental_uris":{"android":"levelo://app?vid=da51a696-5705-48cd-a174-f63e3c15d9de","ios":"levelo://app?vid=da51a696-5705-48cd-a174-f63e3c15d9de"},"vehicle_type_id":"4","last_reported":1767222648,"current_range_meters":12400,"station_id":"st_d3b462108ojc7389ooeg","pricing_plan_id":"cebpf4jnsgd1na2vs0mg"},{"bike_id":"e247bfbd-2ba3-4d94-b28c-8530060e7f95","system_id":"levelo_inurba_marseille","lat":43.308385,"lon":5.382261,"is_reserved":false,"is_disabled":false,"rental_uris":{"android":"levelo://app?vid=e247bfbd-2ba3-4d94-b28c-8530060e7f95","ios":"levelo://app?vid=e247bfbd-2ba3-4d94-b28c-8530060e7f95"},"vehicle_type_id":"4","last_reported":1767222648,"current_range_meters":12400,"station_id":"","pricing_plan_id":"cebpf4jnsgd1na2vs0mg"},{"bike_id":"d8431e58-d3e8-4456-9570-729e3ebbcc73","system_id":"levelo_inurba_marseille","lat":43.30186,"lon":5.3728,"is_reserved":false,"is_disabled":false,"rental_uris":{"android":"levelo://app?vid=d8431e58-d3e8-4456-9570-729e3ebbcc73","ios":"levelo://app?vid=d8431e58-d3e8-4456-9570-729e3ebbcc73"},"vehicle_type_id":"4","last_reported":1767222648,"current_range_meters":12800,"station_id":"","pricing_plan_id":"cebpf4jnsgd1na2vs0mg"},{"bike_id":"25f1743a-a2b2-454e-84ce-5c43f5ea30d3","system_id":"levelo_inurba_marseille","lat":43.29903,"lon":5.43648,"is_reserved":false,"is_disabled":false,"rental_uris":{"android":"levelo://app?vid=25f1743a-a2b2-454e-84ce-5c43f5ea30d3","ios":"levelo://app?vid=25f1743a-a2b2-454e-84ce-5c43f5ea30d3"},"vehicle_type_id":"4","last_reported":1767222648,"current_range_meters":12800,"station_id":"ce4bhpp2rcd13ifvqhfg","pricing_plan_id":"cebpf4jnsgd1na2vs0mg"},{"bike_id":"7a75f567-a1ba-424d-82af-4b8fb3e37a64","system_id":"levelo_inurba_marseille","lat":43.25135,"lon":5.40306,"is_reserved":false,"is_disabled":false,"rental_uris":{"android":"levelo://app?vid=7a75f567-a1ba-424d-82af-4b8fb3e37a64","ios":"levelo://app?vid=7a75f567-a1ba-424d-82af-4b8fb3e37a64"},"vehicle_type_id":"4","last_reported":1767222648,"current_range_meters":12800,"station_id":"ce4bhlh2rcd13ifvqgig","pricing_plan_id":"cebpf4jnsgd1na2vs0mg"},{"bike_id":"9cd33af6-41d1-41ec-a4f6-c787448ebf12","system_id":"levelo_inurba_marseille","lat":43.31276,"lon":5.40121,"is_reserved":false,"is_disabled":false,"rental_uris":{"android":"levelo://app?vid=9cd33af6-41d1-41ec-a4f6-c787448ebf12","ios":"levelo://app?vid=9cd33af6-41d1-41ec-a4f6-c787448ebf12"},"vehicle_type_id":"4","last_reported":1767222648,"current_range_meters":12800,"station_id":"ce4bh092rcd13ifvqd30","pricing_plan_id":"cebpf4jnsgd1na2vs0mg"},{"bike_id":"f10f38ab-c7b0-4c5f-9e5b-f1c81dc1dbfc","system_id":"levelo_inurba_marseille","lat":43.30807,"lon":5.38151,"is_reserved":false,"is_disabled":false,"rental_uris":{"android":"levelo://app?vid=f10f38ab-c7b0-4c5f-9e5b-f1c81dc1dbfc","ios":"levelo://app?vid=f10f38ab-c7b0-4c5f-9e5b-f1c81dc1dbfc"},"vehicle_type_id":"4","last_reported":1767222648,"current_range_meters":12800,"station_id":"ce4bgt12rcd13ifvqce0","pricing_plan_id":"cebpf4jnsgd1na2vs0mg"},{"bike_id":"a437d2d0-db2d-4991-aac2-2578f8ce8ba6","system_id":"levelo_inurba_marseille","lat":43.2928,"lon":5.36838,"is_reserved":false,"is_disabled":false,"rental_uris":{"android":"levelo://app?vid=a437d2d0-db2d-4991-aac2-2578f8ce8ba6","ios":"levelo://app?vid=a437d2d0-db2d-4991-aac2-2578f8ce8ba6"},"vehicle_type_id":"4","last_reported":1767222648,"current_range_meters":12800,"station_id":"ce4bhbp2rcd13ifvqesg","pricing_plan_id":"cebpf4jnsgd1na2vs0mg"},{"bike_id":"f3a4c2fd-c27a-4ca6-bbe5-3949d2a88808","system_id":"levelo_inurba_marseille","lat":43.28579,"lon":5.42976,"is_reserved":false,"is_disabled":false,"rental_uris":{"android":"levelo://app?vid=f3a4c2fd-c27a-4ca6-bbe5-3949d2a88808","ios":"levelo://app?vid=f3a4c2fd-c27a-4ca6-bbe5-3949d2a88808"},"vehicle_type_id":"4","last_reported":1767222648,"current_range_meters":12800,"station_id":"","pricing_plan_id":"cebpf4jnsgd1na2vs0mg"},{"bike_id":"1160be78-a46c-4189-a46b-414fa72391bf","system_id":"levelo_inurba_marseille","lat":43.29519,"lon":5.37508,"is_reserved":false,"is_disabled":false,"rental_uris":{"android":"levelo://app?vid=1160be78-a46c-4189-a46b-414fa72391bf","ios":"levelo://app?vid=1160be78-a46c-4189-a46b-414fa72391bf"},"vehicle_type_id":"4","last_reported":1767222648,"current_range_meters":12800,"station_id":"ce4bgkp2rcd13ifvqbmg","pricing_plan_id":"cebpf4jnsgd1na2vs0mg"},{"bike_id":"f9e9fd89-b7c6-4e84-90bb-2a2dc045365a","system_id":"levelo_inurba_marseille","lat":43.2705,"lon":5.40259,"is_reserved":false,"is_disabled":false,"rental_uris":{"android":"levelo://app?vid=f9e9fd89-b7c6-4e84-90bb-2a2dc045365a","ios":"levelo://app?vid=f9e9fd89-b7c6-4e84-90bb-2a2dc045365a"},"vehicle_type_id":"4","last_reported":1767222648,"current_range_meters":12800,"station_id":"ce4bhk92rcd13ifvqgc0","pricing_plan_id":"cebpf4jnsgd1na2vs0mg"},{"bike_id":"bebec6bc-9df3-406e-90bc-396ce2b3b0b3","system_id":"levelo_inurba_marseille","lat":43.26386,"lon":5.37414,"is_reserved":false,"is_disabled":false,"rental_uris":{"android":"levelo://app?vid=bebec6bc-9df3-406e-90bc-396ce2b3b0b3","ios":"levelo://app?vid=bebec6bc-9df3-406e-90bc-396ce2b3b0b3"},"vehicle_type_id":"4","last_reported":1767222648,"current_range_meters":12800,"station_id":"","pricing_plan_id":"cebpf4jnsgd1na2vs0mg"},{"bike_id":"a1f58a39-14f9-4a09-8b62-d0cad7312d9c","system_id":"levelo_inurba_marseille","lat":43.295963,"lon":5.381055,"is_reserved":false,"is_disabled":false,"rental_uris":{"android":"levelo://app?vid=a1f58a39-14f9-4a09-8b62-d0cad7312d9c","ios":"levelo://app?vid=a1f58a39-14f9-4a09-8b62-d0cad7312d9c"},"vehicle_type_id":"4","last_reported":1767222648,"current_range_meters":13600,"station_id":"ce4bgl12rcd13ifvqbo0","pricing_plan_id":"cebpf4jnsgd1na2vs0mg"},{"bike_id":"d0621c6b-67fd-484d-a798-cf1806150e83","system_id":"levelo_inurba_marseille","lat":43.29115,"lon":5.38114,"is_reserved":false,"is_disabled":false,"rental_uris":{"android":"levelo://app?vid=d0621c6b-67fd-484d-a798-cf1806150e83","ios":"levelo://app?vid=d0621c6b-67fd-484d-a798-cf1806150e83"},"vehicle_type_id":"4","last_reported":1767222648,"current_range_meters":13600,"station_id":"ce4bh512rcd13ifvqe2g","pricing_plan_id":"cebpf4jnsgd1na2vs0mg"},{"bike_id":"6fb45a38-412e-484d-8f99-6a8e87169809","system_id":"levelo_inurba_marseille","lat":43.284753,"lon":5.384083,"is_reserved":false,"is_disabled":false,"rental_uris":{"android":"levelo://app?vid=6fb45a38-412e-484d-8f99-6a8e87169809","ios":"levelo://app?vid=6fb45a38-412e-484d-8f99-6a8e87169809"},"vehicle_type_id":"4","last_reported":1767222648,"current_range_meters":13600,"station_id":"ce4bh512rcd13ifvqe3g","pricing_plan_id":"cebpf4jnsgd1na2vs0mg"},{"bike_id":"a5ed6123-7735-445c-8078-46d4ca98d044","system_id":"levelo_inurba_marseille","lat":43.26711,"lon":5.39584,"is_reserved":false,"is_disabled":false,"rental_uris":{"android":"levelo://app?vid=a5ed6123-7735-445c-8078-46d4ca98d044","ios":"levelo://app?vid=a5ed6123-7735-445c-8078-46d4ca98d044"},"vehicle_type_id":"4","last_reported":1767222648,"current_range_meters":13600,"station_id":"","pricing_plan_id":"cebpf4jnsgd1na2vs0mg"},{"bike_id":"ba4d9c7a-7aca-4b85-9206-966a264e9e7b","system_id":"levelo_inurba_marseille","lat":43.3135,"lon":5.38645,"is_reserved":false,"is_disabled":false,"rental_uris":{"android":"levelo://app?vid=ba4d9c7a-7aca-4b85-9206-966a264e9e7b","ios":"levelo://app?vid=ba4d9c7a-7aca-4b85-9206-966a264e9e7b"},"vehicle_type_id":"4","last_reported":1767222648,"current_range_meters":13600,"station_id":"","pricing_plan_id":"cebpf4jnsgd1na2vs0mg"},{"bike_id":"c3bee02d-93aa-4248-8e16-d265c18f3ce5","system_id":"levelo_inurba_marseille","lat":43.29909,"lon":5.3746,"is_reserved":false,"is_disabled":false,"rental_uris":{"android":"levelo://app?vid=c3bee02d-93aa-4248-8e16-d265c18f3ce5","ios":"levelo://app?vid=c3bee02d-93aa-4248-8e16-d265c18f3ce5"},"vehicle_type_id":"4","last_reported":1767222648,"current_range_meters":13600,"station_id":"ce4bgjh2rcd13ifvqbg0","pricing_plan_id":"cebpf4jnsgd1na2vs0mg"},{"bike_id":"4ae3a29d-f4ab-439c-9ae7-9e2538120a67","system_id":"levelo_inurba_marseille","lat":43.248,"lon":5.37455,"is_reserved":false,"is_disabled":false,"rental_uris":{"android":"levelo://app?vid=4ae3a29d-f4ab-439c-9ae7-9e2538120a67","ios":"levelo://app?vid=4ae3a29d-f4ab-439c-9ae7-9e2538120a67"},"vehicle_type_id":"4","last_reported":1767222648,"current_range_meters":13600,"station_id":"ce4bhgh2rcd13ifvqfb0","pricing_plan_id":"cebpf4jnsgd1na2vs0mg"},{"bike_id":"f3a2b5d7-54f1-4f47-8edc-92a6a29b3593","system_id":"levelo_inurba_marseille","lat":43.26947,"lon":5.38628,"is_reserved":false,"is_disabled":false,"rental_uris":{"android":"levelo://app?vid=f3a2b5d7-54f1-4f47-8edc-92a6a29b3593","ios":"levelo://app?vid=f3a2b5d7-54f1-4f47-8edc-92a6a29b3593"},"vehicle_type_id":"4","last_reported":1767222648,"current_range_meters":13600,"station_id":"ce4bhh92rcd13ifvqfh0","pricing_plan_id":"cebpf4jnsgd1na2vs0mg"},{"bike_id":"1579b22c-0739-4446-affd-66e597b52ce6","system_id":"levelo_inurba_marseille","lat":43.24656,"lon":5.38896,"is_reserved":false,"is_disabled":false,"rental_uris":{"android":"levelo://app?vid=1579b22c-0739-4446-affd-66e597b52ce6","ios":"levelo://app?vid=1579b22c-0739-4446-affd-66e597b52ce6"},"vehicle_type_id":"4","last_reported":1767222648,"current_range_meters":13600,"station_id":"ce4bhg12rcd13ifvqf60","pricing_plan_id":"cebpf4jnsgd1na2vs0mg"},{"bike_id":"3fd00cb0-0645-4a8c-874a-2e0df62cb4f5","system_id":"levelo_inurba_marseille","lat":43.29609,"lon":5.38133,"is_reserved":false,"is_disabled":false,"rental_uris":{"android":"levelo://app?vid=3fd00cb0-0645-4a8c-874a-2e0df62cb4f5","ios":"levelo://app?vid=3fd00cb0-0645-4a8c-874a-2e0df62cb4f5"},"vehicle_type_id":"4","last_reported":1767222648,"current_range_meters":13600,"station_id":"ce4bgl12rcd13ifvqbo0","pricing_plan_id":"cebpf4jnsgd1na2vs0mg"},{"bike_id":"39fbab48-2f07-4197-a98d-1184b202269d","system_id":"levelo_inurba_marseille","lat":43.28356,"lon":5.38109,"is_reserved":false,"is_disabled":false,"rental_uris":{"android":"levelo://app?vid=39fbab48-2f07-4197-a98d-1184b202269d","ios":"levelo://app?vid=39fbab48-2f07-4197-a98d-1184b202269d"},"vehicle_type_id":"4","last_reported":1767222648,"current_range_meters":13600,"station_id":"ce4bh412rcd13ifvqdr0","pricing_plan_id":"cebpf4jnsgd1na2vs0mg"},{"bike_id":"20541a07-e3c2-4d12-b13e-4f5e28d84422","system_id":"levelo_inurba_marseille","lat":43.33548,"lon":5.37555,"is_reserved":false,"is_disabled":false,"rental_uris":{"android":"levelo://app?vid=20541a07-e3c2-4d12-b13e-4f5e28d84422","ios":"levelo://app?vid=20541a07-e3c2-4d12-b13e-4f5e28d84422"},"vehicle_type_id":"4","last_reported":1767222648,"current_range_meters":13600,"station_id":"st_d46tts09ee8s73dlu43g","pricing_plan_id":"cebpf4jnsgd1na2vs0mg"},{"bike_id":"cc7d95c5-913c-4570-834d-a943b3da39e0","system_id":"levelo_inurba_marseille","lat":43.2798,"lon":5.38789,"is_reserved":false,"is_disabled":false,"rental_uris":{"android":"levelo://app?vid=cc7d95c5-913c-4570-834d-a943b3da39e0","ios":"levelo://app?vid=cc7d95c5-913c-4570-834d-a943b3da39e0"},"vehicle_type_id":"4","last_reported":1767222648,"current_range_meters":13600,"station_id":"ce4bhg12rcd13ifvqf80","pricing_plan_id":"cebpf4jnsgd1na2vs0mg"},{"bike_id":"76499c74-973d-426f-8f6d-e26d239c3972","system_id":"levelo_inurba_marseille","lat":43.27942,"lon":5.43592,"is_reserved":false,"is_disabled":false,"rental_uris":{"android":"levelo://app?vid=76499c74-973d-426f-8f6d-e26d239c3972","ios":"levelo://app?vid=76499c74-973d-426f-8f6d-e26d239c3972"},"vehicle_type_id":"4","last_reported":1767222648,"current_range_meters":13600,"station_id":"","pricing_plan_id":"cebpf4jnsgd1na2vs0mg"},{"bike_id":"00d77dff-783a-4259-812a-c31495c4b707","system_id":"levelo_inurba_marseille","lat":43.282662,"lon":5.35058,"is_reserved":false,"is_disabled":false,"rental_uris":{"android":"levelo://app?vid=00d77dff-783a-4259-812a-c31495c4b707","ios":"levelo://app?vid=00d77dff-783a-4259-812a-c31495c4b707"},"vehicle_type_id":"4","last_reported":1767222648,"current_range_meters":13600,"station_id":"ce4bhbp2rcd13ifvqerg","pricing_plan_id":"cebpf4jnsgd1na2vs0mg"},{"bike_id":"1e76a634-1236-4429-a6ca-562668962923","system_id":"levelo_inurba_marseille","lat":43.252211,"lon":5.394386,"is_reserved":false,"is_disabled":false,"rental_uris":{"android":"levelo://app?vid=1e76a634-1236-4429-a6ca-562668962923","ios":"levelo://app?vid=1e76a634-1236-4429-a6ca-562668962923"},"vehicle_type_id":"4","last_reported":1767222648,"current_range_meters":14000,"station_id":"","pricing_plan_id":"cebpf4jnsgd1na2vs0mg"},{"bike_id":"315029c2-0a71-4ee8-835b-5b1f7752a4f9","system_id":"levelo_inurba_marseille","lat":43.243901,"lon":5.370471,"is_reserved":false,"is_disabled":false,"rental_uris":{"android":"levelo://app?vid=315029c2-0a71-4ee8-835b-5b1f7752a4f9","ios":"levelo://app?vid=315029c2-0a71-4ee8-835b-5b1f7752a4f9"},"vehicle_type_id":"4","last_reported":1767222648,"current_range_meters":14000,"station_id":"ce4bhhh2rcd13ifvqfk0","pricing_plan_id":"cebpf4jnsgd1na2vs0mg"},{"bike_id":"1c5b41be-7d46-4208-9270-feeef196d241","system_id":"levelo_inurba_marseille","lat":43.29485,"lon":5.43307,"is_reserved":false,"is_disabled":false,"rental_uris":{"android":"levelo://app?vid=1c5b41be-7d46-4208-9270-feeef196d241","ios":"levelo://app?vid=1c5b41be-7d46-4208-9270-feeef196d241"},"vehicle_type_id":"4","last_reported":1767222648,"current_range_meters":14000,"station_id":"st_d3j5ugp08ojc73fj9d10","pricing_plan_id":"cebpf4jnsgd1na2vs0mg"},{"bike_id":"cd7d0a40-6934-44ab-8e3c-50df9c6164c9","system_id":"levelo_inurba_marseille","lat":43.27838,"lon":5.392,"is_reserved":false,"is_disabled":false,"rental_uris":{"android":"levelo://app?vid=cd7d0a40-6934-44ab-8e3c-50df9c6164c9","ios":"levelo://app?vid=cd7d0a40-6934-44ab-8e3c-50df9c6164c9"},"vehicle_type_id":"4","last_reported":1767222648,"current_range_meters":14000,"station_id":"ce4bhjp2rcd13ifvqga0","pricing_plan_id":"cebpf4jnsgd1na2vs0mg"},{"bike_id":"49ccaac4-fccf-4eaf-b377-a4441078db18","system_id":"levelo_inurba_marseille","lat":43.29901,"lon":5.4367,"is_reserved":false,"is_disabled":false,"rental_uris":{"android":"levelo://app?vid=49ccaac4-fccf-4eaf-b377-a4441078db18","ios":"levelo://app?vid=49ccaac4-fccf-4eaf-b377-a4441078db18"},"vehicle_type_id":"4","last_reported":1767222648,"current_range_meters":14000,"station_id":"ce4bhpp2rcd13ifvqhfg","pricing_plan_id":"cebpf4jnsgd1na2vs0mg"},{"bike_id":"adee5904-d2f9-48c4-ad58-68d27b5bb40a","system_id":"levelo_inurba_marseille","lat":43.2927,"lon":5.37677,"is_reserved":false,"is_disabled":false,"rental_uris":{"android":"levelo://app?vid=adee5904-d2f9-48c4-ad58-68d27b5bb40a","ios":"levelo://app?vid=adee5904-d2f9-48c4-ad58-68d27b5bb40a"},"vehicle_type_id":"4","last_reported":1767222648,"current_range_meters":14000,"station_id":"ce4bgi12rcd13ifvqb80","pricing_plan_id":"cebpf4jnsgd1na2vs0mg"},{"bike_id":"e072ce20-befa-4d9c-a562-c16f166965ba","system_id":"levelo_inurba_marseille","lat":43.21199,"lon":5.35061,"is_reserved":false,"is_disabled":true,"rental_uris":{"android":"levelo://app?vid=e072ce20-befa-4d9c-a562-c16f166965ba","ios":"levelo://app?vid=e072ce20-befa-4d9c-a562-c16f166965ba"},"vehicle_type_id":"4","last_reported":1767222648,"current_range_meters":14000,"station_id":"st_cvj6sg6p6f1abm77japg","pricing_plan_id":"cebpf4jnsgd1na2vs0mg"},{"bike_id":"81586eb2-5997-4a7f-910d-f12ada7984c8","system_id":"levelo_inurba_marseille","lat":43.299051,"lon":5.386127,"is_reserved":false,"is_disabled":false,"rental_uris":{"android":"levelo://app?vid=81586eb2-5997-4a7f-910d-f12ada7984c8","ios":"levelo://app?vid=81586eb2-5997-4a7f-910d-f12ada7984c8"},"vehicle_type_id":"4","last_reported":1767222648,"current_range_meters":14000,"station_id":"","pricing_plan_id":"cebpf4jnsgd1na2vs0mg"},{"bike_id":"961a4b80-6a80-41fc-af4e-cb7c655480a6","system_id":"levelo_inurba_marseille","lat":43.28298,"lon":5.3979,"is_reserved":false,"is_disabled":true,"rental_uris":{"android":"levelo://app?vid=961a4b80-6a80-41fc-af4e-cb7c655480a6","ios":"levelo://app?vid=961a4b80-6a80-41fc-af4e-cb7c655480a6"},"vehicle_type_id":"4","last_reported":1767222648,"current_range_meters":14000,"station_id":"","pricing_plan_id":"cebpf4jnsgd1na2vs0mg"},{"bike_id":"e0decbbd-66f2-41ff-95bf-ae2a7b2f4e23","system_id":"levelo_inurba_marseille","lat":43.28643,"lon":5.42595,"is_reserved":false,"is_disabled":false,"rental_uris":{"android":"levelo://app?vid=e0decbbd-66f2-41ff-95bf-ae2a7b2f4e23","ios":"levelo://app?vid=e0decbbd-66f2-41ff-95bf-ae2a7b2f4e23"},"vehicle_type_id":"4","last_reported":1767222648,"current_range_meters":14000,"station_id":"","pricing_plan_id":"cebpf4jnsgd1na2vs0mg"},{"bike_id":"17f08c58-0da3-492f-bab8-e3534c9a25cc","system_id":"levelo_inurba_marseille","lat":43.32054,"lon":5.41526,"is_reserved":false,"is_disabled":false,"rental_uris":{"android":"levelo://app?vid=17f08c58-0da3-492f-bab8-e3534c9a25cc","ios":"levelo://app?vid=17f08c58-0da3-492f-bab8-e3534c9a25cc"},"vehicle_type_id":"4","last_reported":1767222648,"current_range_meters":14000,"station_id":"ce4bhq92rcd13ifvqhkg","pricing_plan_id":"cebpf4jnsgd1na2vs0mg"},{"bike_id":"0d534b9e-8152-4a4f-b776-4b5239420897","system_id":"levelo_inurba_marseille","lat":43.30898,"lon":5.3685,"is_reserved":false,"is_disabled":false,"rental_uris":{"android":"levelo://app?vid=0d534b9e-8152-4a4f-b776-4b5239420897","ios":"levelo://app?vid=0d534b9e-8152-4a4f-b776-4b5239420897"},"vehicle_type_id":"4","last_reported":1767222648,"current_range_meters":14000,"station_id":"ce4bgn92rcd13ifvqbvg","pricing_plan_id":"cebpf4jnsgd1na2vs0mg"},{"bike_id":"5c697cf1-3155-402b-bc5c-8bfef5fdb183","system_id":"levelo_inurba_marseille","lat":43.2994,"lon":5.38524,"is_reserved":false,"is_disabled":false,"rental_uris":{"android":"levelo://app?vid=5c697cf1-3155-402b-bc5c-8bfef5fdb183","ios":"levelo://app?vid=5c697cf1-3155-402b-bc5c-8bfef5fdb183"},"vehicle_type_id":"4","last_reported":1767222648,"current_range_meters":14400,"station_id":"ce4bgj92rcd13ifvqbd0","pricing_plan_id":"cebpf4jnsgd1na2vs0mg"},{"bike_id":"54045760-2072-46e5-a5c4-00c3b9646aa6","system_id":"levelo_inurba_marseille","lat":43.29979,"lon":5.37171,"is_reserved":false,"is_disabled":false,"rental_uris":{"android":"levelo://app?vid=54045760-2072-46e5-a5c4-00c3b9646aa6","ios":"levelo://app?vid=54045760-2072-46e5-a5c4-00c3b9646aa6"},"vehicle_type_id":"4","last_reported":1767222648,"current_range_meters":14400,"station_id":"ce4bgr92rcd13ifvqc7g","pricing_plan_id":"cebpf4jnsgd1na2vs0mg"},{"bike_id":"a63eff76-4348-433b-98e8-106875d368d9","system_id":"levelo_inurba_marseille","lat":43.311,"lon":5.372862,"is_reserved":false,"is_disabled":false,"rental_uris":{"android":"levelo://app?vid=a63eff76-4348-433b-98e8-106875d368d9","ios":"levelo://app?vid=a63eff76-4348-433b-98e8-106875d368d9"},"vehicle_type_id":"4","last_reported":1767222648,"current_range_meters":14400,"station_id":"","pricing_plan_id":"cebpf4jnsgd1na2vs0mg"},{"bike_id":"32cbcd6b-22a0-47d3-ae4c-55539767b9a6","system_id":"levelo_inurba_marseille","lat":43.32107,"lon":5.36803,"is_reserved":false,"is_disabled":false,"rental_uris":{"android":"levelo://app?vid=32cbcd6b-22a0-47d3-ae4c-55539767b9a6","ios":"levelo://app?vid=32cbcd6b-22a0-47d3-ae4c-55539767b9a6"},"vehicle_type_id":"4","last_reported":1767222648,"current_range_meters":14400,"station_id":"ce4bhrh2rcd13ifvqhug","pricing_plan_id":"cebpf4jnsgd1na2vs0mg"},{"bike_id":"27eab711-3794-4c67-b72c-787e5b4b546b","system_id":"levelo_inurba_marseille","lat":43.25576,"lon":5.38244,"is_reserved":false,"is_disabled":false,"rental_uris":{"android":"levelo://app?vid=27eab711-3794-4c67-b72c-787e5b4b546b","ios":"levelo://app?vid=27eab711-3794-4c67-b72c-787e5b4b546b"},"vehicle_type_id":"4","last_reported":1767222648,"current_range_meters":14400,"station_id":"ce4bhih2rcd13ifvqfs0","pricing_plan_id":"cebpf4jnsgd1na2vs0mg"},{"bike_id":"ab98afa8-4907-4b9f-b6c6-75e71a064cde","system_id":"levelo_inurba_marseille","lat":43.25732,"lon":5.41092,"is_reserved":false,"is_disabled":true,"rental_uris":{"android":"levelo://app?vid=ab98afa8-4907-4b9f-b6c6-75e71a064cde","ios":"levelo://app?vid=ab98afa8-4907-4b9f-b6c6-75e71a064cde"},"vehicle_type_id":"4","last_reported":1767222648,"current_range_meters":14400,"station_id":"ce4bhkp2rcd13ifvqgd0","pricing_plan_id":"cebpf4jnsgd1na2vs0mg"},{"bike_id":"82776162-1d12-4295-8477-7221a53661c8","system_id":"levelo_inurba_marseille","lat":43.284146,"lon":5.37511,"is_reserved":false,"is_disabled":false,"rental_uris":{"android":"levelo://app?vid=82776162-1d12-4295-8477-7221a53661c8","ios":"levelo://app?vid=82776162-1d12-4295-8477-7221a53661c8"},"vehicle_type_id":"4","last_reported":1767222648,"current_range_meters":14400,"station_id":"ce4bh412rcd13ifvqds0","pricing_plan_id":"cebpf4jnsgd1na2vs0mg"},{"bike_id":"328debb6-db5e-4c60-b5c3-44e2124d0bbc","system_id":"levelo_inurba_marseille","lat":43.29676,"lon":5.37759,"is_reserved":false,"is_disabled":false,"rental_uris":{"android":"levelo://app?vid=328debb6-db5e-4c60-b5c3-44e2124d0bbc","ios":"levelo://app?vid=328debb6-db5e-4c60-b5c3-44e2124d0bbc"},"vehicle_type_id":"4","last_reported":1767222648,"current_range_meters":14400,"station_id":"ce4bgkp2rcd13ifvqbmg","pricing_plan_id":"cebpf4jnsgd1na2vs0mg"},{"bike_id":"1498f079-e300-4265-837b-8da7d97aca06","system_id":"levelo_inurba_marseille","lat":43.24168,"lon":5.36393,"is_reserved":false,"is_disabled":false,"rental_uris":{"android":"levelo://app?vid=1498f079-e300-4265-837b-8da7d97aca06","ios":"levelo://app?vid=1498f079-e300-4265-837b-8da7d97aca06"},"vehicle_type_id":"4","last_reported":1767222648,"current_range_meters":14400,"station_id":"cpo36qri1sfpv3e86is0","pricing_plan_id":"cebpf4jnsgd1na2vs0mg"},{"bike_id":"7e566fc6-b8ba-47f2-8e61-207945934afa","system_id":"levelo_inurba_marseille","lat":43.29766,"lon":5.42781,"is_reserved":false,"is_disabled":false,"rental_uris":{"android":"levelo://app?vid=7e566fc6-b8ba-47f2-8e61-207945934afa","ios":"levelo://app?vid=7e566fc6-b8ba-47f2-8e61-207945934afa"},"vehicle_type_id":"4","last_reported":1767222648,"current_range_meters":14400,"station_id":"st_d3md5207bmas73dh9klg","pricing_plan_id":"cebpf4jnsgd1na2vs0mg"},{"bike_id":"03396f01-143e-4b0b-83da-8fba94916c27","system_id":"levelo_inurba_marseille","lat":43.286072,"lon":5.35101,"is_reserved":false,"is_disabled":false,"rental_uris":{"android":"levelo://app?vid=03396f01-143e-4b0b-83da-8fba94916c27","ios":"levelo://app?vid=03396f01-143e-4b0b-83da-8fba94916c27"},"vehicle_type_id":"4","last_reported":1767222648,"current_range_meters":14400,"station_id":"ce4bhch2rcd13ifvqeug","pricing_plan_id":"cebpf4jnsgd1na2vs0mg"},{"bike_id":"dc7a5eee-82dc-449b-b299-108bd65538af","system_id":"levelo_inurba_marseille","lat":43.27206,"lon":5.39198,"is_reserved":false,"is_disabled":false,"rental_uris":{"android":"levelo://app?vid=dc7a5eee-82dc-449b-b299-108bd65538af","ios":"levelo://app?vid=dc7a5eee-82dc-449b-b299-108bd65538af"},"vehicle_type_id":"4","last_reported":1767222648,"current_range_meters":14400,"station_id":"ce4bhhp2rcd13ifvqfm0","pricing_plan_id":"cebpf4jnsgd1na2vs0mg"},{"bike_id":"b1a824fa-a1ae-4374-b635-2f2b1336758f","system_id":"levelo_inurba_marseille","lat":43.30546,"lon":5.36543,"is_reserved":false,"is_disabled":false,"rental_uris":{"android":"levelo://app?vid=b1a824fa-a1ae-4374-b635-2f2b1336758f","ios":"levelo://app?vid=b1a824fa-a1ae-4374-b635-2f2b1336758f"},"vehicle_type_id":"4","last_reported":1767222648,"current_range_meters":14400,"station_id":"ce4bgs12rcd13ifvqcag","pricing_plan_id":"cebpf4jnsgd1na2vs0mg"},{"bike_id":"bf0e9831-c74b-4b77-afac-4e525f8e3fd0","system_id":"levelo_inurba_marseille","lat":43.244,"lon":5.3707,"is_reserved":false,"is_disabled":false,"rental_uris":{"android":"levelo://app?vid=bf0e9831-c74b-4b77-afac-4e525f8e3fd0","ios":"levelo://app?vid=bf0e9831-c74b-4b77-afac-4e525f8e3fd0"},"vehicle_type_id":"4","last_reported":1767222648,"current_range_meters":14400,"station_id":"ce4bhhh2rcd13ifvqfk0","pricing_plan_id":"cebpf4jnsgd1na2vs0mg"},{"bike_id":"522adc2e-b4e3-4edd-b450-4646be9e7fe7","system_id":"levelo_inurba_marseille","lat":43.29303,"lon":5.37469,"is_reserved":false,"is_disabled":false,"rental_uris":{"android":"levelo://app?vid=522adc2e-b4e3-4edd-b450-4646be9e7fe7","ios":"levelo://app?vid=522adc2e-b4e3-4edd-b450-4646be9e7fe7"},"vehicle_type_id":"4","last_reported":1767222648,"current_range_meters":14800,"station_id":"ce4bgi12rcd13ifvqb70","pricing_plan_id":"cebpf4jnsgd1na2vs0mg"},{"bike_id":"5294767e-dd69-4945-8c8e-03dd74e904a7","system_id":"levelo_inurba_marseille","lat":43.23053,"lon":5.35486,"is_reserved":false,"is_disabled":false,"rental_uris":{"android":"levelo://app?vid=5294767e-dd69-4945-8c8e-03dd74e904a7","ios":"levelo://app?vid=5294767e-dd69-4945-8c8e-03dd74e904a7"},"vehicle_type_id":"4","last_reported":1767222648,"current_range_meters":14800,"station_id":"cpo3342slgdg3j2ifvpg","pricing_plan_id":"cebpf4jnsgd1na2vs0mg"},{"bike_id":"7010e71b-ff30-440a-a5e4-77d143cebf11","system_id":"levelo_inurba_marseille","lat":43.29538,"lon":5.38548,"is_reserved":false,"is_disabled":false,"rental_uris":{"android":"levelo://app?vid=7010e71b-ff30-440a-a5e4-77d143cebf11","ios":"levelo://app?vid=7010e71b-ff30-440a-a5e4-77d143cebf11"},"vehicle_type_id":"4","last_reported":1767222648,"current_range_meters":14800,"station_id":"ce4bgih2rcd13ifvqba0","pricing_plan_id":"cebpf4jnsgd1na2vs0mg"},{"bike_id":"f82d391f-fa54-4944-99a1-f43326016a14","system_id":"levelo_inurba_marseille","lat":43.31756,"lon":5.38983,"is_reserved":false,"is_disabled":false,"rental_uris":{"android":"levelo://app?vid=f82d391f-fa54-4944-99a1-f43326016a14","ios":"levelo://app?vid=f82d391f-fa54-4944-99a1-f43326016a14"},"vehicle_type_id":"4","last_reported":1767222648,"current_range_meters":14800,"station_id":"ce4bhqp2rcd13ifvqhng","pricing_plan_id":"cebpf4jnsgd1na2vs0mg"},{"bike_id":"3f92dcc5-d2e5-4ffb-bd75-4e4527d3b989","system_id":"levelo_inurba_marseille","lat":43.29557,"lon":5.36283,"is_reserved":false,"is_disabled":false,"rental_uris":{"android":"levelo://app?vid=3f92dcc5-d2e5-4ffb-bd75-4e4527d3b989","ios":"levelo://app?vid=3f92dcc5-d2e5-4ffb-bd75-4e4527d3b989"},"vehicle_type_id":"4","last_reported":1767222648,"current_range_meters":14800,"station_id":"","pricing_plan_id":"cebpf4jnsgd1na2vs0mg"},{"bike_id":"aae83613-d180-4239-9800-5e6ea52a6395","system_id":"levelo_inurba_marseille","lat":43.31214,"lon":5.36848,"is_reserved":false,"is_disabled":false,"rental_uris":{"android":"levelo://app?vid=aae83613-d180-4239-9800-5e6ea52a6395","ios":"levelo://app?vid=aae83613-d180-4239-9800-5e6ea52a6395"},"vehicle_type_id":"4","last_reported":1767222648,"current_range_meters":14800,"station_id":"ce4bgl92rcd13ifvqbq0","pricing_plan_id":"cebpf4jnsgd1na2vs0mg"},{"bike_id":"6871c455-5904-4967-9b63-12e497daa9e7","system_id":"levelo_inurba_marseille","lat":43.27065,"lon":5.38332,"is_reserved":false,"is_disabled":false,"rental_uris":{"android":"levelo://app?vid=6871c455-5904-4967-9b63-12e497daa9e7","ios":"levelo://app?vid=6871c455-5904-4967-9b63-12e497daa9e7"},"vehicle_type_id":"4","last_reported":1767222648,"current_range_meters":14800,"station_id":"st_d3n2fo6cfp8s73cte1j0","pricing_plan_id":"cebpf4jnsgd1na2vs0mg"},{"bike_id":"7434a06b-847f-4d84-a291-a7d92ccc028e","system_id":"levelo_inurba_marseille","lat":43.3013,"lon":5.43113,"is_reserved":false,"is_disabled":false,"rental_uris":{"android":"levelo://app?vid=7434a06b-847f-4d84-a291-a7d92ccc028e","ios":"levelo://app?vid=7434a06b-847f-4d84-a291-a7d92ccc028e"},"vehicle_type_id":"4","last_reported":1767222648,"current_range_meters":14800,"station_id":"st_d3js3co5814s73ftftug","pricing_plan_id":"cebpf4jnsgd1na2vs0mg"},{"bike_id":"fa2a4b4d-f3cf-44f3-afe1-d81895fc2895","system_id":"levelo_inurba_marseille","lat":43.231554,"lon":5.437031,"is_reserved":false,"is_disabled":true,"rental_uris":{"android":"levelo://app?vid=fa2a4b4d-f3cf-44f3-afe1-d81895fc2895","ios":"levelo://app?vid=fa2a4b4d-f3cf-44f3-afe1-d81895fc2895"},"vehicle_type_id":"4","last_reported":1767222648,"current_range_meters":14800,"station_id":"ce4bhmp2rcd13ifvqgog","pricing_plan_id":"cebpf4jnsgd1na2vs0mg"},{"bike_id":"838c02fc-11fc-4946-8d59-b1c86b45d49a","system_id":"levelo_inurba_marseille","lat":43.282888,"lon":5.352811,"is_reserved":false,"is_disabled":false,"rental_uris":{"android":"levelo://app?vid=838c02fc-11fc-4946-8d59-b1c86b45d49a","ios":"levelo://app?vid=838c02fc-11fc-4946-8d59-b1c86b45d49a"},"vehicle_type_id":"4","last_reported":1767222648,"current_range_meters":14800,"station_id":"","pricing_plan_id":"cebpf4jnsgd1na2vs0mg"},{"bike_id":"eaf42e81-c6eb-443b-b727-1b9f088c2644","system_id":"levelo_inurba_marseille","lat":43.2953,"lon":5.39041,"is_reserved":false,"is_disabled":false,"rental_uris":{"android":"levelo://app?vid=eaf42e81-c6eb-443b-b727-1b9f088c2644","ios":"levelo://app?vid=eaf42e81-c6eb-443b-b727-1b9f088c2644"},"vehicle_type_id":"4","last_reported":1767222648,"current_range_meters":15200,"station_id":"ce4bh3p2rcd13ifvqdp0","pricing_plan_id":"cebpf4jnsgd1na2vs0mg"},{"bike_id":"f48db1ba-fe94-4513-8903-89b344d86aa6","system_id":"levelo_inurba_marseille","lat":43.29797,"lon":5.37067,"is_reserved":false,"is_disabled":false,"rental_uris":{"android":"levelo://app?vid=f48db1ba-fe94-4513-8903-89b344d86aa6","ios":"levelo://app?vid=f48db1ba-fe94-4513-8903-89b344d86aa6"},"vehicle_type_id":"4","last_reported":1767222648,"current_range_meters":15200,"station_id":"ce4bgop2rcd13ifvqc1g","pricing_plan_id":"cebpf4jnsgd1na2vs0mg"},{"bike_id":"fb5c9063-168c-414e-ac58-b82ef6d48a72","system_id":"levelo_inurba_marseille","lat":43.29773,"lon":5.37087,"is_reserved":false,"is_disabled":false,"rental_uris":{"android":"levelo://app?vid=fb5c9063-168c-414e-ac58-b82ef6d48a72","ios":"levelo://app?vid=fb5c9063-168c-414e-ac58-b82ef6d48a72"},"vehicle_type_id":"4","last_reported":1767222648,"current_range_meters":15200,"station_id":"ce4bgop2rcd13ifvqc1g","pricing_plan_id":"cebpf4jnsgd1na2vs0mg"},{"bike_id":"33d27fd2-4a0f-447b-b143-0f1e96c92703","system_id":"levelo_inurba_marseille","lat":43.31268,"lon":5.37926,"is_reserved":false,"is_disabled":false,"rental_uris":{"android":"levelo://app?vid=33d27fd2-4a0f-447b-b143-0f1e96c92703","ios":"levelo://app?vid=33d27fd2-4a0f-447b-b143-0f1e96c92703"},"vehicle_type_id":"4","last_reported":1767222648,"current_range_meters":15200,"station_id":"","pricing_plan_id":"cebpf4jnsgd1na2vs0mg"},{"bike_id":"4ca7a96f-0f61-4a0c-8722-036f173b518d","system_id":"levelo_inurba_marseille","lat":43.275685,"lon":5.384307,"is_reserved":false,"is_disabled":false,"rental_uris":{"android":"levelo://app?vid=4ca7a96f-0f61-4a0c-8722-036f173b518d","ios":"levelo://app?vid=4ca7a96f-0f61-4a0c-8722-036f173b518d"},"vehicle_type_id":"4","last_reported":1767222648,"current_range_meters":15200,"station_id":"ce4bhh92rcd13ifvqfi0","pricing_plan_id":"cebpf4jnsgd1na2vs0mg"},{"bike_id":"b4cca182-da22-4d77-af00-7e48f4653398","system_id":"levelo_inurba_marseille","lat":43.278001,"lon":5.407491,"is_reserved":false,"is_disabled":false,"rental_uris":{"android":"levelo://app?vid=b4cca182-da22-4d77-af00-7e48f4653398","ios":"levelo://app?vid=b4cca182-da22-4d77-af00-7e48f4653398"},"vehicle_type_id":"4","last_reported":1767222648,"current_range_meters":15200,"station_id":"ce4bhnh2rcd13ifvqgtg","pricing_plan_id":"cebpf4jnsgd1na2vs0mg"},{"bike_id":"bc5e3544-bda1-4030-aedf-2a64fd688c9d","system_id":"levelo_inurba_marseille","lat":43.32105,"lon":5.36804,"is_reserved":false,"is_disabled":false,"rental_uris":{"android":"levelo://app?vid=bc5e3544-bda1-4030-aedf-2a64fd688c9d","ios":"levelo://app?vid=bc5e3544-bda1-4030-aedf-2a64fd688c9d"},"vehicle_type_id":"4","last_reported":1767222648,"current_range_meters":15200,"station_id":"ce4bhrh2rcd13ifvqhug","pricing_plan_id":"cebpf4jnsgd1na2vs0mg"},{"bike_id":"c45921cd-2fab-482e-ae8b-ae549a6d7de9","system_id":"levelo_inurba_marseille","lat":43.28277,"lon":5.35066,"is_reserved":false,"is_disabled":false,"rental_uris":{"android":"levelo://app?vid=c45921cd-2fab-482e-ae8b-ae549a6d7de9","ios":"levelo://app?vid=c45921cd-2fab-482e-ae8b-ae549a6d7de9"},"vehicle_type_id":"4","last_reported":1767222648,"current_range_meters":15200,"station_id":"ce4bhbp2rcd13ifvqerg","pricing_plan_id":"cebpf4jnsgd1na2vs0mg"},{"bike_id":"b6c2de47-37fa-44c1-ae2a-ab2b9c904820","system_id":"levelo_inurba_marseille","lat":43.28474,"lon":5.38435,"is_reserved":false,"is_disabled":false,"rental_uris":{"android":"levelo://app?vid=b6c2de47-37fa-44c1-ae2a-ab2b9c904820","ios":"levelo://app?vid=b6c2de47-37fa-44c1-ae2a-ab2b9c904820"},"vehicle_type_id":"4","last_reported":1767222648,"current_range_meters":15200,"station_id":"ce4bh512rcd13ifvqe3g","pricing_plan_id":"cebpf4jnsgd1na2vs0mg"},{"bike_id":"92d581a7-30a5-40b9-9406-f8b8db093a1c","system_id":"levelo_inurba_marseille","lat":43.29903,"lon":5.43703,"is_reserved":false,"is_disabled":false,"rental_uris":{"android":"levelo://app?vid=92d581a7-30a5-40b9-9406-f8b8db093a1c","ios":"levelo://app?vid=92d581a7-30a5-40b9-9406-f8b8db093a1c"},"vehicle_type_id":"4","last_reported":1767222648,"current_range_meters":15200,"station_id":"","pricing_plan_id":"cebpf4jnsgd1na2vs0mg"},