{"last_updated":1679245563,"ttl":30,"version":"2.2","data":{"bikes":[{"bike_id":"9108b3b7-7d9f-404a-b5e2-eb9f852c17f4","system_id":"levelo_inurba_marseille","lat":43.31224,"lon":5.36855,"is_reserved":false,"is_disabled":false,"rental_uris":{"android":"levelo://app?vid=9108b3b7-7d9f-404a-b5e2-eb9f852c17f4","ios":"levelo://app?vid=9108b3b7-7d9f-404a-b5e2-eb9f852c17f4"},"vehicle_type_id":"4","last_reported":1679245565,"current_range_meters":0,"station_id":"","pricing_plan_id":"free"},{"bike_id":"9ee013e7-e170-4519-b56d-bccc7f792a9e","system_id":"levelo_inurba_marseille","lat":43.31478,"lon":5.37315,"is_reserved":false,"is_disabled":false,"rental_uris":{"android":"levelo://app?vid=9ee013e7-e170-4519-b56d-bccc7f792a9e","ios":"levelo://app?vid=9ee013e7-e170-4519-b56d-bccc7f792a9e"},"vehicle_type_id":"4","last_reported":1679245565,"current_range_meters":4400,"station_id":"","pricing_plan_id":"free"},{"bike_id":"a1a25a12-14f7-40fa-b5aa-31d4af823670","system_id":"levelo_inurba_marseille","lat":43.301939,"lon":5.366286,"is_reserved":false,"is_disabled":false,"rental_uris":{"android":"levelo://app?vid=a1a25a12-14f7-40fa-b5aa-31d4af823670","ios":"levelo://app?vid=a1a25a12-14f7-40fa-b5aa-31d4af823670"},"vehicle_type_id":"4","last_reported":1679245565,"current_range_meters":18800,"station_id":"ce4bgrh2rcd13ifvqc8g","pricing_plan_id":"free"},{"bike_id":"4dcd9f80-35af-414f-bcaf-06cfeeba3b71","system_id":"levelo_inurba_marseille","lat":43.301939,"lon":5.366286,"is_reserved":false,"is_disabled":false,"rental_uris":{"android":"levelo://app?vid=4dcd9f80-35af-414f-bcaf-06cfeeba3b71","ios":"levelo://app?vid=4dcd9f80-35af-414f-bcaf-06cfeeba3b71"},"vehicle_type_id":"4","last_reported":1679245565,"current_range_meters":0,"station_id":"ce4bgrh2rcd13ifvqc8g","pricing_plan_id":"free"},{"bike_id":"7551c742-6ae4-4abd-9be2-0e10796d5a9f","system_id":"levelo_inurba_marseille","lat":43.301939,"lon":5.366286,"is_reserved":false,"is_disabled":false,"rental_uris":{"android":"levelo://app?vid=7551c742-6ae4-4abd-9be2-0e10796d5a9f","ios":"levelo://app?vid=7551c742-6ae4-4abd-9be2-0e10796d5a9f"},"vehicle_type_id":"4","last_reported":1679245565,"current_range_meters":15200,"station_id":"ce4bgrh2rcd13ifvqc8g","pricing_plan_id":"free"},{"bike_id":"42573605-396f-4184-9667-54433f31a973","system_id":"levelo_inurba_marseille","lat":43.301939,"lon":5.366286,"is_reserved":false,"is_disabled":false,"rental_uris":{"android":"levelo://app?vid=42573605-396f-4184-9667-54433f31a973","ios":"levelo://app?vid=42573605-396f-4184-9667-54433f31a973"},"vehicle_type_id":"4","last_reported":1679245565,"current_range_meters":16800,"station_id":"ce4bgrh2rcd13ifvqc8g","pricing_plan_id":"free"},{"bike_id":"21ac6171-29c1-46c0-ac05-ba0fdfaa921e","system_id":"levelo_inurba_marseille","lat":43.301939,"lon":5.366286,"is_reserved":false,"is_disabled":false,"rental_uris":{"android":"levelo://app?vid=21ac6171-29c1-46c0-ac05-ba0fdfaa921e","ios":"levelo://app?vid=21ac6171-29c1-46c0-ac05-ba0fdfaa921e"},"vehicle_type_id":"4","last_reported":1679245565,"current_range_meters":13200,"station_id":"ce4bgrh2rcd13ifvqc8g","pricing_plan_id":"free"},{"bike_id":"e0735736-cd19-4ac2-af1f-67182ea36553","system_id":"levelo_inurba_marseille","lat":43.301867,"lon":5.366139,"is_reserved":false,"is_disabled":false,"rental_uris":{"android":"levelo://app?vid=e0735736-cd19-4ac2-af1f-67182ea36553","ios":"levelo://app?vid=e0735736-cd19-4ac2-af1f-67182ea36553"},"vehicle_type_id":"4","last_reported":1679245565,"current_range_meters":15200,"station_id":"ce4bgrh2rcd13ifvqc8g","pricing_plan_id":"free"},{"bike_id":"bb5b9a4d-2617-4257-a56c-3f922c2f4203","system_id":"levelo_inurba_marseille","lat":43.304606,"lon":5.379026,"is_reserved":false,"is_disabled":false,"rental_uris":{"android":"levelo://app?vid=bb5b9a4d-2617-4257-a56c-3f922c2f4203","ios":"levelo://app?vid=bb5b9a4d-2617-4257-a56c-3f922c2f4203"},"vehicle_type_id":"4","last_reported":1679245565,"current_range_meters":0,"station_id":"ce4bgup2rcd13ifvqcn0","pricing_plan_id":"free"},{"bike_id":"fdaacb29-c0da-4e6b-940b-ba19192b823e","system_id":"levelo_inurba_marseille","lat":43.31371,"lon":5.38489,"is_reserved":false,"is_disabled":false,"rental_uris":{"android":"levelo://app?vid=fdaacb29-c0da-4e6b-940b-ba19192b823e","ios":"levelo://app?vid=fdaacb29-c0da-4e6b-940b-ba19192b823e"},"vehicle_type_id":"4","last_reported":1679245565,"current_range_meters":15200,"station_id":"ce4bgt92rcd13ifvqcf0","pricing_plan_id":"free"},{"bike_id":"29b1cfe4-3a7e-4e65-bc8a-78d8cd7fd4b1","system_id":"levelo_inurba_marseille","lat":43.29847,"lon":5.362779,"is_reserved":false,"is_disabled":false,"rental_uris":{"android":"levelo://app?vid=29b1cfe4-3a7e-4e65-bc8a-78d8cd7fd4b1","ios":"levelo://app?vid=29b1cfe4-3a7e-4e65-bc8a-78d8cd7fd4b1"},"vehicle_type_id":"4","last_reported":1679245565,"current_range_meters":15600,"station_id":"ce4bgpp2rcd13ifvqc3g","pricing_plan_id":"free"},{"bike_id":"8fa0ffd2-750b-4ecb-ace9-ff64129925d3","system_id":"levelo_inurba_marseille","lat":43.29786,"lon":5.37102,"is_reserved":false,"is_disabled":false,"rental_uris":{"android":"levelo://app?vid=8fa0ffd2-750b-4ecb-ace9-ff64129925d3","ios":"levelo://app?vid=8fa0ffd2-750b-4ecb-ace9-ff64129925d3"},"vehicle_type_id":"4","last_reported":1679245565,"current_range_meters":13600,"station_id":"","pricing_plan_id":"free"},{"bike_id":"9cac630b-aeda-443e-b6b4-c42ea59782df","system_id":"levelo_inurba_marseille","lat":43.296819,"lon":5.372891,"is_reserved":false,"is_disabled":false,"rental_uris":{"android":"levelo://app?vid=9cac630b-aeda-443e-b6b4-c42ea59782df","ios":"levelo://app?vid=9cac630b-aeda-443e-b6b4-c42ea59782df"},"vehicle_type_id":"4","last_reported":1679245565,"current_range_meters":27200,"station_id":"","pricing_plan_id":"free"},{"bike_id":"4df85eb7-1e39-4e3d-b219-81ef92ded30f","system_id":"levelo_inurba_marseille","lat":43.296131,"lon":5.370791,"is_reserved":false,"is_disabled":false,"rental_uris":{"android":"levelo://app?vid=4df85eb7-1e39-4e3d-b219-81ef92ded30f","ios":"levelo://app?vid=4df85eb7-1e39-4e3d-b219-81ef92ded30f"},"vehicle_type_id":"4","last_reported":1679245565,"current_range_meters":9600,"station_id":"ce4bgnh2rcd13ifvqc0g","pricing_plan_id":"free"},{"bike_id":"623931b8-bd5e-4d17-998e-c1e4d5bf9aef","system_id":"levelo_inurba_marseille","lat":43.31756,"lon":5.390125,"is_reserved":false,"is_disabled":false,"rental_uris":{"android":"levelo://app?vid=623931b8-bd5e-4d17-998e-c1e4d5bf9aef","ios":"levelo://app?vid=623931b8-bd5e-4d17-998e-c1e4d5bf9aef"},"vehicle_type_id":"4","last_reported":1679245565,"current_range_meters":3600,"station_id":"ce4bhqp2rcd13ifvqhng","pricing_plan_id":"free"},{"bike_id":"f985f925-2831-47d4-b6ab-d9a23c1401e9","system_id":"levelo_inurba_marseille","lat":43.31761,"lon":5.3902,"is_reserved":false,"is_disabled":false,"rental_uris":{"android":"levelo://app?vid=f985f925-2831-47d4-b6ab-d9a23c1401e9","ios":"levelo://app?vid=f985f925-2831-47d4-b6ab-d9a23c1401e9"},"vehicle_type_id":"4","last_reported":1679245565,"current_range_meters":2000,"station_id":"","pricing_plan_id":"free"},{"bike_id":"8f0253d3-dd17-42cf-841b-2d4082d06618","system_id":"levelo_inurba_marseille","lat":43.29804,"lon":5.380886,"is_reserved":false,"is_disabled":false,"rental_uris":{"android":"levelo://app?vid=8f0253d3-dd17-42cf-841b-2d4082d06618","ios":"levelo://app?vid=8f0253d3-dd17-42cf-841b-2d4082d06618"},"vehicle_type_id":"4","last_reported":1679245565,"current_range_meters":0,"station_id":"ce4bgip2rcd13ifvqbb0","pricing_plan_id":"free"},{"bike_id":"104a002e-1e9c-4115-85dc-e3527506c8d4","system_id":"levelo_inurba_marseille","lat":43.298025,"lon":5.380976,"is_reserved":false,"is_disabled":false,"rental_uris":{"android":"levelo://app?vid=104a002e-1e9c-4115-85dc-e3527506c8d4","ios":"levelo://app?vid=104a002e-1e9c-4115-85dc-e3527506c8d4"},"vehicle_type_id":"4","last_reported":1679245565,"current_range_meters":14800,"station_id":"ce4bgip2rcd13ifvqbb0","pricing_plan_id":"free"},{"bike_id":"d78a3fd8-c9a7-4ef9-8502-a3b5b432e575","system_id":"levelo_inurba_marseille","lat":43.29793,"lon":5.38091,"is_reserved":false,"is_disabled":false,"rental_uris":{"android":"levelo://app?vid=d78a3fd8-c9a7-4ef9-8502-a3b5b432e575","ios":"levelo://app?vid=d78a3fd8-c9a7-4ef9-8502-a3b5b432e575"},"vehicle_type_id":"4","last_reported":1679245565,"current_range_meters":0,"station_id":"ce4bgip2rcd13ifvqbb0","pricing_plan_id":"free"},{"bike_id":"f15dde75-bd99-4924-8c29-80b024cd6f8e","system_id":"levelo_inurba_marseille","lat":43.304278,"lon":5.388868,"is_reserved":false,"is_disabled":false,"rental_uris":{"android":"levelo://app?vid=f15dde75-bd99-4924-8c29-80b024cd6f8e","ios":"levelo://app?vid=f15dde75-bd99-4924-8c29-80b024cd6f8e"},"vehicle_type_id":"4","last_reported":1679245565,"current_range_meters":0,"station_id":"ce4bgk12rcd13ifvqbi0","pricing_plan_id":"free"},{"bike_id":"00fde6fb-b22f-46cf-9346-ed3417011e58","system_id":"levelo_inurba_marseille","lat":43.296263,"lon":5.377094,"is_reserved":false,"is_disabled":false,"rental_uris":{"android":"levelo://app?vid=00fde6fb-b22f-46cf-9346-ed3417011e58","ios":"levelo://app?vid=00fde6fb-b22f-46cf-9346-ed3417011e58"},"vehicle_type_id":"4","last_reported":1679245565,"current_range_meters":6000,"station_id":"ce4bgi92rcd13ifvqb90","pricing_plan_id":"free"},{"bike_id":"00ff9260-a77a-4da1-814b-693c4437ce19","system_id":"levelo_inurba_marseille","lat":43.296263,"lon":5.377094,"is_reserved":false,"is_disabled":false,"rental_uris":{"android":"levelo://app?vid=00ff9260-a77a-4da1-814b-693c4437ce19","ios":"levelo://app?vid=00ff9260-a77a-4da1-814b-693c4437ce19"},"vehicle_type_id":"4","last_reported":1679245565,"current_range_meters":11600,"station_id":"ce4bgi92rcd13ifvqb90","pricing_plan_id":"free"},{"bike_id":"1b1cbc36-fc4e-4f45-b4ea-adeddd5dfa3d","system_id":"levelo_inurba_marseille","lat":43.293249,"lon":5.371578,"is_reserved":false,"is_disabled":false,"rental_uris":{"android":"levelo://app?vid=1b1cbc36-fc4e-4f45-b4ea-adeddd5dfa3d","ios":"levelo://app?vid=1b1cbc36-fc4e-4f45-b4ea-adeddd5dfa3d"},"vehicle_type_id":"4","last_reported":1679245565,"current_range_meters":19600,"station_id":"ce4bgh92rcd13ifvqb40","pricing_plan_id":"free"},{"bike_id":"dc7edc83-f2ce-452c-8e00-6b67019b658c","system_id":"levelo_inurba_marseille","lat":43.29304,"lon":5.3717,"is_reserved":false,"is_disabled":false,"rental_uris":{"android":"levelo://app?vid=dc7edc83-f2ce-452c-8e00-6b67019b658c","ios":"levelo://app?vid=dc7edc83-f2ce-452c-8e00-6b67019b658c"},"vehicle_type_id":"4","last_reported":1679245565,"current_range_meters":2000,"station_id":"","pricing_plan_id":"free"},{"bike_id":"42bed595-717f-4f13-ae43-516b43ca9fa9","system_id":"levelo_inurba_marseille","lat":43.29234,"lon":5.37194,"is_reserved":false,"is_disabled":false,"rental_uris":{"android":"levelo://app?vid=42bed595-717f-4f13-ae43-516b43ca9fa9","ios":"levelo://app?vid=42bed595-717f-4f13-ae43-516b43ca9fa9"},"vehicle_type_id":"4","last_reported":1679245565,"current_range_meters":0,"station_id":"","pricing_plan_id":"free"},{"bike_id":"55414016-649d-4604-99f0-87897c128a04","system_id":"levelo_inurba_marseille","lat":43.2936,"lon":5.37835,"is_reserved":false,"is_disabled":false,"rental_uris":{"android":"levelo://app?vid=55414016-649d-4604-99f0-87897c128a04","ios":"levelo://app?vid=55414016-649d-4604-99f0-87897c128a04"},"vehicle_type_id":"4","last_reported":1679245565,"current_range_meters":7600,"station_id":"ce4bgjh2rcd13ifvqbf0","pricing_plan_id":"free"},{"bike_id":"0619c6df-152f-4ccb-ad8a-99bde75b7c62","system_id":"levelo_inurba_marseille","lat":43.298764,"lon":5.388973,"is_reserved":false,"is_disabled":false,"rental_uris":{"android":"levelo://app?vid=0619c6df-152f-4ccb-ad8a-99bde75b7c62","ios":"levelo://app?vid=0619c6df-152f-4ccb-ad8a-99bde75b7c62"},"vehicle_type_id":"4","last_reported":1679245565,"current_range_meters":21200,"station_id":"ce4bh392rcd13ifvqdl0","pricing_plan_id":"free"},{"bike_id":"94f2297a-064c-436c-a9c8-ed47ca73d0e1","system_id":"levelo_inurba_marseille","lat":43.291675,"lon":5.371583,"is_reserved":false,"is_disabled":false,"rental_uris":{"android":"levelo://app?vid=94f2297a-064c-436c-a9c8-ed47ca73d0e1","ios":"levelo://app?vid=94f2297a-064c-436c-a9c8-ed47ca73d0e1"},"vehicle_type_id":"4","last_reported":1679245565,"current_range_meters":5200,"station_id":"ce4bha92rcd13ifvqeh0","pricing_plan_id":"free"},{"bike_id":"2e80cf46-8e0c-499d-a4a8-f6cb37988c52","system_id":"levelo_inurba_marseille","lat":43.29165,"lon":5.37146,"is_reserved":false,"is_disabled":false,"rental_uris":{"android":"levelo://app?vid=2e80cf46-8e0c-499d-a4a8-f6cb37988c52","ios":"levelo://app?vid=2e80cf46-8e0c-499d-a4a8-f6cb37988c52"},"vehicle_type_id":"4","last_reported":1679245565,"current_range_meters":15200,"station_id":"ce4bha92rcd13ifvqeh0","pricing_plan_id":"free"},{"bike_id":"5b5e3597-420b-49fb-aa70-cc915a6185d0","system_id":"levelo_inurba_marseille","lat":43.29529,"lon":5.385581,"is_reserved":false,"is_disabled":false,"rental_uris":{"android":"levelo://app?vid=5b5e3597-420b-49fb-aa70-cc915a6185d0","ios":"levelo://app?vid=5b5e3597-420b-49fb-aa70-cc915a6185d0"},"vehicle_type_id":"4","last_reported":1679245565,"current_range_meters":9200,"station_id":"ce4bgih2rcd13ifvqba0","pricing_plan_id":"free"},{"bike_id":"c93f8833-021c-4328-adc1-9a121e7ef3c5","system_id":"levelo_inurba_marseille","lat":43.29529,"lon":5.385581,"is_reserved":false,"is_disabled":false,"rental_uris":{"android":"levelo://app?vid=c93f8833-021c-4328-adc1-9a121e7ef3c5","ios":"levelo://app?vid=c93f8833-021c-4328-adc1-9a121e7ef3c5"},"vehicle_type_id":"4","last_reported":1679245565,"current_range_meters":17200,"station_id":"ce4bgih2rcd13ifvqba0","pricing_plan_id":"free"},{"bike_id":"119208b6-2ad2-43cb-902c-d2667d3558e8","system_id":"levelo_inurba_marseille","lat":43.29529,"lon":5.385581,"is_reserved":false,"is_disabled":false,"rental_uris":{"android":"levelo://app?vid=119208b6-2ad2-43cb-902c-d2667d3558e8","ios":"levelo://app?vid=119208b6-2ad2-43cb-902c-d2667d3558e8"},"vehicle_type_id":"4","last_reported":1679245565,"current_range_meters":26800,"station_id":"ce4bgih2rcd13ifvqba0","pricing_plan_id":"free"},{"bike_id":"5b4b0414-68d9-4ab8-96bb-31acf8853d41","system_id":"levelo_inurba_marseille","lat":43.29529,"lon":5.385581,"is_reserved":false,"is_disabled":false,"rental_uris":{"android":"levelo://app?vid=5b4b0414-68d9-4ab8-96bb-31acf8853d41","ios":"levelo://app?vid=5b4b0414-68d9-4ab8-96bb-31acf8853d41"},"vehicle_type_id":"4","last_reported":1679245565,"current_range_meters":17600,"station_id":"ce4bgih2rcd13ifvqba0","pricing_plan_id":"free"},{"bike_id":"1a6afdb1-e09c-48fb-bf68-abda09bb9224","system_id":"levelo_inurba_marseille","lat":43.294153,"lon":5.386305,"is_reserved":false,"is_disabled":false,"rental_uris":{"android":"levelo://app?vid=1a6afdb1-e09c-48fb-bf68-abda09bb9224","ios":"levelo://app?vid=1a6afdb1-e09c-48fb-bf68-abda09bb9224"},"vehicle_type_id":"4","last_reported":1679245565,"current_range_meters":20800,"station_id":"ce4bh2h2rcd13ifvqdh0","pricing_plan_id":"free"},{"bike_id":"e41a80f5-4e6b-4dec-a069-c1cbc1132ced","system_id":"levelo_inurba_marseille","lat":43.292644,"lon":5.384257,"is_reserved":false,"is_disabled":false,"rental_uris":{"android":"levelo://app?vid=e41a80f5-4e6b-4dec-a069-c1cbc1132ced","ios":"levelo://app?vid=e41a80f5-4e6b-4dec-a069-c1cbc1132ced"},"vehicle_type_id":"4","last_reported":1679245565,"current_range_meters":6800,"station_id":"ce4bh692rcd13ifvqea0","pricing_plan_id":"free"},{"bike_id":"3b917c41-361a-4cbc-990d-1be5d36b78b7","system_id":"levelo_inurba_marseille","lat":43.304274,"lon":5.397513,"is_reserved":false,"is_disabled":false,"rental_uris":{"android":"levelo://app?vid=3b917c41-361a-4cbc-990d-1be5d36b78b7","ios":"levelo://app?vid=3b917c41-361a-4cbc-990d-1be5d36b78b7"},"vehicle_type_id":"4","last_reported":1679245565,"current_range_meters":1200,"station_id":"ce4bh092rcd13ifvqd20","pricing_plan_id":"free"},{"bike_id":"b32f696e-e987-44cb-b799-ef51579e5a16","system_id":"levelo_inurba_marseille","lat":43.290104,"lon":5.356111,"is_reserved":false,"is_disabled":false,"rental_uris":{"android":"levelo://app?vid=b32f696e-e987-44cb-b799-ef51579e5a16","ios":"levelo://app?vid=b32f696e-e987-44cb-b799-ef51579e5a16"},"vehicle_type_id":"4","last_reported":1679245565,"current_range_meters":11600,"station_id":"ce4bhb92rcd13ifvqen0","pricing_plan_id":"free"},{"bike_id":"e9369dbd-9697-458e-ac37-59531c159f3b","system_id":"levelo_inurba_marseille","lat":43.290104,"lon":5.356111,"is_reserved":false,"is_disabled":false,"rental_uris":{"android":"levelo://app?vid=e9369dbd-9697-458e-ac37-59531c159f3b","ios":"levelo://app?vid=e9369dbd-9697-458e-ac37-59531c159f3b"},"vehicle_type_id":"4","last_reported":1679245565,"current_range_meters":25200,"station_id":"ce4bhb92rcd13ifvqen0","pricing_plan_id":"free"},{"bike_id":"e4d78b41-feba-48b0-a53e-39d3d976cf84","system_id":"levelo_inurba_marseille","lat":43.295215,"lon":5.390454,"is_reserved":false,"is_disabled":false,"rental_uris":{"android":"levelo://app?vid=e4d78b41-feba-48b0-a53e-39d3d976cf84","ios":"levelo://app?vid=e4d78b41-feba-48b0-a53e-39d3d976cf84"},"vehicle_type_id":"4","last_reported":1679245565,"current_range_meters":16400,"station_id":"","pricing_plan_id":"free"},{"bike_id":"708a40f5-13d7-47bf-9707-b4af4975d5c6","system_id":"levelo_inurba_marseille","lat":43.294153,"lon":5.386305,"is_reserved":false,"is_disabled":false,"rental_uris":{"android":"levelo://app?vid=708a40f5-13d7-47bf-9707-b4af4975d5c6","ios":"levelo://app?vid=708a40f5-13d7-47bf-9707-b4af4975d5c6"},"vehicle_type_id":"4","last_reported":1679245565,"current_range_meters":0,"station_id":"ce4bh2h2rcd13ifvqdh0","pricing_plan_id":"free"},{"bike_id":"d0d7df32-c37a-428a-9862-70b0480dd19b","system_id":"levelo_inurba_marseille","lat":43.337455,"lon":5.374605,"is_reserved":false,"is_disabled":false,"rental_uris":{"android":"levelo://app?vid=d0d7df32-c37a-428a-9862-70b0480dd19b","ios":"levelo://app?vid=d0d7df32-c37a-428a-9862-70b0480dd19b"},"vehicle_type_id":"4","last_reported":1679245565,"current_range_meters":4800,"station_id":"","pricing_plan_id":"free"},{"bike_id":"3691d997-1cad-46ed-b7e6-586680d35f2f","system_id":"levelo_inurba_marseille","lat":43.337476,"lon":5.374588,"is_reserved":false,"is_disabled":false,"rental_uris":{"android":"levelo://app?vid=3691d997-1cad-46ed-b7e6-586680d35f2f","ios":"levelo://app?vid=3691d997-1cad-46ed-b7e6-586680d35f2f"},"vehicle_type_id":"4","last_reported":1679245565,"current_range_meters":17200,"station_id":"","pricing_plan_id":"free"},{"bike_id":"f3e60a9c-2b74-43cb-ac11-5dfafdbb73c0","system_id":"levelo_inurba_marseille","lat":43.337606,"lon":5.374664,"is_reserved":false,"is_disabled":false,"rental_uris":{"android":"levelo://app?vid=f3e60a9c-2b74-43cb-ac11-5dfafdbb73c0","ios":"levelo://app?vid=f3e60a9c-2b74-43cb-ac11-5dfafdbb73c0"},"vehicle_type_id":"4","last_reported":1679245565,"current_range_meters":21200,"station_id":"","pricing_plan_id":"free"},{"bike_id":"2fcb16a7-07de-4dea-bb89-3f206264bcd3","system_id":"levelo_inurba_marseille","lat":43.295427,"lon":5.394108,"is_reserved":false,"is_disabled":false,"rental_uris":{"android":"levelo://app?vid=2fcb16a7-07de-4dea-bb89-3f206264bcd3","ios":"levelo://app?vid=2fcb16a7-07de-4dea-bb89-3f206264bcd3"},"vehicle_type_id":"4","last_reported":1679245565,"current_range_meters":2000,"station_id":"ce4bh292rcd13ifvqdf0","pricing_plan_id":"free"},{"bike_id":"a95f4510-8bb2-4224-a96f-887ad6f065d5","system_id":"levelo_inurba_marseille","lat":43.2953,"lon":5.39402,"is_reserved":false,"is_disabled":false,"rental_uris":{"android":"levelo://app?vid=a95f4510-8bb2-4224-a96f-887ad6f065d5","ios":"levelo://app?vid=a95f4510-8bb2-4224-a96f-887ad6f065d5"},"vehicle_type_id":"4","last_reported":1679245565,"current_range_meters":24800,"station_id":"ce4bh212rcd13ifvqde0","pricing_plan_id":"free"},{"bike_id":"d8507d7b-005e-4c80-a11e-08d567bc0d24","system_id":"levelo_inurba_marseille","lat":43.295264,"lon":5.393982,"is_reserved":false,"is_disabled":false,"rental_uris":{"android":"levelo://app?vid=d8507d7b-005e-4c80-a11e-08d567bc0d24","ios":"levelo://app?vid=d8507d7b-005e-4c80-a11e-08d567bc0d24"},"vehicle_type_id":"4","last_reported":1679245565,"current_range_meters":7200,"station_id":"ce4bh212rcd13ifvqde0","pricing_plan_id":"free"},{"bike_id":"1aba5335-c86b-4e77-9197-a13c7b9c5479","system_id":"levelo_inurba_marseille","lat":43.29522,"lon":5.39402,"is_reserved":false,"is_disabled":false,"rental_uris":{"android":"levelo://app?vid=1aba5335-c86b-4e77-9197-a13c7b9c5479","ios":"levelo://app?vid=1aba5335-c86b-4e77-9197-a13c7b9c5479"},"vehicle_type_id":"4","last_reported":1679245565,"current_range_meters":11600,"station_id":"ce4bh212rcd13ifvqde0","pricing_plan_id":"free"},{"bike_id":"9b8c908d-e809-4acd-843d-94ced0108cae","system_id":"levelo_inurba_marseille","lat":43.28462,"lon":5.35878,"is_reserved":false,"is_disabled":false,"rental_uris":{"android":"levelo://app?vid=9b8c908d-e809-4acd-843d-94ced0108cae","ios":"levelo://app?vid=9b8c908d-e809-4acd-843d-94ced0108cae"},"vehicle_type_id":"4","last_reported":1679245565,"current_range_meters":20800,"station_id":"","pricing_plan_id":"free"},{"bike_id":"176df2a6-6c13-45fe-a731-060b8621e93f","system_id":"levelo_inurba_marseille","lat":43.284534,"lon":5.358662,"is_reserved":false,"is_disabled":false,"rental_uris":{"android":"levelo://app?vid=176df2a6-6c13-45fe-a731-060b8621e93f","ios":"levelo://app?vid=176df2a6-6c13-45fe-a731-060b8621e93f"},"vehicle_type_id":"4","last_reported":1679245565,"current_range_meters":7200,"station_id":"ce4bhah2rcd13ifvqei0","pricing_plan_id":"free"},{"bike_id":"a0d9e025-474f-4a3b-aa48-1d6eb55f88e5","system_id":"levelo_inurba_marseille","lat":43.286595,"lon":5.386795,"is_reserved":false,"is_disabled":false,"rental_uris":{"android":"levelo://app?vid=a0d9e025-474f-4a3b-aa48-1d6eb55f88e5","ios":"levelo://app?vid=a0d9e025-474f-4a3b-aa48-1d6eb55f88e5"},"vehicle_type_id":"4","last_reported":1679245565,"current_range_meters":2400,"station_id":"ce4bh492rcd13ifvqdug","pricing_plan_id":"free"},{"bike_id":"9a59008c-cb2f-41b2-948b-10eb7173dbfa","system_id":"levelo_inurba_marseille","lat":43.284793,"lon":5.384119,"is_reserved":false,"is_disabled":false,"rental_uris":{"android":"levelo://app?vid=9a59008c-cb2f-41b2-948b-10eb7173dbfa","ios":"levelo://app?vid=9a59008c-cb2f-41b2-948b-10eb7173dbfa"},"vehicle_type_id":"4","last_reported":1679245565,"current_range_meters":10800,"station_id":"ce4bh512rcd13ifvqe3g","pricing_plan_id":"free"},{"bike_id":"78059f2a-93b0-403a-a962-ee78276b326d","system_id":"levelo_inurba_marseille","lat":43.283585,"lon":5.381115,"is_reserved":false,"is_disabled":false,"rental_uris":{"android":"levelo://app?vid=78059f2a-93b0-403a-a962-ee78276b326d","ios":"levelo://app?vid=78059f2a-93b0-403a-a962-ee78276b326d"},"vehicle_type_id":"4","last_reported":1679245565,"current_range_meters":5200,"station_id":"","pricing_plan_id":"free"},{"bike_id":"99c154af-0797-43a4-ad5b-dbd73681a134","system_id":"levelo_inurba_marseille","lat":43.284219,"lon":5.3497,"is_reserved":false,"is_disabled":false,"rental_uris":{"android":"levelo://app?vid=99c154af-0797-43a4-ad5b-dbd73681a134","ios":"levelo://app?vid=99c154af-0797-43a4-ad5b-dbd73681a134"},"vehicle_type_id":"4","last_reported":1679245565,"current_range_meters":3200,"station_id":"ce4bhbh2rcd13ifvqepg","pricing_plan_id":"free"},{"bike_id":"27d7ada2-ee6d-4593-baab-4c391734630b","system_id":"levelo_inurba_marseille","lat":43.284219,"lon":5.3497,"is_reserved":false,"is_disabled":false,"rental_uris":{"android":"levelo://app?vid=27d7ada2-ee6d-4593-baab-4c391734630b","ios":"levelo://app?vid=27d7ada2-ee6d-4593-baab-4c391734630b"},"vehicle_type_id":"4","last_reported":1679245565,"current_range_meters":16000,"station_id":"ce4bhbh2rcd13ifvqepg","pricing_plan_id":"free"},{"bike_id":"cf730c41-8d46-453d-9851-7addb3c69be1","system_id":"levelo_inurba_marseille","lat":43.282754,"lon":5.350519,"is_reserved":false,"is_disabled":false,"rental_uris":{"android":"levelo://app?vid=cf730c41-8d46-453d-9851-7addb3c69be1","ios":"levelo://app?vid=cf730c41-8d46-453d-9851-7addb3c69be1"},"vehicle_type_id":"4","last_reported":1679245565,"current_range_meters":24000,"station_id":"ce4bhbp2rcd13ifvqerg","pricing_plan_id":"free"},{"bike_id":"cea6f5d0-f48d-42e1-a0df-2debe3af82d0","system_id":"levelo_inurba_marseille","lat":43.28261,"lon":5.35057,"is_reserved":false,"is_disabled":false,"rental_uris":{"android":"levelo://app?vid=cea6f5d0-f48d-42e1-a0df-2debe3af82d0","ios":"levelo://app?vid=cea6f5d0-f48d-42e1-a0df-2debe3af82d0"},"vehicle_type_id":"4","last_reported":1679245565,"current_range_meters":15200,"station_id":"","pricing_plan_id":"free"},{"bike_id":"29671d63-0cc7-4cdf-8065-727b82ee79aa","system_id":"levelo_inurba_marseille","lat":43.304188,"lon":5.412904,"is_reserved":false,"is_disabled":false,"rental_uris":{"android":"levelo://app?vid=29671d63-0cc7-4cdf-8065-727b82ee79aa","ios":"levelo://app?vid=29671d63-0cc7-4cdf-8065-727b82ee79aa"},"vehicle_type_id":"4","last_reported":1679245565,"current_range_meters":24800,"station_id":"ce4bhop2rcd13ifvqh8g","pricing_plan_id":"free"},{"bike_id":"55f2c8c4-a1b3-4e25-85e3-0dc931df826e","system_id":"levelo_inurba_marseille","lat":43.30421,"lon":5.41294,"is_reserved":false,"is_disabled":false,"rental_uris":{"android":"levelo://app?vid=55f2c8c4-a1b3-4e25-85e3-0dc931df826e","ios":"levelo://app?vid=55f2c8c4-a1b3-4e25-85e3-0dc931df826e"},"vehicle_type_id":"4","last_reported":1679245565,"current_range_meters":10800,"station_id":"ce4bhop2rcd13ifvqh8g","pricing_plan_id":"free"},{"bike_id":"2e7f7e8d-f0d2-4608-9c32-cd33433ffe45","system_id":"levelo_inurba_marseille","lat":43.299577,"lon":5.413277,"is_reserved":false,"is_disabled":false,"rental_uris":{"android":"levelo://app?vid=2e7f7e8d-f0d2-4608-9c32-cd33433ffe45","ios":"levelo://app?vid=2e7f7e8d-f0d2-4608-9c32-cd33433ffe45"},"vehicle_type_id":"4","last_reported":1679245565,"current_range_meters":5600,"station_id":"ce4bhp12rcd13ifvqh9g","pricing_plan_id":"free"},{"bike_id":"f0bdf628-d658-4669-b9e9-2045770d3a77","system_id":"levelo_inurba_marseille","lat":43.299577,"lon":5.413277,"is_reserved":false,"is_disabled":false,"rental_uris":{"android":"levelo://app?vid=f0bdf628-d658-4669-b9e9-2045770d3a77","ios":"levelo://app?vid=f0bdf628-d658-4669-b9e9-2045770d3a77"},"vehicle_type_id":"4","last_reported":1679245565,"current_range_meters":800,"station_id":"ce4bhp12rcd13ifvqh9g","pricing_plan_id":"free"},{"bike_id":"02525f7e-eb37-4813-a449-d0148b585f8b","system_id":"levelo_inurba_marseille","lat":43.320045,"lon":5.415048,"is_reserved":false,"is_disabled":false,"rental_uris":{"android":"levelo://app?vid=02525f7e-eb37-4813-a449-d0148b585f8b","ios":"levelo://app?vid=02525f7e-eb37-4813-a449-d0148b585f8b"},"vehicle_type_id":"4","last_reported":1679245565,"current_range_meters":9200,"station_id":"ce4bhq92rcd13ifvqhkg","pricing_plan_id":"free"},{"bike_id":"7ef49723-a64f-4e32-8707-5104bbe61d21","system_id":"levelo_inurba_marseille","lat":43.299577,"lon":5.413277,"is_reserved":false,"is_disabled":false,"rental_uris":{"android":"levelo://app?vid=7ef49723-a64f-4e32-8707-5104bbe61d21","ios":"levelo://app?vid=7ef49723-a64f-4e32-8707-5104bbe61d21"},"vehicle_type_id":"4","last_reported":1679245565,"current_range_meters":3200,"station_id":"ce4bhp12rcd13ifvqh9g","pricing_plan_id":"free"},{"bike_id":"b950997e-06ea-446c-b341-3c916be53914","system_id":"levelo_inurba_marseille","lat":43.324741,"lon":5.414304,"is_reserved":false,"is_disabled":false,"rental_uris":{"android":"levelo://app?vid=b950997e-06ea-446c-b341-3c916be53914","ios":"levelo://app?vid=b950997e-06ea-446c-b341-3c916be53914"},"vehicle_type_id":"4","last_reported":1679245565,"current_range_meters":4800,"station_id":"","pricing_plan_id":"free"},{"bike_id":"f0c6059c-16f2-49ed-b7f7-702fc19a0bd7","system_id":"levelo_inurba_marseille","lat":43.292571,"lon":5.409107,"is_reserved":false,"is_disabled":false,"rental_uris":{"android":"levelo://app?vid=f0c6059c-16f2-49ed-b7f7-702fc19a0bd7","ios":"levelo://app?vid=f0c6059c-16f2-49ed-b7f7-702fc19a0bd7"},"vehicle_type_id":"4","last_reported":1679245565,"current_range_meters":2400,"station_id":"ce4bh192rcd13ifvqdc0","pricing_plan_id":"free"},{"bike_id":"0c71ea44-9033-4b87-b668-0156ee3213ac","system_id":"levelo_inurba_marseille","lat":43.325233,"lon":5.414318,"is_reserved":false,"is_disabled":false,"rental_uris":{"android":"levelo://app?vid=0c71ea44-9033-4b87-b668-0156ee3213ac","ios":"levelo://app?vid=0c71ea44-9033-4b87-b668-0156ee3213ac"},"vehicle_type_id":"4","last_reported":1679245565,"current_range_meters":3600,"station_id":"ce4bhq12rcd13ifvqhhg","pricing_plan_id":"free"},{"bike_id":"a3d181e9-34a1-41bb-bb79-bac95a3f2f9f","system_id":"levelo_inurba_marseille","lat":43.27618,"lon":5.361009,"is_reserved":false,"is_disabled":false,"rental_uris":{"android":"levelo://app?vid=a3d181e9-34a1-41bb-bb79-bac95a3f2f9f","ios":"levelo://app?vid=a3d181e9-34a1-41bb-bb79-bac95a3f2f9f"},"vehicle_type_id":"4","last_reported":1679245565,"current_range_meters":24400,"station_id":"ce4bgj92rcd13ifvqbe0","pricing_plan_id":"free"},{"bike_id":"3ef83abb-404a-4334-80e8-6217272efda5","system_id":"levelo_inurba_marseille","lat":43.27614,"lon":5.36106,"is_reserved":false,"is_disabled":false,"rental_uris":{"android":"levelo://app?vid=3ef83abb-404a-4334-80e8-6217272efda5","ios":"levelo://app?vid=3ef83abb-404a-4334-80e8-6217272efda5"},"vehicle_type_id":"4","last_reported":1679245565,"current_range_meters":23200,"station_id":"ce4bgj92rcd13ifvqbe0","pricing_plan_id":"free"},{"bike_id":"1dea3851-63df-4b37-8a31-2293d493d62a","system_id":"levelo_inurba_marseille","lat":43.27379,"lon":5.36249,"is_reserved":false,"is_disabled":false,"rental_uris":{"android":"levelo://app?vid=1dea3851-63df-4b37-8a31-2293d493d62a","ios":"levelo://app?vid=1dea3851-63df-4b37-8a31-2293d493d62a"},"vehicle_type_id":"4","last_reported":1679245565,"current_range_meters":15200,"station_id":"","pricing_plan_id":"free"},{"bike_id":"83004b17-185f-4f04-a5a8-6bb661e19570","system_id":"levelo_inurba_marseille","lat":43.317121,"lon":5.423936,"is_reserved":false,"is_disabled":false,"rental_uris":{"android":"levelo://app?vid=83004b17-185f-4f04-a5a8-6bb661e19570","ios":"levelo://app?vid=83004b17-185f-4f04-a5a8-6bb661e19570"},"vehicle_type_id":"4","last_reported":1679245565,"current_range_meters":17600,"station_id":"ce4bhp92rcd13ifvqhbg","pricing_plan_id":"free"},{"bike_id":"106665b2-5cde-4419-aaee-235e6df7bba4","system_id":"levelo_inurba_marseille","lat":43.273217,"lon":5.390644,"is_reserved":false,"is_disabled":false,"rental_uris":{"android":"levelo://app?vid=106665b2-5cde-4419-aaee-235e6df7bba4","ios":"levelo://app?vid=106665b2-5cde-4419-aaee-235e6df7bba4"},"vehicle_type_id":"4","last_reported":1679245565,"current_range_meters":2800,"station_id":"ce4bhgp2rcd13ifvqfe0","pricing_plan_id":"free"},{"bike_id":"2850de15-91ab-407e-857b-edcfb8eaa739","system_id":"levelo_inurba_marseille","lat":43.274103,"lon":5.394016,"is_reserved":false,"is_disabled":false,"rental_uris":{"android":"levelo://app?vid=2850de15-91ab-407e-857b-edcfb8eaa739","ios":"levelo://app?vid=2850de15-91ab-407e-857b-edcfb8eaa739"},"vehicle_type_id":"4","last_reported":1679245565,"current_range_meters":7200,"station_id":"ce4bhdp2rcd13ifvqf20","pricing_plan_id":"free"},{"bike_id":"8616fb87-e84b-4d0d-a4b4-a88e59a15b20","system_id":"levelo_inurba_marseille","lat":43.27428,"lon":5.39415,"is_reserved":false,"is_disabled":false,"rental_uris":{"android":"levelo://app?vid=8616fb87-e84b-4d0d-a4b4-a88e59a15b20","ios":"levelo://app?vid=8616fb87-e84b-4d0d-a4b4-a88e59a15b20"},"vehicle_type_id":"4","last_reported":1679245565,"current_range_meters":2000,"station_id":"ce4bhdp2rcd13ifvqf20","pricing_plan_id":"free"},{"bike_id":"a19987c4-eccb-48ad-bdc4-891486cdc6ad","system_id":"levelo_inurba_marseille","lat":43.274103,"lon":5.394016,"is_reserved":false,"is_disabled":false,"rental_uris":{"android":"levelo://app?vid=a19987c4-eccb-48ad-bdc4-891486cdc6ad","ios":"levelo://app?vid=a19987c4-eccb-48ad-bdc4-891486cdc6ad"},"vehicle_type_id":"4","last_reported":1679245565,"current_range_meters":1200,"station_id":"ce4bhdp2rcd13ifvqf20","pricing_plan_id":"free"},{"bike_id":"42ee067f-0341-4b9d-9e41-983f3d43b0e3","system_id":"levelo_inurba_marseille","lat":43.295523,"lon":5.422926,"is_reserved":false,"is_disabled":false,"rental_uris":{"android":"levelo://app?vid=42ee067f-0341-4b9d-9e41-983f3d43b0e3","ios":"levelo://app?vid=42ee067f-0341-4b9d-9e41-983f3d43b0e3"},"vehicle_type_id":"4","last_reported":1679245565,"current_range_meters":2800,"station_id":"ce4bhph2rcd13ifvqhdg","pricing_plan_id":"free"},{"bike_id":"e7b748e8-0f59-4fc5-b26b-0e87ef8fe08b","system_id":"levelo_inurba_marseille","lat":43.29486,"lon":5.42282,"is_reserved":false,"is_disabled":false,"rental_uris":{"android":"levelo://app?vid=e7b748e8-0f59-4fc5-b26b-0e87ef8fe08b","ios":"levelo://app?vid=e7b748e8-0f59-4fc5-b26b-0e87ef8fe08b"},"vehicle_type_id":"4","last_reported":1679245565,"current_range_meters":0,"station_id":"","pricing_plan_id":"free"},{"bike_id":"3d7a0846-47f2-4164-9f51-607b8d544e58","system_id":"levelo_inurba_marseille","lat":43.278128,"lon":5.407195,"is_reserved":false,"is_disabled":false,"rental_uris":{"android":"levelo://app?vid=3d7a0846-47f2-4164-9f51-607b8d544e58","ios":"levelo://app?vid=3d7a0846-47f2-4164-9f51-607b8d544e58"},"vehicle_type_id":"4","last_reported":1679245565,"current_range_meters":0,"station_id":"ce4bhnh2rcd13ifvqgtg","pricing_plan_id":"free"},{"bike_id":"587f1d12-63b0-47e4-8c5e-3aeb2307e820","system_id":"levelo_inurba_marseille","lat":43.27996,"lon":5.416624,"is_reserved":false,"is_disabled":false,"rental_uris":{"android":"levelo://app?vid=587f1d12-63b0-47e4-8c5e-3aeb2307e820","ios":"levelo://app?vid=587f1d12-63b0-47e4-8c5e-3aeb2307e820"},"vehicle_type_id":"4","last_reported":1679245565,"current_range_meters":0,"station_id":"ce4bho12rcd13ifvqh1g","pricing_plan_id":"free"},{"bike_id":"01e6c7e5-5459-4087-a689-9fc33da2fcf1","system_id":"levelo_inurba_marseille","lat":43.26562,"lon":5.39007,"is_reserved":false,"is_disabled":false,"rental_uris":{"android":"levelo://app?vid=01e6c7e5-5459-4087-a689-9fc33da2fcf1","ios":"levelo://app?vid=01e6c7e5-5459-4087-a689-9fc33da2fcf1"},"vehicle_type_id":"4","last_reported":1679245565,"current_range_meters":18000,"station_id":"ce4bhe12rcd13ifvqf30","pricing_plan_id":"free"},{"bike_id":"371c680d-44db-470f-9247-036c0637a897","system_id":"levelo_inurba_marseille","lat":43.26186,"lon":5.374463,"is_reserved":false,"is_disabled":false,"rental_uris":{"android":"levelo://app?vid=371c680d-44db-470f-9247-036c0637a897","ios":"levelo://app?vid=371c680d-44db-470f-9247-036c0637a897"},"vehicle_type_id":"4","last_reported":1679245565,"current_range_meters":0,"station_id":"ce4bhgp2rcd13ifvqfc0","pricing_plan_id":"free"},{"bike_id":"b5fd0508-197a-4071-8a3a-2378b72b0be9","system_id":"levelo_inurba_marseille","lat":43.2607,"lon":5.393983,"is_reserved":false,"is_disabled":false,"rental_uris":{"android":"levelo://app?vid=b5fd0508-197a-4071-8a3a-2378b72b0be9","ios":"levelo://app?vid=b5fd0508-197a-4071-8a3a-2378b72b0be9"},"vehicle_type_id":"4","last_reported":1679245565,"current_range_meters":20800,"station_id":"ce4bhh92rcd13ifvqfj0","pricing_plan_id":"free"},{"bike_id":"38346fd9-589e-4a39-a3d6-4db58e433243","system_id":"levelo_inurba_marseille","lat":43.260909,"lon":5.397591,"is_reserved":false,"is_disabled":false,"rental_uris":{"android":"levelo://app?vid=38346fd9-589e-4a39-a3d6-4db58e433243","ios":"levelo://app?vid=38346fd9-589e-4a39-a3d6-4db58e433243"},"vehicle_type_id":"4","last_reported":1679245565,"current_range_meters":8800,"station_id":"ce4bhi12rcd13ifvqfq0","pricing_plan_id":"free"},{"bike_id":"b8963a1b-3198-4925-a07f-94ccdb026284","system_id":"levelo_inurba_marseille","lat":43.260909,"lon":5.397624,"is_reserved":false,"is_disabled":false,"rental_uris":{"android":"levelo://app?vid=b8963a1b-3198-4925-a07f-94ccdb026284","ios":"levelo://app?vid=b8963a1b-3198-4925-a07f-94ccdb026284"},"vehicle_type_id":"4","last_reported":1679245565,"current_range_meters":20400,"station_id":"","pricing_plan_id":"free"},{"bike_id":"217a32fe-0161-43b0-bec3-ad3345425f35","system_id":"levelo_inurba_marseille","lat":43.292527,"lon":5.44143,"is_reserved":false,"is_disabled":false,"rental_uris":{"android":"levelo://app?vid=217a32fe-0161-43b0-bec3-ad3345425f35","ios":"levelo://app?vid=217a32fe-0161-43b0-bec3-ad3345425f35"},"vehicle_type_id":"4","last_reported":1679245565,"current_range_meters":18800,"station_id":"","pricing_plan_id":"free"},{"bike_id":"36e98e06-39ea-4ed9-a420-6e7124ddef00","system_id":"levelo_inurba_marseille","lat":43.254947,"lon":5.376454,"is_reserved":false,"is_disabled":false,"rental_uris":{"android":"levelo://app?vid=36e98e06-39ea-4ed9-a420-6e7124ddef00","ios":"levelo://app?vid=36e98e06-39ea-4ed9-a420-6e7124ddef00"},"vehicle_type_id":"4","last_reported":1679245565,"current_range_meters":800,"station_id":"ce4bhh12rcd13ifvqff0","pricing_plan_id":"free"},{"bike_id":"0070e16c-928d-460c-89e4-a9601ccd16c5","system_id":"levelo_inurba_marseille","lat":43.258658,"lon":5.398935,"is_reserved":false,"is_disabled":false,"rental_uris":{"android":"levelo://app?vid=0070e16c-928d-460c-89e4-a9601ccd16c5","ios":"levelo://app?vid=0070e16c-928d-460c-89e4-a9601ccd16c5"},"vehicle_type_id":"4","last_reported":1679245565,"current_range_meters":2400,"station_id":"ce4bhl92rcd13ifvqghg","pricing_plan_id":"free"},{"bike_id":"baa06baa-3496-40e3-b482-d1f7fcf9f7c6","system_id":"levelo_inurba_marseille","lat":43.258658,"lon":5.398935,"is_reserved":false,"is_disabled":false,"rental_uris":{"android":"levelo://app?vid=baa06baa-3496-40e3-b482-d1f7fcf9f7c6","ios":"levelo://app?vid=baa06baa-3496-40e3-b482-d1f7fcf9f7c6"},"vehicle_type_id":"4","last_reported":1679245565,"current_range_meters":400,"station_id":"ce4bhl92rcd13ifvqghg","pricing_plan_id":"free"},{"bike_id":"3647aa3d-2a3f-41e2-8431-ae491d547389","system_id":"levelo_inurba_marseille","lat":43.250023,"lon":5.38919,"is_reserved":false,"is_disabled":false,"rental_uris":{"android":"levelo://app?vid=3647aa3d-2a3f-41e2-8431-ae491d547389","ios":"levelo://app?vid=3647aa3d-2a3f-41e2-8431-ae491d547389"},"vehicle_type_id":"4","last_reported":1679245565,"current_range_meters":0,"station_id":"ce4bhgp2rcd13ifvqfd0","pricing_plan_id":"free"},{"bike_id":"2c737113-1b32-4fbf-9662-1a2143bcb103","system_id":"levelo_inurba_marseille","lat":43.2479,"lon":5.374457,"is_reserved":false,"is_disabled":false,"rental_uris":{"android":"levelo://app?vid=2c737113-1b32-4fbf-9662-1a2143bcb103","ios":"levelo://app?vid=2c737113-1b32-4fbf-9662-1a2143bcb103"},"vehicle_type_id":"4","last_reported":1679245565,"current_range_meters":400,"station_id":"ce4bhgh2rcd13ifvqfb0","pricing_plan_id":"free"},{"bike_id":"345a9843-49bc-4c82-8809-496b0ef98489","system_id":"levelo_inurba_marseille","lat":43.2479,"lon":5.374457,"is_reserved":false,"is_disabled":false,"rental_uris":{"android":"levelo://app?vid=345a9843-49bc-4c82-8809-496b0ef98489","ios":"levelo://app?vid=345a9843-49bc-4c82-8809-496b0ef98489"},"vehicle_type_id":"4","last_reported":1679245565,"current_range_meters":1200,"station_id":"ce4bhgh2rcd13ifvqfb0","pricing_plan_id":"free"},{"bike_id":"16268311-d76c-429b-b35e-c66e1bab886a","system_id":"levelo_inurba_marseille","lat":43.2479,"lon":5.374457,"is_reserved":false,"is_disabled":false,"rental_uris":{"android":"levelo://app?vid=16268311-d76c-429b-b35e-c66e1bab886a","ios":"levelo://app?vid=16268311-d76c-429b-b35e-c66e1bab886a"},"vehicle_type_id":"4","last_reported":1679245565,"current_range_meters":0,"station_id":"ce4bhgh2rcd13ifvqfb0","pricing_plan_id":"free"},{"bike_id":"66a14ea4-1fd3-497d-8232-7f287d4b0cd7","system_id":"levelo_inurba_marseille","lat":43.2479,"lon":5.374457,"is_reserved":false,"is_disabled":false,"rental_uris":{"android":"levelo://app?vid=66a14ea4-1fd3-497d-8232-7f287d4b0cd7","ios":"levelo://app?vid=66a14ea4-1fd3-497d-8232-7f287d4b0cd7"},"vehicle_type_id":"4","last_reported":1679245565,"current_range_meters":400,"station_id":"ce4bhgh2rcd13ifvqfb0","pricing_plan_id":"free"},{"bike_id":"31e2cfca-c025-4163-9c1e-08c3490961e9","system_id":"levelo_inurba_marseille","lat":43.25102,"lon":5.403214,"is_reserved":false,"is_disabled":false,"rental_uris":{"android":"levelo://app?vid=31e2cfca-c025-4163-9c1e-08c3490961e9","ios":"levelo://app?vid=31e2cfca-c025-4163-9c1e-08c3490961e9"},"vehicle_type_id":"4","last_reported":1679245565,"current_range_meters":20400,"station_id":"ce4bhlh2rcd13ifvqgig","pricing_plan_id":"free"},{"bike_id":"9b1eb576-6095-4537-8aab-4de719ecf672","system_id":"levelo_inurba_marseille","lat":43.25102,"lon":5.403214,"is_reserved":false,"is_disabled":false,"rental_uris":{"android":"levelo://app?vid=9b1eb576-6095-4537-8aab-4de719ecf672","ios":"levelo://app?vid=9b1eb576-6095-4537-8aab-4de719ecf672"},"vehicle_type_id":"4","last_reported":1679245565,"current_range_meters":12400,"station_id":"ce4bhlh2rcd13ifvqgig","pricing_plan_id":"free"},{"bike_id":"6613659d-f8ef-47cb-bf40-6a08aa55d76f","system_id":"levelo_inurba_marseille","lat":43.25102,"lon":5.403214,"is_reserved":false,"is_disabled":false,"rental_uris":{"android":"levelo://app?vid=6613659d-f8ef-47cb-bf40-6a08aa55d76f","ios":"levelo://app?vid=6613659d-f8ef-47cb-bf40-6a08aa55d76f"},"vehicle_type_id":"4","last_reported":1679245565,"current_range_meters":26800,"station_id":"ce4bhlh2rcd13ifvqgig","pricing_plan_id":"free"},{"bike_id":"f6f36674-b5d0-4577-a395-834b30a5d003","system_id":"levelo_inurba_marseille","lat":43.25102,"lon":5.403214,"is_reserved":false,"is_disabled":false,"rental_uris":{"android":"levelo://app?vid=f6f36674-b5d0-4577-a395-834b30a5d003","ios":"levelo://app?vid=f6f36674-b5d0-4577-a395-834b30a5d003"},"vehicle_type_id":"4","last_reported":1679245565,"current_range_meters":2800,"station_id":"ce4bhlh2rcd13ifvqgig","pricing_plan_id":"free"},{"bike_id":"54dde9ff-4a12-4180-9dfa-afbe45108451","system_id":"levelo_inurba_marseille","lat":43.23965,"lon":5.3663,"is_reserved":false,"is_disabled":false,"rental_uris":{"android":"levelo://app?vid=54dde9ff-4a12-4180-9dfa-afbe45108451","ios":"levelo://app?vid=54dde9ff-4a12-4180-9dfa-afbe45108451"},"vehicle_type_id":"4","last_reported":1679245565,"current_range_meters":0,"station_id":"ce4bhi12rcd13ifvqfp0","pricing_plan_id":"free"},{"bike_id":"1da884f3-d68e-4115-b38e-1c5ebdc458e0","system_id":"levelo_inurba_marseille","lat":43.241782,"lon":5.397261,"is_reserved":false,"is_disabled":false,"rental_uris":{"android":"levelo://app?vid=1da884f3-d68e-4115-b38e-1c5ebdc458e0","ios":"levelo://app?vid=1da884f3-d68e-4115-b38e-1c5ebdc458e0"},"vehicle_type_id":"4","last_reported":1679245565,"current_range_meters":18400,"station_id":"ce4bhn12rcd13ifvqgpg","pricing_plan_id":"free"},{"bike_id":"177d28b6-7527-4c6a-b7dd-5ab65780e881","system_id":"levelo_inurba_marseille","lat":43.241782,"lon":5.397261,"is_reserved":false,"is_disabled":false,"rental_uris":{"android":"levelo://app?vid=177d28b6-7527-4c6a-b7dd-5ab65780e881","ios":"levelo://app?vid=177d28b6-7527-4c6a-b7dd-5ab65780e881"},"vehicle_type_id":"4","last_reported":1679245565,"current_range_meters":18000,"station_id":"ce4bhn12rcd13ifvqgpg","pricing_plan_id":"free"},{"bike_id":"6d5631d4-5da3-46ba-90a7-88ef57a0f303","system_id":"levelo_inurba_marseille","lat":43.231919,"lon":5.355532,"is_reserved":false,"is_disabled":false,"rental_uris":{"android":"levelo://app?vid=6d5631d4-5da3-46ba-90a7-88ef57a0f303","ios":"levelo://app?vid=6d5631d4-5da3-46ba-90a7-88ef57a0f303"},"vehicle_type_id":"4","last_reported":1679245565,"current_range_meters":6400,"station_id":"ce4bhu92rcd13ifvqi70","pricing_plan_id":"free"},{"bike_id":"c4a765e8-1981-4501-b559-fd423b924ef4","system_id":"levelo_inurba_marseille","lat":43.231923,"lon":5.355545,"is_reserved":false,"is_disabled":false,"rental_uris":{"android":"levelo://app?vid=c4a765e8-1981-4501-b559-fd423b924ef4","ios":"levelo://app?vid=c4a765e8-1981-4501-b559-fd423b924ef4"},"vehicle_type_id":"4","last_reported":1679245565,"current_range_meters":30800,"station_id":"ce4bhu92rcd13ifvqi70","pricing_plan_id":"free"},{"bike_id":"bc5fdcc1-95df-4b8e-a4da-3b17d026f865","system_id":"levelo_inurba_marseille","lat":43.231923,"lon":5.355545,"is_reserved":false,"is_disabled":false,"rental_uris":{"android":"levelo://app?vid=bc5fdcc1-95df-4b8e-a4da-3b17d026f865","ios":"levelo://app?vid=bc5fdcc1-95df-4b8e-a4da-3b17d026f865"},"vehicle_type_id":"4","last_reported":1679245565,"current_range_meters":800,"station_id":"ce4bhu92rcd13ifvqi70","pricing_plan_id":"free"},{"bike_id":"576b6a59-338c-49b3-b820-7d045dd36b32","system_id":"levelo_inurba_marseille","lat":43.231919,"lon":5.355532,"is_reserved":false,"is_disabled":false,"rental_uris":{"android":"levelo://app?vid=576b6a59-338c-49b3-b820-7d045dd36b32","ios":"levelo://app?vid=576b6a59-338c-49b3-b820-7d045dd36b32"},"vehicle_type_id":"4","last_reported":1679245565,"current_range_meters":10000,"station_id":"ce4bhu92rcd13ifvqi70","pricing_plan_id":"free"},{"bike_id":"2a88fcd7-7ec0-483e-b1e1-9b7fbdb340e1","system_id":"levelo_inurba_marseille","lat":43.231923,"lon":5.355545,"is_reserved":false,"is_disabled":false,"rental_uris":{"android":"levelo://app?vid=2a88fcd7-7ec0-483e-b1e1-9b7fbdb340e1","ios":"levelo://app?vid=2a88fcd7-7ec0-483e-b1e1-9b7fbdb340e1"},"vehicle_type_id":"4","last_reported":1679245565,"current_range_meters":26800,"station_id":"ce4bhu92rcd13ifvqi70","pricing_plan_id":"free"}]}}