{"last_updated":1737364245,"ttl":60,"version":"2.2","data":{"bikes":[{"bike_id":"2615861c-10e7-4b67-912a-ccc72afe4684","system_id":"levelo_inurba_marseille","lat":43.29368,"lon":5.37845,"is_reserved":false,"is_disabled":false,"rental_uris":{"android":"levelo://app?vid=2615861c-10e7-4b67-912a-ccc72afe4684","ios":"levelo://app?vid=2615861c-10e7-4b67-912a-ccc72afe4684"},"vehicle_type_id":"4","last_reported":1737364245,"current_range_meters":28000,"station_id":"ce4bgjh2rcd13ifvqbf0","pricing_plan_id":"cebpf4jnsgd1na2vs0mg"},{"bike_id":"976d939b-a82d-41e6-abb4-e25496ddb17f","system_id":"levelo_inurba_marseille","lat":43.25934,"lon":5.40895,"is_reserved":false,"is_disabled":false,"rental_uris":{"android":"levelo://app?vid=976d939b-a82d-41e6-abb4-e25496ddb17f","ios":"levelo://app?vid=976d939b-a82d-41e6-abb4-e25496ddb17f"},"vehicle_type_id":"4","last_reported":1737364245,"current_range_meters":28400,"station_id":"ce4bhm92rcd13ifvqglg","pricing_plan_id":"cebpf4jnsgd1na2vs0mg"},{"bike_id":"54699930-2dbc-4d91-ab1b-41cfe810e817","system_id":"levelo_inurba_marseille","lat":43.29187,"lon":5.39369,"is_reserved":false,"is_disabled":true,"rental_uris":{"android":"levelo://app?vid=54699930-2dbc-4d91-ab1b-41cfe810e817","ios":"levelo://app?vid=54699930-2dbc-4d91-ab1b-41cfe810e817"},"vehicle_type_id":"4","last_reported":1737364245,"current_range_meters":0,"station_id":"","pricing_plan_id":"cebpf4jnsgd1na2vs0mg"},{"bike_id":"e841df29-8d21-48cf-a019-18bc26b21d64","system_id":"levelo_inurba_marseille","lat":43.2736,"lon":5.36257,"is_reserved":false,"is_disabled":false,"rental_uris":{"android":"levelo://app?vid=e841df29-8d21-48cf-a019-18bc26b21d64","ios":"levelo://app?vid=e841df29-8d21-48cf-a019-18bc26b21d64"},"vehicle_type_id":"4","last_reported":1737364245,"current_range_meters":38800,"station_id":"ce4bhbh2rcd13ifvqeo0","pricing_plan_id":"cebpf4jnsgd1na2vs0mg"},{"bike_id":"016891d3-d48d-43ea-9d8d-aacd30510a50","system_id":"levelo_inurba_marseille","lat":43.23057,"lon":5.354909,"is_reserved":false,"is_disabled":false,"rental_uris":{"android":"levelo://app?vid=016891d3-d48d-43ea-9d8d-aacd30510a50","ios":"levelo://app?vid=016891d3-d48d-43ea-9d8d-aacd30510a50"},"vehicle_type_id":"4","last_reported":1737364245,"current_range_meters":19600,"station_id":"cpo3342slgdg3j2ifvpg","pricing_plan_id":"cebpf4jnsgd1na2vs0mg"},{"bike_id":"6d82154d-c099-4ca5-8715-39329c6ccba2","system_id":"levelo_inurba_marseille","lat":43.30446,"lon":5.39761,"is_reserved":false,"is_disabled":false,"rental_uris":{"android":"levelo://app?vid=6d82154d-c099-4ca5-8715-39329c6ccba2","ios":"levelo://app?vid=6d82154d-c099-4ca5-8715-39329c6ccba2"},"vehicle_type_id":"4","last_reported":1737364245,"current_range_meters":10800,"station_id":"ce4bh092rcd13ifvqd20","pricing_plan_id":"cebpf4jnsgd1na2vs0mg"},{"bike_id":"e8aa188b-05e4-4f98-b30e-abe60ca1e9e1","system_id":"levelo_inurba_marseille","lat":43.284437,"lon":5.39192,"is_reserved":false,"is_disabled":true,"rental_uris":{"android":"levelo://app?vid=e8aa188b-05e4-4f98-b30e-abe60ca1e9e1","ios":"levelo://app?vid=e8aa188b-05e4-4f98-b30e-abe60ca1e9e1"},"vehicle_type_id":"4","last_reported":1737364245,"current_range_meters":0,"station_id":"ce4bhoh2rcd13ifvqh5g","pricing_plan_id":"cebpf4jnsgd1na2vs0mg"},{"bike_id":"70ac5e43-1a65-4943-bf4c-9459b26a7429","system_id":"levelo_inurba_marseille","lat":43.25725,"lon":5.41104,"is_reserved":false,"is_disabled":false,"rental_uris":{"android":"levelo://app?vid=70ac5e43-1a65-4943-bf4c-9459b26a7429","ios":"levelo://app?vid=70ac5e43-1a65-4943-bf4c-9459b26a7429"},"vehicle_type_id":"4","last_reported":1737364245,"current_range_meters":16400,"station_id":"ce4bhkp2rcd13ifvqgd0","pricing_plan_id":"cebpf4jnsgd1na2vs0mg"},{"bike_id":"da71ecf5-f1d8-48c3-ae35-f16c8e1deb3e","system_id":"levelo_inurba_marseille","lat":43.28073,"lon":5.39662,"is_reserved":false,"is_disabled":false,"rental_uris":{"android":"levelo://app?vid=da71ecf5-f1d8-48c3-ae35-f16c8e1deb3e","ios":"levelo://app?vid=da71ecf5-f1d8-48c3-ae35-f16c8e1deb3e"},"vehicle_type_id":"4","last_reported":1737364245,"current_range_meters":36800,"station_id":"ce4bho12rcd13ifvqh2g","pricing_plan_id":"cebpf4jnsgd1na2vs0mg"},{"bike_id":"522fbcf1-956d-40a3-93a6-93e541c91477","system_id":"levelo_inurba_marseille","lat":43.30471,"lon":5.37914,"is_reserved":false,"is_disabled":false,"rental_uris":{"android":"levelo://app?vid=522fbcf1-956d-40a3-93a6-93e541c91477","ios":"levelo://app?vid=522fbcf1-956d-40a3-93a6-93e541c91477"},"vehicle_type_id":"4","last_reported":1737364245,"current_range_meters":30000,"station_id":"ce4bgup2rcd13ifvqcn0","pricing_plan_id":"cebpf4jnsgd1na2vs0mg"},{"bike_id":"89c60171-e7c9-486b-9ccc-9e4795e53faf","system_id":"levelo_inurba_marseille","lat":43.33608,"lon":5.41035,"is_reserved":false,"is_disabled":true,"rental_uris":{"android":"levelo://app?vid=89c60171-e7c9-486b-9ccc-9e4795e53faf","ios":"levelo://app?vid=89c60171-e7c9-486b-9ccc-9e4795e53faf"},"vehicle_type_id":"4","last_reported":1737364245,"current_range_meters":0,"station_id":"ce4bhqh2rcd13ifvqhmg","pricing_plan_id":"cebpf4jnsgd1na2vs0mg"},{"bike_id":"f18d3e3b-1d40-4085-ac6a-1f816d51e8b1","system_id":"levelo_inurba_marseille","lat":43.32964,"lon":5.39057,"is_reserved":false,"is_disabled":false,"rental_uris":{"android":"levelo://app?vid=f18d3e3b-1d40-4085-ac6a-1f816d51e8b1","ios":"levelo://app?vid=f18d3e3b-1d40-4085-ac6a-1f816d51e8b1"},"vehicle_type_id":"4","last_reported":1737364245,"current_range_meters":25600,"station_id":"","pricing_plan_id":"cebpf4jnsgd1na2vs0mg"},{"bike_id":"e3d5a69f-7604-4ab5-bfce-dc9cf0dd7b56","system_id":"levelo_inurba_marseille","lat":43.29579,"lon":5.39992,"is_reserved":false,"is_disabled":true,"rental_uris":{"android":"levelo://app?vid=e3d5a69f-7604-4ab5-bfce-dc9cf0dd7b56","ios":"levelo://app?vid=e3d5a69f-7604-4ab5-bfce-dc9cf0dd7b56"},"vehicle_type_id":"4","last_reported":1737364245,"current_range_meters":25600,"station_id":"ce4bh312rcd13ifvqdj0","pricing_plan_id":"cebpf4jnsgd1na2vs0mg"},{"bike_id":"32348f99-1fcf-454f-af80-2887ff634383","system_id":"levelo_inurba_marseille","lat":43.31491,"lon":5.37311,"is_reserved":false,"is_disabled":false,"rental_uris":{"android":"levelo://app?vid=32348f99-1fcf-454f-af80-2887ff634383","ios":"levelo://app?vid=32348f99-1fcf-454f-af80-2887ff634383"},"vehicle_type_id":"4","last_reported":1737364245,"current_range_meters":11600,"station_id":"ce4bgt12rcd13ifvqcd0","pricing_plan_id":"cebpf4jnsgd1na2vs0mg"},{"bike_id":"9d98433c-79bd-46fc-b91b-e31fc151a57e","system_id":"levelo_inurba_marseille","lat":43.25918,"lon":5.40902,"is_reserved":false,"is_disabled":false,"rental_uris":{"android":"levelo://app?vid=9d98433c-79bd-46fc-b91b-e31fc151a57e","ios":"levelo://app?vid=9d98433c-79bd-46fc-b91b-e31fc151a57e"},"vehicle_type_id":"4","last_reported":1737364245,"current_range_meters":37600,"station_id":"ce4bhm92rcd13ifvqglg","pricing_plan_id":"cebpf4jnsgd1na2vs0mg"},{"bike_id":"6fdbf649-2860-4acb-a6c7-3397c212d0f0","system_id":"levelo_inurba_marseille","lat":43.29903,"lon":5.37468,"is_reserved":false,"is_disabled":false,"rental_uris":{"android":"levelo://app?vid=6fdbf649-2860-4acb-a6c7-3397c212d0f0","ios":"levelo://app?vid=6fdbf649-2860-4acb-a6c7-3397c212d0f0"},"vehicle_type_id":"4","last_reported":1737364245,"current_range_meters":38000,"station_id":"ce4bgjh2rcd13ifvqbg0","pricing_plan_id":"cebpf4jnsgd1na2vs0mg"},{"bike_id":"7686ade4-3aaf-4ba5-9b29-242cbb3cee7c","system_id":"levelo_inurba_marseille","lat":43.28935,"lon":5.36411,"is_reserved":false,"is_disabled":true,"rental_uris":{"android":"levelo://app?vid=7686ade4-3aaf-4ba5-9b29-242cbb3cee7c","ios":"levelo://app?vid=7686ade4-3aaf-4ba5-9b29-242cbb3cee7c"},"vehicle_type_id":"4","last_reported":1737364245,"current_range_meters":32400,"station_id":"ce4bhc92rcd13ifvqetg","pricing_plan_id":"cebpf4jnsgd1na2vs0mg"},{"bike_id":"14f5be6c-9c63-43fc-b027-3dcd6c6b9603","system_id":"levelo_inurba_marseille","lat":43.27316,"lon":5.39104,"is_reserved":false,"is_disabled":false,"rental_uris":{"android":"levelo://app?vid=14f5be6c-9c63-43fc-b027-3dcd6c6b9603","ios":"levelo://app?vid=14f5be6c-9c63-43fc-b027-3dcd6c6b9603"},"vehicle_type_id":"4","last_reported":1737364245,"current_range_meters":37600,"station_id":"ce4bhgp2rcd13ifvqfe0","pricing_plan_id":"cebpf4jnsgd1na2vs0mg"},{"bike_id":"365c623b-5ad5-47e2-a231-fb7961d1cced","system_id":"levelo_inurba_marseille","lat":43.30472,"lon":5.379,"is_reserved":false,"is_disabled":false,"rental_uris":{"android":"levelo://app?vid=365c623b-5ad5-47e2-a231-fb7961d1cced","ios":"levelo://app?vid=365c623b-5ad5-47e2-a231-fb7961d1cced"},"vehicle_type_id":"4","last_reported":1737364245,"current_range_meters":30800,"station_id":"ce4bgup2rcd13ifvqcn0","pricing_plan_id":"cebpf4jnsgd1na2vs0mg"},{"bike_id":"763ed4fc-16fd-47a0-aedf-62c028daa66f","system_id":"levelo_inurba_marseille","lat":43.36388,"lon":5.3557,"is_reserved":false,"is_disabled":false,"rental_uris":{"android":"levelo://app?vid=763ed4fc-16fd-47a0-aedf-62c028daa66f","ios":"levelo://app?vid=763ed4fc-16fd-47a0-aedf-62c028daa66f"},"vehicle_type_id":"4","last_reported":1737364245,"current_range_meters":9600,"station_id":"","pricing_plan_id":"cebpf4jnsgd1na2vs0mg"},{"bike_id":"54e47bbf-d358-4fc6-9623-23d2eb6b92a9","system_id":"levelo_inurba_marseille","lat":43.276747,"lon":5.388474,"is_reserved":false,"is_disabled":true,"rental_uris":{"android":"levelo://app?vid=54e47bbf-d358-4fc6-9623-23d2eb6b92a9","ios":"levelo://app?vid=54e47bbf-d358-4fc6-9623-23d2eb6b92a9"},"vehicle_type_id":"4","last_reported":1737364245,"current_range_meters":17600,"station_id":"","pricing_plan_id":"cebpf4jnsgd1na2vs0mg"},{"bike_id":"a2771881-b956-4a9a-9bc9-a89642d437c9","system_id":"levelo_inurba_marseille","lat":43.23192,"lon":5.35544,"is_reserved":false,"is_disabled":false,"rental_uris":{"android":"levelo://app?vid=a2771881-b956-4a9a-9bc9-a89642d437c9","ios":"levelo://app?vid=a2771881-b956-4a9a-9bc9-a89642d437c9"},"vehicle_type_id":"4","last_reported":1737364245,"current_range_meters":28000,"station_id":"ce4bhu92rcd13ifvqi70","pricing_plan_id":"cebpf4jnsgd1na2vs0mg"},{"bike_id":"dd3e648d-0c8b-4027-a5f5-caba6b440753","system_id":"levelo_inurba_marseille","lat":43.23197,"lon":5.39959,"is_reserved":false,"is_disabled":false,"rental_uris":{"android":"levelo://app?vid=dd3e648d-0c8b-4027-a5f5-caba6b440753","ios":"levelo://app?vid=dd3e648d-0c8b-4027-a5f5-caba6b440753"},"vehicle_type_id":"4","last_reported":1737364245,"current_range_meters":38800,"station_id":"ce4bhn12rcd13ifvqgqg","pricing_plan_id":"cebpf4jnsgd1na2vs0mg"},{"bike_id":"6a8328dc-cff7-48e1-b451-55f2664d8ff0","system_id":"levelo_inurba_marseille","lat":43.31765,"lon":5.3904,"is_reserved":false,"is_disabled":false,"rental_uris":{"android":"levelo://app?vid=6a8328dc-cff7-48e1-b451-55f2664d8ff0","ios":"levelo://app?vid=6a8328dc-cff7-48e1-b451-55f2664d8ff0"},"vehicle_type_id":"4","last_reported":1737364245,"current_range_meters":20000,"station_id":"ce4bhqp2rcd13ifvqhng","pricing_plan_id":"cebpf4jnsgd1na2vs0mg"},{"bike_id":"0f1425ca-4180-4d3a-bdfa-6aa77c98beff","system_id":"levelo_inurba_marseille","lat":43.33611,"lon":5.41034,"is_reserved":false,"is_disabled":false,"rental_uris":{"android":"levelo://app?vid=0f1425ca-4180-4d3a-bdfa-6aa77c98beff","ios":"levelo://app?vid=0f1425ca-4180-4d3a-bdfa-6aa77c98beff"},"vehicle_type_id":"4","last_reported":1737364245,"current_range_meters":22800,"station_id":"ce4bhqh2rcd13ifvqhmg","pricing_plan_id":"cebpf4jnsgd1na2vs0mg"},{"bike_id":"f3c94274-f861-4c89-8bb1-1ebe1a531935","system_id":"levelo_inurba_marseille","lat":43.25003,"lon":5.38928,"is_reserved":false,"is_disabled":false,"rental_uris":{"android":"levelo://app?vid=f3c94274-f861-4c89-8bb1-1ebe1a531935","ios":"levelo://app?vid=f3c94274-f861-4c89-8bb1-1ebe1a531935"},"vehicle_type_id":"4","last_reported":1737364245,"current_range_meters":35200,"station_id":"ce4bhgp2rcd13ifvqfd0","pricing_plan_id":"cebpf4jnsgd1na2vs0mg"},{"bike_id":"8cbe6785-3e99-446b-a437-e1032da4e762","system_id":"levelo_inurba_marseille","lat":43.255737,"lon":5.382269,"is_reserved":false,"is_disabled":false,"rental_uris":{"android":"levelo://app?vid=8cbe6785-3e99-446b-a437-e1032da4e762","ios":"levelo://app?vid=8cbe6785-3e99-446b-a437-e1032da4e762"},"vehicle_type_id":"4","last_reported":1737364245,"current_range_meters":15200,"station_id":"ce4bhih2rcd13ifvqfs0","pricing_plan_id":"cebpf4jnsgd1na2vs0mg"},{"bike_id":"ea820ade-d81d-428e-82b9-7f165f7e8e75","system_id":"levelo_inurba_marseille","lat":43.32361,"lon":5.3676,"is_reserved":false,"is_disabled":false,"rental_uris":{"android":"levelo://app?vid=ea820ade-d81d-428e-82b9-7f165f7e8e75","ios":"levelo://app?vid=ea820ade-d81d-428e-82b9-7f165f7e8e75"},"vehicle_type_id":"4","last_reported":1737364245,"current_range_meters":10800,"station_id":"ce4bhsh2rcd13ifvqi2g","pricing_plan_id":"cebpf4jnsgd1na2vs0mg"},{"bike_id":"c29020e0-83ef-4b06-ac4f-c4422257f84a","system_id":"levelo_inurba_marseille","lat":43.36392,"lon":5.356004,"is_reserved":false,"is_disabled":false,"rental_uris":{"android":"levelo://app?vid=c29020e0-83ef-4b06-ac4f-c4422257f84a","ios":"levelo://app?vid=c29020e0-83ef-4b06-ac4f-c4422257f84a"},"vehicle_type_id":"4","last_reported":1737364245,"current_range_meters":14400,"station_id":"","pricing_plan_id":"cebpf4jnsgd1na2vs0mg"},{"bike_id":"9a9f5094-96b5-4ffb-92ab-bc926b485321","system_id":"levelo_inurba_marseille","lat":43.23177,"lon":5.39956,"is_reserved":false,"is_disabled":false,"rental_uris":{"android":"levelo://app?vid=9a9f5094-96b5-4ffb-92ab-bc926b485321","ios":"levelo://app?vid=9a9f5094-96b5-4ffb-92ab-bc926b485321"},"vehicle_type_id":"4","last_reported":1737364245,"current_range_meters":39200,"station_id":"ce4bhn12rcd13ifvqgqg","pricing_plan_id":"cebpf4jnsgd1na2vs0mg"},{"bike_id":"2134fa96-3287-49a0-8c4d-ce46e95d9fc9","system_id":"levelo_inurba_marseille","lat":43.25937,"lon":5.40892,"is_reserved":false,"is_disabled":false,"rental_uris":{"android":"levelo://app?vid=2134fa96-3287-49a0-8c4d-ce46e95d9fc9","ios":"levelo://app?vid=2134fa96-3287-49a0-8c4d-ce46e95d9fc9"},"vehicle_type_id":"4","last_reported":1737364245,"current_range_meters":30000,"station_id":"ce4bhm92rcd13ifvqglg","pricing_plan_id":"cebpf4jnsgd1na2vs0mg"},{"bike_id":"d6d9d2de-790c-4ddb-ae75-295bb9ad8667","system_id":"levelo_inurba_marseille","lat":43.31357,"lon":5.36719,"is_reserved":false,"is_disabled":false,"rental_uris":{"android":"levelo://app?vid=d6d9d2de-790c-4ddb-ae75-295bb9ad8667","ios":"levelo://app?vid=d6d9d2de-790c-4ddb-ae75-295bb9ad8667"},"vehicle_type_id":"4","last_reported":1737364245,"current_range_meters":10800,"station_id":"ce4bgr92rcd13ifvqc6g","pricing_plan_id":"cebpf4jnsgd1na2vs0mg"},{"bike_id":"6bf5bd29-3e54-437a-9020-86384919dc04","system_id":"levelo_inurba_marseille","lat":43.32285,"lon":5.38301,"is_reserved":false,"is_disabled":false,"rental_uris":{"android":"levelo://app?vid=6bf5bd29-3e54-437a-9020-86384919dc04","ios":"levelo://app?vid=6bf5bd29-3e54-437a-9020-86384919dc04"},"vehicle_type_id":"4","last_reported":1737364245,"current_range_meters":39200,"station_id":"ce4bhr12rcd13ifvqhqg","pricing_plan_id":"cebpf4jnsgd1na2vs0mg"},{"bike_id":"ba7925fc-aff3-4d67-b149-ba3c1d3dd310","system_id":"levelo_inurba_marseille","lat":43.29985,"lon":5.37178,"is_reserved":false,"is_disabled":false,"rental_uris":{"android":"levelo://app?vid=ba7925fc-aff3-4d67-b149-ba3c1d3dd310","ios":"levelo://app?vid=ba7925fc-aff3-4d67-b149-ba3c1d3dd310"},"vehicle_type_id":"4","last_reported":1737364245,"current_range_meters":18000,"station_id":"ce4bgr92rcd13ifvqc7g","pricing_plan_id":"cebpf4jnsgd1na2vs0mg"},{"bike_id":"c2f1954e-eebc-4f53-ae0c-43b3602a41b2","system_id":"levelo_inurba_marseille","lat":43.28944,"lon":5.36629,"is_reserved":false,"is_disabled":true,"rental_uris":{"android":"levelo://app?vid=c2f1954e-eebc-4f53-ae0c-43b3602a41b2","ios":"levelo://app?vid=c2f1954e-eebc-4f53-ae0c-43b3602a41b2"},"vehicle_type_id":"4","last_reported":1737364245,"current_range_meters":30000,"station_id":"ce4bhap2rcd13ifvqek0","pricing_plan_id":"cebpf4jnsgd1na2vs0mg"},{"bike_id":"d1fe8692-eb9a-4c29-b94c-0567b580aa37","system_id":"levelo_inurba_marseille","lat":43.29296,"lon":5.37453,"is_reserved":false,"is_disabled":false,"rental_uris":{"android":"levelo://app?vid=d1fe8692-eb9a-4c29-b94c-0567b580aa37","ios":"levelo://app?vid=d1fe8692-eb9a-4c29-b94c-0567b580aa37"},"vehicle_type_id":"4","last_reported":1737364245,"current_range_meters":39200,"station_id":"ce4bgi12rcd13ifvqb70","pricing_plan_id":"cebpf4jnsgd1na2vs0mg"},{"bike_id":"722e2d1b-5934-451d-bce8-481fd6d08752","system_id":"levelo_inurba_marseille","lat":43.26693,"lon":5.38278,"is_reserved":false,"is_disabled":false,"rental_uris":{"android":"levelo://app?vid=722e2d1b-5934-451d-bce8-481fd6d08752","ios":"levelo://app?vid=722e2d1b-5934-451d-bce8-481fd6d08752"},"vehicle_type_id":"4","last_reported":1737364245,"current_range_meters":25600,"station_id":"ce4bhg92rcd13ifvqf90","pricing_plan_id":"cebpf4jnsgd1na2vs0mg"},{"bike_id":"04e7f6b2-1170-476d-8eb7-54bc6ab7d23c","system_id":"levelo_inurba_marseille","lat":43.243926,"lon":5.370576,"is_reserved":false,"is_disabled":false,"rental_uris":{"android":"levelo://app?vid=04e7f6b2-1170-476d-8eb7-54bc6ab7d23c","ios":"levelo://app?vid=04e7f6b2-1170-476d-8eb7-54bc6ab7d23c"},"vehicle_type_id":"4","last_reported":1737364245,"current_range_meters":35200,"station_id":"ce4bhhh2rcd13ifvqfk0","pricing_plan_id":"cebpf4jnsgd1na2vs0mg"},{"bike_id":"d35b5e37-a557-4e1e-9c5b-ed605ab4e276","system_id":"levelo_inurba_marseille","lat":43.29263,"lon":5.38429,"is_reserved":false,"is_disabled":false,"rental_uris":{"android":"levelo://app?vid=d35b5e37-a557-4e1e-9c5b-ed605ab4e276","ios":"levelo://app?vid=d35b5e37-a557-4e1e-9c5b-ed605ab4e276"},"vehicle_type_id":"4","last_reported":1737364245,"current_range_meters":20000,"station_id":"ce4bh692rcd13ifvqea0","pricing_plan_id":"cebpf4jnsgd1na2vs0mg"},{"bike_id":"7cb02900-340f-4d8c-b7a9-8629cd52e8ff","system_id":"levelo_inurba_marseille","lat":43.27431,"lon":5.3942,"is_reserved":false,"is_disabled":true,"rental_uris":{"android":"levelo://app?vid=7cb02900-340f-4d8c-b7a9-8629cd52e8ff","ios":"levelo://app?vid=7cb02900-340f-4d8c-b7a9-8629cd52e8ff"},"vehicle_type_id":"4","last_reported":1737364245,"current_range_meters":1600,"station_id":"ce4bhdp2rcd13ifvqf20","pricing_plan_id":"cebpf4jnsgd1na2vs0mg"},{"bike_id":"c8fe6bd0-5be5-4ede-8e98-69d8c19fd7cf","system_id":"levelo_inurba_marseille","lat":43.23144,"lon":5.43716,"is_reserved":false,"is_disabled":false,"rental_uris":{"android":"levelo://app?vid=c8fe6bd0-5be5-4ede-8e98-69d8c19fd7cf","ios":"levelo://app?vid=c8fe6bd0-5be5-4ede-8e98-69d8c19fd7cf"},"vehicle_type_id":"4","last_reported":1737364245,"current_range_meters":38800,"station_id":"ce4bhmp2rcd13ifvqgog","pricing_plan_id":"cebpf4jnsgd1na2vs0mg"},{"bike_id":"c1dd2e89-0e55-48b3-882c-35cf9597bd82","system_id":"levelo_inurba_marseille","lat":43.28476,"lon":5.38427,"is_reserved":false,"is_disabled":false,"rental_uris":{"android":"levelo://app?vid=c1dd2e89-0e55-48b3-882c-35cf9597bd82","ios":"levelo://app?vid=c1dd2e89-0e55-48b3-882c-35cf9597bd82"},"vehicle_type_id":"4","last_reported":1737364245,"current_range_meters":38800,"station_id":"ce4bh512rcd13ifvqe3g","pricing_plan_id":"cebpf4jnsgd1na2vs0mg"},{"bike_id":"57b0e606-8fdf-401d-8223-87c7978ca31e","system_id":"levelo_inurba_marseille","lat":43.26219,"lon":5.40477,"is_reserved":false,"is_disabled":false,"rental_uris":{"android":"levelo://app?vid=57b0e606-8fdf-401d-8223-87c7978ca31e","ios":"levelo://app?vid=57b0e606-8fdf-401d-8223-87c7978ca31e"},"vehicle_type_id":"4","last_reported":1737364245,"current_range_meters":31200,"station_id":"","pricing_plan_id":"cebpf4jnsgd1na2vs0mg"},{"bike_id":"d6dda788-2ee0-45e5-a6fd-f8b98f248df1","system_id":"levelo_inurba_marseille","lat":43.23151,"lon":5.437303,"is_reserved":false,"is_disabled":false,"rental_uris":{"android":"levelo://app?vid=d6dda788-2ee0-45e5-a6fd-f8b98f248df1","ios":"levelo://app?vid=d6dda788-2ee0-45e5-a6fd-f8b98f248df1"},"vehicle_type_id":"4","last_reported":1737364245,"current_range_meters":38000,"station_id":"ce4bhmp2rcd13ifvqgog","pricing_plan_id":"cebpf4jnsgd1na2vs0mg"},{"bike_id":"9f231178-3220-4493-bcf9-f1e58adce409","system_id":"levelo_inurba_marseille","lat":43.30539,"lon":5.36511,"is_reserved":false,"is_disabled":false,"rental_uris":{"android":"levelo://app?vid=9f231178-3220-4493-bcf9-f1e58adce409","ios":"levelo://app?vid=9f231178-3220-4493-bcf9-f1e58adce409"},"vehicle_type_id":"4","last_reported":1737364245,"current_range_meters":37600,"station_id":"ce4bgs12rcd13ifvqcag","pricing_plan_id":"cebpf4jnsgd1na2vs0mg"},{"bike_id":"94bdaa84-8d49-464b-898c-663f4980c5b8","system_id":"levelo_inurba_marseille","lat":43.32541,"lon":5.41439,"is_reserved":false,"is_disabled":false,"rental_uris":{"android":"levelo://app?vid=94bdaa84-8d49-464b-898c-663f4980c5b8","ios":"levelo://app?vid=94bdaa84-8d49-464b-898c-663f4980c5b8"},"vehicle_type_id":"4","last_reported":1737364245,"current_range_meters":38800,"station_id":"ce4bhq12rcd13ifvqhhg","pricing_plan_id":"cebpf4jnsgd1na2vs0mg"},{"bike_id":"81112329-1dad-4775-ba9b-1357b51686d0","system_id":"levelo_inurba_marseille","lat":43.31299,"lon":5.37355,"is_reserved":false,"is_disabled":false,"rental_uris":{"android":"levelo://app?vid=81112329-1dad-4775-ba9b-1357b51686d0","ios":"levelo://app?vid=81112329-1dad-4775-ba9b-1357b51686d0"},"vehicle_type_id":"4","last_reported":1737364245,"current_range_meters":33200,"station_id":"","pricing_plan_id":"cebpf4jnsgd1na2vs0mg"},{"bike_id":"d2209cbe-5891-4e53-950a-08fc01a95fa9","system_id":"levelo_inurba_marseille","lat":43.27504,"lon":5.42469,"is_reserved":false,"is_disabled":false,"rental_uris":{"android":"levelo://app?vid=d2209cbe-5891-4e53-950a-08fc01a95fa9","ios":"levelo://app?vid=d2209cbe-5891-4e53-950a-08fc01a95fa9"},"vehicle_type_id":"4","last_reported":1737364245,"current_range_meters":19600,"station_id":"ce4bhn92rcd13ifvqgrg","pricing_plan_id":"cebpf4jnsgd1na2vs0mg"},{"bike_id":"aa58a370-3dfc-419f-ac67-60fe6fa0a1a7","system_id":"levelo_inurba_marseille","lat":43.24668,"lon":5.38174,"is_reserved":false,"is_disabled":false,"rental_uris":{"android":"levelo://app?vid=aa58a370-3dfc-419f-ac67-60fe6fa0a1a7","ios":"levelo://app?vid=aa58a370-3dfc-419f-ac67-60fe6fa0a1a7"},"vehicle_type_id":"4","last_reported":1737364245,"current_range_meters":7200,"station_id":"ce4bhih2rcd13ifvqfr0","pricing_plan_id":"cebpf4jnsgd1na2vs0mg"},{"bike_id":"989683d8-cd1f-443e-bd96-77b49fba450d","system_id":"levelo_inurba_marseille","lat":43.31348,"lon":5.36747,"is_reserved":false,"is_disabled":false,"rental_uris":{"android":"levelo://app?vid=989683d8-cd1f-443e-bd96-77b49fba450d","ios":"levelo://app?vid=989683d8-cd1f-443e-bd96-77b49fba450d"},"vehicle_type_id":"4","last_reported":1737364245,"current_range_meters":27200,"station_id":"ce4bgr92rcd13ifvqc6g","pricing_plan_id":"cebpf4jnsgd1na2vs0mg"},{"bike_id":"36cb831c-8c27-4a5e-ad4e-5cb16afa7d01","system_id":"levelo_inurba_marseille","lat":43.28719,"lon":5.37937,"is_reserved":false,"is_disabled":false,"rental_uris":{"android":"levelo://app?vid=36cb831c-8c27-4a5e-ad4e-5cb16afa7d01","ios":"levelo://app?vid=36cb831c-8c27-4a5e-ad4e-5cb16afa7d01"},"vehicle_type_id":"4","last_reported":1737364245,"current_range_meters":24800,"station_id":"ce4bh9p2rcd13ifvqec0","pricing_plan_id":"cebpf4jnsgd1na2vs0mg"},{"bike_id":"25a1483f-1859-4f2a-a274-9eb2c53ccd4c","system_id":"levelo_inurba_marseille","lat":43.27501,"lon":5.42477,"is_reserved":false,"is_disabled":false,"rental_uris":{"android":"levelo://app?vid=25a1483f-1859-4f2a-a274-9eb2c53ccd4c","ios":"levelo://app?vid=25a1483f-1859-4f2a-a274-9eb2c53ccd4c"},"vehicle_type_id":"4","last_reported":1737364245,"current_range_meters":24800,"station_id":"ce4bhn92rcd13ifvqgrg","pricing_plan_id":"cebpf4jnsgd1na2vs0mg"},{"bike_id":"5b308fd9-f7f6-4a09-b6e5-5d2734337296","system_id":"levelo_inurba_marseille","lat":43.30469,"lon":5.37908,"is_reserved":false,"is_disabled":false,"rental_uris":{"android":"levelo://app?vid=5b308fd9-f7f6-4a09-b6e5-5d2734337296","ios":"levelo://app?vid=5b308fd9-f7f6-4a09-b6e5-5d2734337296"},"vehicle_type_id":"4","last_reported":1737364245,"current_range_meters":8400,"station_id":"ce4bgup2rcd13ifvqcn0","pricing_plan_id":"cebpf4jnsgd1na2vs0mg"},{"bike_id":"3860f79b-6390-4baa-9962-103869425bc6","system_id":"levelo_inurba_marseille","lat":43.298963,"lon":5.436716,"is_reserved":false,"is_disabled":false,"rental_uris":{"android":"levelo://app?vid=3860f79b-6390-4baa-9962-103869425bc6","ios":"levelo://app?vid=3860f79b-6390-4baa-9962-103869425bc6"},"vehicle_type_id":"4","last_reported":1737364245,"current_range_meters":18000,"station_id":"ce4bhpp2rcd13ifvqhfg","pricing_plan_id":"cebpf4jnsgd1na2vs0mg"},{"bike_id":"f6dca82d-b752-4959-8656-506c0da49cff","system_id":"levelo_inurba_marseille","lat":43.29574,"lon":5.37505,"is_reserved":false,"is_disabled":false,"rental_uris":{"android":"levelo://app?vid=f6dca82d-b752-4959-8656-506c0da49cff","ios":"levelo://app?vid=f6dca82d-b752-4959-8656-506c0da49cff"},"vehicle_type_id":"4","last_reported":1737364245,"current_range_meters":35200,"station_id":"ce4bgh92rcd13ifvqb50","pricing_plan_id":"cebpf4jnsgd1na2vs0mg"},{"bike_id":"e05cfd67-2fa3-49cf-9cca-4f0057a960aa","system_id":"levelo_inurba_marseille","lat":43.24647,"lon":5.38892,"is_reserved":false,"is_disabled":false,"rental_uris":{"android":"levelo://app?vid=e05cfd67-2fa3-49cf-9cca-4f0057a960aa","ios":"levelo://app?vid=e05cfd67-2fa3-49cf-9cca-4f0057a960aa"},"vehicle_type_id":"4","last_reported":1737364245,"current_range_meters":28000,"station_id":"ce4bhg12rcd13ifvqf60","pricing_plan_id":"cebpf4jnsgd1na2vs0mg"},{"bike_id":"9e3e75b7-e02c-4faa-a086-72240ba06acd","system_id":"levelo_inurba_marseille","lat":43.2603,"lon":5.37566,"is_reserved":false,"is_disabled":false,"rental_uris":{"android":"levelo://app?vid=9e3e75b7-e02c-4faa-a086-72240ba06acd","ios":"levelo://app?vid=9e3e75b7-e02c-4faa-a086-72240ba06acd"},"vehicle_type_id":"4","last_reported":1737364245,"current_range_meters":38000,"station_id":"ce4bhgh2rcd13ifvqfa0","pricing_plan_id":"cebpf4jnsgd1na2vs0mg"},{"bike_id":"50b81c1d-fa29-46c7-b159-2fe7aa70730e","system_id":"levelo_inurba_marseille","lat":43.28979,"lon":5.3784,"is_reserved":false,"is_disabled":false,"rental_uris":{"android":"levelo://app?vid=50b81c1d-fa29-46c7-b159-2fe7aa70730e","ios":"levelo://app?vid=50b81c1d-fa29-46c7-b159-2fe7aa70730e"},"vehicle_type_id":"4","last_reported":1737364245,"current_range_meters":38000,"station_id":"ce4bh9p2rcd13ifvqed0","pricing_plan_id":"cebpf4jnsgd1na2vs0mg"},{"bike_id":"ca8aa51d-4833-4c77-8009-59b7c07323a3","system_id":"levelo_inurba_marseille","lat":43.32358,"lon":5.36757,"is_reserved":false,"is_disabled":false,"rental_uris":{"android":"levelo://app?vid=ca8aa51d-4833-4c77-8009-59b7c07323a3","ios":"levelo://app?vid=ca8aa51d-4833-4c77-8009-59b7c07323a3"},"vehicle_type_id":"4","last_reported":1737364245,"current_range_meters":32800,"station_id":"ce4bhsh2rcd13ifvqi2g","pricing_plan_id":"cebpf4jnsgd1na2vs0mg"},{"bike_id":"fea3d035-eb05-4214-8ec6-00cce9f7ce57","system_id":"levelo_inurba_marseille","lat":43.27202,"lon":5.39177,"is_reserved":false,"is_disabled":false,"rental_uris":{"android":"levelo://app?vid=fea3d035-eb05-4214-8ec6-00cce9f7ce57","ios":"levelo://app?vid=fea3d035-eb05-4214-8ec6-00cce9f7ce57"},"vehicle_type_id":"4","last_reported":1737364245,"current_range_meters":39200,"station_id":"ce4bhhp2rcd13ifvqfm0","pricing_plan_id":"cebpf4jnsgd1na2vs0mg"},{"bike_id":"ce0ee56d-180c-40a7-8ee4-1ff6fa737784","system_id":"levelo_inurba_marseille","lat":43.298974,"lon":5.436649,"is_reserved":false,"is_disabled":false,"rental_uris":{"android":"levelo://app?vid=ce0ee56d-180c-40a7-8ee4-1ff6fa737784","ios":"levelo://app?vid=ce0ee56d-180c-40a7-8ee4-1ff6fa737784"},"vehicle_type_id":"4","last_reported":1737364245,"current_range_meters":38800,"station_id":"ce4bhpp2rcd13ifvqhfg","pricing_plan_id":"cebpf4jnsgd1na2vs0mg"},{"bike_id":"49edd341-1744-445c-b1f6-ec80c4f617c5","system_id":"levelo_inurba_marseille","lat":43.27073,"lon":5.42301,"is_reserved":false,"is_disabled":false,"rental_uris":{"android":"levelo://app?vid=49edd341-1744-445c-b1f6-ec80c4f617c5","ios":"levelo://app?vid=49edd341-1744-445c-b1f6-ec80c4f617c5"},"vehicle_type_id":"4","last_reported":1737364245,"current_range_meters":38800,"station_id":"ce4bhk92rcd13ifvqgb0","pricing_plan_id":"cebpf4jnsgd1na2vs0mg"},{"bike_id":"51379e9f-1ebd-43ee-bd84-6927ab606473","system_id":"levelo_inurba_marseille","lat":43.24173,"lon":5.36401,"is_reserved":false,"is_disabled":false,"rental_uris":{"android":"levelo://app?vid=51379e9f-1ebd-43ee-bd84-6927ab606473","ios":"levelo://app?vid=51379e9f-1ebd-43ee-bd84-6927ab606473"},"vehicle_type_id":"4","last_reported":1737364245,"current_range_meters":23200,"station_id":"cpo36qri1sfpv3e86is0","pricing_plan_id":"cebpf4jnsgd1na2vs0mg"},{"bike_id":"57d9fa47-e597-4ea4-913f-9b45079bd718","system_id":"levelo_inurba_marseille","lat":43.330242,"lon":5.390399,"is_reserved":false,"is_disabled":false,"rental_uris":{"android":"levelo://app?vid=57d9fa47-e597-4ea4-913f-9b45079bd718","ios":"levelo://app?vid=57d9fa47-e597-4ea4-913f-9b45079bd718"},"vehicle_type_id":"4","last_reported":1737364245,"current_range_meters":38800,"station_id":"ce4bhr92rcd13ifvqhrg","pricing_plan_id":"cebpf4jnsgd1na2vs0mg"},{"bike_id":"a6817152-9db4-45be-84b1-a30b6bbc47cf","system_id":"levelo_inurba_marseille","lat":43.24179,"lon":5.39729,"is_reserved":false,"is_disabled":true,"rental_uris":{"android":"levelo://app?vid=a6817152-9db4-45be-84b1-a30b6bbc47cf","ios":"levelo://app?vid=a6817152-9db4-45be-84b1-a30b6bbc47cf"},"vehicle_type_id":"4","last_reported":1737364245,"current_range_meters":0,"station_id":"ce4bhn12rcd13ifvqgpg","pricing_plan_id":"cebpf4jnsgd1na2vs0mg"},{"bike_id":"d7b57092-5089-4c4a-819e-bef9772d11d8","system_id":"levelo_inurba_marseille","lat":43.31758,"lon":5.37806,"is_reserved":false,"is_disabled":false,"rental_uris":{"android":"levelo://app?vid=d7b57092-5089-4c4a-819e-bef9772d11d8","ios":"levelo://app?vid=d7b57092-5089-4c4a-819e-bef9772d11d8"},"vehicle_type_id":"4","last_reported":1737364245,"current_range_meters":28800,"station_id":"","pricing_plan_id":"cebpf4jnsgd1na2vs0mg"},{"bike_id":"5afb1b34-649e-484c-811f-1250e2832b6a","system_id":"levelo_inurba_marseille","lat":43.26064,"lon":5.39411,"is_reserved":false,"is_disabled":false,"rental_uris":{"android":"levelo://app?vid=5afb1b34-649e-484c-811f-1250e2832b6a","ios":"levelo://app?vid=5afb1b34-649e-484c-811f-1250e2832b6a"},"vehicle_type_id":"4","last_reported":1737364245,"current_range_meters":38800,"station_id":"ce4bhh92rcd13ifvqfj0","pricing_plan_id":"cebpf4jnsgd1na2vs0mg"},{"bike_id":"970eacc2-5e8f-4753-aa3e-5d8cafb72393","system_id":"levelo_inurba_marseille","lat":43.259337,"lon":5.408933,"is_reserved":false,"is_disabled":false,"rental_uris":{"android":"levelo://app?vid=970eacc2-5e8f-4753-aa3e-5d8cafb72393","ios":"levelo://app?vid=970eacc2-5e8f-4753-aa3e-5d8cafb72393"},"vehicle_type_id":"4","last_reported":1737364245,"current_range_meters":32400,"station_id":"ce4bhm92rcd13ifvqglg","pricing_plan_id":"cebpf4jnsgd1na2vs0mg"},{"bike_id":"ae35589b-d85c-4f9a-b98c-9bc44748a230","system_id":"levelo_inurba_marseille","lat":43.25716,"lon":5.41115,"is_reserved":false,"is_disabled":false,"rental_uris":{"android":"levelo://app?vid=ae35589b-d85c-4f9a-b98c-9bc44748a230","ios":"levelo://app?vid=ae35589b-d85c-4f9a-b98c-9bc44748a230"},"vehicle_type_id":"4","last_reported":1737364245,"current_range_meters":16400,"station_id":"ce4bhkp2rcd13ifvqgd0","pricing_plan_id":"cebpf4jnsgd1na2vs0mg"},{"bike_id":"690db51c-a7a2-4ecc-b4f4-c069d27e1fc8","system_id":"levelo_inurba_marseille","lat":43.24077,"lon":5.37751,"is_reserved":false,"is_disabled":false,"rental_uris":{"android":"levelo://app?vid=690db51c-a7a2-4ecc-b4f4-c069d27e1fc8","ios":"levelo://app?vid=690db51c-a7a2-4ecc-b4f4-c069d27e1fc8"},"vehicle_type_id":"4","last_reported":1737364245,"current_range_meters":39200,"station_id":"ce4bhnp2rcd13ifvqgvg","pricing_plan_id":"cebpf4jnsgd1na2vs0mg"},{"bike_id":"4104cbba-088f-4383-b2a0-261d17699731","system_id":"levelo_inurba_marseille","lat":43.239621,"lon":5.366368,"is_reserved":false,"is_disabled":false,"rental_uris":{"android":"levelo://app?vid=4104cbba-088f-4383-b2a0-261d17699731","ios":"levelo://app?vid=4104cbba-088f-4383-b2a0-261d17699731"},"vehicle_type_id":"4","last_reported":1737364245,"current_range_meters":33200,"station_id":"ce4bhi12rcd13ifvqfp0","pricing_plan_id":"cebpf4jnsgd1na2vs0mg"},{"bike_id":"7be810f6-d21f-44ca-8f08-d9a4a9e1b082","system_id":"levelo_inurba_marseille","lat":43.323596,"lon":5.367614,"is_reserved":false,"is_disabled":false,"rental_uris":{"android":"levelo://app?vid=7be810f6-d21f-44ca-8f08-d9a4a9e1b082","ios":"levelo://app?vid=7be810f6-d21f-44ca-8f08-d9a4a9e1b082"},"vehicle_type_id":"4","last_reported":1737364245,"current_range_meters":10800,"station_id":"ce4bhsh2rcd13ifvqi2g","pricing_plan_id":"cebpf4jnsgd1na2vs0mg"},{"bike_id":"7572422c-14df-4de8-b9a8-2a5e14811c99","system_id":"levelo_inurba_marseille","lat":43.29357,"lon":5.37836,"is_reserved":false,"is_disabled":false,"rental_uris":{"android":"levelo://app?vid=7572422c-14df-4de8-b9a8-2a5e14811c99","ios":"levelo://app?vid=7572422c-14df-4de8-b9a8-2a5e14811c99"},"vehicle_type_id":"4","last_reported":1737364245,"current_range_meters":30400,"station_id":"ce4bgjh2rcd13ifvqbf0","pricing_plan_id":"cebpf4jnsgd1na2vs0mg"},{"bike_id":"e769477c-b503-4bb8-b7d3-b7f7ff9ddf2d","system_id":"levelo_inurba_marseille","lat":43.29218,"lon":5.36907,"is_reserved":false,"is_disabled":false,"rental_uris":{"android":"levelo://app?vid=e769477c-b503-4bb8-b7d3-b7f7ff9ddf2d","ios":"levelo://app?vid=e769477c-b503-4bb8-b7d3-b7f7ff9ddf2d"},"vehicle_type_id":"4","last_reported":1737364245,"current_range_meters":16400,"station_id":"","pricing_plan_id":"cebpf4jnsgd1na2vs0mg"},{"bike_id":"87f748ae-200c-46f9-a87e-58da3bbaecae","system_id":"levelo_inurba_marseille","lat":43.334111,"lon":5.429402,"is_reserved":false,"is_disabled":false,"rental_uris":{"android":"levelo://app?vid=87f748ae-200c-46f9-a87e-58da3bbaecae","ios":"levelo://app?vid=87f748ae-200c-46f9-a87e-58da3bbaecae"},"vehicle_type_id":"4","last_reported":1737364245,"current_range_meters":23200,"station_id":"","pricing_plan_id":"cebpf4jnsgd1na2vs0mg"},{"bike_id":"28ef1c1e-dd89-43e8-817b-9b489831397b","system_id":"levelo_inurba_marseille","lat":43.271103,"lon":5.39635,"is_reserved":false,"is_disabled":true,"rental_uris":{"android":"levelo://app?vid=28ef1c1e-dd89-43e8-817b-9b489831397b","ios":"levelo://app?vid=28ef1c1e-dd89-43e8-817b-9b489831397b"},"vehicle_type_id":"4","last_reported":1737364245,"current_range_meters":0,"station_id":"","pricing_plan_id":"cebpf4jnsgd1na2vs0mg"},{"bike_id":"a090d58d-a1fb-4921-bd15-f1d1e2db9ea4","system_id":"levelo_inurba_marseille","lat":43.24163,"lon":5.39754,"is_reserved":false,"is_disabled":false,"rental_uris":{"android":"levelo://app?vid=a090d58d-a1fb-4921-bd15-f1d1e2db9ea4","ios":"levelo://app?vid=a090d58d-a1fb-4921-bd15-f1d1e2db9ea4"},"vehicle_type_id":"4","last_reported":1737364245,"current_range_meters":27600,"station_id":"ce4bhn12rcd13ifvqgpg","pricing_plan_id":"cebpf4jnsgd1na2vs0mg"},{"bike_id":"b8c33cc5-e538-44b1-a7f5-a0c6163b2176","system_id":"levelo_inurba_marseille","lat":43.27205,"lon":5.39192,"is_reserved":false,"is_disabled":false,"rental_uris":{"android":"levelo://app?vid=b8c33cc5-e538-44b1-a7f5-a0c6163b2176","ios":"levelo://app?vid=b8c33cc5-e538-44b1-a7f5-a0c6163b2176"},"vehicle_type_id":"4","last_reported":1737364245,"current_range_meters":27200,"station_id":"ce4bhhp2rcd13ifvqfm0","pricing_plan_id":"cebpf4jnsgd1na2vs0mg"},{"bike_id":"1e45fc01-4c61-428e-8cc9-c074deefa75a","system_id":"levelo_inurba_marseille","lat":43.30482,"lon":5.37906,"is_reserved":false,"is_disabled":false,"rental_uris":{"android":"levelo://app?vid=1e45fc01-4c61-428e-8cc9-c074deefa75a","ios":"levelo://app?vid=1e45fc01-4c61-428e-8cc9-c074deefa75a"},"vehicle_type_id":"4","last_reported":1737364245,"current_range_meters":24000,"station_id":"ce4bgup2rcd13ifvqcn0","pricing_plan_id":"cebpf4jnsgd1na2vs0mg"},{"bike_id":"bbd6e56f-1a5f-4813-a7fd-d882eb94346c","system_id":"levelo_inurba_marseille","lat":43.31723,"lon":5.43717,"is_reserved":false,"is_disabled":true,"rental_uris":{"android":"levelo://app?vid=bbd6e56f-1a5f-4813-a7fd-d882eb94346c","ios":"levelo://app?vid=bbd6e56f-1a5f-4813-a7fd-d882eb94346c"},"vehicle_type_id":"4","last_reported":1737364245,"current_range_meters":25200,"station_id":"ce4bhp92rcd13ifvqhcg","pricing_plan_id":"cebpf4jnsgd1na2vs0mg"},{"bike_id":"357eaeda-fef2-41f2-9ad0-621ae2cc5c09","system_id":"levelo_inurba_marseille","lat":43.33753,"lon":5.37518,"is_reserved":false,"is_disabled":false,"rental_uris":{"android":"levelo://app?vid=357eaeda-fef2-41f2-9ad0-621ae2cc5c09","ios":"levelo://app?vid=357eaeda-fef2-41f2-9ad0-621ae2cc5c09"},"vehicle_type_id":"4","last_reported":1737364245,"current_range_meters":28800,"station_id":"","pricing_plan_id":"cebpf4jnsgd1na2vs0mg"},{"bike_id":"9591e31e-6673-4bff-8f50-6b7e82a6b9d7","system_id":"levelo_inurba_marseille","lat":43.24059,"lon":5.37769,"is_reserved":false,"is_disabled":false,"rental_uris":{"android":"levelo://app?vid=9591e31e-6673-4bff-8f50-6b7e82a6b9d7","ios":"levelo://app?vid=9591e31e-6673-4bff-8f50-6b7e82a6b9d7"},"vehicle_type_id":"4","last_reported":1737364245,"current_range_meters":39200,"station_id":"ce4bhnp2rcd13ifvqgvg","pricing_plan_id":"cebpf4jnsgd1na2vs0mg"},{"bike_id":"4ca0c0a8-ebec-4495-a31b-51805b75ee6d","system_id":"levelo_inurba_marseille","lat":43.24647,"lon":5.388991,"is_reserved":false,"is_disabled":false,"rental_uris":{"android":"levelo://app?vid=4ca0c0a8-ebec-4495-a31b-51805b75ee6d","ios":"levelo://app?vid=4ca0c0a8-ebec-4495-a31b-51805b75ee6d"},"vehicle_type_id":"4","last_reported":1737364245,"current_range_meters":39200,"station_id":"ce4bhg12rcd13ifvqf60","pricing_plan_id":"cebpf4jnsgd1na2vs0mg"},{"bike_id":"59573d05-8b25-4d08-928a-2e522ea4e7a5","system_id":"levelo_inurba_marseille","lat":43.31182,"lon":5.38661,"is_reserved":false,"is_disabled":true,"rental_uris":{"android":"levelo://app?vid=59573d05-8b25-4d08-928a-2e522ea4e7a5","ios":"levelo://app?vid=59573d05-8b25-4d08-928a-2e522ea4e7a5"},"vehicle_type_id":"4","last_reported":1737364245,"current_range_meters":38800,"station_id":"","pricing_plan_id":"cebpf4jnsgd1na2vs0mg"},{"bike_id":"d714004e-0a5d-46dc-8f45-dcd4ee7c47a7","system_id":"levelo_inurba_marseille","lat":43.29523,"lon":5.37479,"is_reserved":false,"is_disabled":true,"rental_uris":{"android":"levelo://app?vid=d714004e-0a5d-46dc-8f45-dcd4ee7c47a7","ios":"levelo://app?vid=d714004e-0a5d-46dc-8f45-dcd4ee7c47a7"},"vehicle_type_id":"4","last_reported":1737364245,"current_range_meters":35600,"station_id":"ce4bgkp2rcd13ifvqbmg","pricing_plan_id":"cebpf4jnsgd1na2vs0mg"},{"bike_id":"d1fbee56-a8f7-4480-a4bd-ba66bb143867","system_id":"levelo_inurba_marseille","lat":43.30281,"lon":5.37711,"is_reserved":false,"is_disabled":false,"rental_uris":{"android":"levelo://app?vid=d1fbee56-a8f7-4480-a4bd-ba66bb143867","ios":"levelo://app?vid=d1fbee56-a8f7-4480-a4bd-ba66bb143867"},"vehicle_type_id":"4","last_reported":1737364245,"current_range_meters":39200,"station_id":"ce4bguh2rcd13ifvqcj0","pricing_plan_id":"cebpf4jnsgd1na2vs0mg"},{"bike_id":"7edfec00-4b2e-4f8f-84c8-80dc19a05f65","system_id":"levelo_inurba_marseille","lat":43.26671,"lon":5.3826,"is_reserved":false,"is_disabled":false,"rental_uris":{"android":"levelo://app?vid=7edfec00-4b2e-4f8f-84c8-80dc19a05f65","ios":"levelo://app?vid=7edfec00-4b2e-4f8f-84c8-80dc19a05f65"},"vehicle_type_id":"4","last_reported":1737364245,"current_range_meters":38000,"station_id":"ce4bhg92rcd13ifvqf90","pricing_plan_id":"cebpf4jnsgd1na2vs0mg"},{"bike_id":"d2420bec-3d56-4379-9c60-dccd464e9eac","system_id":"levelo_inurba_marseille","lat":43.26785,"lon":5.39414,"is_reserved":false,"is_disabled":false,"rental_uris":{"android":"levelo://app?vid=d2420bec-3d56-4379-9c60-dccd464e9eac","ios":"levelo://app?vid=d2420bec-3d56-4379-9c60-dccd464e9eac"},"vehicle_type_id":"4","last_reported":1737364245,"current_range_meters":25600,"station_id":"ce4bhh12rcd13ifvqfg0","pricing_plan_id":"cebpf4jnsgd1na2vs0mg"},{"bike_id":"5645ad9c-8592-4d50-b7bd-19710b53f2e9","system_id":"levelo_inurba_marseille","lat":43.31364,"lon":5.36702,"is_reserved":false,"is_disabled":true,"rental_uris":{"android":"levelo://app?vid=5645ad9c-8592-4d50-b7bd-19710b53f2e9","ios":"levelo://app?vid=5645ad9c-8592-4d50-b7bd-19710b53f2e9"},"vehicle_type_id":"4","last_reported":1737364245,"current_range_meters":30000,"station_id":"ce4bgr92rcd13ifvqc6g","pricing_plan_id":"cebpf4jnsgd1na2vs0mg"},{"bike_id":"01a07bd9-36a1-4c19-a88b-7c9e3a6ee490","system_id":"levelo_inurba_marseille","lat":43.250913,"lon":5.395112,"is_reserved":false,"is_disabled":false,"rental_uris":{"android":"levelo://app?vid=01a07bd9-36a1-4c19-a88b-7c9e3a6ee490","ios":"levelo://app?vid=01a07bd9-36a1-4c19-a88b-7c9e3a6ee490"},"vehicle_type_id":"4","last_reported":1737364245,"current_range_meters":29600,"station_id":"ce4bhm12rcd13ifvqgkg","pricing_plan_id":"cebpf4jnsgd1na2vs0mg"},{"bike_id":"e15fab48-1c22-4c3e-aef4-2c91960531b4","system_id":"levelo_inurba_marseille","lat":43.28991,"lon":5.37834,"is_reserved":false,"is_disabled":false,"rental_uris":{"android":"levelo://app?vid=e15fab48-1c22-4c3e-aef4-2c91960531b4","ios":"levelo://app?vid=e15fab48-1c22-4c3e-aef4-2c91960531b4"},"vehicle_type_id":"4","last_reported":1737364245,"current_range_meters":38800,"station_id":"ce4bh9p2rcd13ifvqed0","pricing_plan_id":"cebpf4jnsgd1na2vs0mg"},{"bike_id":"d751e749-afcd-4240-9c1e-54752c62ac8f","system_id":"levelo_inurba_marseille","lat":43.274897,"lon":5.424563,"is_reserved":false,"is_disabled":false,"rental_uris":{"android":"levelo://app?vid=d751e749-afcd-4240-9c1e-54752c62ac8f","ios":"levelo://app?vid=d751e749-afcd-4240-9c1e-54752c62ac8f"},"vehicle_type_id":"4","last_reported":1737364245,"current_range_meters":36800,"station_id":"ce4bhn92rcd13ifvqgrg","pricing_plan_id":"cebpf4jnsgd1na2vs0mg"},{"bike_id":"04318d98-40c8-4185-ad39-f5a6937838de","system_id":"levelo_inurba_marseille","lat":43.29038,"lon":5.37569,"is_reserved":false,"is_disabled":false,"rental_uris":{"android":"levelo://app?vid=04318d98-40c8-4185-ad39-f5a6937838de","ios":"levelo://app?vid=04318d98-40c8-4185-ad39-f5a6937838de"},"vehicle_type_id":"4","last_reported":1737364245,"current_range_meters":6400,"station_id":"ce4bh692rcd13ifvqe90","pricing_plan_id":"cebpf4jnsgd1na2vs0mg"},{"bike_id":"1a531580-4efd-49f3-925f-81e7e3768874","system_id":"levelo_inurba_marseille","lat":43.25717,"lon":5.41109,"is_reserved":false,"is_disabled":false,"rental_uris":{"android":"levelo://app?vid=1a531580-4efd-49f3-925f-81e7e3768874","ios":"levelo://app?vid=1a531580-4efd-49f3-925f-81e7e3768874"},"vehicle_type_id":"4","last_reported":1737364245,"current_range_meters":38800,"station_id":"ce4bhkp2rcd13ifvqgd0","pricing_plan_id":"cebpf4jnsgd1na2vs0mg"},{"bike_id":"9af972b2-17c3-4aa9-9268-80d56c2cf43f","system_id":"levelo_inurba_marseille","lat":43.2924,"lon":5.40914,"is_reserved":false,"is_disabled":false,"rental_uris":{"android":"levelo://app?vid=9af972b2-17c3-4aa9-9268-80d56c2cf43f","ios":"levelo://app?vid=9af972b2-17c3-4aa9-9268-80d56c2cf43f"},"vehicle_type_id":"4","last_reported":1737364245,"current_range_meters":38400,"station_id":"ce4bh192rcd13ifvqdc0","pricing_plan_id":"cebpf4jnsgd1na2vs0mg"},{"bike_id":"524072f1-ace1-43cc-8007-f91dc732b1f7","system_id":"levelo_inurba_marseille","lat":43.25084,"lon":5.39513,"is_reserved":false,"is_disabled":false,"rental_uris":{"android":"levelo://app?vid=524072f1-ace1-43cc-8007-f91dc732b1f7","ios":"levelo://app?vid=524072f1-ace1-43cc-8007-f91dc732b1f7"},"vehicle_type_id":"4","last_reported":1737364245,"current_range_meters":27600,"station_id":"ce4bhm12rcd13ifvqgkg","pricing_plan_id":"cebpf4jnsgd1na2vs0mg"},{"bike_id":"c42268c0-a5e0-42b8-b874-93ef21576df8","system_id":"levelo_inurba_marseille","lat":43.281523,"lon":5.42642,"is_reserved":false,"is_disabled":false,"rental_uris":{"android":"levelo://app?vid=c42268c0-a5e0-42b8-b874-93ef21576df8","ios":"levelo://app?vid=c42268c0-a5e0-42b8-b874-93ef21576df8"},"vehicle_type_id":"4","last_reported":1737364245,"current_range_meters":24400,"station_id":"ce4bhnh2rcd13ifvqgug","pricing_plan_id":"cebpf4jnsgd1na2vs0mg"},{"bike_id":"77192f79-2b12-4ff4-874e-f5cab7df388a","system_id":"levelo_inurba_marseille","lat":43.28419,"lon":5.35009,"is_reserved":false,"is_disabled":true,"rental_uris":{"android":"levelo://app?vid=77192f79-2b12-4ff4-874e-f5cab7df388a","ios":"levelo://app?vid=77192f79-2b12-4ff4-874e-f5cab7df388a"},"vehicle_type_id":"4","last_reported":1737364245,"current_range_meters":34000,"station_id":"ce4bhbh2rcd13ifvqepg","pricing_plan_id":"cebpf4jnsgd1na2vs0mg"},{"bike_id":"0f2743d1-4d5e-4f5d-80a9-2ff55d9ea33b","system_id":"levelo_inurba_marseille","lat":43.24057,"lon":5.37752,"is_reserved":false,"is_disabled":false,"rental_uris":{"android":"levelo://app?vid=0f2743d1-4d5e-4f5d-80a9-2ff55d9ea33b","ios":"levelo://app?vid=0f2743d1-4d5e-4f5d-80a9-2ff55d9ea33b"},"vehicle_type_id":"4","last_reported":1737364245,"current_range_meters":33600,"station_id":"ce4bhnp2rcd13ifvqgvg","pricing_plan_id":"cebpf4jnsgd1na2vs0mg"},{"bike_id":"f6477394-37ad-474b-869e-23ecf9fee49a","system_id":"levelo_inurba_marseille","lat":43.24176,"lon":5.39736,"is_reserved":false,"is_disabled":false,"rental_uris":{"android":"levelo://app?vid=f6477394-37ad-474b-869e-23ecf9fee49a","ios":"levelo://app?vid=f6477394-37ad-474b-869e-23ecf9fee49a"},"vehicle_type_id":"4","last_reported":1737364245,"current_range_meters":39200,"station_id":"ce4bhn12rcd13ifvqgpg","pricing_plan_id":"cebpf4jnsgd1na2vs0mg"},{"bike_id":"d9bd53dd-dc1b-4cac-919d-d796caef7fb1","system_id":"levelo_inurba_marseille","lat":43.29974,"lon":5.37171,"is_reserved":false,"is_disabled":false,"rental_uris":{"android":"levelo://app?vid=d9bd53dd-dc1b-4cac-919d-d796caef7fb1","ios":"levelo://app?vid=d9bd53dd-dc1b-4cac-919d-d796caef7fb1"},"vehicle_type_id":"4","last_reported":1737364245,"current_range_meters":19200,"station_id":"ce4bgr92rcd13ifvqc7g","pricing_plan_id":"cebpf4jnsgd1na2vs0mg"},{"bike_id":"6d8ffafd-c3d6-4cc2-a62d-1ba002d9d500","system_id":"levelo_inurba_marseille","lat":43.28663,"lon":5.36347,"is_reserved":false,"is_disabled":false,"rental_uris":{"android":"levelo://app?vid=6d8ffafd-c3d6-4cc2-a62d-1ba002d9d500","ios":"levelo://app?vid=6d8ffafd-c3d6-4cc2-a62d-1ba002d9d500"},"vehicle_type_id":"4","last_reported":1737364245,"current_range_meters":38000,"station_id":"ce4bhah2rcd13ifvqej0","pricing_plan_id":"cebpf4jnsgd1na2vs0mg"},{"bike_id":"4291632b-b89c-4c47-8e03-1ac2c74e4815","system_id":"levelo_inurba_marseille","lat":43.24182,"lon":5.3975,"is_reserved":false,"is_disabled":false,"rental_uris":{"android":"levelo://app?vid=4291632b-b89c-4c47-8e03-1ac2c74e4815","ios":"levelo://app?vid=4291632b-b89c-4c47-8e03-1ac2c74e4815"},"vehicle_type_id":"4","last_reported":1737364245,"current_range_meters":35600,"station_id":"ce4bhn12rcd13ifvqgpg","pricing_plan_id":"cebpf4jnsgd1na2vs0mg"},{"bike_id":"30413a28-f6e8-4ebb-b8a3-7197fc2abd3d","system_id":"levelo_inurba_marseille","lat":43.24056,"lon":5.37764,"is_reserved":false,"is_disabled":false,"rental_uris":{"android":"levelo://app?vid=30413a28-f6e8-4ebb-b8a3-7197fc2abd3d","ios":"levelo://app?vid=30413a28-f6e8-4ebb-b8a3-7197fc2abd3d"},"vehicle_type_id":"4","last_reported":1737364245,"current_range_meters":14800,"station_id":"ce4bhnp2rcd13ifvqgvg","pricing_plan_id":"cebpf4jnsgd1na2vs0mg"},{"bike_id":"4e25d71c-9400-476e-b3db-0782305a88df","system_id":"levelo_inurba_marseille","lat":43.27499,"lon":5.42447,"is_reserved":false,"is_disabled":false,"rental_uris":{"android":"levelo://app?vid=4e25d71c-9400-476e-b3db-0782305a88df","ios":"levelo://app?vid=4e25d71c-9400-476e-b3db-0782305a88df"},"vehicle_type_id":"4","last_reported":1737364245,"current_range_meters":12400,"station_id":"ce4bhn92rcd13ifvqgrg","pricing_plan_id":"cebpf4jnsgd1na2vs0mg"},{"bike_id":"2c2f029b-75ba-4beb-9e9a-38c9bd9c6b19","system_id":"levelo_inurba_marseille","lat":43.29625,"lon":5.37169,"is_reserved":false,"is_disabled":true,"rental_uris":{"android":"levelo://app?vid=2c2f029b-75ba-4beb-9e9a-38c9bd9c6b19","ios":"levelo://app?vid=2c2f029b-75ba-4beb-9e9a-38c9bd9c6b19"},"vehicle_type_id":"4","last_reported":1737364245,"current_range_meters":25200,"station_id":"ce4bgnh2rcd13ifvqc0g","pricing_plan_id":"cebpf4jnsgd1na2vs0mg"},{"bike_id":"5c355f1f-2346-434b-b0b1-1dbab4b16da7","system_id":"levelo_inurba_marseille","lat":43.30909,"lon":5.36845,"is_reserved":false,"is_disabled":false,"rental_uris":{"android":"levelo://app?vid=5c355f1f-2346-434b-b0b1-1dbab4b16da7","ios":"levelo://app?vid=5c355f1f-2346-434b-b0b1-1dbab4b16da7"},"vehicle_type_id":"4","last_reported":1737364245,"current_range_meters":25600,"station_id":"ce4bgn92rcd13ifvqbvg","pricing_plan_id":"cebpf4jnsgd1na2vs0mg"},{"bike_id":"88c7aad3-3ef6-4971-bb58-792c9e5d568e","system_id":"levelo_inurba_marseille","lat":43.25096,"lon":5.40318,"is_reserved":false,"is_disabled":false,"rental_uris":{"android":"levelo://app?vid=88c7aad3-3ef6-4971-bb58-792c9e5d568e","ios":"levelo://app?vid=88c7aad3-3ef6-4971-bb58-792c9e5d568e"},"vehicle_type_id":"4","last_reported":1737364245,"current_range_meters":35200,"station_id":"ce4bhlh2rcd13ifvqgig","pricing_plan_id":"cebpf4jnsgd1na2vs0mg"},{"bike_id":"a928f3f8-500f-4949-9198-e59e77dfdb5f","system_id":"levelo_inurba_marseille","lat":43.25009,"lon":5.38939,"is_reserved":false,"is_disabled":false,"rental_uris":{"android":"levelo://app?vid=a928f3f8-500f-4949-9198-e59e77dfdb5f","ios":"levelo://app?vid=a928f3f8-500f-4949-9198-e59e77dfdb5f"},"vehicle_type_id":"4","last_reported":1737364245,"current_range_meters":25200,"station_id":"ce4bhgp2rcd13ifvqfd0","pricing_plan_id":"cebpf4jnsgd1na2vs0mg"},{"bike_id":"0897e627-1690-4b1c-984d-29cb463c9770","system_id":"levelo_inurba_marseille","lat":43.31886,"lon":5.40736,"is_reserved":false,"is_disabled":true,"rental_uris":{"android":"levelo://app?vid=0897e627-1690-4b1c-984d-29cb463c9770","ios":"levelo://app?vid=0897e627-1690-4b1c-984d-29cb463c9770"},"vehicle_type_id":"4","last_reported":1737364245,"current_range_meters":0,"station_id":"ce4bhq12rcd13ifvqhig","pricing_plan_id":"cebpf4jnsgd1na2vs0mg"},{"bike_id":"80bcc3e7-77de-44a5-8965-f19acb6d7452","system_id":"levelo_inurba_marseille","lat":43.33023,"lon":5.390525,"is_reserved":false,"is_disabled":false,"rental_uris":{"android":"levelo://app?vid=80bcc3e7-77de-44a5-8965-f19acb6d7452","ios":"levelo://app?vid=80bcc3e7-77de-44a5-8965-f19acb6d7452"},"vehicle_type_id":"4","last_reported":1737364245,"current_range_meters":38800,"station_id":"ce4bhr92rcd13ifvqhrg","pricing_plan_id":"cebpf4jnsgd1na2vs0mg"},{"bike_id":"6f2577d2-70b8-4845-b5b9-b8ee004783df","system_id":"levelo_inurba_marseille","lat":43.24086,"lon":5.37764,"is_reserved":false,"is_disabled":false,"rental_uris":{"android":"levelo://app?vid=6f2577d2-70b8-4845-b5b9-b8ee004783df","ios":"levelo://app?vid=6f2577d2-70b8-4845-b5b9-b8ee004783df"},"vehicle_type_id":"4","last_reported":1737364245,"current_range_meters":22000,"station_id":"ce4bhnp2rcd13ifvqgvg","pricing_plan_id":"cebpf4jnsgd1na2vs0mg"},{"bike_id":"f4a4a406-b0a5-42fc-9236-32e93ac6f6b2","system_id":"levelo_inurba_marseille","lat":43.23156,"lon":5.43707,"is_reserved":false,"is_disabled":true,"rental_uris":{"android":"levelo://app?vid=f4a4a406-b0a5-42fc-9236-32e93ac6f6b2","ios":"levelo://app?vid=f4a4a406-b0a5-42fc-9236-32e93ac6f6b2"},"vehicle_type_id":"4","last_reported":1737364245,"current_range_meters":22400,"station_id":"ce4bhmp2rcd13ifvqgog","pricing_plan_id":"cebpf4jnsgd1na2vs0mg"},{"bike_id":"b3bbec6d-8e05-4d19-8fdb-b6e3ec816df6","system_id":"levelo_inurba_marseille","lat":43.3123,"lon":5.36867,"is_reserved":false,"is_disabled":false,"rental_uris":{"android":"levelo://app?vid=b3bbec6d-8e05-4d19-8fdb-b6e3ec816df6","ios":"levelo://app?vid=b3bbec6d-8e05-4d19-8fdb-b6e3ec816df6"},"vehicle_type_id":"4","last_reported":1737364245,"current_range_meters":32800,"station_id":"ce4bgl92rcd13ifvqbq0","pricing_plan_id":"cebpf4jnsgd1na2vs0mg"},{"bike_id":"210ffe2d-27bf-471a-a897-ba0eb55d9e2b","system_id":"levelo_inurba_marseille","lat":43.27074,"lon":5.42301,"is_reserved":false,"is_disabled":false,"rental_uris":{"android":"levelo://app?vid=210ffe2d-27bf-471a-a897-ba0eb55d9e2b","ios":"levelo://app?vid=210ffe2d-27bf-471a-a897-ba0eb55d9e2b"},"vehicle_type_id":"4","last_reported":1737364245,"current_range_meters":30800,"station_id":"ce4bhk92rcd13ifvqgb0","pricing_plan_id":"cebpf4jnsgd1na2vs0mg"},{"bike_id":"61343872-608a-4009-a64a-c7a73f44b14b","system_id":"levelo_inurba_marseille","lat":43.32285,"lon":5.38277,"is_reserved":false,"is_disabled":true,"rental_uris":{"android":"levelo://app?vid=61343872-608a-4009-a64a-c7a73f44b14b","ios":"levelo://app?vid=61343872-608a-4009-a64a-c7a73f44b14b"},"vehicle_type_id":"4","last_reported":1737364245,"current_range_meters":1200,"station_id":"ce4bhr12rcd13ifvqhqg","pricing_plan_id":"cebpf4jnsgd1na2vs0mg"},{"bike_id":"a83a8ef9-c1e6-48e6-9704-f41fd1e90bc3","system_id":"levelo_inurba_marseille","lat":43.30093,"lon":5.39087,"is_reserved":false,"is_disabled":false,"rental_uris":{"android":"levelo://app?vid=a83a8ef9-c1e6-48e6-9704-f41fd1e90bc3","ios":"levelo://app?vid=a83a8ef9-c1e6-48e6-9704-f41fd1e90bc3"},"vehicle_type_id":"4","last_reported":1737364245,"current_range_meters":7200,"station_id":"ce4bh192rcd13ifvqdb0","pricing_plan_id":"cebpf4jnsgd1na2vs0mg"},{"bike_id":"e16bfad3-6e5c-42b6-90cd-e77c51d0ba6a","system_id":"levelo_inurba_marseille","lat":43.299049,"lon":5.381328,"is_reserved":false,"is_disabled":true,"rental_uris":{"android":"levelo://app?vid=e16bfad3-6e5c-42b6-90cd-e77c51d0ba6a","ios":"levelo://app?vid=e16bfad3-6e5c-42b6-90cd-e77c51d0ba6a"},"vehicle_type_id":"4","last_reported":1737364245,"current_range_meters":14800,"station_id":"ce4bgj12rcd13ifvqbc0","pricing_plan_id":"cebpf4jnsgd1na2vs0mg"},{"bike_id":"acedcb23-de95-406a-89f8-5a70e7654940","system_id":"levelo_inurba_marseille","lat":43.28838,"lon":5.35874,"is_reserved":false,"is_disabled":true,"rental_uris":{"android":"levelo://app?vid=acedcb23-de95-406a-89f8-5a70e7654940","ios":"levelo://app?vid=acedcb23-de95-406a-89f8-5a70e7654940"},"vehicle_type_id":"4","last_reported":1737364245,"current_range_meters":38800,"station_id":"ce4bhb12rcd13ifvqem0","pricing_plan_id":"cebpf4jnsgd1na2vs0mg"},{"bike_id":"50343fe7-b049-4115-b6cd-1d192f0464f8","system_id":"levelo_inurba_marseille","lat":43.25818,"lon":5.39445,"is_reserved":false,"is_disabled":false,"rental_uris":{"android":"levelo://app?vid=50343fe7-b049-4115-b6cd-1d192f0464f8","ios":"levelo://app?vid=50343fe7-b049-4115-b6cd-1d192f0464f8"},"vehicle_type_id":"4","last_reported":1737364245,"current_range_meters":39200,"station_id":"ce4bhip2rcd13ifvqft0","pricing_plan_id":"cebpf4jnsgd1na2vs0mg"},{"bike_id":"cabc6bad-8b1b-43d7-9c91-7ab7b5e05aa2","system_id":"levelo_inurba_marseille","lat":43.27495,"lon":5.42472,"is_reserved":false,"is_disabled":false,"rental_uris":{"android":"levelo://app?vid=cabc6bad-8b1b-43d7-9c91-7ab7b5e05aa2","ios":"levelo://app?vid=cabc6bad-8b1b-43d7-9c91-7ab7b5e05aa2"},"vehicle_type_id":"4","last_reported":1737364245,"current_range_meters":32400,"station_id":"ce4bhn92rcd13ifvqgrg","pricing_plan_id":"cebpf4jnsgd1na2vs0mg"},{"bike_id":"a647e767-5199-4dd6-913b-4df8a3b985b1","system_id":"levelo_inurba_marseille","lat":43.29296,"lon":5.37462,"is_reserved":false,"is_disabled":false,"rental_uris":{"android":"levelo://app?vid=a647e767-5199-4dd6-913b-4df8a3b985b1","ios":"levelo://app?vid=a647e767-5199-4dd6-913b-4df8a3b985b1"},"vehicle_type_id":"4","last_reported":1737364245,"current_range_meters":12800,"station_id":"ce4bgi12rcd13ifvqb70","pricing_plan_id":"cebpf4jnsgd1na2vs0mg"},{"bike_id":"28c5dac0-7f56-4120-8993-2baa3e59ebdd","system_id":"levelo_inurba_marseille","lat":43.30475,"lon":5.37899,"is_reserved":false,"is_disabled":false,"rental_uris":{"android":"levelo://app?vid=28c5dac0-7f56-4120-8993-2baa3e59ebdd","ios":"levelo://app?vid=28c5dac0-7f56-4120-8993-2baa3e59ebdd"},"vehicle_type_id":"4","last_reported":1737364245,"current_range_meters":27200,"station_id":"ce4bgup2rcd13ifvqcn0","pricing_plan_id":"cebpf4jnsgd1na2vs0mg"},{"bike_id":"43ab6a6e-18b0-45a2-bdfd-26946078537a","system_id":"levelo_inurba_marseille","lat":43.25003,"lon":5.38933,"is_reserved":false,"is_disabled":false,"rental_uris":{"android":"levelo://app?vid=43ab6a6e-18b0-45a2-bdfd-26946078537a","ios":"levelo://app?vid=43ab6a6e-18b0-45a2-bdfd-26946078537a"},"vehicle_type_id":"4","last_reported":1737364245,"current_range_meters":38400,"station_id":"ce4bhgp2rcd13ifvqfd0","pricing_plan_id":"cebpf4jnsgd1na2vs0mg"},{"bike_id":"9ab67adb-321b-4a82-805c-9fd59d93d937","system_id":"levelo_inurba_marseille","lat":43.26949,"lon":5.38635,"is_reserved":false,"is_disabled":false,"rental_uris":{"android":"levelo://app?vid=9ab67adb-321b-4a82-805c-9fd59d93d937","ios":"levelo://app?vid=9ab67adb-321b-4a82-805c-9fd59d93d937"},"vehicle_type_id":"4","last_reported":1737364245,"current_range_meters":25600,"station_id":"ce4bhh92rcd13ifvqfh0","pricing_plan_id":"cebpf4jnsgd1na2vs0mg"},{"bike_id":"132fc87b-66f8-4145-b00b-51e6e69ffe9b","system_id":"levelo_inurba_marseille","lat":43.29038,"lon":5.39955,"is_reserved":false,"is_disabled":false,"rental_uris":{"android":"levelo://app?vid=132fc87b-66f8-4145-b00b-51e6e69ffe9b","ios":"levelo://app?vid=132fc87b-66f8-4145-b00b-51e6e69ffe9b"},"vehicle_type_id":"4","last_reported":1737364245,"current_range_meters":11600,"station_id":"ce4bh392rcd13ifvqdm0","pricing_plan_id":"cebpf4jnsgd1na2vs0mg"},{"bike_id":"b69f7b86-d90e-491b-a17d-ddcffba66e34","system_id":"levelo_inurba_marseille","lat":43.29632,"lon":5.37763,"is_reserved":false,"is_disabled":false,"rental_uris":{"android":"levelo://app?vid=b69f7b86-d90e-491b-a17d-ddcffba66e34","ios":"levelo://app?vid=b69f7b86-d90e-491b-a17d-ddcffba66e34"},"vehicle_type_id":"4","last_reported":1737364245,"current_range_meters":39200,"station_id":"ce4bgi92rcd13ifvqb90","pricing_plan_id":"cebpf4jnsgd1na2vs0mg"},{"bike_id":"427adfa9-113c-4817-9db8-65205ccf4edf","system_id":"levelo_inurba_marseille","lat":43.316952,"lon":5.404654,"is_reserved":false,"is_disabled":false,"rental_uris":{"android":"levelo://app?vid=427adfa9-113c-4817-9db8-65205ccf4edf","ios":"levelo://app?vid=427adfa9-113c-4817-9db8-65205ccf4edf"},"vehicle_type_id":"4","last_reported":1737364245,"current_range_meters":38800,"station_id":"ce4bh012rcd13ifvqd00","pricing_plan_id":"cebpf4jnsgd1na2vs0mg"},{"bike_id":"3eefd8c6-4cdf-47fa-9ddb-2ce61a76ff5d","system_id":"levelo_inurba_marseille","lat":43.27484,"lon":5.42463,"is_reserved":false,"is_disabled":false,"rental_uris":{"android":"levelo://app?vid=3eefd8c6-4cdf-47fa-9ddb-2ce61a76ff5d","ios":"levelo://app?vid=3eefd8c6-4cdf-47fa-9ddb-2ce61a76ff5d"},"vehicle_type_id":"4","last_reported":1737364245,"current_range_meters":30000,"station_id":"ce4bhn92rcd13ifvqgrg","pricing_plan_id":"cebpf4jnsgd1na2vs0mg"},{"bike_id":"5759774f-56fe-4ef4-9310-4288813407ac","system_id":"levelo_inurba_marseille","lat":43.24069,"lon":5.37777,"is_reserved":false,"is_disabled":false,"rental_uris":{"android":"levelo://app?vid=5759774f-56fe-4ef4-9310-4288813407ac","ios":"levelo://app?vid=5759774f-56fe-4ef4-9310-4288813407ac"},"vehicle_type_id":"4","last_reported":1737364245,"current_range_meters":18000,"station_id":"ce4bhnp2rcd13ifvqgvg","pricing_plan_id":"cebpf4jnsgd1na2vs0mg"},{"bike_id":"56b8e9bc-f750-4815-bc98-9098414d16db","system_id":"levelo_inurba_marseille","lat":43.23199,"lon":5.35546,"is_reserved":false,"is_disabled":true,"rental_uris":{"android":"levelo://app?vid=56b8e9bc-f750-4815-bc98-9098414d16db","ios":"levelo://app?vid=56b8e9bc-f750-4815-bc98-9098414d16db"},"vehicle_type_id":"4","last_reported":1737364245,"current_range_meters":0,"station_id":"ce4bhu92rcd13ifvqi70","pricing_plan_id":"cebpf4jnsgd1na2vs0mg"},{"bike_id":"0e91b70c-1e42-4d65-a90a-72cbd40954b0","system_id":"levelo_inurba_marseille","lat":43.32363,"lon":5.36759,"is_reserved":false,"is_disabled":false,"rental_uris":{"android":"levelo://app?vid=0e91b70c-1e42-4d65-a90a-72cbd40954b0","ios":"levelo://app?vid=0e91b70c-1e42-4d65-a90a-72cbd40954b0"},"vehicle_type_id":"4","last_reported":1737364245,"current_range_meters":38000,"station_id":"ce4bhsh2rcd13ifvqi2g","pricing_plan_id":"cebpf4jnsgd1na2vs0mg"},{"bike_id":"809cb738-c150-49d8-8dbb-7ac1d2ee4312","system_id":"levelo_inurba_marseille","lat":43.30169,"lon":5.36604,"is_reserved":false,"is_disabled":false,"rental_uris":{"android":"levelo://app?vid=809cb738-c150-49d8-8dbb-7ac1d2ee4312","ios":"levelo://app?vid=809cb738-c150-49d8-8dbb-7ac1d2ee4312"},"vehicle_type_id":"4","last_reported":1737364245,"current_range_meters":39200,"station_id":"ce4bgrh2rcd13ifvqc8g","pricing_plan_id":"cebpf4jnsgd1na2vs0mg"},{"bike_id":"6f58ed8d-ffa9-450f-9e7b-f5fc414da156","system_id":"levelo_inurba_marseille","lat":43.24073,"lon":5.37759,"is_reserved":false,"is_disabled":false,"rental_uris":{"android":"levelo://app?vid=6f58ed8d-ffa9-450f-9e7b-f5fc414da156","ios":"levelo://app?vid=6f58ed8d-ffa9-450f-9e7b-f5fc414da156"},"vehicle_type_id":"4","last_reported":1737364245,"current_range_meters":18800,"station_id":"ce4bhnp2rcd13ifvqgvg","pricing_plan_id":"cebpf4jnsgd1na2vs0mg"},{"bike_id":"7f6908f7-cfcb-4080-a4c3-d5b221bf885b","system_id":"levelo_inurba_marseille","lat":43.32004,"lon":5.41578,"is_reserved":false,"is_disabled":true,"rental_uris":{"android":"levelo://app?vid=7f6908f7-cfcb-4080-a4c3-d5b221bf885b","ios":"levelo://app?vid=7f6908f7-cfcb-4080-a4c3-d5b221bf885b"},"vehicle_type_id":"4","last_reported":1737364245,"current_range_meters":0,"station_id":"ce4bhq92rcd13ifvqhkg","pricing_plan_id":"cebpf4jnsgd1na2vs0mg"},{"bike_id":"146a0fc6-102c-4b68-8436-40e86162d01b","system_id":"levelo_inurba_marseille","lat":43.25941,"lon":5.40901,"is_reserved":false,"is_disabled":false,"rental_uris":{"android":"levelo://app?vid=146a0fc6-102c-4b68-8436-40e86162d01b","ios":"levelo://app?vid=146a0fc6-102c-4b68-8436-40e86162d01b"},"vehicle_type_id":"4","last_reported":1737364245,"current_range_meters":36800,"station_id":"ce4bhm92rcd13ifvqglg","pricing_plan_id":"cebpf4jnsgd1na2vs0mg"},{"bike_id":"02f25583-5bae-4143-b3b2-7b8d3f3e60d9","system_id":"levelo_inurba_marseille","lat":43.28476,"lon":5.38434,"is_reserved":false,"is_disabled":true,"rental_uris":{"android":"levelo://app?vid=02f25583-5bae-4143-b3b2-7b8d3f3e60d9","ios":"levelo://app?vid=02f25583-5bae-4143-b3b2-7b8d3f3e60d9"},"vehicle_type_id":"4","last_reported":1737364245,"current_range_meters":32000,"station_id":"ce4bh512rcd13ifvqe3g","pricing_plan_id":"cebpf4jnsgd1na2vs0mg"},{"bike_id":"22465212-93af-4e0b-b803-6ee82bba56d5","system_id":"levelo_inurba_marseille","lat":43.33759,"lon":5.3748,"is_reserved":false,"is_disabled":false,"rental_uris":{"android":"levelo://app?vid=22465212-93af-4e0b-b803-6ee82bba56d5","ios":"levelo://app?vid=22465212-93af-4e0b-b803-6ee82bba56d5"},"vehicle_type_id":"4","last_reported":1737364245,"current_range_meters":24800,"station_id":"","pricing_plan_id":"cebpf4jnsgd1na2vs0mg"},{"bike_id":"d6d1604c-c524-40c9-b4a5-227697805b64","system_id":"levelo_inurba_marseille","lat":43.29891,"lon":5.39753,"is_reserved":false,"is_disabled":false,"rental_uris":{"android":"levelo://app?vid=d6d1604c-c524-40c9-b4a5-227697805b64","ios":"levelo://app?vid=d6d1604c-c524-40c9-b4a5-227697805b64"},"vehicle_type_id":"4","last_reported":1737364245,"current_range_meters":2800,"station_id":"ce4bh0h2rcd13ifvqd50","pricing_plan_id":"cebpf4jnsgd1na2vs0mg"},{"bike_id":"48296075-65f0-4f2d-bc40-de3e02ade20f","system_id":"levelo_inurba_marseille","lat":43.28353,"lon":5.3812,"is_reserved":false,"is_disabled":false,"rental_uris":{"android":"levelo://app?vid=48296075-65f0-4f2d-bc40-de3e02ade20f","ios":"levelo://app?vid=48296075-65f0-4f2d-bc40-de3e02ade20f"},"vehicle_type_id":"4","last_reported":1737364245,"current_range_meters":38800,"station_id":"ce4bh412rcd13ifvqdr0","pricing_plan_id":"cebpf4jnsgd1na2vs0mg"},{"bike_id":"9dcd9942-f11c-49e3-ae54-12d82a38d5f2","system_id":"levelo_inurba_marseille","lat":43.30475,"lon":5.37908,"is_reserved":false,"is_disabled":false,"rental_uris":{"android":"levelo://app?vid=9dcd9942-f11c-49e3-ae54-12d82a38d5f2","ios":"levelo://app?vid=9dcd9942-f11c-49e3-ae54-12d82a38d5f2"},"vehicle_type_id":"4","last_reported":1737364245,"current_range_meters":6400,"station_id":"ce4bgup2rcd13ifvqcn0","pricing_plan_id":"cebpf4jnsgd1na2vs0mg"},{"bike_id":"7944f103-435e-484a-8b2c-2f4ab0a687c2","system_id":"levelo_inurba_marseille","lat":43.24084,"lon":5.37748,"is_reserved":false,"is_disabled":false,"rental_uris":{"android":"levelo://app?vid=7944f103-435e-484a-8b2c-2f4ab0a687c2","ios":"levelo://app?vid=7944f103-435e-484a-8b2c-2f4ab0a687c2"},"vehicle_type_id":"4","last_reported":1737364245,"current_range_meters":6000,"station_id":"ce4bhnp2rcd13ifvqgvg","pricing_plan_id":"cebpf4jnsgd1na2vs0mg"},{"bike_id":"f50183e4-71ca-412a-b3a0-01a0e393ecef","system_id":"levelo_inurba_marseille","lat":43.28165,"lon":5.42669,"is_reserved":false,"is_disabled":false,"rental_uris":{"android":"levelo://app?vid=f50183e4-71ca-412a-b3a0-01a0e393ecef","ios":"levelo://app?vid=f50183e4-71ca-412a-b3a0-01a0e393ecef"},"vehicle_type_id":"4","last_reported":1737364245,"current_range_meters":26800,"station_id":"ce4bhnh2rcd13ifvqgug","pricing_plan_id":"cebpf4jnsgd1na2vs0mg"},{"bike_id":"06815d35-757d-4280-814a-8dba22433ced","system_id":"levelo_inurba_marseille","lat":43.27072,"lon":5.42285,"is_reserved":false,"is_disabled":false,"rental_uris":{"android":"levelo://app?vid=06815d35-757d-4280-814a-8dba22433ced","ios":"levelo://app?vid=06815d35-757d-4280-814a-8dba22433ced"},"vehicle_type_id":"4","last_reported":1737364245,"current_range_meters":37600,"station_id":"ce4bhk92rcd13ifvqgb0","pricing_plan_id":"cebpf4jnsgd1na2vs0mg"},{"bike_id":"34ecc71f-0703-49b4-8e54-6736336974d6","system_id":"levelo_inurba_marseille","lat":43.3188,"lon":5.40819,"is_reserved":false,"is_disabled":false,"rental_uris":{"android":"levelo://app?vid=34ecc71f-0703-49b4-8e54-6736336974d6","ios":"levelo://app?vid=34ecc71f-0703-49b4-8e54-6736336974d6"},"vehicle_type_id":"4","last_reported":1737364245,"current_range_meters":36800,"station_id":"ce4bhq12rcd13ifvqhig","pricing_plan_id":"cebpf4jnsgd1na2vs0mg"},{"bike_id":"16a7176a-24c9-4d21-8155-eb4f5f1f837c","system_id":"levelo_inurba_marseille","lat":43.24675,"lon":5.38166,"is_reserved":false,"is_disabled":false,"rental_uris":{"android":"levelo://app?vid=16a7176a-24c9-4d21-8155-eb4f5f1f837c","ios":"levelo://app?vid=16a7176a-24c9-4d21-8155-eb4f5f1f837c"},"vehicle_type_id":"4","last_reported":1737364245,"current_range_meters":35600,"station_id":"ce4bhih2rcd13ifvqfr0","pricing_plan_id":"cebpf4jnsgd1na2vs0mg"},{"bike_id":"7a956b0b-b8f6-4389-bb50-97bccab2a50c","system_id":"levelo_inurba_marseille","lat":43.25936,"lon":5.40895,"is_reserved":false,"is_disabled":false,"rental_uris":{"android":"levelo://app?vid=7a956b0b-b8f6-4389-bb50-97bccab2a50c","ios":"levelo://app?vid=7a956b0b-b8f6-4389-bb50-97bccab2a50c"},"vehicle_type_id":"4","last_reported":1737364245,"current_range_meters":38800,"station_id":"ce4bhm92rcd13ifvqglg","pricing_plan_id":"cebpf4jnsgd1na2vs0mg"},{"bike_id":"68d7fadc-0065-4a45-be8a-01309682276e","system_id":"levelo_inurba_marseille","lat":43.25578,"lon":5.38226,"is_reserved":false,"is_disabled":false,"rental_uris":{"android":"levelo://app?vid=68d7fadc-0065-4a45-be8a-01309682276e","ios":"levelo://app?vid=68d7fadc-0065-4a45-be8a-01309682276e"},"vehicle_type_id":"4","last_reported":1737364245,"current_range_meters":24800,"station_id":"ce4bhih2rcd13ifvqfs0","pricing_plan_id":"cebpf4jnsgd1na2vs0mg"},{"bike_id":"45b46742-a62d-4855-9ae3-d6f0621cbfdc","system_id":"levelo_inurba_marseille","lat":43.25832,"lon":5.39437,"is_reserved":false,"is_disabled":false,"rental_uris":{"android":"levelo://app?vid=45b46742-a62d-4855-9ae3-d6f0621cbfdc","ios":"levelo://app?vid=45b46742-a62d-4855-9ae3-d6f0621cbfdc"},"vehicle_type_id":"4","last_reported":1737364245,"current_range_meters":37600,"station_id":"ce4bhip2rcd13ifvqft0","pricing_plan_id":"cebpf4jnsgd1na2vs0mg"},{"bike_id":"a80b852c-67f7-4f92-bf4d-54e70b44a4b9","system_id":"levelo_inurba_marseille","lat":43.29846,"lon":5.36269,"is_reserved":false,"is_disabled":false,"rental_uris":{"android":"levelo://app?vid=a80b852c-67f7-4f92-bf4d-54e70b44a4b9","ios":"levelo://app?vid=a80b852c-67f7-4f92-bf4d-54e70b44a4b9"},"vehicle_type_id":"4","last_reported":1737364245,"current_range_meters":9200,"station_id":"ce4bgpp2rcd13ifvqc3g","pricing_plan_id":"cebpf4jnsgd1na2vs0mg"},{"bike_id":"728a006d-0130-458e-8328-a0bc435400cf","system_id":"levelo_inurba_marseille","lat":43.29379,"lon":5.373117,"is_reserved":false,"is_disabled":false,"rental_uris":{"android":"levelo://app?vid=728a006d-0130-458e-8328-a0bc435400cf","ios":"levelo://app?vid=728a006d-0130-458e-8328-a0bc435400cf"},"vehicle_type_id":"4","last_reported":1737364245,"current_range_meters":27200,"station_id":"ce4bgkp2rcd13ifvqbmg","pricing_plan_id":"cebpf4jnsgd1na2vs0mg"},{"bike_id":"5b178285-a7f5-4068-a3ef-aecd67e47184","system_id":"levelo_inurba_marseille","lat":43.30912,"lon":5.3683,"is_reserved":false,"is_disabled":false,"rental_uris":{"android":"levelo://app?vid=5b178285-a7f5-4068-a3ef-aecd67e47184","ios":"levelo://app?vid=5b178285-a7f5-4068-a3ef-aecd67e47184"},"vehicle_type_id":"4","last_reported":1737364245,"current_range_meters":32000,"station_id":"ce4bgn92rcd13ifvqbvg","pricing_plan_id":"cebpf4jnsgd1na2vs0mg"},{"bike_id":"92fa69bb-8d79-4a4e-8892-87ec90c4fac1","system_id":"levelo_inurba_marseille","lat":43.31485,"lon":5.38969,"is_reserved":false,"is_disabled":false,"rental_uris":{"android":"levelo://app?vid=92fa69bb-8d79-4a4e-8892-87ec90c4fac1","ios":"levelo://app?vid=92fa69bb-8d79-4a4e-8892-87ec90c4fac1"},"vehicle_type_id":"4","last_reported":1737364245,"current_range_meters":18000,"station_id":"","pricing_plan_id":"cebpf4jnsgd1na2vs0mg"},{"bike_id":"f2390374-e060-4fe1-bcfa-cb2711193e58","system_id":"levelo_inurba_marseille","lat":43.25097,"lon":5.39531,"is_reserved":false,"is_disabled":false,"rental_uris":{"android":"levelo://app?vid=f2390374-e060-4fe1-bcfa-cb2711193e58","ios":"levelo://app?vid=f2390374-e060-4fe1-bcfa-cb2711193e58"},"vehicle_type_id":"4","last_reported":1737364245,"current_range_meters":36000,"station_id":"ce4bhm12rcd13ifvqgkg","pricing_plan_id":"cebpf4jnsgd1na2vs0mg"},{"bike_id":"eff8ce08-e20d-4aca-aa26-405f5c5c11db","system_id":"levelo_inurba_marseille","lat":43.30904,"lon":5.36863,"is_reserved":false,"is_disabled":false,"rental_uris":{"android":"levelo://app?vid=eff8ce08-e20d-4aca-aa26-405f5c5c11db","ios":"levelo://app?vid=eff8ce08-e20d-4aca-aa26-405f5c5c11db"},"vehicle_type_id":"4","last_reported":1737364245,"current_range_meters":34000,"station_id":"ce4bgn92rcd13ifvqbvg","pricing_plan_id":"cebpf4jnsgd1na2vs0mg"},{"bike_id":"472c2637-e47f-4a88-af9d-8347ea7345dd","system_id":"levelo_inurba_marseille","lat":43.31177,"lon":5.38715,"is_reserved":false,"is_disabled":false,"rental_uris":{"android":"levelo://app?vid=472c2637-e47f-4a88-af9d-8347ea7345dd","ios":"levelo://app?vid=472c2637-e47f-4a88-af9d-8347ea7345dd"},"vehicle_type_id":"4","last_reported":1737364245,"current_range_meters":27600,"station_id":"ce4bgv12rcd13ifvqcp0","pricing_plan_id":"cebpf4jnsgd1na2vs0mg"},{"bike_id":"76a67948-e0d0-4720-8934-3556d97efacc","system_id":"levelo_inurba_marseille","lat":43.24072,"lon":5.37768,"is_reserved":false,"is_disabled":false,"rental_uris":{"android":"levelo://app?vid=76a67948-e0d0-4720-8934-3556d97efacc","ios":"levelo://app?vid=76a67948-e0d0-4720-8934-3556d97efacc"},"vehicle_type_id":"4","last_reported":1737364245,"current_range_meters":9600,"station_id":"ce4bhnp2rcd13ifvqgvg","pricing_plan_id":"cebpf4jnsgd1na2vs0mg"},{"bike_id":"d589ee6d-847c-4829-b7ff-fca3b71ee1f9","system_id":"levelo_inurba_marseille","lat":43.30253,"lon":5.40083,"is_reserved":false,"is_disabled":false,"rental_uris":{"android":"levelo://app?vid=d589ee6d-847c-4829-b7ff-fca3b71ee1f9","ios":"levelo://app?vid=d589ee6d-847c-4829-b7ff-fca3b71ee1f9"},"vehicle_type_id":"4","last_reported":1737364245,"current_range_meters":18800,"station_id":"ce4bgvh2rcd13ifvqcs0","pricing_plan_id":"cebpf4jnsgd1na2vs0mg"},{"bike_id":"aff271e0-7f53-472c-9bd0-91ae044491d1","system_id":"levelo_inurba_marseille","lat":43.2835,"lon":5.38116,"is_reserved":false,"is_disabled":false,"rental_uris":{"android":"levelo://app?vid=aff271e0-7f53-472c-9bd0-91ae044491d1","ios":"levelo://app?vid=aff271e0-7f53-472c-9bd0-91ae044491d1"},"vehicle_type_id":"4","last_reported":1737364245,"current_range_meters":38800,"station_id":"ce4bh412rcd13ifvqdr0","pricing_plan_id":"cebpf4jnsgd1na2vs0mg"},{"bike_id":"e7e5efb6-7753-4636-9496-83307e65eeb6","system_id":"levelo_inurba_marseille","lat":43.26064,"lon":5.39402,"is_reserved":false,"is_disabled":false,"rental_uris":{"android":"levelo://app?vid=e7e5efb6-7753-4636-9496-83307e65eeb6","ios":"levelo://app?vid=e7e5efb6-7753-4636-9496-83307e65eeb6"},"vehicle_type_id":"4","last_reported":1737364245,"current_range_meters":27600,"station_id":"ce4bhh92rcd13ifvqfj0","pricing_plan_id":"cebpf4jnsgd1na2vs0mg"},{"bike_id":"1600b693-4bf7-43a1-af85-9d5b3a8fe8da","system_id":"levelo_inurba_marseille","lat":43.29585,"lon":5.36737,"is_reserved":false,"is_disabled":false,"rental_uris":{"android":"levelo://app?vid=1600b693-4bf7-43a1-af85-9d5b3a8fe8da","ios":"levelo://app?vid=1600b693-4bf7-43a1-af85-9d5b3a8fe8da"},"vehicle_type_id":"4","last_reported":1737364245,"current_range_meters":38000,"station_id":"ce4bgph2rcd13ifvqc2g","pricing_plan_id":"cebpf4jnsgd1na2vs0mg"},{"bike_id":"0aa4a416-5ca3-4c2e-b222-394c6f697f31","system_id":"levelo_inurba_marseille","lat":43.31337,"lon":5.36753,"is_reserved":false,"is_disabled":true,"rental_uris":{"android":"levelo://app?vid=0aa4a416-5ca3-4c2e-b222-394c6f697f31","ios":"levelo://app?vid=0aa4a416-5ca3-4c2e-b222-394c6f697f31"},"vehicle_type_id":"4","last_reported":1737364245,"current_range_meters":38400,"station_id":"ce4bgr92rcd13ifvqc6g","pricing_plan_id":"cebpf4jnsgd1na2vs0mg"},{"bike_id":"6bbc47c9-ed18-464f-ae15-c7d53e2bd9ba","system_id":"levelo_inurba_marseille","lat":43.29785,"lon":5.37092,"is_reserved":false,"is_disabled":false,"rental_uris":{"android":"levelo://app?vid=6bbc47c9-ed18-464f-ae15-c7d53e2bd9ba","ios":"levelo://app?vid=6bbc47c9-ed18-464f-ae15-c7d53e2bd9ba"},"vehicle_type_id":"4","last_reported":1737364245,"current_range_meters":38000,"station_id":"ce4bgop2rcd13ifvqc1g","pricing_plan_id":"cebpf4jnsgd1na2vs0mg"},{"bike_id":"f1636dbf-0e88-49e4-b1e2-eda8a71b4e40","system_id":"levelo_inurba_marseille","lat":43.295587,"lon":5.375343,"is_reserved":false,"is_disabled":false,"rental_uris":{"android":"levelo://app?vid=f1636dbf-0e88-49e4-b1e2-eda8a71b4e40","ios":"levelo://app?vid=f1636dbf-0e88-49e4-b1e2-eda8a71b4e40"},"vehicle_type_id":"4","last_reported":1737364245,"current_range_meters":38800,"station_id":"ce4bgh92rcd13ifvqb50","pricing_plan_id":"cebpf4jnsgd1na2vs0mg"},{"bike_id":"f16f6d8c-784b-4d54-93e4-70e4932b4089","system_id":"levelo_inurba_marseille","lat":43.30955,"lon":5.39045,"is_reserved":false,"is_disabled":false,"rental_uris":{"android":"levelo://app?vid=f16f6d8c-784b-4d54-93e4-70e4932b4089","ios":"levelo://app?vid=f16f6d8c-784b-4d54-93e4-70e4932b4089"},"vehicle_type_id":"4","last_reported":1737364245,"current_range_meters":12400,"station_id":"ce4bgup2rcd13ifvqco0","pricing_plan_id":"cebpf4jnsgd1na2vs0mg"},{"bike_id":"748eb233-2b55-40e5-87d6-91e025faacdf","system_id":"levelo_inurba_marseille","lat":43.31171,"lon":5.36921,"is_reserved":false,"is_disabled":false,"rental_uris":{"android":"levelo://app?vid=748eb233-2b55-40e5-87d6-91e025faacdf","ios":"levelo://app?vid=748eb233-2b55-40e5-87d6-91e025faacdf"},"vehicle_type_id":"4","last_reported":1737364245,"current_range_meters":29600,"station_id":"","pricing_plan_id":"cebpf4jnsgd1na2vs0mg"},{"bike_id":"d2c70813-c2dc-439d-aba2-297c3279b67b","system_id":"levelo_inurba_marseille","lat":43.3046,"lon":5.37906,"is_reserved":false,"is_disabled":false,"rental_uris":{"android":"levelo://app?vid=d2c70813-c2dc-439d-aba2-297c3279b67b","ios":"levelo://app?vid=d2c70813-c2dc-439d-aba2-297c3279b67b"},"vehicle_type_id":"4","last_reported":1737364245,"current_range_meters":37600,"station_id":"ce4bgup2rcd13ifvqcn0","pricing_plan_id":"cebpf4jnsgd1na2vs0mg"},{"bike_id":"490838b6-f744-4b79-ac77-a247533aa296","system_id":"levelo_inurba_marseille","lat":43.31721,"lon":5.40428,"is_reserved":false,"is_disabled":false,"rental_uris":{"android":"levelo://app?vid=490838b6-f744-4b79-ac77-a247533aa296","ios":"levelo://app?vid=490838b6-f744-4b79-ac77-a247533aa296"},"vehicle_type_id":"4","last_reported":1737364245,"current_range_meters":38400,"station_id":"","pricing_plan_id":"cebpf4jnsgd1na2vs0mg"},{"bike_id":"4ad51266-48e4-4d1b-8631-93a7a7c83fc9","system_id":"levelo_inurba_marseille","lat":43.30955,"lon":5.39038,"is_reserved":false,"is_disabled":false,"rental_uris":{"android":"levelo://app?vid=4ad51266-48e4-4d1b-8631-93a7a7c83fc9","ios":"levelo://app?vid=4ad51266-48e4-4d1b-8631-93a7a7c83fc9"},"vehicle_type_id":"4","last_reported":1737364245,"current_range_meters":13600,"station_id":"ce4bgup2rcd13ifvqco0","pricing_plan_id":"cebpf4jnsgd1na2vs0mg"},{"bike_id":"88ce3a2b-343a-48fa-9bfd-c30ff1dbe4e5","system_id":"levelo_inurba_marseille","lat":43.25078,"lon":5.39502,"is_reserved":false,"is_disabled":false,"rental_uris":{"android":"levelo://app?vid=88ce3a2b-343a-48fa-9bfd-c30ff1dbe4e5","ios":"levelo://app?vid=88ce3a2b-343a-48fa-9bfd-c30ff1dbe4e5"},"vehicle_type_id":"4","last_reported":1737364245,"current_range_meters":10800,"station_id":"ce4bhm12rcd13ifvqgkg","pricing_plan_id":"cebpf4jnsgd1na2vs0mg"},{"bike_id":"4f0ff530-dfb4-423a-a949-731343171449","system_id":"levelo_inurba_marseille","lat":43.3359,"lon":5.410328,"is_reserved":false,"is_disabled":false,"rental_uris":{"android":"levelo://app?vid=4f0ff530-dfb4-423a-a949-731343171449","ios":"levelo://app?vid=4f0ff530-dfb4-423a-a949-731343171449"},"vehicle_type_id":"4","last_reported":1737364245,"current_range_meters":36800,"station_id":"ce4bhqh2rcd13ifvqhmg","pricing_plan_id":"cebpf4jnsgd1na2vs0mg"},{"bike_id":"5957b55c-bbf3-4d79-a9fa-182e34bda710","system_id":"levelo_inurba_marseille","lat":43.26675,"lon":5.40306,"is_reserved":false,"is_disabled":false,"rental_uris":{"android":"levelo://app?vid=5957b55c-bbf3-4d79-a9fa-182e34bda710","ios":"levelo://app?vid=5957b55c-bbf3-4d79-a9fa-182e34bda710"},"vehicle_type_id":"4","last_reported":1737364245,"current_range_meters":10800,"station_id":"","pricing_plan_id":"cebpf4jnsgd1na2vs0mg"},{"bike_id":"85ecc783-1dcd-4d7b-9945-51ef75ced28d","system_id":"levelo_inurba_marseille","lat":43.30311,"lon":5.36914,"is_reserved":false,"is_disabled":false,"rental_uris":{"android":"levelo://app?vid=85ecc783-1dcd-4d7b-9945-51ef75ced28d","ios":"levelo://app?vid=85ecc783-1dcd-4d7b-9945-51ef75ced28d"},"vehicle_type_id":"4","last_reported":1737364245,"current_range_meters":13600,"station_id":"ce4bgqh2rcd13ifvqc5g","pricing_plan_id":"cebpf4jnsgd1na2vs0mg"},{"bike_id":"22127a39-61a0-40f0-bfe9-3941ee863681","system_id":"levelo_inurba_marseille","lat":43.27491,"lon":5.42454,"is_reserved":false,"is_disabled":false,"rental_uris":{"android":"levelo://app?vid=22127a39-61a0-40f0-bfe9-3941ee863681","ios":"levelo://app?vid=22127a39-61a0-40f0-bfe9-3941ee863681"},"vehicle_type_id":"4","last_reported":1737364245,"current_range_meters":28000,"station_id":"ce4bhn92rcd13ifvqgrg","pricing_plan_id":"cebpf4jnsgd1na2vs0mg"},{"bike_id":"668f9767-c78d-438a-96bb-c0760f782967","system_id":"levelo_inurba_marseille","lat":43.26187,"lon":5.37923,"is_reserved":false,"is_disabled":false,"rental_uris":{"android":"levelo://app?vid=668f9767-c78d-438a-96bb-c0760f782967","ios":"levelo://app?vid=668f9767-c78d-438a-96bb-c0760f782967"},"vehicle_type_id":"4","last_reported":1737364245,"current_range_meters":32800,"station_id":"ce4bhjp2rcd13ifvqg90","pricing_plan_id":"cebpf4jnsgd1na2vs0mg"},{"bike_id":"b4fa5c01-cecc-49e4-9482-65309291a760","system_id":"levelo_inurba_marseille","lat":43.24999,"lon":5.38931,"is_reserved":false,"is_disabled":false,"rental_uris":{"android":"levelo://app?vid=b4fa5c01-cecc-49e4-9482-65309291a760","ios":"levelo://app?vid=b4fa5c01-cecc-49e4-9482-65309291a760"},"vehicle_type_id":"4","last_reported":1737364245,"current_range_meters":34000,"station_id":"ce4bhgp2rcd13ifvqfd0","pricing_plan_id":"cebpf4jnsgd1na2vs0mg"},{"bike_id":"e93518bb-ccb2-4569-a0bd-690fc20905b8","system_id":"levelo_inurba_marseille","lat":43.287253,"lon":5.379323,"is_reserved":false,"is_disabled":false,"rental_uris":{"android":"levelo://app?vid=e93518bb-ccb2-4569-a0bd-690fc20905b8","ios":"levelo://app?vid=e93518bb-ccb2-4569-a0bd-690fc20905b8"},"vehicle_type_id":"4","last_reported":1737364245,"current_range_meters":25200,"station_id":"ce4bh9p2rcd13ifvqec0","pricing_plan_id":"cebpf4jnsgd1na2vs0mg"},{"bike_id":"7428bbb3-0ed2-4187-8f7f-2ded4bfb6ed0","system_id":"levelo_inurba_marseille","lat":43.27494,"lon":5.42456,"is_reserved":false,"is_disabled":false,"rental_uris":{"android":"levelo://app?vid=7428bbb3-0ed2-4187-8f7f-2ded4bfb6ed0","ios":"levelo://app?vid=7428bbb3-0ed2-4187-8f7f-2ded4bfb6ed0"},"vehicle_type_id":"4","last_reported":1737364245,"current_range_meters":17200,"station_id":"ce4bhn92rcd13ifvqgrg","pricing_plan_id":"cebpf4jnsgd1na2vs0mg"},{"bike_id":"e60bcc88-5ab6-40c5-af7a-e995b02098bd","system_id":"levelo_inurba_marseille","lat":43.24072,"lon":5.37783,"is_reserved":false,"is_disabled":false,"rental_uris":{"android":"levelo://app?vid=e60bcc88-5ab6-40c5-af7a-e995b02098bd","ios":"levelo://app?vid=e60bcc88-5ab6-40c5-af7a-e995b02098bd"},"vehicle_type_id":"4","last_reported":1737364245,"current_range_meters":38800,"station_id":"ce4bhnp2rcd13ifvqgvg","pricing_plan_id":"cebpf4jnsgd1na2vs0mg"},{"bike_id":"55ffbcd1-eef7-48c6-8e1e-15dc3a2da4c1","system_id":"levelo_inurba_marseille","lat":43.28161,"lon":5.4264,"is_reserved":false,"is_disabled":false,"rental_uris":{"android":"levelo://app?vid=55ffbcd1-eef7-48c6-8e1e-15dc3a2da4c1","ios":"levelo://app?vid=55ffbcd1-eef7-48c6-8e1e-15dc3a2da4c1"},"vehicle_type_id":"4","last_reported":1737364245,"current_range_meters":26800,"station_id":"ce4bhnh2rcd13ifvqgug","pricing_plan_id":"cebpf4jnsgd1na2vs0mg"},{"bike_id":"c92cbb9f-5a8c-4f30-b00a-221ba31b944d","system_id":"levelo_inurba_marseille","lat":43.284176,"lon":5.349926,"is_reserved":false,"is_disabled":true,"rental_uris":{"android":"levelo://app?vid=c92cbb9f-5a8c-4f30-b00a-221ba31b944d","ios":"levelo://app?vid=c92cbb9f-5a8c-4f30-b00a-221ba31b944d"},"vehicle_type_id":"4","last_reported":1737364245,"current_range_meters":27600,"station_id":"ce4bhbh2rcd13ifvqepg","pricing_plan_id":"cebpf4jnsgd1na2vs0mg"},{"bike_id":"0494aee5-720b-41bb-9089-898589ae1ece","system_id":"levelo_inurba_marseille","lat":43.3236,"lon":5.38883,"is_reserved":false,"is_disabled":false,"rental_uris":{"android":"levelo://app?vid=0494aee5-720b-41bb-9089-898589ae1ece","ios":"levelo://app?vid=0494aee5-720b-41bb-9089-898589ae1ece"},"vehicle_type_id":"4","last_reported":1737364245,"current_range_meters":35600,"station_id":"ce4bhqp2rcd13ifvqhog","pricing_plan_id":"cebpf4jnsgd1na2vs0mg"},{"bike_id":"bcfdec45-605a-4d67-a50e-c654f378e8ab","system_id":"levelo_inurba_marseille","lat":43.29599,"lon":5.37523,"is_reserved":false,"is_disabled":false,"rental_uris":{"android":"levelo://app?vid=bcfdec45-605a-4d67-a50e-c654f378e8ab","ios":"levelo://app?vid=bcfdec45-605a-4d67-a50e-c654f378e8ab"},"vehicle_type_id":"4","last_reported":1737364245,"current_range_meters":38000,"station_id":"ce4bgh92rcd13ifvqb50","pricing_plan_id":"cebpf4jnsgd1na2vs0mg"},{"bike_id":"2398b642-cd0a-4a16-abf3-3ac0b4a8c4a8","system_id":"levelo_inurba_marseille","lat":43.32472,"lon":5.36601,"is_reserved":false,"is_disabled":false,"rental_uris":{"android":"levelo://app?vid=2398b642-cd0a-4a16-abf3-3ac0b4a8c4a8","ios":"levelo://app?vid=2398b642-cd0a-4a16-abf3-3ac0b4a8c4a8"},"vehicle_type_id":"4","last_reported":1737364245,"current_range_meters":16800,"station_id":"ce4bhs12rcd13ifvqhvg","pricing_plan_id":"cebpf4jnsgd1na2vs0mg"},{"bike_id":"fe90f7a6-3920-456a-9451-50d213b7000f","system_id":"levelo_inurba_marseille","lat":43.28463,"lon":5.38461,"is_reserved":false,"is_disabled":true,"rental_uris":{"android":"levelo://app?vid=fe90f7a6-3920-456a-9451-50d213b7000f","ios":"levelo://app?vid=fe90f7a6-3920-456a-9451-50d213b7000f"},"vehicle_type_id":"4","last_reported":1737364245,"current_range_meters":28400,"station_id":"ce4bh512rcd13ifvqe3g","pricing_plan_id":"cebpf4jnsgd1na2vs0mg"},{"bike_id":"67fe5a2e-d8fb-4c79-a771-ee3875d3a660","system_id":"levelo_inurba_marseille","lat":43.337275,"lon":5.391831,"is_reserved":false,"is_disabled":false,"rental_uris":{"android":"levelo://app?vid=67fe5a2e-d8fb-4c79-a771-ee3875d3a660","ios":"levelo://app?vid=67fe5a2e-d8fb-4c79-a771-ee3875d3a660"},"vehicle_type_id":"4","last_reported":1737364245,"current_range_meters":38800,"station_id":"ce4bhr92rcd13ifvqhsg","pricing_plan_id":"cebpf4jnsgd1na2vs0mg"},{"bike_id":"ed868312-ee35-4b8b-bb0e-7ded591ae493","system_id":"levelo_inurba_marseille","lat":43.30288,"lon":5.37725,"is_reserved":false,"is_disabled":false,"rental_uris":{"android":"levelo://app?vid=ed868312-ee35-4b8b-bb0e-7ded591ae493","ios":"levelo://app?vid=ed868312-ee35-4b8b-bb0e-7ded591ae493"},"vehicle_type_id":"4","last_reported":1737364245,"current_range_meters":33600,"station_id":"ce4bguh2rcd13ifvqcj0","pricing_plan_id":"cebpf4jnsgd1na2vs0mg"},{"bike_id":"9c64d9ef-ceb9-49b7-9bce-40fc18ba7667","system_id":"levelo_inurba_marseille","lat":43.2315,"lon":5.43715,"is_reserved":false,"is_disabled":false,"rental_uris":{"android":"levelo://app?vid=9c64d9ef-ceb9-49b7-9bce-40fc18ba7667","ios":"levelo://app?vid=9c64d9ef-ceb9-49b7-9bce-40fc18ba7667"},"vehicle_type_id":"4","last_reported":1737364245,"current_range_meters":22800,"station_id":"ce4bhmp2rcd13ifvqgog","pricing_plan_id":"cebpf4jnsgd1na2vs0mg"},{"bike_id":"aeeb7245-8a7c-4b79-b9ac-efca69f7818a","system_id":"levelo_inurba_marseille","lat":43.32141,"lon":5.36851,"is_reserved":false,"is_disabled":false,"rental_uris":{"android":"levelo://app?vid=aeeb7245-8a7c-4b79-b9ac-efca69f7818a","ios":"levelo://app?vid=aeeb7245-8a7c-4b79-b9ac-efca69f7818a"},"vehicle_type_id":"4","last_reported":1737364245,"current_range_meters":16400,"station_id":"ce4bhrh2rcd13ifvqhug","pricing_plan_id":"cebpf4jnsgd1na2vs0mg"},{"bike_id":"77f19411-a09d-4ad2-82a2-5a2d72180224","system_id":"levelo_inurba_marseille","lat":43.26685,"lon":5.38273,"is_reserved":false,"is_disabled":false,"rental_uris":{"android":"levelo://app?vid=77f19411-a09d-4ad2-82a2-5a2d72180224","ios":"levelo://app?vid=77f19411-a09d-4ad2-82a2-5a2d72180224"},"vehicle_type_id":"4","last_reported":1737364245,"current_range_meters":38000,"station_id":"ce4bhg92rcd13ifvqf90","pricing_plan_id":"cebpf4jnsgd1na2vs0mg"},{"bike_id":"d7ebea74-ea94-4f72-85c3-775497bc315c","system_id":"levelo_inurba_marseille","lat":43.32281,"lon":5.38286,"is_reserved":false,"is_disabled":false,"rental_uris":{"android":"levelo://app?vid=d7ebea74-ea94-4f72-85c3-775497bc315c","ios":"levelo://app?vid=d7ebea74-ea94-4f72-85c3-775497bc315c"},"vehicle_type_id":"4","last_reported":1737364245,"current_range_meters":39200,"station_id":"ce4bhr12rcd13ifvqhqg","pricing_plan_id":"cebpf4jnsgd1na2vs0mg"},{"bike_id":"7b52e969-7498-42fb-aafb-034e09ca2f2a","system_id":"levelo_inurba_marseille","lat":43.30851,"lon":5.43598,"is_reserved":false,"is_disabled":false,"rental_uris":{"android":"levelo://app?vid=7b52e969-7498-42fb-aafb-034e09ca2f2a","ios":"levelo://app?vid=7b52e969-7498-42fb-aafb-034e09ca2f2a"},"vehicle_type_id":"4","last_reported":1737364245,"current_range_meters":27200,"station_id":"","pricing_plan_id":"cebpf4jnsgd1na2vs0mg"},{"bike_id":"01c5dbcb-0ce1-4138-ac1b-29294ab651c5","system_id":"levelo_inurba_marseille","lat":43.30948,"lon":5.39055,"is_reserved":false,"is_disabled":false,"rental_uris":{"android":"levelo://app?vid=01c5dbcb-0ce1-4138-ac1b-29294ab651c5","ios":"levelo://app?vid=01c5dbcb-0ce1-4138-ac1b-29294ab651c5"},"vehicle_type_id":"4","last_reported":1737364245,"current_range_meters":34800,"station_id":"ce4bgup2rcd13ifvqco0","pricing_plan_id":"cebpf4jnsgd1na2vs0mg"},{"bike_id":"9eb335b9-be9e-4d87-ab11-b7aad1d486a4","system_id":"levelo_inurba_marseille","lat":43.23154,"lon":5.43726,"is_reserved":false,"is_disabled":false,"rental_uris":{"android":"levelo://app?vid=9eb335b9-be9e-4d87-ab11-b7aad1d486a4","ios":"levelo://app?vid=9eb335b9-be9e-4d87-ab11-b7aad1d486a4"},"vehicle_type_id":"4","last_reported":1737364245,"current_range_meters":38400,"station_id":"ce4bhmp2rcd13ifvqgog","pricing_plan_id":"cebpf4jnsgd1na2vs0mg"},{"bike_id":"32300581-ab3b-49a8-83ac-b2a1dd536104","system_id":"levelo_inurba_marseille","lat":43.32479,"lon":5.36561,"is_reserved":false,"is_disabled":false,"rental_uris":{"android":"levelo://app?vid=32300581-ab3b-49a8-83ac-b2a1dd536104","ios":"levelo://app?vid=32300581-ab3b-49a8-83ac-b2a1dd536104"},"vehicle_type_id":"4","last_reported":1737364245,"current_range_meters":29600,"station_id":"ce4bhs12rcd13ifvqhvg","pricing_plan_id":"cebpf4jnsgd1na2vs0mg"},{"bike_id":"b6139d96-ffdb-4520-aef7-305d62d3c370","system_id":"levelo_inurba_marseille","lat":43.31233,"lon":5.36867,"is_reserved":false,"is_disabled":false,"rental_uris":{"android":"levelo://app?vid=b6139d96-ffdb-4520-aef7-305d62d3c370","ios":"levelo://app?vid=b6139d96-ffdb-4520-aef7-305d62d3c370"},"vehicle_type_id":"4","last_reported":1737364245,"current_range_meters":17600,"station_id":"ce4bgl92rcd13ifvqbq0","pricing_plan_id":"cebpf4jnsgd1na2vs0mg"},{"bike_id":"c152fc79-1cd4-48b6-9683-75e37b136f35","system_id":"levelo_inurba_marseille","lat":43.25011,"lon":5.38958,"is_reserved":false,"is_disabled":false,"rental_uris":{"android":"levelo://app?vid=c152fc79-1cd4-48b6-9683-75e37b136f35","ios":"levelo://app?vid=c152fc79-1cd4-48b6-9683-75e37b136f35"},"vehicle_type_id":"4","last_reported":1737364245,"current_range_meters":39200,"station_id":"ce4bhgp2rcd13ifvqfd0","pricing_plan_id":"cebpf4jnsgd1na2vs0mg"},{"bike_id":"63a0c470-0e3d-4f46-a361-302d7a67e5d2","system_id":"levelo_inurba_marseille","lat":43.24809,"lon":5.3743,"is_reserved":false,"is_disabled":true,"rental_uris":{"android":"levelo://app?vid=63a0c470-0e3d-4f46-a361-302d7a67e5d2","ios":"levelo://app?vid=63a0c470-0e3d-4f46-a361-302d7a67e5d2"},"vehicle_type_id":"4","last_reported":1737364245,"current_range_meters":36400,"station_id":"ce4bhgh2rcd13ifvqfb0","pricing_plan_id":"cebpf4jnsgd1na2vs0mg"},{"bike_id":"d5a4b84a-471f-4edb-a016-4dd0af7e2137","system_id":"levelo_inurba_marseille","lat":43.25873,"lon":5.39913,"is_reserved":false,"is_disabled":false,"rental_uris":{"android":"levelo://app?vid=d5a4b84a-471f-4edb-a016-4dd0af7e2137","ios":"levelo://app?vid=d5a4b84a-471f-4edb-a016-4dd0af7e2137"},"vehicle_type_id":"4","last_reported":1737364245,"current_range_meters":35200,"station_id":"ce4bhl92rcd13ifvqghg","pricing_plan_id":"cebpf4jnsgd1na2vs0mg"},{"bike_id":"5434439c-80a7-45ef-8e7d-a897cb833684","system_id":"levelo_inurba_marseille","lat":43.324254,"lon":5.367545,"is_reserved":false,"is_disabled":false,"rental_uris":{"android":"levelo://app?vid=5434439c-80a7-45ef-8e7d-a897cb833684","ios":"levelo://app?vid=5434439c-80a7-45ef-8e7d-a897cb833684"},"vehicle_type_id":"4","last_reported":1737364245,"current_range_meters":8000,"station_id":"","pricing_plan_id":"cebpf4jnsgd1na2vs0mg"},{"bike_id":"4b67df20-9582-432d-941a-3038c10ba6db","system_id":"levelo_inurba_marseille","lat":43.24076,"lon":5.37764,"is_reserved":false,"is_disabled":false,"rental_uris":{"android":"levelo://app?vid=4b67df20-9582-432d-941a-3038c10ba6db","ios":"levelo://app?vid=4b67df20-9582-432d-941a-3038c10ba6db"},"vehicle_type_id":"4","last_reported":1737364245,"current_range_meters":36800,"station_id":"ce4bhnp2rcd13ifvqgvg","pricing_plan_id":"cebpf4jnsgd1na2vs0mg"},{"bike_id":"476e06e6-2eeb-4379-aeb7-c49f6afc2fe6","system_id":"levelo_inurba_marseille","lat":43.30467,"lon":5.37902,"is_reserved":false,"is_disabled":false,"rental_uris":{"android":"levelo://app?vid=476e06e6-2eeb-4379-aeb7-c49f6afc2fe6","ios":"levelo://app?vid=476e06e6-2eeb-4379-aeb7-c49f6afc2fe6"},"vehicle_type_id":"4","last_reported":1737364245,"current_range_meters":36800,"station_id":"ce4bgup2rcd13ifvqcn0","pricing_plan_id":"cebpf4jnsgd1na2vs0mg"},{"bike_id":"50267a36-8428-4ee1-ac27-ac6a771a71af","system_id":"levelo_inurba_marseille","lat":43.337169,"lon":5.355744,"is_reserved":false,"is_disabled":true,"rental_uris":{"android":"levelo://app?vid=50267a36-8428-4ee1-ac27-ac6a771a71af","ios":"levelo://app?vid=50267a36-8428-4ee1-ac27-ac6a771a71af"},"vehicle_type_id":"4","last_reported":1737364245,"current_range_meters":1600,"station_id":"","pricing_plan_id":"cebpf4jnsgd1na2vs0mg"},{"bike_id":"309a4f04-04ba-484a-8db1-fa9b345447f8","system_id":"levelo_inurba_marseille","lat":43.24401,"lon":5.3707,"is_reserved":false,"is_disabled":false,"rental_uris":{"android":"levelo://app?vid=309a4f04-04ba-484a-8db1-fa9b345447f8","ios":"levelo://app?vid=309a4f04-04ba-484a-8db1-fa9b345447f8"},"vehicle_type_id":"4","last_reported":1737364245,"current_range_meters":37600,"station_id":"ce4bhhh2rcd13ifvqfk0","pricing_plan_id":"cebpf4jnsgd1na2vs0mg"},{"bike_id":"f5863b18-13a1-4c6e-92de-5668ea912ad3","system_id":"levelo_inurba_marseille","lat":43.26234,"lon":5.40439,"is_reserved":false,"is_disabled":true,"rental_uris":{"android":"levelo://app?vid=f5863b18-13a1-4c6e-92de-5668ea912ad3","ios":"levelo://app?vid=f5863b18-13a1-4c6e-92de-5668ea912ad3"},"vehicle_type_id":"4","last_reported":1737364245,"current_range_meters":0,"station_id":"","pricing_plan_id":"cebpf4jnsgd1na2vs0mg"},{"bike_id":"6dc083cb-a1ec-4e16-afba-f3c0f1b76c34","system_id":"levelo_inurba_marseille","lat":43.31345,"lon":5.36748,"is_reserved":false,"is_disabled":true,"rental_uris":{"android":"levelo://app?vid=6dc083cb-a1ec-4e16-afba-f3c0f1b76c34","ios":"levelo://app?vid=6dc083cb-a1ec-4e16-afba-f3c0f1b76c34"},"vehicle_type_id":"4","last_reported":1737364245,"current_range_meters":37600,"station_id":"ce4bgr92rcd13ifvqc6g","pricing_plan_id":"cebpf4jnsgd1na2vs0mg"},{"bike_id":"e3969d47-7a98-48ce-95b3-bbad5d42c766","system_id":"levelo_inurba_marseille","lat":43.25108,"lon":5.40336,"is_reserved":false,"is_disabled":false,"rental_uris":{"android":"levelo://app?vid=e3969d47-7a98-48ce-95b3-bbad5d42c766","ios":"levelo://app?vid=e3969d47-7a98-48ce-95b3-bbad5d42c766"},"vehicle_type_id":"4","last_reported":1737364245,"current_range_meters":39200,"station_id":"ce4bhlh2rcd13ifvqgig","pricing_plan_id":"cebpf4jnsgd1na2vs0mg"},{"bike_id":"aadeea6a-4f60-4f7c-87ee-1d6ddbecb58b","system_id":"levelo_inurba_marseille","lat":43.27476,"lon":5.42466,"is_reserved":false,"is_disabled":false,"rental_uris":{"android":"levelo://app?vid=aadeea6a-4f60-4f7c-87ee-1d6ddbecb58b","ios":"levelo://app?vid=aadeea6a-4f60-4f7c-87ee-1d6ddbecb58b"},"vehicle_type_id":"4","last_reported":1737364245,"current_range_meters":26800,"station_id":"ce4bhn92rcd13ifvqgrg","pricing_plan_id":"cebpf4jnsgd1na2vs0mg"},{"bike_id":"eb6fcbf2-4dba-4dcc-a3a1-6b992d95097c","system_id":"levelo_inurba_marseille","lat":43.239507,"lon":5.366415,"is_reserved":false,"is_disabled":false,"rental_uris":{"android":"levelo://app?vid=eb6fcbf2-4dba-4dcc-a3a1-6b992d95097c","ios":"levelo://app?vid=eb6fcbf2-4dba-4dcc-a3a1-6b992d95097c"},"vehicle_type_id":"4","last_reported":1737364245,"current_range_meters":28800,"station_id":"ce4bhi12rcd13ifvqfp0","pricing_plan_id":"cebpf4jnsgd1na2vs0mg"},{"bike_id":"c160579d-57a0-455c-96db-5193fb7ebdc0","system_id":"levelo_inurba_marseille","lat":43.33017,"lon":5.39045,"is_reserved":false,"is_disabled":false,"rental_uris":{"android":"levelo://app?vid=c160579d-57a0-455c-96db-5193fb7ebdc0","ios":"levelo://app?vid=c160579d-57a0-455c-96db-5193fb7ebdc0"},"vehicle_type_id":"4","last_reported":1737364245,"current_range_meters":12800,"station_id":"ce4bhr92rcd13ifvqhrg","pricing_plan_id":"cebpf4jnsgd1na2vs0mg"},{"bike_id":"6e42a6c7-87c2-403e-84fd-d739a3d405a6","system_id":"levelo_inurba_marseille","lat":43.24591,"lon":5.4201,"is_reserved":false,"is_disabled":true,"rental_uris":{"android":"levelo://app?vid=6e42a6c7-87c2-403e-84fd-d739a3d405a6","ios":"levelo://app?vid=6e42a6c7-87c2-403e-84fd-d739a3d405a6"},"vehicle_type_id":"4","last_reported":1737364245,"current_range_meters":0,"station_id":"","pricing_plan_id":"cebpf4jnsgd1na2vs0mg"},{"bike_id":"701ad8a5-4a2f-4eda-bee4-d8f2c0da4dac","system_id":"levelo_inurba_marseille","lat":43.298743,"lon":5.389127,"is_reserved":false,"is_disabled":true,"rental_uris":{"android":"levelo://app?vid=701ad8a5-4a2f-4eda-bee4-d8f2c0da4dac","ios":"levelo://app?vid=701ad8a5-4a2f-4eda-bee4-d8f2c0da4dac"},"vehicle_type_id":"4","last_reported":1737364245,"current_range_meters":26000,"station_id":"ce4bh392rcd13ifvqdl0","pricing_plan_id":"cebpf4jnsgd1na2vs0mg"},{"bike_id":"94177e82-289e-4229-8245-e61ed1400bb7","system_id":"levelo_inurba_marseille","lat":43.240776,"lon":5.377542,"is_reserved":false,"is_disabled":false,"rental_uris":{"android":"levelo://app?vid=94177e82-289e-4229-8245-e61ed1400bb7","ios":"levelo://app?vid=94177e82-289e-4229-8245-e61ed1400bb7"},"vehicle_type_id":"4","last_reported":1737364245,"current_range_meters":39200,"station_id":"ce4bhnp2rcd13ifvqgvg","pricing_plan_id":"cebpf4jnsgd1na2vs0mg"},{"bike_id":"f0f7ae09-777e-4d19-af74-78fcd2e44652","system_id":"levelo_inurba_marseille","lat":43.25004,"lon":5.38933,"is_reserved":false,"is_disabled":false,"rental_uris":{"android":"levelo://app?vid=f0f7ae09-777e-4d19-af74-78fcd2e44652","ios":"levelo://app?vid=f0f7ae09-777e-4d19-af74-78fcd2e44652"},"vehicle_type_id":"4","last_reported":1737364245,"current_range_meters":11200,"station_id":"ce4bhgp2rcd13ifvqfd0","pricing_plan_id":"cebpf4jnsgd1na2vs0mg"},{"bike_id":"4fe58642-8ec3-4f25-a4fc-eb5dc3dc47a8","system_id":"levelo_inurba_marseille","lat":43.33534,"lon":5.36141,"is_reserved":false,"is_disabled":true,"rental_uris":{"android":"levelo://app?vid=4fe58642-8ec3-4f25-a4fc-eb5dc3dc47a8","ios":"levelo://app?vid=4fe58642-8ec3-4f25-a4fc-eb5dc3dc47a8"},"vehicle_type_id":"4","last_reported":1737364245,"current_range_meters":26000,"station_id":"","pricing_plan_id":"cebpf4jnsgd1na2vs0mg"},{"bike_id":"9cccd2ff-b864-466b-83c6-b52ec2815836","system_id":"levelo_inurba_marseille","lat":43.25713,"lon":5.41132,"is_reserved":false,"is_disabled":false,"rental_uris":{"android":"levelo://app?vid=9cccd2ff-b864-466b-83c6-b52ec2815836","ios":"levelo://app?vid=9cccd2ff-b864-466b-83c6-b52ec2815836"},"vehicle_type_id":"4","last_reported":1737364245,"current_range_meters":33200,"station_id":"ce4bhkp2rcd13ifvqgd0","pricing_plan_id":"cebpf4jnsgd1na2vs0mg"},{"bike_id":"0d53a14b-6009-42d0-a1db-bedb269963e4","system_id":"levelo_inurba_marseille","lat":43.32493,"lon":5.36579,"is_reserved":false,"is_disabled":false,"rental_uris":{"android":"levelo://app?vid=0d53a14b-6009-42d0-a1db-bedb269963e4","ios":"levelo://app?vid=0d53a14b-6009-42d0-a1db-bedb269963e4"},"vehicle_type_id":"4","last_reported":1737364245,"current_range_meters":22400,"station_id":"ce4bhs12rcd13ifvqhvg","pricing_plan_id":"cebpf4jnsgd1na2vs0mg"},{"bike_id":"7582603c-94cf-4195-b4a0-da1a73cfb592","system_id":"levelo_inurba_marseille","lat":43.31496,"lon":5.37292,"is_reserved":false,"is_disabled":false,"rental_uris":{"android":"levelo://app?vid=7582603c-94cf-4195-b4a0-da1a73cfb592","ios":"levelo://app?vid=7582603c-94cf-4195-b4a0-da1a73cfb592"},"vehicle_type_id":"4","last_reported":1737364245,"current_range_meters":38800,"station_id":"ce4bgt12rcd13ifvqcd0","pricing_plan_id":"cebpf4jnsgd1na2vs0mg"},{"bike_id":"13a9853e-21c2-4d7a-8ae7-af374064a8b8","system_id":"levelo_inurba_marseille","lat":43.31814,"lon":5.37391,"is_reserved":false,"is_disabled":false,"rental_uris":{"android":"levelo://app?vid=13a9853e-21c2-4d7a-8ae7-af374064a8b8","ios":"levelo://app?vid=13a9853e-21c2-4d7a-8ae7-af374064a8b8"},"vehicle_type_id":"4","last_reported":1737364245,"current_range_meters":22800,"station_id":"","pricing_plan_id":"cebpf4jnsgd1na2vs0mg"},{"bike_id":"60b7d049-237a-4dbd-ad0c-436ecde1802f","system_id":"levelo_inurba_marseille","lat":43.23198,"lon":5.35567,"is_reserved":false,"is_disabled":false,"rental_uris":{"android":"levelo://app?vid=60b7d049-237a-4dbd-ad0c-436ecde1802f","ios":"levelo://app?vid=60b7d049-237a-4dbd-ad0c-436ecde1802f"},