{"last_updated":1686593305,"ttl":30,"version":"2.2","data":{"bikes":[{"bike_id":"4792b473-85e2-4fdd-83a4-302c95f6ac67","system_id":"levelo_inurba_marseille","lat":43.31094,"lon":5.36744,"is_reserved":false,"is_disabled":false,"rental_uris":{"android":"levelo://app?vid=4792b473-85e2-4fdd-83a4-302c95f6ac67","ios":"levelo://app?vid=4792b473-85e2-4fdd-83a4-302c95f6ac67"},"vehicle_type_id":"4","last_reported":1686593306,"current_range_meters":29600,"station_id":"","pricing_plan_id":"free"},{"bike_id":"2236174f-9b48-4e77-bc47-17f9275c2cb6","system_id":"levelo_inurba_marseille","lat":43.309076,"lon":5.368465,"is_reserved":false,"is_disabled":false,"rental_uris":{"android":"levelo://app?vid=2236174f-9b48-4e77-bc47-17f9275c2cb6","ios":"levelo://app?vid=2236174f-9b48-4e77-bc47-17f9275c2cb6"},"vehicle_type_id":"4","last_reported":1686593306,"current_range_meters":4800,"station_id":"ce4bgn92rcd13ifvqbvg","pricing_plan_id":"free"},{"bike_id":"64c8544a-930e-46ad-8070-2f6922932f75","system_id":"levelo_inurba_marseille","lat":43.31486,"lon":5.37304,"is_reserved":false,"is_disabled":false,"rental_uris":{"android":"levelo://app?vid=64c8544a-930e-46ad-8070-2f6922932f75","ios":"levelo://app?vid=64c8544a-930e-46ad-8070-2f6922932f75"},"vehicle_type_id":"4","last_reported":1686593306,"current_range_meters":4800,"station_id":"ce4bgt12rcd13ifvqcd0","pricing_plan_id":"free"},{"bike_id":"03288fb7-da22-4f1e-bca4-1b4d1f1b2789","system_id":"levelo_inurba_marseille","lat":43.314811,"lon":5.373104,"is_reserved":false,"is_disabled":false,"rental_uris":{"android":"levelo://app?vid=03288fb7-da22-4f1e-bca4-1b4d1f1b2789","ios":"levelo://app?vid=03288fb7-da22-4f1e-bca4-1b4d1f1b2789"},"vehicle_type_id":"4","last_reported":1686593306,"current_range_meters":28400,"station_id":"ce4bgt12rcd13ifvqcd0","pricing_plan_id":"free"},{"bike_id":"a7974559-7a0f-4418-b819-40a6a22b3f8a","system_id":"levelo_inurba_marseille","lat":43.314811,"lon":5.373104,"is_reserved":false,"is_disabled":false,"rental_uris":{"android":"levelo://app?vid=a7974559-7a0f-4418-b819-40a6a22b3f8a","ios":"levelo://app?vid=a7974559-7a0f-4418-b819-40a6a22b3f8a"},"vehicle_type_id":"4","last_reported":1686593306,"current_range_meters":29600,"station_id":"ce4bgt12rcd13ifvqcd0","pricing_plan_id":"free"},{"bike_id":"dff1b0e2-7c5c-414a-846b-2ef60e70ea3e","system_id":"levelo_inurba_marseille","lat":43.31626,"lon":5.37319,"is_reserved":false,"is_disabled":false,"rental_uris":{"android":"levelo://app?vid=dff1b0e2-7c5c-414a-846b-2ef60e70ea3e","ios":"levelo://app?vid=dff1b0e2-7c5c-414a-846b-2ef60e70ea3e"},"vehicle_type_id":"4","last_reported":1686593306,"current_range_meters":24000,"station_id":"","pricing_plan_id":"free"},{"bike_id":"c1fb032f-fb08-4a02-aedc-39d3c7c6c011","system_id":"levelo_inurba_marseille","lat":43.306,"lon":5.36574,"is_reserved":false,"is_disabled":false,"rental_uris":{"android":"levelo://app?vid=c1fb032f-fb08-4a02-aedc-39d3c7c6c011","ios":"levelo://app?vid=c1fb032f-fb08-4a02-aedc-39d3c7c6c011"},"vehicle_type_id":"4","last_reported":1686593306,"current_range_meters":0,"station_id":"","pricing_plan_id":"free"},{"bike_id":"36be0067-3e8c-4820-b8dc-31f9e3e09617","system_id":"levelo_inurba_marseille","lat":43.305368,"lon":5.367343,"is_reserved":false,"is_disabled":false,"rental_uris":{"android":"levelo://app?vid=36be0067-3e8c-4820-b8dc-31f9e3e09617","ios":"levelo://app?vid=36be0067-3e8c-4820-b8dc-31f9e3e09617"},"vehicle_type_id":"4","last_reported":1686593306,"current_range_meters":8800,"station_id":"ce4bgrp2rcd13ifvqc9g","pricing_plan_id":"free"},{"bike_id":"aab0bbe3-3702-4e2f-8d61-c79e7c95035d","system_id":"levelo_inurba_marseille","lat":43.31119,"lon":5.37761,"is_reserved":false,"is_disabled":false,"rental_uris":{"android":"levelo://app?vid=aab0bbe3-3702-4e2f-8d61-c79e7c95035d","ios":"levelo://app?vid=aab0bbe3-3702-4e2f-8d61-c79e7c95035d"},"vehicle_type_id":"4","last_reported":1686593306,"current_range_meters":27600,"station_id":"ce4bgt92rcd13ifvqcg0","pricing_plan_id":"free"},{"bike_id":"b52e3f38-01a3-43ea-8735-a4fe60118341","system_id":"levelo_inurba_marseille","lat":43.31113,"lon":5.37771,"is_reserved":false,"is_disabled":false,"rental_uris":{"android":"levelo://app?vid=b52e3f38-01a3-43ea-8735-a4fe60118341","ios":"levelo://app?vid=b52e3f38-01a3-43ea-8735-a4fe60118341"},"vehicle_type_id":"4","last_reported":1686593306,"current_range_meters":26800,"station_id":"ce4bgt92rcd13ifvqcg0","pricing_plan_id":"free"},{"bike_id":"f8d91efd-f4e9-417c-a29b-54de770eaa75","system_id":"levelo_inurba_marseille","lat":43.31116,"lon":5.37773,"is_reserved":false,"is_disabled":false,"rental_uris":{"android":"levelo://app?vid=f8d91efd-f4e9-417c-a29b-54de770eaa75","ios":"levelo://app?vid=f8d91efd-f4e9-417c-a29b-54de770eaa75"},"vehicle_type_id":"4","last_reported":1686593306,"current_range_meters":8000,"station_id":"ce4bgt92rcd13ifvqcg0","pricing_plan_id":"free"},{"bike_id":"77954850-4265-4ec2-ae60-e1d92acc94f2","system_id":"levelo_inurba_marseille","lat":43.311131,"lon":5.377651,"is_reserved":false,"is_disabled":false,"rental_uris":{"android":"levelo://app?vid=77954850-4265-4ec2-ae60-e1d92acc94f2","ios":"levelo://app?vid=77954850-4265-4ec2-ae60-e1d92acc94f2"},"vehicle_type_id":"4","last_reported":1686593306,"current_range_meters":28000,"station_id":"ce4bgt92rcd13ifvqcg0","pricing_plan_id":"free"},{"bike_id":"67f53162-9837-407d-81cf-fc3c4b765ca1","system_id":"levelo_inurba_marseille","lat":43.31529,"lon":5.38028,"is_reserved":false,"is_disabled":false,"rental_uris":{"android":"levelo://app?vid=67f53162-9837-407d-81cf-fc3c4b765ca1","ios":"levelo://app?vid=67f53162-9837-407d-81cf-fc3c4b765ca1"},"vehicle_type_id":"4","last_reported":1686593306,"current_range_meters":6400,"station_id":"ce4bhsp2rcd13ifvqi50","pricing_plan_id":"free"},{"bike_id":"ce27853c-3346-473e-99fb-e121615e6d3f","system_id":"levelo_inurba_marseille","lat":43.31537,"lon":5.38029,"is_reserved":false,"is_disabled":false,"rental_uris":{"android":"levelo://app?vid=ce27853c-3346-473e-99fb-e121615e6d3f","ios":"levelo://app?vid=ce27853c-3346-473e-99fb-e121615e6d3f"},"vehicle_type_id":"4","last_reported":1686593306,"current_range_meters":6000,"station_id":"ce4bhsp2rcd13ifvqi50","pricing_plan_id":"free"},{"bike_id":"e696b712-880b-465c-832a-527da1dcd8ae","system_id":"levelo_inurba_marseille","lat":43.31536,"lon":5.38032,"is_reserved":false,"is_disabled":false,"rental_uris":{"android":"levelo://app?vid=e696b712-880b-465c-832a-527da1dcd8ae","ios":"levelo://app?vid=e696b712-880b-465c-832a-527da1dcd8ae"},"vehicle_type_id":"4","last_reported":1686593306,"current_range_meters":15600,"station_id":"ce4bhsp2rcd13ifvqi50","pricing_plan_id":"free"},{"bike_id":"12d71afa-8a20-4eaf-be5b-0500d7dc0dd7","system_id":"levelo_inurba_marseille","lat":43.3153,"lon":5.38037,"is_reserved":false,"is_disabled":false,"rental_uris":{"android":"levelo://app?vid=12d71afa-8a20-4eaf-be5b-0500d7dc0dd7","ios":"levelo://app?vid=12d71afa-8a20-4eaf-be5b-0500d7dc0dd7"},"vehicle_type_id":"4","last_reported":1686593306,"current_range_meters":2000,"station_id":"ce4bhsp2rcd13ifvqi50","pricing_plan_id":"free"},{"bike_id":"6e6d71a5-c4f5-4f3c-9fd9-760992207408","system_id":"levelo_inurba_marseille","lat":43.308012,"lon":5.381511,"is_reserved":false,"is_disabled":false,"rental_uris":{"android":"levelo://app?vid=6e6d71a5-c4f5-4f3c-9fd9-760992207408","ios":"levelo://app?vid=6e6d71a5-c4f5-4f3c-9fd9-760992207408"},"vehicle_type_id":"4","last_reported":1686593306,"current_range_meters":2800,"station_id":"ce4bgt12rcd13ifvqce0","pricing_plan_id":"free"},{"bike_id":"e9556d91-6189-4203-8f01-ccae0efe1551","system_id":"levelo_inurba_marseille","lat":43.308012,"lon":5.381511,"is_reserved":false,"is_disabled":false,"rental_uris":{"android":"levelo://app?vid=e9556d91-6189-4203-8f01-ccae0efe1551","ios":"levelo://app?vid=e9556d91-6189-4203-8f01-ccae0efe1551"},"vehicle_type_id":"4","last_reported":1686593306,"current_range_meters":7200,"station_id":"ce4bgt12rcd13ifvqce0","pricing_plan_id":"free"},{"bike_id":"34dc7dd0-9cd3-4f8a-9a47-53fba65ab053","system_id":"levelo_inurba_marseille","lat":43.308012,"lon":5.381511,"is_reserved":false,"is_disabled":false,"rental_uris":{"android":"levelo://app?vid=34dc7dd0-9cd3-4f8a-9a47-53fba65ab053","ios":"levelo://app?vid=34dc7dd0-9cd3-4f8a-9a47-53fba65ab053"},"vehicle_type_id":"4","last_reported":1686593306,"current_range_meters":18400,"station_id":"ce4bgt12rcd13ifvqce0","pricing_plan_id":"free"},{"bike_id":"db8bf5fe-db57-4f23-a066-a49f61c4be26","system_id":"levelo_inurba_marseille","lat":43.308012,"lon":5.381511,"is_reserved":false,"is_disabled":false,"rental_uris":{"android":"levelo://app?vid=db8bf5fe-db57-4f23-a066-a49f61c4be26","ios":"levelo://app?vid=db8bf5fe-db57-4f23-a066-a49f61c4be26"},"vehicle_type_id":"4","last_reported":1686593306,"current_range_meters":18000,"station_id":"ce4bgt12rcd13ifvqce0","pricing_plan_id":"free"},{"bike_id":"f0acbeed-d80b-42aa-b604-300f46b1bdf1","system_id":"levelo_inurba_marseille","lat":43.308012,"lon":5.381511,"is_reserved":false,"is_disabled":false,"rental_uris":{"android":"levelo://app?vid=f0acbeed-d80b-42aa-b604-300f46b1bdf1","ios":"levelo://app?vid=f0acbeed-d80b-42aa-b604-300f46b1bdf1"},"vehicle_type_id":"4","last_reported":1686593306,"current_range_meters":3200,"station_id":"ce4bgt12rcd13ifvqce0","pricing_plan_id":"free"},{"bike_id":"a6e27f5d-5692-4cf9-a44c-06855e2b839a","system_id":"levelo_inurba_marseille","lat":43.304606,"lon":5.379026,"is_reserved":false,"is_disabled":false,"rental_uris":{"android":"levelo://app?vid=a6e27f5d-5692-4cf9-a44c-06855e2b839a","ios":"levelo://app?vid=a6e27f5d-5692-4cf9-a44c-06855e2b839a"},"vehicle_type_id":"4","last_reported":1686593306,"current_range_meters":16400,"station_id":"ce4bgup2rcd13ifvqcn0","pricing_plan_id":"free"},{"bike_id":"241479bc-85d3-4b05-8f6f-1c276f5686ac","system_id":"levelo_inurba_marseille","lat":43.32,"lon":5.3814,"is_reserved":false,"is_disabled":false,"rental_uris":{"android":"levelo://app?vid=241479bc-85d3-4b05-8f6f-1c276f5686ac","ios":"levelo://app?vid=241479bc-85d3-4b05-8f6f-1c276f5686ac"},"vehicle_type_id":"4","last_reported":1686593306,"current_range_meters":2000,"station_id":"ce4bhr12rcd13ifvqhpg","pricing_plan_id":"free"},{"bike_id":"148976ba-5642-4c28-9d40-d4126c007abe","system_id":"levelo_inurba_marseille","lat":43.31772,"lon":5.38347,"is_reserved":false,"is_disabled":false,"rental_uris":{"android":"levelo://app?vid=148976ba-5642-4c28-9d40-d4126c007abe","ios":"levelo://app?vid=148976ba-5642-4c28-9d40-d4126c007abe"},"vehicle_type_id":"4","last_reported":1686593306,"current_range_meters":25200,"station_id":"","pricing_plan_id":"free"},{"bike_id":"aa635f07-a086-41bc-86a3-70f87aba24b4","system_id":"levelo_inurba_marseille","lat":43.313571,"lon":5.384829,"is_reserved":false,"is_disabled":false,"rental_uris":{"android":"levelo://app?vid=aa635f07-a086-41bc-86a3-70f87aba24b4","ios":"levelo://app?vid=aa635f07-a086-41bc-86a3-70f87aba24b4"},"vehicle_type_id":"4","last_reported":1686593306,"current_range_meters":7200,"station_id":"ce4bgt92rcd13ifvqcf0","pricing_plan_id":"free"},{"bike_id":"c8465b01-80ca-4fe5-b265-049723932c90","system_id":"levelo_inurba_marseille","lat":43.311722,"lon":5.387247,"is_reserved":false,"is_disabled":false,"rental_uris":{"android":"levelo://app?vid=c8465b01-80ca-4fe5-b265-049723932c90","ios":"levelo://app?vid=c8465b01-80ca-4fe5-b265-049723932c90"},"vehicle_type_id":"4","last_reported":1686593306,"current_range_meters":1600,"station_id":"ce4bgv12rcd13ifvqcp0","pricing_plan_id":"free"},{"bike_id":"c3a87b32-8986-4122-92ea-ec5b2e85c975","system_id":"levelo_inurba_marseille","lat":43.2968,"lon":5.37291,"is_reserved":false,"is_disabled":false,"rental_uris":{"android":"levelo://app?vid=c3a87b32-8986-4122-92ea-ec5b2e85c975","ios":"levelo://app?vid=c3a87b32-8986-4122-92ea-ec5b2e85c975"},"vehicle_type_id":"4","last_reported":1686593306,"current_range_meters":800,"station_id":"ce4bgk12rcd13ifvqbj0","pricing_plan_id":"free"},{"bike_id":"88d0330c-5bb0-4a19-9b65-d4683b42e015","system_id":"levelo_inurba_marseille","lat":43.29683,"lon":5.36046,"is_reserved":false,"is_disabled":false,"rental_uris":{"android":"levelo://app?vid=88d0330c-5bb0-4a19-9b65-d4683b42e015","ios":"levelo://app?vid=88d0330c-5bb0-4a19-9b65-d4683b42e015"},"vehicle_type_id":"4","last_reported":1686593306,"current_range_meters":24800,"station_id":"ce4bgpp2rcd13ifvqc3g","pricing_plan_id":"free"},{"bike_id":"e1375c7b-70b8-4b73-9d46-f135c38d3e99","system_id":"levelo_inurba_marseille","lat":43.299028,"lon":5.381509,"is_reserved":false,"is_disabled":false,"rental_uris":{"android":"levelo://app?vid=e1375c7b-70b8-4b73-9d46-f135c38d3e99","ios":"levelo://app?vid=e1375c7b-70b8-4b73-9d46-f135c38d3e99"},"vehicle_type_id":"4","last_reported":1686593306,"current_range_meters":28000,"station_id":"ce4bgj12rcd13ifvqbc0","pricing_plan_id":"free"},{"bike_id":"e2bdc27c-a235-4e73-a636-c369ce98d521","system_id":"levelo_inurba_marseille","lat":43.304278,"lon":5.388868,"is_reserved":false,"is_disabled":false,"rental_uris":{"android":"levelo://app?vid=e2bdc27c-a235-4e73-a636-c369ce98d521","ios":"levelo://app?vid=e2bdc27c-a235-4e73-a636-c369ce98d521"},"vehicle_type_id":"4","last_reported":1686593306,"current_range_meters":14400,"station_id":"ce4bgk12rcd13ifvqbi0","pricing_plan_id":"free"},{"bike_id":"5251087a-538d-4dc4-a542-0c567113c830","system_id":"levelo_inurba_marseille","lat":43.299724,"lon":5.384848,"is_reserved":false,"is_disabled":false,"rental_uris":{"android":"levelo://app?vid=5251087a-538d-4dc4-a542-0c567113c830","ios":"levelo://app?vid=5251087a-538d-4dc4-a542-0c567113c830"},"vehicle_type_id":"4","last_reported":1686593306,"current_range_meters":0,"station_id":"ce4bgj92rcd13ifvqbd0","pricing_plan_id":"free"},{"bike_id":"6987dd49-262d-4da8-b404-79c12e4f6f74","system_id":"levelo_inurba_marseille","lat":43.29334,"lon":5.36362,"is_reserved":false,"is_disabled":false,"rental_uris":{"android":"levelo://app?vid=6987dd49-262d-4da8-b404-79c12e4f6f74","ios":"levelo://app?vid=6987dd49-262d-4da8-b404-79c12e4f6f74"},"vehicle_type_id":"4","last_reported":1686593306,"current_range_meters":24800,"station_id":"","pricing_plan_id":"free"},{"bike_id":"d50150d4-d450-4f88-9d3c-1dca432df748","system_id":"levelo_inurba_marseille","lat":43.293249,"lon":5.371578,"is_reserved":false,"is_disabled":false,"rental_uris":{"android":"levelo://app?vid=d50150d4-d450-4f88-9d3c-1dca432df748","ios":"levelo://app?vid=d50150d4-d450-4f88-9d3c-1dca432df748"},"vehicle_type_id":"4","last_reported":1686593306,"current_range_meters":18800,"station_id":"ce4bgh92rcd13ifvqb40","pricing_plan_id":"free"},{"bike_id":"5ae182fc-b879-4478-a154-a6234e81ac63","system_id":"levelo_inurba_marseille","lat":43.29274,"lon":5.36841,"is_reserved":false,"is_disabled":false,"rental_uris":{"android":"levelo://app?vid=5ae182fc-b879-4478-a154-a6234e81ac63","ios":"levelo://app?vid=5ae182fc-b879-4478-a154-a6234e81ac63"},"vehicle_type_id":"4","last_reported":1686593306,"current_range_meters":13600,"station_id":"ce4bhbp2rcd13ifvqesg","pricing_plan_id":"free"},{"bike_id":"3f2ac454-da33-4d94-87fe-f67ec1accf40","system_id":"levelo_inurba_marseille","lat":43.302992,"lon":5.392136,"is_reserved":false,"is_disabled":false,"rental_uris":{"android":"levelo://app?vid=3f2ac454-da33-4d94-87fe-f67ec1accf40","ios":"levelo://app?vid=3f2ac454-da33-4d94-87fe-f67ec1accf40"},"vehicle_type_id":"4","last_reported":1686593306,"current_range_meters":11200,"station_id":"ce4bgkh2rcd13ifvqbk0","pricing_plan_id":"free"},{"bike_id":"56f0c9a1-c066-4b60-b7c7-5b1769e77a1e","system_id":"levelo_inurba_marseille","lat":43.303002,"lon":5.392142,"is_reserved":false,"is_disabled":false,"rental_uris":{"android":"levelo://app?vid=56f0c9a1-c066-4b60-b7c7-5b1769e77a1e","ios":"levelo://app?vid=56f0c9a1-c066-4b60-b7c7-5b1769e77a1e"},"vehicle_type_id":"4","last_reported":1686593306,"current_range_meters":4000,"station_id":"ce4bgkh2rcd13ifvqbk0","pricing_plan_id":"free"},{"bike_id":"d4ade130-e248-4dc1-b125-8463e7c905a3","system_id":"levelo_inurba_marseille","lat":43.29228,"lon":5.36065,"is_reserved":false,"is_disabled":false,"rental_uris":{"android":"levelo://app?vid=d4ade130-e248-4dc1-b125-8463e7c905a3","ios":"levelo://app?vid=d4ade130-e248-4dc1-b125-8463e7c905a3"},"vehicle_type_id":"4","last_reported":1686593306,"current_range_meters":3200,"station_id":"ce4bhbh2rcd13ifvqeqg","pricing_plan_id":"free"},{"bike_id":"a1276ff9-e713-49f2-8ae7-5c76f635c586","system_id":"levelo_inurba_marseille","lat":43.29719,"lon":5.38724,"is_reserved":false,"is_disabled":false,"rental_uris":{"android":"levelo://app?vid=a1276ff9-e713-49f2-8ae7-5c76f635c586","ios":"levelo://app?vid=a1276ff9-e713-49f2-8ae7-5c76f635c586"},"vehicle_type_id":"4","last_reported":1686593306,"current_range_meters":27600,"station_id":"","pricing_plan_id":"free"},{"bike_id":"b6c748ea-1283-4b27-bc51-8c66f79e2dca","system_id":"levelo_inurba_marseille","lat":43.291675,"lon":5.371583,"is_reserved":false,"is_disabled":false,"rental_uris":{"android":"levelo://app?vid=b6c748ea-1283-4b27-bc51-8c66f79e2dca","ios":"levelo://app?vid=b6c748ea-1283-4b27-bc51-8c66f79e2dca"},"vehicle_type_id":"4","last_reported":1686593306,"current_range_meters":2400,"station_id":"ce4bha92rcd13ifvqeh0","pricing_plan_id":"free"},{"bike_id":"5fb96060-9ab4-4a4a-86d6-8a2df976c11a","system_id":"levelo_inurba_marseille","lat":43.309038,"lon":5.396546,"is_reserved":false,"is_disabled":false,"rental_uris":{"android":"levelo://app?vid=5fb96060-9ab4-4a4a-86d6-8a2df976c11a","ios":"levelo://app?vid=5fb96060-9ab4-4a4a-86d6-8a2df976c11a"},"vehicle_type_id":"4","last_reported":1686593306,"current_range_meters":6400,"station_id":"ce4bh012rcd13ifvqcv0","pricing_plan_id":"free"},{"bike_id":"66e50d58-5ab6-40f5-894d-63d2f483bf84","system_id":"levelo_inurba_marseille","lat":43.313291,"lon":5.396838,"is_reserved":false,"is_disabled":false,"rental_uris":{"android":"levelo://app?vid=66e50d58-5ab6-40f5-894d-63d2f483bf84","ios":"levelo://app?vid=66e50d58-5ab6-40f5-894d-63d2f483bf84"},"vehicle_type_id":"4","last_reported":1686593306,"current_range_meters":10000,"station_id":"ce4bgvp2rcd13ifvqcu0","pricing_plan_id":"free"},{"bike_id":"9e0980e9-845e-4fb9-b75f-1d0d95ffaa49","system_id":"levelo_inurba_marseille","lat":43.291994,"lon":5.357886,"is_reserved":false,"is_disabled":false,"rental_uris":{"android":"levelo://app?vid=9e0980e9-845e-4fb9-b75f-1d0d95ffaa49","ios":"levelo://app?vid=9e0980e9-845e-4fb9-b75f-1d0d95ffaa49"},"vehicle_type_id":"4","last_reported":1686593306,"current_range_meters":400,"station_id":"ce4bhb12rcd13ifvqel0","pricing_plan_id":"free"},{"bike_id":"e5e386c4-326b-4225-818f-2042f1c7796e","system_id":"levelo_inurba_marseille","lat":43.313291,"lon":5.396838,"is_reserved":false,"is_disabled":false,"rental_uris":{"android":"levelo://app?vid=e5e386c4-326b-4225-818f-2042f1c7796e","ios":"levelo://app?vid=e5e386c4-326b-4225-818f-2042f1c7796e"},"vehicle_type_id":"4","last_reported":1686593306,"current_range_meters":2800,"station_id":"ce4bgvp2rcd13ifvqcu0","pricing_plan_id":"free"},{"bike_id":"7f3131e1-f81e-4225-9a0c-130153a2a8a1","system_id":"levelo_inurba_marseille","lat":43.313291,"lon":5.396838,"is_reserved":false,"is_disabled":false,"rental_uris":{"android":"levelo://app?vid=7f3131e1-f81e-4225-9a0c-130153a2a8a1","ios":"levelo://app?vid=7f3131e1-f81e-4225-9a0c-130153a2a8a1"},"vehicle_type_id":"4","last_reported":1686593306,"current_range_meters":8400,"station_id":"ce4bgvp2rcd13ifvqcu0","pricing_plan_id":"free"},{"bike_id":"302fbf64-ea60-40ec-85bc-d1578e602db7","system_id":"levelo_inurba_marseille","lat":43.309038,"lon":5.396546,"is_reserved":false,"is_disabled":false,"rental_uris":{"android":"levelo://app?vid=302fbf64-ea60-40ec-85bc-d1578e602db7","ios":"levelo://app?vid=302fbf64-ea60-40ec-85bc-d1578e602db7"},"vehicle_type_id":"4","last_reported":1686593306,"current_range_meters":0,"station_id":"ce4bh012rcd13ifvqcv0","pricing_plan_id":"free"},{"bike_id":"0bef4b14-1fee-4703-82ce-5c570120e986","system_id":"levelo_inurba_marseille","lat":43.309038,"lon":5.396546,"is_reserved":false,"is_disabled":false,"rental_uris":{"android":"levelo://app?vid=0bef4b14-1fee-4703-82ce-5c570120e986","ios":"levelo://app?vid=0bef4b14-1fee-4703-82ce-5c570120e986"},"vehicle_type_id":"4","last_reported":1686593306,"current_range_meters":6400,"station_id":"ce4bh012rcd13ifvqcv0","pricing_plan_id":"free"},{"bike_id":"dad6d30e-66cc-4762-9d6c-98a79a4cfa97","system_id":"levelo_inurba_marseille","lat":43.309038,"lon":5.396546,"is_reserved":false,"is_disabled":false,"rental_uris":{"android":"levelo://app?vid=dad6d30e-66cc-4762-9d6c-98a79a4cfa97","ios":"levelo://app?vid=dad6d30e-66cc-4762-9d6c-98a79a4cfa97"},"vehicle_type_id":"4","last_reported":1686593306,"current_range_meters":15200,"station_id":"ce4bh012rcd13ifvqcv0","pricing_plan_id":"free"},{"bike_id":"e790ea2b-e795-4f23-ac7a-3e6c2b16e91c","system_id":"levelo_inurba_marseille","lat":43.29529,"lon":5.385581,"is_reserved":false,"is_disabled":false,"rental_uris":{"android":"levelo://app?vid=e790ea2b-e795-4f23-ac7a-3e6c2b16e91c","ios":"levelo://app?vid=e790ea2b-e795-4f23-ac7a-3e6c2b16e91c"},"vehicle_type_id":"4","last_reported":1686593306,"current_range_meters":12400,"station_id":"ce4bgih2rcd13ifvqba0","pricing_plan_id":"free"},{"bike_id":"5564519e-6e5e-4952-8a15-210ae5f3673c","system_id":"levelo_inurba_marseille","lat":43.295194,"lon":5.39397,"is_reserved":false,"is_disabled":false,"rental_uris":{"android":"levelo://app?vid=5564519e-6e5e-4952-8a15-210ae5f3673c","ios":"levelo://app?vid=5564519e-6e5e-4952-8a15-210ae5f3673c"},"vehicle_type_id":"4","last_reported":1686593306,"current_range_meters":13200,"station_id":"ce4bh292rcd13ifvqdf0","pricing_plan_id":"free"},{"bike_id":"87d5df87-951e-4286-899e-fb7efb300d36","system_id":"levelo_inurba_marseille","lat":43.290779,"lon":5.371482,"is_reserved":false,"is_disabled":false,"rental_uris":{"android":"levelo://app?vid=87d5df87-951e-4286-899e-fb7efb300d36","ios":"levelo://app?vid=87d5df87-951e-4286-899e-fb7efb300d36"},"vehicle_type_id":"4","last_reported":1686593306,"current_range_meters":0,"station_id":"ce4bh5p2rcd13ifvqe4g","pricing_plan_id":"free"},{"bike_id":"616c6906-3d6d-44f3-83e8-ef28c43ad3c4","system_id":"levelo_inurba_marseille","lat":43.302008,"lon":5.394694,"is_reserved":false,"is_disabled":false,"rental_uris":{"android":"levelo://app?vid=616c6906-3d6d-44f3-83e8-ef28c43ad3c4","ios":"levelo://app?vid=616c6906-3d6d-44f3-83e8-ef28c43ad3c4"},"vehicle_type_id":"4","last_reported":1686593306,"current_range_meters":0,"station_id":"ce4bh0p2rcd13ifvqd70","pricing_plan_id":"free"},{"bike_id":"3e60bf59-cd57-49a3-9535-4be30c4c725d","system_id":"levelo_inurba_marseille","lat":43.290631,"lon":5.359244,"is_reserved":false,"is_disabled":false,"rental_uris":{"android":"levelo://app?vid=3e60bf59-cd57-49a3-9535-4be30c4c725d","ios":"levelo://app?vid=3e60bf59-cd57-49a3-9535-4be30c4c725d"},"vehicle_type_id":"4","last_reported":1686593306,"current_range_meters":1200,"station_id":"ce4bha92rcd13ifvqeg0","pricing_plan_id":"free"},{"bike_id":"c10110b0-b883-4e61-acef-41e741d2ebcf","system_id":"levelo_inurba_marseille","lat":43.290624,"lon":5.359245,"is_reserved":false,"is_disabled":false,"rental_uris":{"android":"levelo://app?vid=c10110b0-b883-4e61-acef-41e741d2ebcf","ios":"levelo://app?vid=c10110b0-b883-4e61-acef-41e741d2ebcf"},"vehicle_type_id":"4","last_reported":1686593306,"current_range_meters":22800,"station_id":"ce4bha92rcd13ifvqeg0","pricing_plan_id":"free"},{"bike_id":"09820e31-b987-4b61-b924-e0d42cd217ff","system_id":"levelo_inurba_marseille","lat":43.289184,"lon":5.366408,"is_reserved":false,"is_disabled":false,"rental_uris":{"android":"levelo://app?vid=09820e31-b987-4b61-b924-e0d42cd217ff","ios":"levelo://app?vid=09820e31-b987-4b61-b924-e0d42cd217ff"},"vehicle_type_id":"4","last_reported":1686593306,"current_range_meters":0,"station_id":"ce4bhap2rcd13ifvqek0","pricing_plan_id":"free"},{"bike_id":"48a499c1-a341-408c-8bde-8caf70e578c0","system_id":"levelo_inurba_marseille","lat":43.289184,"lon":5.366408,"is_reserved":false,"is_disabled":false,"rental_uris":{"android":"levelo://app?vid=48a499c1-a341-408c-8bde-8caf70e578c0","ios":"levelo://app?vid=48a499c1-a341-408c-8bde-8caf70e578c0"},"vehicle_type_id":"4","last_reported":1686593306,"current_range_meters":0,"station_id":"ce4bhap2rcd13ifvqek0","pricing_plan_id":"free"},{"bike_id":"c5aa0a7a-f49b-41bf-8d12-c34facecefd0","system_id":"levelo_inurba_marseille","lat":43.289184,"lon":5.366408,"is_reserved":false,"is_disabled":false,"rental_uris":{"android":"levelo://app?vid=c5aa0a7a-f49b-41bf-8d12-c34facecefd0","ios":"levelo://app?vid=c5aa0a7a-f49b-41bf-8d12-c34facecefd0"},"vehicle_type_id":"4","last_reported":1686593306,"current_range_meters":13200,"station_id":"ce4bhap2rcd13ifvqek0","pricing_plan_id":"free"},{"bike_id":"3ee1ebc0-3611-4d00-890b-476c3a22d6a0","system_id":"levelo_inurba_marseille","lat":43.289184,"lon":5.366408,"is_reserved":false,"is_disabled":false,"rental_uris":{"android":"levelo://app?vid=3ee1ebc0-3611-4d00-890b-476c3a22d6a0","ios":"levelo://app?vid=3ee1ebc0-3611-4d00-890b-476c3a22d6a0"},"vehicle_type_id":"4","last_reported":1686593306,"current_range_meters":10800,"station_id":"ce4bhap2rcd13ifvqek0","pricing_plan_id":"free"},{"bike_id":"ebab7a58-22df-40a8-8994-598d76a230e1","system_id":"levelo_inurba_marseille","lat":43.289184,"lon":5.366408,"is_reserved":false,"is_disabled":false,"rental_uris":{"android":"levelo://app?vid=ebab7a58-22df-40a8-8994-598d76a230e1","ios":"levelo://app?vid=ebab7a58-22df-40a8-8994-598d76a230e1"},"vehicle_type_id":"4","last_reported":1686593306,"current_range_meters":21200,"station_id":"ce4bhap2rcd13ifvqek0","pricing_plan_id":"free"},{"bike_id":"0a4beee8-1d0b-40b6-a628-dd56857f4693","system_id":"levelo_inurba_marseille","lat":43.294032,"lon":5.386342,"is_reserved":false,"is_disabled":false,"rental_uris":{"android":"levelo://app?vid=0a4beee8-1d0b-40b6-a628-dd56857f4693","ios":"levelo://app?vid=0a4beee8-1d0b-40b6-a628-dd56857f4693"},"vehicle_type_id":"4","last_reported":1686593306,"current_range_meters":15200,"station_id":"","pricing_plan_id":"free"},{"bike_id":"5ba4cc00-109d-4ed5-aef9-3d1aa77bd487","system_id":"levelo_inurba_marseille","lat":43.30418,"lon":5.39755,"is_reserved":false,"is_disabled":false,"rental_uris":{"android":"levelo://app?vid=5ba4cc00-109d-4ed5-aef9-3d1aa77bd487","ios":"levelo://app?vid=5ba4cc00-109d-4ed5-aef9-3d1aa77bd487"},"vehicle_type_id":"4","last_reported":1686593306,"current_range_meters":17200,"station_id":"ce4bh092rcd13ifvqd20","pricing_plan_id":"free"},{"bike_id":"be2d0022-65ed-4ebf-849c-6035bb668db5","system_id":"levelo_inurba_marseille","lat":43.330442,"lon":5.389148,"is_reserved":false,"is_disabled":false,"rental_uris":{"android":"levelo://app?vid=be2d0022-65ed-4ebf-849c-6035bb668db5","ios":"levelo://app?vid=be2d0022-65ed-4ebf-849c-6035bb668db5"},"vehicle_type_id":"4","last_reported":1686593306,"current_range_meters":20400,"station_id":"ce4bhr92rcd13ifvqhrg","pricing_plan_id":"free"},{"bike_id":"d411c1be-10b4-4838-a93f-35add8fed384","system_id":"levelo_inurba_marseille","lat":43.330442,"lon":5.389148,"is_reserved":false,"is_disabled":false,"rental_uris":{"android":"levelo://app?vid=d411c1be-10b4-4838-a93f-35add8fed384","ios":"levelo://app?vid=d411c1be-10b4-4838-a93f-35add8fed384"},"vehicle_type_id":"4","last_reported":1686593306,"current_range_meters":9600,"station_id":"ce4bhr92rcd13ifvqhrg","pricing_plan_id":"free"},{"bike_id":"409f021e-697d-4bcd-82f2-2479d0e093df","system_id":"levelo_inurba_marseille","lat":43.29003,"lon":5.35612,"is_reserved":false,"is_disabled":false,"rental_uris":{"android":"levelo://app?vid=409f021e-697d-4bcd-82f2-2479d0e093df","ios":"levelo://app?vid=409f021e-697d-4bcd-82f2-2479d0e093df"},"vehicle_type_id":"4","last_reported":1686593306,"current_range_meters":14400,"station_id":"ce4bhb92rcd13ifvqen0","pricing_plan_id":"free"},{"bike_id":"76ba4b73-8960-47a1-9a39-5a8e2f276fcc","system_id":"levelo_inurba_marseille","lat":43.29002,"lon":5.35613,"is_reserved":false,"is_disabled":false,"rental_uris":{"android":"levelo://app?vid=76ba4b73-8960-47a1-9a39-5a8e2f276fcc","ios":"levelo://app?vid=76ba4b73-8960-47a1-9a39-5a8e2f276fcc"},"vehicle_type_id":"4","last_reported":1686593306,"current_range_meters":13600,"station_id":"ce4bhb92rcd13ifvqen0","pricing_plan_id":"free"},{"bike_id":"b8ae3e79-54d3-4850-80f0-36d8c74b5b20","system_id":"levelo_inurba_marseille","lat":43.291,"lon":5.38127,"is_reserved":false,"is_disabled":false,"rental_uris":{"android":"levelo://app?vid=b8ae3e79-54d3-4850-80f0-36d8c74b5b20","ios":"levelo://app?vid=b8ae3e79-54d3-4850-80f0-36d8c74b5b20"},"vehicle_type_id":"4","last_reported":1686593306,"current_range_meters":31200,"station_id":"ce4bh512rcd13ifvqe2g","pricing_plan_id":"free"},{"bike_id":"dae4f0e3-b884-4994-8139-1b1d42e8a760","system_id":"levelo_inurba_marseille","lat":43.295169,"lon":5.390426,"is_reserved":false,"is_disabled":false,"rental_uris":{"android":"levelo://app?vid=dae4f0e3-b884-4994-8139-1b1d42e8a760","ios":"levelo://app?vid=dae4f0e3-b884-4994-8139-1b1d42e8a760"},"vehicle_type_id":"4","last_reported":1686593306,"current_range_meters":0,"station_id":"ce4bh3p2rcd13ifvqdp0","pricing_plan_id":"free"},{"bike_id":"78a9933d-8314-457c-ad63-c2c1bb6eaa44","system_id":"levelo_inurba_marseille","lat":43.2901,"lon":5.381269,"is_reserved":false,"is_disabled":false,"rental_uris":{"android":"levelo://app?vid=78a9933d-8314-457c-ad63-c2c1bb6eaa44","ios":"levelo://app?vid=78a9933d-8314-457c-ad63-c2c1bb6eaa44"},"vehicle_type_id":"4","last_reported":1686593306,"current_range_meters":16400,"station_id":"ce4bh4p2rcd13ifvqe1g","pricing_plan_id":"free"},{"bike_id":"64500939-4114-454d-a2a4-762ad554ffd6","system_id":"levelo_inurba_marseille","lat":43.289184,"lon":5.366408,"is_reserved":false,"is_disabled":false,"rental_uris":{"android":"levelo://app?vid=64500939-4114-454d-a2a4-762ad554ffd6","ios":"levelo://app?vid=64500939-4114-454d-a2a4-762ad554ffd6"},"vehicle_type_id":"4","last_reported":1686593306,"current_range_meters":2800,"station_id":"ce4bhap2rcd13ifvqek0","pricing_plan_id":"free"},{"bike_id":"316f258f-a04e-496b-9ac8-29a3e7d5d8d9","system_id":"levelo_inurba_marseille","lat":43.286591,"lon":5.363346,"is_reserved":false,"is_disabled":false,"rental_uris":{"android":"levelo://app?vid=316f258f-a04e-496b-9ac8-29a3e7d5d8d9","ios":"levelo://app?vid=316f258f-a04e-496b-9ac8-29a3e7d5d8d9"},"vehicle_type_id":"4","last_reported":1686593306,"current_range_meters":27600,"station_id":"ce4bhah2rcd13ifvqej0","pricing_plan_id":"free"},{"bike_id":"1be7f287-25b7-482d-adaa-33fdffc2d631","system_id":"levelo_inurba_marseille","lat":43.309371,"lon":5.401449,"is_reserved":false,"is_disabled":false,"rental_uris":{"android":"levelo://app?vid=1be7f287-25b7-482d-adaa-33fdffc2d631","ios":"levelo://app?vid=1be7f287-25b7-482d-adaa-33fdffc2d631"},"vehicle_type_id":"4","last_reported":1686593306,"current_range_meters":27200,"station_id":"ce4bgvp2rcd13ifvqct0","pricing_plan_id":"free"},{"bike_id":"c0fb8083-e02d-4dec-b1b9-fa095e6c5b75","system_id":"levelo_inurba_marseille","lat":43.337396,"lon":5.374526,"is_reserved":false,"is_disabled":false,"rental_uris":{"android":"levelo://app?vid=c0fb8083-e02d-4dec-b1b9-fa095e6c5b75","ios":"levelo://app?vid=c0fb8083-e02d-4dec-b1b9-fa095e6c5b75"},"vehicle_type_id":"4","last_reported":1686593306,"current_range_meters":16000,"station_id":"ce4bhp92rcd13ifvqhag","pricing_plan_id":"free"},{"bike_id":"659826ae-d1e7-416c-9cb5-780c2a59f674","system_id":"levelo_inurba_marseille","lat":43.309371,"lon":5.401449,"is_reserved":false,"is_disabled":false,"rental_uris":{"android":"levelo://app?vid=659826ae-d1e7-416c-9cb5-780c2a59f674","ios":"levelo://app?vid=659826ae-d1e7-416c-9cb5-780c2a59f674"},"vehicle_type_id":"4","last_reported":1686593306,"current_range_meters":21200,"station_id":"ce4bgvp2rcd13ifvqct0","pricing_plan_id":"free"},{"bike_id":"7fabe3bf-58e0-4a7f-85c8-88cbb794382b","system_id":"levelo_inurba_marseille","lat":43.309371,"lon":5.401449,"is_reserved":false,"is_disabled":false,"rental_uris":{"android":"levelo://app?vid=7fabe3bf-58e0-4a7f-85c8-88cbb794382b","ios":"levelo://app?vid=7fabe3bf-58e0-4a7f-85c8-88cbb794382b"},"vehicle_type_id":"4","last_reported":1686593306,"current_range_meters":30000,"station_id":"ce4bgvp2rcd13ifvqct0","pricing_plan_id":"free"},{"bike_id":"04ba7c38-9398-4d83-8367-4fdd3359e6a7","system_id":"levelo_inurba_marseille","lat":43.309371,"lon":5.401449,"is_reserved":false,"is_disabled":false,"rental_uris":{"android":"levelo://app?vid=04ba7c38-9398-4d83-8367-4fdd3359e6a7","ios":"levelo://app?vid=04ba7c38-9398-4d83-8367-4fdd3359e6a7"},"vehicle_type_id":"4","last_reported":1686593306,"current_range_meters":29200,"station_id":"ce4bgvp2rcd13ifvqct0","pricing_plan_id":"free"},{"bike_id":"58dcd456-d4a0-485e-9a40-2f05f8f00134","system_id":"levelo_inurba_marseille","lat":43.309371,"lon":5.401449,"is_reserved":false,"is_disabled":false,"rental_uris":{"android":"levelo://app?vid=58dcd456-d4a0-485e-9a40-2f05f8f00134","ios":"levelo://app?vid=58dcd456-d4a0-485e-9a40-2f05f8f00134"},"vehicle_type_id":"4","last_reported":1686593306,"current_range_meters":30800,"station_id":"ce4bgvp2rcd13ifvqct0","pricing_plan_id":"free"},{"bike_id":"fa64f14c-b0d6-4aa8-a4c6-db5dec72f546","system_id":"levelo_inurba_marseille","lat":43.301117,"lon":5.398795,"is_reserved":false,"is_disabled":false,"rental_uris":{"android":"levelo://app?vid=fa64f14c-b0d6-4aa8-a4c6-db5dec72f546","ios":"levelo://app?vid=fa64f14c-b0d6-4aa8-a4c6-db5dec72f546"},"vehicle_type_id":"4","last_reported":1686593306,"current_range_meters":17600,"station_id":"ce4bh0h2rcd13ifvqd40","pricing_plan_id":"free"},{"bike_id":"55eef568-56aa-48ba-8aea-8ea5bc720130","system_id":"levelo_inurba_marseille","lat":43.301117,"lon":5.398795,"is_reserved":false,"is_disabled":false,"rental_uris":{"android":"levelo://app?vid=55eef568-56aa-48ba-8aea-8ea5bc720130","ios":"levelo://app?vid=55eef568-56aa-48ba-8aea-8ea5bc720130"},"vehicle_type_id":"4","last_reported":1686593306,"current_range_meters":26000,"station_id":"ce4bh0h2rcd13ifvqd40","pricing_plan_id":"free"},{"bike_id":"f81999ac-57d9-4bb9-b9d2-41d5e062ae4a","system_id":"levelo_inurba_marseille","lat":43.31175,"lon":5.40233,"is_reserved":false,"is_disabled":false,"rental_uris":{"android":"levelo://app?vid=f81999ac-57d9-4bb9-b9d2-41d5e062ae4a","ios":"levelo://app?vid=f81999ac-57d9-4bb9-b9d2-41d5e062ae4a"},"vehicle_type_id":"4","last_reported":1686593306,"current_range_meters":24400,"station_id":"","pricing_plan_id":"free"},{"bike_id":"45c08706-9c39-42ce-a2a2-b393a691847b","system_id":"levelo_inurba_marseille","lat":43.301117,"lon":5.398795,"is_reserved":false,"is_disabled":false,"rental_uris":{"android":"levelo://app?vid=45c08706-9c39-42ce-a2a2-b393a691847b","ios":"levelo://app?vid=45c08706-9c39-42ce-a2a2-b393a691847b"},"vehicle_type_id":"4","last_reported":1686593306,"current_range_meters":16000,"station_id":"ce4bh0h2rcd13ifvqd40","pricing_plan_id":"free"},{"bike_id":"75ae9378-4114-45e8-a4e4-d31f7a449367","system_id":"levelo_inurba_marseille","lat":43.29878,"lon":5.39724,"is_reserved":false,"is_disabled":false,"rental_uris":{"android":"levelo://app?vid=75ae9378-4114-45e8-a4e4-d31f7a449367","ios":"levelo://app?vid=75ae9378-4114-45e8-a4e4-d31f7a449367"},"vehicle_type_id":"4","last_reported":1686593306,"current_range_meters":16000,"station_id":"ce4bh0h2rcd13ifvqd50","pricing_plan_id":"free"},{"bike_id":"01b2c69a-126c-432e-9623-6713fdbfce2a","system_id":"levelo_inurba_marseille","lat":43.29872,"lon":5.39722,"is_reserved":false,"is_disabled":false,"rental_uris":{"android":"levelo://app?vid=01b2c69a-126c-432e-9623-6713fdbfce2a","ios":"levelo://app?vid=01b2c69a-126c-432e-9623-6713fdbfce2a"},"vehicle_type_id":"4","last_reported":1686593306,"current_range_meters":17200,"station_id":"ce4bh0h2rcd13ifvqd50","pricing_plan_id":"free"},{"bike_id":"a7e20c57-fead-442e-b70f-d1d9c1e719e9","system_id":"levelo_inurba_marseille","lat":43.298681,"lon":5.397225,"is_reserved":false,"is_disabled":false,"rental_uris":{"android":"levelo://app?vid=a7e20c57-fead-442e-b70f-d1d9c1e719e9","ios":"levelo://app?vid=a7e20c57-fead-442e-b70f-d1d9c1e719e9"},"vehicle_type_id":"4","last_reported":1686593306,"current_range_meters":0,"station_id":"ce4bh0h2rcd13ifvqd50","pricing_plan_id":"free"},{"bike_id":"80bc739a-9b6a-41cc-83b7-6ba44a310f21","system_id":"levelo_inurba_marseille","lat":43.28669,"lon":5.36348,"is_reserved":false,"is_disabled":false,"rental_uris":{"android":"levelo://app?vid=80bc739a-9b6a-41cc-83b7-6ba44a310f21","ios":"levelo://app?vid=80bc739a-9b6a-41cc-83b7-6ba44a310f21"},"vehicle_type_id":"4","last_reported":1686593306,"current_range_meters":28000,"station_id":"ce4bhah2rcd13ifvqej0","pricing_plan_id":"free"},{"bike_id":"4f4a47d9-f23c-4b5b-95b4-202aad17df32","system_id":"levelo_inurba_marseille","lat":43.298681,"lon":5.397225,"is_reserved":false,"is_disabled":false,"rental_uris":{"android":"levelo://app?vid=4f4a47d9-f23c-4b5b-95b4-202aad17df32","ios":"levelo://app?vid=4f4a47d9-f23c-4b5b-95b4-202aad17df32"},"vehicle_type_id":"4","last_reported":1686593306,"current_range_meters":800,"station_id":"ce4bh0h2rcd13ifvqd50","pricing_plan_id":"free"},{"bike_id":"8d88e11d-3425-417e-ae78-4786dbeced9a","system_id":"levelo_inurba_marseille","lat":43.286591,"lon":5.363346,"is_reserved":false,"is_disabled":false,"rental_uris":{"android":"levelo://app?vid=8d88e11d-3425-417e-ae78-4786dbeced9a","ios":"levelo://app?vid=8d88e11d-3425-417e-ae78-4786dbeced9a"},"vehicle_type_id":"4","last_reported":1686593306,"current_range_meters":10800,"station_id":"ce4bhah2rcd13ifvqej0","pricing_plan_id":"free"},{"bike_id":"dfc402db-9ec7-4765-aa3a-d6ff0a73c05c","system_id":"levelo_inurba_marseille","lat":43.287048,"lon":5.37382,"is_reserved":false,"is_disabled":false,"rental_uris":{"android":"levelo://app?vid=dfc402db-9ec7-4765-aa3a-d6ff0a73c05c","ios":"levelo://app?vid=dfc402db-9ec7-4765-aa3a-d6ff0a73c05c"},"vehicle_type_id":"4","last_reported":1686593306,"current_range_meters":2800,"station_id":"","pricing_plan_id":"free"},{"bike_id":"e308896f-13f0-4de1-8039-0cfd14ded282","system_id":"levelo_inurba_marseille","lat":43.286591,"lon":5.363346,"is_reserved":false,"is_disabled":false,"rental_uris":{"android":"levelo://app?vid=e308896f-13f0-4de1-8039-0cfd14ded282","ios":"levelo://app?vid=e308896f-13f0-4de1-8039-0cfd14ded282"},"vehicle_type_id":"4","last_reported":1686593306,"current_range_meters":28400,"station_id":"ce4bhah2rcd13ifvqej0","pricing_plan_id":"free"},{"bike_id":"56958d85-50df-486d-a009-88f3986a7f2d","system_id":"levelo_inurba_marseille","lat":43.286591,"lon":5.363346,"is_reserved":false,"is_disabled":false,"rental_uris":{"android":"levelo://app?vid=56958d85-50df-486d-a009-88f3986a7f2d","ios":"levelo://app?vid=56958d85-50df-486d-a009-88f3986a7f2d"},"vehicle_type_id":"4","last_reported":1686593306,"current_range_meters":27600,"station_id":"ce4bhah2rcd13ifvqej0","pricing_plan_id":"free"},{"bike_id":"90621729-947a-47e9-9377-f2aff4c92d1c","system_id":"levelo_inurba_marseille","lat":43.286591,"lon":5.363346,"is_reserved":false,"is_disabled":false,"rental_uris":{"android":"levelo://app?vid=90621729-947a-47e9-9377-f2aff4c92d1c","ios":"levelo://app?vid=90621729-947a-47e9-9377-f2aff4c92d1c"},"vehicle_type_id":"4","last_reported":1686593306,"current_range_meters":4000,"station_id":"ce4bhah2rcd13ifvqej0","pricing_plan_id":"free"},{"bike_id":"ff0af495-f273-49e5-b32d-95b4e2f8a234","system_id":"levelo_inurba_marseille","lat":43.295196,"lon":5.39397,"is_reserved":false,"is_disabled":false,"rental_uris":{"android":"levelo://app?vid=ff0af495-f273-49e5-b32d-95b4e2f8a234","ios":"levelo://app?vid=ff0af495-f273-49e5-b32d-95b4e2f8a234"},"vehicle_type_id":"4","last_reported":1686593306,"current_range_meters":12000,"station_id":"ce4bh292rcd13ifvqdf0","pricing_plan_id":"free"},{"bike_id":"f45a4f75-8af9-4805-8e42-c9d4ef550a4b","system_id":"levelo_inurba_marseille","lat":43.298681,"lon":5.397225,"is_reserved":false,"is_disabled":false,"rental_uris":{"android":"levelo://app?vid=f45a4f75-8af9-4805-8e42-c9d4ef550a4b","ios":"levelo://app?vid=f45a4f75-8af9-4805-8e42-c9d4ef550a4b"},"vehicle_type_id":"4","last_reported":1686593306,"current_range_meters":3200,"station_id":"ce4bh0h2rcd13ifvqd50","pricing_plan_id":"free"},{"bike_id":"f6f7f520-1291-4960-ba9e-219b19631321","system_id":"levelo_inurba_marseille","lat":43.28697,"lon":5.37387,"is_reserved":false,"is_disabled":false,"rental_uris":{"android":"levelo://app?vid=f6f7f520-1291-4960-ba9e-219b19631321","ios":"levelo://app?vid=f6f7f520-1291-4960-ba9e-219b19631321"},"vehicle_type_id":"4","last_reported":1686593306,"current_range_meters":22800,"station_id":"","pricing_plan_id":"free"},{"bike_id":"49574b42-0728-45ed-aa6b-3f1ad11d7632","system_id":"levelo_inurba_marseille","lat":43.286591,"lon":5.363346,"is_reserved":false,"is_disabled":false,"rental_uris":{"android":"levelo://app?vid=49574b42-0728-45ed-aa6b-3f1ad11d7632","ios":"levelo://app?vid=49574b42-0728-45ed-aa6b-3f1ad11d7632"},"vehicle_type_id":"4","last_reported":1686593306,"current_range_meters":3200,"station_id":"ce4bhah2rcd13ifvqej0","pricing_plan_id":"free"},{"bike_id":"b341ea05-e2e7-4d8a-9294-feade58bba1b","system_id":"levelo_inurba_marseille","lat":43.286591,"lon":5.363346,"is_reserved":false,"is_disabled":false,"rental_uris":{"android":"levelo://app?vid=b341ea05-e2e7-4d8a-9294-feade58bba1b","ios":"levelo://app?vid=b341ea05-e2e7-4d8a-9294-feade58bba1b"},"vehicle_type_id":"4","last_reported":1686593306,"current_range_meters":28400,"station_id":"ce4bhah2rcd13ifvqej0","pricing_plan_id":"free"},{"bike_id":"89c8ab61-f5d4-4630-9e00-8153f94efd08","system_id":"levelo_inurba_marseille","lat":43.295194,"lon":5.39397,"is_reserved":false,"is_disabled":false,"rental_uris":{"android":"levelo://app?vid=89c8ab61-f5d4-4630-9e00-8153f94efd08","ios":"levelo://app?vid=89c8ab61-f5d4-4630-9e00-8153f94efd08"},"vehicle_type_id":"4","last_reported":1686593306,"current_range_meters":15200,"station_id":"ce4bh292rcd13ifvqdf0","pricing_plan_id":"free"},{"bike_id":"af17827f-99ef-430a-aa42-4028060c2630","system_id":"levelo_inurba_marseille","lat":43.28694,"lon":5.37394,"is_reserved":false,"is_disabled":false,"rental_uris":{"android":"levelo://app?vid=af17827f-99ef-430a-aa42-4028060c2630","ios":"levelo://app?vid=af17827f-99ef-430a-aa42-4028060c2630"},"vehicle_type_id":"4","last_reported":1686593306,"current_range_meters":10800,"station_id":"","pricing_plan_id":"free"},{"bike_id":"49a55f3d-3e4e-4ccd-94a7-00474d6dfba4","system_id":"levelo_inurba_marseille","lat":43.295196,"lon":5.39397,"is_reserved":false,"is_disabled":false,"rental_uris":{"android":"levelo://app?vid=49a55f3d-3e4e-4ccd-94a7-00474d6dfba4","ios":"levelo://app?vid=49a55f3d-3e4e-4ccd-94a7-00474d6dfba4"},"vehicle_type_id":"4","last_reported":1686593306,"current_range_meters":15200,"station_id":"ce4bh292rcd13ifvqdf0","pricing_plan_id":"free"},{"bike_id":"9f2edffd-79f9-4b56-9e7c-3d8a1e6f43d1","system_id":"levelo_inurba_marseille","lat":43.295194,"lon":5.39397,"is_reserved":false,"is_disabled":false,"rental_uris":{"android":"levelo://app?vid=9f2edffd-79f9-4b56-9e7c-3d8a1e6f43d1","ios":"levelo://app?vid=9f2edffd-79f9-4b56-9e7c-3d8a1e6f43d1"},"vehicle_type_id":"4","last_reported":1686593306,"current_range_meters":9600,"station_id":"ce4bh292rcd13ifvqdf0","pricing_plan_id":"free"},{"bike_id":"d5ec1b8c-18a0-4455-917b-ef91fb5440d4","system_id":"levelo_inurba_marseille","lat":43.295196,"lon":5.39397,"is_reserved":false,"is_disabled":false,"rental_uris":{"android":"levelo://app?vid=d5ec1b8c-18a0-4455-917b-ef91fb5440d4","ios":"levelo://app?vid=d5ec1b8c-18a0-4455-917b-ef91fb5440d4"},"vehicle_type_id":"4","last_reported":1686593306,"current_range_meters":6400,"station_id":"ce4bh292rcd13ifvqdf0","pricing_plan_id":"free"},{"bike_id":"5ec7f2ce-94c2-4269-af90-83926b500cde","system_id":"levelo_inurba_marseille","lat":43.302759,"lon":5.400793,"is_reserved":false,"is_disabled":false,"rental_uris":{"android":"levelo://app?vid=5ec7f2ce-94c2-4269-af90-83926b500cde","ios":"levelo://app?vid=5ec7f2ce-94c2-4269-af90-83926b500cde"},"vehicle_type_id":"4","last_reported":1686593306,"current_range_meters":8800,"station_id":"ce4bgvh2rcd13ifvqcs0","pricing_plan_id":"free"},{"bike_id":"6e18ff68-2178-4d30-a479-ade983f1d383","system_id":"levelo_inurba_marseille","lat":43.302759,"lon":5.400793,"is_reserved":false,"is_disabled":false,"rental_uris":{"android":"levelo://app?vid=6e18ff68-2178-4d30-a479-ade983f1d383","ios":"levelo://app?vid=6e18ff68-2178-4d30-a479-ade983f1d383"},"vehicle_type_id":"4","last_reported":1686593306,"current_range_meters":30000,"station_id":"ce4bgvh2rcd13ifvqcs0","pricing_plan_id":"free"},{"bike_id":"ff483ad8-b413-457a-b4b2-1f181c7910f8","system_id":"levelo_inurba_marseille","lat":43.302759,"lon":5.400793,"is_reserved":false,"is_disabled":false,"rental_uris":{"android":"levelo://app?vid=ff483ad8-b413-457a-b4b2-1f181c7910f8","ios":"levelo://app?vid=ff483ad8-b413-457a-b4b2-1f181c7910f8"},"vehicle_type_id":"4","last_reported":1686593306,"current_range_meters":25600,"station_id":"ce4bgvh2rcd13ifvqcs0","pricing_plan_id":"free"},{"bike_id":"84387ac0-7380-4fb5-bd88-f3026dd9510b","system_id":"levelo_inurba_marseille","lat":43.302759,"lon":5.400793,"is_reserved":false,"is_disabled":false,"rental_uris":{"android":"levelo://app?vid=84387ac0-7380-4fb5-bd88-f3026dd9510b","ios":"levelo://app?vid=84387ac0-7380-4fb5-bd88-f3026dd9510b"},"vehicle_type_id":"4","last_reported":1686593306,"current_range_meters":10800,"station_id":"ce4bgvh2rcd13ifvqcs0","pricing_plan_id":"free"},{"bike_id":"a4bcb4fe-a55a-47ba-9f1d-f7e44a4cc09e","system_id":"levelo_inurba_marseille","lat":43.302759,"lon":5.400793,"is_reserved":false,"is_disabled":false,"rental_uris":{"android":"levelo://app?vid=a4bcb4fe-a55a-47ba-9f1d-f7e44a4cc09e","ios":"levelo://app?vid=a4bcb4fe-a55a-47ba-9f1d-f7e44a4cc09e"},"vehicle_type_id":"4","last_reported":1686593306,"current_range_meters":30800,"station_id":"ce4bgvh2rcd13ifvqcs0","pricing_plan_id":"free"},{"bike_id":"b4192e04-e990-4826-bd5f-7feb72efa614","system_id":"levelo_inurba_marseille","lat":43.30255,"lon":5.40075,"is_reserved":false,"is_disabled":false,"rental_uris":{"android":"levelo://app?vid=b4192e04-e990-4826-bd5f-7feb72efa614","ios":"levelo://app?vid=b4192e04-e990-4826-bd5f-7feb72efa614"},"vehicle_type_id":"4","last_reported":1686593306,"current_range_meters":6800,"station_id":"ce4bgvh2rcd13ifvqcs0","pricing_plan_id":"free"},{"bike_id":"a25d1025-022c-4385-811a-ec4dd8e18e05","system_id":"levelo_inurba_marseille","lat":43.286039,"lon":5.370679,"is_reserved":false,"is_disabled":false,"rental_uris":{"android":"levelo://app?vid=a25d1025-022c-4385-811a-ec4dd8e18e05","ios":"levelo://app?vid=a25d1025-022c-4385-811a-ec4dd8e18e05"},"vehicle_type_id":"4","last_reported":1686593306,"current_range_meters":8400,"station_id":"ce4bht12rcd13ifvqi60","pricing_plan_id":"free"},{"bike_id":"4ee7ee48-e8e8-46c8-90fa-6aeb086023e8","system_id":"levelo_inurba_marseille","lat":43.286039,"lon":5.370679,"is_reserved":false,"is_disabled":false,"rental_uris":{"android":"levelo://app?vid=4ee7ee48-e8e8-46c8-90fa-6aeb086023e8","ios":"levelo://app?vid=4ee7ee48-e8e8-46c8-90fa-6aeb086023e8"},"vehicle_type_id":"4","last_reported":1686593306,"current_range_meters":22800,"station_id":"ce4bht12rcd13ifvqi60","pricing_plan_id":"free"},{"bike_id":"66c4605c-250e-4e4b-9cc7-3c0f715ed628","system_id":"levelo_inurba_marseille","lat":43.286039,"lon":5.370679,"is_reserved":false,"is_disabled":false,"rental_uris":{"android":"levelo://app?vid=66c4605c-250e-4e4b-9cc7-3c0f715ed628","ios":"levelo://app?vid=66c4605c-250e-4e4b-9cc7-3c0f715ed628"},"vehicle_type_id":"4","last_reported":1686593306,"current_range_meters":800,"station_id":"ce4bht12rcd13ifvqi60","pricing_plan_id":"free"},{"bike_id":"76b26c3d-92b6-44e4-a542-92c9e5c6e81f","system_id":"levelo_inurba_marseille","lat":43.286039,"lon":5.370679,"is_reserved":false,"is_disabled":false,"rental_uris":{"android":"levelo://app?vid=76b26c3d-92b6-44e4-a542-92c9e5c6e81f","ios":"levelo://app?vid=76b26c3d-92b6-44e4-a542-92c9e5c6e81f"},"vehicle_type_id":"4","last_reported":1686593306,"current_range_meters":0,"station_id":"ce4bht12rcd13ifvqi60","pricing_plan_id":"free"},{"bike_id":"ad8cbd1d-9bf2-4769-b75d-a6a042627063","system_id":"levelo_inurba_marseille","lat":43.302759,"lon":5.400793,"is_reserved":false,"is_disabled":false,"rental_uris":{"android":"levelo://app?vid=ad8cbd1d-9bf2-4769-b75d-a6a042627063","ios":"levelo://app?vid=ad8cbd1d-9bf2-4769-b75d-a6a042627063"},"vehicle_type_id":"4","last_reported":1686593306,"current_range_meters":31200,"station_id":"ce4bgvh2rcd13ifvqcs0","pricing_plan_id":"free"},{"bike_id":"7b5ba32e-50a0-48df-8b95-a9e22801a8ce","system_id":"levelo_inurba_marseille","lat":43.287185,"lon":5.379373,"is_reserved":false,"is_disabled":false,"rental_uris":{"android":"levelo://app?vid=7b5ba32e-50a0-48df-8b95-a9e22801a8ce","ios":"levelo://app?vid=7b5ba32e-50a0-48df-8b95-a9e22801a8ce"},"vehicle_type_id":"4","last_reported":1686593306,"current_range_meters":400,"station_id":"ce4bh9p2rcd13ifvqec0","pricing_plan_id":"free"},{"bike_id":"50af13dc-2f67-4e2d-894e-5798cb212f9c","system_id":"levelo_inurba_marseille","lat":43.316517,"lon":5.404375,"is_reserved":false,"is_disabled":false,"rental_uris":{"android":"levelo://app?vid=50af13dc-2f67-4e2d-894e-5798cb212f9c","ios":"levelo://app?vid=50af13dc-2f67-4e2d-894e-5798cb212f9c"},"vehicle_type_id":"4","last_reported":1686593306,"current_range_meters":8800,"station_id":"ce4bh012rcd13ifvqd00","pricing_plan_id":"free"},{"bike_id":"99538815-8a76-4a9d-9490-84807da21e74","system_id":"levelo_inurba_marseille","lat":43.31646,"lon":5.40439,"is_reserved":false,"is_disabled":false,"rental_uris":{"android":"levelo://app?vid=99538815-8a76-4a9d-9490-84807da21e74","ios":"levelo://app?vid=99538815-8a76-4a9d-9490-84807da21e74"},"vehicle_type_id":"4","last_reported":1686593306,"current_range_meters":0,"station_id":"ce4bh012rcd13ifvqd00","pricing_plan_id":"free"},{"bike_id":"11ca5828-6b99-4eb4-9f18-d8977083169d","system_id":"levelo_inurba_marseille","lat":43.291994,"lon":5.392907,"is_reserved":false,"is_disabled":false,"rental_uris":{"android":"levelo://app?vid=11ca5828-6b99-4eb4-9f18-d8977083169d","ios":"levelo://app?vid=11ca5828-6b99-4eb4-9f18-d8977083169d"},"vehicle_type_id":"4","last_reported":1686593306,"current_range_meters":13600,"station_id":"ce4bh192rcd13ifvqdd0","pricing_plan_id":"free"},{"bike_id":"0fd38e8d-58c1-481f-a529-22f44461db55","system_id":"levelo_inurba_marseille","lat":43.29205,"lon":5.3932,"is_reserved":false,"is_disabled":false,"rental_uris":{"android":"levelo://app?vid=0fd38e8d-58c1-481f-a529-22f44461db55","ios":"levelo://app?vid=0fd38e8d-58c1-481f-a529-22f44461db55"},"vehicle_type_id":"4","last_reported":1686593306,"current_range_meters":5200,"station_id":"","pricing_plan_id":"free"},{"bike_id":"b0ad82a8-5ec4-4193-b8ea-580c59eb7935","system_id":"levelo_inurba_marseille","lat":43.30718,"lon":5.40532,"is_reserved":false,"is_disabled":false,"rental_uris":{"android":"levelo://app?vid=b0ad82a8-5ec4-4193-b8ea-580c59eb7935","ios":"levelo://app?vid=b0ad82a8-5ec4-4193-b8ea-580c59eb7935"},"vehicle_type_id":"4","last_reported":1686593306,"current_range_meters":3600,"station_id":"","pricing_plan_id":"free"},{"bike_id":"375c9f18-1401-454c-906a-ab5dbb8319c7","system_id":"levelo_inurba_marseille","lat":43.28473,"lon":5.35879,"is_reserved":false,"is_disabled":false,"rental_uris":{"android":"levelo://app?vid=375c9f18-1401-454c-906a-ab5dbb8319c7","ios":"levelo://app?vid=375c9f18-1401-454c-906a-ab5dbb8319c7"},"vehicle_type_id":"4","last_reported":1686593306,"current_range_meters":24400,"station_id":"ce4bhah2rcd13ifvqei0","pricing_plan_id":"free"},{"bike_id":"e6a46dff-5a34-4911-aa0f-fdf82cf552fc","system_id":"levelo_inurba_marseille","lat":43.284534,"lon":5.358662,"is_reserved":false,"is_disabled":false,"rental_uris":{"android":"levelo://app?vid=e6a46dff-5a34-4911-aa0f-fdf82cf552fc","ios":"levelo://app?vid=e6a46dff-5a34-4911-aa0f-fdf82cf552fc"},"vehicle_type_id":"4","last_reported":1686593306,"current_range_meters":23600,"station_id":"ce4bhah2rcd13ifvqei0","pricing_plan_id":"free"},{"bike_id":"fa20f646-6309-4541-a433-bd021cfb3ac6","system_id":"levelo_inurba_marseille","lat":43.28609,"lon":5.35101,"is_reserved":false,"is_disabled":false,"rental_uris":{"android":"levelo://app?vid=fa20f646-6309-4541-a433-bd021cfb3ac6","ios":"levelo://app?vid=fa20f646-6309-4541-a433-bd021cfb3ac6"},"vehicle_type_id":"4","last_reported":1686593306,"current_range_meters":24800,"station_id":"","pricing_plan_id":"free"},{"bike_id":"c1f05937-f1ce-4bb7-8171-0c4bb6a3e32f","system_id":"levelo_inurba_marseille","lat":43.28406,"lon":5.37524,"is_reserved":false,"is_disabled":false,"rental_uris":{"android":"levelo://app?vid=c1f05937-f1ce-4bb7-8171-0c4bb6a3e32f","ios":"levelo://app?vid=c1f05937-f1ce-4bb7-8171-0c4bb6a3e32f"},"vehicle_type_id":"4","last_reported":1686593306,"current_range_meters":12000,"station_id":"","pricing_plan_id":"free"},{"bike_id":"c2d17567-a1d2-46db-8082-b89e56e67b7a","system_id":"levelo_inurba_marseille","lat":43.29896,"lon":5.40256,"is_reserved":false,"is_disabled":false,"rental_uris":{"android":"levelo://app?vid=c2d17567-a1d2-46db-8082-b89e56e67b7a","ios":"levelo://app?vid=c2d17567-a1d2-46db-8082-b89e56e67b7a"},"vehicle_type_id":"4","last_reported":1686593306,"current_range_meters":20000,"station_id":"","pricing_plan_id":"free"},{"bike_id":"5fc8293f-7100-4c17-9023-981b82c610d1","system_id":"levelo_inurba_marseille","lat":43.28519,"lon":5.35015,"is_reserved":false,"is_disabled":false,"rental_uris":{"android":"levelo://app?vid=5fc8293f-7100-4c17-9023-981b82c610d1","ios":"levelo://app?vid=5fc8293f-7100-4c17-9023-981b82c610d1"},"vehicle_type_id":"4","last_reported":1686593306,"current_range_meters":4000,"station_id":"ce4bhbh2rcd13ifvqepg","pricing_plan_id":"free"},{"bike_id":"16e5fedd-6e86-436a-a0a2-72c7cd60a6ea","system_id":"levelo_inurba_marseille","lat":43.323464,"lon":5.406297,"is_reserved":false,"is_disabled":false,"rental_uris":{"android":"levelo://app?vid=16e5fedd-6e86-436a-a0a2-72c7cd60a6ea","ios":"levelo://app?vid=16e5fedd-6e86-436a-a0a2-72c7cd60a6ea"},"vehicle_type_id":"4","last_reported":1686593306,"current_range_meters":17200,"station_id":"ce4bhq92rcd13ifvqhjg","pricing_plan_id":"free"},{"bike_id":"a6b9d0ca-e79a-4120-9dec-4894cf6d8e0f","system_id":"levelo_inurba_marseille","lat":43.288497,"lon":5.393089,"is_reserved":false,"is_disabled":false,"rental_uris":{"android":"levelo://app?vid=a6b9d0ca-e79a-4120-9dec-4894cf6d8e0f","ios":"levelo://app?vid=a6b9d0ca-e79a-4120-9dec-4894cf6d8e0f"},"vehicle_type_id":"4","last_reported":1686593306,"current_range_meters":30000,"station_id":"ce4bh2p2rcd13ifvqdi0","pricing_plan_id":"free"},{"bike_id":"7a9b2cd6-c538-45b8-b871-258b9a6f9976","system_id":"levelo_inurba_marseille","lat":43.284787,"lon":5.384116,"is_reserved":false,"is_disabled":false,"rental_uris":{"android":"levelo://app?vid=7a9b2cd6-c538-45b8-b871-258b9a6f9976","ios":"levelo://app?vid=7a9b2cd6-c538-45b8-b871-258b9a6f9976"},"vehicle_type_id":"4","last_reported":1686593306,"current_range_meters":0,"station_id":"ce4bh512rcd13ifvqe3g","pricing_plan_id":"free"},{"bike_id":"d108cd0c-39b7-4f5c-860f-06d19d6e34cc","system_id":"levelo_inurba_marseille","lat":43.288501,"lon":5.393087,"is_reserved":false,"is_disabled":false,"rental_uris":{"android":"levelo://app?vid=d108cd0c-39b7-4f5c-860f-06d19d6e34cc","ios":"levelo://app?vid=d108cd0c-39b7-4f5c-860f-06d19d6e34cc"},"vehicle_type_id":"4","last_reported":1686593306,"current_range_meters":0,"station_id":"ce4bh2p2rcd13ifvqdi0","pricing_plan_id":"free"},{"bike_id":"7d6d478a-979c-491f-b712-b75b2d722a1d","system_id":"levelo_inurba_marseille","lat":43.289363,"lon":5.396322,"is_reserved":false,"is_disabled":false,"rental_uris":{"android":"levelo://app?vid=7d6d478a-979c-491f-b712-b75b2d722a1d","ios":"levelo://app?vid=7d6d478a-979c-491f-b712-b75b2d722a1d"},"vehicle_type_id":"4","last_reported":1686593306,"current_range_meters":14400,"station_id":"ce4bh3h2rcd13ifvqdn0","pricing_plan_id":"free"},{"bike_id":"32e8cb40-ff4e-4d91-b104-f620e6196523","system_id":"levelo_inurba_marseille","lat":43.29634,"lon":5.40496,"is_reserved":false,"is_disabled":false,"rental_uris":{"android":"levelo://app?vid=32e8cb40-ff4e-4d91-b104-f620e6196523","ios":"levelo://app?vid=32e8cb40-ff4e-4d91-b104-f620e6196523"},"vehicle_type_id":"4","last_reported":1686593306,"current_range_meters":24400,"station_id":"","pricing_plan_id":"free"},{"bike_id":"38ddee00-39ec-4627-9fd7-cccb5371ad5c","system_id":"levelo_inurba_marseille","lat":43.283502,"lon":5.386471,"is_reserved":false,"is_disabled":false,"rental_uris":{"android":"levelo://app?vid=38ddee00-39ec-4627-9fd7-cccb5371ad5c","ios":"levelo://app?vid=38ddee00-39ec-4627-9fd7-cccb5371ad5c"},"vehicle_type_id":"4","last_reported":1686593306,"current_range_meters":5600,"station_id":"ce4bh492rcd13ifvqdvg","pricing_plan_id":"free"},{"bike_id":"cbc0b1e6-e6ea-471d-b119-9d5fee83bcd3","system_id":"levelo_inurba_marseille","lat":43.292724,"lon":5.401131,"is_reserved":false,"is_disabled":false,"rental_uris":{"android":"levelo://app?vid=cbc0b1e6-e6ea-471d-b119-9d5fee83bcd3","ios":"levelo://app?vid=cbc0b1e6-e6ea-471d-b119-9d5fee83bcd3"},"vehicle_type_id":"4","last_reported":1686593306,"current_range_meters":24800,"station_id":"ce4bh312rcd13ifvqdk0","pricing_plan_id":"free"},{"bike_id":"b95f06b7-7498-4439-b303-80d97e4849ef","system_id":"levelo_inurba_marseille","lat":43.280382,"lon":5.369291,"is_reserved":false,"is_disabled":false,"rental_uris":{"android":"levelo://app?vid=b95f06b7-7498-4439-b303-80d97e4849ef","ios":"levelo://app?vid=b95f06b7-7498-4439-b303-80d97e4849ef"},"vehicle_type_id":"4","last_reported":1686593306,"current_range_meters":15200,"station_id":"ce4bha12rcd13ifvqef0","pricing_plan_id":"free"},{"bike_id":"3adfa59d-c0ba-488c-a57c-f6b97c7f85b4","system_id":"levelo_inurba_marseille","lat":43.281044,"lon":5.378308,"is_reserved":false,"is_disabled":false,"rental_uris":{"android":"levelo://app?vid=3adfa59d-c0ba-488c-a57c-f6b97c7f85b4","ios":"levelo://app?vid=3adfa59d-c0ba-488c-a57c-f6b97c7f85b4"},"vehicle_type_id":"4","last_reported":1686593306,"current_range_meters":13600,"station_id":"ce4bha12rcd13ifvqee0","pricing_plan_id":"free"},{"bike_id":"480d0bbc-a99a-473b-bbf6-c80ca88b7afa","system_id":"levelo_inurba_marseille","lat":43.28439,"lon":5.39204,"is_reserved":false,"is_disabled":false,"rental_uris":{"android":"levelo://app?vid=480d0bbc-a99a-473b-bbf6-c80ca88b7afa","ios":"levelo://app?vid=480d0bbc-a99a-473b-bbf6-c80ca88b7afa"},"vehicle_type_id":"4","last_reported":1686593306,"current_range_meters":800,"station_id":"ce4bhoh2rcd13ifvqh5g","pricing_plan_id":"free"},{"bike_id":"c79104f5-350d-40d9-97a4-03cc1cc66f77","system_id":"levelo_inurba_marseille","lat":43.285742,"lon":5.395004,"is_reserved":false,"is_disabled":false,"rental_uris":{"android":"levelo://app?vid=c79104f5-350d-40d9-97a4-03cc1cc66f77","ios":"levelo://app?vid=c79104f5-350d-40d9-97a4-03cc1cc66f77"},"vehicle_type_id":"4","last_reported":1686593306,"current_range_meters":18800,"station_id":"ce4bh292rcd13ifvqdg0","pricing_plan_id":"free"},{"bike_id":"cd9e954b-a13d-4a3c-81f1-e47b33a69899","system_id":"levelo_inurba_marseille","lat":43.27898,"lon":5.3801,"is_reserved":false,"is_disabled":false,"rental_uris":{"android":"levelo://app?vid=cd9e954b-a13d-4a3c-81f1-e47b33a69899","ios":"levelo://app?vid=cd9e954b-a13d-4a3c-81f1-e47b33a69899"},"vehicle_type_id":"4","last_reported":1686593306,"current_range_meters":1200,"station_id":"","pricing_plan_id":"free"},{"bike_id":"e6b6ba50-4165-475b-aa45-7636715fba03","system_id":"levelo_inurba_marseille","lat":43.279742,"lon":5.38744,"is_reserved":false,"is_disabled":false,"rental_uris":{"android":"levelo://app?vid=e6b6ba50-4165-475b-aa45-7636715fba03","ios":"levelo://app?vid=e6b6ba50-4165-475b-aa45-7636715fba03"},"vehicle_type_id":"4","last_reported":1686593306,"current_range_meters":400,"station_id":"ce4bhg12rcd13ifvqf80","pricing_plan_id":"free"},{"bike_id":"5c71c309-4644-459b-9b6a-0713ac61129e","system_id":"levelo_inurba_marseille","lat":43.276152,"lon":5.361066,"is_reserved":false,"is_disabled":false,"rental_uris":{"android":"levelo://app?vid=5c71c309-4644-459b-9b6a-0713ac61129e","ios":"levelo://app?vid=5c71c309-4644-459b-9b6a-0713ac61129e"},"vehicle_type_id":"4","last_reported":1686593306,"current_range_meters":31200,"station_id":"ce4bgj92rcd13ifvqbe0","pricing_plan_id":"free"},{"bike_id":"4bbfcbcb-da78-4b56-ae90-44f8fe3fd285","system_id":"levelo_inurba_marseille","lat":43.27613,"lon":5.36115,"is_reserved":false,"is_disabled":false,"rental_uris":{"android":"levelo://app?vid=4bbfcbcb-da78-4b56-ae90-44f8fe3fd285","ios":"levelo://app?vid=4bbfcbcb-da78-4b56-ae90-44f8fe3fd285"},"vehicle_type_id":"4","last_reported":1686593306,"current_range_meters":31200,"station_id":"ce4bgj92rcd13ifvqbe0","pricing_plan_id":"free"},{"bike_id":"c36f8b8c-e84d-426a-a385-4308b98c3f90","system_id":"levelo_inurba_marseille","lat":43.273817,"lon":5.36258,"is_reserved":false,"is_disabled":false,"rental_uris":{"android":"levelo://app?vid=c36f8b8c-e84d-426a-a385-4308b98c3f90","ios":"levelo://app?vid=c36f8b8c-e84d-426a-a385-4308b98c3f90"},"vehicle_type_id":"4","last_reported":1686593306,"current_range_meters":24800,"station_id":"ce4bhbh2rcd13ifvqeo0","pricing_plan_id":"free"},{"bike_id":"0500b943-689e-4e7d-9a45-30c8816d4946","system_id":"levelo_inurba_marseille","lat":43.27371,"lon":5.36259,"is_reserved":false,"is_disabled":false,"rental_uris":{"android":"levelo://app?vid=0500b943-689e-4e7d-9a45-30c8816d4946","ios":"levelo://app?vid=0500b943-689e-4e7d-9a45-30c8816d4946"},"vehicle_type_id":"4","last_reported":1686593306,"current_range_meters":31200,"station_id":"ce4bhbh2rcd13ifvqeo0","pricing_plan_id":"free"},{"bike_id":"8843adfa-4b0e-48a4-b002-f3b5008f41d3","system_id":"levelo_inurba_marseille","lat":43.27371,"lon":5.36241,"is_reserved":false,"is_disabled":false,"rental_uris":{"android":"levelo://app?vid=8843adfa-4b0e-48a4-b002-f3b5008f41d3","ios":"levelo://app?vid=8843adfa-4b0e-48a4-b002-f3b5008f41d3"},"vehicle_type_id":"4","last_reported":1686593306,"current_range_meters":31200,"station_id":"ce4bhbh2rcd13ifvqeo0","pricing_plan_id":"free"},{"bike_id":"36b50017-9fe8-464b-a163-fb76c50e0eb2","system_id":"levelo_inurba_marseille","lat":43.336134,"lon":5.410341,"is_reserved":false,"is_disabled":false,"rental_uris":{"android":"levelo://app?vid=36b50017-9fe8-464b-a163-fb76c50e0eb2","ios":"levelo://app?vid=36b50017-9fe8-464b-a163-fb76c50e0eb2"},"vehicle_type_id":"4","last_reported":1686593306,"current_range_meters":1200,"station_id":"ce4bhqh2rcd13ifvqhmg","pricing_plan_id":"free"},{"bike_id":"fdf5f688-4ba6-4507-85a0-ea7db31eb18c","system_id":"levelo_inurba_marseille","lat":43.35152,"lon":5.37567,"is_reserved":false,"is_disabled":false,"rental_uris":{"android":"levelo://app?vid=fdf5f688-4ba6-4507-85a0-ea7db31eb18c","ios":"levelo://app?vid=fdf5f688-4ba6-4507-85a0-ea7db31eb18c"},"vehicle_type_id":"4","last_reported":1686593306,"current_range_meters":8800,"station_id":"","pricing_plan_id":"free"},{"bike_id":"ab8ba978-31c4-41fa-a141-e42165ae140f","system_id":"levelo_inurba_marseille","lat":43.276769,"lon":5.388787,"is_reserved":false,"is_disabled":false,"rental_uris":{"android":"levelo://app?vid=ab8ba978-31c4-41fa-a141-e42165ae140f","ios":"levelo://app?vid=ab8ba978-31c4-41fa-a141-e42165ae140f"},"vehicle_type_id":"4","last_reported":1686593306,"current_range_meters":11200,"station_id":"ce4bhi12rcd13ifvqfo0","pricing_plan_id":"free"},{"bike_id":"c135417b-40c4-4c04-943e-b7711837ba3c","system_id":"levelo_inurba_marseille","lat":43.317121,"lon":5.423936,"is_reserved":false,"is_disabled":false,"rental_uris":{"android":"levelo://app?vid=c135417b-40c4-4c04-943e-b7711837ba3c","ios":"levelo://app?vid=c135417b-40c4-4c04-943e-b7711837ba3c"},"vehicle_type_id":"4","last_reported":1686593306,"current_range_meters":19600,"station_id":"ce4bhp92rcd13ifvqhbg","pricing_plan_id":"free"},{"bike_id":"60369bb0-0d71-43b9-a915-5d4c7e589c53","system_id":"levelo_inurba_marseille","lat":43.317121,"lon":5.423936,"is_reserved":false,"is_disabled":false,"rental_uris":{"android":"levelo://app?vid=60369bb0-0d71-43b9-a915-5d4c7e589c53","ios":"levelo://app?vid=60369bb0-0d71-43b9-a915-5d4c7e589c53"},"vehicle_type_id":"4","last_reported":1686593306,"current_range_meters":800,"station_id":"ce4bhp92rcd13ifvqhbg","pricing_plan_id":"free"},{"bike_id":"753c6b72-ca8a-45ae-bd9d-8eca801d7a1c","system_id":"levelo_inurba_marseille","lat":43.27614,"lon":5.39489,"is_reserved":false,"is_disabled":false,"rental_uris":{"android":"levelo://app?vid=753c6b72-ca8a-45ae-bd9d-8eca801d7a1c","ios":"levelo://app?vid=753c6b72-ca8a-45ae-bd9d-8eca801d7a1c"},"vehicle_type_id":"4","last_reported":1686593306,"current_range_meters":10800,"station_id":"","pricing_plan_id":"free"},{"bike_id":"909b4026-877e-49cb-9776-0fb7208b6780","system_id":"levelo_inurba_marseille","lat":43.273129,"lon":5.390725,"is_reserved":false,"is_disabled":false,"rental_uris":{"android":"levelo://app?vid=909b4026-877e-49cb-9776-0fb7208b6780","ios":"levelo://app?vid=909b4026-877e-49cb-9776-0fb7208b6780"},"vehicle_type_id":"4","last_reported":1686593306,"current_range_meters":0,"station_id":"ce4bhgp2rcd13ifvqfe0","pricing_plan_id":"free"},{"bike_id":"8ecbfa51-c2d0-4d60-946e-16bf500dcc4a","system_id":"levelo_inurba_marseille","lat":43.30414,"lon":5.4254,"is_reserved":false,"is_disabled":false,"rental_uris":{"android":"levelo://app?vid=8ecbfa51-c2d0-4d60-946e-16bf500dcc4a","ios":"levelo://app?vid=8ecbfa51-c2d0-4d60-946e-16bf500dcc4a"},"vehicle_type_id":"4","last_reported":1686593306,"current_range_meters":17600,"station_id":"ce4bhoh2rcd13ifvqh6g","pricing_plan_id":"free"},{"bike_id":"c839aa50-45d4-42b4-b76c-64404c00b9d5","system_id":"levelo_inurba_marseille","lat":43.295523,"lon":5.422926,"is_reserved":false,"is_disabled":false,"rental_uris":{"android":"levelo://app?vid=c839aa50-45d4-42b4-b76c-64404c00b9d5","ios":"levelo://app?vid=c839aa50-45d4-42b4-b76c-64404c00b9d5"},"vehicle_type_id":"4","last_reported":1686593306,"current_range_meters":11600,"station_id":"ce4bhph2rcd13ifvqhdg","pricing_plan_id":"free"},{"bike_id":"349cae4e-bd33-4bb2-beb6-eac75f7438ae","system_id":"levelo_inurba_marseille","lat":43.272116,"lon":5.391763,"is_reserved":false,"is_disabled":false,"rental_uris":{"android":"levelo://app?vid=349cae4e-bd33-4bb2-beb6-eac75f7438ae","ios":"levelo://app?vid=349cae4e-bd33-4bb2-beb6-eac75f7438ae"},"vehicle_type_id":"4","last_reported":1686593306,"current_range_meters":31200,"station_id":"ce4bhhp2rcd13ifvqfm0","pricing_plan_id":"free"},{"bike_id":"b3119382-7984-452d-9e30-a8c87790ebcf","system_id":"levelo_inurba_marseille","lat":43.278128,"lon":5.407195,"is_reserved":false,"is_disabled":false,"rental_uris":{"android":"levelo://app?vid=b3119382-7984-452d-9e30-a8c87790ebcf","ios":"levelo://app?vid=b3119382-7984-452d-9e30-a8c87790ebcf"},"vehicle_type_id":"4","last_reported":1686593306,"current_range_meters":6400,"station_id":"ce4bhnh2rcd13ifvqgtg","pricing_plan_id":"free"},{"bike_id":"0035d56e-f975-4b3d-8fad-670d496742ce","system_id":"levelo_inurba_marseille","lat":43.278128,"lon":5.407195,"is_reserved":false,"is_disabled":false,"rental_uris":{"android":"levelo://app?vid=0035d56e-f975-4b3d-8fad-670d496742ce","ios":"levelo://app?vid=0035d56e-f975-4b3d-8fad-670d496742ce"},"vehicle_type_id":"4","last_reported":1686593306,"current_range_meters":11200,"station_id":"ce4bhnh2rcd13ifvqgtg","pricing_plan_id":"free"},{"bike_id":"822832b7-1766-4ef3-ba8d-cadae1947573","system_id":"levelo_inurba_marseille","lat":43.278128,"lon":5.407195,"is_reserved":false,"is_disabled":false,"rental_uris":{"android":"levelo://app?vid=822832b7-1766-4ef3-ba8d-cadae1947573","ios":"levelo://app?vid=822832b7-1766-4ef3-ba8d-cadae1947573"},"vehicle_type_id":"4","last_reported":1686593306,"current_range_meters":20800,"station_id":"ce4bhnh2rcd13ifvqgtg","pricing_plan_id":"free"},{"bike_id":"0ad57b0c-4974-4d54-a187-78d183611933","system_id":"levelo_inurba_marseille","lat":43.278128,"lon":5.407195,"is_reserved":false,"is_disabled":false,"rental_uris":{"android":"levelo://app?vid=0ad57b0c-4974-4d54-a187-78d183611933","ios":"levelo://app?vid=0ad57b0c-4974-4d54-a187-78d183611933"},"vehicle_type_id":"4","last_reported":1686593306,"current_range_meters":13600,"station_id":"ce4bhnh2rcd13ifvqgtg","pricing_plan_id":"free"},{"bike_id":"d94ef23e-f0b5-42a5-a676-1c210bab9189","system_id":"levelo_inurba_marseille","lat":43.278128,"lon":5.407195,"is_reserved":false,"is_disabled":false,"rental_uris":{"android":"levelo://app?vid=d94ef23e-f0b5-42a5-a676-1c210bab9189","ios":"levelo://app?vid=d94ef23e-f0b5-42a5-a676-1c210bab9189"},"vehicle_type_id":"4","last_reported":1686593306,"current_range_meters":24400,"station_id":"ce4bhnh2rcd13ifvqgtg","pricing_plan_id":"free"},{"bike_id":"278ee436-7ab2-4e00-86a9-0e93915a289c","system_id":"levelo_inurba_marseille","lat":43.278128,"lon":5.407195,"is_reserved":false,"is_disabled":false,"rental_uris":{"android":"levelo://app?vid=278ee436-7ab2-4e00-86a9-0e93915a289c","ios":"levelo://app?vid=278ee436-7ab2-4e00-86a9-0e93915a289c"},"vehicle_type_id":"4","last_reported":1686593306,"current_range_meters":22000,"station_id":"ce4bhnh2rcd13ifvqgtg","pricing_plan_id":"free"},{"bike_id":"cf7f49b9-cc8c-4a81-a54c-fd1a34549409","system_id":"levelo_inurba_marseille","lat":43.278128,"lon":5.407195,"is_reserved":false,"is_disabled":false,"rental_uris":{"android":"levelo://app?vid=cf7f49b9-cc8c-4a81-a54c-fd1a34549409","ios":"levelo://app?vid=cf7f49b9-cc8c-4a81-a54c-fd1a34549409"},"vehicle_type_id":"4","last_reported":1686593306,"current_range_meters":14000,"station_id":"ce4bhnh2rcd13ifvqgtg","pricing_plan_id":"free"},{"bike_id":"32ad61e8-e983-4fbf-9cdc-88583cf0c6a7","system_id":"levelo_inurba_marseille","lat":43.269467,"lon":5.386439,"is_reserved":false,"is_disabled":false,"rental_uris":{"android":"levelo://app?vid=32ad61e8-e983-4fbf-9cdc-88583cf0c6a7","ios":"levelo://app?vid=32ad61e8-e983-4fbf-9cdc-88583cf0c6a7"},"vehicle_type_id":"4","last_reported":1686593306,"current_range_meters":18800,"station_id":"ce4bhh92rcd13ifvqfh0","pricing_plan_id":"free"},{"bike_id":"95f6d267-cedd-47b7-a3e5-c6c8db223169","system_id":"levelo_inurba_marseille","lat":43.269467,"lon":5.386439,"is_reserved":false,"is_disabled":false,"rental_uris":{"android":"levelo://app?vid=95f6d267-cedd-47b7-a3e5-c6c8db223169","ios":"levelo://app?vid=95f6d267-cedd-47b7-a3e5-c6c8db223169"},"vehicle_type_id":"4","last_reported":1686593306,"current_range_meters":30400,"station_id":"ce4bhh92rcd13ifvqfh0","pricing_plan_id":"free"},{"bike_id":"3e4af948-cea0-477b-8a87-6de3743079d3","system_id":"levelo_inurba_marseille","lat":43.26681,"lon":5.382694,"is_reserved":false,"is_disabled":false,"rental_uris":{"android":"levelo://app?vid=3e4af948-cea0-477b-8a87-6de3743079d3","ios":"levelo://app?vid=3e4af948-cea0-477b-8a87-6de3743079d3"},"vehicle_type_id":"4","last_reported":1686593306,"current_range_meters":0,"station_id":"ce4bhg92rcd13ifvqf90","pricing_plan_id":"free"},{"bike_id":"f84f2515-de31-447a-8046-4a4a6bb95c8a","system_id":"levelo_inurba_marseille","lat":43.27996,"lon":5.416624,"is_reserved":false,"is_disabled":false,"rental_uris":{"android":"levelo://app?vid=f84f2515-de31-447a-8046-4a4a6bb95c8a","ios":"levelo://app?vid=f84f2515-de31-447a-8046-4a4a6bb95c8a"},"vehicle_type_id":"4","last_reported":1686593306,"current_range_meters":0,"station_id":"ce4bho12rcd13ifvqh1g","pricing_plan_id":"free"},{"bike_id":"d088919b-5f3e-449a-9a87-735389ab4ab7","system_id":"levelo_inurba_marseille","lat":43.27996,"lon":5.416624,"is_reserved":false,"is_disabled":false,"rental_uris":{"android":"levelo://app?vid=d088919b-5f3e-449a-9a87-735389ab4ab7","ios":"levelo://app?vid=d088919b-5f3e-449a-9a87-735389ab4ab7"},"vehicle_type_id":"4","last_reported":1686593306,"current_range_meters":4000,"station_id":"ce4bho12rcd13ifvqh1g","pricing_plan_id":"free"},{"bike_id":"566d7384-8f3b-476b-8684-bfaabfbd1d79","system_id":"levelo_inurba_marseille","lat":43.27996,"lon":5.416624,"is_reserved":false,"is_disabled":false,"rental_uris":{"android":"levelo://app?vid=566d7384-8f3b-476b-8684-bfaabfbd1d79","ios":"levelo://app?vid=566d7384-8f3b-476b-8684-bfaabfbd1d79"},"vehicle_type_id":"4","last_reported":1686593306,"current_range_meters":25600,"station_id":"ce4bho12rcd13ifvqh1g","pricing_plan_id":"free"},{"bike_id":"41b4ad10-125f-47bb-af68-8e7f5be02b68","system_id":"levelo_inurba_marseille","lat":43.27996,"lon":5.416624,"is_reserved":false,"is_disabled":false,"rental_uris":{"android":"levelo://app?vid=41b4ad10-125f-47bb-af68-8e7f5be02b68","ios":"levelo://app?vid=41b4ad10-125f-47bb-af68-8e7f5be02b68"},"vehicle_type_id":"4","last_reported":1686593306,"current_range_meters":6400,"station_id":"ce4bho12rcd13ifvqh1g","pricing_plan_id":"free"},{"bike_id":"8df6b4ef-6a21-4962-99b9-6c3df907d334","system_id":"levelo_inurba_marseille","lat":43.27996,"lon":5.416624,"is_reserved":false,"is_disabled":false,"rental_uris":{"android":"levelo://app?vid=8df6b4ef-6a21-4962-99b9-6c3df907d334","ios":"levelo://app?vid=8df6b4ef-6a21-4962-99b9-6c3df907d334"},"vehicle_type_id":"4","last_reported":1686593306,"current_range_meters":15600,"station_id":"ce4bho12rcd13ifvqh1g","pricing_plan_id":"free"},{"bike_id":"2208e7ab-2666-48ab-ad67-3042454517c2","system_id":"levelo_inurba_marseille","lat":43.27996,"lon":5.416624,"is_reserved":false,"is_disabled":false,"rental_uris":{"android":"levelo://app?vid=2208e7ab-2666-48ab-ad67-3042454517c2","ios":"levelo://app?vid=2208e7ab-2666-48ab-ad67-3042454517c2"},"vehicle_type_id":"4","last_reported":1686593306,"current_range_meters":3600,"station_id":"ce4bho12rcd13ifvqh1g","pricing_plan_id":"free"},{"bike_id":"0b20b5ea-9db5-401b-b2b1-fd07078c272c","system_id":"levelo_inurba_marseille","lat":43.27992,"lon":5.41658,"is_reserved":false,"is_disabled":false,"rental_uris":{"android":"levelo://app?vid=0b20b5ea-9db5-401b-b2b1-fd07078c272c","ios":"levelo://app?vid=0b20b5ea-9db5-401b-b2b1-fd07078c272c"},"vehicle_type_id":"4","last_reported":1686593306,"current_range_meters":18800,"station_id":"ce4bho12rcd13ifvqh1g","pricing_plan_id":"free"},{"bike_id":"8f19fee8-fffe-4dbd-a254-f451829a949e","system_id":"levelo_inurba_marseille","lat":43.27996,"lon":5.416624,"is_reserved":false,"is_disabled":false,"rental_uris":{"android":"levelo://app?vid=8f19fee8-fffe-4dbd-a254-f451829a949e","ios":"levelo://app?vid=8f19fee8-fffe-4dbd-a254-f451829a949e"},"vehicle_type_id":"4","last_reported":1686593306,"current_range_meters":24400,"station_id":"ce4bho12rcd13ifvqh1g","pricing_plan_id":"free"},{"bike_id":"a2972263-5775-4b5b-acd0-322b454e8d89","system_id":"levelo_inurba_marseille","lat":43.27996,"lon":5.416624,"is_reserved":false,"is_disabled":false,"rental_uris":{"android":"levelo://app?vid=a2972263-5775-4b5b-acd0-322b454e8d89","ios":"levelo://app?vid=a2972263-5775-4b5b-acd0-322b454e8d89"},"vehicle_type_id":"4","last_reported":1686593306,"current_range_meters":17200,"station_id":"ce4bho12rcd13ifvqh1g","pricing_plan_id":"free"},{"bike_id":"c028772f-525f-460c-b6e1-ef39cab93090","system_id":"levelo_inurba_marseille","lat":43.27996,"lon":5.416624,"is_reserved":false,"is_disabled":false,"rental_uris":{"android":"levelo://app?vid=c028772f-525f-460c-b6e1-ef39cab93090","ios":"levelo://app?vid=c028772f-525f-460c-b6e1-ef39cab93090"},"vehicle_type_id":"4","last_reported":1686593306,"current_range_meters":0,"station_id":"ce4bho12rcd13ifvqh1g","pricing_plan_id":"free"},{"bike_id":"21b8ac1b-1e4c-4a2a-966f-fb63d7b37fd7","system_id":"levelo_inurba_marseille","lat":43.27985,"lon":5.41666,"is_reserved":false,"is_disabled":false,"rental_uris":{"android":"levelo://app?vid=21b8ac1b-1e4c-4a2a-966f-fb63d7b37fd7","ios":"levelo://app?vid=21b8ac1b-1e4c-4a2a-966f-fb63d7b37fd7"},"vehicle_type_id":"4","last_reported":1686593306,"current_range_meters":17600,"station_id":"ce4bho12rcd13ifvqh1g","pricing_plan_id":"free"},{"bike_id":"5162ffc7-6c9e-41bb-bdd1-569a7d1e6f21","system_id":"levelo_inurba_marseille","lat":43.30807,"lon":5.43518,"is_reserved":false,"is_disabled":false,"rental_uris":{"android":"levelo://app?vid=5162ffc7-6c9e-41bb-bdd1-569a7d1e6f21","ios":"levelo://app?vid=5162ffc7-6c9e-41bb-bdd1-569a7d1e6f21"},"vehicle_type_id":"4","last_reported":1686593306,"current_range_meters":0,"station_id":"","pricing_plan_id":"free"},{"bike_id":"10ae2ec8-f335-4636-9ed0-f21920a20b88","system_id":"levelo_inurba_marseille","lat":43.265569,"lon":5.390047,"is_reserved":false,"is_disabled":false,"rental_uris":{"android":"levelo://app?vid=10ae2ec8-f335-4636-9ed0-f21920a20b88","ios":"levelo://app?vid=10ae2ec8-f335-4636-9ed0-f21920a20b88"},"vehicle_type_id":"4","last_reported":1686593306,"current_range_meters":3600,"station_id":"ce4bhe12rcd13ifvqf30","pricing_plan_id":"free"},{"bike_id":"b1b7584c-cd11-40c0-a403-7dde6fbb4fb4","system_id":"levelo_inurba_marseille","lat":43.308023,"lon":5.435278,"is_reserved":false,"is_disabled":false,"rental_uris":{"android":"levelo://app?vid=b1b7584c-cd11-40c0-a403-7dde6fbb4fb4","ios":"levelo://app?vid=b1b7584c-cd11-40c0-a403-7dde6fbb4fb4"},"vehicle_type_id":"4","last_reported":1686593306,"current_range_meters":17200,"station_id":"","pricing_plan_id":"free"},{"bike_id":"4ba5978d-bc3f-491c-b91a-3a868cfc0b88","system_id":"levelo_inurba_marseille","lat":43.261782,"lon":5.374515,"is_reserved":false,"is_disabled":false,"rental_uris":{"android":"levelo://app?vid=4ba5978d-bc3f-491c-b91a-3a868cfc0b88","ios":"levelo://app?vid=4ba5978d-bc3f-491c-b91a-3a868cfc0b88"},"vehicle_type_id":"4","last_reported":1686593306,"current_range_meters":22800,"station_id":"ce4bhgp2rcd13ifvqfc0","pricing_plan_id":"free"},{"bike_id":"fc603de6-10bc-460c-805a-3e45af213258","system_id":"levelo_inurba_marseille","lat":43.317104,"lon":5.436818,"is_reserved":false,"is_disabled":false,"rental_uris":{"android":"levelo://app?vid=fc603de6-10bc-460c-805a-3e45af213258","ios":"levelo://app?vid=fc603de6-10bc-460c-805a-3e45af213258"},"vehicle_type_id":"4","last_reported":1686593306,"current_range_meters":5600,"station_id":"ce4bhp92rcd13ifvqhcg","pricing_plan_id":"free"},{"bike_id":"9a6a731a-6d2b-4d09-bc62-0e4b11f47f9f","system_id":"levelo_inurba_marseille","lat":43.317104,"lon":5.436818,"is_reserved":false,"is_disabled":false,"rental_uris":{"android":"levelo://app?vid=9a6a731a-6d2b-4d09-bc62-0e4b11f47f9f","ios":"levelo://app?vid=9a6a731a-6d2b-4d09-bc62-0e4b11f47f9f"},"vehicle_type_id":"4","last_reported":1686593306,"current_range_meters":8400,"station_id":"ce4bhp92rcd13ifvqhcg","pricing_plan_id":"free"},{"bike_id":"0c8d9468-5ec1-4dc3-89e6-00b7b1646832","system_id":"levelo_inurba_marseille","lat":43.317104,"lon":5.436818,"is_reserved":false,"is_disabled":false,"rental_uris":{"android":"levelo://app?vid=0c8d9468-5ec1-4dc3-89e6-00b7b1646832","ios":"levelo://app?vid=0c8d9468-5ec1-4dc3-89e6-00b7b1646832"},"vehicle_type_id":"4","last_reported":1686593306,"current_range_meters":16800,"station_id":"ce4bhp92rcd13ifvqhcg","pricing_plan_id":"free"},{"bike_id":"7ce96ff6-920c-4e17-9d82-a1aae6b1d988","system_id":"levelo_inurba_marseille","lat":43.27184,"lon":5.40979,"is_reserved":false,"is_disabled":false,"rental_uris":{"android":"levelo://app?vid=7ce96ff6-920c-4e17-9d82-a1aae6b1d988","ios":"levelo://app?vid=7ce96ff6-920c-4e17-9d82-a1aae6b1d988"},"vehicle_type_id":"4","last_reported":1686593306,"current_range_meters":23600,"station_id":"","pricing_plan_id":"free"},{"bike_id":"d22a8864-2146-4129-a239-f4923d18a83b","system_id":"levelo_inurba_marseille","lat":43.27318,"lon":5.41218,"is_reserved":false,"is_disabled":false,"rental_uris":{"android":"levelo://app?vid=d22a8864-2146-4129-a239-f4923d18a83b","ios":"levelo://app?vid=d22a8864-2146-4129-a239-f4923d18a83b"},"vehicle_type_id":"4","last_reported":1686593306,"current_range_meters":17600,"station_id":"","pricing_plan_id":"free"},{"bike_id":"7c1260b6-c227-47f4-a3f4-28fb177842fd","system_id":"levelo_inurba_marseille","lat":43.26202,"lon":5.379299,"is_reserved":false,"is_disabled":false,"rental_uris":{"android":"levelo://app?vid=7c1260b6-c227-47f4-a3f4-28fb177842fd","ios":"levelo://app?vid=7c1260b6-c227-47f4-a3f4-28fb177842fd"},"vehicle_type_id":"4","last_reported":1686593306,"current_range_meters":2400,"station_id":"ce4bhjp2rcd13ifvqg90","pricing_plan_id":"free"},{"bike_id":"a1e9f7dc-d2f9-41c7-a6c8-a0f9a84c26fe","system_id":"levelo_inurba_marseille","lat":43.271388,"lon":5.409269,"is_reserved":false,"is_disabled":false,"rental_uris":{"android":"levelo://app?vid=a1e9f7dc-d2f9-41c7-a6c8-a0f9a84c26fe","ios":"levelo://app?vid=a1e9f7dc-d2f9-41c7-a6c8-a0f9a84c26fe"},"vehicle_type_id":"4","last_reported":1686593306,"current_range_meters":13600,"station_id":"ce4bhl12rcd13ifvqgf0","pricing_plan_id":"free"},{"bike_id":"b1b6bc0a-3c09-44e0-9f6d-357d4bfa3d8d","system_id":"levelo_inurba_marseille","lat":43.27966,"lon":5.42192,"is_reserved":false,"is_disabled":false,"rental_uris":{"android":"levelo://app?vid=b1b6bc0a-3c09-44e0-9f6d-357d4bfa3d8d","ios":"levelo://app?vid=b1b6bc0a-3c09-44e0-9f6d-357d4bfa3d8d"},"vehicle_type_id":"4","last_reported":1686593306,"current_range_meters":20000,"station_id":"","pricing_plan_id":"free"},{"bike_id":"8b1417d2-78b1-4e92-a332-2e7f3eefcb65","system_id":"levelo_inurba_marseille","lat":43.26027,"lon":5.37544,"is_reserved":false,"is_disabled":false,"rental_uris":{"android":"levelo://app?vid=8b1417d2-78b1-4e92-a332-2e7f3eefcb65","ios":"levelo://app?vid=8b1417d2-78b1-4e92-a332-2e7f3eefcb65"},"vehicle_type_id":"4","last_reported":1686593306,"current_range_meters":11600,"station_id":"ce4bhgh2rcd13ifvqfa0","pricing_plan_id":"free"},{"bike_id":"608221f5-1d3a-4d6b-a493-c89ac30a0802","system_id":"levelo_inurba_marseille","lat":43.275028,"lon":5.424534,"is_reserved":false,"is_disabled":false,"rental_uris":{"android":"levelo://app?vid=608221f5-1d3a-4d6b-a493-c89ac30a0802","ios":"levelo://app?vid=608221f5-1d3a-4d6b-a493-c89ac30a0802"},"vehicle_type_id":"4","last_reported":1686593306,"current_range_meters":0,"station_id":"ce4bhn92rcd13ifvqgrg","pricing_plan_id":"free"},{"bike_id":"39e405da-3764-4256-9236-9058198d66f6","system_id":"levelo_inurba_marseille","lat":43.254947,"lon":5.376454,"is_reserved":false,"is_disabled":false,"rental_uris":{"android":"levelo://app?vid=39e405da-3764-4256-9236-9058198d66f6","ios":"levelo://app?vid=39e405da-3764-4256-9236-9058198d66f6"},"vehicle_type_id":"4","last_reported":1686593306,"current_range_meters":31200,"station_id":"ce4bhh12rcd13ifvqff0","pricing_plan_id":"free"},{"bike_id":"03234a3f-5e4d-403f-9b8a-d70827b5ce56","system_id":"levelo_inurba_marseille","lat":43.254947,"lon":5.376454,"is_reserved":false,"is_disabled":false,"rental_uris":{"android":"levelo://app?vid=03234a3f-5e4d-403f-9b8a-d70827b5ce56","ios":"levelo://app?vid=03234a3f-5e4d-403f-9b8a-d70827b5ce56"},"vehicle_type_id":"4","last_reported":1686593306,"current_range_meters":31200,"station_id":"ce4bhh12rcd13ifvqff0","pricing_plan_id":"free"},{"bike_id":"feab4a4d-1025-4da2-8a9b-4fa20f487804","system_id":"levelo_inurba_marseille","lat":43.254947,"lon":5.376454,"is_reserved":false,"is_disabled":false,"rental_uris":{"android":"levelo://app?vid=feab4a4d-1025-4da2-8a9b-4fa20f487804","ios":"levelo://app?vid=feab4a4d-1025-4da2-8a9b-4fa20f487804"},"vehicle_type_id":"4","last_reported":1686593306,"current_range_meters":31200,"station_id":"ce4bhh12rcd13ifvqff0","pricing_plan_id":"free"},{"bike_id":"264cdbfc-f190-4442-a745-dc6641952cd2","system_id":"levelo_inurba_marseille","lat":43.254947,"lon":5.376454,"is_reserved":false,"is_disabled":false,"rental_uris":{"android":"levelo://app?vid=264cdbfc-f190-4442-a745-dc6641952cd2","ios":"levelo://app?vid=264cdbfc-f190-4442-a745-dc6641952cd2"},"vehicle_type_id":"4","last_reported":1686593306,"current_range_meters":31200,"station_id":"ce4bhh12rcd13ifvqff0","pricing_plan_id":"free"},{"bike_id":"382929cb-1a5f-40a9-9852-385323d5b76c","system_id":"levelo_inurba_marseille","lat":43.25497,"lon":5.37654,"is_reserved":false,"is_disabled":false,"rental_uris":{"android":"levelo://app?vid=382929cb-1a5f-40a9-9852-385323d5b76c","ios":"levelo://app?vid=382929cb-1a5f-40a9-9852-385323d5b76c"},"vehicle_type_id":"4","last_reported":1686593306,"current_range_meters":31200,"station_id":"ce4bhh12rcd13ifvqff0","pricing_plan_id":"free"},{"bike_id":"610a6e6d-a5d2-4601-9f69-e5188b635945","system_id":"levelo_inurba_marseille","lat":43.254947,"lon":5.376454,"is_reserved":false,"is_disabled":false,"rental_uris":{"android":"levelo://app?vid=610a6e6d-a5d2-4601-9f69-e5188b635945","ios":"levelo://app?vid=610a6e6d-a5d2-4601-9f69-e5188b635945"},"vehicle_type_id":"4","last_reported":1686593306,"current_range_meters":29200,"station_id":"ce4bhh12rcd13ifvqff0","pricing_plan_id":"free"},{"bike_id":"7818be98-4337-4f49-8669-85dfe8f60c31","system_id":"levelo_inurba_marseille","lat":43.270721,"lon":5.422764,"is_reserved":false,"is_disabled":false,"rental_uris":{"android":"levelo://app?vid=7818be98-4337-4f49-8669-85dfe8f60c31","ios":"levelo://app?vid=7818be98-4337-4f49-8669-85dfe8f60c31"},"vehicle_type_id":"4","last_reported":1686593306,"current_range_meters":22400,"station_id":"ce4bhk92rcd13ifvqgb0","pricing_plan_id":"free"},{"bike_id":"a3377990-0813-459f-bdf7-3e4f30e52a04","system_id":"levelo_inurba_marseille","lat":43.28277,"lon":5.44307,"is_reserved":false,"is_disabled":false,"rental_uris":{"android":"levelo://app?vid=a3377990-0813-459f-bdf7-3e4f30e52a04","ios":"levelo://app?vid=a3377990-0813-459f-bdf7-3e4f30e52a04"},"vehicle_type_id":"4","last_reported":1686593306,"current_range_meters":18800,"station_id":"","pricing_plan_id":"free"},{"bike_id":"a461e144-dfa1-4b4b-9b52-6a80a1d0d572","system_id":"levelo_inurba_marseille","lat":43.24808,"lon":5.37454,"is_reserved":false,"is_disabled":false,"rental_uris":{"android":"levelo://app?vid=a461e144-dfa1-4b4b-9b52-6a80a1d0d572","ios":"levelo://app?vid=a461e144-dfa1-4b4b-9b52-6a80a1d0d572"},"vehicle_type_id":"4","last_reported":1686593306,"current_range_meters":31200,"station_id":"ce4bhgh2rcd13ifvqfb0","pricing_plan_id":"free"},{"bike_id":"c3eb2168-5ffa-4b5b-8011-9348d4e05182","system_id":"levelo_inurba_marseille","lat":43.24807,"lon":5.37455,"is_reserved":false,"is_disabled":false,"rental_uris":{"android":"levelo://app?vid=c3eb2168-5ffa-4b5b-8011-9348d4e05182","ios":"levelo://app?vid=c3eb2168-5ffa-4b5b-8011-9348d4e05182"},"vehicle_type_id":"4","last_reported":1686593306,"current_range_meters":31200,"station_id":"ce4bhgh2rcd13ifvqfb0","pricing_plan_id":"free"},{"bike_id":"34b0a89e-6c45-45c4-8b9c-03a578f9c4e5","system_id":"levelo_inurba_marseille","lat":43.24807,"lon":5.3746,"is_reserved":false,"is_disabled":false,"rental_uris":{"android":"levelo://app?vid=34b0a89e-6c45-45c4-8b9c-03a578f9c4e5","ios":"levelo://app?vid=34b0a89e-6c45-45c4-8b9c-03a578f9c4e5"},"vehicle_type_id":"4","last_reported":1686593306,"current_range_meters":31200,"station_id":"ce4bhgh2rcd13ifvqfb0","pricing_plan_id":"free"},{"bike_id":"20f45c24-f5fa-4727-8370-934ea32f614b","system_id":"levelo_inurba_marseille","lat":43.2479,"lon":5.374457,"is_reserved":false,"is_disabled":false,"rental_uris":{"android":"levelo://app?vid=20f45c24-f5fa-4727-8370-934ea32f614b","ios":"levelo://app?vid=20f45c24-f5fa-4727-8370-934ea32f614b"},"vehicle_type_id":"4","last_reported":1686593306,"current_range_meters":27600,"station_id":"ce4bhgh2rcd13ifvqfb0","pricing_plan_id":"free"},{"bike_id":"f8ad5b1c-61ee-4466-a6d0-d5e222f201ae","system_id":"levelo_inurba_marseille","lat":43.2479,"lon":5.374457,"is_reserved":false,"is_disabled":false,"rental_uris":{"android":"levelo://app?vid=f8ad5b1c-61ee-4466-a6d0-d5e222f201ae","ios":"levelo://app?vid=f8ad5b1c-61ee-4466-a6d0-d5e222f201ae"},"vehicle_type_id":"4","last_reported":1686593306,"current_range_meters":20800,"station_id":"ce4bhgh2rcd13ifvqfb0","pricing_plan_id":"free"},{"bike_id":"1b70d546-7ebf-487c-a89d-5757f0bb59bf","system_id":"levelo_inurba_marseille","lat":43.25088,"lon":5.39523,"is_reserved":false,"is_disabled":false,"rental_uris":{"android":"levelo://app?vid=1b70d546-7ebf-487c-a89d-5757f0bb59bf","ios":"levelo://app?vid=1b70d546-7ebf-487c-a89d-5757f0bb59bf"},"vehicle_type_id":"4","last_reported":1686593306,"current_range_meters":19200,"station_id":"ce4bhm12rcd13ifvqgkg","pricing_plan_id":"free"},{"bike_id":"24055454-58c3-45f5-8e51-c85eccd0a2ba","system_id":"levelo_inurba_marseille","lat":43.25084,"lon":5.39525,"is_reserved":false,"is_disabled":false,"rental_uris":{"android":"levelo://app?vid=24055454-58c3-45f5-8e51-c85eccd0a2ba","ios":"levelo://app?vid=24055454-58c3-45f5-8e51-c85eccd0a2ba"},"vehicle_type_id":"4","last_reported":1686593306,"current_range_meters":10400,"station_id":"ce4bhm12rcd13ifvqgkg","pricing_plan_id":"free"},{"bike_id":"be66a180-58ce-4e32-a463-5f524a5c4020","system_id":"levelo_inurba_marseille","lat":43.250966,"lon":5.395186,"is_reserved":false,"is_disabled":false,"rental_uris":{"android":"levelo://app?vid=be66a180-58ce-4e32-a463-5f524a5c4020","ios":"levelo://app?vid=be66a180-58ce-4e32-a463-5f524a5c4020"},"vehicle_type_id":"4","last_reported":1686593306,"current_range_meters":17200,"station_id":"ce4bhm12rcd13ifvqgkg","pricing_plan_id":"free"},{"bike_id":"10acbba3-5b1c-46f3-9541-b728ffcbbdd4","system_id":"levelo_inurba_marseille","lat":43.2479,"lon":5.374457,"is_reserved":false,"is_disabled":false,"rental_uris":{"android":"levelo://app?vid=10acbba3-5b1c-46f3-9541-b728ffcbbdd4","ios":"levelo://app?vid=10acbba3-5b1c-46f3-9541-b728ffcbbdd4"},"vehicle_type_id":"4","last_reported":1686593306,"current_range_meters":18000,"station_id":"ce4bhgh2rcd13ifvqfb0","pricing_plan_id":"free"},{"bike_id":"d07e1a74-065c-41f3-92d2-7d1f34ce5e76","system_id":"levelo_inurba_marseille","lat":43.25102,"lon":5.403214,"is_reserved":false,"is_disabled":false,"rental_uris":{"android":"levelo://app?vid=d07e1a74-065c-41f3-92d2-7d1f34ce5e76","ios":"levelo://app?vid=d07e1a74-065c-41f3-92d2-7d1f34ce5e76"},"vehicle_type_id":"4","last_reported":1686593306,"current_range_meters":0,"station_id":"ce4bhlh2rcd13ifvqgig","pricing_plan_id":"free"},{"bike_id":"6cf77f71-a9e9-4fc9-bf2b-a37f44deb59a","system_id":"levelo_inurba_marseille","lat":43.24723,"lon":5.39273,"is_reserved":false,"is_disabled":false,"rental_uris":{"android":"levelo://app?vid=6cf77f71-a9e9-4fc9-bf2b-a37f44deb59a","ios":"levelo://app?vid=6cf77f71-a9e9-4fc9-bf2b-a37f44deb59a"},"vehicle_type_id":"4","last_reported":1686593306,"current_range_meters":3200,"station_id":"","pricing_plan_id":"free"},{"bike_id":"428f32ff-b59a-4b24-b60c-d5f978d7c303","system_id":"levelo_inurba_marseille","lat":43.24391,"lon":5.37056,"is_reserved":false,"is_disabled":false,"rental_uris":{"android":"levelo://app?vid=428f32ff-b59a-4b24-b60c-d5f978d7c303","ios":"levelo://app?vid=428f32ff-b59a-4b24-b60c-d5f978d7c303"},"vehicle_type_id":"4","last_reported":1686593306,"current_range_meters":0,"station_id":"ce4bhhh2rcd13ifvqfk0","pricing_plan_id":"free"},{"bike_id":"9aec4c27-43dc-4a49-a56d-a78c68ebd98a","system_id":"levelo_inurba_marseille","lat":43.34675,"lon":5.44953,"is_reserved":false,"is_disabled":false,"rental_uris":{"android":"levelo://app?vid=9aec4c27-43dc-4a49-a56d-a78c68ebd98a","ios":"levelo://app?vid=9aec4c27-43dc-4a49-a56d-a78c68ebd98a"},"vehicle_type_id":"4","last_reported":1686593306,"current_range_meters":2400,"station_id":"","pricing_plan_id":"free"},{"bike_id":"123cb8c3-9584-4c1e-b550-22c093ffe8f5","system_id":"levelo_inurba_marseille","lat":43.245581,"lon":5.395069,"is_reserved":false,"is_disabled":false,"rental_uris":{"android":"levelo://app?vid=123cb8c3-9584-4c1e-b550-22c093ffe8f5","ios":"levelo://app?vid=123cb8c3-9584-4c1e-b550-22c093ffe8f5"},"vehicle_type_id":"4","last_reported":1686593306,"current_range_meters":1200,"station_id":"ce4bhlp2rcd13ifvqgjg","pricing_plan_id":"free"},{"bike_id":"7176cfc0-3dc0-4245-b252-7b3abac501f9","system_id":"levelo_inurba_marseille","lat":43.245581,"lon":5.395069,"is_reserved":false,"is_disabled":false,"rental_uris":{"android":"levelo://app?vid=7176cfc0-3dc0-4245-b252-7b3abac501f9","ios":"levelo://app?vid=7176cfc0-3dc0-4245-b252-7b3abac501f9"},"vehicle_type_id":"4","last_reported":1686593306,"current_range_meters":3200,"station_id":"ce4bhlp2rcd13ifvqgjg","pricing_plan_id":"free"},{"bike_id":"3320f550-4fed-4dae-8bda-a80ba27339e7","system_id":"levelo_inurba_marseille","lat":43.245581,"lon":5.395069,"is_reserved":false,"is_disabled":false,"rental_uris":{"android":"levelo://app?vid=3320f550-4fed-4dae-8bda-a80ba27339e7","ios":"levelo://app?vid=3320f550-4fed-4dae-8bda-a80ba27339e7"},"vehicle_type_id":"4","last_reported":1686593306,"current_range_meters":22000,"station_id":"ce4bhlp2rcd13ifvqgjg","pricing_plan_id":"free"},{"bike_id":"f754ef1b-ead7-41b2-b642-7ab236182e56","system_id":"levelo_inurba_marseille","lat":43.245581,"lon":5.395069,"is_reserved":false,"is_disabled":false,"rental_uris":{"android":"levelo://app?vid=f754ef1b-ead7-41b2-b642-7ab236182e56","ios":"levelo://app?vid=f754ef1b-ead7-41b2-b642-7ab236182e56"},"vehicle_type_id":"4","last_reported":1686593306,"current_range_meters":9200,"station_id":"ce4bhlp2rcd13ifvqgjg","pricing_plan_id":"free"},{"bike_id":"1e61593d-33a7-4911-93fe-0a3107f5d6d0","system_id":"levelo_inurba_marseille","lat":43.28886,"lon":5.45952,"is_reserved":false,"is_disabled":false,"rental_uris":{"android":"levelo://app?vid=1e61593d-33a7-4911-93fe-0a3107f5d6d0","ios":"levelo://app?vid=1e61593d-33a7-4911-93fe-0a3107f5d6d0"},"vehicle_type_id":"4","last_reported":1686593306,"current_range_meters":23600,"station_id":"","pricing_plan_id":"free"},{"bike_id":"a830ec82-8ef3-42b7-afbc-189bca6d41f3","system_id":"levelo_inurba_marseille","lat":43.24078,"lon":5.37754,"is_reserved":false,"is_disabled":false,"rental_uris":{"android":"levelo://app?vid=a830ec82-8ef3-42b7-afbc-189bca6d41f3","ios":"levelo://app?vid=a830ec82-8ef3-42b7-afbc-189bca6d41f3"},"vehicle_type_id":"4","last_reported":1686593306,"current_range_meters":19600,"station_id":"","pricing_plan_id":"free"},{"bike_id":"72772d09-0bfe-4914-a97d-16da3d898f28","system_id":"levelo_inurba_marseille","lat":43.24076,"lon":5.37756,"is_reserved":false,"is_disabled":false,"rental_uris":{"android":"levelo://app?vid=72772d09-0bfe-4914-a97d-16da3d898f28","ios":"levelo://app?vid=72772d09-0bfe-4914-a97d-16da3d898f28"},"vehicle_type_id":"4","last_reported":1686593306,"current_range_meters":10800,"station_id":"","pricing_plan_id":"free"},{"bike_id":"b6e8a818-a743-45c8-8e22-da71a7297f93","system_id":"levelo_inurba_marseille","lat":43.239588,"lon":5.366238,"is_reserved":false,"is_disabled":false,"rental_uris":{"android":"levelo://app?vid=b6e8a818-a743-45c8-8e22-da71a7297f93","ios":"levelo://app?vid=b6e8a818-a743-45c8-8e22-da71a7297f93"},"vehicle_type_id":"4","last_reported":1686593306,"current_range_meters":31200,"station_id":"ce4bhi12rcd13ifvqfp0","pricing_plan_id":"free"},{"bike_id":"5681102e-7ec9-42db-970d-da0b072972ce","system_id":"levelo_inurba_marseille","lat":43.23952,"lon":5.36602,"is_reserved":false,"is_disabled":false,"rental_uris":{"android":"levelo://app?vid=5681102e-7ec9-42db-970d-da0b072972ce","ios":"levelo://app?vid=5681102e-7ec9-42db-970d-da0b072972ce"},"vehicle_type_id":"4","last_reported":1686593306,"current_range_meters":31200,"station_id":"ce4bhi12rcd13ifvqfp0","pricing_plan_id":"free"},{"bike_id":"8d13fa79-6873-46ed-a60f-7f989a10b117","system_id":"levelo_inurba_marseille","lat":43.24681,"lon":5.41276,"is_reserved":false,"is_disabled":false,"rental_uris":{"android":"levelo://app?vid=8d13fa79-6873-46ed-a60f-7f989a10b117","ios":"levelo://app?vid=8d13fa79-6873-46ed-a60f-7f989a10b117"},"vehicle_type_id":"4","last_reported":1686593306,"current_range_meters":31200,"station_id":"","pricing_plan_id":"free"},{"bike_id":"1b16a91f-124c-46cb-8e13-0af8215ed73c","system_id":"levelo_inurba_marseille","lat":43.241782,"lon":5.397264,"is_reserved":false,"is_disabled":false,"rental_uris":{"android":"levelo://app?vid=1b16a91f-124c-46cb-8e13-0af8215ed73c","ios":"levelo://app?vid=1b16a91f-124c-46cb-8e13-0af8215ed73c"},"vehicle_type_id":"4","last_reported":1686593306,"current_range_meters":14800,"station_id":"ce4bhn12rcd13ifvqgpg","pricing_plan_id":"free"},{"bike_id":"436f659e-db9f-478c-aa43-e2a3d460b14d","system_id":"levelo_inurba_marseille","lat":43.241782,"lon":5.397264,"is_reserved":false,"is_disabled":false,"rental_uris":{"android":"levelo://app?vid=436f659e-db9f-478c-aa43-e2a3d460b14d","ios":"levelo://app?vid=436f659e-db9f-478c-aa43-e2a3d460b14d"},"vehicle_type_id":"4","last_reported":1686593306,"current_range_meters":31200,"station_id":"ce4bhn12rcd13ifvqgpg","pricing_plan_id":"free"},{"bike_id":"3b9c37bf-9efc-4073-adbc-b2b16e44d8a3","system_id":"levelo_inurba_marseille","lat":43.23538,"lon":5.36077,"is_reserved":false,"is_disabled":false,"rental_uris":{"android":"levelo://app?vid=3b9c37bf-9efc-4073-adbc-b2b16e44d8a3","ios":"levelo://app?vid=3b9c37bf-9efc-4073-adbc-b2b16e44d8a3"},"vehicle_type_id":"4","last_reported":1686593306,"current_range_meters":23600,"station_id":"","pricing_plan_id":"free"},{"bike_id":"2e31b467-1c6d-47da-9c52-0783ad7e2da9","system_id":"levelo_inurba_marseille","lat":43.231919,"lon":5.355532,"is_reserved":false,"is_disabled":false,"rental_uris":{"android":"levelo://app?vid=2e31b467-1c6d-47da-9c52-0783ad7e2da9","ios":"levelo://app?vid=2e31b467-1c6d-47da-9c52-0783ad7e2da9"},"vehicle_type_id":"4","last_reported":1686593306,"current_range_meters":4800,"station_id":"ce4bhu92rcd13ifvqi70","pricing_plan_id":"free"},{"bike_id":"3ab7a0ed-6f1f-40dc-abfc-c8635562d3b1","system_id":"levelo_inurba_marseille","lat":43.23188,"lon":5.35563,"is_reserved":false,"is_disabled":false,"rental_uris":{"android":"levelo://app?vid=3ab7a0ed-6f1f-40dc-abfc-c8635562d3b1","ios":"levelo://app?vid=3ab7a0ed-6f1f-40dc-abfc-c8635562d3b1"},"vehicle_type_id":"4","last_reported":1686593306,"current_range_meters":23600,"station_id":"ce4bhu92rcd13ifvqi70","pricing_plan_id":"free"},{"bike_id":"bf454184-6346-4249-bf98-6218248df4a0","system_id":"levelo_inurba_marseille","lat":43.231793,"lon":5.400044,"is_reserved":false,"is_disabled":false,"rental_uris":{"android":"levelo://app?vid=bf454184-6346-4249-bf98-6218248df4a0","ios":"levelo://app?vid=bf454184-6346-4249-bf98-6218248df4a0"},"vehicle_type_id":"4","last_reported":1686593306,"current_range_meters":29200,"station_id":"ce4bhn12rcd13ifvqgqg","pricing_plan_id":"free"},{"bike_id":"fc8e0b4f-584b-48fd-885a-0f66b6e992b2","system_id":"levelo_inurba_marseille","lat":43.23183,"lon":5.39979,"is_reserved":false,"is_disabled":false,"rental_uris":{"android":"levelo://app?vid=fc8e0b4f-584b-48fd-885a-0f66b6e992b2","ios":"levelo://app?vid=fc8e0b4f-584b-48fd-885a-0f66b6e992b2"},"vehicle_type_id":"4","last_reported":1686593306,"current_range_meters":31200,"station_id":"ce4bhn12rcd13ifvqgqg","pricing_plan_id":"free"},{"bike_id":"63c78c8f-0f8d-4207-8d4b-abbefe8d0ad8","system_id":"levelo_inurba_marseille","lat":43.23182,"lon":5.39982,"is_reserved":false,"is_disabled":false,"rental_uris":{"android":"levelo://app?vid=63c78c8f-0f8d-4207-8d4b-abbefe8d0ad8","ios":"levelo://app?vid=63c78c8f-0f8d-4207-8d4b-abbefe8d0ad8"},"vehicle_type_id":"4","last_reported":1686593306,"current_range_meters":24400,"station_id":"ce4bhn12rcd13ifvqgqg","pricing_plan_id":"free"},{"bike_id":"31695e33-cb62-43fd-83dc-3bdb490200e0","system_id":"levelo_inurba_marseille","lat":43.231793,"lon":5.400044,"is_reserved":false,"is_disabled":false,"rental_uris":{"android":"levelo://app?vid=31695e33-cb62-43fd-83dc-3bdb490200e0","ios":"levelo://app?vid=31695e33-cb62-43fd-83dc-3bdb490200e0"},"vehicle_type_id":"4","last_reported":1686593306,"current_range_meters":19200,"station_id":"ce4bhn12rcd13ifvqgqg","pricing_plan_id":"free"},{"bike_id":"81c29864-283f-4164-b362-97d2c309cf10","system_id":"levelo_inurba_marseille","lat":43.23173,"lon":5.40052,"is_reserved":false,"is_disabled":false,"rental_uris":{"android":"levelo://app?vid=81c29864-283f-4164-b362-97d2c309cf10","ios":"levelo://app?vid=81c29864-283f-4164-b362-97d2c309cf10"},"vehicle_type_id":"4","last_reported":1686593306,"current_range_meters":10000,"station_id":"","pricing_plan_id":"free"},{"bike_id":"d9068383-52b0-4f24-8305-fcd0fb16c612","system_id":"levelo_inurba_marseille","lat":43.28606,"lon":5.47737,"is_reserved":false,"is_disabled":false,"rental_uris":{"android":"levelo://app?vid=d9068383-52b0-4f24-8305-fcd0fb16c612","ios":"levelo://app?vid=d9068383-52b0-4f24-8305-fcd0fb16c612"},