{"last_updated":1756206584,"ttl":60,"version":"2.2","data":{"bikes":[{"bike_id":"1e4fec34-64d8-4e46-a1ee-7c8ad62199df","system_id":"levelo_inurba_marseille","lat":43.29256,"lon":5.38438,"is_reserved":false,"is_disabled":false,"rental_uris":{"android":"levelo://app?vid=1e4fec34-64d8-4e46-a1ee-7c8ad62199df","ios":"levelo://app?vid=1e4fec34-64d8-4e46-a1ee-7c8ad62199df"},"vehicle_type_id":"4","last_reported":1756206584,"current_range_meters":2800,"station_id":"ce4bh692rcd13ifvqea0","pricing_plan_id":"cebpf4jnsgd1na2vs0mg"},{"bike_id":"bd194d06-a166-42a8-95d4-0e30c99a021f","system_id":"levelo_inurba_marseille","lat":43.30554,"lon":5.36709,"is_reserved":false,"is_disabled":false,"rental_uris":{"android":"levelo://app?vid=bd194d06-a166-42a8-95d4-0e30c99a021f","ios":"levelo://app?vid=bd194d06-a166-42a8-95d4-0e30c99a021f"},"vehicle_type_id":"4","last_reported":1756206584,"current_range_meters":2800,"station_id":"ce4bgrp2rcd13ifvqc9g","pricing_plan_id":"cebpf4jnsgd1na2vs0mg"},{"bike_id":"44ce78c9-c7e8-4cae-881e-b43a8a4aea0a","system_id":"levelo_inurba_marseille","lat":43.2782,"lon":5.4071,"is_reserved":false,"is_disabled":false,"rental_uris":{"android":"levelo://app?vid=44ce78c9-c7e8-4cae-881e-b43a8a4aea0a","ios":"levelo://app?vid=44ce78c9-c7e8-4cae-881e-b43a8a4aea0a"},"vehicle_type_id":"4","last_reported":1756206584,"current_range_meters":3200,"station_id":"ce4bhnh2rcd13ifvqgtg","pricing_plan_id":"cebpf4jnsgd1na2vs0mg"},{"bike_id":"b2ef36d0-b194-4bbb-b36e-f342c717f029","system_id":"levelo_inurba_marseille","lat":43.29848,"lon":5.36281,"is_reserved":false,"is_disabled":false,"rental_uris":{"android":"levelo://app?vid=b2ef36d0-b194-4bbb-b36e-f342c717f029","ios":"levelo://app?vid=b2ef36d0-b194-4bbb-b36e-f342c717f029"},"vehicle_type_id":"4","last_reported":1756206584,"current_range_meters":3200,"station_id":"ce4bgpp2rcd13ifvqc3g","pricing_plan_id":"cebpf4jnsgd1na2vs0mg"},{"bike_id":"5a94cd1f-5ae1-47d0-a15d-d5554856827f","system_id":"levelo_inurba_marseille","lat":43.30577,"lon":5.37478,"is_reserved":false,"is_disabled":false,"rental_uris":{"android":"levelo://app?vid=5a94cd1f-5ae1-47d0-a15d-d5554856827f","ios":"levelo://app?vid=5a94cd1f-5ae1-47d0-a15d-d5554856827f"},"vehicle_type_id":"4","last_reported":1756206584,"current_range_meters":3600,"station_id":"","pricing_plan_id":"cebpf4jnsgd1na2vs0mg"},{"bike_id":"0490c530-845d-44f9-bf75-09a8b4d2b9b9","system_id":"levelo_inurba_marseille","lat":43.297498,"lon":5.380828,"is_reserved":false,"is_disabled":false,"rental_uris":{"android":"levelo://app?vid=0490c530-845d-44f9-bf75-09a8b4d2b9b9","ios":"levelo://app?vid=0490c530-845d-44f9-bf75-09a8b4d2b9b9"},"vehicle_type_id":"4","last_reported":1756206584,"current_range_meters":3600,"station_id":"ce4bgip2rcd13ifvqbb0","pricing_plan_id":"cebpf4jnsgd1na2vs0mg"},{"bike_id":"8278d03d-5584-48a8-a86a-7847a162c713","system_id":"levelo_inurba_marseille","lat":43.30904,"lon":5.38151,"is_reserved":false,"is_disabled":false,"rental_uris":{"android":"levelo://app?vid=8278d03d-5584-48a8-a86a-7847a162c713","ios":"levelo://app?vid=8278d03d-5584-48a8-a86a-7847a162c713"},"vehicle_type_id":"4","last_reported":1756206584,"current_range_meters":3600,"station_id":"","pricing_plan_id":"cebpf4jnsgd1na2vs0mg"},{"bike_id":"158fe4a9-48cc-491f-95fd-2aa73bd55cc0","system_id":"levelo_inurba_marseille","lat":43.3057,"lon":5.369084,"is_reserved":false,"is_disabled":false,"rental_uris":{"android":"levelo://app?vid=158fe4a9-48cc-491f-95fd-2aa73bd55cc0","ios":"levelo://app?vid=158fe4a9-48cc-491f-95fd-2aa73bd55cc0"},"vehicle_type_id":"4","last_reported":1756206584,"current_range_meters":3600,"station_id":"","pricing_plan_id":"cebpf4jnsgd1na2vs0mg"},{"bike_id":"760373f7-a351-4041-9269-0a973b0b4d16","system_id":"levelo_inurba_marseille","lat":43.28613,"lon":5.35101,"is_reserved":false,"is_disabled":false,"rental_uris":{"android":"levelo://app?vid=760373f7-a351-4041-9269-0a973b0b4d16","ios":"levelo://app?vid=760373f7-a351-4041-9269-0a973b0b4d16"},"vehicle_type_id":"4","last_reported":1756206584,"current_range_meters":4800,"station_id":"ce4bhch2rcd13ifvqeug","pricing_plan_id":"cebpf4jnsgd1na2vs0mg"},{"bike_id":"ad383f51-f96f-41f9-ab54-4323b2827356","system_id":"levelo_inurba_marseille","lat":43.28485,"lon":5.38406,"is_reserved":false,"is_disabled":false,"rental_uris":{"android":"levelo://app?vid=ad383f51-f96f-41f9-ab54-4323b2827356","ios":"levelo://app?vid=ad383f51-f96f-41f9-ab54-4323b2827356"},"vehicle_type_id":"4","last_reported":1756206584,"current_range_meters":4800,"station_id":"ce4bh512rcd13ifvqe3g","pricing_plan_id":"cebpf4jnsgd1na2vs0mg"},{"bike_id":"a16a3d98-0bb5-41b5-9c33-39e8a59e7977","system_id":"levelo_inurba_marseille","lat":43.23146,"lon":5.43712,"is_reserved":false,"is_disabled":false,"rental_uris":{"android":"levelo://app?vid=a16a3d98-0bb5-41b5-9c33-39e8a59e7977","ios":"levelo://app?vid=a16a3d98-0bb5-41b5-9c33-39e8a59e7977"},"vehicle_type_id":"4","last_reported":1756206584,"current_range_meters":4800,"station_id":"ce4bhmp2rcd13ifvqgog","pricing_plan_id":"cebpf4jnsgd1na2vs0mg"},{"bike_id":"b0f358be-0080-4db6-81d0-22fa973b2a45","system_id":"levelo_inurba_marseille","lat":43.28706,"lon":5.37967,"is_reserved":false,"is_disabled":true,"rental_uris":{"android":"levelo://app?vid=b0f358be-0080-4db6-81d0-22fa973b2a45","ios":"levelo://app?vid=b0f358be-0080-4db6-81d0-22fa973b2a45"},"vehicle_type_id":"4","last_reported":1756206584,"current_range_meters":5600,"station_id":"ce4bh9p2rcd13ifvqec0","pricing_plan_id":"cebpf4jnsgd1na2vs0mg"},{"bike_id":"12903412-7204-48cc-9970-2f7ec7d05e1d","system_id":"levelo_inurba_marseille","lat":43.28458,"lon":5.35884,"is_reserved":false,"is_disabled":false,"rental_uris":{"android":"levelo://app?vid=12903412-7204-48cc-9970-2f7ec7d05e1d","ios":"levelo://app?vid=12903412-7204-48cc-9970-2f7ec7d05e1d"},"vehicle_type_id":"4","last_reported":1756206584,"current_range_meters":5600,"station_id":"ce4bhah2rcd13ifvqei0","pricing_plan_id":"cebpf4jnsgd1na2vs0mg"},{"bike_id":"2683610e-da32-4841-826f-41fa4f434078","system_id":"levelo_inurba_marseille","lat":43.2175,"lon":5.34604,"is_reserved":false,"is_disabled":false,"rental_uris":{"android":"levelo://app?vid=2683610e-da32-4841-826f-41fa4f434078","ios":"levelo://app?vid=2683610e-da32-4841-826f-41fa4f434078"},"vehicle_type_id":"4","last_reported":1756206584,"current_range_meters":5600,"station_id":"","pricing_plan_id":"cebpf4jnsgd1na2vs0mg"},{"bike_id":"35ccb66f-f300-4cb1-aa26-fa863abb0a52","system_id":"levelo_inurba_marseille","lat":43.284075,"lon":5.375212,"is_reserved":false,"is_disabled":false,"rental_uris":{"android":"levelo://app?vid=35ccb66f-f300-4cb1-aa26-fa863abb0a52","ios":"levelo://app?vid=35ccb66f-f300-4cb1-aa26-fa863abb0a52"},"vehicle_type_id":"4","last_reported":1756206584,"current_range_meters":6000,"station_id":"ce4bh412rcd13ifvqds0","pricing_plan_id":"cebpf4jnsgd1na2vs0mg"},{"bike_id":"ae6e7466-f79a-43dd-ba01-51043638613b","system_id":"levelo_inurba_marseille","lat":43.22775,"lon":5.34951,"is_reserved":false,"is_disabled":false,"rental_uris":{"android":"levelo://app?vid=ae6e7466-f79a-43dd-ba01-51043638613b","ios":"levelo://app?vid=ae6e7466-f79a-43dd-ba01-51043638613b"},"vehicle_type_id":"4","last_reported":1756206584,"current_range_meters":6000,"station_id":"","pricing_plan_id":"cebpf4jnsgd1na2vs0mg"},{"bike_id":"c4ccc10f-8ccd-44be-a00a-f6ebdc6ec159","system_id":"levelo_inurba_marseille","lat":43.30391,"lon":5.4343,"is_reserved":false,"is_disabled":false,"rental_uris":{"android":"levelo://app?vid=c4ccc10f-8ccd-44be-a00a-f6ebdc6ec159","ios":"levelo://app?vid=c4ccc10f-8ccd-44be-a00a-f6ebdc6ec159"},"vehicle_type_id":"4","last_reported":1756206584,"current_range_meters":6400,"station_id":"","pricing_plan_id":"cebpf4jnsgd1na2vs0mg"},{"bike_id":"5460667f-33c3-4e8d-8ece-a4e491713ed9","system_id":"levelo_inurba_marseille","lat":43.29686,"lon":5.40374,"is_reserved":false,"is_disabled":false,"rental_uris":{"android":"levelo://app?vid=5460667f-33c3-4e8d-8ece-a4e491713ed9","ios":"levelo://app?vid=5460667f-33c3-4e8d-8ece-a4e491713ed9"},"vehicle_type_id":"4","last_reported":1756206584,"current_range_meters":6400,"station_id":"","pricing_plan_id":"cebpf4jnsgd1na2vs0mg"},{"bike_id":"fb0ecd7c-2c0f-42f1-9e73-9448c9893367","system_id":"levelo_inurba_marseille","lat":43.2649,"lon":5.37032,"is_reserved":false,"is_disabled":false,"rental_uris":{"android":"levelo://app?vid=fb0ecd7c-2c0f-42f1-9e73-9448c9893367","ios":"levelo://app?vid=fb0ecd7c-2c0f-42f1-9e73-9448c9893367"},"vehicle_type_id":"4","last_reported":1756206584,"current_range_meters":6400,"station_id":"","pricing_plan_id":"cebpf4jnsgd1na2vs0mg"},{"bike_id":"b8c68abe-c60a-4e7d-8a17-d2f7c7df2f3d","system_id":"levelo_inurba_marseille","lat":43.2998,"lon":5.37184,"is_reserved":false,"is_disabled":false,"rental_uris":{"android":"levelo://app?vid=b8c68abe-c60a-4e7d-8a17-d2f7c7df2f3d","ios":"levelo://app?vid=b8c68abe-c60a-4e7d-8a17-d2f7c7df2f3d"},"vehicle_type_id":"4","last_reported":1756206584,"current_range_meters":6400,"station_id":"ce4bgr92rcd13ifvqc7g","pricing_plan_id":"cebpf4jnsgd1na2vs0mg"},{"bike_id":"b1695d48-9dff-437a-83f7-f4e3cbe4e762","system_id":"levelo_inurba_marseille","lat":43.21745,"lon":5.34597,"is_reserved":false,"is_disabled":false,"rental_uris":{"android":"levelo://app?vid=b1695d48-9dff-437a-83f7-f4e3cbe4e762","ios":"levelo://app?vid=b1695d48-9dff-437a-83f7-f4e3cbe4e762"},"vehicle_type_id":"4","last_reported":1756206584,"current_range_meters":6800,"station_id":"st_cvj6r9ubvosntc0bgbag","pricing_plan_id":"cebpf4jnsgd1na2vs0mg"},{"bike_id":"02b0a478-f2ad-4f5c-8fb7-17e5ebc40341","system_id":"levelo_inurba_marseille","lat":43.291505,"lon":5.40016,"is_reserved":false,"is_disabled":false,"rental_uris":{"android":"levelo://app?vid=02b0a478-f2ad-4f5c-8fb7-17e5ebc40341","ios":"levelo://app?vid=02b0a478-f2ad-4f5c-8fb7-17e5ebc40341"},"vehicle_type_id":"4","last_reported":1756206584,"current_range_meters":6800,"station_id":"ce4bh392rcd13ifvqdm0","pricing_plan_id":"cebpf4jnsgd1na2vs0mg"},{"bike_id":"b94d59c2-11f5-4181-964f-aef6cffcfbfa","system_id":"levelo_inurba_marseille","lat":43.290131,"lon":5.356228,"is_reserved":false,"is_disabled":false,"rental_uris":{"android":"levelo://app?vid=b94d59c2-11f5-4181-964f-aef6cffcfbfa","ios":"levelo://app?vid=b94d59c2-11f5-4181-964f-aef6cffcfbfa"},"vehicle_type_id":"4","last_reported":1756206584,"current_range_meters":6800,"station_id":"ce4bhb92rcd13ifvqen0","pricing_plan_id":"cebpf4jnsgd1na2vs0mg"},{"bike_id":"b8939cd5-2242-4c1f-ae5a-751bc38b3c0b","system_id":"levelo_inurba_marseille","lat":43.297943,"lon":5.381009,"is_reserved":false,"is_disabled":false,"rental_uris":{"android":"levelo://app?vid=b8939cd5-2242-4c1f-ae5a-751bc38b3c0b","ios":"levelo://app?vid=b8939cd5-2242-4c1f-ae5a-751bc38b3c0b"},"vehicle_type_id":"4","last_reported":1756206584,"current_range_meters":7200,"station_id":"ce4bgip2rcd13ifvqbb0","pricing_plan_id":"cebpf4jnsgd1na2vs0mg"},{"bike_id":"91ba07d0-ec17-4cf9-b8e4-e528aba285db","system_id":"levelo_inurba_marseille","lat":43.24543,"lon":5.39521,"is_reserved":false,"is_disabled":false,"rental_uris":{"android":"levelo://app?vid=91ba07d0-ec17-4cf9-b8e4-e528aba285db","ios":"levelo://app?vid=91ba07d0-ec17-4cf9-b8e4-e528aba285db"},"vehicle_type_id":"4","last_reported":1756206584,"current_range_meters":7200,"station_id":"ce4bhlp2rcd13ifvqgjg","pricing_plan_id":"cebpf4jnsgd1na2vs0mg"},{"bike_id":"b8204ec2-89d0-4aee-b059-4addade5a748","system_id":"levelo_inurba_marseille","lat":43.28037,"lon":5.36945,"is_reserved":false,"is_disabled":false,"rental_uris":{"android":"levelo://app?vid=b8204ec2-89d0-4aee-b059-4addade5a748","ios":"levelo://app?vid=b8204ec2-89d0-4aee-b059-4addade5a748"},"vehicle_type_id":"4","last_reported":1756206584,"current_range_meters":7200,"station_id":"ce4bha12rcd13ifvqef0","pricing_plan_id":"cebpf4jnsgd1na2vs0mg"},{"bike_id":"4914b99b-bbad-44c9-8c7f-2b8a4a7b66e2","system_id":"levelo_inurba_marseille","lat":43.31226,"lon":5.36859,"is_reserved":false,"is_disabled":false,"rental_uris":{"android":"levelo://app?vid=4914b99b-bbad-44c9-8c7f-2b8a4a7b66e2","ios":"levelo://app?vid=4914b99b-bbad-44c9-8c7f-2b8a4a7b66e2"},"vehicle_type_id":"4","last_reported":1756206584,"current_range_meters":7200,"station_id":"ce4bgl92rcd13ifvqbq0","pricing_plan_id":"cebpf4jnsgd1na2vs0mg"},{"bike_id":"f1fe5379-1bdf-4970-ae21-6bf7f8fac95a","system_id":"levelo_inurba_marseille","lat":43.29511,"lon":5.37566,"is_reserved":false,"is_disabled":false,"rental_uris":{"android":"levelo://app?vid=f1fe5379-1bdf-4970-ae21-6bf7f8fac95a","ios":"levelo://app?vid=f1fe5379-1bdf-4970-ae21-6bf7f8fac95a"},"vehicle_type_id":"4","last_reported":1756206584,"current_range_meters":8000,"station_id":"","pricing_plan_id":"cebpf4jnsgd1na2vs0mg"},{"bike_id":"cbb5c190-2ba3-485b-9720-fac4e6b4811e","system_id":"levelo_inurba_marseille","lat":43.21746,"lon":5.34607,"is_reserved":false,"is_disabled":false,"rental_uris":{"android":"levelo://app?vid=cbb5c190-2ba3-485b-9720-fac4e6b4811e","ios":"levelo://app?vid=cbb5c190-2ba3-485b-9720-fac4e6b4811e"},"vehicle_type_id":"4","last_reported":1756206584,"current_range_meters":8000,"station_id":"st_cvj6r9ubvosntc0bgbag","pricing_plan_id":"cebpf4jnsgd1na2vs0mg"},{"bike_id":"108b622f-741f-46bc-a63e-f53025af3542","system_id":"levelo_inurba_marseille","lat":43.239637,"lon":5.366267,"is_reserved":false,"is_disabled":false,"rental_uris":{"android":"levelo://app?vid=108b622f-741f-46bc-a63e-f53025af3542","ios":"levelo://app?vid=108b622f-741f-46bc-a63e-f53025af3542"},"vehicle_type_id":"4","last_reported":1756206584,"current_range_meters":8400,"station_id":"ce4bhi12rcd13ifvqfp0","pricing_plan_id":"cebpf4jnsgd1na2vs0mg"},{"bike_id":"caf4a195-7148-45a3-91f3-29430c80f281","system_id":"levelo_inurba_marseille","lat":43.29032,"lon":5.39961,"is_reserved":false,"is_disabled":false,"rental_uris":{"android":"levelo://app?vid=caf4a195-7148-45a3-91f3-29430c80f281","ios":"levelo://app?vid=caf4a195-7148-45a3-91f3-29430c80f281"},"vehicle_type_id":"4","last_reported":1756206584,"current_range_meters":8400,"station_id":"ce4bh392rcd13ifvqdm0","pricing_plan_id":"cebpf4jnsgd1na2vs0mg"},{"bike_id":"b72ddfe3-c483-48b6-a880-a138054f95e8","system_id":"levelo_inurba_marseille","lat":43.2119,"lon":5.35074,"is_reserved":false,"is_disabled":false,"rental_uris":{"android":"levelo://app?vid=b72ddfe3-c483-48b6-a880-a138054f95e8","ios":"levelo://app?vid=b72ddfe3-c483-48b6-a880-a138054f95e8"},"vehicle_type_id":"4","last_reported":1756206584,"current_range_meters":8400,"station_id":"st_cvj6sg6p6f1abm77japg","pricing_plan_id":"cebpf4jnsgd1na2vs0mg"},{"bike_id":"423207a1-843d-4aa9-a594-e6a7debfe477","system_id":"levelo_inurba_marseille","lat":43.282549,"lon":5.350529,"is_reserved":false,"is_disabled":false,"rental_uris":{"android":"levelo://app?vid=423207a1-843d-4aa9-a594-e6a7debfe477","ios":"levelo://app?vid=423207a1-843d-4aa9-a594-e6a7debfe477"},"vehicle_type_id":"4","last_reported":1756206584,"current_range_meters":8400,"station_id":"ce4bhbp2rcd13ifvqerg","pricing_plan_id":"cebpf4jnsgd1na2vs0mg"},{"bike_id":"236f1a17-bd84-4b8e-977f-7df7d8cf402c","system_id":"levelo_inurba_marseille","lat":43.308141,"lon":5.435257,"is_reserved":false,"is_disabled":true,"rental_uris":{"android":"levelo://app?vid=236f1a17-bd84-4b8e-977f-7df7d8cf402c","ios":"levelo://app?vid=236f1a17-bd84-4b8e-977f-7df7d8cf402c"},"vehicle_type_id":"4","last_reported":1756206584,"current_range_meters":8400,"station_id":"ce4bhph2rcd13ifvqheg","pricing_plan_id":"cebpf4jnsgd1na2vs0mg"},{"bike_id":"0d944743-e134-48e5-94b4-4ee23c5bf363","system_id":"levelo_inurba_marseille","lat":43.23149,"lon":5.43733,"is_reserved":false,"is_disabled":false,"rental_uris":{"android":"levelo://app?vid=0d944743-e134-48e5-94b4-4ee23c5bf363","ios":"levelo://app?vid=0d944743-e134-48e5-94b4-4ee23c5bf363"},"vehicle_type_id":"4","last_reported":1756206584,"current_range_meters":8400,"station_id":"ce4bhmp2rcd13ifvqgog","pricing_plan_id":"cebpf4jnsgd1na2vs0mg"},{"bike_id":"f5b9bdf3-e981-4ec9-b3c8-e8477d05dbe8","system_id":"levelo_inurba_marseille","lat":43.32561,"lon":5.4143,"is_reserved":false,"is_disabled":false,"rental_uris":{"android":"levelo://app?vid=f5b9bdf3-e981-4ec9-b3c8-e8477d05dbe8","ios":"levelo://app?vid=f5b9bdf3-e981-4ec9-b3c8-e8477d05dbe8"},"vehicle_type_id":"4","last_reported":1756206584,"current_range_meters":8400,"station_id":"ce4bhq12rcd13ifvqhhg","pricing_plan_id":"cebpf4jnsgd1na2vs0mg"},{"bike_id":"b271b6b7-0bfe-4c07-bd83-cf9d3cf83f5b","system_id":"levelo_inurba_marseille","lat":43.31325,"lon":5.39694,"is_reserved":false,"is_disabled":false,"rental_uris":{"android":"levelo://app?vid=b271b6b7-0bfe-4c07-bd83-cf9d3cf83f5b","ios":"levelo://app?vid=b271b6b7-0bfe-4c07-bd83-cf9d3cf83f5b"},"vehicle_type_id":"4","last_reported":1756206584,"current_range_meters":8800,"station_id":"ce4bgvp2rcd13ifvqcu0","pricing_plan_id":"cebpf4jnsgd1na2vs0mg"},{"bike_id":"baf1e75f-6603-4be6-a673-efe7efcdac10","system_id":"levelo_inurba_marseille","lat":43.21757,"lon":5.34592,"is_reserved":false,"is_disabled":false,"rental_uris":{"android":"levelo://app?vid=baf1e75f-6603-4be6-a673-efe7efcdac10","ios":"levelo://app?vid=baf1e75f-6603-4be6-a673-efe7efcdac10"},"vehicle_type_id":"4","last_reported":1756206584,"current_range_meters":8800,"station_id":"st_cvj6r9ubvosntc0bgbag","pricing_plan_id":"cebpf4jnsgd1na2vs0mg"},{"bike_id":"3eac63d4-dca0-4d33-897e-1b3459775728","system_id":"levelo_inurba_marseille","lat":43.28717,"lon":5.3608,"is_reserved":false,"is_disabled":false,"rental_uris":{"android":"levelo://app?vid=3eac63d4-dca0-4d33-897e-1b3459775728","ios":"levelo://app?vid=3eac63d4-dca0-4d33-897e-1b3459775728"},"vehicle_type_id":"4","last_reported":1756206584,"current_range_meters":8800,"station_id":"cki0cbj6b192h4jlfktg","pricing_plan_id":"cebpf4jnsgd1na2vs0mg"},{"bike_id":"0394a526-4bd8-4efa-bec2-3e8db1fa215c","system_id":"levelo_inurba_marseille","lat":43.3053,"lon":5.36552,"is_reserved":false,"is_disabled":false,"rental_uris":{"android":"levelo://app?vid=0394a526-4bd8-4efa-bec2-3e8db1fa215c","ios":"levelo://app?vid=0394a526-4bd8-4efa-bec2-3e8db1fa215c"},"vehicle_type_id":"4","last_reported":1756206584,"current_range_meters":8800,"station_id":"ce4bgs12rcd13ifvqcag","pricing_plan_id":"cebpf4jnsgd1na2vs0mg"},{"bike_id":"2212480b-bee6-4788-b430-60f8d621ca9e","system_id":"levelo_inurba_marseille","lat":43.30537,"lon":5.36543,"is_reserved":false,"is_disabled":false,"rental_uris":{"android":"levelo://app?vid=2212480b-bee6-4788-b430-60f8d621ca9e","ios":"levelo://app?vid=2212480b-bee6-4788-b430-60f8d621ca9e"},"vehicle_type_id":"4","last_reported":1756206584,"current_range_meters":8800,"station_id":"ce4bgs12rcd13ifvqcag","pricing_plan_id":"cebpf4jnsgd1na2vs0mg"},{"bike_id":"ad38779b-9b39-4086-b263-f605db124bbe","system_id":"levelo_inurba_marseille","lat":43.23192,"lon":5.35549,"is_reserved":false,"is_disabled":false,"rental_uris":{"android":"levelo://app?vid=ad38779b-9b39-4086-b263-f605db124bbe","ios":"levelo://app?vid=ad38779b-9b39-4086-b263-f605db124bbe"},"vehicle_type_id":"4","last_reported":1756206584,"current_range_meters":9200,"station_id":"ce4bhu92rcd13ifvqi70","pricing_plan_id":"cebpf4jnsgd1na2vs0mg"},{"bike_id":"fcdfb1d4-2f58-4004-b07f-bc087fd0169f","system_id":"levelo_inurba_marseille","lat":43.303887,"lon":5.373754,"is_reserved":false,"is_disabled":false,"rental_uris":{"android":"levelo://app?vid=fcdfb1d4-2f58-4004-b07f-bc087fd0169f","ios":"levelo://app?vid=fcdfb1d4-2f58-4004-b07f-bc087fd0169f"},"vehicle_type_id":"4","last_reported":1756206584,"current_range_meters":9200,"station_id":"","pricing_plan_id":"cebpf4jnsgd1na2vs0mg"},{"bike_id":"6932403a-6d4a-4d29-8fd8-824b04bf8492","system_id":"levelo_inurba_marseille","lat":43.255,"lon":5.376533,"is_reserved":false,"is_disabled":true,"rental_uris":{"android":"levelo://app?vid=6932403a-6d4a-4d29-8fd8-824b04bf8492","ios":"levelo://app?vid=6932403a-6d4a-4d29-8fd8-824b04bf8492"},"vehicle_type_id":"4","last_reported":1756206584,"current_range_meters":9200,"station_id":"ce4bhh12rcd13ifvqff0","pricing_plan_id":"cebpf4jnsgd1na2vs0mg"},{"bike_id":"e6c90b04-fbb6-41a2-a95e-e2143b2a634a","system_id":"levelo_inurba_marseille","lat":43.24172,"lon":5.36388,"is_reserved":false,"is_disabled":false,"rental_uris":{"android":"levelo://app?vid=e6c90b04-fbb6-41a2-a95e-e2143b2a634a","ios":"levelo://app?vid=e6c90b04-fbb6-41a2-a95e-e2143b2a634a"},"vehicle_type_id":"4","last_reported":1756206584,"current_range_meters":9200,"station_id":"cpo36qri1sfpv3e86is0","pricing_plan_id":"cebpf4jnsgd1na2vs0mg"},{"bike_id":"df75f1fa-75ae-4074-a5b6-5911a8c1b6a8","system_id":"levelo_inurba_marseille","lat":43.30761,"lon":5.3721,"is_reserved":false,"is_disabled":false,"rental_uris":{"android":"levelo://app?vid=df75f1fa-75ae-4074-a5b6-5911a8c1b6a8","ios":"levelo://app?vid=df75f1fa-75ae-4074-a5b6-5911a8c1b6a8"},"vehicle_type_id":"4","last_reported":1756206584,"current_range_meters":9200,"station_id":"","pricing_plan_id":"cebpf4jnsgd1na2vs0mg"},{"bike_id":"a7de9842-9b82-4aa3-b40d-8e5e2abba6eb","system_id":"levelo_inurba_marseille","lat":43.29004,"lon":5.35609,"is_reserved":false,"is_disabled":false,"rental_uris":{"android":"levelo://app?vid=a7de9842-9b82-4aa3-b40d-8e5e2abba6eb","ios":"levelo://app?vid=a7de9842-9b82-4aa3-b40d-8e5e2abba6eb"},"vehicle_type_id":"4","last_reported":1756206584,"current_range_meters":9600,"station_id":"ce4bhb92rcd13ifvqen0","pricing_plan_id":"cebpf4jnsgd1na2vs0mg"},{"bike_id":"d1c3f29c-9b01-43c2-b379-0a155520cdcf","system_id":"levelo_inurba_marseille","lat":43.26224,"lon":5.40453,"is_reserved":false,"is_disabled":false,"rental_uris":{"android":"levelo://app?vid=d1c3f29c-9b01-43c2-b379-0a155520cdcf","ios":"levelo://app?vid=d1c3f29c-9b01-43c2-b379-0a155520cdcf"},"vehicle_type_id":"4","last_reported":1756206584,"current_range_meters":9600,"station_id":"ce4bhmh2rcd13ifvqgmg","pricing_plan_id":"cebpf4jnsgd1na2vs0mg"},{"bike_id":"b91e841b-70d6-4922-84f2-e53090d3d7bc","system_id":"levelo_inurba_marseille","lat":43.25497,"lon":5.37649,"is_reserved":false,"is_disabled":false,"rental_uris":{"android":"levelo://app?vid=b91e841b-70d6-4922-84f2-e53090d3d7bc","ios":"levelo://app?vid=b91e841b-70d6-4922-84f2-e53090d3d7bc"},"vehicle_type_id":"4","last_reported":1756206584,"current_range_meters":9600,"station_id":"ce4bhh12rcd13ifvqff0","pricing_plan_id":"cebpf4jnsgd1na2vs0mg"},{"bike_id":"ed76fafc-135e-4ce6-9cea-da8219313cb6","system_id":"levelo_inurba_marseille","lat":43.2987,"lon":5.389,"is_reserved":false,"is_disabled":false,"rental_uris":{"android":"levelo://app?vid=ed76fafc-135e-4ce6-9cea-da8219313cb6","ios":"levelo://app?vid=ed76fafc-135e-4ce6-9cea-da8219313cb6"},"vehicle_type_id":"4","last_reported":1756206584,"current_range_meters":9600,"station_id":"ce4bh392rcd13ifvqdl0","pricing_plan_id":"cebpf4jnsgd1na2vs0mg"},{"bike_id":"a7617eaa-1f94-4263-82ae-df4c6a62a5c5","system_id":"levelo_inurba_marseille","lat":43.21758,"lon":5.34594,"is_reserved":false,"is_disabled":false,"rental_uris":{"android":"levelo://app?vid=a7617eaa-1f94-4263-82ae-df4c6a62a5c5","ios":"levelo://app?vid=a7617eaa-1f94-4263-82ae-df4c6a62a5c5"},"vehicle_type_id":"4","last_reported":1756206584,"current_range_meters":9600,"station_id":"st_cvj6r9ubvosntc0bgbag","pricing_plan_id":"cebpf4jnsgd1na2vs0mg"},{"bike_id":"178a835f-5043-41a0-8f33-d02cc02b786a","system_id":"levelo_inurba_marseille","lat":43.30121,"lon":5.37456,"is_reserved":false,"is_disabled":false,"rental_uris":{"android":"levelo://app?vid=178a835f-5043-41a0-8f33-d02cc02b786a","ios":"levelo://app?vid=178a835f-5043-41a0-8f33-d02cc02b786a"},"vehicle_type_id":"4","last_reported":1756206584,"current_range_meters":10000,"station_id":"ce4bgs92rcd13ifvqcc0","pricing_plan_id":"cebpf4jnsgd1na2vs0mg"},{"bike_id":"96290dcb-5422-4c66-b871-eb048cbeec71","system_id":"levelo_inurba_marseille","lat":43.211905,"lon":5.350741,"is_reserved":false,"is_disabled":false,"rental_uris":{"android":"levelo://app?vid=96290dcb-5422-4c66-b871-eb048cbeec71","ios":"levelo://app?vid=96290dcb-5422-4c66-b871-eb048cbeec71"},"vehicle_type_id":"4","last_reported":1756206584,"current_range_meters":10000,"station_id":"st_cvj6sg6p6f1abm77japg","pricing_plan_id":"cebpf4jnsgd1na2vs0mg"},{"bike_id":"e523a005-5a10-48e6-b390-3cf27cc449a8","system_id":"levelo_inurba_marseille","lat":43.2742,"lon":5.39417,"is_reserved":false,"is_disabled":false,"rental_uris":{"android":"levelo://app?vid=e523a005-5a10-48e6-b390-3cf27cc449a8","ios":"levelo://app?vid=e523a005-5a10-48e6-b390-3cf27cc449a8"},"vehicle_type_id":"4","last_reported":1756206584,"current_range_meters":10000,"station_id":"ce4bhdp2rcd13ifvqf20","pricing_plan_id":"cebpf4jnsgd1na2vs0mg"},{"bike_id":"bea9b573-b0c0-471b-a983-7d2a5da760bb","system_id":"levelo_inurba_marseille","lat":43.30373,"lon":5.42477,"is_reserved":false,"is_disabled":false,"rental_uris":{"android":"levelo://app?vid=bea9b573-b0c0-471b-a983-7d2a5da760bb","ios":"levelo://app?vid=bea9b573-b0c0-471b-a983-7d2a5da760bb"},"vehicle_type_id":"4","last_reported":1756206584,"current_range_meters":10800,"station_id":"ce4bhoh2rcd13ifvqh6g","pricing_plan_id":"cebpf4jnsgd1na2vs0mg"},{"bike_id":"be83fd8f-4513-4277-98a3-da0158c6239d","system_id":"levelo_inurba_marseille","lat":43.29631,"lon":5.40599,"is_reserved":false,"is_disabled":false,"rental_uris":{"android":"levelo://app?vid=be83fd8f-4513-4277-98a3-da0158c6239d","ios":"levelo://app?vid=be83fd8f-4513-4277-98a3-da0158c6239d"},"vehicle_type_id":"4","last_reported":1756206584,"current_range_meters":10800,"station_id":"ce4bh0h2rcd13ifvqd60","pricing_plan_id":"cebpf4jnsgd1na2vs0mg"},{"bike_id":"67d74a60-5da2-48c9-b245-293d5e38c592","system_id":"levelo_inurba_marseille","lat":43.29003,"lon":5.35603,"is_reserved":false,"is_disabled":false,"rental_uris":{"android":"levelo://app?vid=67d74a60-5da2-48c9-b245-293d5e38c592","ios":"levelo://app?vid=67d74a60-5da2-48c9-b245-293d5e38c592"},"vehicle_type_id":"4","last_reported":1756206584,"current_range_meters":10800,"station_id":"ce4bhb92rcd13ifvqen0","pricing_plan_id":"cebpf4jnsgd1na2vs0mg"},{"bike_id":"c4351f59-5ebb-4406-b3a3-b5eda82d93ec","system_id":"levelo_inurba_marseille","lat":43.28364,"lon":5.38642,"is_reserved":false,"is_disabled":false,"rental_uris":{"android":"levelo://app?vid=c4351f59-5ebb-4406-b3a3-b5eda82d93ec","ios":"levelo://app?vid=c4351f59-5ebb-4406-b3a3-b5eda82d93ec"},"vehicle_type_id":"4","last_reported":1756206584,"current_range_meters":10800,"station_id":"ce4bh492rcd13ifvqdvg","pricing_plan_id":"cebpf4jnsgd1na2vs0mg"},{"bike_id":"4e326991-524a-498f-8eda-9c8ae7d86a4d","system_id":"levelo_inurba_marseille","lat":43.30537,"lon":5.36547,"is_reserved":false,"is_disabled":false,"rental_uris":{"android":"levelo://app?vid=4e326991-524a-498f-8eda-9c8ae7d86a4d","ios":"levelo://app?vid=4e326991-524a-498f-8eda-9c8ae7d86a4d"},"vehicle_type_id":"4","last_reported":1756206584,"current_range_meters":11200,"station_id":"ce4bgs12rcd13ifvqcag","pricing_plan_id":"cebpf4jnsgd1na2vs0mg"},{"bike_id":"c8f19ab0-2650-42bf-bf99-315bb14cecb1","system_id":"levelo_inurba_marseille","lat":43.32361,"lon":5.36734,"is_reserved":false,"is_disabled":false,"rental_uris":{"android":"levelo://app?vid=c8f19ab0-2650-42bf-bf99-315bb14cecb1","ios":"levelo://app?vid=c8f19ab0-2650-42bf-bf99-315bb14cecb1"},"vehicle_type_id":"4","last_reported":1756206584,"current_range_meters":11600,"station_id":"ce4bhsh2rcd13ifvqi2g","pricing_plan_id":"cebpf4jnsgd1na2vs0mg"},{"bike_id":"8b09d6e8-3175-46a4-a882-3f13b9ad4be3","system_id":"levelo_inurba_marseille","lat":43.24628,"lon":5.43149,"is_reserved":false,"is_disabled":false,"rental_uris":{"android":"levelo://app?vid=8b09d6e8-3175-46a4-a882-3f13b9ad4be3","ios":"levelo://app?vid=8b09d6e8-3175-46a4-a882-3f13b9ad4be3"},"vehicle_type_id":"4","last_reported":1756206584,"current_range_meters":11600,"station_id":"st_d2m6c4gdas8pm72e190g","pricing_plan_id":"cebpf4jnsgd1na2vs0mg"},{"bike_id":"ec0e0c52-ca00-415e-83ba-379641c1e333","system_id":"levelo_inurba_marseille","lat":43.29916,"lon":5.37474,"is_reserved":false,"is_disabled":false,"rental_uris":{"android":"levelo://app?vid=ec0e0c52-ca00-415e-83ba-379641c1e333","ios":"levelo://app?vid=ec0e0c52-ca00-415e-83ba-379641c1e333"},"vehicle_type_id":"4","last_reported":1756206584,"current_range_meters":11600,"station_id":"ce4bgjh2rcd13ifvqbg0","pricing_plan_id":"cebpf4jnsgd1na2vs0mg"},{"bike_id":"66d98e85-9e05-49a1-976e-e8264cf83862","system_id":"levelo_inurba_marseille","lat":43.28703,"lon":5.37369,"is_reserved":false,"is_disabled":false,"rental_uris":{"android":"levelo://app?vid=66d98e85-9e05-49a1-976e-e8264cf83862","ios":"levelo://app?vid=66d98e85-9e05-49a1-976e-e8264cf83862"},"vehicle_type_id":"4","last_reported":1756206584,"current_range_meters":12000,"station_id":"ce4bh3p2rcd13ifvqdq0","pricing_plan_id":"cebpf4jnsgd1na2vs0mg"},{"bike_id":"bb3b1f8e-8cc5-4b98-b134-1d38210e2d7b","system_id":"levelo_inurba_marseille","lat":43.28436,"lon":5.34992,"is_reserved":false,"is_disabled":false,"rental_uris":{"android":"levelo://app?vid=bb3b1f8e-8cc5-4b98-b134-1d38210e2d7b","ios":"levelo://app?vid=bb3b1f8e-8cc5-4b98-b134-1d38210e2d7b"},"vehicle_type_id":"4","last_reported":1756206584,"current_range_meters":12000,"station_id":"ce4bhbh2rcd13ifvqepg","pricing_plan_id":"cebpf4jnsgd1na2vs0mg"},{"bike_id":"daf244fc-c337-43c2-a6a1-add765b96920","system_id":"levelo_inurba_marseille","lat":43.279,"lon":5.38015,"is_reserved":false,"is_disabled":false,"rental_uris":{"android":"levelo://app?vid=daf244fc-c337-43c2-a6a1-add765b96920","ios":"levelo://app?vid=daf244fc-c337-43c2-a6a1-add765b96920"},"vehicle_type_id":"4","last_reported":1756206584,"current_range_meters":12000,"station_id":"ce4bhf92rcd13ifvqf50","pricing_plan_id":"cebpf4jnsgd1na2vs0mg"},{"bike_id":"3fdab342-812b-4e87-a622-3fd4fcd806fa","system_id":"levelo_inurba_marseille","lat":43.312363,"lon":5.368984,"is_reserved":false,"is_disabled":false,"rental_uris":{"android":"levelo://app?vid=3fdab342-812b-4e87-a622-3fd4fcd806fa","ios":"levelo://app?vid=3fdab342-812b-4e87-a622-3fd4fcd806fa"},"vehicle_type_id":"4","last_reported":1756206584,"current_range_meters":12000,"station_id":"ce4bgl92rcd13ifvqbq0","pricing_plan_id":"cebpf4jnsgd1na2vs0mg"},{"bike_id":"cfd66be3-eb77-4fcb-9808-b084ac439d43","system_id":"levelo_inurba_marseille","lat":43.33743,"lon":5.37433,"is_reserved":false,"is_disabled":false,"rental_uris":{"android":"levelo://app?vid=cfd66be3-eb77-4fcb-9808-b084ac439d43","ios":"levelo://app?vid=cfd66be3-eb77-4fcb-9808-b084ac439d43"},"vehicle_type_id":"4","last_reported":1756206584,"current_range_meters":12000,"station_id":"","pricing_plan_id":"cebpf4jnsgd1na2vs0mg"},{"bike_id":"c30b301c-7f7b-494a-8ee4-1d6c5f9cce1b","system_id":"levelo_inurba_marseille","lat":43.284,"lon":5.37539,"is_reserved":false,"is_disabled":true,"rental_uris":{"android":"levelo://app?vid=c30b301c-7f7b-494a-8ee4-1d6c5f9cce1b","ios":"levelo://app?vid=c30b301c-7f7b-494a-8ee4-1d6c5f9cce1b"},"vehicle_type_id":"4","last_reported":1756206584,"current_range_meters":12400,"station_id":"ce4bh412rcd13ifvqds0","pricing_plan_id":"cebpf4jnsgd1na2vs0mg"},{"bike_id":"3e130ff4-87da-4c51-a264-44d1f277fd66","system_id":"levelo_inurba_marseille","lat":43.32115,"lon":5.36754,"is_reserved":false,"is_disabled":false,"rental_uris":{"android":"levelo://app?vid=3e130ff4-87da-4c51-a264-44d1f277fd66","ios":"levelo://app?vid=3e130ff4-87da-4c51-a264-44d1f277fd66"},"vehicle_type_id":"4","last_reported":1756206584,"current_range_meters":12400,"station_id":"ce4bhrh2rcd13ifvqhug","pricing_plan_id":"cebpf4jnsgd1na2vs0mg"},{"bike_id":"e2b0f307-cfe9-4ad5-b104-d661fcb0d809","system_id":"levelo_inurba_marseille","lat":43.22931,"lon":5.35374,"is_reserved":false,"is_disabled":false,"rental_uris":{"android":"levelo://app?vid=e2b0f307-cfe9-4ad5-b104-d661fcb0d809","ios":"levelo://app?vid=e2b0f307-cfe9-4ad5-b104-d661fcb0d809"},"vehicle_type_id":"4","last_reported":1756206584,"current_range_meters":12800,"station_id":"cpo3532slgdg3j2ikp40","pricing_plan_id":"cebpf4jnsgd1na2vs0mg"},{"bike_id":"a45e6336-5570-4198-afa5-440922567107","system_id":"levelo_inurba_marseille","lat":43.26043,"lon":5.39395,"is_reserved":false,"is_disabled":false,"rental_uris":{"android":"levelo://app?vid=a45e6336-5570-4198-afa5-440922567107","ios":"levelo://app?vid=a45e6336-5570-4198-afa5-440922567107"},"vehicle_type_id":"4","last_reported":1756206584,"current_range_meters":12800,"station_id":"ce4bhh92rcd13ifvqfj0","pricing_plan_id":"cebpf4jnsgd1na2vs0mg"},{"bike_id":"a02c36f2-5c73-4274-9dab-3dcfac8b6d0b","system_id":"levelo_inurba_marseille","lat":43.32362,"lon":5.367636,"is_reserved":false,"is_disabled":false,"rental_uris":{"android":"levelo://app?vid=a02c36f2-5c73-4274-9dab-3dcfac8b6d0b","ios":"levelo://app?vid=a02c36f2-5c73-4274-9dab-3dcfac8b6d0b"},"vehicle_type_id":"4","last_reported":1756206584,"current_range_meters":12800,"station_id":"ce4bhsh2rcd13ifvqi2g","pricing_plan_id":"cebpf4jnsgd1na2vs0mg"},{"bike_id":"af732ca8-2cea-448a-9928-59e03d12656f","system_id":"levelo_inurba_marseille","lat":43.335785,"lon":5.358747,"is_reserved":false,"is_disabled":false,"rental_uris":{"android":"levelo://app?vid=af732ca8-2cea-448a-9928-59e03d12656f","ios":"levelo://app?vid=af732ca8-2cea-448a-9928-59e03d12656f"},"vehicle_type_id":"4","last_reported":1756206584,"current_range_meters":12800,"station_id":"","pricing_plan_id":"cebpf4jnsgd1na2vs0mg"},{"bike_id":"055c057d-1060-4d26-8e69-ac78c583d795","system_id":"levelo_inurba_marseille","lat":43.28438,"lon":5.39213,"is_reserved":false,"is_disabled":false,"rental_uris":{"android":"levelo://app?vid=055c057d-1060-4d26-8e69-ac78c583d795","ios":"levelo://app?vid=055c057d-1060-4d26-8e69-ac78c583d795"},"vehicle_type_id":"4","last_reported":1756206584,"current_range_meters":12800,"station_id":"ce4bhoh2rcd13ifvqh5g","pricing_plan_id":"cebpf4jnsgd1na2vs0mg"},{"bike_id":"b375d41b-9575-4c77-a6a9-d089747042e7","system_id":"levelo_inurba_marseille","lat":43.32267,"lon":5.36778,"is_reserved":false,"is_disabled":false,"rental_uris":{"android":"levelo://app?vid=b375d41b-9575-4c77-a6a9-d089747042e7","ios":"levelo://app?vid=b375d41b-9575-4c77-a6a9-d089747042e7"},"vehicle_type_id":"4","last_reported":1756206584,"current_range_meters":13600,"station_id":"","pricing_plan_id":"cebpf4jnsgd1na2vs0mg"},{"bike_id":"4c974f09-9153-4fa5-bd66-c8667858776a","system_id":"levelo_inurba_marseille","lat":43.29559,"lon":5.42288,"is_reserved":false,"is_disabled":false,"rental_uris":{"android":"levelo://app?vid=4c974f09-9153-4fa5-bd66-c8667858776a","ios":"levelo://app?vid=4c974f09-9153-4fa5-bd66-c8667858776a"},"vehicle_type_id":"4","last_reported":1756206584,"current_range_meters":13600,"station_id":"ce4bhph2rcd13ifvqhdg","pricing_plan_id":"cebpf4jnsgd1na2vs0mg"},{"bike_id":"5fe5b3eb-4709-4f6c-bc43-e3bf404099f6","system_id":"levelo_inurba_marseille","lat":43.28339,"lon":5.38111,"is_reserved":false,"is_disabled":false,"rental_uris":{"android":"levelo://app?vid=5fe5b3eb-4709-4f6c-bc43-e3bf404099f6","ios":"levelo://app?vid=5fe5b3eb-4709-4f6c-bc43-e3bf404099f6"},"vehicle_type_id":"4","last_reported":1756206584,"current_range_meters":13600,"station_id":"ce4bh412rcd13ifvqdr0","pricing_plan_id":"cebpf4jnsgd1na2vs0mg"},{"bike_id":"979e73f7-3abb-449f-9bdc-cb11a72712d9","system_id":"levelo_inurba_marseille","lat":43.28617,"lon":5.35104,"is_reserved":false,"is_disabled":true,"rental_uris":{"android":"levelo://app?vid=979e73f7-3abb-449f-9bdc-cb11a72712d9","ios":"levelo://app?vid=979e73f7-3abb-449f-9bdc-cb11a72712d9"},"vehicle_type_id":"4","last_reported":1756206584,"current_range_meters":13600,"station_id":"ce4bhch2rcd13ifvqeug","pricing_plan_id":"cebpf4jnsgd1na2vs0mg"},{"bike_id":"0d502687-08ef-4491-8893-8a03d8688be8","system_id":"levelo_inurba_marseille","lat":43.29622,"lon":5.36103,"is_reserved":false,"is_disabled":false,"rental_uris":{"android":"levelo://app?vid=0d502687-08ef-4491-8893-8a03d8688be8","ios":"levelo://app?vid=0d502687-08ef-4491-8893-8a03d8688be8"},"vehicle_type_id":"4","last_reported":1756206584,"current_range_meters":13600,"station_id":"","pricing_plan_id":"cebpf4jnsgd1na2vs0mg"},{"bike_id":"a25faefd-0357-4bc0-914c-e2f2949d57b3","system_id":"levelo_inurba_marseille","lat":43.27056,"lon":5.42313,"is_reserved":false,"is_disabled":false,"rental_uris":{"android":"levelo://app?vid=a25faefd-0357-4bc0-914c-e2f2949d57b3","ios":"levelo://app?vid=a25faefd-0357-4bc0-914c-e2f2949d57b3"},"vehicle_type_id":"4","last_reported":1756206584,"current_range_meters":13600,"station_id":"ce4bhk92rcd13ifvqgb0","pricing_plan_id":"cebpf4jnsgd1na2vs0mg"},{"bike_id":"7efc4031-53a2-4c8b-a4a3-f833e7929dde","system_id":"levelo_inurba_marseille","lat":43.2439,"lon":5.37057,"is_reserved":false,"is_disabled":false,"rental_uris":{"android":"levelo://app?vid=7efc4031-53a2-4c8b-a4a3-f833e7929dde","ios":"levelo://app?vid=7efc4031-53a2-4c8b-a4a3-f833e7929dde"},"vehicle_type_id":"4","last_reported":1756206584,"current_range_meters":14000,"station_id":"ce4bhhh2rcd13ifvqfk0","pricing_plan_id":"cebpf4jnsgd1na2vs0mg"},{"bike_id":"b6fa71de-cb87-445d-ba99-d3eabe8dc29d","system_id":"levelo_inurba_marseille","lat":43.21747,"lon":5.34599,"is_reserved":false,"is_disabled":false,"rental_uris":{"android":"levelo://app?vid=b6fa71de-cb87-445d-ba99-d3eabe8dc29d","ios":"levelo://app?vid=b6fa71de-cb87-445d-ba99-d3eabe8dc29d"},"vehicle_type_id":"4","last_reported":1756206584,"current_range_meters":14000,"station_id":"st_cvj6r9ubvosntc0bgbag","pricing_plan_id":"cebpf4jnsgd1na2vs0mg"},{"bike_id":"d9f9c7c4-c3c3-4adb-8b4a-8c3e0dd38215","system_id":"levelo_inurba_marseille","lat":43.27176,"lon":5.409958,"is_reserved":false,"is_disabled":false,"rental_uris":{"android":"levelo://app?vid=d9f9c7c4-c3c3-4adb-8b4a-8c3e0dd38215","ios":"levelo://app?vid=d9f9c7c4-c3c3-4adb-8b4a-8c3e0dd38215"},"vehicle_type_id":"4","last_reported":1756206584,"current_range_meters":14000,"station_id":"ce4bhl12rcd13ifvqgf0","pricing_plan_id":"cebpf4jnsgd1na2vs0mg"},{"bike_id":"632030b5-1498-47c0-aa28-dfb19d01a1ea","system_id":"levelo_inurba_marseille","lat":43.26209,"lon":5.3745,"is_reserved":false,"is_disabled":false,"rental_uris":{"android":"levelo://app?vid=632030b5-1498-47c0-aa28-dfb19d01a1ea","ios":"levelo://app?vid=632030b5-1498-47c0-aa28-dfb19d01a1ea"},"vehicle_type_id":"4","last_reported":1756206584,"current_range_meters":14000,"station_id":"ce4bhgp2rcd13ifvqfc0","pricing_plan_id":"cebpf4jnsgd1na2vs0mg"},{"bike_id":"97baab57-b07e-4a6b-8fbd-e3de8dfb7142","system_id":"levelo_inurba_marseille","lat":43.24398,"lon":5.37039,"is_reserved":false,"is_disabled":false,"rental_uris":{"android":"levelo://app?vid=97baab57-b07e-4a6b-8fbd-e3de8dfb7142","ios":"levelo://app?vid=97baab57-b07e-4a6b-8fbd-e3de8dfb7142"},"vehicle_type_id":"4","last_reported":1756206584,"current_range_meters":14000,"station_id":"ce4bhhh2rcd13ifvqfk0","pricing_plan_id":"cebpf4jnsgd1na2vs0mg"},{"bike_id":"c63e0ae5-2a74-4278-8630-889c5dc7c389","system_id":"levelo_inurba_marseille","lat":43.29272,"lon":5.3684,"is_reserved":false,"is_disabled":false,"rental_uris":{"android":"levelo://app?vid=c63e0ae5-2a74-4278-8630-889c5dc7c389","ios":"levelo://app?vid=c63e0ae5-2a74-4278-8630-889c5dc7c389"},"vehicle_type_id":"4","last_reported":1756206584,"current_range_meters":14000,"station_id":"ce4bhbp2rcd13ifvqesg","pricing_plan_id":"cebpf4jnsgd1na2vs0mg"},{"bike_id":"b1ff2bd0-5d79-4dd6-a42b-e5b5a4db7eeb","system_id":"levelo_inurba_marseille","lat":43.257297,"lon":5.411113,"is_reserved":false,"is_disabled":false,"rental_uris":{"android":"levelo://app?vid=b1ff2bd0-5d79-4dd6-a42b-e5b5a4db7eeb","ios":"levelo://app?vid=b1ff2bd0-5d79-4dd6-a42b-e5b5a4db7eeb"},"vehicle_type_id":"4","last_reported":1756206584,"current_range_meters":14000,"station_id":"ce4bhkp2rcd13ifvqgd0","pricing_plan_id":"cebpf4jnsgd1na2vs0mg"},{"bike_id":"83e818dd-7ff3-45dd-b46a-ecfe9cbc3bf8","system_id":"levelo_inurba_marseille","lat":43.26233,"lon":5.37429,"is_reserved":false,"is_disabled":false,"rental_uris":{"android":"levelo://app?vid=83e818dd-7ff3-45dd-b46a-ecfe9cbc3bf8","ios":"levelo://app?vid=83e818dd-7ff3-45dd-b46a-ecfe9cbc3bf8"},"vehicle_type_id":"4","last_reported":1756206584,"current_range_meters":14000,"station_id":"","pricing_plan_id":"cebpf4jnsgd1na2vs0mg"},{"bike_id":"f84f46c8-243d-42cd-b308-2b289e4c09d3","system_id":"levelo_inurba_marseille","lat":43.334514,"lon":5.356717,"is_reserved":false,"is_disabled":false,"rental_uris":{"android":"levelo://app?vid=f84f46c8-243d-42cd-b308-2b289e4c09d3","ios":"levelo://app?vid=f84f46c8-243d-42cd-b308-2b289e4c09d3"},"vehicle_type_id":"4","last_reported":1756206584,"current_range_meters":14000,"station_id":"","pricing_plan_id":"cebpf4jnsgd1na2vs0mg"},{"bike_id":"e1ac3f85-2a39-4070-a482-883715d319ec","system_id":"levelo_inurba_marseille","lat":43.30152,"lon":5.38092,"is_reserved":false,"is_disabled":false,"rental_uris":{"android":"levelo://app?vid=e1ac3f85-2a39-4070-a482-883715d319ec","ios":"levelo://app?vid=e1ac3f85-2a39-4070-a482-883715d319ec"},"vehicle_type_id":"4","last_reported":1756206584,"current_range_meters":14000,"station_id":"ce4bgjp2rcd13ifvqbh0","pricing_plan_id":"cebpf4jnsgd1na2vs0mg"},{"bike_id":"2d608c47-3c81-455b-9fcc-5aebd46748f7","system_id":"levelo_inurba_marseille","lat":43.31993,"lon":5.38158,"is_reserved":false,"is_disabled":false,"rental_uris":{"android":"levelo://app?vid=2d608c47-3c81-455b-9fcc-5aebd46748f7","ios":"levelo://app?vid=2d608c47-3c81-455b-9fcc-5aebd46748f7"},"vehicle_type_id":"4","last_reported":1756206584,"current_range_meters":14000,"station_id":"ce4bhr12rcd13ifvqhpg","pricing_plan_id":"cebpf4jnsgd1na2vs0mg"},{"bike_id":"b6d727d8-b5ab-46d2-9978-fd5ba1dad8e0","system_id":"levelo_inurba_marseille","lat":43.30974,"lon":5.36764,"is_reserved":false,"is_disabled":false,"rental_uris":{"android":"levelo://app?vid=b6d727d8-b5ab-46d2-9978-fd5ba1dad8e0","ios":"levelo://app?vid=b6d727d8-b5ab-46d2-9978-fd5ba1dad8e0"},"vehicle_type_id":"4","last_reported":1756206584,"current_range_meters":14400,"station_id":"","pricing_plan_id":"cebpf4jnsgd1na2vs0mg"},{"bike_id":"c47b2876-c564-417f-9d7f-97cdd2f94270","system_id":"levelo_inurba_marseille","lat":43.24152,"lon":5.36403,"is_reserved":false,"is_disabled":false,"rental_uris":{"android":"levelo://app?vid=c47b2876-c564-417f-9d7f-97cdd2f94270","ios":"levelo://app?vid=c47b2876-c564-417f-9d7f-97cdd2f94270"},"vehicle_type_id":"4","last_reported":1756206584,"current_range_meters":14400,"station_id":"cpo36qri1sfpv3e86is0","pricing_plan_id":"cebpf4jnsgd1na2vs0mg"},{"bike_id":"51842e17-ef10-4624-a23e-c8a182427991","system_id":"levelo_inurba_marseille","lat":43.31596,"lon":5.38216,"is_reserved":false,"is_disabled":false,"rental_uris":{"android":"levelo://app?vid=51842e17-ef10-4624-a23e-c8a182427991","ios":"levelo://app?vid=51842e17-ef10-4624-a23e-c8a182427991"},"vehicle_type_id":"4","last_reported":1756206584,"current_range_meters":14400,"station_id":"","pricing_plan_id":"cebpf4jnsgd1na2vs0mg"},{"bike_id":"5f9365e2-60dc-4158-a2c3-0e40911a7a32","system_id":"levelo_inurba_marseille","lat":43.334196,"lon":5.400522,"is_reserved":false,"is_disabled":false,"rental_uris":{"android":"levelo://app?vid=5f9365e2-60dc-4158-a2c3-0e40911a7a32","ios":"levelo://app?vid=5f9365e2-60dc-4158-a2c3-0e40911a7a32"},"vehicle_type_id":"4","last_reported":1756206584,"current_range_meters":14400,"station_id":"","pricing_plan_id":"cebpf4jnsgd1na2vs0mg"},{"bike_id":"b5ffa393-2ace-4441-a658-0017f1ce8c98","system_id":"levelo_inurba_marseille","lat":43.2405,"lon":5.39755,"is_reserved":false,"is_disabled":false,"rental_uris":{"android":"levelo://app?vid=b5ffa393-2ace-4441-a658-0017f1ce8c98","ios":"levelo://app?vid=b5ffa393-2ace-4441-a658-0017f1ce8c98"},"vehicle_type_id":"4","last_reported":1756206584,"current_range_meters":14400,"station_id":"","pricing_plan_id":"cebpf4jnsgd1na2vs0mg"},{"bike_id":"323c6e3a-fc3c-4ffe-95ed-fcec0f0049a0","system_id":"levelo_inurba_marseille","lat":43.28264,"lon":5.35083,"is_reserved":false,"is_disabled":false,"rental_uris":{"android":"levelo://app?vid=323c6e3a-fc3c-4ffe-95ed-fcec0f0049a0","ios":"levelo://app?vid=323c6e3a-fc3c-4ffe-95ed-fcec0f0049a0"},"vehicle_type_id":"4","last_reported":1756206584,"current_range_meters":14400,"station_id":"ce4bhbp2rcd13ifvqerg","pricing_plan_id":"cebpf4jnsgd1na2vs0mg"},{"bike_id":"943d95a7-9535-411f-ba22-8068aaf6ac69","system_id":"levelo_inurba_marseille","lat":43.29601,"lon":5.38083,"is_reserved":false,"is_disabled":true,"rental_uris":{"android":"levelo://app?vid=943d95a7-9535-411f-ba22-8068aaf6ac69","ios":"levelo://app?vid=943d95a7-9535-411f-ba22-8068aaf6ac69"},"vehicle_type_id":"4","last_reported":1756206584,"current_range_meters":14800,"station_id":"ce4bgl12rcd13ifvqbo0","pricing_plan_id":"cebpf4jnsgd1na2vs0mg"},{"bike_id":"0b185395-663b-4272-aa27-a28f6ad1652d","system_id":"levelo_inurba_marseille","lat":43.298104,"lon":5.381116,"is_reserved":false,"is_disabled":false,"rental_uris":{"android":"levelo://app?vid=0b185395-663b-4272-aa27-a28f6ad1652d","ios":"levelo://app?vid=0b185395-663b-4272-aa27-a28f6ad1652d"},"vehicle_type_id":"4","last_reported":1756206584,"current_range_meters":14800,"station_id":"ce4bgip2rcd13ifvqbb0","pricing_plan_id":"cebpf4jnsgd1na2vs0mg"},{"bike_id":"a15a1c44-718b-407d-acaa-0383628c87d7","system_id":"levelo_inurba_marseille","lat":43.32694,"lon":5.39211,"is_reserved":false,"is_disabled":false,"rental_uris":{"android":"levelo://app?vid=a15a1c44-718b-407d-acaa-0383628c87d7","ios":"levelo://app?vid=a15a1c44-718b-407d-acaa-0383628c87d7"},"vehicle_type_id":"4","last_reported":1756206584,"current_range_meters":14800,"station_id":"","pricing_plan_id":"cebpf4jnsgd1na2vs0mg"},{"bike_id":"fd67696d-ef93-4fd1-be0a-8a9116cbc5b1","system_id":"levelo_inurba_marseille","lat":43.25006,"lon":5.389113,"is_reserved":false,"is_disabled":false,"rental_uris":{"android":"levelo://app?vid=fd67696d-ef93-4fd1-be0a-8a9116cbc5b1","ios":"levelo://app?vid=fd67696d-ef93-4fd1-be0a-8a9116cbc5b1"},"vehicle_type_id":"4","last_reported":1756206584,"current_range_meters":14800,"station_id":"","pricing_plan_id":"cebpf4jnsgd1na2vs0mg"},{"bike_id":"7c39f74a-dbae-4861-911b-8e54a8b64397","system_id":"levelo_inurba_marseille","lat":43.23059,"lon":5.35487,"is_reserved":false,"is_disabled":false,"rental_uris":{"android":"levelo://app?vid=7c39f74a-dbae-4861-911b-8e54a8b64397","ios":"levelo://app?vid=7c39f74a-dbae-4861-911b-8e54a8b64397"},"vehicle_type_id":"4","last_reported":1756206584,"current_range_meters":14800,"station_id":"cpo3342slgdg3j2ifvpg","pricing_plan_id":"cebpf4jnsgd1na2vs0mg"},{"bike_id":"b0c8ee70-fcce-46a2-b2d8-80ef4063c6e0","system_id":"levelo_inurba_marseille","lat":43.265528,"lon":5.372877,"is_reserved":false,"is_disabled":false,"rental_uris":{"android":"levelo://app?vid=b0c8ee70-fcce-46a2-b2d8-80ef4063c6e0","ios":"levelo://app?vid=b0c8ee70-fcce-46a2-b2d8-80ef4063c6e0"},"vehicle_type_id":"4","last_reported":1756206584,"current_range_meters":14800,"station_id":"ce4bhg12rcd13ifvqf70","pricing_plan_id":"cebpf4jnsgd1na2vs0mg"},{"bike_id":"ad9bd69b-d68c-4c45-91a0-01922e0e465b","system_id":"levelo_inurba_marseille","lat":43.28617,"lon":5.35104,"is_reserved":false,"is_disabled":false,"rental_uris":{"android":"levelo://app?vid=ad9bd69b-d68c-4c45-91a0-01922e0e465b","ios":"levelo://app?vid=ad9bd69b-d68c-4c45-91a0-01922e0e465b"},"vehicle_type_id":"4","last_reported":1756206584,"current_range_meters":15200,"station_id":"ce4bhch2rcd13ifvqeug","pricing_plan_id":"cebpf4jnsgd1na2vs0mg"},{"bike_id":"1027bb83-a668-47de-9094-84302cb909d4","system_id":"levelo_inurba_marseille","lat":43.21183,"lon":5.35074,"is_reserved":false,"is_disabled":false,"rental_uris":{"android":"levelo://app?vid=1027bb83-a668-47de-9094-84302cb909d4","ios":"levelo://app?vid=1027bb83-a668-47de-9094-84302cb909d4"},"vehicle_type_id":"4","last_reported":1756206584,"current_range_meters":15200,"station_id":"st_cvj6sg6p6f1abm77japg","pricing_plan_id":"cebpf4jnsgd1na2vs0mg"},{"bike_id":"3373f291-fdf9-4608-8755-af0a854bdfd2","system_id":"levelo_inurba_marseille","lat":43.21748,"lon":5.34599,"is_reserved":false,"is_disabled":false,"rental_uris":{"android":"levelo://app?vid=3373f291-fdf9-4608-8755-af0a854bdfd2","ios":"levelo://app?vid=3373f291-fdf9-4608-8755-af0a854bdfd2"},"vehicle_type_id":"4","last_reported":1756206584,"current_range_meters":15200,"station_id":"st_cvj6r9ubvosntc0bgbag","pricing_plan_id":"cebpf4jnsgd1na2vs0mg"},{"bike_id":"444fa21b-a878-42ec-8f08-8b38e06bf791","system_id":"levelo_inurba_marseille","lat":43.24387,"lon":5.37057,"is_reserved":false,"is_disabled":false,"rental_uris":{"android":"levelo://app?vid=444fa21b-a878-42ec-8f08-8b38e06bf791","ios":"levelo://app?vid=444fa21b-a878-42ec-8f08-8b38e06bf791"},"vehicle_type_id":"4","last_reported":1756206584,"current_range_meters":15200,"station_id":"ce4bhhh2rcd13ifvqfk0","pricing_plan_id":"cebpf4jnsgd1na2vs0mg"},{"bike_id":"f50e029c-78e4-4943-96e6-f587e062386c","system_id":"levelo_inurba_marseille","lat":43.31723,"lon":5.42414,"is_reserved":false,"is_disabled":false,"rental_uris":{"android":"levelo://app?vid=f50e029c-78e4-4943-96e6-f587e062386c","ios":"levelo://app?vid=f50e029c-78e4-4943-96e6-f587e062386c"},"vehicle_type_id":"4","last_reported":1756206584,"current_range_meters":15200,"station_id":"ce4bhp92rcd13ifvqhbg","pricing_plan_id":"cebpf4jnsgd1na2vs0mg"},{"bike_id":"ab705b2c-0b74-4377-963c-98ccc4f202cb","system_id":"levelo_inurba_marseille","lat":43.29022,"lon":5.38647,"is_reserved":false,"is_disabled":false,"rental_uris":{"android":"levelo://app?vid=ab705b2c-0b74-4377-963c-98ccc4f202cb","ios":"levelo://app?vid=ab705b2c-0b74-4377-963c-98ccc4f202cb"},"vehicle_type_id":"4","last_reported":1756206584,"current_range_meters":14800,"station_id":"ce4bh4p2rcd13ifvqe0g","pricing_plan_id":"cebpf4jnsgd1na2vs0mg"},{"bike_id":"71286ab5-1967-43a6-a62e-742b5755ab3b","system_id":"levelo_inurba_marseille","lat":43.243885,"lon":5.370644,"is_reserved":false,"is_disabled":false,"rental_uris":{"android":"levelo://app?vid=71286ab5-1967-43a6-a62e-742b5755ab3b","ios":"levelo://app?vid=71286ab5-1967-43a6-a62e-742b5755ab3b"},"vehicle_type_id":"4","last_reported":1756206584,"current_range_meters":15200,"station_id":"ce4bhhh2rcd13ifvqfk0","pricing_plan_id":"cebpf4jnsgd1na2vs0mg"},{"bike_id":"806216fb-9217-4875-8fd5-9f139c321bc6","system_id":"levelo_inurba_marseille","lat":43.27374,"lon":5.36262,"is_reserved":false,"is_disabled":false,"rental_uris":{"android":"levelo://app?vid=806216fb-9217-4875-8fd5-9f139c321bc6","ios":"levelo://app?vid=806216fb-9217-4875-8fd5-9f139c321bc6"},"vehicle_type_id":"4","last_reported":1756206584,"current_range_meters":15200,"station_id":"ce4bhbh2rcd13ifvqeo0","pricing_plan_id":"cebpf4jnsgd1na2vs0mg"},{"bike_id":"50080086-5ad6-41c2-b993-d4f4d5e2439a","system_id":"levelo_inurba_marseille","lat":43.32958,"lon":5.38964,"is_reserved":false,"is_disabled":false,"rental_uris":{"android":"levelo://app?vid=50080086-5ad6-41c2-b993-d4f4d5e2439a","ios":"levelo://app?vid=50080086-5ad6-41c2-b993-d4f4d5e2439a"},"vehicle_type_id":"4","last_reported":1756206584,"current_range_meters":16000,"station_id":"","pricing_plan_id":"cebpf4jnsgd1na2vs0mg"},{"bike_id":"026e3973-93d1-4c5c-ae15-8b22641bac68","system_id":"levelo_inurba_marseille","lat":43.2862,"lon":5.35088,"is_reserved":false,"is_disabled":false,"rental_uris":{"android":"levelo://app?vid=026e3973-93d1-4c5c-ae15-8b22641bac68","ios":"levelo://app?vid=026e3973-93d1-4c5c-ae15-8b22641bac68"},"vehicle_type_id":"4","last_reported":1756206584,"current_range_meters":16000,"station_id":"ce4bhch2rcd13ifvqeug","pricing_plan_id":"cebpf4jnsgd1na2vs0mg"},{"bike_id":"eaac1ac6-6c5d-4274-970f-7bad9d177f4b","system_id":"levelo_inurba_marseille","lat":43.272,"lon":5.39191,"is_reserved":false,"is_disabled":false,"rental_uris":{"android":"levelo://app?vid=eaac1ac6-6c5d-4274-970f-7bad9d177f4b","ios":"levelo://app?vid=eaac1ac6-6c5d-4274-970f-7bad9d177f4b"},"vehicle_type_id":"4","last_reported":1756206584,"current_range_meters":16000,"station_id":"ce4bhhp2rcd13ifvqfm0","pricing_plan_id":"cebpf4jnsgd1na2vs0mg"},{"bike_id":"977df7ca-21e9-43e2-ade8-22de20bad5aa","system_id":"levelo_inurba_marseille","lat":43.26226,"lon":5.37431,"is_reserved":false,"is_disabled":false,"rental_uris":{"android":"levelo://app?vid=977df7ca-21e9-43e2-ade8-22de20bad5aa","ios":"levelo://app?vid=977df7ca-21e9-43e2-ade8-22de20bad5aa"},"vehicle_type_id":"4","last_reported":1756206584,"current_range_meters":16000,"station_id":"ce4bhgp2rcd13ifvqfc0","pricing_plan_id":"cebpf4jnsgd1na2vs0mg"},{"bike_id":"84d12ccb-6366-409a-bb47-44f6ad184127","system_id":"levelo_inurba_marseille","lat":43.31196,"lon":5.36894,"is_reserved":false,"is_disabled":false,"rental_uris":{"android":"levelo://app?vid=84d12ccb-6366-409a-bb47-44f6ad184127","ios":"levelo://app?vid=84d12ccb-6366-409a-bb47-44f6ad184127"},"vehicle_type_id":"4","last_reported":1756206584,"current_range_meters":16000,"station_id":"ce4bgl92rcd13ifvqbq0","pricing_plan_id":"cebpf4jnsgd1na2vs0mg"},{"bike_id":"5ea5de96-ab5a-4443-984f-50a4d21f7918","system_id":"levelo_inurba_marseille","lat":43.30876,"lon":5.37205,"is_reserved":false,"is_disabled":false,"rental_uris":{"android":"levelo://app?vid=5ea5de96-ab5a-4443-984f-50a4d21f7918","ios":"levelo://app?vid=5ea5de96-ab5a-4443-984f-50a4d21f7918"},"vehicle_type_id":"4","last_reported":1756206584,"current_range_meters":16000,"station_id":"ce4bguh2rcd13ifvqckg","pricing_plan_id":"cebpf4jnsgd1na2vs0mg"},{"bike_id":"0e256118-fe33-4307-b7cb-16c76027513c","system_id":"levelo_inurba_marseille","lat":43.2409,"lon":5.37759,"is_reserved":false,"is_disabled":false,"rental_uris":{"android":"levelo://app?vid=0e256118-fe33-4307-b7cb-16c76027513c","ios":"levelo://app?vid=0e256118-fe33-4307-b7cb-16c76027513c"},"vehicle_type_id":"4","last_reported":1756206584,"current_range_meters":16000,"station_id":"ce4bhnp2rcd13ifvqgvg","pricing_plan_id":"cebpf4jnsgd1na2vs0mg"},{"bike_id":"974ad24a-ebe3-4eaf-93e5-d979d93ceb49","system_id":"levelo_inurba_marseille","lat":43.30517,"lon":5.36557,"is_reserved":false,"is_disabled":false,"rental_uris":{"android":"levelo://app?vid=974ad24a-ebe3-4eaf-93e5-d979d93ceb49","ios":"levelo://app?vid=974ad24a-ebe3-4eaf-93e5-d979d93ceb49"},"vehicle_type_id":"4","last_reported":1756206584,"current_range_meters":16000,"station_id":"","pricing_plan_id":"cebpf4jnsgd1na2vs0mg"},{"bike_id":"db7d3d83-f39a-4469-8445-29697e69fec4","system_id":"levelo_inurba_marseille","lat":43.32237,"lon":5.38535,"is_reserved":false,"is_disabled":false,"rental_uris":{"android":"levelo://app?vid=db7d3d83-f39a-4469-8445-29697e69fec4","ios":"levelo://app?vid=db7d3d83-f39a-4469-8445-29697e69fec4"},"vehicle_type_id":"4","last_reported":1756206584,"current_range_meters":16000,"station_id":"","pricing_plan_id":"cebpf4jnsgd1na2vs0mg"},{"bike_id":"9c53169c-3b96-42af-977a-bfa010d0f93f","system_id":"levelo_inurba_marseille","lat":43.27438,"lon":5.39414,"is_reserved":false,"is_disabled":false,"rental_uris":{"android":"levelo://app?vid=9c53169c-3b96-42af-977a-bfa010d0f93f","ios":"levelo://app?vid=9c53169c-3b96-42af-977a-bfa010d0f93f"},"vehicle_type_id":"4","last_reported":1756206584,"current_range_meters":16400,"station_id":"ce4bhdp2rcd13ifvqf20","pricing_plan_id":"cebpf4jnsgd1na2vs0mg"},{"bike_id":"0b4dbfbd-ee9a-4729-bbe3-65b55aebc579","system_id":"levelo_inurba_marseille","lat":43.28403,"lon":5.35,"is_reserved":false,"is_disabled":false,"rental_uris":{"android":"levelo://app?vid=0b4dbfbd-ee9a-4729-bbe3-65b55aebc579","ios":"levelo://app?vid=0b4dbfbd-ee9a-4729-bbe3-65b55aebc579"},"vehicle_type_id":"4","last_reported":1756206584,"current_range_meters":16400,"station_id":"ce4bhbh2rcd13ifvqepg","pricing_plan_id":"cebpf4jnsgd1na2vs0mg"},{"bike_id":"826f9c0a-980b-43d8-bf4c-e43d77c221ed","system_id":"levelo_inurba_marseille","lat":43.23178,"lon":5.3996,"is_reserved":false,"is_disabled":false,"rental_uris":{"android":"levelo://app?vid=826f9c0a-980b-43d8-bf4c-e43d77c221ed","ios":"levelo://app?vid=826f9c0a-980b-43d8-bf4c-e43d77c221ed"},"vehicle_type_id":"4","last_reported":1756206584,"current_range_meters":16400,"station_id":"ce4bhn12rcd13ifvqgqg","pricing_plan_id":"cebpf4jnsgd1na2vs0mg"},{"bike_id":"f0400c37-c7f6-4929-b1ac-d92430ff6f2d","system_id":"levelo_inurba_marseille","lat":43.2757,"lon":5.39726,"is_reserved":false,"is_disabled":false,"rental_uris":{"android":"levelo://app?vid=f0400c37-c7f6-4929-b1ac-d92430ff6f2d","ios":"levelo://app?vid=f0400c37-c7f6-4929-b1ac-d92430ff6f2d"},"vehicle_type_id":"4","last_reported":1756206584,"current_range_meters":16400,"station_id":"","pricing_plan_id":"cebpf4jnsgd1na2vs0mg"},{"bike_id":"5bce688b-fc81-4596-8277-b66f54be87c1","system_id":"levelo_inurba_marseille","lat":43.33768,"lon":5.37438,"is_reserved":false,"is_disabled":false,"rental_uris":{"android":"levelo://app?vid=5bce688b-fc81-4596-8277-b66f54be87c1","ios":"levelo://app?vid=5bce688b-fc81-4596-8277-b66f54be87c1"},"vehicle_type_id":"4","last_reported":1756206584,"current_range_meters":16400,"station_id":"","pricing_plan_id":"cebpf4jnsgd1na2vs0mg"},{"bike_id":"ed544820-ef7a-41ad-bce0-4c281fa0864b","system_id":"levelo_inurba_marseille","lat":43.28413,"lon":5.37516,"is_reserved":false,"is_disabled":false,"rental_uris":{"android":"levelo://app?vid=ed544820-ef7a-41ad-bce0-4c281fa0864b","ios":"levelo://app?vid=ed544820-ef7a-41ad-bce0-4c281fa0864b"},"vehicle_type_id":"4","last_reported":1756206584,"current_range_meters":16400,"station_id":"ce4bh412rcd13ifvqds0","pricing_plan_id":"cebpf4jnsgd1na2vs0mg"},{"bike_id":"56d66fd9-0645-4d82-a101-1dd48f3b5cf3","system_id":"levelo_inurba_marseille","lat":43.30134,"lon":5.37405,"is_reserved":false,"is_disabled":false,"rental_uris":{"android":"levelo://app?vid=56d66fd9-0645-4d82-a101-1dd48f3b5cf3","ios":"levelo://app?vid=56d66fd9-0645-4d82-a101-1dd48f3b5cf3"},"vehicle_type_id":"4","last_reported":1756206584,"current_range_meters":16400,"station_id":"ce4bgs92rcd13ifvqcc0","pricing_plan_id":"cebpf4jnsgd1na2vs0mg"},{"bike_id":"777a8c83-aed8-4881-84b6-34465956e738","system_id":"levelo_inurba_marseille","lat":43.25749,"lon":5.40984,"is_reserved":false,"is_disabled":false,"rental_uris":{"android":"levelo://app?vid=777a8c83-aed8-4881-84b6-34465956e738","ios":"levelo://app?vid=777a8c83-aed8-4881-84b6-34465956e738"},"vehicle_type_id":"4","last_reported":1756206584,"current_range_meters":16400,"station_id":"","pricing_plan_id":"cebpf4jnsgd1na2vs0mg"},{"bike_id":"507bfa7a-77ad-4faf-874f-5e94ad334f53","system_id":"levelo_inurba_marseille","lat":43.2318,"lon":5.39988,"is_reserved":false,"is_disabled":false,"rental_uris":{"android":"levelo://app?vid=507bfa7a-77ad-4faf-874f-5e94ad334f53","ios":"levelo://app?vid=507bfa7a-77ad-4faf-874f-5e94ad334f53"},"vehicle_type_id":"4","last_reported":1756206584,"current_range_meters":16400,"station_id":"ce4bhn12rcd13ifvqgqg","pricing_plan_id":"cebpf4jnsgd1na2vs0mg"},{"bike_id":"af744081-2681-4d1e-9525-a9843cca33d2","system_id":"levelo_inurba_marseille","lat":43.32549,"lon":5.36466,"is_reserved":false,"is_disabled":false,"rental_uris":{"android":"levelo://app?vid=af744081-2681-4d1e-9525-a9843cca33d2","ios":"levelo://app?vid=af744081-2681-4d1e-9525-a9843cca33d2"},"vehicle_type_id":"4","last_reported":1756206584,"current_range_meters":16400,"station_id":"","pricing_plan_id":"cebpf4jnsgd1na2vs0mg"},{"bike_id":"0979c739-5f5a-42e4-8b4d-5606fa5e28ec","system_id":"levelo_inurba_marseille","lat":43.21748,"lon":5.34594,"is_reserved":false,"is_disabled":false,"rental_uris":{"android":"levelo://app?vid=0979c739-5f5a-42e4-8b4d-5606fa5e28ec","ios":"levelo://app?vid=0979c739-5f5a-42e4-8b4d-5606fa5e28ec"},"vehicle_type_id":"4","last_reported":1756206584,"current_range_meters":16400,"station_id":"st_cvj6r9ubvosntc0bgbag","pricing_plan_id":"cebpf4jnsgd1na2vs0mg"},{"bike_id":"444185a1-99b2-4724-a588-1f691746c053","system_id":"levelo_inurba_marseille","lat":43.27074,"lon":5.42277,"is_reserved":false,"is_disabled":false,"rental_uris":{"android":"levelo://app?vid=444185a1-99b2-4724-a588-1f691746c053","ios":"levelo://app?vid=444185a1-99b2-4724-a588-1f691746c053"},"vehicle_type_id":"4","last_reported":1756206584,"current_range_meters":16800,"station_id":"ce4bhk92rcd13ifvqgb0","pricing_plan_id":"cebpf4jnsgd1na2vs0mg"},{"bike_id":"070c5c08-8102-4233-9aa2-6dc44cc7988e","system_id":"levelo_inurba_marseille","lat":43.30284,"lon":5.3841,"is_reserved":false,"is_disabled":false,"rental_uris":{"android":"levelo://app?vid=070c5c08-8102-4233-9aa2-6dc44cc7988e","ios":"levelo://app?vid=070c5c08-8102-4233-9aa2-6dc44cc7988e"},"vehicle_type_id":"4","last_reported":1756206584,"current_range_meters":16800,"station_id":"","pricing_plan_id":"cebpf4jnsgd1na2vs0mg"},{"bike_id":"fb092efa-e9c0-451a-8d79-340ccf8af0e7","system_id":"levelo_inurba_marseille","lat":43.28263,"lon":5.3506,"is_reserved":false,"is_disabled":false,"rental_uris":{"android":"levelo://app?vid=fb092efa-e9c0-451a-8d79-340ccf8af0e7","ios":"levelo://app?vid=fb092efa-e9c0-451a-8d79-340ccf8af0e7"},"vehicle_type_id":"4","last_reported":1756206584,"current_range_meters":16800,"station_id":"ce4bhbp2rcd13ifvqerg","pricing_plan_id":"cebpf4jnsgd1na2vs0mg"},{"bike_id":"1f8abda0-b398-458e-b1d4-8f630b737e5e","system_id":"levelo_inurba_marseille","lat":43.257237,"lon":5.411177,"is_reserved":false,"is_disabled":false,"rental_uris":{"android":"levelo://app?vid=1f8abda0-b398-458e-b1d4-8f630b737e5e","ios":"levelo://app?vid=1f8abda0-b398-458e-b1d4-8f630b737e5e"},"vehicle_type_id":"4","last_reported":1756206584,"current_range_meters":16800,"station_id":"ce4bhkp2rcd13ifvqgd0","pricing_plan_id":"cebpf4jnsgd1na2vs0mg"},{"bike_id":"a30d9dc8-3587-4727-92c7-3342534aaaa9","system_id":"levelo_inurba_marseille","lat":43.24367,"lon":5.37076,"is_reserved":false,"is_disabled":false,"rental_uris":{"android":"levelo://app?vid=a30d9dc8-3587-4727-92c7-3342534aaaa9","ios":"levelo://app?vid=a30d9dc8-3587-4727-92c7-3342534aaaa9"},"vehicle_type_id":"4","last_reported":1756206584,"current_range_meters":17200,"station_id":"ce4bhhh2rcd13ifvqfk0","pricing_plan_id":"cebpf4jnsgd1na2vs0mg"},{"bike_id":"4fc0d636-130b-4784-b54f-8e669b16fbd9","system_id":"levelo_inurba_marseille","lat":43.32481,"lon":5.36557,"is_reserved":false,"is_disabled":false,"rental_uris":{"android":"levelo://app?vid=4fc0d636-130b-4784-b54f-8e669b16fbd9","ios":"levelo://app?vid=4fc0d636-130b-4784-b54f-8e669b16fbd9"},"vehicle_type_id":"4","last_reported":1756206584,"current_range_meters":17200,"station_id":"ce4bhs12rcd13ifvqhvg","pricing_plan_id":"cebpf4jnsgd1na2vs0mg"},{"bike_id":"dd682476-2da8-4252-b407-69a7820a52b3","system_id":"levelo_inurba_marseille","lat":43.29646,"lon":5.37168,"is_reserved":false,"is_disabled":false,"rental_uris":{"android":"levelo://app?vid=dd682476-2da8-4252-b407-69a7820a52b3","ios":"levelo://app?vid=dd682476-2da8-4252-b407-69a7820a52b3"},"vehicle_type_id":"4","last_reported":1756206584,"current_range_meters":17200,"station_id":"ce4bgnh2rcd13ifvqc0g","pricing_plan_id":"cebpf4jnsgd1na2vs0mg"},{"bike_id":"617fe774-3121-4015-bcb8-ba8edb4c0b52","system_id":"levelo_inurba_marseille","lat":43.31332,"lon":5.39688,"is_reserved":false,"is_disabled":false,"rental_uris":{"android":"levelo://app?vid=617fe774-3121-4015-bcb8-ba8edb4c0b52","ios":"levelo://app?vid=617fe774-3121-4015-bcb8-ba8edb4c0b52"},"vehicle_type_id":"4","last_reported":1756206584,"current_range_meters":17200,"station_id":"ce4bgvp2rcd13ifvqcu0","pricing_plan_id":"cebpf4jnsgd1na2vs0mg"},{"bike_id":"f20d33e7-7322-492b-a458-228c763f42cf","system_id":"levelo_inurba_marseille","lat":43.28409,"lon":5.34994,"is_reserved":false,"is_disabled":false,"rental_uris":{"android":"levelo://app?vid=f20d33e7-7322-492b-a458-228c763f42cf","ios":"levelo://app?vid=f20d33e7-7322-492b-a458-228c763f42cf"},"vehicle_type_id":"4","last_reported":1756206584,"current_range_meters":17200,"station_id":"ce4bhbh2rcd13ifvqepg","pricing_plan_id":"cebpf4jnsgd1na2vs0mg"},{"bike_id":"dabc22fc-fbfb-44dc-aa61-e7ed1e847aff","system_id":"levelo_inurba_marseille","lat":43.2955,"lon":5.42285,"is_reserved":false,"is_disabled":false,"rental_uris":{"android":"levelo://app?vid=dabc22fc-fbfb-44dc-aa61-e7ed1e847aff","ios":"levelo://app?vid=dabc22fc-fbfb-44dc-aa61-e7ed1e847aff"},"vehicle_type_id":"4","last_reported":1756206584,"current_range_meters":17200,"station_id":"ce4bhph2rcd13ifvqhdg","pricing_plan_id":"cebpf4jnsgd1na2vs0mg"},{"bike_id":"e2bbc46a-e456-4a38-9a28-e52cef126594","system_id":"levelo_inurba_marseille","lat":43.287018,"lon":5.373922,"is_reserved":false,"is_disabled":false,"rental_uris":{"android":"levelo://app?vid=e2bbc46a-e456-4a38-9a28-e52cef126594","ios":"levelo://app?vid=e2bbc46a-e456-4a38-9a28-e52cef126594"},"vehicle_type_id":"4","last_reported":1756206584,"current_range_meters":17200,"station_id":"ce4bh3p2rcd13ifvqdq0","pricing_plan_id":"cebpf4jnsgd1na2vs0mg"},{"bike_id":"0e23b3e1-ee86-436e-829b-874c3f64407f","system_id":"levelo_inurba_marseille","lat":43.23152,"lon":5.43715,"is_reserved":false,"is_disabled":false,"rental_uris":{"android":"levelo://app?vid=0e23b3e1-ee86-436e-829b-874c3f64407f","ios":"levelo://app?vid=0e23b3e1-ee86-436e-829b-874c3f64407f"},"vehicle_type_id":"4","last_reported":1756206584,"current_range_meters":17200,"station_id":"ce4bhmp2rcd13ifvqgog","pricing_plan_id":"cebpf4jnsgd1na2vs0mg"},{"bike_id":"af9181bb-0944-49aa-a621-c2aee969380c","system_id":"levelo_inurba_marseille","lat":43.30592,"lon":5.37216,"is_reserved":false,"is_disabled":false,"rental_uris":{"android":"levelo://app?vid=af9181bb-0944-49aa-a621-c2aee969380c","ios":"levelo://app?vid=af9181bb-0944-49aa-a621-c2aee969380c"},"vehicle_type_id":"4","last_reported":1756206584,"current_range_meters":17600,"station_id":"ce4bgqh2rcd13ifvqc4g","pricing_plan_id":"cebpf4jnsgd1na2vs0mg"},{"bike_id":"b84a392c-6cd5-4f59-9f15-9907cc876058","system_id":"levelo_inurba_marseille","lat":43.28272,"lon":5.35066,"is_reserved":false,"is_disabled":false,"rental_uris":{"android":"levelo://app?vid=b84a392c-6cd5-4f59-9f15-9907cc876058","ios":"levelo://app?vid=b84a392c-6cd5-4f59-9f15-9907cc876058"},"vehicle_type_id":"4","last_reported":1756206584,"current_range_meters":17600,"station_id":"ce4bhbp2rcd13ifvqerg","pricing_plan_id":"cebpf4jnsgd1na2vs0mg"},{"bike_id":"32d552a1-5d1a-4f33-a2e3-3fc411b50db0","system_id":"levelo_inurba_marseille","lat":43.26205,"lon":5.37927,"is_reserved":false,"is_disabled":false,"rental_uris":{"android":"levelo://app?vid=32d552a1-5d1a-4f33-a2e3-3fc411b50db0","ios":"levelo://app?vid=32d552a1-5d1a-4f33-a2e3-3fc411b50db0"},"vehicle_type_id":"4","last_reported":1756206584,"current_range_meters":17600,"station_id":"ce4bhjp2rcd13ifvqg90","pricing_plan_id":"cebpf4jnsgd1na2vs0mg"},{"bike_id":"cd822ebe-8d01-44f2-b9e8-1f0b3a981bae","system_id":"levelo_inurba_marseille","lat":43.2887,"lon":5.35826,"is_reserved":false,"is_disabled":true,"rental_uris":{"android":"levelo://app?vid=cd822ebe-8d01-44f2-b9e8-1f0b3a981bae","ios":"levelo://app?vid=cd822ebe-8d01-44f2-b9e8-1f0b3a981bae"},"vehicle_type_id":"4","last_reported":1756206584,"current_range_meters":17600,"station_id":"ce4bhb12rcd13ifvqem0","pricing_plan_id":"cebpf4jnsgd1na2vs0mg"},{"bike_id":"678671ec-a626-4411-b351-51ddc9c449f1","system_id":"levelo_inurba_marseille","lat":43.305353,"lon":5.367107,"is_reserved":false,"is_disabled":false,"rental_uris":{"android":"levelo://app?vid=678671ec-a626-4411-b351-51ddc9c449f1","ios":"levelo://app?vid=678671ec-a626-4411-b351-51ddc9c449f1"},"vehicle_type_id":"4","last_reported":1756206584,"current_range_meters":17600,"station_id":"ce4bgrp2rcd13ifvqc9g","pricing_plan_id":"cebpf4jnsgd1na2vs0mg"},{"bike_id":"4c244c84-42a6-4974-bfc8-8e5591f3a1e7","system_id":"levelo_inurba_marseille","lat":43.304205,"lon":5.397423,"is_reserved":false,"is_disabled":true,"rental_uris":{"android":"levelo://app?vid=4c244c84-42a6-4974-bfc8-8e5591f3a1e7","ios":"levelo://app?vid=4c244c84-42a6-4974-bfc8-8e5591f3a1e7"},"vehicle_type_id":"4","last_reported":1756206584,"current_range_meters":18000,"station_id":"ce4bh092rcd13ifvqd20","pricing_plan_id":"cebpf4jnsgd1na2vs0mg"},{"bike_id":"3c6ab4c5-2793-405b-82c0-b3142e091c6e","system_id":"levelo_inurba_marseille","lat":43.25015,"lon":5.38939,"is_reserved":false,"is_disabled":false,"rental_uris":{"android":"levelo://app?vid=3c6ab4c5-2793-405b-82c0-b3142e091c6e","ios":"levelo://app?vid=3c6ab4c5-2793-405b-82c0-b3142e091c6e"},"vehicle_type_id":"4","last_reported":1756206584,"current_range_meters":18000,"station_id":"ce4bhgp2rcd13ifvqfd0","pricing_plan_id":"cebpf4jnsgd1na2vs0mg"},{"bike_id":"fd0865b3-af49-4c3e-86f4-49934bd2d289","system_id":"levelo_inurba_marseille","lat":43.29702,"lon":5.36622,"is_reserved":false,"is_disabled":true,"rental_uris":{"android":"levelo://app?vid=fd0865b3-af49-4c3e-86f4-49934bd2d289","ios":"levelo://app?vid=fd0865b3-af49-4c3e-86f4-49934bd2d289"},"vehicle_type_id":"4","last_reported":1756206584,"current_range_meters":18000,"station_id":"ce4bgn12rcd13ifvqbt0","pricing_plan_id":"cebpf4jnsgd1na2vs0mg"},{"bike_id":"c448a832-8c36-4151-b356-3226e8e2c878","system_id":"levelo_inurba_marseille","lat":43.27971,"lon":5.38742,"is_reserved":false,"is_disabled":false,"rental_uris":{"android":"levelo://app?vid=c448a832-8c36-4151-b356-3226e8e2c878","ios":"levelo://app?vid=c448a832-8c36-4151-b356-3226e8e2c878"},"vehicle_type_id":"4","last_reported":1756206584,"current_range_meters":18000,"station_id":"ce4bhg12rcd13ifvqf80","pricing_plan_id":"cebpf4jnsgd1na2vs0mg"},{"bike_id":"40c1fb45-9550-4904-9c4b-5647cd1299ba","system_id":"levelo_inurba_marseille","lat":43.2117,"lon":5.35074,"is_reserved":false,"is_disabled":false,"rental_uris":{"android":"levelo://app?vid=40c1fb45-9550-4904-9c4b-5647cd1299ba","ios":"levelo://app?vid=40c1fb45-9550-4904-9c4b-5647cd1299ba"},"vehicle_type_id":"4","last_reported":1756206584,"current_range_meters":18800,"station_id":"st_cvj6sg6p6f1abm77japg","pricing_plan_id":"cebpf4jnsgd1na2vs0mg"},{"bike_id":"248bf14d-378d-4e2f-9999-982acfdf56f9","system_id":"levelo_inurba_marseille","lat":43.28414,"lon":5.34987,"is_reserved":false,"is_disabled":false,"rental_uris":{"android":"levelo://app?vid=248bf14d-378d-4e2f-9999-982acfdf56f9","ios":"levelo://app?vid=248bf14d-378d-4e2f-9999-982acfdf56f9"},"vehicle_type_id":"4","last_reported":1756206584,"current_range_meters":18800,"station_id":"ce4bhbh2rcd13ifvqepg","pricing_plan_id":"cebpf4jnsgd1na2vs0mg"},{"bike_id":"39ea2308-9401-41fa-906a-0babb7ec476f","system_id":"levelo_inurba_marseille","lat":43.32071,"lon":5.41535,"is_reserved":false,"is_disabled":false,"rental_uris":{"android":"levelo://app?vid=39ea2308-9401-41fa-906a-0babb7ec476f","ios":"levelo://app?vid=39ea2308-9401-41fa-906a-0babb7ec476f"},"vehicle_type_id":"4","last_reported":1756206584,"current_range_meters":18800,"station_id":"ce4bhq92rcd13ifvqhkg","pricing_plan_id":"cebpf4jnsgd1na2vs0mg"},{"bike_id":"abaf99ca-5823-4460-ba5c-ff01280743d0","system_id":"levelo_inurba_marseille","lat":43.27064,"lon":5.42235,"is_reserved":false,"is_disabled":false,"rental_uris":{"android":"levelo://app?vid=abaf99ca-5823-4460-ba5c-ff01280743d0","ios":"levelo://app?vid=abaf99ca-5823-4460-ba5c-ff01280743d0"},"vehicle_type_id":"4","last_reported":1756206584,"current_range_meters":18800,"station_id":"ce4bhk92rcd13ifvqgb0","pricing_plan_id":"cebpf4jnsgd1na2vs0mg"},{"bike_id":"4dd066a3-5039-4c08-96e4-92ee4cbb306d","system_id":"levelo_inurba_marseille","lat":43.23201,"lon":5.35554,"is_reserved":false,"is_disabled":false,"rental_uris":{"android":"levelo://app?vid=4dd066a3-5039-4c08-96e4-92ee4cbb306d","ios":"levelo://app?vid=4dd066a3-5039-4c08-96e4-92ee4cbb306d"},"vehicle_type_id":"4","last_reported":1756206584,"current_range_meters":18800,"station_id":"ce4bhu92rcd13ifvqi70","pricing_plan_id":"cebpf4jnsgd1na2vs0mg"},{"bike_id":"d5edd176-dc20-48cc-aea0-c4b4119653a3","system_id":"levelo_inurba_marseille","lat":43.28406,"lon":5.35007,"is_reserved":false,"is_disabled":false,"rental_uris":{"android":"levelo://app?vid=d5edd176-dc20-48cc-aea0-c4b4119653a3","ios":"levelo://app?vid=d5edd176-dc20-48cc-aea0-c4b4119653a3"},"vehicle_type_id":"4","last_reported":1756206584,"current_range_meters":18800,"station_id":"ce4bhbh2rcd13ifvqepg","pricing_plan_id":"cebpf4jnsgd1na2vs0mg"},{"bike_id":"3dff11d5-3872-4ffe-8cce-b5631d6c6058","system_id":"levelo_inurba_marseille","lat":43.32689,"lon":5.39224,"is_reserved":false,"is_disabled":false,"rental_uris":{"android":"levelo://app?vid=3dff11d5-3872-4ffe-8cce-b5631d6c6058","ios":"levelo://app?vid=3dff11d5-3872-4ffe-8cce-b5631d6c6058"},"vehicle_type_id":"4","last_reported":1756206584,"current_range_meters":18800,"station_id":"","pricing_plan_id":"cebpf4jnsgd1na2vs0mg"},{"bike_id":"a78c16ad-366d-4781-aac7-605a2fd3997b","system_id":"levelo_inurba_marseille","lat":43.28418,"lon":5.3499,"is_reserved":false,"is_disabled":false,"rental_uris":{"android":"levelo://app?vid=a78c16ad-366d-4781-aac7-605a2fd3997b","ios":"levelo://app?vid=a78c16ad-366d-4781-aac7-605a2fd3997b"},"vehicle_type_id":"4","last_reported":1756206584,"current_range_meters":18800,"station_id":"ce4bhbh2rcd13ifvqepg","pricing_plan_id":"cebpf4jnsgd1na2vs0mg"},{"bike_id":"f8bfd6d3-ac89-404e-805c-64aa697fc8ed","system_id":"levelo_inurba_marseille","lat":43.29035,"lon":5.39962,"is_reserved":false,"is_disabled":false,"rental_uris":{"android":"levelo://app?vid=f8bfd6d3-ac89-404e-805c-64aa697fc8ed","ios":"levelo://app?vid=f8bfd6d3-ac89-404e-805c-64aa697fc8ed"},"vehicle_type_id":"4","last_reported":1756206584,"current_range_meters":18800,"station_id":"ce4bh392rcd13ifvqdm0","pricing_plan_id":"cebpf4jnsgd1na2vs0mg"},{"bike_id":"7a4c7327-869b-418c-afd3-2fa3665ffd5c","system_id":"levelo_inurba_marseille","lat":43.2463,"lon":5.43147,"is_reserved":false,"is_disabled":false,"rental_uris":{"android":"levelo://app?vid=7a4c7327-869b-418c-afd3-2fa3665ffd5c","ios":"levelo://app?vid=7a4c7327-869b-418c-afd3-2fa3665ffd5c"},"vehicle_type_id":"4","last_reported":1756206584,"current_range_meters":19200,"station_id":"st_d2m6c4gdas8pm72e190g","pricing_plan_id":"cebpf4jnsgd1na2vs0mg"},{"bike_id":"80ca4da6-3284-4b8a-ade1-4216b77968fe","system_id":"levelo_inurba_marseille","lat":43.30736,"lon":5.37662,"is_reserved":false,"is_disabled":false,"rental_uris":{"android":"levelo://app?vid=80ca4da6-3284-4b8a-ade1-4216b77968fe","ios":"levelo://app?vid=80ca4da6-3284-4b8a-ade1-4216b77968fe"},"vehicle_type_id":"4","last_reported":1756206584,"current_range_meters":19200,"station_id":"","pricing_plan_id":"cebpf4jnsgd1na2vs0mg"},{"bike_id":"fbf0e9b4-0244-4455-89e8-bb336b1646cf","system_id":"levelo_inurba_marseille","lat":43.23169,"lon":5.4,"is_reserved":false,"is_disabled":false,"rental_uris":{"android":"levelo://app?vid=fbf0e9b4-0244-4455-89e8-bb336b1646cf","ios":"levelo://app?vid=fbf0e9b4-0244-4455-89e8-bb336b1646cf"},"vehicle_type_id":"4","last_reported":1756206584,"current_range_meters":19200,"station_id":"ce4bhn12rcd13ifvqgqg","pricing_plan_id":"cebpf4jnsgd1na2vs0mg"},{"bike_id":"82c0d691-3ca9-4843-ab72-2e1da3b664b2","system_id":"levelo_inurba_marseille","lat":43.32112,"lon":5.36764,"is_reserved":false,"is_disabled":false,"rental_uris":{"android":"levelo://app?vid=82c0d691-3ca9-4843-ab72-2e1da3b664b2","ios":"levelo://app?vid=82c0d691-3ca9-4843-ab72-2e1da3b664b2"},"vehicle_type_id":"4","last_reported":1756206584,"current_range_meters":19200,"station_id":"ce4bhrh2rcd13ifvqhug","pricing_plan_id":"cebpf4jnsgd1na2vs0mg"},{"bike_id":"63d66f42-dd2b-4cef-b9fe-f9cc710d7e75","system_id":"levelo_inurba_marseille","lat":43.28003,"lon":5.4001,"is_reserved":false,"is_disabled":false,"rental_uris":{"android":"levelo://app?vid=63d66f42-dd2b-4cef-b9fe-f9cc710d7e75","ios":"levelo://app?vid=63d66f42-dd2b-4cef-b9fe-f9cc710d7e75"},"vehicle_type_id":"4","last_reported":1756206584,"current_range_meters":19200,"station_id":"ce4bho92rcd13ifvqh4g","pricing_plan_id":"cebpf4jnsgd1na2vs0mg"},{"bike_id":"84ffd7e2-b751-43a4-b5b0-e512207c126f","system_id":"levelo_inurba_marseille","lat":43.28458,"lon":5.3588,"is_reserved":false,"is_disabled":false,"rental_uris":{"android":"levelo://app?vid=84ffd7e2-b751-43a4-b5b0-e512207c126f","ios":"levelo://app?vid=84ffd7e2-b751-43a4-b5b0-e512207c126f"},"vehicle_type_id":"4","last_reported":1756206584,"current_range_meters":19200,"station_id":"ce4bhah2rcd13ifvqei0","pricing_plan_id":"cebpf4jnsgd1na2vs0mg"},{"bike_id":"84bf6369-add9-4536-b995-2363a21a64fe","system_id":"levelo_inurba_marseille","lat":43.27819,"lon":5.39202,"is_reserved":false,"is_disabled":false,"rental_uris":{"android":"levelo://app?vid=84bf6369-add9-4536-b995-2363a21a64fe","ios":"levelo://app?vid=84bf6369-add9-4536-b995-2363a21a64fe"},"vehicle_type_id":"4","last_reported":1756206584,"current_range_meters":19200,"station_id":"ce4bhjp2rcd13ifvqga0","pricing_plan_id":"cebpf4jnsgd1na2vs0mg"},{"bike_id":"38a84e0b-d316-4df1-9721-381730688fea","system_id":"levelo_inurba_marseille","lat":43.30556,"lon":5.38408,"is_reserved":false,"is_disabled":false,"rental_uris":{"android":"levelo://app?vid=38a84e0b-d316-4df1-9721-381730688fea","ios":"levelo://app?vid=38a84e0b-d316-4df1-9721-381730688fea"},"vehicle_type_id":"4","last_reported":1756206584,"current_range_meters":19600,"station_id":"ce4bgg92rcd13ifvqb30","pricing_plan_id":"cebpf4jnsgd1na2vs0mg"},{"bike_id":"bf26b120-995b-4836-8f2c-73a63c7eec81","system_id":"levelo_inurba_marseille","lat":43.2844,"lon":5.39197,"is_reserved":false,"is_disabled":false,"rental_uris":{"android":"levelo://app?vid=bf26b120-995b-4836-8f2c-73a63c7eec81","ios":"levelo://app?vid=bf26b120-995b-4836-8f2c-73a63c7eec81"},"vehicle_type_id":"4","last_reported":1756206584,"current_range_meters":19600,"station_id":"ce4bhoh2rcd13ifvqh5g","pricing_plan_id":"cebpf4jnsgd1na2vs0mg"},{"bike_id":"a7bb5482-03a0-43ae-9354-5cba93e812fa","system_id":"levelo_inurba_marseille","lat":43.288849,"lon":5.399968,"is_reserved":false,"is_disabled":false,"rental_uris":{"android":"levelo://app?vid=a7bb5482-03a0-43ae-9354-5cba93e812fa","ios":"levelo://app?vid=a7bb5482-03a0-43ae-9354-5cba93e812fa"},"vehicle_type_id":"4","last_reported":1756206584,"current_range_meters":19600,"station_id":"ce4bhi12rcd13ifvqfp0","pricing_plan_id":"cebpf4jnsgd1na2vs0mg"},{"bike_id":"3efd5b4c-544b-47ae-b771-88c8225668bb","system_id":"levelo_inurba_marseille","lat":43.2417,"lon":5.36393,"is_reserved":false,"is_disabled":false,"rental_uris":{"android":"levelo://app?vid=3efd5b4c-544b-47ae-b771-88c8225668bb","ios":"levelo://app?vid=3efd5b4c-544b-47ae-b771-88c8225668bb"},"vehicle_type_id":"4","last_reported":1756206584,"current_range_meters":19600,"station_id":"cpo36qri1sfpv3e86is0","pricing_plan_id":"cebpf4jnsgd1na2vs0mg"},{"bike_id":"e5eabf25-4e1c-476e-b130-9f83cdcfc80c","system_id":"levelo_inurba_marseille","lat":43.29813,"lon":5.4171,"is_reserved":false,"is_disabled":false,"rental_uris":{"android":"levelo://app?vid=e5eabf25-4e1c-476e-b130-9f83cdcfc80c","ios":"levelo://app?vid=e5eabf25-4e1c-476e-b130-9f83cdcfc80c"},"vehicle_type_id":"4","last_reported":1756206584,"current_range_meters":19600,"station_id":"","pricing_plan_id":"cebpf4jnsgd1na2vs0mg"},{"bike_id":"1a853ef3-4a2b-4b0e-9557-275254a04133","system_id":"levelo_inurba_marseille","lat":43.29556,"lon":5.42291,"is_reserved":false,"is_disabled":false,"rental_uris":{"android":"levelo://app?vid=1a853ef3-4a2b-4b0e-9557-275254a04133","ios":"levelo://app?vid=1a853ef3-4a2b-4b0e-9557-275254a04133"},"vehicle_type_id":"4","last_reported":1756206584,"current_range_meters":19600,"station_id":"ce4bhph2rcd13ifvqhdg","pricing_plan_id":"cebpf4jnsgd1na2vs0mg"},{"bike_id":"82324bf5-cb38-4ad4-9d5d-28258fac66de","system_id":"levelo_inurba_marseille","lat":43.27309,"lon":5.39101,"is_reserved":false,"is_disabled":false,"rental_uris":{"android":"levelo://app?vid=82324bf5-cb38-4ad4-9d5d-28258fac66de","ios":"levelo://app?vid=82324bf5-cb38-4ad4-9d5d-28258fac66de"},"vehicle_type_id":"4","last_reported":1756206584,"current_range_meters":19600,"station_id":"ce4bhgp2rcd13ifvqfe0","pricing_plan_id":"cebpf4jnsgd1na2vs0mg"},{"bike_id":"7574a184-e163-435b-be50-4d80b1f9f304","system_id":"levelo_inurba_marseille","lat":43.24167,"lon":5.36391,"is_reserved":false,"is_disabled":false,"rental_uris":{"android":"levelo://app?vid=7574a184-e163-435b-be50-4d80b1f9f304","ios":"levelo://app?vid=7574a184-e163-435b-be50-4d80b1f9f304"},"vehicle_type_id":"4","last_reported":1756206584,"current_range_meters":19600,"station_id":"cpo36qri1sfpv3e86is0","pricing_plan_id":"cebpf4jnsgd1na2vs0mg"},{"bike_id":"91623bd8-bd63-4b0c-acb3-61a92819004f","system_id":"levelo_inurba_marseille","lat":43.2825,"lon":5.35083,"is_reserved":false,"is_disabled":false,"rental_uris":{"android":"levelo://app?vid=91623bd8-bd63-4b0c-acb3-61a92819004f","ios":"levelo://app?vid=91623bd8-bd63-4b0c-acb3-61a92819004f"},"vehicle_type_id":"4","last_reported":1756206584,"current_range_meters":19600,"station_id":"ce4bhbp2rcd13ifvqerg","pricing_plan_id":"cebpf4jnsgd1na2vs0mg"},{"bike_id":"5a63cc4f-02af-4d70-82a0-f2e560a9fea2","system_id":"levelo_inurba_marseille","lat":43.21747,"lon":5.34595,"is_reserved":false,"is_disabled":false,"rental_uris":{"android":"levelo://app?vid=5a63cc4f-02af-4d70-82a0-f2e560a9fea2","ios":"levelo://app?vid=5a63cc4f-02af-4d70-82a0-f2e560a9fea2"},"vehicle_type_id":"4","last_reported":1756206584,"current_range_meters":19600,"station_id":"st_cvj6r9ubvosntc0bgbag","pricing_plan_id":"cebpf4jnsgd1na2vs0mg"},{"bike_id":"ea3f0e70-58f7-4c4e-9a18-402a5de5f326","system_id":"levelo_inurba_marseille","lat":43.3109,"lon":5.36913,"is_reserved":false,"is_disabled":false,"rental_uris":{"android":"levelo://app?vid=ea3f0e70-58f7-4c4e-9a18-402a5de5f326","ios":"levelo://app?vid=ea3f0e70-58f7-4c4e-9a18-402a5de5f326"},"vehicle_type_id":"4","last_reported":1756206584,"current_range_meters":19600,"station_id":"","pricing_plan_id":"cebpf4jnsgd1na2vs0mg"},{"bike_id":"631acac0-e664-4a3e-8670-f1478f1e453f","system_id":"levelo_inurba_marseille","lat":43.29772,"lon":5.37131,"is_reserved":false,"is_disabled":false,"rental_uris":{"android":"levelo://app?vid=631acac0-e664-4a3e-8670-f1478f1e453f","ios":"levelo://app?vid=631acac0-e664-4a3e-8670-f1478f1e453f"},"vehicle_type_id":"4","last_reported":1756206584,"current_range_meters":19600,"station_id":"ce4bgop2rcd13ifvqc1g","pricing_plan_id":"cebpf4jnsgd1na2vs0mg"},{"bike_id":"eb43fbbe-eeda-4587-885e-53c2803804df","system_id":"levelo_inurba_marseille","lat":43.28412,"lon":5.34944,"is_reserved":false,"is_disabled":false,"rental_uris":{"android":"levelo://app?vid=eb43fbbe-eeda-4587-885e-53c2803804df","ios":"levelo://app?vid=eb43fbbe-eeda-4587-885e-53c2803804df"},"vehicle_type_id":"4","last_reported":1756206584,"current_range_meters":19600,"station_id":"ce4bhbh2rcd13ifvqepg","pricing_plan_id":"cebpf4jnsgd1na2vs0mg"},{"bike_id":"e72f1034-bdfb-40ef-8e3d-78ba48657b4a","system_id":"levelo_inurba_marseille","lat":43.28001,"lon":5.40017,"is_reserved":false,"is_disabled":false,"rental_uris":{"android":"levelo://app?vid=e72f1034-bdfb-40ef-8e3d-78ba48657b4a","ios":"levelo://app?vid=e72f1034-bdfb-40ef-8e3d-78ba48657b4a"},"vehicle_type_id":"4","last_reported":1756206584,"current_range_meters":19600,"station_id":"ce4bho92rcd13ifvqh4g","pricing_plan_id":"cebpf4jnsgd1na2vs0mg"},{"bike_id":"b17e9630-4e67-4e4a-bb95-0a4f7773f222","system_id":"levelo_inurba_marseille","lat":43.29591,"lon":5.3751,"is_reserved":false,"is_disabled":false,"rental_uris":{"android":"levelo://app?vid=b17e9630-4e67-4e4a-bb95-0a4f7773f222","ios":"levelo://app?vid=b17e9630-4e67-4e4a-bb95-0a4f7773f222"},"vehicle_type_id":"4","last_reported":1756206584,"current_range_meters":19600,"station_id":"","pricing_plan_id":"cebpf4jnsgd1na2vs0mg"},{"bike_id":"2501d5cd-698e-4349-98e9-8e46c7fbab71","system_id":"levelo_inurba_marseille","lat":43.265644,"lon":5.373309,"is_reserved":false,"is_disabled":false,"rental_uris":{"android":"levelo://app?vid=2501d5cd-698e-4349-98e9-8e46c7fbab71","ios":"levelo://app?vid=2501d5cd-698e-4349-98e9-8e46c7fbab71"},"vehicle_type_id":"4","last_reported":1756206584,"current_range_meters":20000,"station_id":"ce4bhg12rcd13ifvqf70","pricing_plan_id":"cebpf4jnsgd1na2vs0mg"},{"bike_id":"5c26a54e-1e97-4ad3-a16d-614ad930b130","system_id":"levelo_inurba_marseille","lat":43.32097,"lon":5.36765,"is_reserved":false,"is_disabled":false,"rental_uris":{"android":"levelo://app?vid=5c26a54e-1e97-4ad3-a16d-614ad930b130","ios":"levelo://app?vid=5c26a54e-1e97-4ad3-a16d-614ad930b130"},"vehicle_type_id":"4","last_reported":1756206584,"current_range_meters":20000,"station_id":"ce4bhrh2rcd13ifvqhug","pricing_plan_id":"cebpf4jnsgd1na2vs0mg"},{"bike_id":"3115c199-1541-45cb-a98a-f6ff5bbd4b1f","system_id":"levelo_inurba_marseille","lat":43.307967,"lon":5.369837,"is_reserved":false,"is_disabled":false,"rental_uris":{"android":"levelo://app?vid=3115c199-1541-45cb-a98a-f6ff5bbd4b1f","ios":"levelo://app?vid=3115c199-1541-45cb-a98a-f6ff5bbd4b1f"},"vehicle_type_id":"4","last_reported":1756206584,"current_range_meters":20000,"station_id":"","pricing_plan_id":"cebpf4jnsgd1na2vs0mg"},{"bike_id":"a9d83b21-9821-4029-bb59-40c830188146","system_id":"levelo_inurba_marseille","lat":43.3237,"lon":5.36749,"is_reserved":false,"is_disabled":false,"rental_uris":{"android":"levelo://app?vid=a9d83b21-9821-4029-bb59-40c830188146","ios":"levelo://app?vid=a9d83b21-9821-4029-bb59-40c830188146"},"vehicle_type_id":"4","last_reported":1756206584,"current_range_meters":20000,"station_id":"ce4bhsh2rcd13ifvqi2g","pricing_plan_id":"cebpf4jnsgd1na2vs0mg"},{"bike_id":"f67c8e5e-7af8-4847-a4ce-1e12088b4291","system_id":"levelo_inurba_marseille","lat":43.325222,"lon":5.368603,"is_reserved":false,"is_disabled":false,"rental_uris":{"android":"levelo://app?vid=f67c8e5e-7af8-4847-a4ce-1e12088b4291","ios":"levelo://app?vid=f67c8e5e-7af8-4847-a4ce-1e12088b4291"},"vehicle_type_id":"4","last_reported":1756206584,"current_range_meters":20000,"station_id":"","pricing_plan_id":"cebpf4jnsgd1na2vs0mg"},{"bike_id":"de189443-23b4-4494-9f3e-8e50a85504c9","system_id":"levelo_inurba_marseille","lat":43.24166,"lon":5.36395,"is_reserved":false,"is_disabled":false,"rental_uris":{"android":"levelo://app?vid=de189443-23b4-4494-9f3e-8e50a85504c9","ios":"levelo://app?vid=de189443-23b4-4494-9f3e-8e50a85504c9"},"vehicle_type_id":"4","last_reported":1756206584,"current_range_meters":20000,"station_id":"cpo36qri1sfpv3e86is0","pricing_plan_id":"cebpf4jnsgd1na2vs0mg"},{"bike_id":"2e15eb2a-29a5-458c-b1e7-35e0d403e0d0","system_id":"levelo_inurba_marseille","lat":43.21743,"lon":5.34603,"is_reserved":false,"is_disabled":false,"rental_uris":{"android":"levelo://app?vid=2e15eb2a-29a5-458c-b1e7-35e0d403e0d0","ios":"levelo://app?vid=2e15eb2a-29a5-458c-b1e7-35e0d403e0d0"},"vehicle_type_id":"4","last_reported":1756206584,"current_range_meters":20000,"station_id":"st_cvj6r9ubvosntc0bgbag","pricing_plan_id":"cebpf4jnsgd1na2vs0mg"},{"bike_id":"c561b3be-23f4-46ed-8d38-1fc2450f503d","system_id":"levelo_inurba_marseille","lat":43.23647,"lon":5.36233,"is_reserved":false,"is_disabled":false,"rental_uris":{"android":"levelo://app?vid=c561b3be-23f4-46ed-8d38-1fc2450f503d","ios":"levelo://app?vid=c561b3be-23f4-46ed-8d38-1fc2450f503d"},"vehicle_type_id":"4","last_reported":1756206584,"current_range_meters":20000,"station_id":"","pricing_plan_id":"cebpf4jnsgd1na2vs0mg"},{"bike_id":"70573650-9cf4-4bd3-81cb-ccd1ff54a0ac","system_id":"levelo_inurba_marseille","lat":43.26211,"lon":5.37442,"is_reserved":false,"is_disabled":false,"rental_uris":{"android":"levelo://app?vid=70573650-9cf4-4bd3-81cb-ccd1ff54a0ac","ios":"levelo://app?vid=70573650-9cf4-4bd3-81cb-ccd1ff54a0ac"},"vehicle_type_id":"4","last_reported":1756206584,"current_range_meters":20000,"station_id":"ce4bhgp2rcd13ifvqfc0","pricing_plan_id":"cebpf4jnsgd1na2vs0mg"},{"bike_id":"5ae0b730-282c-47e7-ad5d-6c44221d9fc5","system_id":"levelo_inurba_marseille","lat":43.2861,"lon":5.35108,"is_reserved":false,"is_disabled":false,"rental_uris":{"android":"levelo://app?vid=5ae0b730-282c-47e7-ad5d-6c44221d9fc5","ios":"levelo://app?vid=5ae0b730-282c-47e7-ad5d-6c44221d9fc5"},"vehicle_type_id":"4","last_reported":1756206584,"current_range_meters":20000,"station_id":"ce4bhch2rcd13ifvqeug","pricing_plan_id":"cebpf4jnsgd1na2vs0mg"},{"bike_id":"5557189e-4d8c-412b-8888-94db0ea051a7","system_id":"levelo_inurba_marseille","lat":43.33767,"lon":5.37443,"is_reserved":false,"is_disabled":false,"rental_uris":{"android":"levelo://app?vid=5557189e-4d8c-412b-8888-94db0ea051a7","ios":"levelo://app?vid=5557189e-4d8c-412b-8888-94db0ea051a7"},"vehicle_type_id":"4","last_reported":1756206584,"current_range_meters":20000,"station_id":"","pricing_plan_id":"cebpf4jnsgd1na2vs0mg"},{"bike_id":"84ba8b0b-6d6a-4919-9e45-3a5593232fd2","system_id":"levelo_inurba_marseille","lat":43.24167,"lon":5.36397,"is_reserved":false,"is_disabled":false,"rental_uris":{"android":"levelo://app?vid=84ba8b0b-6d6a-4919-9e45-3a5593232fd2","ios":"levelo://app?vid=84ba8b0b-6d6a-4919-9e45-3a5593232fd2"},"vehicle_type_id":"4","last_reported":1756206584,"current_range_meters":20000,"station_id":"cpo36qri1sfpv3e86is0","pricing_plan_id":"cebpf4jnsgd1na2vs0mg"},{"bike_id":"29d5d800-a204-440d-879c-7826a4a1c767","system_id":"levelo_inurba_marseille","lat":43.27663,"lon":5.38883,"is_reserved":false,"is_disabled":false,"rental_uris":{"android":"levelo://app?vid=29d5d800-a204-440d-879c-7826a4a1c767","ios":"levelo://app?vid=29d5d800-a204-440d-879c-7826a4a1c767"},"vehicle_type_id":"4","last_reported":1756206584,"current_range_meters":20400,"station_id":"ce4bhi12rcd13ifvqfo0","pricing_plan_id":"cebpf4jnsgd1na2vs0mg"},{"bike_id":"7d802eb3-8055-4765-a5e9-6c32f6d7ebc7","system_id":"levelo_inurba_marseille","lat":43.23955,"lon":5.36628,"is_reserved":false,"is_disabled":false,"rental_uris":{"android":"levelo://app?vid=7d802eb3-8055-4765-a5e9-6c32f6d7ebc7","ios":"levelo://app?vid=7d802eb3-8055-4765-a5e9-6c32f6d7ebc7"},"vehicle_type_id":"4","last_reported":1756206584,"current_range_meters":20400,"station_id":"ce4bhi12rcd13ifvqfp0","pricing_plan_id":"cebpf4jnsgd1na2vs0mg"},{"bike_id":"5002ab8f-0c9d-4313-b523-fd24100199d7","system_id":"levelo_inurba_marseille","lat":43.32487,"lon":5.36571,"is_reserved":false,"is_disabled":false,"rental_uris":{"android":"levelo://app?vid=5002ab8f-0c9d-4313-b523-fd24100199d7","ios":"levelo://app?vid=5002ab8f-0c9d-4313-b523-fd24100199d7"},"vehicle_type_id":"4","last_reported":1756206584,"current_range_meters":20400,"station_id":"ce4bhs12rcd13ifvqhvg","pricing_plan_id":"cebpf4jnsgd1na2vs0mg"},{"bike_id":"27ed6ef4-212c-4a1d-8bee-f1ac9a3f11b9","system_id":"levelo_inurba_marseille","lat":43.27369,"lon":5.36258,"is_reserved":false,"is_disabled":false,"rental_uris":{"android":"levelo://app?vid=27ed6ef4-212c-4a1d-8bee-f1ac9a3f11b9","ios":"levelo://app?vid=27ed6ef4-212c-4a1d-8bee-f1ac9a3f11b9"},"vehicle_type_id":"4","last_reported":1756206584,"current_range_meters":20400,"station_id":"ce4bhbh2rcd13ifvqeo0","pricing_plan_id":"cebpf4jnsgd1na2vs0mg"},{"bike_id":"71136ea1-3aaf-4521-8084-554abe261412","system_id":"levelo_inurba_marseille","lat":43.303037,"lon":5.369059,"is_reserved":false,"is_disabled":true,"rental_uris":{"android":"levelo://app?vid=71136ea1-3aaf-4521-8084-554abe261412","ios":"levelo://app?vid=71136ea1-3aaf-4521-8084-554abe261412"},"vehicle_type_id":"4","last_reported":1756206584,"current_range_meters":20400,"station_id":"","pricing_plan_id":"cebpf4jnsgd1na2vs0mg"},{"bike_id":"dcde8d9e-f882-4230-a37f-7ddc04dac0e0","system_id":"levelo_inurba_marseille","lat":43.29935,"lon":5.37481,"is_reserved":false,"is_disabled":false,"rental_uris":{"android":"levelo://app?vid=dcde8d9e-f882-4230-a37f-7ddc04dac0e0","ios":"levelo://app?vid=dcde8d9e-f882-4230-a37f-7ddc04dac0e0"},"vehicle_type_id":"4","last_reported":1756206584,"current_range_meters":20400,"station_id":"ce4bgjh2rcd13ifvqbg0","pricing_plan_id":"cebpf4jnsgd1na2vs0mg"},{"bike_id":"a3a7f6d7-3fcf-4732-ba48-49696a87fb7f","system_id":"levelo_inurba_marseille","lat":43.25107,"lon":5.40324,"is_reserved":false,"is_disabled":false,"rental_uris":{"android":"levelo://app?vid=a3a7f6d7-3fcf-4732-ba48-49696a87fb7f","ios":"levelo://app?vid=a3a7f6d7-3fcf-4732-ba48-49696a87fb7f"},"vehicle_type_id":"4","last_reported":1756206584,"current_range_meters":20400,"station_id":"ce4bhlh2rcd13ifvqgig","pricing_plan_id":"cebpf4jnsgd1na2vs0mg"},{"bike_id":"a2f8b129-3a5c-4812-810b-49f7f2fb2e43","system_id":"levelo_inurba_marseille","lat":43.28442,"lon":5.39211,"is_reserved":false,"is_disabled":false,"rental_uris":{"android":"levelo://app?vid=a2f8b129-3a5c-4812-810b-49f7f2fb2e43","ios":"levelo://app?vid=a2f8b129-3a5c-4812-810b-49f7f2fb2e43"},"vehicle_type_id":"4","last_reported":1756206584,"current_range_meters":20400,"station_id":"ce4bhoh2rcd13ifvqh5g","pricing_plan_id":"cebpf4jnsgd1na2vs0mg"},{"bike_id":"d250cc66-9cd0-48a1-847b-476f8f8b95fe","system_id":"levelo_inurba_marseille","lat":43.24064,"lon":5.37784,"is_reserved":false,"is_disabled":false,"rental_uris":{"android":"levelo://app?vid=d250cc66-9cd0-48a1-847b-476f8f8b95fe","ios":"levelo://app?vid=d250cc66-9cd0-48a1-847b-476f8f8b95fe"},"vehicle_type_id":"4","last_reported":1756206584,"current_range_meters":20400,"station_id":"ce4bhnp2rcd13ifvqgvg","pricing_plan_id":"cebpf4jnsgd1na2vs0mg"},{"bike_id":"eb599440-6f2c-49c6-9d40-9082e15345a9","system_id":"levelo_inurba_marseille","lat":43.28625,"lon":5.35098,"is_reserved":false,"is_disabled":false,"rental_uris":{"android":"levelo://app?vid=eb599440-6f2c-49c6-9d40-9082e15345a9","ios":"levelo://app?vid=eb599440-6f2c-49c6-9d40-9082e15345a9"},"vehicle_type_id":"4","last_reported":1756206584,"current_range_meters":20800,"station_id":"ce4bhch2rcd13ifvqeug","pricing_plan_id":"cebpf4jnsgd1na2vs0mg"},{"bike_id":"0f3f14e9-6c32-4716-9ea5-e214ac751773","system_id":"levelo_inurba_marseille","lat":43.29688,"lon":5.37304,"is_reserved":false,"is_disabled":false,"rental_uris":{"android":"levelo://app?vid=0f3f14e9-6c32-4716-9ea5-e214ac751773","ios":"levelo://app?vid=0f3f14e9-6c32-4716-9ea5-e214ac751773"},"vehicle_type_id":"4","last_reported":1756206584,"current_range_meters":20800,"station_id":"ce4bgk12rcd13ifvqbj0","pricing_plan_id":"cebpf4jnsgd1na2vs0mg"},{"bike_id":"9f2bb7dc-bd4f-42d8-99ee-fec2cba10242","system_id":"levelo_inurba_marseille","lat":43.2995,"lon":5.37975,"is_reserved":false,"is_disabled":false,"rental_uris":{"android":"levelo://app?vid=9f2bb7dc-bd4f-42d8-99ee-fec2cba10242","ios":"levelo://app?vid=9f2bb7dc-bd4f-42d8-99ee-fec2cba10242"},"vehicle_type_id":"4","last_reported":1756206584,"current_range_meters":20800,"station_id":"","pricing_plan_id":"cebpf4jnsgd1na2vs0mg"},{"bike_id":"486c2794-4802-431f-8082-f66b753295b9","system_id":"levelo_inurba_marseille","lat":43.255718,"lon":5.382375,"is_reserved":false,"is_disabled":false,"rental_uris":{"android":"levelo://app?vid=486c2794-4802-431f-8082-f66b753295b9","ios":"levelo://app?vid=486c2794-4802-431f-8082-f66b753295b9"},"vehicle_type_id":"4","last_reported":1756206584,"current_range_meters":20800,"station_id":"ce4bhih2rcd13ifvqfs0","pricing_plan_id":"cebpf4jnsgd1na2vs0mg"},{"bike_id":"c2fb60ee-2ccd-449d-8f9a-80659f509276","system_id":"levelo_inurba_marseille","lat":43.30642,"lon":5.40095,"is_reserved":false,"is_disabled":false,"rental_uris":{"android":"levelo://app?vid=c2fb60ee-2ccd-449d-8f9a-80659f509276","ios":"levelo://app?vid=c2fb60ee-2ccd-449d-8f9a-80659f509276"},"vehicle_type_id":"4","last_reported":1756206584,"current_range_meters":20800,"station_id":"ce4bh112rcd13ifvqda0","pricing_plan_id":"cebpf4jnsgd1na2vs0mg"},{"bike_id":"3f9be686-da07-4cff-aa83-58ad7250b77b","system_id":"levelo_inurba_marseille","lat":43.2843,"lon":5.34988,"is_reserved":false,"is_disabled":false,"rental_uris":{"android":"levelo://app?vid=3f9be686-da07-4cff-aa83-58ad7250b77b","ios":"levelo://app?vid=3f9be686-da07-4cff-aa83-58ad7250b77b"},"vehicle_type_id":"4","last_reported":1756206584,"current_range_meters":20800,"station_id":"ce4bhbh2rcd13ifvqepg","pricing_plan_id":"cebpf4jnsgd1na2vs0mg"},{"bike_id":"fd0d17b8-25ae-4ac8-9d67-05955a2b3e59","system_id":"levelo_inurba_marseille","lat":43.2826,"lon":5.35072,"is_reserved":false,"is_disabled":false,"rental_uris":{"android":"levelo://app?vid=fd0d17b8-25ae-4ac8-9d67-05955a2b3e59","ios":"levelo://app?vid=fd0d17b8-25ae-4ac8-9d67-05955a2b3e59"},"vehicle_type_id":"4","last_reported":1756206584,"current_range_meters":20400,"station_id":"ce4bhbp2rcd13ifvqerg","pricing_plan_id":"cebpf4jnsgd1na2vs0mg"},{"bike_id":"42e2fd6e-06fb-4d47-b8f3-e95077df99c4","system_id":"levelo_inurba_marseille","lat":43.29776,"lon":5.37307,"is_reserved":false,"is_disabled":false,"rental_uris":{"android":"levelo://app?vid=42e2fd6e-06fb-4d47-b8f3-e95077df99c4","ios":"levelo://app?vid=42e2fd6e-06fb-4d47-b8f3-e95077df99c4"},"vehicle_type_id":"4","last_reported":1756206584,"current_range_meters":20800,"station_id":"","pricing_plan_id":"cebpf4jnsgd1na2vs0mg"},{"bike_id":"ff8eca27-c3af-4b5f-a8ea-f625dcefbe2a","system_id":"levelo_inurba_marseille","lat":43.27457,"lon":5.39379,"is_reserved":false,"is_disabled":false,"rental_uris":{"android":"levelo://app?vid=ff8eca27-c3af-4b5f-a8ea-f625dcefbe2a","ios":"levelo://app?vid=ff8eca27-c3af-4b5f-a8ea-f625dcefbe2a"},"vehicle_type_id":"4","last_reported":1756206584,"current_range_meters":20800,"station_id":"","pricing_plan_id":"cebpf4jnsgd1na2vs0mg"},{"bike_id":"49584461-7f8d-4a73-bb92-3388bedb0ee3","system_id":"levelo_inurba_marseille","lat":43.2606,"lon":5.39394,"is_reserved":false,"is_disabled":false,"rental_uris":{"android":"levelo://app?vid=49584461-7f8d-4a73-bb92-3388bedb0ee3","ios":"levelo://app?vid=49584461-7f8d-4a73-bb92-3388bedb0ee3"},"vehicle_type_id":"4","last_reported":1756206584,"current_range_meters":20800,"station_id":"ce4bhh92rcd13ifvqfj0","pricing_plan_id":"cebpf4jnsgd1na2vs0mg"},{"bike_id":"36036a36-829b-47c5-a8e3-74d91dc2970b","system_id":"levelo_inurba_marseille","lat":43.26211,"lon":5.3745,"is_reserved":false,"is_disabled":false,"rental_uris":{"android":"levelo://app?vid=36036a36-829b-47c5-a8e3-74d91dc2970b","ios":"levelo://app?vid=36036a36-829b-47c5-a8e3-74d91dc2970b"},"vehicle_type_id":"4","last_reported":1756206584,"current_range_meters":20800,"station_id":"ce4bhgp2rcd13ifvqfc0","pricing_plan_id":"cebpf4jnsgd1na2vs0mg"},{"bike_id":"bd4376ea-7d2d-4cf4-9dc1-caf98f82dced","system_id":"levelo_inurba_marseille","lat":43.333201,"lon":5.397396,"is_reserved":false,"is_disabled":false,"rental_uris":{"android":"levelo://app?vid=bd4376ea-7d2d-4cf4-9dc1-caf98f82dced","ios":"levelo://app?vid=bd4376ea-7d2d-4cf4-9dc1-caf98f82dced"},"vehicle_type_id":"4","last_reported":1756206584,"current_range_meters":21600,"station_id":"","pricing_plan_id":"cebpf4jnsgd1na2vs0mg"},{"bike_id":"ce350f98-d176-4650-8576-d643b6053e11","system_id":"levelo_inurba_marseille","lat":43.27196,"lon":5.39196,"is_reserved":false,"is_disabled":false,"rental_uris":{"android":"levelo://app?vid=ce350f98-d176-4650-8576-d643b6053e11","ios":"levelo://app?vid=ce350f98-d176-4650-8576-d643b6053e11"},"vehicle_type_id":"4","last_reported":1756206584,"current_range_meters":21600,"station_id":"ce4bhhp2rcd13ifvqfm0","pricing_plan_id":"cebpf4jnsgd1na2vs0mg"},{"bike_id":"cb1eb6d7-4acd-4aa6-be9a-ffa1ac8012d5","system_id":"levelo_inurba_marseille","lat":43.27041,"lon":5.42275,"is_reserved":false,"is_disabled":false,"rental_uris":{"android":"levelo://app?vid=cb1eb6d7-4acd-4aa6-be9a-ffa1ac8012d5","ios":"levelo://app?vid=cb1eb6d7-4acd-4aa6-be9a-ffa1ac8012d5"},"vehicle_type_id":"4","last_reported":1756206584,"current_range_meters":21600,"station_id":"ce4bhk92rcd13ifvqgb0","pricing_plan_id":"cebpf4jnsgd1na2vs0mg"},{"bike_id":"d810acf0-5bd2-4bf1-848d-31cd30d105e6","system_id":"levelo_inurba_marseille","lat":43.269831,"lon":5.392782,"is_reserved":false,"is_disabled":false,"rental_uris":{"android":"levelo://app?vid=d810acf0-5bd2-4bf1-848d-31cd30d105e6","ios":"levelo://app?vid=d810acf0-5bd2-4bf1-848d-31cd30d105e6"},"vehicle_type_id":"4","last_reported":1756206584,"current_range_meters":21600,"station_id":"","pricing_plan_id":"cebpf4jnsgd1na2vs0mg"},{"bike_id":"4c82beab-1cad-46f7-a8ca-eb8dcbd949ef","system_id":"levelo_inurba_marseille","lat":43.27577,"lon":5.39681,"is_reserved":false,"is_disabled":false,"rental_uris":{"android":"levelo://app?vid=4c82beab-1cad-46f7-a8ca-eb8dcbd949ef","ios":"levelo://app?vid=4c82beab-1cad-46f7-a8ca-eb8dcbd949ef"},"vehicle_type_id":"4","last_reported":1756206584,"current_range_meters":21600,"station_id":"","pricing_plan_id":"cebpf4jnsgd1na2vs0mg"},{"bike_id":"0b56a93b-e284-4698-9a80-9c054c2fc3c9","system_id":"levelo_inurba_marseille","lat":43.268066,"lon":5.390591,"is_reserved":false,"is_disabled":false,"rental_uris":{"android":"levelo://app?vid=0b56a93b-e284-4698-9a80-9c054c2fc3c9","ios":"levelo://app?vid=0b56a93b-e284-4698-9a80-9c054c2fc3c9"},