{"last_updated":1746994226,"ttl":60,"version":"2.2","data":{"bikes":[{"bike_id":"c0b9fd4f-e181-46ce-b0bf-f5119973334f","system_id":"levelo_inurba_marseille","lat":43.33771,"lon":5.37424,"is_reserved":false,"is_disabled":false,"rental_uris":{"android":"levelo://app?vid=c0b9fd4f-e181-46ce-b0bf-f5119973334f","ios":"levelo://app?vid=c0b9fd4f-e181-46ce-b0bf-f5119973334f"},"vehicle_type_id":"4","last_reported":1746994226,"current_range_meters":31200,"station_id":"","pricing_plan_id":"cebpf4jnsgd1na2vs0mg"},{"bike_id":"229001d2-7627-43e0-aeea-2d75580fd339","system_id":"levelo_inurba_marseille","lat":43.28281,"lon":5.43255,"is_reserved":false,"is_disabled":true,"rental_uris":{"android":"levelo://app?vid=229001d2-7627-43e0-aeea-2d75580fd339","ios":"levelo://app?vid=229001d2-7627-43e0-aeea-2d75580fd339"},"vehicle_type_id":"4","last_reported":1746994226,"current_range_meters":0,"station_id":"","pricing_plan_id":"cebpf4jnsgd1na2vs0mg"},{"bike_id":"ad17c5b4-973a-4cb5-ad8c-32068ccae9d2","system_id":"levelo_inurba_marseille","lat":43.28684,"lon":5.42261,"is_reserved":false,"is_disabled":true,"rental_uris":{"android":"levelo://app?vid=ad17c5b4-973a-4cb5-ad8c-32068ccae9d2","ios":"levelo://app?vid=ad17c5b4-973a-4cb5-ad8c-32068ccae9d2"},"vehicle_type_id":"4","last_reported":1746994226,"current_range_meters":0,"station_id":"","pricing_plan_id":"cebpf4jnsgd1na2vs0mg"},{"bike_id":"a72028ca-425b-4f2c-9e2d-16be28a01f65","system_id":"levelo_inurba_marseille","lat":43.26021,"lon":5.41736,"is_reserved":false,"is_disabled":true,"rental_uris":{"android":"levelo://app?vid=a72028ca-425b-4f2c-9e2d-16be28a01f65","ios":"levelo://app?vid=a72028ca-425b-4f2c-9e2d-16be28a01f65"},"vehicle_type_id":"4","last_reported":1746994226,"current_range_meters":0,"station_id":"","pricing_plan_id":"cebpf4jnsgd1na2vs0mg"},{"bike_id":"e43d995b-a136-4201-b650-ca62eacfe18a","system_id":"levelo_inurba_marseille","lat":43.27135,"lon":5.36371,"is_reserved":false,"is_disabled":true,"rental_uris":{"android":"levelo://app?vid=e43d995b-a136-4201-b650-ca62eacfe18a","ios":"levelo://app?vid=e43d995b-a136-4201-b650-ca62eacfe18a"},"vehicle_type_id":"4","last_reported":1746994226,"current_range_meters":0,"station_id":"","pricing_plan_id":"cebpf4jnsgd1na2vs0mg"},{"bike_id":"4bbab4cc-247b-4bfc-bce7-78a32d96c1e0","system_id":"levelo_inurba_marseille","lat":43.28936,"lon":5.36625,"is_reserved":false,"is_disabled":true,"rental_uris":{"android":"levelo://app?vid=4bbab4cc-247b-4bfc-bce7-78a32d96c1e0","ios":"levelo://app?vid=4bbab4cc-247b-4bfc-bce7-78a32d96c1e0"},"vehicle_type_id":"4","last_reported":1746994226,"current_range_meters":0,"station_id":"ce4bhap2rcd13ifvqek0","pricing_plan_id":"cebpf4jnsgd1na2vs0mg"},{"bike_id":"6c198a00-58b0-4df6-9c2d-70c782fc7f7c","system_id":"levelo_inurba_marseille","lat":43.29225,"lon":5.36051,"is_reserved":false,"is_disabled":true,"rental_uris":{"android":"levelo://app?vid=6c198a00-58b0-4df6-9c2d-70c782fc7f7c","ios":"levelo://app?vid=6c198a00-58b0-4df6-9c2d-70c782fc7f7c"},"vehicle_type_id":"4","last_reported":1746994226,"current_range_meters":0,"station_id":"ce4bhbh2rcd13ifvqeqg","pricing_plan_id":"cebpf4jnsgd1na2vs0mg"},{"bike_id":"63bdd50a-b728-4d10-9320-dbc9bfa5973f","system_id":"levelo_inurba_marseille","lat":43.27072,"lon":5.42278,"is_reserved":false,"is_disabled":true,"rental_uris":{"android":"levelo://app?vid=63bdd50a-b728-4d10-9320-dbc9bfa5973f","ios":"levelo://app?vid=63bdd50a-b728-4d10-9320-dbc9bfa5973f"},"vehicle_type_id":"4","last_reported":1746994226,"current_range_meters":0,"station_id":"ce4bhk92rcd13ifvqgb0","pricing_plan_id":"cebpf4jnsgd1na2vs0mg"},{"bike_id":"23a79623-bd28-4e4e-846d-c54e6a6324a1","system_id":"levelo_inurba_marseille","lat":43.32091,"lon":5.40767,"is_reserved":false,"is_disabled":true,"rental_uris":{"android":"levelo://app?vid=23a79623-bd28-4e4e-846d-c54e6a6324a1","ios":"levelo://app?vid=23a79623-bd28-4e4e-846d-c54e6a6324a1"},"vehicle_type_id":"4","last_reported":1746994226,"current_range_meters":400,"station_id":"","pricing_plan_id":"cebpf4jnsgd1na2vs0mg"},{"bike_id":"b959bc24-5bd8-4089-9204-f400f438c72e","system_id":"levelo_inurba_marseille","lat":43.31484,"lon":5.37307,"is_reserved":false,"is_disabled":true,"rental_uris":{"android":"levelo://app?vid=b959bc24-5bd8-4089-9204-f400f438c72e","ios":"levelo://app?vid=b959bc24-5bd8-4089-9204-f400f438c72e"},"vehicle_type_id":"4","last_reported":1746994226,"current_range_meters":800,"station_id":"ce4bgt12rcd13ifvqcd0","pricing_plan_id":"cebpf4jnsgd1na2vs0mg"},{"bike_id":"a2c63fe2-1a4c-4119-974b-15d485603b06","system_id":"levelo_inurba_marseille","lat":43.28105,"lon":5.36845,"is_reserved":false,"is_disabled":true,"rental_uris":{"android":"levelo://app?vid=a2c63fe2-1a4c-4119-974b-15d485603b06","ios":"levelo://app?vid=a2c63fe2-1a4c-4119-974b-15d485603b06"},"vehicle_type_id":"4","last_reported":1746994226,"current_range_meters":1600,"station_id":"","pricing_plan_id":"cebpf4jnsgd1na2vs0mg"},{"bike_id":"ec234ae4-ddab-4bae-8a6d-b01e30a65aaf","system_id":"levelo_inurba_marseille","lat":43.31127,"lon":5.36837,"is_reserved":false,"is_disabled":true,"rental_uris":{"android":"levelo://app?vid=ec234ae4-ddab-4bae-8a6d-b01e30a65aaf","ios":"levelo://app?vid=ec234ae4-ddab-4bae-8a6d-b01e30a65aaf"},"vehicle_type_id":"4","last_reported":1746994226,"current_range_meters":1600,"station_id":"","pricing_plan_id":"cebpf4jnsgd1na2vs0mg"},{"bike_id":"098285de-3808-4156-93ff-bb600c647b64","system_id":"levelo_inurba_marseille","lat":43.3046,"lon":5.37904,"is_reserved":false,"is_disabled":false,"rental_uris":{"android":"levelo://app?vid=098285de-3808-4156-93ff-bb600c647b64","ios":"levelo://app?vid=098285de-3808-4156-93ff-bb600c647b64"},"vehicle_type_id":"4","last_reported":1746994226,"current_range_meters":2800,"station_id":"ce4bgup2rcd13ifvqcn0","pricing_plan_id":"cebpf4jnsgd1na2vs0mg"},{"bike_id":"dfe13e4e-3aa3-4517-a393-7368677d2fb1","system_id":"levelo_inurba_marseille","lat":43.28452,"lon":5.35887,"is_reserved":false,"is_disabled":false,"rental_uris":{"android":"levelo://app?vid=dfe13e4e-3aa3-4517-a393-7368677d2fb1","ios":"levelo://app?vid=dfe13e4e-3aa3-4517-a393-7368677d2fb1"},"vehicle_type_id":"4","last_reported":1746994226,"current_range_meters":2800,"station_id":"ce4bhah2rcd13ifvqei0","pricing_plan_id":"cebpf4jnsgd1na2vs0mg"},{"bike_id":"ad0cdf23-3974-4bf1-b2ea-09921100cd69","system_id":"levelo_inurba_marseille","lat":43.231742,"lon":5.399873,"is_reserved":false,"is_disabled":false,"rental_uris":{"android":"levelo://app?vid=ad0cdf23-3974-4bf1-b2ea-09921100cd69","ios":"levelo://app?vid=ad0cdf23-3974-4bf1-b2ea-09921100cd69"},"vehicle_type_id":"4","last_reported":1746994226,"current_range_meters":3200,"station_id":"ce4bhn12rcd13ifvqgqg","pricing_plan_id":"cebpf4jnsgd1na2vs0mg"},{"bike_id":"54fc51dd-5e0b-4647-bcfc-5b8be38bc840","system_id":"levelo_inurba_marseille","lat":43.23967,"lon":5.36631,"is_reserved":false,"is_disabled":false,"rental_uris":{"android":"levelo://app?vid=54fc51dd-5e0b-4647-bcfc-5b8be38bc840","ios":"levelo://app?vid=54fc51dd-5e0b-4647-bcfc-5b8be38bc840"},"vehicle_type_id":"4","last_reported":1746994226,"current_range_meters":3600,"station_id":"ce4bhi12rcd13ifvqfp0","pricing_plan_id":"cebpf4jnsgd1na2vs0mg"},{"bike_id":"92f490ac-0ba4-49da-b65b-50f282711f9d","system_id":"levelo_inurba_marseille","lat":43.301422,"lon":5.390739,"is_reserved":false,"is_disabled":false,"rental_uris":{"android":"levelo://app?vid=92f490ac-0ba4-49da-b65b-50f282711f9d","ios":"levelo://app?vid=92f490ac-0ba4-49da-b65b-50f282711f9d"},"vehicle_type_id":"4","last_reported":1746994226,"current_range_meters":4000,"station_id":"","pricing_plan_id":"cebpf4jnsgd1na2vs0mg"},{"bike_id":"f641509e-4c1c-4e8c-bafd-2ed42db4b63f","system_id":"levelo_inurba_marseille","lat":43.304197,"lon":5.412061,"is_reserved":false,"is_disabled":false,"rental_uris":{"android":"levelo://app?vid=f641509e-4c1c-4e8c-bafd-2ed42db4b63f","ios":"levelo://app?vid=f641509e-4c1c-4e8c-bafd-2ed42db4b63f"},"vehicle_type_id":"4","last_reported":1746994226,"current_range_meters":4000,"station_id":"ce4bhop2rcd13ifvqh8g","pricing_plan_id":"cebpf4jnsgd1na2vs0mg"},{"bike_id":"1d41434c-6e17-4258-b8e7-199807545c7a","system_id":"levelo_inurba_marseille","lat":43.292664,"lon":5.384475,"is_reserved":false,"is_disabled":false,"rental_uris":{"android":"levelo://app?vid=1d41434c-6e17-4258-b8e7-199807545c7a","ios":"levelo://app?vid=1d41434c-6e17-4258-b8e7-199807545c7a"},"vehicle_type_id":"4","last_reported":1746994226,"current_range_meters":4400,"station_id":"ce4bgn12rcd13ifvqbt0","pricing_plan_id":"cebpf4jnsgd1na2vs0mg"},{"bike_id":"098a6b5d-ad6e-4fdd-a916-81e3cfc37f3c","system_id":"levelo_inurba_marseille","lat":43.29422,"lon":5.38626,"is_reserved":false,"is_disabled":false,"rental_uris":{"android":"levelo://app?vid=098a6b5d-ad6e-4fdd-a916-81e3cfc37f3c","ios":"levelo://app?vid=098a6b5d-ad6e-4fdd-a916-81e3cfc37f3c"},"vehicle_type_id":"4","last_reported":1746994226,"current_range_meters":4400,"station_id":"ce4bh2h2rcd13ifvqdh0","pricing_plan_id":"cebpf4jnsgd1na2vs0mg"},{"bike_id":"712c3a92-936e-42bc-8c2c-8b4dac8faebc","system_id":"levelo_inurba_marseille","lat":43.25865,"lon":5.39914,"is_reserved":false,"is_disabled":false,"rental_uris":{"android":"levelo://app?vid=712c3a92-936e-42bc-8c2c-8b4dac8faebc","ios":"levelo://app?vid=712c3a92-936e-42bc-8c2c-8b4dac8faebc"},"vehicle_type_id":"4","last_reported":1746994226,"current_range_meters":4400,"station_id":"ce4bhl92rcd13ifvqghg","pricing_plan_id":"cebpf4jnsgd1na2vs0mg"},{"bike_id":"0db49075-cbb6-4be1-9485-af5a1d099f86","system_id":"levelo_inurba_marseille","lat":43.27945,"lon":5.4104,"is_reserved":false,"is_disabled":false,"rental_uris":{"android":"levelo://app?vid=0db49075-cbb6-4be1-9485-af5a1d099f86","ios":"levelo://app?vid=0db49075-cbb6-4be1-9485-af5a1d099f86"},"vehicle_type_id":"4","last_reported":1746994226,"current_range_meters":4400,"station_id":"ce4bhnp2rcd13ifvqh0g","pricing_plan_id":"cebpf4jnsgd1na2vs0mg"},{"bike_id":"ac754be4-9e6a-4394-8db1-1077f1394b37","system_id":"levelo_inurba_marseille","lat":43.29954,"lon":5.38506,"is_reserved":false,"is_disabled":false,"rental_uris":{"android":"levelo://app?vid=ac754be4-9e6a-4394-8db1-1077f1394b37","ios":"levelo://app?vid=ac754be4-9e6a-4394-8db1-1077f1394b37"},"vehicle_type_id":"4","last_reported":1746994226,"current_range_meters":5600,"station_id":"","pricing_plan_id":"cebpf4jnsgd1na2vs0mg"},{"bike_id":"c7b2effd-ed37-4223-a0c6-29d0e842dbd5","system_id":"levelo_inurba_marseille","lat":43.300493,"lon":5.378273,"is_reserved":false,"is_disabled":false,"rental_uris":{"android":"levelo://app?vid=c7b2effd-ed37-4223-a0c6-29d0e842dbd5","ios":"levelo://app?vid=c7b2effd-ed37-4223-a0c6-29d0e842dbd5"},"vehicle_type_id":"4","last_reported":1746994226,"current_range_meters":5600,"station_id":"","pricing_plan_id":"cebpf4jnsgd1na2vs0mg"},{"bike_id":"c1b24a1d-9070-42f0-a762-39c7f6f1e809","system_id":"levelo_inurba_marseille","lat":43.30305,"lon":5.39209,"is_reserved":false,"is_disabled":false,"rental_uris":{"android":"levelo://app?vid=c1b24a1d-9070-42f0-a762-39c7f6f1e809","ios":"levelo://app?vid=c1b24a1d-9070-42f0-a762-39c7f6f1e809"},"vehicle_type_id":"4","last_reported":1746994226,"current_range_meters":5600,"station_id":"ce4bgkh2rcd13ifvqbk0","pricing_plan_id":"cebpf4jnsgd1na2vs0mg"},{"bike_id":"44822212-8189-4dd6-b2be-f7859b6b5c9b","system_id":"levelo_inurba_marseille","lat":43.31212,"lon":5.36889,"is_reserved":false,"is_disabled":false,"rental_uris":{"android":"levelo://app?vid=44822212-8189-4dd6-b2be-f7859b6b5c9b","ios":"levelo://app?vid=44822212-8189-4dd6-b2be-f7859b6b5c9b"},"vehicle_type_id":"4","last_reported":1746994226,"current_range_meters":5600,"station_id":"ce4bgl92rcd13ifvqbq0","pricing_plan_id":"cebpf4jnsgd1na2vs0mg"},{"bike_id":"3f00bb50-7425-4a44-8989-0134b2c78a65","system_id":"levelo_inurba_marseille","lat":43.31491,"lon":5.37311,"is_reserved":false,"is_disabled":false,"rental_uris":{"android":"levelo://app?vid=3f00bb50-7425-4a44-8989-0134b2c78a65","ios":"levelo://app?vid=3f00bb50-7425-4a44-8989-0134b2c78a65"},"vehicle_type_id":"4","last_reported":1746994226,"current_range_meters":5600,"station_id":"ce4bgt12rcd13ifvqcd0","pricing_plan_id":"cebpf4jnsgd1na2vs0mg"},{"bike_id":"a56fb59c-734b-47d4-95f8-eb040692ba64","system_id":"levelo_inurba_marseille","lat":43.28335,"lon":5.38116,"is_reserved":false,"is_disabled":false,"rental_uris":{"android":"levelo://app?vid=a56fb59c-734b-47d4-95f8-eb040692ba64","ios":"levelo://app?vid=a56fb59c-734b-47d4-95f8-eb040692ba64"},"vehicle_type_id":"4","last_reported":1746994226,"current_range_meters":5600,"station_id":"ce4bh412rcd13ifvqdr0","pricing_plan_id":"cebpf4jnsgd1na2vs0mg"},{"bike_id":"6b63f256-e4c9-423c-9099-134b1b80e406","system_id":"levelo_inurba_marseille","lat":43.26494,"lon":5.39542,"is_reserved":false,"is_disabled":false,"rental_uris":{"android":"levelo://app?vid=6b63f256-e4c9-423c-9099-134b1b80e406","ios":"levelo://app?vid=6b63f256-e4c9-423c-9099-134b1b80e406"},"vehicle_type_id":"4","last_reported":1746994226,"current_range_meters":5600,"station_id":"ce4bhi12rcd13ifvqfq0","pricing_plan_id":"cebpf4jnsgd1na2vs0mg"},{"bike_id":"136b433b-b0c6-4ce4-aa46-4974fd56094e","system_id":"levelo_inurba_marseille","lat":43.27425,"lon":5.39417,"is_reserved":false,"is_disabled":false,"rental_uris":{"android":"levelo://app?vid=136b433b-b0c6-4ce4-aa46-4974fd56094e","ios":"levelo://app?vid=136b433b-b0c6-4ce4-aa46-4974fd56094e"},"vehicle_type_id":"4","last_reported":1746994226,"current_range_meters":6000,"station_id":"ce4bhdp2rcd13ifvqf20","pricing_plan_id":"cebpf4jnsgd1na2vs0mg"},{"bike_id":"2fcddf1f-bea5-4ecd-be95-8e3b1144eefd","system_id":"levelo_inurba_marseille","lat":43.33601,"lon":5.41035,"is_reserved":false,"is_disabled":false,"rental_uris":{"android":"levelo://app?vid=2fcddf1f-bea5-4ecd-be95-8e3b1144eefd","ios":"levelo://app?vid=2fcddf1f-bea5-4ecd-be95-8e3b1144eefd"},"vehicle_type_id":"4","last_reported":1746994226,"current_range_meters":6000,"station_id":"ce4bhqh2rcd13ifvqhmg","pricing_plan_id":"cebpf4jnsgd1na2vs0mg"},{"bike_id":"07ffa4f1-182f-4286-b0df-1e8e4502ad09","system_id":"levelo_inurba_marseille","lat":43.32482,"lon":5.36558,"is_reserved":false,"is_disabled":false,"rental_uris":{"android":"levelo://app?vid=07ffa4f1-182f-4286-b0df-1e8e4502ad09","ios":"levelo://app?vid=07ffa4f1-182f-4286-b0df-1e8e4502ad09"},"vehicle_type_id":"4","last_reported":1746994226,"current_range_meters":6000,"station_id":"ce4bhs12rcd13ifvqhvg","pricing_plan_id":"cebpf4jnsgd1na2vs0mg"},{"bike_id":"a2caaaf9-7893-49ed-8650-aedce0e60aba","system_id":"levelo_inurba_marseille","lat":43.250915,"lon":5.395331,"is_reserved":false,"is_disabled":false,"rental_uris":{"android":"levelo://app?vid=a2caaaf9-7893-49ed-8650-aedce0e60aba","ios":"levelo://app?vid=a2caaaf9-7893-49ed-8650-aedce0e60aba"},"vehicle_type_id":"4","last_reported":1746994226,"current_range_meters":6800,"station_id":"ce4bhm12rcd13ifvqgkg","pricing_plan_id":"cebpf4jnsgd1na2vs0mg"},{"bike_id":"b1045d83-6642-422b-a985-bd0dc7c72632","system_id":"levelo_inurba_marseille","lat":43.23148,"lon":5.43714,"is_reserved":false,"is_disabled":false,"rental_uris":{"android":"levelo://app?vid=b1045d83-6642-422b-a985-bd0dc7c72632","ios":"levelo://app?vid=b1045d83-6642-422b-a985-bd0dc7c72632"},"vehicle_type_id":"4","last_reported":1746994226,"current_range_meters":6800,"station_id":"ce4bhmp2rcd13ifvqgog","pricing_plan_id":"cebpf4jnsgd1na2vs0mg"},{"bike_id":"9452505f-01b8-4367-bd7d-95c55b501b8b","system_id":"levelo_inurba_marseille","lat":43.27497,"lon":5.42453,"is_reserved":false,"is_disabled":false,"rental_uris":{"android":"levelo://app?vid=9452505f-01b8-4367-bd7d-95c55b501b8b","ios":"levelo://app?vid=9452505f-01b8-4367-bd7d-95c55b501b8b"},"vehicle_type_id":"4","last_reported":1746994226,"current_range_meters":8000,"station_id":"ce4bhn92rcd13ifvqgrg","pricing_plan_id":"cebpf4jnsgd1na2vs0mg"},{"bike_id":"22932bc6-1947-449b-a3ce-701d2ddc38d2","system_id":"levelo_inurba_marseille","lat":43.2408,"lon":5.37758,"is_reserved":false,"is_disabled":false,"rental_uris":{"android":"levelo://app?vid=22932bc6-1947-449b-a3ce-701d2ddc38d2","ios":"levelo://app?vid=22932bc6-1947-449b-a3ce-701d2ddc38d2"},"vehicle_type_id":"4","last_reported":1746994226,"current_range_meters":8000,"station_id":"ce4bhnp2rcd13ifvqgvg","pricing_plan_id":"cebpf4jnsgd1na2vs0mg"},{"bike_id":"9d828475-a348-47a0-9366-9751984af581","system_id":"levelo_inurba_marseille","lat":43.30423,"lon":5.41278,"is_reserved":false,"is_disabled":false,"rental_uris":{"android":"levelo://app?vid=9d828475-a348-47a0-9366-9751984af581","ios":"levelo://app?vid=9d828475-a348-47a0-9366-9751984af581"},"vehicle_type_id":"4","last_reported":1746994226,"current_range_meters":8000,"station_id":"ce4bhop2rcd13ifvqh8g","pricing_plan_id":"cebpf4jnsgd1na2vs0mg"},{"bike_id":"fc2577e7-1497-425b-9d4f-ab8d7dc843c6","system_id":"levelo_inurba_marseille","lat":43.33771,"lon":5.37485,"is_reserved":false,"is_disabled":false,"rental_uris":{"android":"levelo://app?vid=fc2577e7-1497-425b-9d4f-ab8d7dc843c6","ios":"levelo://app?vid=fc2577e7-1497-425b-9d4f-ab8d7dc843c6"},"vehicle_type_id":"4","last_reported":1746994226,"current_range_meters":8800,"station_id":"","pricing_plan_id":"cebpf4jnsgd1na2vs0mg"},{"bike_id":"89570d24-c935-4859-a231-4189383bf162","system_id":"levelo_inurba_marseille","lat":43.28389,"lon":5.37508,"is_reserved":false,"is_disabled":false,"rental_uris":{"android":"levelo://app?vid=89570d24-c935-4859-a231-4189383bf162","ios":"levelo://app?vid=89570d24-c935-4859-a231-4189383bf162"},"vehicle_type_id":"4","last_reported":1746994226,"current_range_meters":8800,"station_id":"ce4bh412rcd13ifvqds0","pricing_plan_id":"cebpf4jnsgd1na2vs0mg"},{"bike_id":"06f516e2-a624-409e-9fe6-be2ca00c1950","system_id":"levelo_inurba_marseille","lat":43.2466,"lon":5.38163,"is_reserved":false,"is_disabled":false,"rental_uris":{"android":"levelo://app?vid=06f516e2-a624-409e-9fe6-be2ca00c1950","ios":"levelo://app?vid=06f516e2-a624-409e-9fe6-be2ca00c1950"},"vehicle_type_id":"4","last_reported":1746994226,"current_range_meters":8800,"station_id":"ce4bhih2rcd13ifvqfr0","pricing_plan_id":"cebpf4jnsgd1na2vs0mg"},{"bike_id":"4be526c1-c099-4e56-8476-6a072fafda70","system_id":"levelo_inurba_marseille","lat":43.251127,"lon":5.403215,"is_reserved":false,"is_disabled":false,"rental_uris":{"android":"levelo://app?vid=4be526c1-c099-4e56-8476-6a072fafda70","ios":"levelo://app?vid=4be526c1-c099-4e56-8476-6a072fafda70"},"vehicle_type_id":"4","last_reported":1746994226,"current_range_meters":8800,"station_id":"ce4bhlh2rcd13ifvqgig","pricing_plan_id":"cebpf4jnsgd1na2vs0mg"},{"bike_id":"b1b013fd-f0df-4fdf-b291-26a881a8b080","system_id":"levelo_inurba_marseille","lat":43.2319,"lon":5.39984,"is_reserved":false,"is_disabled":false,"rental_uris":{"android":"levelo://app?vid=b1b013fd-f0df-4fdf-b291-26a881a8b080","ios":"levelo://app?vid=b1b013fd-f0df-4fdf-b291-26a881a8b080"},"vehicle_type_id":"4","last_reported":1746994226,"current_range_meters":8800,"station_id":"ce4bhn12rcd13ifvqgqg","pricing_plan_id":"cebpf4jnsgd1na2vs0mg"},{"bike_id":"bfd5e787-a75e-4dab-9738-e35cbb0c870a","system_id":"levelo_inurba_marseille","lat":43.32487,"lon":5.36574,"is_reserved":false,"is_disabled":false,"rental_uris":{"android":"levelo://app?vid=bfd5e787-a75e-4dab-9738-e35cbb0c870a","ios":"levelo://app?vid=bfd5e787-a75e-4dab-9738-e35cbb0c870a"},"vehicle_type_id":"4","last_reported":1746994226,"current_range_meters":8800,"station_id":"ce4bhs12rcd13ifvqhvg","pricing_plan_id":"cebpf4jnsgd1na2vs0mg"},{"bike_id":"3aa75863-fce6-4b94-9f5b-9c0ad58d1acf","system_id":"levelo_inurba_marseille","lat":43.2417,"lon":5.36411,"is_reserved":false,"is_disabled":false,"rental_uris":{"android":"levelo://app?vid=3aa75863-fce6-4b94-9f5b-9c0ad58d1acf","ios":"levelo://app?vid=3aa75863-fce6-4b94-9f5b-9c0ad58d1acf"},"vehicle_type_id":"4","last_reported":1746994226,"current_range_meters":8800,"station_id":"cpo36qri1sfpv3e86is0","pricing_plan_id":"cebpf4jnsgd1na2vs0mg"},{"bike_id":"95503663-c38e-46d9-809f-85da9c10e203","system_id":"levelo_inurba_marseille","lat":43.30135,"lon":5.39873,"is_reserved":false,"is_disabled":false,"rental_uris":{"android":"levelo://app?vid=95503663-c38e-46d9-809f-85da9c10e203","ios":"levelo://app?vid=95503663-c38e-46d9-809f-85da9c10e203"},"vehicle_type_id":"4","last_reported":1746994226,"current_range_meters":9200,"station_id":"ce4bh0h2rcd13ifvqd40","pricing_plan_id":"cebpf4jnsgd1na2vs0mg"},{"bike_id":"a02ff3d0-dabc-4f80-a7ca-75d2665902bc","system_id":"levelo_inurba_marseille","lat":43.28402,"lon":5.37522,"is_reserved":false,"is_disabled":false,"rental_uris":{"android":"levelo://app?vid=a02ff3d0-dabc-4f80-a7ca-75d2665902bc","ios":"levelo://app?vid=a02ff3d0-dabc-4f80-a7ca-75d2665902bc"},"vehicle_type_id":"4","last_reported":1746994226,"current_range_meters":9600,"station_id":"ce4bh412rcd13ifvqds0","pricing_plan_id":"cebpf4jnsgd1na2vs0mg"},{"bike_id":"f9d16859-c623-411e-bbcb-c426981ab6d7","system_id":"levelo_inurba_marseille","lat":43.26546,"lon":5.3903,"is_reserved":false,"is_disabled":false,"rental_uris":{"android":"levelo://app?vid=f9d16859-c623-411e-bbcb-c426981ab6d7","ios":"levelo://app?vid=f9d16859-c623-411e-bbcb-c426981ab6d7"},"vehicle_type_id":"4","last_reported":1746994226,"current_range_meters":9600,"station_id":"ce4bhe12rcd13ifvqf30","pricing_plan_id":"cebpf4jnsgd1na2vs0mg"},{"bike_id":"d6c19613-88e4-4d90-ac5f-9fc3032e5508","system_id":"levelo_inurba_marseille","lat":43.302476,"lon":5.400778,"is_reserved":false,"is_disabled":false,"rental_uris":{"android":"levelo://app?vid=d6c19613-88e4-4d90-ac5f-9fc3032e5508","ios":"levelo://app?vid=d6c19613-88e4-4d90-ac5f-9fc3032e5508"},"vehicle_type_id":"4","last_reported":1746994226,"current_range_meters":10000,"station_id":"ce4bgvh2rcd13ifvqcs0","pricing_plan_id":"cebpf4jnsgd1na2vs0mg"},{"bike_id":"c781db57-0d15-4bd3-ae62-a55ba5955038","system_id":"levelo_inurba_marseille","lat":43.23178,"lon":5.39991,"is_reserved":false,"is_disabled":false,"rental_uris":{"android":"levelo://app?vid=c781db57-0d15-4bd3-ae62-a55ba5955038","ios":"levelo://app?vid=c781db57-0d15-4bd3-ae62-a55ba5955038"},"vehicle_type_id":"4","last_reported":1746994226,"current_range_meters":10000,"station_id":"ce4bhn12rcd13ifvqgqg","pricing_plan_id":"cebpf4jnsgd1na2vs0mg"},{"bike_id":"d83b7170-8eed-47c1-b0ec-1140d3a45dea","system_id":"levelo_inurba_marseille","lat":43.308201,"lon":5.435317,"is_reserved":false,"is_disabled":false,"rental_uris":{"android":"levelo://app?vid=d83b7170-8eed-47c1-b0ec-1140d3a45dea","ios":"levelo://app?vid=d83b7170-8eed-47c1-b0ec-1140d3a45dea"},"vehicle_type_id":"4","last_reported":1746994226,"current_range_meters":10000,"station_id":"ce4bhph2rcd13ifvqheg","pricing_plan_id":"cebpf4jnsgd1na2vs0mg"},{"bike_id":"a1121b36-b5cd-4dda-96ef-13a3dfaa55e1","system_id":"levelo_inurba_marseille","lat":43.301401,"lon":5.387791,"is_reserved":false,"is_disabled":false,"rental_uris":{"android":"levelo://app?vid=a1121b36-b5cd-4dda-96ef-13a3dfaa55e1","ios":"levelo://app?vid=a1121b36-b5cd-4dda-96ef-13a3dfaa55e1"},"vehicle_type_id":"4","last_reported":1746994226,"current_range_meters":10800,"station_id":"","pricing_plan_id":"cebpf4jnsgd1na2vs0mg"},{"bike_id":"f7331c9d-496f-4789-bec8-cd71e8b14b99","system_id":"levelo_inurba_marseille","lat":43.29383,"lon":5.37852,"is_reserved":false,"is_disabled":false,"rental_uris":{"android":"levelo://app?vid=f7331c9d-496f-4789-bec8-cd71e8b14b99","ios":"levelo://app?vid=f7331c9d-496f-4789-bec8-cd71e8b14b99"},"vehicle_type_id":"4","last_reported":1746994226,"current_range_meters":10800,"station_id":"ce4bgjh2rcd13ifvqbf0","pricing_plan_id":"cebpf4jnsgd1na2vs0mg"},{"bike_id":"688db81e-594d-4123-b889-d67a1fe11ecd","system_id":"levelo_inurba_marseille","lat":43.306,"lon":5.37229,"is_reserved":false,"is_disabled":false,"rental_uris":{"android":"levelo://app?vid=688db81e-594d-4123-b889-d67a1fe11ecd","ios":"levelo://app?vid=688db81e-594d-4123-b889-d67a1fe11ecd"},"vehicle_type_id":"4","last_reported":1746994226,"current_range_meters":10800,"station_id":"ce4bgqh2rcd13ifvqc4g","pricing_plan_id":"cebpf4jnsgd1na2vs0mg"},{"bike_id":"974d9768-701a-4827-bb31-1397ef617a40","system_id":"levelo_inurba_marseille","lat":43.2929,"lon":5.40108,"is_reserved":false,"is_disabled":false,"rental_uris":{"android":"levelo://app?vid=974d9768-701a-4827-bb31-1397ef617a40","ios":"levelo://app?vid=974d9768-701a-4827-bb31-1397ef617a40"},"vehicle_type_id":"4","last_reported":1746994226,"current_range_meters":10800,"station_id":"ce4bh312rcd13ifvqdk0","pricing_plan_id":"cebpf4jnsgd1na2vs0mg"},{"bike_id":"efc0a0d5-a353-4db4-9aad-8fb20bd2a998","system_id":"levelo_inurba_marseille","lat":43.25747,"lon":5.4112,"is_reserved":false,"is_disabled":false,"rental_uris":{"android":"levelo://app?vid=efc0a0d5-a353-4db4-9aad-8fb20bd2a998","ios":"levelo://app?vid=efc0a0d5-a353-4db4-9aad-8fb20bd2a998"},"vehicle_type_id":"4","last_reported":1746994226,"current_range_meters":10800,"station_id":"ce4bhkp2rcd13ifvqgd0","pricing_plan_id":"cebpf4jnsgd1na2vs0mg"},{"bike_id":"cbdcf005-6e74-4edd-bc9f-0084869f35cb","system_id":"levelo_inurba_marseille","lat":43.30887,"lon":5.39628,"is_reserved":false,"is_disabled":false,"rental_uris":{"android":"levelo://app?vid=cbdcf005-6e74-4edd-bc9f-0084869f35cb","ios":"levelo://app?vid=cbdcf005-6e74-4edd-bc9f-0084869f35cb"},"vehicle_type_id":"4","last_reported":1746994226,"current_range_meters":11200,"station_id":"ce4bh012rcd13ifvqcv0","pricing_plan_id":"cebpf4jnsgd1na2vs0mg"},{"bike_id":"3ee007b4-701a-43a3-a268-87c67c8eea49","system_id":"levelo_inurba_marseille","lat":43.26237,"lon":5.40455,"is_reserved":false,"is_disabled":false,"rental_uris":{"android":"levelo://app?vid=3ee007b4-701a-43a3-a268-87c67c8eea49","ios":"levelo://app?vid=3ee007b4-701a-43a3-a268-87c67c8eea49"},"vehicle_type_id":"4","last_reported":1746994226,"current_range_meters":11200,"station_id":"ce4bhmh2rcd13ifvqgmg","pricing_plan_id":"cebpf4jnsgd1na2vs0mg"},{"bike_id":"e52bd7d4-e04d-400f-87c6-90264f742d5d","system_id":"levelo_inurba_marseille","lat":43.28414,"lon":5.37521,"is_reserved":false,"is_disabled":false,"rental_uris":{"android":"levelo://app?vid=e52bd7d4-e04d-400f-87c6-90264f742d5d","ios":"levelo://app?vid=e52bd7d4-e04d-400f-87c6-90264f742d5d"},"vehicle_type_id":"4","last_reported":1746994226,"current_range_meters":11600,"station_id":"ce4bh412rcd13ifvqds0","pricing_plan_id":"cebpf4jnsgd1na2vs0mg"},{"bike_id":"77c26d91-12af-4623-a0b7-6a46a25abfee","system_id":"levelo_inurba_marseille","lat":43.30135,"lon":5.38782,"is_reserved":false,"is_disabled":false,"rental_uris":{"android":"levelo://app?vid=77c26d91-12af-4623-a0b7-6a46a25abfee","ios":"levelo://app?vid=77c26d91-12af-4623-a0b7-6a46a25abfee"},"vehicle_type_id":"4","last_reported":1746994226,"current_range_meters":12000,"station_id":"ce4bghh2rcd13ifvqb60","pricing_plan_id":"cebpf4jnsgd1na2vs0mg"},{"bike_id":"ef551541-9d23-4760-a47c-ef4b9d35b0ec","system_id":"levelo_inurba_marseille","lat":43.26567,"lon":5.39008,"is_reserved":false,"is_disabled":false,"rental_uris":{"android":"levelo://app?vid=ef551541-9d23-4760-a47c-ef4b9d35b0ec","ios":"levelo://app?vid=ef551541-9d23-4760-a47c-ef4b9d35b0ec"},"vehicle_type_id":"4","last_reported":1746994226,"current_range_meters":12000,"station_id":"ce4bhe12rcd13ifvqf30","pricing_plan_id":"cebpf4jnsgd1na2vs0mg"},{"bike_id":"2f8b17d0-8275-4cf8-851a-38d663b78a1b","system_id":"levelo_inurba_marseille","lat":43.28158,"lon":5.42641,"is_reserved":false,"is_disabled":false,"rental_uris":{"android":"levelo://app?vid=2f8b17d0-8275-4cf8-851a-38d663b78a1b","ios":"levelo://app?vid=2f8b17d0-8275-4cf8-851a-38d663b78a1b"},"vehicle_type_id":"4","last_reported":1746994226,"current_range_meters":12000,"station_id":"ce4bhnh2rcd13ifvqgug","pricing_plan_id":"cebpf4jnsgd1na2vs0mg"},{"bike_id":"6da7775b-526f-48dc-ad5b-7aff7117e159","system_id":"levelo_inurba_marseille","lat":43.26794,"lon":5.40229,"is_reserved":false,"is_disabled":false,"rental_uris":{"android":"levelo://app?vid=6da7775b-526f-48dc-ad5b-7aff7117e159","ios":"levelo://app?vid=6da7775b-526f-48dc-ad5b-7aff7117e159"},"vehicle_type_id":"4","last_reported":1746994226,"current_range_meters":12000,"station_id":"ce501612rcd8frsf0b60","pricing_plan_id":"cebpf4jnsgd1na2vs0mg"},{"bike_id":"3dd7c00b-7e42-4684-b641-19a2b34ff692","system_id":"levelo_inurba_marseille","lat":43.295135,"lon":5.397006,"is_reserved":false,"is_disabled":false,"rental_uris":{"android":"levelo://app?vid=3dd7c00b-7e42-4684-b641-19a2b34ff692","ios":"levelo://app?vid=3dd7c00b-7e42-4684-b641-19a2b34ff692"},"vehicle_type_id":"4","last_reported":1746994226,"current_range_meters":12400,"station_id":"ce4bh3h2rcd13ifvqdo0","pricing_plan_id":"cebpf4jnsgd1na2vs0mg"},{"bike_id":"19708695-a8ee-4716-9e14-a794ed2f1a40","system_id":"levelo_inurba_marseille","lat":43.26544,"lon":5.39032,"is_reserved":false,"is_disabled":false,"rental_uris":{"android":"levelo://app?vid=19708695-a8ee-4716-9e14-a794ed2f1a40","ios":"levelo://app?vid=19708695-a8ee-4716-9e14-a794ed2f1a40"},"vehicle_type_id":"4","last_reported":1746994226,"current_range_meters":12400,"station_id":"ce4bhe12rcd13ifvqf30","pricing_plan_id":"cebpf4jnsgd1na2vs0mg"},{"bike_id":"a8688840-0982-47f5-a350-520f243895eb","system_id":"levelo_inurba_marseille","lat":43.29636,"lon":5.40604,"is_reserved":false,"is_disabled":false,"rental_uris":{"android":"levelo://app?vid=a8688840-0982-47f5-a350-520f243895eb","ios":"levelo://app?vid=a8688840-0982-47f5-a350-520f243895eb"},"vehicle_type_id":"4","last_reported":1746994226,"current_range_meters":12800,"station_id":"ce4bh0h2rcd13ifvqd60","pricing_plan_id":"cebpf4jnsgd1na2vs0mg"},{"bike_id":"f52c819d-ca4b-4640-b458-b877db1bf990","system_id":"levelo_inurba_marseille","lat":43.29861,"lon":5.41023,"is_reserved":false,"is_disabled":false,"rental_uris":{"android":"levelo://app?vid=f52c819d-ca4b-4640-b458-b877db1bf990","ios":"levelo://app?vid=f52c819d-ca4b-4640-b458-b877db1bf990"},"vehicle_type_id":"4","last_reported":1746994226,"current_range_meters":13600,"station_id":"","pricing_plan_id":"cebpf4jnsgd1na2vs0mg"},{"bike_id":"8f47974e-71a3-45a5-ac11-b66678c186d5","system_id":"levelo_inurba_marseille","lat":43.30888,"lon":5.3966,"is_reserved":false,"is_disabled":false,"rental_uris":{"android":"levelo://app?vid=8f47974e-71a3-45a5-ac11-b66678c186d5","ios":"levelo://app?vid=8f47974e-71a3-45a5-ac11-b66678c186d5"},"vehicle_type_id":"4","last_reported":1746994226,"current_range_meters":13600,"station_id":"ce4bh012rcd13ifvqcv0","pricing_plan_id":"cebpf4jnsgd1na2vs0mg"},{"bike_id":"be360f27-a14f-4a1a-be7b-c6c1632d61f1","system_id":"levelo_inurba_marseille","lat":43.291998,"lon":5.393095,"is_reserved":false,"is_disabled":false,"rental_uris":{"android":"levelo://app?vid=be360f27-a14f-4a1a-be7b-c6c1632d61f1","ios":"levelo://app?vid=be360f27-a14f-4a1a-be7b-c6c1632d61f1"},"vehicle_type_id":"4","last_reported":1746994226,"current_range_meters":13600,"station_id":"ce4bh192rcd13ifvqdd0","pricing_plan_id":"cebpf4jnsgd1na2vs0mg"},{"bike_id":"e5d04bb5-6f9b-4008-a169-d5fa09ed4168","system_id":"levelo_inurba_marseille","lat":43.29095,"lon":5.38142,"is_reserved":false,"is_disabled":false,"rental_uris":{"android":"levelo://app?vid=e5d04bb5-6f9b-4008-a169-d5fa09ed4168","ios":"levelo://app?vid=e5d04bb5-6f9b-4008-a169-d5fa09ed4168"},"vehicle_type_id":"4","last_reported":1746994226,"current_range_meters":13600,"station_id":"ce4bh512rcd13ifvqe2g","pricing_plan_id":"cebpf4jnsgd1na2vs0mg"},{"bike_id":"fe8a300c-df4c-42e1-b092-cce77e5975ce","system_id":"levelo_inurba_marseille","lat":43.25736,"lon":5.41101,"is_reserved":false,"is_disabled":false,"rental_uris":{"android":"levelo://app?vid=fe8a300c-df4c-42e1-b092-cce77e5975ce","ios":"levelo://app?vid=fe8a300c-df4c-42e1-b092-cce77e5975ce"},"vehicle_type_id":"4","last_reported":1746994226,"current_range_meters":13600,"station_id":"ce4bhkp2rcd13ifvqgd0","pricing_plan_id":"cebpf4jnsgd1na2vs0mg"},{"bike_id":"c5ab376e-ec69-48e2-ac63-51fc9e7ed5b1","system_id":"levelo_inurba_marseille","lat":43.30184,"lon":5.3663,"is_reserved":false,"is_disabled":false,"rental_uris":{"android":"levelo://app?vid=c5ab376e-ec69-48e2-ac63-51fc9e7ed5b1","ios":"levelo://app?vid=c5ab376e-ec69-48e2-ac63-51fc9e7ed5b1"},"vehicle_type_id":"4","last_reported":1746994226,"current_range_meters":14000,"station_id":"","pricing_plan_id":"cebpf4jnsgd1na2vs0mg"},{"bike_id":"afc04b7b-ecde-43c7-94dc-e3d597bb8089","system_id":"levelo_inurba_marseille","lat":43.30148,"lon":5.39851,"is_reserved":false,"is_disabled":false,"rental_uris":{"android":"levelo://app?vid=afc04b7b-ecde-43c7-94dc-e3d597bb8089","ios":"levelo://app?vid=afc04b7b-ecde-43c7-94dc-e3d597bb8089"},"vehicle_type_id":"4","last_reported":1746994226,"current_range_meters":14000,"station_id":"ce4bh0h2rcd13ifvqd40","pricing_plan_id":"cebpf4jnsgd1na2vs0mg"},{"bike_id":"350f96e5-9d35-4552-ab8b-75cc94649a94","system_id":"levelo_inurba_marseille","lat":43.25124,"lon":5.40318,"is_reserved":false,"is_disabled":false,"rental_uris":{"android":"levelo://app?vid=350f96e5-9d35-4552-ab8b-75cc94649a94","ios":"levelo://app?vid=350f96e5-9d35-4552-ab8b-75cc94649a94"},"vehicle_type_id":"4","last_reported":1746994226,"current_range_meters":14000,"station_id":"ce4bhlh2rcd13ifvqgig","pricing_plan_id":"cebpf4jnsgd1na2vs0mg"},{"bike_id":"aeab4afa-e8de-45ec-9afd-941b440a75e4","system_id":"levelo_inurba_marseille","lat":43.28105,"lon":5.37837,"is_reserved":false,"is_disabled":false,"rental_uris":{"android":"levelo://app?vid=aeab4afa-e8de-45ec-9afd-941b440a75e4","ios":"levelo://app?vid=aeab4afa-e8de-45ec-9afd-941b440a75e4"},"vehicle_type_id":"4","last_reported":1746994226,"current_range_meters":14400,"station_id":"ce4bha12rcd13ifvqee0","pricing_plan_id":"cebpf4jnsgd1na2vs0mg"},{"bike_id":"9401e170-3654-4a41-bf35-9a468db0c37f","system_id":"levelo_inurba_marseille","lat":43.25117,"lon":5.40316,"is_reserved":false,"is_disabled":false,"rental_uris":{"android":"levelo://app?vid=9401e170-3654-4a41-bf35-9a468db0c37f","ios":"levelo://app?vid=9401e170-3654-4a41-bf35-9a468db0c37f"},"vehicle_type_id":"4","last_reported":1746994226,"current_range_meters":14400,"station_id":"ce4bhlh2rcd13ifvqgig","pricing_plan_id":"cebpf4jnsgd1na2vs0mg"},{"bike_id":"d99afe62-41a1-4367-a50e-55727c42a2a5","system_id":"levelo_inurba_marseille","lat":43.28728,"lon":5.39968,"is_reserved":false,"is_disabled":false,"rental_uris":{"android":"levelo://app?vid=d99afe62-41a1-4367-a50e-55727c42a2a5","ios":"levelo://app?vid=d99afe62-41a1-4367-a50e-55727c42a2a5"},"vehicle_type_id":"4","last_reported":1746994226,"current_range_meters":14400,"station_id":"ce4bho92rcd13ifvqh3g","pricing_plan_id":"cebpf4jnsgd1na2vs0mg"},{"bike_id":"83a5dddc-f08f-476e-a316-d0e0dfb65037","system_id":"levelo_inurba_marseille","lat":43.31733,"lon":5.42391,"is_reserved":false,"is_disabled":false,"rental_uris":{"android":"levelo://app?vid=83a5dddc-f08f-476e-a316-d0e0dfb65037","ios":"levelo://app?vid=83a5dddc-f08f-476e-a316-d0e0dfb65037"},"vehicle_type_id":"4","last_reported":1746994226,"current_range_meters":14400,"station_id":"ce4bhp92rcd13ifvqhbg","pricing_plan_id":"cebpf4jnsgd1na2vs0mg"},{"bike_id":"6a698a89-d31b-424f-b953-46ec1b3d5f52","system_id":"levelo_inurba_marseille","lat":43.31571,"lon":5.38865,"is_reserved":false,"is_disabled":false,"rental_uris":{"android":"levelo://app?vid=6a698a89-d31b-424f-b953-46ec1b3d5f52","ios":"levelo://app?vid=6a698a89-d31b-424f-b953-46ec1b3d5f52"},"vehicle_type_id":"4","last_reported":1746994226,"current_range_meters":14800,"station_id":"","pricing_plan_id":"cebpf4jnsgd1na2vs0mg"},{"bike_id":"88c80310-ca1b-421c-afe7-bd8b5ffd37d5","system_id":"levelo_inurba_marseille","lat":43.25117,"lon":5.40315,"is_reserved":false,"is_disabled":false,"rental_uris":{"android":"levelo://app?vid=88c80310-ca1b-421c-afe7-bd8b5ffd37d5","ios":"levelo://app?vid=88c80310-ca1b-421c-afe7-bd8b5ffd37d5"},"vehicle_type_id":"4","last_reported":1746994226,"current_range_meters":14800,"station_id":"ce4bhlh2rcd13ifvqgig","pricing_plan_id":"cebpf4jnsgd1na2vs0mg"},{"bike_id":"254cc13b-da4f-4dfa-a9e5-6f196c9df249","system_id":"levelo_inurba_marseille","lat":43.28711,"lon":5.3999,"is_reserved":false,"is_disabled":false,"rental_uris":{"android":"levelo://app?vid=254cc13b-da4f-4dfa-a9e5-6f196c9df249","ios":"levelo://app?vid=254cc13b-da4f-4dfa-a9e5-6f196c9df249"},"vehicle_type_id":"4","last_reported":1746994226,"current_range_meters":14800,"station_id":"ce4bho92rcd13ifvqh3g","pricing_plan_id":"cebpf4jnsgd1na2vs0mg"},{"bike_id":"f73cf722-6d28-410b-96d0-7787b89b0f79","system_id":"levelo_inurba_marseille","lat":43.288458,"lon":5.393125,"is_reserved":false,"is_disabled":false,"rental_uris":{"android":"levelo://app?vid=f73cf722-6d28-410b-96d0-7787b89b0f79","ios":"levelo://app?vid=f73cf722-6d28-410b-96d0-7787b89b0f79"},"vehicle_type_id":"4","last_reported":1746994226,"current_range_meters":15200,"station_id":"ce4bh2p2rcd13ifvqdi0","pricing_plan_id":"cebpf4jnsgd1na2vs0mg"},{"bike_id":"5d1c7392-c228-4111-863e-5d6738df4261","system_id":"levelo_inurba_marseille","lat":43.27896,"lon":5.38011,"is_reserved":false,"is_disabled":false,"rental_uris":{"android":"levelo://app?vid=5d1c7392-c228-4111-863e-5d6738df4261","ios":"levelo://app?vid=5d1c7392-c228-4111-863e-5d6738df4261"},"vehicle_type_id":"4","last_reported":1746994226,"current_range_meters":15200,"station_id":"ce4bhf92rcd13ifvqf50","pricing_plan_id":"cebpf4jnsgd1na2vs0mg"},{"bike_id":"d9937dd6-e4c2-4ca6-b3ad-8e2542d9c843","system_id":"levelo_inurba_marseille","lat":43.302692,"lon":5.40084,"is_reserved":false,"is_disabled":false,"rental_uris":{"android":"levelo://app?vid=d9937dd6-e4c2-4ca6-b3ad-8e2542d9c843","ios":"levelo://app?vid=d9937dd6-e4c2-4ca6-b3ad-8e2542d9c843"},"vehicle_type_id":"4","last_reported":1746994226,"current_range_meters":16000,"station_id":"ce4bgvh2rcd13ifvqcs0","pricing_plan_id":"cebpf4jnsgd1na2vs0mg"},{"bike_id":"5ab654e4-7e28-4840-9ad6-8b11e8ba10ab","system_id":"levelo_inurba_marseille","lat":43.28676,"lon":5.36347,"is_reserved":false,"is_disabled":false,"rental_uris":{"android":"levelo://app?vid=5ab654e4-7e28-4840-9ad6-8b11e8ba10ab","ios":"levelo://app?vid=5ab654e4-7e28-4840-9ad6-8b11e8ba10ab"},"vehicle_type_id":"4","last_reported":1746994226,"current_range_meters":16000,"station_id":"ce4bhah2rcd13ifvqej0","pricing_plan_id":"cebpf4jnsgd1na2vs0mg"},{"bike_id":"f3bc9fe4-a9bd-43c8-8a47-ffaeebc00913","system_id":"levelo_inurba_marseille","lat":43.32349,"lon":5.4061,"is_reserved":false,"is_disabled":false,"rental_uris":{"android":"levelo://app?vid=f3bc9fe4-a9bd-43c8-8a47-ffaeebc00913","ios":"levelo://app?vid=f3bc9fe4-a9bd-43c8-8a47-ffaeebc00913"},"vehicle_type_id":"4","last_reported":1746994226,"current_range_meters":16000,"station_id":"ce4bhq92rcd13ifvqhjg","pricing_plan_id":"cebpf4jnsgd1na2vs0mg"},{"bike_id":"ab38ef62-870b-4715-a349-e205eeb08a6e","system_id":"levelo_inurba_marseille","lat":43.32357,"lon":5.367555,"is_reserved":false,"is_disabled":false,"rental_uris":{"android":"levelo://app?vid=ab38ef62-870b-4715-a349-e205eeb08a6e","ios":"levelo://app?vid=ab38ef62-870b-4715-a349-e205eeb08a6e"},"vehicle_type_id":"4","last_reported":1746994226,"current_range_meters":16000,"station_id":"ce4bhsh2rcd13ifvqi2g","pricing_plan_id":"cebpf4jnsgd1na2vs0mg"},{"bike_id":"80968420-1b94-4d39-b4f7-03081c0f8259","system_id":"levelo_inurba_marseille","lat":43.31712,"lon":5.43711,"is_reserved":false,"is_disabled":false,"rental_uris":{"android":"levelo://app?vid=80968420-1b94-4d39-b4f7-03081c0f8259","ios":"levelo://app?vid=80968420-1b94-4d39-b4f7-03081c0f8259"},"vehicle_type_id":"4","last_reported":1746994226,"current_range_meters":16400,"station_id":"ce4bhp92rcd13ifvqhcg","pricing_plan_id":"cebpf4jnsgd1na2vs0mg"},{"bike_id":"e2435e43-ad2d-4a9a-ab34-11ce0799713d","system_id":"levelo_inurba_marseille","lat":43.29015,"lon":5.38147,"is_reserved":false,"is_disabled":false,"rental_uris":{"android":"levelo://app?vid=e2435e43-ad2d-4a9a-ab34-11ce0799713d","ios":"levelo://app?vid=e2435e43-ad2d-4a9a-ab34-11ce0799713d"},"vehicle_type_id":"4","last_reported":1746994226,"current_range_meters":16800,"station_id":"ce4bh4p2rcd13ifvqe1g","pricing_plan_id":"cebpf4jnsgd1na2vs0mg"},{"bike_id":"e05c3a84-8592-4472-9428-e3ef82c72bf0","system_id":"levelo_inurba_marseille","lat":43.31169,"lon":5.38717,"is_reserved":false,"is_disabled":false,"rental_uris":{"android":"levelo://app?vid=e05c3a84-8592-4472-9428-e3ef82c72bf0","ios":"levelo://app?vid=e05c3a84-8592-4472-9428-e3ef82c72bf0"},"vehicle_type_id":"4","last_reported":1746994226,"current_range_meters":17200,"station_id":"ce4bgv12rcd13ifvqcp0","pricing_plan_id":"cebpf4jnsgd1na2vs0mg"},{"bike_id":"c2d26363-c111-4e54-98d2-ac34f8d787a8","system_id":"levelo_inurba_marseille","lat":43.25122,"lon":5.40301,"is_reserved":false,"is_disabled":false,"rental_uris":{"android":"levelo://app?vid=c2d26363-c111-4e54-98d2-ac34f8d787a8","ios":"levelo://app?vid=c2d26363-c111-4e54-98d2-ac34f8d787a8"},"vehicle_type_id":"4","last_reported":1746994226,"current_range_meters":17200,"station_id":"ce4bhlh2rcd13ifvqgig","pricing_plan_id":"cebpf4jnsgd1na2vs0mg"},{"bike_id":"b6f0504a-f7d7-4a97-b810-e7c9e7b1c671","system_id":"levelo_inurba_marseille","lat":43.27892,"lon":5.41246,"is_reserved":false,"is_disabled":false,"rental_uris":{"android":"levelo://app?vid=b6f0504a-f7d7-4a97-b810-e7c9e7b1c671","ios":"levelo://app?vid=b6f0504a-f7d7-4a97-b810-e7c9e7b1c671"},"vehicle_type_id":"4","last_reported":1746994226,"current_range_meters":17600,"station_id":"","pricing_plan_id":"cebpf4jnsgd1na2vs0mg"},{"bike_id":"5e538273-937a-4ac5-bc97-2d1929b61c2f","system_id":"levelo_inurba_marseille","lat":43.25817,"lon":5.39434,"is_reserved":false,"is_disabled":false,"rental_uris":{"android":"levelo://app?vid=5e538273-937a-4ac5-bc97-2d1929b61c2f","ios":"levelo://app?vid=5e538273-937a-4ac5-bc97-2d1929b61c2f"},"vehicle_type_id":"4","last_reported":1746994226,"current_range_meters":17600,"station_id":"ce4bhip2rcd13ifvqft0","pricing_plan_id":"cebpf4jnsgd1na2vs0mg"},{"bike_id":"0bd2d4df-72a1-400f-a02f-c86b4ef8b26b","system_id":"levelo_inurba_marseille","lat":43.30418,"lon":5.41282,"is_reserved":false,"is_disabled":false,"rental_uris":{"android":"levelo://app?vid=0bd2d4df-72a1-400f-a02f-c86b4ef8b26b","ios":"levelo://app?vid=0bd2d4df-72a1-400f-a02f-c86b4ef8b26b"},"vehicle_type_id":"4","last_reported":1746994226,"current_range_meters":17600,"station_id":"ce4bhop2rcd13ifvqh8g","pricing_plan_id":"cebpf4jnsgd1na2vs0mg"},{"bike_id":"2a2e92a8-9be2-42a0-8f8b-e8c99ed20b3a","system_id":"levelo_inurba_marseille","lat":43.23178,"lon":5.39879,"is_reserved":false,"is_disabled":false,"rental_uris":{"android":"levelo://app?vid=2a2e92a8-9be2-42a0-8f8b-e8c99ed20b3a","ios":"levelo://app?vid=2a2e92a8-9be2-42a0-8f8b-e8c99ed20b3a"},"vehicle_type_id":"4","last_reported":1746994226,"current_range_meters":18000,"station_id":"","pricing_plan_id":"cebpf4jnsgd1na2vs0mg"},{"bike_id":"923bc3c8-9653-42f6-ab2d-a12cb585d499","system_id":"levelo_inurba_marseille","lat":43.29445,"lon":5.38697,"is_reserved":false,"is_disabled":false,"rental_uris":{"android":"levelo://app?vid=923bc3c8-9653-42f6-ab2d-a12cb585d499","ios":"levelo://app?vid=923bc3c8-9653-42f6-ab2d-a12cb585d499"},"vehicle_type_id":"4","last_reported":1746994226,"current_range_meters":18000,"station_id":"","pricing_plan_id":"cebpf4jnsgd1na2vs0mg"},{"bike_id":"e890cd41-1b81-4edc-9da4-3f7eabad83bb","system_id":"levelo_inurba_marseille","lat":43.29202,"lon":5.39325,"is_reserved":false,"is_disabled":false,"rental_uris":{"android":"levelo://app?vid=e890cd41-1b81-4edc-9da4-3f7eabad83bb","ios":"levelo://app?vid=e890cd41-1b81-4edc-9da4-3f7eabad83bb"},"vehicle_type_id":"4","last_reported":1746994226,"current_range_meters":18000,"station_id":"ce4bh192rcd13ifvqdd0","pricing_plan_id":"cebpf4jnsgd1na2vs0mg"},{"bike_id":"aca142bd-2716-4ee3-8c04-bd27c952c647","system_id":"levelo_inurba_marseille","lat":43.264679,"lon":5.374935,"is_reserved":false,"is_disabled":false,"rental_uris":{"android":"levelo://app?vid=aca142bd-2716-4ee3-8c04-bd27c952c647","ios":"levelo://app?vid=aca142bd-2716-4ee3-8c04-bd27c952c647"},"vehicle_type_id":"4","last_reported":1746994226,"current_range_meters":18800,"station_id":"","pricing_plan_id":"cebpf4jnsgd1na2vs0mg"},{"bike_id":"b07bfc09-4ee4-480d-951d-bf310d1d8d6c","system_id":"levelo_inurba_marseille","lat":43.3218,"lon":5.38468,"is_reserved":false,"is_disabled":false,"rental_uris":{"android":"levelo://app?vid=b07bfc09-4ee4-480d-951d-bf310d1d8d6c","ios":"levelo://app?vid=b07bfc09-4ee4-480d-951d-bf310d1d8d6c"},"vehicle_type_id":"4","last_reported":1746994226,"current_range_meters":18800,"station_id":"","pricing_plan_id":"cebpf4jnsgd1na2vs0mg"},{"bike_id":"3ca74435-6175-4a3b-8ea7-18f50137d73a","system_id":"levelo_inurba_marseille","lat":43.299864,"lon":5.371706,"is_reserved":false,"is_disabled":false,"rental_uris":{"android":"levelo://app?vid=3ca74435-6175-4a3b-8ea7-18f50137d73a","ios":"levelo://app?vid=3ca74435-6175-4a3b-8ea7-18f50137d73a"},"vehicle_type_id":"4","last_reported":1746994226,"current_range_meters":18800,"station_id":"ce4bgr92rcd13ifvqc7g","pricing_plan_id":"cebpf4jnsgd1na2vs0mg"},{"bike_id":"fd8f2c60-0cee-402f-86bd-bf9f27ea9ecc","system_id":"levelo_inurba_marseille","lat":43.28708,"lon":5.39989,"is_reserved":false,"is_disabled":false,"rental_uris":{"android":"levelo://app?vid=fd8f2c60-0cee-402f-86bd-bf9f27ea9ecc","ios":"levelo://app?vid=fd8f2c60-0cee-402f-86bd-bf9f27ea9ecc"},"vehicle_type_id":"4","last_reported":1746994226,"current_range_meters":18800,"station_id":"ce4bho92rcd13ifvqh3g","pricing_plan_id":"cebpf4jnsgd1na2vs0mg"},{"bike_id":"99dbe6a3-f5d7-427a-b808-17b5bb6cd725","system_id":"levelo_inurba_marseille","lat":43.297772,"lon":5.393522,"is_reserved":false,"is_disabled":false,"rental_uris":{"android":"levelo://app?vid=99dbe6a3-f5d7-427a-b808-17b5bb6cd725","ios":"levelo://app?vid=99dbe6a3-f5d7-427a-b808-17b5bb6cd725"},"vehicle_type_id":"4","last_reported":1746994226,"current_range_meters":18800,"station_id":"chh1huq6cuj3fo74tm60","pricing_plan_id":"cebpf4jnsgd1na2vs0mg"},{"bike_id":"14ac466a-8628-46a8-8466-2d2847d108b4","system_id":"levelo_inurba_marseille","lat":43.30241,"lon":5.4006,"is_reserved":false,"is_disabled":false,"rental_uris":{"android":"levelo://app?vid=14ac466a-8628-46a8-8466-2d2847d108b4","ios":"levelo://app?vid=14ac466a-8628-46a8-8466-2d2847d108b4"},"vehicle_type_id":"4","last_reported":1746994226,"current_range_meters":19200,"station_id":"ce4bgvh2rcd13ifvqcs0","pricing_plan_id":"cebpf4jnsgd1na2vs0mg"},{"bike_id":"0619580d-caf7-4620-8819-2a1b6d111d50","system_id":"levelo_inurba_marseille","lat":43.29034,"lon":5.37566,"is_reserved":false,"is_disabled":false,"rental_uris":{"android":"levelo://app?vid=0619580d-caf7-4620-8819-2a1b6d111d50","ios":"levelo://app?vid=0619580d-caf7-4620-8819-2a1b6d111d50"},"vehicle_type_id":"4","last_reported":1746994226,"current_range_meters":19200,"station_id":"ce4bh692rcd13ifvqe90","pricing_plan_id":"cebpf4jnsgd1na2vs0mg"},{"bike_id":"e58e2ce6-f326-47d4-94dc-2a7bac20a6f5","system_id":"levelo_inurba_marseille","lat":43.28406,"lon":5.37513,"is_reserved":false,"is_disabled":false,"rental_uris":{"android":"levelo://app?vid=e58e2ce6-f326-47d4-94dc-2a7bac20a6f5","ios":"levelo://app?vid=e58e2ce6-f326-47d4-94dc-2a7bac20a6f5"},"vehicle_type_id":"4","last_reported":1746994226,"current_range_meters":19600,"station_id":"ce4bh412rcd13ifvqds0","pricing_plan_id":"cebpf4jnsgd1na2vs0mg"},{"bike_id":"c1a87d98-ae1b-4a96-8676-6f3473b69ff6","system_id":"levelo_inurba_marseille","lat":43.28424,"lon":5.37507,"is_reserved":false,"is_disabled":false,"rental_uris":{"android":"levelo://app?vid=c1a87d98-ae1b-4a96-8676-6f3473b69ff6","ios":"levelo://app?vid=c1a87d98-ae1b-4a96-8676-6f3473b69ff6"},"vehicle_type_id":"4","last_reported":1746994226,"current_range_meters":19600,"station_id":"ce4bh412rcd13ifvqds0","pricing_plan_id":"cebpf4jnsgd1na2vs0mg"},{"bike_id":"e3096bce-969d-4ff6-a41d-8467b4071cba","system_id":"levelo_inurba_marseille","lat":43.27834,"lon":5.39217,"is_reserved":false,"is_disabled":false,"rental_uris":{"android":"levelo://app?vid=e3096bce-969d-4ff6-a41d-8467b4071cba","ios":"levelo://app?vid=e3096bce-969d-4ff6-a41d-8467b4071cba"},"vehicle_type_id":"4","last_reported":1746994226,"current_range_meters":19600,"station_id":"ce4bhjp2rcd13ifvqga0","pricing_plan_id":"cebpf4jnsgd1na2vs0mg"},{"bike_id":"f939e1d2-7d19-4a5c-b413-6aed09ef2cba","system_id":"levelo_inurba_marseille","lat":43.2794,"lon":5.41034,"is_reserved":false,"is_disabled":false,"rental_uris":{"android":"levelo://app?vid=f939e1d2-7d19-4a5c-b413-6aed09ef2cba","ios":"levelo://app?vid=f939e1d2-7d19-4a5c-b413-6aed09ef2cba"},"vehicle_type_id":"4","last_reported":1746994226,"current_range_meters":19600,"station_id":"ce4bhnp2rcd13ifvqh0g","pricing_plan_id":"cebpf4jnsgd1na2vs0mg"},{"bike_id":"d462cba6-c00b-4bb7-a23d-0e6da3406df6","system_id":"levelo_inurba_marseille","lat":43.30333,"lon":5.36887,"is_reserved":false,"is_disabled":false,"rental_uris":{"android":"levelo://app?vid=d462cba6-c00b-4bb7-a23d-0e6da3406df6","ios":"levelo://app?vid=d462cba6-c00b-4bb7-a23d-0e6da3406df6"},"vehicle_type_id":"4","last_reported":1746994226,"current_range_meters":20000,"station_id":"ce4bgqh2rcd13ifvqc5g","pricing_plan_id":"cebpf4jnsgd1na2vs0mg"},{"bike_id":"58ca3082-502b-4f40-858f-4a60772f8be9","system_id":"levelo_inurba_marseille","lat":43.30598,"lon":5.3937,"is_reserved":false,"is_disabled":false,"rental_uris":{"android":"levelo://app?vid=58ca3082-502b-4f40-858f-4a60772f8be9","ios":"levelo://app?vid=58ca3082-502b-4f40-858f-4a60772f8be9"},"vehicle_type_id":"4","last_reported":1746994226,"current_range_meters":20000,"station_id":"ce4bh0p2rcd13ifvqd80","pricing_plan_id":"cebpf4jnsgd1na2vs0mg"},{"bike_id":"b563129d-dbe8-41ec-ad41-e58670601124","system_id":"levelo_inurba_marseille","lat":43.28349,"lon":5.38111,"is_reserved":false,"is_disabled":false,"rental_uris":{"android":"levelo://app?vid=b563129d-dbe8-41ec-ad41-e58670601124","ios":"levelo://app?vid=b563129d-dbe8-41ec-ad41-e58670601124"},"vehicle_type_id":"4","last_reported":1746994226,"current_range_meters":20000,"station_id":"ce4bh412rcd13ifvqdr0","pricing_plan_id":"cebpf4jnsgd1na2vs0mg"},{"bike_id":"15c429a6-f364-4d0a-a6e5-8ce4b35ac061","system_id":"levelo_inurba_marseille","lat":43.28705,"lon":5.39969,"is_reserved":false,"is_disabled":false,"rental_uris":{"android":"levelo://app?vid=15c429a6-f364-4d0a-a6e5-8ce4b35ac061","ios":"levelo://app?vid=15c429a6-f364-4d0a-a6e5-8ce4b35ac061"},"vehicle_type_id":"4","last_reported":1746994226,"current_range_meters":20000,"station_id":"ce4bho92rcd13ifvqh3g","pricing_plan_id":"cebpf4jnsgd1na2vs0mg"},{"bike_id":"873127f0-5960-43b7-af15-7b68eacdf132","system_id":"levelo_inurba_marseille","lat":43.31333,"lon":5.39699,"is_reserved":false,"is_disabled":false,"rental_uris":{"android":"levelo://app?vid=873127f0-5960-43b7-af15-7b68eacdf132","ios":"levelo://app?vid=873127f0-5960-43b7-af15-7b68eacdf132"},"vehicle_type_id":"4","last_reported":1746994226,"current_range_meters":20400,"station_id":"ce4bgvp2rcd13ifvqcu0","pricing_plan_id":"cebpf4jnsgd1na2vs0mg"},{"bike_id":"391f8d64-fbab-4a81-8bb4-8f11116e8670","system_id":"levelo_inurba_marseille","lat":43.27172,"lon":5.40992,"is_reserved":false,"is_disabled":false,"rental_uris":{"android":"levelo://app?vid=391f8d64-fbab-4a81-8bb4-8f11116e8670","ios":"levelo://app?vid=391f8d64-fbab-4a81-8bb4-8f11116e8670"},"vehicle_type_id":"4","last_reported":1746994226,"current_range_meters":20400,"station_id":"ce4bhl12rcd13ifvqgf0","pricing_plan_id":"cebpf4jnsgd1na2vs0mg"},{"bike_id":"b336a229-0bf1-452c-97d8-afd000b0f02e","system_id":"levelo_inurba_marseille","lat":43.32474,"lon":5.36592,"is_reserved":false,"is_disabled":false,"rental_uris":{"android":"levelo://app?vid=b336a229-0bf1-452c-97d8-afd000b0f02e","ios":"levelo://app?vid=b336a229-0bf1-452c-97d8-afd000b0f02e"},"vehicle_type_id":"4","last_reported":1746994226,"current_range_meters":20400,"station_id":"ce4bhs12rcd13ifvqhvg","pricing_plan_id":"cebpf4jnsgd1na2vs0mg"},{"bike_id":"5c3b95e8-97d2-4ffe-8b68-313f931335cf","system_id":"levelo_inurba_marseille","lat":43.30178,"lon":5.366202,"is_reserved":false,"is_disabled":false,"rental_uris":{"android":"levelo://app?vid=5c3b95e8-97d2-4ffe-8b68-313f931335cf","ios":"levelo://app?vid=5c3b95e8-97d2-4ffe-8b68-313f931335cf"},"vehicle_type_id":"4","last_reported":1746994226,"current_range_meters":20800,"station_id":"ce4bgrh2rcd13ifvqc8g","pricing_plan_id":"cebpf4jnsgd1na2vs0mg"},{"bike_id":"90e6c42d-2cbb-471b-a4a7-67ed571b6807","system_id":"levelo_inurba_marseille","lat":43.29192,"lon":5.39331,"is_reserved":false,"is_disabled":false,"rental_uris":{"android":"levelo://app?vid=90e6c42d-2cbb-471b-a4a7-67ed571b6807","ios":"levelo://app?vid=90e6c42d-2cbb-471b-a4a7-67ed571b6807"},"vehicle_type_id":"4","last_reported":1746994226,"current_range_meters":20800,"station_id":"ce4bh192rcd13ifvqdd0","pricing_plan_id":"cebpf4jnsgd1na2vs0mg"},{"bike_id":"861c4007-6154-4afe-9227-bb7419306c0d","system_id":"levelo_inurba_marseille","lat":43.29264,"lon":5.38431,"is_reserved":false,"is_disabled":false,"rental_uris":{"android":"levelo://app?vid=861c4007-6154-4afe-9227-bb7419306c0d","ios":"levelo://app?vid=861c4007-6154-4afe-9227-bb7419306c0d"},"vehicle_type_id":"4","last_reported":1746994226,"current_range_meters":20800,"station_id":"ce4bh692rcd13ifvqea0","pricing_plan_id":"cebpf4jnsgd1na2vs0mg"},{"bike_id":"530aa26c-63ee-4f30-8ebf-a00aad60fc6c","system_id":"levelo_inurba_marseille","lat":43.26944,"lon":5.3866,"is_reserved":false,"is_disabled":false,"rental_uris":{"android":"levelo://app?vid=530aa26c-63ee-4f30-8ebf-a00aad60fc6c","ios":"levelo://app?vid=530aa26c-63ee-4f30-8ebf-a00aad60fc6c"},"vehicle_type_id":"4","last_reported":1746994226,"current_range_meters":20800,"station_id":"ce4bhh92rcd13ifvqfh0","pricing_plan_id":"cebpf4jnsgd1na2vs0mg"},{"bike_id":"c6f94e68-7c7b-43ef-8184-27f8965ee836","system_id":"levelo_inurba_marseille","lat":43.25115,"lon":5.40322,"is_reserved":false,"is_disabled":false,"rental_uris":{"android":"levelo://app?vid=c6f94e68-7c7b-43ef-8184-27f8965ee836","ios":"levelo://app?vid=c6f94e68-7c7b-43ef-8184-27f8965ee836"},"vehicle_type_id":"4","last_reported":1746994226,"current_range_meters":20800,"station_id":"ce4bhlh2rcd13ifvqgig","pricing_plan_id":"cebpf4jnsgd1na2vs0mg"},{"bike_id":"c47239fc-3b79-4a3b-a784-6acfb11919e6","system_id":"levelo_inurba_marseille","lat":43.30428,"lon":5.38888,"is_reserved":false,"is_disabled":false,"rental_uris":{"android":"levelo://app?vid=c47239fc-3b79-4a3b-a784-6acfb11919e6","ios":"levelo://app?vid=c47239fc-3b79-4a3b-a784-6acfb11919e6"},"vehicle_type_id":"4","last_reported":1746994226,"current_range_meters":22400,"station_id":"ce4bgk12rcd13ifvqbi0","pricing_plan_id":"cebpf4jnsgd1na2vs0mg"},{"bike_id":"2159341a-50ef-47b4-8e1d-7bc568c5aea2","system_id":"levelo_inurba_marseille","lat":43.30303,"lon":5.39206,"is_reserved":false,"is_disabled":false,"rental_uris":{"android":"levelo://app?vid=2159341a-50ef-47b4-8e1d-7bc568c5aea2","ios":"levelo://app?vid=2159341a-50ef-47b4-8e1d-7bc568c5aea2"},"vehicle_type_id":"4","last_reported":1746994226,"current_range_meters":22400,"station_id":"ce4bgkh2rcd13ifvqbk0","pricing_plan_id":"cebpf4jnsgd1na2vs0mg"},{"bike_id":"e6adc396-be82-4a12-97e0-95dd6dbe63be","system_id":"levelo_inurba_marseille","lat":43.26193,"lon":5.40499,"is_reserved":false,"is_disabled":false,"rental_uris":{"android":"levelo://app?vid=e6adc396-be82-4a12-97e0-95dd6dbe63be","ios":"levelo://app?vid=e6adc396-be82-4a12-97e0-95dd6dbe63be"},"vehicle_type_id":"4","last_reported":1746994226,"current_range_meters":22400,"station_id":"ce4bhmh2rcd13ifvqgmg","pricing_plan_id":"cebpf4jnsgd1na2vs0mg"},{"bike_id":"bf8ab2b3-a5b8-4b44-9ccf-e0d7e23d9454","system_id":"levelo_inurba_marseille","lat":43.284597,"lon":5.35889,"is_reserved":false,"is_disabled":false,"rental_uris":{"android":"levelo://app?vid=bf8ab2b3-a5b8-4b44-9ccf-e0d7e23d9454","ios":"levelo://app?vid=bf8ab2b3-a5b8-4b44-9ccf-e0d7e23d9454"},"vehicle_type_id":"4","last_reported":1746994226,"current_range_meters":22800,"station_id":"ce4bhah2rcd13ifvqei0","pricing_plan_id":"cebpf4jnsgd1na2vs0mg"},{"bike_id":"e61b12b5-71cc-4cdd-8933-55e853a2a5a6","system_id":"levelo_inurba_marseille","lat":43.27202,"lon":5.39187,"is_reserved":false,"is_disabled":false,"rental_uris":{"android":"levelo://app?vid=e61b12b5-71cc-4cdd-8933-55e853a2a5a6","ios":"levelo://app?vid=e61b12b5-71cc-4cdd-8933-55e853a2a5a6"},"vehicle_type_id":"4","last_reported":1746994226,"current_range_meters":22800,"station_id":"ce4bhhp2rcd13ifvqfm0","pricing_plan_id":"cebpf4jnsgd1na2vs0mg"},{"bike_id":"9ba00d66-a594-408f-ba65-431fb0aaa143","system_id":"levelo_inurba_marseille","lat":43.30137,"lon":5.39882,"is_reserved":false,"is_disabled":false,"rental_uris":{"android":"levelo://app?vid=9ba00d66-a594-408f-ba65-431fb0aaa143","ios":"levelo://app?vid=9ba00d66-a594-408f-ba65-431fb0aaa143"},"vehicle_type_id":"4","last_reported":1746994226,"current_range_meters":23200,"station_id":"ce4bh0h2rcd13ifvqd40","pricing_plan_id":"cebpf4jnsgd1na2vs0mg"},{"bike_id":"7ac3b702-f84a-46c3-b5af-726fdb9130c3","system_id":"levelo_inurba_marseille","lat":43.28677,"lon":5.38667,"is_reserved":false,"is_disabled":false,"rental_uris":{"android":"levelo://app?vid=7ac3b702-f84a-46c3-b5af-726fdb9130c3","ios":"levelo://app?vid=7ac3b702-f84a-46c3-b5af-726fdb9130c3"},"vehicle_type_id":"4","last_reported":1746994226,"current_range_meters":23200,"station_id":"ce4bh492rcd13ifvqdug","pricing_plan_id":"cebpf4jnsgd1na2vs0mg"},{"bike_id":"abdcba7f-4586-401f-974a-64609ab7d439","system_id":"levelo_inurba_marseille","lat":43.29029,"lon":5.38649,"is_reserved":false,"is_disabled":false,"rental_uris":{"android":"levelo://app?vid=abdcba7f-4586-401f-974a-64609ab7d439","ios":"levelo://app?vid=abdcba7f-4586-401f-974a-64609ab7d439"},"vehicle_type_id":"4","last_reported":1746994226,"current_range_meters":23200,"station_id":"ce4bh4p2rcd13ifvqe0g","pricing_plan_id":"cebpf4jnsgd1na2vs0mg"},{"bike_id":"29e16365-5965-4ec3-8bb4-6648ec3e22c6","system_id":"levelo_inurba_marseille","lat":43.25809,"lon":5.39442,"is_reserved":false,"is_disabled":false,"rental_uris":{"android":"levelo://app?vid=29e16365-5965-4ec3-8bb4-6648ec3e22c6","ios":"levelo://app?vid=29e16365-5965-4ec3-8bb4-6648ec3e22c6"},"vehicle_type_id":"4","last_reported":1746994226,"current_range_meters":23200,"station_id":"ce4bhip2rcd13ifvqft0","pricing_plan_id":"cebpf4jnsgd1na2vs0mg"},{"bike_id":"36fd7042-62d9-493c-8a59-a394652c22d0","system_id":"levelo_inurba_marseille","lat":43.251142,"lon":5.403177,"is_reserved":false,"is_disabled":false,"rental_uris":{"android":"levelo://app?vid=36fd7042-62d9-493c-8a59-a394652c22d0","ios":"levelo://app?vid=36fd7042-62d9-493c-8a59-a394652c22d0"},"vehicle_type_id":"4","last_reported":1746994226,"current_range_meters":23200,"station_id":"ce4bhlh2rcd13ifvqgig","pricing_plan_id":"cebpf4jnsgd1na2vs0mg"},{"bike_id":"973dd35a-a9af-4674-b194-2194b0d40e77","system_id":"levelo_inurba_marseille","lat":43.31121,"lon":5.37768,"is_reserved":false,"is_disabled":false,"rental_uris":{"android":"levelo://app?vid=973dd35a-a9af-4674-b194-2194b0d40e77","ios":"levelo://app?vid=973dd35a-a9af-4674-b194-2194b0d40e77"},"vehicle_type_id":"4","last_reported":1746994226,"current_range_meters":24000,"station_id":"ce4bgt92rcd13ifvqcg0","pricing_plan_id":"cebpf4jnsgd1na2vs0mg"},{"bike_id":"0e3c21c6-ac11-441e-baec-fca1355d4c96","system_id":"levelo_inurba_marseille","lat":43.30244,"lon":5.40063,"is_reserved":false,"is_disabled":false,"rental_uris":{"android":"levelo://app?vid=0e3c21c6-ac11-441e-baec-fca1355d4c96","ios":"levelo://app?vid=0e3c21c6-ac11-441e-baec-fca1355d4c96"},"vehicle_type_id":"4","last_reported":1746994226,"current_range_meters":24000,"station_id":"ce4bgvh2rcd13ifvqcs0","pricing_plan_id":"cebpf4jnsgd1na2vs0mg"},{"bike_id":"fcf9463b-401b-4157-a5a9-4c36ca7d015d","system_id":"levelo_inurba_marseille","lat":43.30677,"lon":5.37052,"is_reserved":false,"is_disabled":false,"rental_uris":{"android":"levelo://app?vid=fcf9463b-401b-4157-a5a9-4c36ca7d015d","ios":"levelo://app?vid=fcf9463b-401b-4157-a5a9-4c36ca7d015d"},"vehicle_type_id":"4","last_reported":1746994226,"current_range_meters":24400,"station_id":"","pricing_plan_id":"cebpf4jnsgd1na2vs0mg"},{"bike_id":"3d20e837-b1f5-4377-bcf1-94f2d57a4b40","system_id":"levelo_inurba_marseille","lat":43.26209,"lon":5.37444,"is_reserved":false,"is_disabled":false,"rental_uris":{"android":"levelo://app?vid=3d20e837-b1f5-4377-bcf1-94f2d57a4b40","ios":"levelo://app?vid=3d20e837-b1f5-4377-bcf1-94f2d57a4b40"},"vehicle_type_id":"4","last_reported":1746994226,"current_range_meters":24400,"station_id":"ce4bhgp2rcd13ifvqfc0","pricing_plan_id":"cebpf4jnsgd1na2vs0mg"},{"bike_id":"e9616221-7423-4bfb-9840-191e8a239b7d","system_id":"levelo_inurba_marseille","lat":43.28412,"lon":5.37523,"is_reserved":false,"is_disabled":false,"rental_uris":{"android":"levelo://app?vid=e9616221-7423-4bfb-9840-191e8a239b7d","ios":"levelo://app?vid=e9616221-7423-4bfb-9840-191e8a239b7d"},"vehicle_type_id":"4","last_reported":1746994226,"current_range_meters":24800,"station_id":"ce4bh412rcd13ifvqds0","pricing_plan_id":"cebpf4jnsgd1na2vs0mg"},{"bike_id":"ccc93e7a-bbcc-4de6-9d73-4a906704cb25","system_id":"levelo_inurba_marseille","lat":43.27983,"lon":5.38717,"is_reserved":false,"is_disabled":false,"rental_uris":{"android":"levelo://app?vid=ccc93e7a-bbcc-4de6-9d73-4a906704cb25","ios":"levelo://app?vid=ccc93e7a-bbcc-4de6-9d73-4a906704cb25"},"vehicle_type_id":"4","last_reported":1746994226,"current_range_meters":24800,"station_id":"ce4bhg12rcd13ifvqf80","pricing_plan_id":"cebpf4jnsgd1na2vs0mg"},{"bike_id":"1aeff0df-0e55-45ad-ba82-77e85ed583ca","system_id":"levelo_inurba_marseille","lat":43.32482,"lon":5.36587,"is_reserved":false,"is_disabled":false,"rental_uris":{"android":"levelo://app?vid=1aeff0df-0e55-45ad-ba82-77e85ed583ca","ios":"levelo://app?vid=1aeff0df-0e55-45ad-ba82-77e85ed583ca"},"vehicle_type_id":"4","last_reported":1746994226,"current_range_meters":24800,"station_id":"ce4bhs12rcd13ifvqhvg","pricing_plan_id":"cebpf4jnsgd1na2vs0mg"},{"bike_id":"bf0c4a52-4226-46a9-ba4c-0bc9d19b1429","system_id":"levelo_inurba_marseille","lat":43.29269,"lon":5.37621,"is_reserved":false,"is_disabled":false,"rental_uris":{"android":"levelo://app?vid=bf0c4a52-4226-46a9-ba4c-0bc9d19b1429","ios":"levelo://app?vid=bf0c4a52-4226-46a9-ba4c-0bc9d19b1429"},"vehicle_type_id":"4","last_reported":1746994226,"current_range_meters":25200,"station_id":"ce4bgi12rcd13ifvqb80","pricing_plan_id":"cebpf4jnsgd1na2vs0mg"},{"bike_id":"626d5ef0-00a0-48fb-834e-b2f28aab195c","system_id":"levelo_inurba_marseille","lat":43.28853,"lon":5.39317,"is_reserved":false,"is_disabled":false,"rental_uris":{"android":"levelo://app?vid=626d5ef0-00a0-48fb-834e-b2f28aab195c","ios":"levelo://app?vid=626d5ef0-00a0-48fb-834e-b2f28aab195c"},"vehicle_type_id":"4","last_reported":1746994226,"current_range_meters":25200,"station_id":"ce4bh2p2rcd13ifvqdi0","pricing_plan_id":"cebpf4jnsgd1na2vs0mg"},{"bike_id":"55655352-2edf-4c61-a6ae-98f2cc101e04","system_id":"levelo_inurba_marseille","lat":43.26492,"lon":5.39543,"is_reserved":false,"is_disabled":false,"rental_uris":{"android":"levelo://app?vid=55655352-2edf-4c61-a6ae-98f2cc101e04","ios":"levelo://app?vid=55655352-2edf-4c61-a6ae-98f2cc101e04"},"vehicle_type_id":"4","last_reported":1746994226,"current_range_meters":25200,"station_id":"ce4bhi12rcd13ifvqfq0","pricing_plan_id":"cebpf4jnsgd1na2vs0mg"},{"bike_id":"f202ef3b-390d-4222-9c53-b7b067de17c2","system_id":"levelo_inurba_marseille","lat":43.28405,"lon":5.39164,"is_reserved":false,"is_disabled":false,"rental_uris":{"android":"levelo://app?vid=f202ef3b-390d-4222-9c53-b7b067de17c2","ios":"levelo://app?vid=f202ef3b-390d-4222-9c53-b7b067de17c2"},"vehicle_type_id":"4","last_reported":1746994226,"current_range_meters":25600,"station_id":"","pricing_plan_id":"cebpf4jnsgd1na2vs0mg"},{"bike_id":"5c749cc0-59b6-4d10-be7a-de3d100ffa5e","system_id":"levelo_inurba_marseille","lat":43.29922,"lon":5.37472,"is_reserved":false,"is_disabled":false,"rental_uris":{"android":"levelo://app?vid=5c749cc0-59b6-4d10-be7a-de3d100ffa5e","ios":"levelo://app?vid=5c749cc0-59b6-4d10-be7a-de3d100ffa5e"},"vehicle_type_id":"4","last_reported":1746994226,"current_range_meters":25600,"station_id":"ce4bgjh2rcd13ifvqbg0","pricing_plan_id":"cebpf4jnsgd1na2vs0mg"},{"bike_id":"81e56a83-0f38-4053-8247-0af6d61d1407","system_id":"levelo_inurba_marseille","lat":43.31878,"lon":5.40746,"is_reserved":false,"is_disabled":false,"rental_uris":{"android":"levelo://app?vid=81e56a83-0f38-4053-8247-0af6d61d1407","ios":"levelo://app?vid=81e56a83-0f38-4053-8247-0af6d61d1407"},"vehicle_type_id":"4","last_reported":1746994226,"current_range_meters":25600,"station_id":"ce4bhq12rcd13ifvqhig","pricing_plan_id":"cebpf4jnsgd1na2vs0mg"},{"bike_id":"e3cd6c73-5b35-4790-aac4-22e9aabaa69e","system_id":"levelo_inurba_marseille","lat":43.30434,"lon":5.38896,"is_reserved":false,"is_disabled":false,"rental_uris":{"android":"levelo://app?vid=e3cd6c73-5b35-4790-aac4-22e9aabaa69e","ios":"levelo://app?vid=e3cd6c73-5b35-4790-aac4-22e9aabaa69e"},"vehicle_type_id":"4","last_reported":1746994226,"current_range_meters":26000,"station_id":"ce4bgk12rcd13ifvqbi0","pricing_plan_id":"cebpf4jnsgd1na2vs0mg"},{"bike_id":"c98e49b5-e5a5-4397-8661-40036d596731","system_id":"levelo_inurba_marseille","lat":43.287059,"lon":5.399907,"is_reserved":false,"is_disabled":false,"rental_uris":{"android":"levelo://app?vid=c98e49b5-e5a5-4397-8661-40036d596731","ios":"levelo://app?vid=c98e49b5-e5a5-4397-8661-40036d596731"},"vehicle_type_id":"4","last_reported":1746994226,"current_range_meters":26000,"station_id":"ce4bh312rcd13ifvqdj0","pricing_plan_id":"cebpf4jnsgd1na2vs0mg"},{"bike_id":"5720a36c-3d99-46ca-911f-a3d0b92c5dc5","system_id":"levelo_inurba_marseille","lat":43.27177,"lon":5.40997,"is_reserved":false,"is_disabled":false,"rental_uris":{"android":"levelo://app?vid=5720a36c-3d99-46ca-911f-a3d0b92c5dc5","ios":"levelo://app?vid=5720a36c-3d99-46ca-911f-a3d0b92c5dc5"},"vehicle_type_id":"4","last_reported":1746994226,"current_range_meters":26000,"station_id":"ce4bhl12rcd13ifvqgf0","pricing_plan_id":"cebpf4jnsgd1na2vs0mg"},{"bike_id":"51c0357f-b343-4e95-90b3-ee760f6db5df","system_id":"levelo_inurba_marseille","lat":43.27994,"lon":5.40012,"is_reserved":false,"is_disabled":false,"rental_uris":{"android":"levelo://app?vid=51c0357f-b343-4e95-90b3-ee760f6db5df","ios":"levelo://app?vid=51c0357f-b343-4e95-90b3-ee760f6db5df"},"vehicle_type_id":"4","last_reported":1746994226,"current_range_meters":26000,"station_id":"ce4bho92rcd13ifvqh4g","pricing_plan_id":"cebpf4jnsgd1na2vs0mg"},{"bike_id":"e893cfa6-e06e-4e48-8bb1-b5441c83fddc","system_id":"levelo_inurba_marseille","lat":43.28673,"lon":5.36363,"is_reserved":false,"is_disabled":false,"rental_uris":{"android":"levelo://app?vid=e893cfa6-e06e-4e48-8bb1-b5441c83fddc","ios":"levelo://app?vid=e893cfa6-e06e-4e48-8bb1-b5441c83fddc"},"vehicle_type_id":"4","last_reported":1746994226,"current_range_meters":26800,"station_id":"ce4bhah2rcd13ifvqej0","pricing_plan_id":"cebpf4jnsgd1na2vs0mg"},{"bike_id":"c1804f9f-9f2d-4342-98f5-bc656b529f81","system_id":"levelo_inurba_marseille","lat":43.27074,"lon":5.42281,"is_reserved":false,"is_disabled":false,"rental_uris":{"android":"levelo://app?vid=c1804f9f-9f2d-4342-98f5-bc656b529f81","ios":"levelo://app?vid=c1804f9f-9f2d-4342-98f5-bc656b529f81"},"vehicle_type_id":"4","last_reported":1746994226,"current_range_meters":26800,"station_id":"ce4bhk92rcd13ifvqgb0","pricing_plan_id":"cebpf4jnsgd1na2vs0mg"},{"bike_id":"ffc6acd7-a1c0-48d7-8a84-d3de6874a7b8","system_id":"levelo_inurba_marseille","lat":43.30304,"lon":5.392128,"is_reserved":false,"is_disabled":false,"rental_uris":{"android":"levelo://app?vid=ffc6acd7-a1c0-48d7-8a84-d3de6874a7b8","ios":"levelo://app?vid=ffc6acd7-a1c0-48d7-8a84-d3de6874a7b8"},"vehicle_type_id":"4","last_reported":1746994226,"current_range_meters":27200,"station_id":"","pricing_plan_id":"cebpf4jnsgd1na2vs0mg"},{"bike_id":"8c0898ed-79e8-4483-939c-d9b2809f5072","system_id":"levelo_inurba_marseille","lat":43.30816,"lon":5.38156,"is_reserved":false,"is_disabled":false,"rental_uris":{"android":"levelo://app?vid=8c0898ed-79e8-4483-939c-d9b2809f5072","ios":"levelo://app?vid=8c0898ed-79e8-4483-939c-d9b2809f5072"},"vehicle_type_id":"4","last_reported":1746994226,"current_range_meters":27200,"station_id":"ce4bgt12rcd13ifvqce0","pricing_plan_id":"cebpf4jnsgd1na2vs0mg"},{"bike_id":"c2f46fcf-2d98-4a53-915b-9b0e7a792171","system_id":"levelo_inurba_marseille","lat":43.26562,"lon":5.39025,"is_reserved":false,"is_disabled":false,"rental_uris":{"android":"levelo://app?vid=c2f46fcf-2d98-4a53-915b-9b0e7a792171","ios":"levelo://app?vid=c2f46fcf-2d98-4a53-915b-9b0e7a792171"},"vehicle_type_id":"4","last_reported":1746994226,"current_range_meters":27200,"station_id":"ce4bhe12rcd13ifvqf30","pricing_plan_id":"cebpf4jnsgd1na2vs0mg"},{"bike_id":"d02e6451-e516-4f8c-9a29-efbb81ab4a82","system_id":"levelo_inurba_marseille","lat":43.30453,"lon":5.38882,"is_reserved":false,"is_disabled":false,"rental_uris":{"android":"levelo://app?vid=d02e6451-e516-4f8c-9a29-efbb81ab4a82","ios":"levelo://app?vid=d02e6451-e516-4f8c-9a29-efbb81ab4a82"},"vehicle_type_id":"4","last_reported":1746994226,"current_range_meters":27600,"station_id":"ce4bgk12rcd13ifvqbi0","pricing_plan_id":"cebpf4jnsgd1na2vs0mg"},{"bike_id":"40236f24-0c38-48a5-9d4b-a7134972e991","system_id":"levelo_inurba_marseille","lat":43.28039,"lon":5.36948,"is_reserved":false,"is_disabled":false,"rental_uris":{"android":"levelo://app?vid=40236f24-0c38-48a5-9d4b-a7134972e991","ios":"levelo://app?vid=40236f24-0c38-48a5-9d4b-a7134972e991"},"vehicle_type_id":"4","last_reported":1746994226,"current_range_meters":27600,"station_id":"ce4bha12rcd13ifvqef0","pricing_plan_id":"cebpf4jnsgd1na2vs0mg"},{"bike_id":"b8bf2a08-843e-45f8-a5ba-247ce347a37f","system_id":"levelo_inurba_marseille","lat":43.2606,"lon":5.39407,"is_reserved":false,"is_disabled":false,"rental_uris":{"android":"levelo://app?vid=b8bf2a08-843e-45f8-a5ba-247ce347a37f","ios":"levelo://app?vid=b8bf2a08-843e-45f8-a5ba-247ce347a37f"},"vehicle_type_id":"4","last_reported":1746994226,"current_range_meters":27600,"station_id":"ce4bhh92rcd13ifvqfj0","pricing_plan_id":"cebpf4jnsgd1na2vs0mg"},{"bike_id":"1806c447-b7d4-41de-ab1b-359589127fc7","system_id":"levelo_inurba_marseille","lat":43.32343,"lon":5.40617,"is_reserved":false,"is_disabled":false,"rental_uris":{"android":"levelo://app?vid=1806c447-b7d4-41de-ab1b-359589127fc7","ios":"levelo://app?vid=1806c447-b7d4-41de-ab1b-359589127fc7"},"vehicle_type_id":"4","last_reported":1746994226,"current_range_meters":27600,"station_id":"ce4bhq92rcd13ifvqhjg","pricing_plan_id":"cebpf4jnsgd1na2vs0mg"},{"bike_id":"1af5cac8-13d5-4b08-82ca-dcdc81a2592a","system_id":"levelo_inurba_marseille","lat":43.31166,"lon":5.38723,"is_reserved":false,"is_disabled":false,"rental_uris":{"android":"levelo://app?vid=1af5cac8-13d5-4b08-82ca-dcdc81a2592a","ios":"levelo://app?vid=1af5cac8-13d5-4b08-82ca-dcdc81a2592a"},"vehicle_type_id":"4","last_reported":1746994226,"current_range_meters":28000,"station_id":"ce4bgv12rcd13ifvqcp0","pricing_plan_id":"cebpf4jnsgd1na2vs0mg"},{"bike_id":"561dec04-c84c-4699-85cb-54a9453d50dd","system_id":"levelo_inurba_marseille","lat":43.30807,"lon":5.37627,"is_reserved":false,"is_disabled":false,"rental_uris":{"android":"levelo://app?vid=561dec04-c84c-4699-85cb-54a9453d50dd","ios":"levelo://app?vid=561dec04-c84c-4699-85cb-54a9453d50dd"},"vehicle_type_id":"4","last_reported":1746994226,"current_range_meters":28000,"station_id":"ce4bgv92rcd13ifvqcq0","pricing_plan_id":"cebpf4jnsgd1na2vs0mg"},{"bike_id":"1297402a-0699-4324-a067-80a0da342625","system_id":"levelo_inurba_marseille","lat":43.25746,"lon":5.41108,"is_reserved":false,"is_disabled":false,"rental_uris":{"android":"levelo://app?vid=1297402a-0699-4324-a067-80a0da342625","ios":"levelo://app?vid=1297402a-0699-4324-a067-80a0da342625"},"vehicle_type_id":"4","last_reported":1746994226,"current_range_meters":28000,"station_id":"ce4bhkp2rcd13ifvqgd0","pricing_plan_id":"cebpf4jnsgd1na2vs0mg"},{"bike_id":"1388bccb-f8de-4fa3-9be5-f7f0213c9ab9","system_id":"levelo_inurba_marseille","lat":43.27914,"lon":5.39588,"is_reserved":false,"is_disabled":false,"rental_uris":{"android":"levelo://app?vid=1388bccb-f8de-4fa3-9be5-f7f0213c9ab9","ios":"levelo://app?vid=1388bccb-f8de-4fa3-9be5-f7f0213c9ab9"},"vehicle_type_id":"4","last_reported":1746994226,"current_range_meters":28400,"station_id":"ce4bhf92rcd13ifvqf40","pricing_plan_id":"cebpf4jnsgd1na2vs0mg"},{"bike_id":"fe99ae06-6c0d-4aca-a34d-21418b93b6b6","system_id":"levelo_inurba_marseille","lat":43.27557,"lon":5.38418,"is_reserved":false,"is_disabled":false,"rental_uris":{"android":"levelo://app?vid=fe99ae06-6c0d-4aca-a34d-21418b93b6b6","ios":"levelo://app?vid=fe99ae06-6c0d-4aca-a34d-21418b93b6b6"},"vehicle_type_id":"4","last_reported":1746994226,"current_range_meters":28400,"station_id":"ce4bhh92rcd13ifvqfi0","pricing_plan_id":"cebpf4jnsgd1na2vs0mg"},{"bike_id":"ea3306a5-e04f-4cc5-97f6-582943a9740e","system_id":"levelo_inurba_marseille","lat":43.28154,"lon":5.4264,"is_reserved":false,"is_disabled":false,"rental_uris":{"android":"levelo://app?vid=ea3306a5-e04f-4cc5-97f6-582943a9740e","ios":"levelo://app?vid=ea3306a5-e04f-4cc5-97f6-582943a9740e"},"vehicle_type_id":"4","last_reported":1746994226,"current_range_meters":28400,"station_id":"ce4bhnh2rcd13ifvqgug","pricing_plan_id":"cebpf4jnsgd1na2vs0mg"},{"bike_id":"c7e49f24-e3ee-4dae-9794-2cd6113e9290","system_id":"levelo_inurba_marseille","lat":43.30595,"lon":5.37214,"is_reserved":false,"is_disabled":false,"rental_uris":{"android":"levelo://app?vid=c7e49f24-e3ee-4dae-9794-2cd6113e9290","ios":"levelo://app?vid=c7e49f24-e3ee-4dae-9794-2cd6113e9290"},"vehicle_type_id":"4","last_reported":1746994226,"current_range_meters":28800,"station_id":"","pricing_plan_id":"cebpf4jnsgd1na2vs0mg"},{"bike_id":"23489286-a17a-416a-ba88-5fd0fa22d051","system_id":"levelo_inurba_marseille","lat":43.30272,"lon":5.37726,"is_reserved":false,"is_disabled":false,"rental_uris":{"android":"levelo://app?vid=23489286-a17a-416a-ba88-5fd0fa22d051","ios":"levelo://app?vid=23489286-a17a-416a-ba88-5fd0fa22d051"},"vehicle_type_id":"4","last_reported":1746994226,"current_range_meters":28800,"station_id":"ce4bguh2rcd13ifvqcj0","pricing_plan_id":"cebpf4jnsgd1na2vs0mg"},{"bike_id":"4c553312-7a56-4420-94be-4db995548186","system_id":"levelo_inurba_marseille","lat":43.29342,"lon":5.43435,"is_reserved":false,"is_disabled":false,"rental_uris":{"android":"levelo://app?vid=4c553312-7a56-4420-94be-4db995548186","ios":"levelo://app?vid=4c553312-7a56-4420-94be-4db995548186"},"vehicle_type_id":"4","last_reported":1746994226,"current_range_meters":29600,"station_id":"","pricing_plan_id":"cebpf4jnsgd1na2vs0mg"},{"bike_id":"b8c8745c-d0f6-457d-ab43-3437dafd7077","system_id":"levelo_inurba_marseille","lat":43.31492,"lon":5.37308,"is_reserved":false,"is_disabled":false,"rental_uris":{"android":"levelo://app?vid=b8c8745c-d0f6-457d-ab43-3437dafd7077","ios":"levelo://app?vid=b8c8745c-d0f6-457d-ab43-3437dafd7077"},"vehicle_type_id":"4","last_reported":1746994226,"current_range_meters":29600,"station_id":"ce4bgt12rcd13ifvqcd0","pricing_plan_id":"cebpf4jnsgd1na2vs0mg"},{"bike_id":"61b43f4f-d4c2-4e8e-8c12-53eb1648f29b","system_id":"levelo_inurba_marseille","lat":43.29258,"lon":5.409065,"is_reserved":false,"is_disabled":false,"rental_uris":{"android":"levelo://app?vid=61b43f4f-d4c2-4e8e-8c12-53eb1648f29b","ios":"levelo://app?vid=61b43f4f-d4c2-4e8e-8c12-53eb1648f29b"},"vehicle_type_id":"4","last_reported":1746994226,"current_range_meters":29600,"station_id":"ce4bh192rcd13ifvqdc0","pricing_plan_id":"cebpf4jnsgd1na2vs0mg"},{"bike_id":"8d280afa-9953-4524-8857-a23231819228","system_id":"levelo_inurba_marseille","lat":43.2884,"lon":5.39321,"is_reserved":false,"is_disabled":false,"rental_uris":{"android":"levelo://app?vid=8d280afa-9953-4524-8857-a23231819228","ios":"levelo://app?vid=8d280afa-9953-4524-8857-a23231819228"},"vehicle_type_id":"4","last_reported":1746994226,"current_range_meters":29600,"station_id":"ce4bh2p2rcd13ifvqdi0","pricing_plan_id":"cebpf4jnsgd1na2vs0mg"},{"bike_id":"9a92ec3b-fa0a-45e3-bbac-1ed5491b0864","system_id":"levelo_inurba_marseille","lat":43.29541,"lon":5.38539,"is_reserved":false,"is_disabled":false,"rental_uris":{"android":"levelo://app?vid=9a92ec3b-fa0a-45e3-bbac-1ed5491b0864","ios":"levelo://app?vid=9a92ec3b-fa0a-45e3-bbac-1ed5491b0864"},"vehicle_type_id":"4","last_reported":1746994226,"current_range_meters":30000,"station_id":"ce4bgih2rcd13ifvqba0","pricing_plan_id":"cebpf4jnsgd1na2vs0mg"},{"bike_id":"01d370ff-456b-47d4-9717-dac708dc3672","system_id":"levelo_inurba_marseille","lat":43.30537,"lon":5.3672,"is_reserved":false,"is_disabled":false,"rental_uris":{"android":"levelo://app?vid=01d370ff-456b-47d4-9717-dac708dc3672","ios":"levelo://app?vid=01d370ff-456b-47d4-9717-dac708dc3672"},"vehicle_type_id":"4","last_reported":1746994226,"current_range_meters":30000,"station_id":"ce4bgrp2rcd13ifvqc9g","pricing_plan_id":"cebpf4jnsgd1na2vs0mg"},{"bike_id":"59f8d089-437e-4ecd-8d61-801ceb02c68f","system_id":"levelo_inurba_marseille","lat":43.29524,"lon":5.39037,"is_reserved":false,"is_disabled":false,"rental_uris":{"android":"levelo://app?vid=59f8d089-437e-4ecd-8d61-801ceb02c68f","ios":"levelo://app?vid=59f8d089-437e-4ecd-8d61-801ceb02c68f"},"vehicle_type_id":"4","last_reported":1746994226,"current_range_meters":30000,"station_id":"ce4bh3p2rcd13ifvqdp0","pricing_plan_id":"cebpf4jnsgd1na2vs0mg"},{"bike_id":"8ca7f4be-37fb-47ec-8f0d-00dcb483855b","system_id":"levelo_inurba_marseille","lat":43.28258,"lon":5.42429,"is_reserved":false,"is_disabled":false,"rental_uris":{"android":"levelo://app?vid=8ca7f4be-37fb-47ec-8f0d-00dcb483855b","ios":"levelo://app?vid=8ca7f4be-37fb-47ec-8f0d-00dcb483855b"},"vehicle_type_id":"4","last_reported":1746994226,"current_range_meters":30400,"station_id":"","pricing_plan_id":"cebpf4jnsgd1na2vs0mg"},{"bike_id":"2f35e1e1-7c1a-4973-a292-7684e9cbad01","system_id":"levelo_inurba_marseille","lat":43.24654,"lon":5.38894,"is_reserved":false,"is_disabled":false,"rental_uris":{"android":"levelo://app?vid=2f35e1e1-7c1a-4973-a292-7684e9cbad01","ios":"levelo://app?vid=2f35e1e1-7c1a-4973-a292-7684e9cbad01"},"vehicle_type_id":"4","last_reported":1746994226,"current_range_meters":30400,"station_id":"ce4bhg12rcd13ifvqf60","pricing_plan_id":"cebpf4jnsgd1na2vs0mg"},{"bike_id":"e28853be-a8af-4d81-9bc0-d5634df77fba","system_id":"levelo_inurba_marseille","lat":43.28446,"lon":5.39177,"is_reserved":false,"is_disabled":false,"rental_uris":{"android":"levelo://app?vid=e28853be-a8af-4d81-9bc0-d5634df77fba","ios":"levelo://app?vid=e28853be-a8af-4d81-9bc0-d5634df77fba"},"vehicle_type_id":"4","last_reported":1746994226,"current_range_meters":30400,"station_id":"ce4bhoh2rcd13ifvqh5g","pricing_plan_id":"cebpf4jnsgd1na2vs0mg"},{"bike_id":"06587e68-878a-442a-819f-e8f268c0d376","system_id":"levelo_inurba_marseille","lat":43.28444,"lon":5.39193,"is_reserved":false,"is_disabled":false,"rental_uris":{"android":"levelo://app?vid=06587e68-878a-442a-819f-e8f268c0d376","ios":"levelo://app?vid=06587e68-878a-442a-819f-e8f268c0d376"},"vehicle_type_id":"4","last_reported":1746994226,"current_range_meters":30400,"station_id":"ce4bhoh2rcd13ifvqh5g","pricing_plan_id":"cebpf4jnsgd1na2vs0mg"},{"bike_id":"cdc62916-98c5-4459-a4cd-4b71ee75b9fc","system_id":"levelo_inurba_marseille","lat":43.26025,"lon":5.41715,"is_reserved":false,"is_disabled":false,"rental_uris":{"android":"levelo://app?vid=cdc62916-98c5-4459-a4cd-4b71ee75b9fc","ios":"levelo://app?vid=cdc62916-98c5-4459-a4cd-4b71ee75b9fc"},"vehicle_type_id":"4","last_reported":1746994226,"current_range_meters":30800,"station_id":"","pricing_plan_id":"cebpf4jnsgd1na2vs0mg"},{"bike_id":"b90b4103-4675-44b3-be2c-f6154c990e07","system_id":"levelo_inurba_marseille","lat":43.30302,"lon":5.39216,"is_reserved":false,"is_disabled":false,"rental_uris":{"android":"levelo://app?vid=b90b4103-4675-44b3-be2c-f6154c990e07","ios":"levelo://app?vid=b90b4103-4675-44b3-be2c-f6154c990e07"},"vehicle_type_id":"4","last_reported":1746994226,"current_range_meters":30800,"station_id":"ce4bgkh2rcd13ifvqbk0","pricing_plan_id":"cebpf4jnsgd1na2vs0mg"},{"bike_id":"bacf9d40-9f3f-4037-8999-d6fe8e89cf7c","system_id":"levelo_inurba_marseille","lat":43.30308,"lon":5.36891,"is_reserved":false,"is_disabled":false,"rental_uris":{"android":"levelo://app?vid=bacf9d40-9f3f-4037-8999-d6fe8e89cf7c","ios":"levelo://app?vid=bacf9d40-9f3f-4037-8999-d6fe8e89cf7c"},"vehicle_type_id":"4","last_reported":1746994226,"current_range_meters":30800,"station_id":"ce4bgqh2rcd13ifvqc5g","pricing_plan_id":"cebpf4jnsgd1na2vs0mg"},{"bike_id":"e7ecf296-77db-4a7a-841c-65837e73a669","system_id":"levelo_inurba_marseille","lat":43.28659,"lon":5.36352,"is_reserved":false,"is_disabled":false,"rental_uris":{"android":"levelo://app?vid=e7ecf296-77db-4a7a-841c-65837e73a669","ios":"levelo://app?vid=e7ecf296-77db-4a7a-841c-65837e73a669"},"vehicle_type_id":"4","last_reported":1746994226,"current_range_meters":30800,"station_id":"ce4bhah2rcd13ifvqej0","pricing_plan_id":"cebpf4jnsgd1na2vs0mg"},{"bike_id":"39ef88b7-4503-4f42-926d-fbb958a9dc24","system_id":"levelo_inurba_marseille","lat":43.27171,"lon":5.40994,"is_reserved":false,"is_disabled":false,"rental_uris":{"android":"levelo://app?vid=39ef88b7-4503-4f42-926d-fbb958a9dc24","ios":"levelo://app?vid=39ef88b7-4503-4f42-926d-fbb958a9dc24"},"vehicle_type_id":"4","last_reported":1746994226,"current_range_meters":30800,"station_id":"ce4bhl12rcd13ifvqgf0","pricing_plan_id":"cebpf4jnsgd1na2vs0mg"},{"bike_id":"4b6f1f2a-d6ac-42ed-a7e8-a613812d46dc","system_id":"levelo_inurba_marseille","lat":43.30796,"lon":5.38178,"is_reserved":false,"is_disabled":false,"rental_uris":{"android":"levelo://app?vid=4b6f1f2a-d6ac-42ed-a7e8-a613812d46dc","ios":"levelo://app?vid=4b6f1f2a-d6ac-42ed-a7e8-a613812d46dc"},"vehicle_type_id":"4","last_reported":1746994226,"current_range_meters":31200,"station_id":"ce4bgt12rcd13ifvqce0","pricing_plan_id":"cebpf4jnsgd1na2vs0mg"},{"bike_id":"c843e039-fa38-4625-89fb-4bbc10568e89","system_id":"levelo_inurba_marseille","lat":43.28689,"lon":5.3866,"is_reserved":false,"is_disabled":false,"rental_uris":{"android":"levelo://app?vid=c843e039-fa38-4625-89fb-4bbc10568e89","ios":"levelo://app?vid=c843e039-fa38-4625-89fb-4bbc10568e89"},"vehicle_type_id":"4","last_reported":1746994226,"current_range_meters":31200,"station_id":"ce4bh492rcd13ifvqdug","pricing_plan_id":"cebpf4jnsgd1na2vs0mg"},{"bike_id":"91c16720-63af-498f-a799-6c9da45bdc71","system_id":"levelo_inurba_marseille","lat":43.24554,"lon":5.39531,"is_reserved":false,"is_disabled":false,"rental_uris":{"android":"levelo://app?vid=91c16720-63af-498f-a799-6c9da45bdc71","ios":"levelo://app?vid=91c16720-63af-498f-a799-6c9da45bdc71"},"vehicle_type_id":"4","last_reported":1746994226,"current_range_meters":31200,"station_id":"ce4bhlp2rcd13ifvqgjg","pricing_plan_id":"cebpf4jnsgd1na2vs0mg"},{"bike_id":"a85bd4b9-4621-43d4-83f7-4ad07d6befec","system_id":"levelo_inurba_marseille","lat":43.323382,"lon":5.406195,"is_reserved":false,"is_disabled":false,"rental_uris":{"android":"levelo://app?vid=a85bd4b9-4621-43d4-83f7-4ad07d6befec","ios":"levelo://app?vid=a85bd4b9-4621-43d4-83f7-4ad07d6befec"},"vehicle_type_id":"4","last_reported":1746994226,"current_range_meters":31200,"station_id":"ce4bhq92rcd13ifvqhjg","pricing_plan_id":"cebpf4jnsgd1na2vs0mg"},{"bike_id":"0808a5be-64ca-4448-9229-04435bf7f8b3","system_id":"levelo_inurba_marseille","lat":43.30532,"lon":5.36724,"is_reserved":false,"is_disabled":false,"rental_uris":{"android":"levelo://app?vid=0808a5be-64ca-4448-9229-04435bf7f8b3","ios":"levelo://app?vid=0808a5be-64ca-4448-9229-04435bf7f8b3"},"vehicle_type_id":"4","last_reported":1746994226,"current_range_meters":32000,"station_id":"ce4bgrp2rcd13ifvqc9g","pricing_plan_id":"cebpf4jnsgd1na2vs0mg"},{"bike_id":"b45d0263-ed17-4f84-a74e-d15c84857ce8","system_id":"levelo_inurba_marseille","lat":43.28564,"lon":5.39507,"is_reserved":false,"is_disabled":false,"rental_uris":{"android":"levelo://app?vid=b45d0263-ed17-4f84-a74e-d15c84857ce8","ios":"levelo://app?vid=b45d0263-ed17-4f84-a74e-d15c84857ce8"},"vehicle_type_id":"4","last_reported":1746994226,"current_range_meters":32000,"station_id":"ce4bh292rcd13ifvqdg0","pricing_plan_id":"cebpf4jnsgd1na2vs0mg"},{"bike_id":"2690d7b3-4cbf-4754-9dec-f9bfe5c72cd4","system_id":"levelo_inurba_marseille","lat":43.290367,"lon":5.399707,"is_reserved":false,"is_disabled":false,"rental_uris":{"android":"levelo://app?vid=2690d7b3-4cbf-4754-9dec-f9bfe5c72cd4","ios":"levelo://app?vid=2690d7b3-4cbf-4754-9dec-f9bfe5c72cd4"},"vehicle_type_id":"4","last_reported":1746994226,"current_range_meters":32000,"station_id":"ce4bh392rcd13ifvqdm0","pricing_plan_id":"cebpf4jnsgd1na2vs0mg"},{"bike_id":"a4b40a07-9c26-4d52-97a6-b95d30b96004","system_id":"levelo_inurba_marseille","lat":43.29268,"lon":5.38444,"is_reserved":false,"is_disabled":false,"rental_uris":{"android":"levelo://app?vid=a4b40a07-9c26-4d52-97a6-b95d30b96004","ios":"levelo://app?vid=a4b40a07-9c26-4d52-97a6-b95d30b96004"},"vehicle_type_id":"4","last_reported":1746994226,"current_range_meters":32000,"station_id":"ce4bh692rcd13ifvqea0","pricing_plan_id":"cebpf4jnsgd1na2vs0mg"},{"bike_id":"765f70f6-e5b6-4b61-bf2e-a75d5d0d10d2","system_id":"levelo_inurba_marseille","lat":43.26064,"lon":5.39389,"is_reserved":false,"is_disabled":false,"rental_uris":{"android":"levelo://app?vid=765f70f6-e5b6-4b61-bf2e-a75d5d0d10d2","ios":"levelo://app?vid=765f70f6-e5b6-4b61-bf2e-a75d5d0d10d2"},"vehicle_type_id":"4","last_reported":1746994226,"current_range_meters":32000,"station_id":"ce4bhh92rcd13ifvqfj0","pricing_plan_id":"cebpf4jnsgd1na2vs0mg"},{"bike_id":"e613626b-0ba7-4a6e-84b7-46810540ba9b","system_id":"levelo_inurba_marseille","lat":43.24658,"lon":5.38161,"is_reserved":false,"is_disabled":false,"rental_uris":{"android":"levelo://app?vid=e613626b-0ba7-4a6e-84b7-46810540ba9b","ios":"levelo://app?vid=e613626b-0ba7-4a6e-84b7-46810540ba9b"},"vehicle_type_id":"4","last_reported":1746994226,"current_range_meters":32000,"station_id":"ce4bhih2rcd13ifvqfr0","pricing_plan_id":"cebpf4jnsgd1na2vs0mg"},{"bike_id":"f64a83ec-2629-4a50-830a-0eec5af6a0b0","system_id":"levelo_inurba_marseille","lat":43.25723,"lon":5.41141,"is_reserved":false,"is_disabled":false,"rental_uris":{"android":"levelo://app?vid=f64a83ec-2629-4a50-830a-0eec5af6a0b0","ios":"levelo://app?vid=f64a83ec-2629-4a50-830a-0eec5af6a0b0"},"vehicle_type_id":"4","last_reported":1746994226,"current_range_meters":32000,"station_id":"ce4bhkp2rcd13ifvqgd0","pricing_plan_id":"cebpf4jnsgd1na2vs0mg"},{"bike_id":"5c046693-3fbd-4755-81fd-1c6b34ebf07b","system_id":"levelo_inurba_marseille","lat":43.337605,"lon":5.374426,"is_reserved":false,"is_disabled":false,"rental_uris":{"android":"levelo://app?vid=5c046693-3fbd-4755-81fd-1c6b34ebf07b","ios":"levelo://app?vid=5c046693-3fbd-4755-81fd-1c6b34ebf07b"},"vehicle_type_id":"4","last_reported":1746994226,"current_range_meters":32400,"station_id":"","pricing_plan_id":"cebpf4jnsgd1na2vs0mg"},{"bike_id":"a06e5d68-ed14-48a7-83e6-5dc88e4f6f97","system_id":"levelo_inurba_marseille","lat":43.31489,"lon":5.37307,"is_reserved":false,"is_disabled":false,"rental_uris":{"android":"levelo://app?vid=a06e5d68-ed14-48a7-83e6-5dc88e4f6f97","ios":"levelo://app?vid=a06e5d68-ed14-48a7-83e6-5dc88e4f6f97"},"vehicle_type_id":"4","last_reported":1746994226,"current_range_meters":32400,"station_id":"ce4bgt12rcd13ifvqcd0","pricing_plan_id":"cebpf4jnsgd1na2vs0mg"},{"bike_id":"c5eedbe2-bb9a-41c4-a865-98fddb06347b","system_id":"levelo_inurba_marseille","lat":43.30093,"lon":5.3907,"is_reserved":false,"is_disabled":false,"rental_uris":{"android":"levelo://app?vid=c5eedbe2-bb9a-41c4-a865-98fddb06347b","ios":"levelo://app?vid=c5eedbe2-bb9a-41c4-a865-98fddb06347b"},"vehicle_type_id":"4","last_reported":1746994226,"current_range_meters":32400,"station_id":"ce4bh192rcd13ifvqdb0","pricing_plan_id":"cebpf4jnsgd1na2vs0mg"},{"bike_id":"8755aea8-fecf-4ace-9c81-73d2c70c4f45","system_id":"levelo_inurba_marseille","lat":43.29256,"lon":5.38446,"is_reserved":false,"is_disabled":false,"rental_uris":{"android":"levelo://app?vid=8755aea8-fecf-4ace-9c81-73d2c70c4f45","ios":"levelo://app?vid=8755aea8-fecf-4ace-9c81-73d2c70c4f45"},"vehicle_type_id":"4","last_reported":1746994226,"current_range_meters":32400,"station_id":"ce4bh692rcd13ifvqea0","pricing_plan_id":"cebpf4jnsgd1na2vs0mg"},{"bike_id":"16fbf1d2-ddf3-4d02-b443-59781a0780c7","system_id":"levelo_inurba_marseille","lat":43.27909,"lon":5.38015,"is_reserved":false,"is_disabled":false,"rental_uris":{"android":"levelo://app?vid=16fbf1d2-ddf3-4d02-b443-59781a0780c7","ios":"levelo://app?vid=16fbf1d2-ddf3-4d02-b443-59781a0780c7"},"vehicle_type_id":"4","last_reported":1746994226,"current_range_meters":32400,"station_id":"ce4bhf92rcd13ifvqf50","pricing_plan_id":"cebpf4jnsgd1na2vs0mg"},{"bike_id":"a3571ddc-fff9-4b05-a012-042374fc13a9","system_id":"levelo_inurba_marseille","lat":43.24071,"lon":5.37706,"is_reserved":false,"is_disabled":false,"rental_uris":{"android":"levelo://app?vid=a3571ddc-fff9-4b05-a012-042374fc13a9","ios":"levelo://app?vid=a3571ddc-fff9-4b05-a012-042374fc13a9"},"vehicle_type_id":"4","last_reported":1746994226,"current_range_meters":32400,"station_id":"ce4bhnp2rcd13ifvqgvg","pricing_plan_id":"cebpf4jnsgd1na2vs0mg"},{"bike_id":"77c20f61-b62f-4394-aae9-7704e597bbdf","system_id":"levelo_inurba_marseille","lat":43.30594,"lon":5.37232,"is_reserved":false,"is_disabled":false,"rental_uris":{"android":"levelo://app?vid=77c20f61-b62f-4394-aae9-7704e597bbdf","ios":"levelo://app?vid=77c20f61-b62f-4394-aae9-7704e597bbdf"},"vehicle_type_id":"4","last_reported":1746994226,"current_range_meters":32800,"station_id":"ce4bgqh2rcd13ifvqc4g","pricing_plan_id":"cebpf4jnsgd1na2vs0mg"},{"bike_id":"aef66d4e-65b0-445f-9ee2-c2247d968ee9","system_id":"levelo_inurba_marseille","lat":43.30881,"lon":5.39639,"is_reserved":false,"is_disabled":false,"rental_uris":{"android":"levelo://app?vid=aef66d4e-65b0-445f-9ee2-c2247d968ee9","ios":"levelo://app?vid=aef66d4e-65b0-445f-9ee2-c2247d968ee9"},"vehicle_type_id":"4","last_reported":1746994226,"current_range_meters":32800,"station_id":"ce4bh012rcd13ifvqcv0","pricing_plan_id":"cebpf4jnsgd1na2vs0mg"},{"bike_id":"aa72e1c1-9f70-4ef8-b036-f7202dbeb588","system_id":"levelo_inurba_marseille","lat":43.30426,"lon":5.39745,"is_reserved":false,"is_disabled":false,"rental_uris":{"android":"levelo://app?vid=aa72e1c1-9f70-4ef8-b036-f7202dbeb588","ios":"levelo://app?vid=aa72e1c1-9f70-4ef8-b036-f7202dbeb588"},"vehicle_type_id":"4","last_reported":1746994226,"current_range_meters":32800,"station_id":"ce4bh092rcd13ifvqd20","pricing_plan_id":"cebpf4jnsgd1na2vs0mg"},{"bike_id":"efe7b5cd-2e6a-44b0-bcae-1ce3de81bef0","system_id":"levelo_inurba_marseille","lat":43.278272,"lon":5.392114,"is_reserved":false,"is_disabled":false,"rental_uris":{"android":"levelo://app?vid=efe7b5cd-2e6a-44b0-bcae-1ce3de81bef0","ios":"levelo://app?vid=efe7b5cd-2e6a-44b0-bcae-1ce3de81bef0"},"vehicle_type_id":"4","last_reported":1746994226,"current_range_meters":32800,"station_id":"ce4bhjp2rcd13ifvqga0","pricing_plan_id":"cebpf4jnsgd1na2vs0mg"},{"bike_id":"beafa0a9-b465-49eb-ad9f-c21a0b0f1663","system_id":"levelo_inurba_marseille","lat":43.30362,"lon":5.41877,"is_reserved":false,"is_disabled":false,"rental_uris":{"android":"levelo://app?vid=beafa0a9-b465-49eb-ad9f-c21a0b0f1663","ios":"levelo://app?vid=beafa0a9-b465-49eb-ad9f-c21a0b0f1663"},"vehicle_type_id":"4","last_reported":1746994226,"current_range_meters":32800,"station_id":"ce4bhop2rcd13ifvqh7g","pricing_plan_id":"cebpf4jnsgd1na2vs0mg"},{"bike_id":"4bdf932e-dafa-4519-9498-2d91f0bdc06b","system_id":"levelo_inurba_marseille","lat":43.32286,"lon":5.3828,"is_reserved":false,"is_disabled":false,"rental_uris":{"android":"levelo://app?vid=4bdf932e-dafa-4519-9498-2d91f0bdc06b","ios":"levelo://app?vid=4bdf932e-dafa-4519-9498-2d91f0bdc06b"},"vehicle_type_id":"4","last_reported":1746994226,"current_range_meters":32800,"station_id":"ce4bhr12rcd13ifvqhqg","pricing_plan_id":"cebpf4jnsgd1na2vs0mg"},{"bike_id":"cb015153-d9a3-44e2-a7e4-cf0ffa79d7de","system_id":"levelo_inurba_marseille","lat":43.28724,"lon":5.37948,"is_reserved":false,"is_disabled":false,"rental_uris":{"android":"levelo://app?vid=cb015153-d9a3-44e2-a7e4-cf0ffa79d7de","ios":"levelo://app?vid=cb015153-d9a3-44e2-a7e4-cf0ffa79d7de"},"vehicle_type_id":"4","last_reported":1746994226,"current_range_meters":33200,"station_id":"ce4bh9p2rcd13ifvqec0","pricing_plan_id":"cebpf4jnsgd1na2vs0mg"},{"bike_id":"11640a4e-572d-4134-9907-ec0956c294da","system_id":"levelo_inurba_marseille","lat":43.27686,"lon":5.38905,"is_reserved":false,"is_disabled":false,"rental_uris":{"android":"levelo://app?vid=11640a4e-572d-4134-9907-ec0956c294da","ios":"levelo://app?vid=11640a4e-572d-4134-9907-ec0956c294da"},"vehicle_type_id":"4","last_reported":1746994226,"current_range_meters":33200,"station_id":"ce4bhi12rcd13ifvqfo0","pricing_plan_id":"cebpf4jnsgd1na2vs0mg"},{"bike_id":"1083d0b8-d588-4a29-9630-ce84e41e42de","system_id":"levelo_inurba_marseille","lat":43.3176,"lon":5.39017,"is_reserved":false,"is_disabled":false,"rental_uris":{"android":"levelo://app?vid=1083d0b8-d588-4a29-9630-ce84e41e42de","ios":"levelo://app?vid=1083d0b8-d588-4a29-9630-ce84e41e42de"},"vehicle_type_id":"4","last_reported":1746994226,"current_range_meters":33200,"station_id":"ce4bhqp2rcd13ifvqhng","pricing_plan_id":"cebpf4jnsgd1na2vs0mg"},{"bike_id":"6e82c3ab-7d70-4a5e-bcb1-29de868349ea","system_id":"levelo_inurba_marseille","lat":43.28932,"lon":5.38401,"is_reserved":false,"is_disabled":false,"rental_uris":{"android":"levelo://app?vid=6e82c3ab-7d70-4a5e-bcb1-29de868349ea","ios":"levelo://app?vid=6e82c3ab-7d70-4a5e-bcb1-29de868349ea"},"vehicle_type_id":"4","last_reported":1746994226,"current_range_meters":33600,"station_id":"ce4bh612rcd13ifvqe6g","pricing_plan_id":"cebpf4jnsgd1na2vs0mg"},{"bike_id":"9b4145c2-df98-47b6-acbf-663461f5900c","system_id":"levelo_inurba_marseille","lat":43.28951,"lon":5.38389,"is_reserved":false,"is_disabled":false,"rental_uris":{"android":"levelo://app?vid=9b4145c2-df98-47b6-acbf-663461f5900c","ios":"levelo://app?vid=9b4145c2-df98-47b6-acbf-663461f5900c"},"vehicle_type_id":"4","last_reported":1746994226,"current_range_meters":33600,"station_id":"ce4bh612rcd13ifvqe6g","pricing_plan_id":"cebpf4jnsgd1na2vs0mg"},{"bike_id":"46a2e2ca-1920-49a5-9e82-511fe31e39f8","system_id":"levelo_inurba_marseille","lat":43.24646,"lon":5.388947,"is_reserved":false,"is_disabled":false,"rental_uris":{"android":"levelo://app?vid=46a2e2ca-1920-49a5-9e82-511fe31e39f8","ios":"levelo://app?vid=46a2e2ca-1920-49a5-9e82-511fe31e39f8"},"vehicle_type_id":"4","last_reported":1746994226,"current_range_meters":33600,"station_id":"ce4bhg12rcd13ifvqf60","pricing_plan_id":"cebpf4jnsgd1na2vs0mg"},{"bike_id":"2edbf11c-8aa8-452e-98e6-a16501ce07c3","system_id":"levelo_inurba_marseille","lat":43.25002,"lon":5.38925,"is_reserved":false,"is_disabled":false,"rental_uris":{"android":"levelo://app?vid=2edbf11c-8aa8-452e-98e6-a16501ce07c3","ios":"levelo://app?vid=2edbf11c-8aa8-452e-98e6-a16501ce07c3"},"vehicle_type_id":"4","last_reported":1746994226,"current_range_meters":33600,"station_id":"ce4bhgp2rcd13ifvqfd0","pricing_plan_id":"cebpf4jnsgd1na2vs0mg"},{"bike_id":"0f7324d5-be48-4484-95dd-ad0a0c58767c","system_id":"levelo_inurba_marseille","lat":43.251171,"lon":5.403326,"is_reserved":false,"is_disabled":false,"rental_uris":{"android":"levelo://app?vid=0f7324d5-be48-4484-95dd-ad0a0c58767c","ios":"levelo://app?vid=0f7324d5-be48-4484-95dd-ad0a0c58767c"},"vehicle_type_id":"4","last_reported":1746994226,"current_range_meters":33600,"station_id":"ce4bhlh2rcd13ifvqgig","pricing_plan_id":"cebpf4jnsgd1na2vs0mg"},{"bike_id":"10b9a039-dd7e-4a20-9e80-3ea6aa75ce6b","system_id":"levelo_inurba_marseille","lat":43.31737,"lon":5.42408,"is_reserved":false,"is_disabled":false,"rental_uris":{"android":"levelo://app?vid=10b9a039-dd7e-4a20-9e80-3ea6aa75ce6b","ios":"levelo://app?vid=10b9a039-dd7e-4a20-9e80-3ea6aa75ce6b"},"vehicle_type_id":"4","last_reported":1746994226,"current_range_meters":33600,"station_id":"ce4bhp92rcd13ifvqhbg","pricing_plan_id":"cebpf4jnsgd1na2vs0mg"},{"bike_id":"df5692d3-bcfa-4b17-a0b1-496aa9b0332f","system_id":"levelo_inurba_marseille","lat":43.318848,"lon":5.407326,"is_reserved":false,"is_disabled":false,"rental_uris":{"android":"levelo://app?vid=df5692d3-bcfa-4b17-a0b1-496aa9b0332f","ios":"levelo://app?vid=df5692d3-bcfa-4b17-a0b1-496aa9b0332f"},"vehicle_type_id":"4","last_reported":1746994226,"current_range_meters":33600,"station_id":"ce4bhq12rcd13ifvqhig","pricing_plan_id":"cebpf4jnsgd1na2vs0mg"},{"bike_id":"de4fac9d-c3e5-463a-aee1-1dd2ba1258b6","system_id":"levelo_inurba_marseille","lat":43.33725,"lon":5.39183,"is_reserved":false,"is_disabled":false,"rental_uris":{"android":"levelo://app?vid=de4fac9d-c3e5-463a-aee1-1dd2ba1258b6","ios":"levelo://app?vid=de4fac9d-c3e5-463a-aee1-1dd2ba1258b6"},"vehicle_type_id":"4","last_reported":1746994226,"current_range_meters":33600,"station_id":"ce4bhr92rcd13ifvqhsg","pricing_plan_id":"cebpf4jnsgd1na2vs0mg"},{"bike_id":"2182db16-b350-4283-8ae0-209071785631","system_id":"levelo_inurba_marseille","lat":43.30936,"lon":5.367424,"is_reserved":false,"is_disabled":false,"rental_uris":{"android":"levelo://app?vid=2182db16-b350-4283-8ae0-209071785631","ios":"levelo://app?vid=2182db16-b350-4283-8ae0-209071785631"},"vehicle_type_id":"4","last_reported":1746994226,"current_range_meters":34000,"station_id":"","pricing_plan_id":"cebpf4jnsgd1na2vs0mg"},{"bike_id":"5e172bef-35dd-4b0a-a3cc-37b33c35f929","system_id":"levelo_inurba_marseille","lat":43.307908,"lon":5.376552,"is_reserved":false,"is_disabled":false,"rental_uris":{"android":"levelo://app?vid=5e172bef-35dd-4b0a-a3cc-37b33c35f929","ios":"levelo://app?vid=5e172bef-35dd-4b0a-a3cc-37b33c35f929"},"vehicle_type_id":"4","last_reported":1746994226,"current_range_meters":34000,"station_id":"ce4bgv92rcd13ifvqcq0","pricing_plan_id":"cebpf4jnsgd1na2vs0mg"},{"bike_id":"988d9bbf-c589-4c42-9892-3b798a975bf6","system_id":"levelo_inurba_marseille","lat":43.31682,"lon":5.40475,"is_reserved":false,"is_disabled":false,"rental_uris":{"android":"levelo://app?vid=988d9bbf-c589-4c42-9892-3b798a975bf6","ios":"levelo://app?vid=988d9bbf-c589-4c42-9892-3b798a975bf6"},"vehicle_type_id":"4","last_reported":1746994226,"current_range_meters":34000,"station_id":"ce4bh012rcd13ifvqd00","pricing_plan_id":"cebpf4jnsgd1na2vs0mg"},{"bike_id":"e2ba6ac9-9a4f-4464-9eac-e2416ec51aae","system_id":"levelo_inurba_marseille","lat":43.3013,"lon":5.39846,"is_reserved":false,"is_disabled":false,"rental_uris":{"android":"levelo://app?vid=e2ba6ac9-9a4f-4464-9eac-e2416ec51aae","ios":"levelo://app?vid=e2ba6ac9-9a4f-4464-9eac-e2416ec51aae"},"vehicle_type_id":"4","last_reported":1746994226,"current_range_meters":34000,"station_id":"ce4bh0h2rcd13ifvqd40","pricing_plan_id":"cebpf4jnsgd1na2vs0mg"},{"bike_id":"faf262db-6e1f-4827-b5d0-416ad398b45b","system_id":"levelo_inurba_marseille","lat":43.2886,"lon":5.39309,"is_reserved":false,"is_disabled":false,"rental_uris":{"android":"levelo://app?vid=faf262db-6e1f-4827-b5d0-416ad398b45b","ios":"levelo://app?vid=faf262db-6e1f-4827-b5d0-416ad398b45b"},"vehicle_type_id":"4","last_reported":1746994226,"current_range_meters":34000,"station_id":"ce4bh2p2rcd13ifvqdi0","pricing_plan_id":"cebpf4jnsgd1na2vs0mg"},{"bike_id":"37e3cbbd-f00c-4c0f-9e4e-d1747c908844","system_id":"levelo_inurba_marseille","lat":43.30889,"lon":5.37199,"is_reserved":false,"is_disabled":false,"rental_uris":{"android":"levelo://app?vid=37e3cbbd-f00c-4c0f-9e4e-d1747c908844","ios":"levelo://app?vid=37e3cbbd-f00c-4c0f-9e4e-d1747c908844"},"vehicle_type_id":"4","last_reported":1746994226,"current_range_meters":34800,"station_id":"ce4bguh2rcd13ifvqckg","pricing_plan_id":"cebpf4jnsgd1na2vs0mg"},{"bike_id":"57f6c773-938a-46cc-bdf6-7d062ccdc9fa","system_id":"levelo_inurba_marseille","lat":43.31281,"lon":5.40169,"is_reserved":false,"is_disabled":false,"rental_uris":{"android":"levelo://app?vid=57f6c773-938a-46cc-bdf6-7d062ccdc9fa","ios":"levelo://app?vid=57f6c773-938a-46cc-bdf6-7d062ccdc9fa"},"vehicle_type_id":"4","last_reported":1746994226,"current_range_meters":34800,"station_id":"ce4bh092rcd13ifvqd30","pricing_plan_id":"cebpf4jnsgd1na2vs0mg"},