{"last_updated":1700575621,"ttl":30,"version":"2.2","data":{"bikes":[{"bike_id":"f5df17fc-4b88-49ec-9a68-4d82d09b8f0d","system_id":"levelo_inurba_marseille","lat":43.31341,"lon":5.367098,"is_reserved":false,"is_disabled":false,"rental_uris":{"android":"levelo://app?vid=f5df17fc-4b88-49ec-9a68-4d82d09b8f0d","ios":"levelo://app?vid=f5df17fc-4b88-49ec-9a68-4d82d09b8f0d"},"vehicle_type_id":"4","last_reported":1700575622,"current_range_meters":21600,"station_id":"ce4bgr92rcd13ifvqc6g","pricing_plan_id":"free"},{"bike_id":"80295390-7c44-40e3-989d-72acc878ee20","system_id":"levelo_inurba_marseille","lat":43.313391,"lon":5.36706,"is_reserved":false,"is_disabled":false,"rental_uris":{"android":"levelo://app?vid=80295390-7c44-40e3-989d-72acc878ee20","ios":"levelo://app?vid=80295390-7c44-40e3-989d-72acc878ee20"},"vehicle_type_id":"4","last_reported":1700575622,"current_range_meters":28000,"station_id":"ce4bgr92rcd13ifvqc6g","pricing_plan_id":"free"},{"bike_id":"618128aa-f30c-43f1-8311-d87cc269d5e6","system_id":"levelo_inurba_marseille","lat":43.31341,"lon":5.367098,"is_reserved":false,"is_disabled":false,"rental_uris":{"android":"levelo://app?vid=618128aa-f30c-43f1-8311-d87cc269d5e6","ios":"levelo://app?vid=618128aa-f30c-43f1-8311-d87cc269d5e6"},"vehicle_type_id":"4","last_reported":1700575622,"current_range_meters":19600,"station_id":"ce4bgr92rcd13ifvqc6g","pricing_plan_id":"free"},{"bike_id":"ed71600a-50f6-4f61-9310-d953bf97d4ec","system_id":"levelo_inurba_marseille","lat":43.31341,"lon":5.367098,"is_reserved":false,"is_disabled":false,"rental_uris":{"android":"levelo://app?vid=ed71600a-50f6-4f61-9310-d953bf97d4ec","ios":"levelo://app?vid=ed71600a-50f6-4f61-9310-d953bf97d4ec"},"vehicle_type_id":"4","last_reported":1700575622,"current_range_meters":28000,"station_id":"ce4bgr92rcd13ifvqc6g","pricing_plan_id":"free"},{"bike_id":"659efd43-77bc-4beb-9674-eb449dd59807","system_id":"levelo_inurba_marseille","lat":43.31341,"lon":5.367098,"is_reserved":false,"is_disabled":false,"rental_uris":{"android":"levelo://app?vid=659efd43-77bc-4beb-9674-eb449dd59807","ios":"levelo://app?vid=659efd43-77bc-4beb-9674-eb449dd59807"},"vehicle_type_id":"4","last_reported":1700575622,"current_range_meters":31600,"station_id":"ce4bgr92rcd13ifvqc6g","pricing_plan_id":"free"},{"bike_id":"47fb7d53-1efa-4a9b-8c3d-6303f0d6289b","system_id":"levelo_inurba_marseille","lat":43.313391,"lon":5.36706,"is_reserved":false,"is_disabled":false,"rental_uris":{"android":"levelo://app?vid=47fb7d53-1efa-4a9b-8c3d-6303f0d6289b","ios":"levelo://app?vid=47fb7d53-1efa-4a9b-8c3d-6303f0d6289b"},"vehicle_type_id":"4","last_reported":1700575622,"current_range_meters":31200,"station_id":"ce4bgr92rcd13ifvqc6g","pricing_plan_id":"free"},{"bike_id":"555980be-a001-4e60-92d7-4ed6561e949f","system_id":"levelo_inurba_marseille","lat":43.31341,"lon":5.367098,"is_reserved":false,"is_disabled":false,"rental_uris":{"android":"levelo://app?vid=555980be-a001-4e60-92d7-4ed6561e949f","ios":"levelo://app?vid=555980be-a001-4e60-92d7-4ed6561e949f"},"vehicle_type_id":"4","last_reported":1700575622,"current_range_meters":31600,"station_id":"ce4bgr92rcd13ifvqc6g","pricing_plan_id":"free"},{"bike_id":"f8913199-a3d9-4384-8dcb-223fcb8ca24d","system_id":"levelo_inurba_marseille","lat":43.313391,"lon":5.36706,"is_reserved":false,"is_disabled":false,"rental_uris":{"android":"levelo://app?vid=f8913199-a3d9-4384-8dcb-223fcb8ca24d","ios":"levelo://app?vid=f8913199-a3d9-4384-8dcb-223fcb8ca24d"},"vehicle_type_id":"4","last_reported":1700575622,"current_range_meters":26400,"station_id":"ce4bgr92rcd13ifvqc6g","pricing_plan_id":"free"},{"bike_id":"b4f2643e-b5f7-41e5-88de-b2c035ebfaed","system_id":"levelo_inurba_marseille","lat":43.31341,"lon":5.367098,"is_reserved":false,"is_disabled":false,"rental_uris":{"android":"levelo://app?vid=b4f2643e-b5f7-41e5-88de-b2c035ebfaed","ios":"levelo://app?vid=b4f2643e-b5f7-41e5-88de-b2c035ebfaed"},"vehicle_type_id":"4","last_reported":1700575622,"current_range_meters":31200,"station_id":"ce4bgr92rcd13ifvqc6g","pricing_plan_id":"free"},{"bike_id":"1958f026-7e0f-4757-831d-bb207f105e65","system_id":"levelo_inurba_marseille","lat":43.313391,"lon":5.36706,"is_reserved":false,"is_disabled":false,"rental_uris":{"android":"levelo://app?vid=1958f026-7e0f-4757-831d-bb207f105e65","ios":"levelo://app?vid=1958f026-7e0f-4757-831d-bb207f105e65"},"vehicle_type_id":"4","last_reported":1700575622,"current_range_meters":31200,"station_id":"ce4bgr92rcd13ifvqc6g","pricing_plan_id":"free"},{"bike_id":"1feddad9-6e26-4a3a-a41f-9e5c39c820f4","system_id":"levelo_inurba_marseille","lat":43.312239,"lon":5.368562,"is_reserved":false,"is_disabled":false,"rental_uris":{"android":"levelo://app?vid=1feddad9-6e26-4a3a-a41f-9e5c39c820f4","ios":"levelo://app?vid=1feddad9-6e26-4a3a-a41f-9e5c39c820f4"},"vehicle_type_id":"4","last_reported":1700575622,"current_range_meters":31600,"station_id":"ce4bgl92rcd13ifvqbq0","pricing_plan_id":"free"},{"bike_id":"3995c520-8591-4e25-9185-f6ff7761a402","system_id":"levelo_inurba_marseille","lat":43.312239,"lon":5.368562,"is_reserved":false,"is_disabled":false,"rental_uris":{"android":"levelo://app?vid=3995c520-8591-4e25-9185-f6ff7761a402","ios":"levelo://app?vid=3995c520-8591-4e25-9185-f6ff7761a402"},"vehicle_type_id":"4","last_reported":1700575622,"current_range_meters":27200,"station_id":"ce4bgl92rcd13ifvqbq0","pricing_plan_id":"free"},{"bike_id":"8311aee2-2b33-4bba-bd8e-a2e4a38116a9","system_id":"levelo_inurba_marseille","lat":43.312239,"lon":5.368562,"is_reserved":false,"is_disabled":false,"rental_uris":{"android":"levelo://app?vid=8311aee2-2b33-4bba-bd8e-a2e4a38116a9","ios":"levelo://app?vid=8311aee2-2b33-4bba-bd8e-a2e4a38116a9"},"vehicle_type_id":"4","last_reported":1700575622,"current_range_meters":31200,"station_id":"ce4bgl92rcd13ifvqbq0","pricing_plan_id":"free"},{"bike_id":"9b97faad-98ee-4fdf-b515-846a52563315","system_id":"levelo_inurba_marseille","lat":43.312239,"lon":5.368562,"is_reserved":false,"is_disabled":false,"rental_uris":{"android":"levelo://app?vid=9b97faad-98ee-4fdf-b515-846a52563315","ios":"levelo://app?vid=9b97faad-98ee-4fdf-b515-846a52563315"},"vehicle_type_id":"4","last_reported":1700575622,"current_range_meters":24000,"station_id":"ce4bgl92rcd13ifvqbq0","pricing_plan_id":"free"},{"bike_id":"17ce31b8-3a4c-4428-a3f3-0da50823970c","system_id":"levelo_inurba_marseille","lat":43.312239,"lon":5.368562,"is_reserved":false,"is_disabled":false,"rental_uris":{"android":"levelo://app?vid=17ce31b8-3a4c-4428-a3f3-0da50823970c","ios":"levelo://app?vid=17ce31b8-3a4c-4428-a3f3-0da50823970c"},"vehicle_type_id":"4","last_reported":1700575622,"current_range_meters":31600,"station_id":"ce4bgl92rcd13ifvqbq0","pricing_plan_id":"free"},{"bike_id":"78617399-35cd-4c14-863b-edfa628818e4","system_id":"levelo_inurba_marseille","lat":43.312239,"lon":5.368562,"is_reserved":false,"is_disabled":false,"rental_uris":{"android":"levelo://app?vid=78617399-35cd-4c14-863b-edfa628818e4","ios":"levelo://app?vid=78617399-35cd-4c14-863b-edfa628818e4"},"vehicle_type_id":"4","last_reported":1700575622,"current_range_meters":30800,"station_id":"ce4bgl92rcd13ifvqbq0","pricing_plan_id":"free"},{"bike_id":"28650432-587b-46b6-9f50-6d7198848e47","system_id":"levelo_inurba_marseille","lat":43.312239,"lon":5.368562,"is_reserved":false,"is_disabled":false,"rental_uris":{"android":"levelo://app?vid=28650432-587b-46b6-9f50-6d7198848e47","ios":"levelo://app?vid=28650432-587b-46b6-9f50-6d7198848e47"},"vehicle_type_id":"4","last_reported":1700575622,"current_range_meters":29200,"station_id":"ce4bgl92rcd13ifvqbq0","pricing_plan_id":"free"},{"bike_id":"8d1d48c9-0336-40cb-b3a6-92d2d796da41","system_id":"levelo_inurba_marseille","lat":43.3115,"lon":5.36889,"is_reserved":false,"is_disabled":false,"rental_uris":{"android":"levelo://app?vid=8d1d48c9-0336-40cb-b3a6-92d2d796da41","ios":"levelo://app?vid=8d1d48c9-0336-40cb-b3a6-92d2d796da41"},"vehicle_type_id":"4","last_reported":1700575622,"current_range_meters":0,"station_id":"","pricing_plan_id":"free"},{"bike_id":"a224c30b-9d54-4163-bfbf-a2fe88354b20","system_id":"levelo_inurba_marseille","lat":43.309076,"lon":5.368465,"is_reserved":false,"is_disabled":false,"rental_uris":{"android":"levelo://app?vid=a224c30b-9d54-4163-bfbf-a2fe88354b20","ios":"levelo://app?vid=a224c30b-9d54-4163-bfbf-a2fe88354b20"},"vehicle_type_id":"4","last_reported":1700575622,"current_range_meters":20800,"station_id":"ce4bgn92rcd13ifvqbvg","pricing_plan_id":"free"},{"bike_id":"55e0a763-ec91-4560-9e9c-eaa8b13a5b82","system_id":"levelo_inurba_marseille","lat":43.30899,"lon":5.368583,"is_reserved":false,"is_disabled":false,"rental_uris":{"android":"levelo://app?vid=55e0a763-ec91-4560-9e9c-eaa8b13a5b82","ios":"levelo://app?vid=55e0a763-ec91-4560-9e9c-eaa8b13a5b82"},"vehicle_type_id":"4","last_reported":1700575622,"current_range_meters":26800,"station_id":"ce4bgn92rcd13ifvqbvg","pricing_plan_id":"free"},{"bike_id":"14ead429-c547-47ed-a35b-85841b61ca40","system_id":"levelo_inurba_marseille","lat":43.30839,"lon":5.368807,"is_reserved":false,"is_disabled":false,"rental_uris":{"android":"levelo://app?vid=14ead429-c547-47ed-a35b-85841b61ca40","ios":"levelo://app?vid=14ead429-c547-47ed-a35b-85841b61ca40"},"vehicle_type_id":"4","last_reported":1700575622,"current_range_meters":16400,"station_id":"","pricing_plan_id":"free"},{"bike_id":"c276dfef-72f5-4480-a0a8-636ff9cae8bb","system_id":"levelo_inurba_marseille","lat":43.314811,"lon":5.373103,"is_reserved":false,"is_disabled":false,"rental_uris":{"android":"levelo://app?vid=c276dfef-72f5-4480-a0a8-636ff9cae8bb","ios":"levelo://app?vid=c276dfef-72f5-4480-a0a8-636ff9cae8bb"},"vehicle_type_id":"4","last_reported":1700575622,"current_range_meters":26800,"station_id":"ce4bgt12rcd13ifvqcd0","pricing_plan_id":"free"},{"bike_id":"2bc311dc-da0b-403e-8cae-84f8764bc67c","system_id":"levelo_inurba_marseille","lat":43.30679,"lon":5.3679,"is_reserved":false,"is_disabled":false,"rental_uris":{"android":"levelo://app?vid=2bc311dc-da0b-403e-8cae-84f8764bc67c","ios":"levelo://app?vid=2bc311dc-da0b-403e-8cae-84f8764bc67c"},"vehicle_type_id":"4","last_reported":1700575622,"current_range_meters":2800,"station_id":"","pricing_plan_id":"free"},{"bike_id":"507df416-09d7-4a67-8e4f-afe3327bfd4d","system_id":"levelo_inurba_marseille","lat":43.305368,"lon":5.367343,"is_reserved":false,"is_disabled":false,"rental_uris":{"android":"levelo://app?vid=507df416-09d7-4a67-8e4f-afe3327bfd4d","ios":"levelo://app?vid=507df416-09d7-4a67-8e4f-afe3327bfd4d"},"vehicle_type_id":"4","last_reported":1700575622,"current_range_meters":5600,"station_id":"ce4bgrp2rcd13ifvqc9g","pricing_plan_id":"free"},{"bike_id":"800af217-5fed-4eb2-b2d4-b1e2be34a0e9","system_id":"levelo_inurba_marseille","lat":43.305368,"lon":5.367343,"is_reserved":false,"is_disabled":false,"rental_uris":{"android":"levelo://app?vid=800af217-5fed-4eb2-b2d4-b1e2be34a0e9","ios":"levelo://app?vid=800af217-5fed-4eb2-b2d4-b1e2be34a0e9"},"vehicle_type_id":"4","last_reported":1700575622,"current_range_meters":25600,"station_id":"ce4bgrp2rcd13ifvqc9g","pricing_plan_id":"free"},{"bike_id":"f749f07c-878a-47a0-b3b0-983575684f8b","system_id":"levelo_inurba_marseille","lat":43.30637,"lon":5.37224,"is_reserved":false,"is_disabled":false,"rental_uris":{"android":"levelo://app?vid=f749f07c-878a-47a0-b3b0-983575684f8b","ios":"levelo://app?vid=f749f07c-878a-47a0-b3b0-983575684f8b"},"vehicle_type_id":"4","last_reported":1700575622,"current_range_meters":19600,"station_id":"","pricing_plan_id":"free"},{"bike_id":"30460514-229f-421d-8073-8b30d97d1fa8","system_id":"levelo_inurba_marseille","lat":43.305714,"lon":5.365633,"is_reserved":false,"is_disabled":false,"rental_uris":{"android":"levelo://app?vid=30460514-229f-421d-8073-8b30d97d1fa8","ios":"levelo://app?vid=30460514-229f-421d-8073-8b30d97d1fa8"},"vehicle_type_id":"4","last_reported":1700575622,"current_range_meters":30000,"station_id":"ce4bgs12rcd13ifvqcag","pricing_plan_id":"free"},{"bike_id":"900857eb-7e5a-452b-9b1b-1249272a84c9","system_id":"levelo_inurba_marseille","lat":43.305706,"lon":5.365654,"is_reserved":false,"is_disabled":false,"rental_uris":{"android":"levelo://app?vid=900857eb-7e5a-452b-9b1b-1249272a84c9","ios":"levelo://app?vid=900857eb-7e5a-452b-9b1b-1249272a84c9"},"vehicle_type_id":"4","last_reported":1700575622,"current_range_meters":22000,"station_id":"ce4bgs12rcd13ifvqcag","pricing_plan_id":"free"},{"bike_id":"9f1918b8-1733-4ddf-9a66-77eb0c57aec2","system_id":"levelo_inurba_marseille","lat":43.305706,"lon":5.365654,"is_reserved":false,"is_disabled":false,"rental_uris":{"android":"levelo://app?vid=9f1918b8-1733-4ddf-9a66-77eb0c57aec2","ios":"levelo://app?vid=9f1918b8-1733-4ddf-9a66-77eb0c57aec2"},"vehicle_type_id":"4","last_reported":1700575622,"current_range_meters":19600,"station_id":"ce4bgs12rcd13ifvqcag","pricing_plan_id":"free"},{"bike_id":"790d8068-0ca3-4ee2-ac94-5b1995eb78d3","system_id":"levelo_inurba_marseille","lat":43.319738,"lon":5.371014,"is_reserved":false,"is_disabled":false,"rental_uris":{"android":"levelo://app?vid=790d8068-0ca3-4ee2-ac94-5b1995eb78d3","ios":"levelo://app?vid=790d8068-0ca3-4ee2-ac94-5b1995eb78d3"},"vehicle_type_id":"4","last_reported":1700575622,"current_range_meters":0,"station_id":"","pricing_plan_id":"free"},{"bike_id":"42f5abe6-f303-4231-8732-a7fb34bdc304","system_id":"levelo_inurba_marseille","lat":43.305987,"lon":5.372199,"is_reserved":false,"is_disabled":false,"rental_uris":{"android":"levelo://app?vid=42f5abe6-f303-4231-8732-a7fb34bdc304","ios":"levelo://app?vid=42f5abe6-f303-4231-8732-a7fb34bdc304"},"vehicle_type_id":"4","last_reported":1700575622,"current_range_meters":31200,"station_id":"ce4bgqh2rcd13ifvqc4g","pricing_plan_id":"free"},{"bike_id":"f6591b9d-b14d-4f92-9bb4-9a068ec2f936","system_id":"levelo_inurba_marseille","lat":43.30597,"lon":5.37236,"is_reserved":false,"is_disabled":false,"rental_uris":{"android":"levelo://app?vid=f6591b9d-b14d-4f92-9bb4-9a068ec2f936","ios":"levelo://app?vid=f6591b9d-b14d-4f92-9bb4-9a068ec2f936"},"vehicle_type_id":"4","last_reported":1700575622,"current_range_meters":30400,"station_id":"ce4bgqh2rcd13ifvqc4g","pricing_plan_id":"free"},{"bike_id":"7cff049f-b01a-4197-af53-aecb8f5904af","system_id":"levelo_inurba_marseille","lat":43.311125,"lon":5.377624,"is_reserved":false,"is_disabled":false,"rental_uris":{"android":"levelo://app?vid=7cff049f-b01a-4197-af53-aecb8f5904af","ios":"levelo://app?vid=7cff049f-b01a-4197-af53-aecb8f5904af"},"vehicle_type_id":"4","last_reported":1700575622,"current_range_meters":3600,"station_id":"ce4bgt92rcd13ifvqcg0","pricing_plan_id":"free"},{"bike_id":"f94a4e6d-b09a-48fb-9c40-e758ed1e2065","system_id":"levelo_inurba_marseille","lat":43.311125,"lon":5.377624,"is_reserved":false,"is_disabled":false,"rental_uris":{"android":"levelo://app?vid=f94a4e6d-b09a-48fb-9c40-e758ed1e2065","ios":"levelo://app?vid=f94a4e6d-b09a-48fb-9c40-e758ed1e2065"},"vehicle_type_id":"4","last_reported":1700575622,"current_range_meters":16000,"station_id":"ce4bgt92rcd13ifvqcg0","pricing_plan_id":"free"},{"bike_id":"6bbeaf61-4b69-4937-a32a-5572af3c8431","system_id":"levelo_inurba_marseille","lat":43.307945,"lon":5.376487,"is_reserved":false,"is_disabled":false,"rental_uris":{"android":"levelo://app?vid=6bbeaf61-4b69-4937-a32a-5572af3c8431","ios":"levelo://app?vid=6bbeaf61-4b69-4937-a32a-5572af3c8431"},"vehicle_type_id":"4","last_reported":1700575622,"current_range_meters":18400,"station_id":"ce4bgv92rcd13ifvqcq0","pricing_plan_id":"free"},{"bike_id":"90fd8148-59e1-4a83-9513-0615c219de46","system_id":"levelo_inurba_marseille","lat":43.317075,"lon":5.377367,"is_reserved":false,"is_disabled":false,"rental_uris":{"android":"levelo://app?vid=90fd8148-59e1-4a83-9513-0615c219de46","ios":"levelo://app?vid=90fd8148-59e1-4a83-9513-0615c219de46"},"vehicle_type_id":"4","last_reported":1700575622,"current_range_meters":28000,"station_id":"ce4bgth2rcd13ifvqch0","pricing_plan_id":"free"},{"bike_id":"2fb15a4b-ca39-4d49-8835-e0e879ff2cea","system_id":"levelo_inurba_marseille","lat":43.303191,"lon":5.369043,"is_reserved":false,"is_disabled":false,"rental_uris":{"android":"levelo://app?vid=2fb15a4b-ca39-4d49-8835-e0e879ff2cea","ios":"levelo://app?vid=2fb15a4b-ca39-4d49-8835-e0e879ff2cea"},"vehicle_type_id":"4","last_reported":1700575622,"current_range_meters":26400,"station_id":"ce4bgqh2rcd13ifvqc5g","pricing_plan_id":"free"},{"bike_id":"6493f7d0-71c8-4d57-9a7d-c8bac071c8b1","system_id":"levelo_inurba_marseille","lat":43.303046,"lon":5.368981,"is_reserved":false,"is_disabled":false,"rental_uris":{"android":"levelo://app?vid=6493f7d0-71c8-4d57-9a7d-c8bac071c8b1","ios":"levelo://app?vid=6493f7d0-71c8-4d57-9a7d-c8bac071c8b1"},"vehicle_type_id":"4","last_reported":1700575622,"current_range_meters":7200,"station_id":"ce4bgqh2rcd13ifvqc5g","pricing_plan_id":"free"},{"bike_id":"73d6ca47-9cf3-4d17-96f1-982b7fd9ce34","system_id":"levelo_inurba_marseille","lat":43.303046,"lon":5.368981,"is_reserved":false,"is_disabled":false,"rental_uris":{"android":"levelo://app?vid=73d6ca47-9cf3-4d17-96f1-982b7fd9ce34","ios":"levelo://app?vid=73d6ca47-9cf3-4d17-96f1-982b7fd9ce34"},"vehicle_type_id":"4","last_reported":1700575622,"current_range_meters":0,"station_id":"ce4bgqh2rcd13ifvqc5g","pricing_plan_id":"free"},{"bike_id":"42898b9b-33bc-4b46-aec8-eba90e3a7c2c","system_id":"levelo_inurba_marseille","lat":43.303046,"lon":5.368981,"is_reserved":false,"is_disabled":false,"rental_uris":{"android":"levelo://app?vid=42898b9b-33bc-4b46-aec8-eba90e3a7c2c","ios":"levelo://app?vid=42898b9b-33bc-4b46-aec8-eba90e3a7c2c"},"vehicle_type_id":"4","last_reported":1700575622,"current_range_meters":20800,"station_id":"ce4bgqh2rcd13ifvqc5g","pricing_plan_id":"free"},{"bike_id":"2859534e-e42a-47c0-ab67-dc3932090d0f","system_id":"levelo_inurba_marseille","lat":43.30301,"lon":5.36916,"is_reserved":false,"is_disabled":false,"rental_uris":{"android":"levelo://app?vid=2859534e-e42a-47c0-ab67-dc3932090d0f","ios":"levelo://app?vid=2859534e-e42a-47c0-ab67-dc3932090d0f"},"vehicle_type_id":"4","last_reported":1700575622,"current_range_meters":21200,"station_id":"ce4bgqh2rcd13ifvqc5g","pricing_plan_id":"free"},{"bike_id":"dab713f4-3345-44a7-8466-fbbd882ece4b","system_id":"levelo_inurba_marseille","lat":43.303046,"lon":5.368981,"is_reserved":false,"is_disabled":false,"rental_uris":{"android":"levelo://app?vid=dab713f4-3345-44a7-8466-fbbd882ece4b","ios":"levelo://app?vid=dab713f4-3345-44a7-8466-fbbd882ece4b"},"vehicle_type_id":"4","last_reported":1700575622,"current_range_meters":18000,"station_id":"ce4bgqh2rcd13ifvqc5g","pricing_plan_id":"free"},{"bike_id":"65d0661a-1a1b-4639-bb28-4807f1680ce8","system_id":"levelo_inurba_marseille","lat":43.301811,"lon":5.366198,"is_reserved":false,"is_disabled":false,"rental_uris":{"android":"levelo://app?vid=65d0661a-1a1b-4639-bb28-4807f1680ce8","ios":"levelo://app?vid=65d0661a-1a1b-4639-bb28-4807f1680ce8"},"vehicle_type_id":"4","last_reported":1700575622,"current_range_meters":400,"station_id":"ce4bgt12rcd13ifvqce0","pricing_plan_id":"free"},{"bike_id":"0d9e48e3-d57c-41fa-90c8-06eb86c947a1","system_id":"levelo_inurba_marseille","lat":43.30179,"lon":5.36621,"is_reserved":false,"is_disabled":false,"rental_uris":{"android":"levelo://app?vid=0d9e48e3-d57c-41fa-90c8-06eb86c947a1","ios":"levelo://app?vid=0d9e48e3-d57c-41fa-90c8-06eb86c947a1"},"vehicle_type_id":"4","last_reported":1700575622,"current_range_meters":20000,"station_id":"ce4bgrh2rcd13ifvqc8g","pricing_plan_id":"free"},{"bike_id":"fae7807b-f9ce-4d03-83ab-a00265cfea88","system_id":"levelo_inurba_marseille","lat":43.301939,"lon":5.366286,"is_reserved":false,"is_disabled":false,"rental_uris":{"android":"levelo://app?vid=fae7807b-f9ce-4d03-83ab-a00265cfea88","ios":"levelo://app?vid=fae7807b-f9ce-4d03-83ab-a00265cfea88"},"vehicle_type_id":"4","last_reported":1700575622,"current_range_meters":800,"station_id":"ce4bgrh2rcd13ifvqc8g","pricing_plan_id":"free"},{"bike_id":"702337f2-ef15-41c5-b043-5dee693933e3","system_id":"levelo_inurba_marseille","lat":43.308012,"lon":5.381511,"is_reserved":false,"is_disabled":false,"rental_uris":{"android":"levelo://app?vid=702337f2-ef15-41c5-b043-5dee693933e3","ios":"levelo://app?vid=702337f2-ef15-41c5-b043-5dee693933e3"},"vehicle_type_id":"4","last_reported":1700575622,"current_range_meters":18000,"station_id":"ce4bgt12rcd13ifvqce0","pricing_plan_id":"free"},{"bike_id":"1870027c-3434-4820-ab95-5b49a7f9a5aa","system_id":"levelo_inurba_marseille","lat":43.30804,"lon":5.38149,"is_reserved":false,"is_disabled":false,"rental_uris":{"android":"levelo://app?vid=1870027c-3434-4820-ab95-5b49a7f9a5aa","ios":"levelo://app?vid=1870027c-3434-4820-ab95-5b49a7f9a5aa"},"vehicle_type_id":"4","last_reported":1700575622,"current_range_meters":31200,"station_id":"ce4bgt12rcd13ifvqce0","pricing_plan_id":"free"},{"bike_id":"6206e990-dc53-4800-8d50-04d4833c9760","system_id":"levelo_inurba_marseille","lat":43.308012,"lon":5.381511,"is_reserved":false,"is_disabled":false,"rental_uris":{"android":"levelo://app?vid=6206e990-dc53-4800-8d50-04d4833c9760","ios":"levelo://app?vid=6206e990-dc53-4800-8d50-04d4833c9760"},"vehicle_type_id":"4","last_reported":1700575622,"current_range_meters":26400,"station_id":"ce4bgt12rcd13ifvqce0","pricing_plan_id":"free"},{"bike_id":"a46119d9-84be-4b05-8d02-d854d8b1492c","system_id":"levelo_inurba_marseille","lat":43.308012,"lon":5.381511,"is_reserved":false,"is_disabled":false,"rental_uris":{"android":"levelo://app?vid=a46119d9-84be-4b05-8d02-d854d8b1492c","ios":"levelo://app?vid=a46119d9-84be-4b05-8d02-d854d8b1492c"},"vehicle_type_id":"4","last_reported":1700575622,"current_range_meters":14000,"station_id":"ce4bgt12rcd13ifvqce0","pricing_plan_id":"free"},{"bike_id":"25fbc0f8-01a6-4e2d-8780-8a6d7c892cc3","system_id":"levelo_inurba_marseille","lat":43.308012,"lon":5.381511,"is_reserved":false,"is_disabled":false,"rental_uris":{"android":"levelo://app?vid=25fbc0f8-01a6-4e2d-8780-8a6d7c892cc3","ios":"levelo://app?vid=25fbc0f8-01a6-4e2d-8780-8a6d7c892cc3"},"vehicle_type_id":"4","last_reported":1700575622,"current_range_meters":1200,"station_id":"ce4bgt12rcd13ifvqce0","pricing_plan_id":"free"},{"bike_id":"68ec9042-10af-4e22-a716-981a1b1e5081","system_id":"levelo_inurba_marseille","lat":43.30804,"lon":5.3816,"is_reserved":false,"is_disabled":false,"rental_uris":{"android":"levelo://app?vid=68ec9042-10af-4e22-a716-981a1b1e5081","ios":"levelo://app?vid=68ec9042-10af-4e22-a716-981a1b1e5081"},"vehicle_type_id":"4","last_reported":1700575622,"current_range_meters":31200,"station_id":"ce4bgt12rcd13ifvqce0","pricing_plan_id":"free"},{"bike_id":"e6bef44c-98a3-4249-ad71-fb77fca326b5","system_id":"levelo_inurba_marseille","lat":43.30457,"lon":5.37899,"is_reserved":false,"is_disabled":false,"rental_uris":{"android":"levelo://app?vid=e6bef44c-98a3-4249-ad71-fb77fca326b5","ios":"levelo://app?vid=e6bef44c-98a3-4249-ad71-fb77fca326b5"},"vehicle_type_id":"4","last_reported":1700575622,"current_range_meters":30800,"station_id":"ce4bgup2rcd13ifvqcn0","pricing_plan_id":"free"},{"bike_id":"a0c175c7-8763-48b2-96c0-ee3535174374","system_id":"levelo_inurba_marseille","lat":43.324771,"lon":5.36557,"is_reserved":false,"is_disabled":false,"rental_uris":{"android":"levelo://app?vid=a0c175c7-8763-48b2-96c0-ee3535174374","ios":"levelo://app?vid=a0c175c7-8763-48b2-96c0-ee3535174374"},"vehicle_type_id":"4","last_reported":1700575622,"current_range_meters":400,"station_id":"ce4bhs12rcd13ifvqhvg","pricing_plan_id":"free"},{"bike_id":"1aca6ce0-cc67-414c-a093-03a0582a06ef","system_id":"levelo_inurba_marseille","lat":43.302784,"lon":5.377158,"is_reserved":false,"is_disabled":false,"rental_uris":{"android":"levelo://app?vid=1aca6ce0-cc67-414c-a093-03a0582a06ef","ios":"levelo://app?vid=1aca6ce0-cc67-414c-a093-03a0582a06ef"},"vehicle_type_id":"4","last_reported":1700575622,"current_range_meters":26000,"station_id":"ce4bguh2rcd13ifvqcj0","pricing_plan_id":"free"},{"bike_id":"2c332a34-48a3-41b5-9f5c-0b945f014c84","system_id":"levelo_inurba_marseille","lat":43.302784,"lon":5.377158,"is_reserved":false,"is_disabled":false,"rental_uris":{"android":"levelo://app?vid=2c332a34-48a3-41b5-9f5c-0b945f014c84","ios":"levelo://app?vid=2c332a34-48a3-41b5-9f5c-0b945f014c84"},"vehicle_type_id":"4","last_reported":1700575622,"current_range_meters":15200,"station_id":"ce4bguh2rcd13ifvqcj0","pricing_plan_id":"free"},{"bike_id":"d4024a0b-81af-4e43-addd-379a14885ad3","system_id":"levelo_inurba_marseille","lat":43.301429,"lon":5.37413,"is_reserved":false,"is_disabled":false,"rental_uris":{"android":"levelo://app?vid=d4024a0b-81af-4e43-addd-379a14885ad3","ios":"levelo://app?vid=d4024a0b-81af-4e43-addd-379a14885ad3"},"vehicle_type_id":"4","last_reported":1700575622,"current_range_meters":23600,"station_id":"ce4bgs92rcd13ifvqcc0","pricing_plan_id":"free"},{"bike_id":"d9bb9f6e-fa73-4f68-958f-f300d9bbe99f","system_id":"levelo_inurba_marseille","lat":43.30143,"lon":5.37407,"is_reserved":false,"is_disabled":false,"rental_uris":{"android":"levelo://app?vid=d9bb9f6e-fa73-4f68-958f-f300d9bbe99f","ios":"levelo://app?vid=d9bb9f6e-fa73-4f68-958f-f300d9bbe99f"},"vehicle_type_id":"4","last_reported":1700575622,"current_range_meters":26000,"station_id":"ce4bgs92rcd13ifvqcc0","pricing_plan_id":"free"},{"bike_id":"a1f8e7de-d9f5-4623-ab33-8585788da1ec","system_id":"levelo_inurba_marseille","lat":43.301429,"lon":5.37413,"is_reserved":false,"is_disabled":false,"rental_uris":{"android":"levelo://app?vid=a1f8e7de-d9f5-4623-ab33-8585788da1ec","ios":"levelo://app?vid=a1f8e7de-d9f5-4623-ab33-8585788da1ec"},"vehicle_type_id":"4","last_reported":1700575622,"current_range_meters":26800,"station_id":"ce4bgs92rcd13ifvqcc0","pricing_plan_id":"free"},{"bike_id":"ebac8d89-0d62-418a-9de2-26102b7e316d","system_id":"levelo_inurba_marseille","lat":43.301429,"lon":5.37413,"is_reserved":false,"is_disabled":false,"rental_uris":{"android":"levelo://app?vid=ebac8d89-0d62-418a-9de2-26102b7e316d","ios":"levelo://app?vid=ebac8d89-0d62-418a-9de2-26102b7e316d"},"vehicle_type_id":"4","last_reported":1700575622,"current_range_meters":30800,"station_id":"ce4bgs92rcd13ifvqcc0","pricing_plan_id":"free"},{"bike_id":"c90a41a9-c5aa-4dd8-9b0d-ce41e58f0f76","system_id":"levelo_inurba_marseille","lat":43.3014,"lon":5.37422,"is_reserved":false,"is_disabled":false,"rental_uris":{"android":"levelo://app?vid=c90a41a9-c5aa-4dd8-9b0d-ce41e58f0f76","ios":"levelo://app?vid=c90a41a9-c5aa-4dd8-9b0d-ce41e58f0f76"},"vehicle_type_id":"4","last_reported":1700575622,"current_range_meters":24800,"station_id":"ce4bgs92rcd13ifvqcc0","pricing_plan_id":"free"},{"bike_id":"e0dbd3b9-0296-4171-94c2-239d7211832a","system_id":"levelo_inurba_marseille","lat":43.301429,"lon":5.37413,"is_reserved":false,"is_disabled":false,"rental_uris":{"android":"levelo://app?vid=e0dbd3b9-0296-4171-94c2-239d7211832a","ios":"levelo://app?vid=e0dbd3b9-0296-4171-94c2-239d7211832a"},"vehicle_type_id":"4","last_reported":1700575622,"current_range_meters":31200,"station_id":"ce4bgs92rcd13ifvqcc0","pricing_plan_id":"free"},{"bike_id":"5559a450-0af7-4b54-8165-de416a06aa22","system_id":"levelo_inurba_marseille","lat":43.313571,"lon":5.384829,"is_reserved":false,"is_disabled":false,"rental_uris":{"android":"levelo://app?vid=5559a450-0af7-4b54-8165-de416a06aa22","ios":"levelo://app?vid=5559a450-0af7-4b54-8165-de416a06aa22"},"vehicle_type_id":"4","last_reported":1700575622,"current_range_meters":15600,"station_id":"ce4bgt92rcd13ifvqcf0","pricing_plan_id":"free"},{"bike_id":"56d0d6e7-0571-4c58-8fe8-1c7b720d163e","system_id":"levelo_inurba_marseille","lat":43.299222,"lon":5.365554,"is_reserved":false,"is_disabled":false,"rental_uris":{"android":"levelo://app?vid=56d0d6e7-0571-4c58-8fe8-1c7b720d163e","ios":"levelo://app?vid=56d0d6e7-0571-4c58-8fe8-1c7b720d163e"},"vehicle_type_id":"4","last_reported":1700575622,"current_range_meters":30400,"station_id":"ce4bgm92rcd13ifvqbr0","pricing_plan_id":"free"},{"bike_id":"c0b1b3a0-8809-4365-bfed-70c9be4bb402","system_id":"levelo_inurba_marseille","lat":43.29845,"lon":5.36275,"is_reserved":false,"is_disabled":false,"rental_uris":{"android":"levelo://app?vid=c0b1b3a0-8809-4365-bfed-70c9be4bb402","ios":"levelo://app?vid=c0b1b3a0-8809-4365-bfed-70c9be4bb402"},"vehicle_type_id":"4","last_reported":1700575622,"current_range_meters":0,"station_id":"ce4bgpp2rcd13ifvqc3g","pricing_plan_id":"free"},{"bike_id":"57dc01b9-ff27-4572-a483-300a429e082d","system_id":"levelo_inurba_marseille","lat":43.298433,"lon":5.362774,"is_reserved":false,"is_disabled":false,"rental_uris":{"android":"levelo://app?vid=57dc01b9-ff27-4572-a483-300a429e082d","ios":"levelo://app?vid=57dc01b9-ff27-4572-a483-300a429e082d"},"vehicle_type_id":"4","last_reported":1700575622,"current_range_meters":30000,"station_id":"ce4bgpp2rcd13ifvqc3g","pricing_plan_id":"free"},{"bike_id":"cb4d2ae5-f160-4767-a697-654901f078ee","system_id":"levelo_inurba_marseille","lat":43.299156,"lon":5.374711,"is_reserved":false,"is_disabled":false,"rental_uris":{"android":"levelo://app?vid=cb4d2ae5-f160-4767-a697-654901f078ee","ios":"levelo://app?vid=cb4d2ae5-f160-4767-a697-654901f078ee"},"vehicle_type_id":"4","last_reported":1700575622,"current_range_meters":9200,"station_id":"ce4bgjh2rcd13ifvqbg0","pricing_plan_id":"free"},{"bike_id":"0edf0b3c-4db3-4aac-8969-f5792e65d922","system_id":"levelo_inurba_marseille","lat":43.299243,"lon":5.37481,"is_reserved":false,"is_disabled":false,"rental_uris":{"android":"levelo://app?vid=0edf0b3c-4db3-4aac-8969-f5792e65d922","ios":"levelo://app?vid=0edf0b3c-4db3-4aac-8969-f5792e65d922"},"vehicle_type_id":"4","last_reported":1700575622,"current_range_meters":23600,"station_id":"ce4bgjh2rcd13ifvqbg0","pricing_plan_id":"free"},{"bike_id":"d9a95eb2-3ca7-4d5c-ae71-fae5be7a5a02","system_id":"levelo_inurba_marseille","lat":43.29811,"lon":5.37099,"is_reserved":false,"is_disabled":false,"rental_uris":{"android":"levelo://app?vid=d9a95eb2-3ca7-4d5c-ae71-fae5be7a5a02","ios":"levelo://app?vid=d9a95eb2-3ca7-4d5c-ae71-fae5be7a5a02"},"vehicle_type_id":"4","last_reported":1700575622,"current_range_meters":16000,"station_id":"ce4bgop2rcd13ifvqc1g","pricing_plan_id":"free"},{"bike_id":"478df89d-9841-4617-b99b-36c590360ec4","system_id":"levelo_inurba_marseille","lat":43.29779,"lon":5.3711,"is_reserved":false,"is_disabled":false,"rental_uris":{"android":"levelo://app?vid=478df89d-9841-4617-b99b-36c590360ec4","ios":"levelo://app?vid=478df89d-9841-4617-b99b-36c590360ec4"},"vehicle_type_id":"4","last_reported":1700575622,"current_range_meters":22000,"station_id":"","pricing_plan_id":"free"},{"bike_id":"c0b973e4-2fbb-42ca-85ab-e363512fc4c6","system_id":"levelo_inurba_marseille","lat":43.297774,"lon":5.370875,"is_reserved":false,"is_disabled":false,"rental_uris":{"android":"levelo://app?vid=c0b973e4-2fbb-42ca-85ab-e363512fc4c6","ios":"levelo://app?vid=c0b973e4-2fbb-42ca-85ab-e363512fc4c6"},"vehicle_type_id":"4","last_reported":1700575622,"current_range_meters":26800,"station_id":"ce4bgop2rcd13ifvqc1g","pricing_plan_id":"free"},{"bike_id":"24256210-dd9b-4e06-8284-ac9b4520be6f","system_id":"levelo_inurba_marseille","lat":43.3283,"lon":5.36694,"is_reserved":false,"is_disabled":false,"rental_uris":{"android":"levelo://app?vid=24256210-dd9b-4e06-8284-ac9b4520be6f","ios":"levelo://app?vid=24256210-dd9b-4e06-8284-ac9b4520be6f"},"vehicle_type_id":"4","last_reported":1700575622,"current_range_meters":0,"station_id":"ce4bhs92rcd13ifvqi0g","pricing_plan_id":"free"},{"bike_id":"33f7a205-a0fa-45aa-8dec-d47c850fa3fa","system_id":"levelo_inurba_marseille","lat":43.29734,"lon":5.37006,"is_reserved":false,"is_disabled":false,"rental_uris":{"android":"levelo://app?vid=33f7a205-a0fa-45aa-8dec-d47c850fa3fa","ios":"levelo://app?vid=33f7a205-a0fa-45aa-8dec-d47c850fa3fa"},"vehicle_type_id":"4","last_reported":1700575622,"current_range_meters":800,"station_id":"","pricing_plan_id":"free"},{"bike_id":"8bb60396-4130-4759-848e-98461549a76c","system_id":"levelo_inurba_marseille","lat":43.2968,"lon":5.37291,"is_reserved":false,"is_disabled":false,"rental_uris":{"android":"levelo://app?vid=8bb60396-4130-4759-848e-98461549a76c","ios":"levelo://app?vid=8bb60396-4130-4759-848e-98461549a76c"},"vehicle_type_id":"4","last_reported":1700575622,"current_range_meters":27200,"station_id":"ce4bgk12rcd13ifvqbj0","pricing_plan_id":"free"},{"bike_id":"f9896fc6-7033-438f-b576-0c525507c276","system_id":"levelo_inurba_marseille","lat":43.2968,"lon":5.37291,"is_reserved":false,"is_disabled":false,"rental_uris":{"android":"levelo://app?vid=f9896fc6-7033-438f-b576-0c525507c276","ios":"levelo://app?vid=f9896fc6-7033-438f-b576-0c525507c276"},"vehicle_type_id":"4","last_reported":1700575622,"current_range_meters":14800,"station_id":"ce4bgk12rcd13ifvqbj0","pricing_plan_id":"free"},{"bike_id":"7f07985a-6b0f-4eaf-bab8-e60f389507ee","system_id":"levelo_inurba_marseille","lat":43.2968,"lon":5.37291,"is_reserved":false,"is_disabled":false,"rental_uris":{"android":"levelo://app?vid=7f07985a-6b0f-4eaf-bab8-e60f389507ee","ios":"levelo://app?vid=7f07985a-6b0f-4eaf-bab8-e60f389507ee"},"vehicle_type_id":"4","last_reported":1700575622,"current_range_meters":9600,"station_id":"ce4bgk12rcd13ifvqbj0","pricing_plan_id":"free"},{"bike_id":"55463bea-8362-4d47-b2fc-b57123ea0d01","system_id":"levelo_inurba_marseille","lat":43.296131,"lon":5.370773,"is_reserved":false,"is_disabled":false,"rental_uris":{"android":"levelo://app?vid=55463bea-8362-4d47-b2fc-b57123ea0d01","ios":"levelo://app?vid=55463bea-8362-4d47-b2fc-b57123ea0d01"},"vehicle_type_id":"4","last_reported":1700575622,"current_range_meters":31600,"station_id":"ce4bgnh2rcd13ifvqc0g","pricing_plan_id":"free"},{"bike_id":"6803a1c4-a1ed-4f9f-88fd-d527c9fae542","system_id":"levelo_inurba_marseille","lat":43.296131,"lon":5.370773,"is_reserved":false,"is_disabled":false,"rental_uris":{"android":"levelo://app?vid=6803a1c4-a1ed-4f9f-88fd-d527c9fae542","ios":"levelo://app?vid=6803a1c4-a1ed-4f9f-88fd-d527c9fae542"},"vehicle_type_id":"4","last_reported":1700575622,"current_range_meters":22800,"station_id":"ce4bgnh2rcd13ifvqc0g","pricing_plan_id":"free"},{"bike_id":"cc0675db-2dec-4617-8062-2ad3b6323f53","system_id":"levelo_inurba_marseille","lat":43.29573,"lon":5.367355,"is_reserved":false,"is_disabled":false,"rental_uris":{"android":"levelo://app?vid=cc0675db-2dec-4617-8062-2ad3b6323f53","ios":"levelo://app?vid=cc0675db-2dec-4617-8062-2ad3b6323f53"},"vehicle_type_id":"4","last_reported":1700575622,"current_range_meters":12000,"station_id":"ce4bgph2rcd13ifvqc2g","pricing_plan_id":"free"},{"bike_id":"2f69abbf-4049-4267-a3cc-308d5ae94cd3","system_id":"levelo_inurba_marseille","lat":43.29581,"lon":5.36742,"is_reserved":false,"is_disabled":false,"rental_uris":{"android":"levelo://app?vid=2f69abbf-4049-4267-a3cc-308d5ae94cd3","ios":"levelo://app?vid=2f69abbf-4049-4267-a3cc-308d5ae94cd3"},"vehicle_type_id":"4","last_reported":1700575622,"current_range_meters":19200,"station_id":"ce4bgph2rcd13ifvqc2g","pricing_plan_id":"free"},{"bike_id":"aaa473cf-3ce1-4c9a-83f1-80f1b4fc8795","system_id":"levelo_inurba_marseille","lat":43.29577,"lon":5.36744,"is_reserved":false,"is_disabled":false,"rental_uris":{"android":"levelo://app?vid=aaa473cf-3ce1-4c9a-83f1-80f1b4fc8795","ios":"levelo://app?vid=aaa473cf-3ce1-4c9a-83f1-80f1b4fc8795"},"vehicle_type_id":"4","last_reported":1700575622,"current_range_meters":10000,"station_id":"ce4bgph2rcd13ifvqc2g","pricing_plan_id":"free"},{"bike_id":"a67d52cd-20e0-4123-ab29-fabb8515edd2","system_id":"levelo_inurba_marseille","lat":43.29727,"lon":5.37681,"is_reserved":false,"is_disabled":false,"rental_uris":{"android":"levelo://app?vid=a67d52cd-20e0-4123-ab29-fabb8515edd2","ios":"levelo://app?vid=a67d52cd-20e0-4123-ab29-fabb8515edd2"},"vehicle_type_id":"4","last_reported":1700575622,"current_range_meters":26800,"station_id":"ce4bgkh2rcd13ifvqbl0","pricing_plan_id":"free"},{"bike_id":"07ae60df-ec63-434a-a586-c7635859280b","system_id":"levelo_inurba_marseille","lat":43.306107,"lon":5.388647,"is_reserved":false,"is_disabled":false,"rental_uris":{"android":"levelo://app?vid=07ae60df-ec63-434a-a586-c7635859280b","ios":"levelo://app?vid=07ae60df-ec63-434a-a586-c7635859280b"},"vehicle_type_id":"4","last_reported":1700575622,"current_range_meters":16800,"station_id":"ce4bgj92rcd13ifvqbd0","pricing_plan_id":"free"},{"bike_id":"664c3aea-3efd-4167-8f7e-529bc7d83324","system_id":"levelo_inurba_marseille","lat":43.296921,"lon":5.376579,"is_reserved":false,"is_disabled":false,"rental_uris":{"android":"levelo://app?vid=664c3aea-3efd-4167-8f7e-529bc7d83324","ios":"levelo://app?vid=664c3aea-3efd-4167-8f7e-529bc7d83324"},"vehicle_type_id":"4","last_reported":1700575622,"current_range_meters":13600,"station_id":"ce4bgkh2rcd13ifvqbl0","pricing_plan_id":"free"},{"bike_id":"9fb402a7-7a41-4473-81d2-1fec663a6035","system_id":"levelo_inurba_marseille","lat":43.3055,"lon":5.38884,"is_reserved":false,"is_disabled":false,"rental_uris":{"android":"levelo://app?vid=9fb402a7-7a41-4473-81d2-1fec663a6035","ios":"levelo://app?vid=9fb402a7-7a41-4473-81d2-1fec663a6035"},"vehicle_type_id":"4","last_reported":1700575622,"current_range_meters":29200,"station_id":"","pricing_plan_id":"free"},{"bike_id":"3fe2bf2c-8cb4-449e-9ce7-cb63c33e0e25","system_id":"levelo_inurba_marseille","lat":43.317557,"lon":5.390173,"is_reserved":false,"is_disabled":false,"rental_uris":{"android":"levelo://app?vid=3fe2bf2c-8cb4-449e-9ce7-cb63c33e0e25","ios":"levelo://app?vid=3fe2bf2c-8cb4-449e-9ce7-cb63c33e0e25"},"vehicle_type_id":"4","last_reported":1700575622,"current_range_meters":12000,"station_id":"ce4bhqp2rcd13ifvqhng","pricing_plan_id":"free"},{"bike_id":"ea797e8b-2c7a-4864-9da1-bb339ca52157","system_id":"levelo_inurba_marseille","lat":43.31758,"lon":5.3902,"is_reserved":false,"is_disabled":false,"rental_uris":{"android":"levelo://app?vid=ea797e8b-2c7a-4864-9da1-bb339ca52157","ios":"levelo://app?vid=ea797e8b-2c7a-4864-9da1-bb339ca52157"},"vehicle_type_id":"4","last_reported":1700575622,"current_range_meters":28000,"station_id":"ce4bhqp2rcd13ifvqhng","pricing_plan_id":"free"},{"bike_id":"3059d4c1-3d42-4321-a339-0fea9a03ef82","system_id":"levelo_inurba_marseille","lat":43.328154,"lon":5.380034,"is_reserved":false,"is_disabled":false,"rental_uris":{"android":"levelo://app?vid=3059d4c1-3d42-4321-a339-0fea9a03ef82","ios":"levelo://app?vid=3059d4c1-3d42-4321-a339-0fea9a03ef82"},"vehicle_type_id":"4","last_reported":1700575622,"current_range_meters":0,"station_id":"","pricing_plan_id":"free"},{"bike_id":"992e2132-b63b-4f3d-8292-341b0b8b87de","system_id":"levelo_inurba_marseille","lat":43.296263,"lon":5.377094,"is_reserved":false,"is_disabled":false,"rental_uris":{"android":"levelo://app?vid=992e2132-b63b-4f3d-8292-341b0b8b87de","ios":"levelo://app?vid=992e2132-b63b-4f3d-8292-341b0b8b87de"},"vehicle_type_id":"4","last_reported":1700575622,"current_range_meters":29200,"station_id":"ce4bgi92rcd13ifvqb90","pricing_plan_id":"free"},{"bike_id":"77407f23-2293-4710-8e64-dd691bcef695","system_id":"levelo_inurba_marseille","lat":43.29611,"lon":5.37735,"is_reserved":false,"is_disabled":false,"rental_uris":{"android":"levelo://app?vid=77407f23-2293-4710-8e64-dd691bcef695","ios":"levelo://app?vid=77407f23-2293-4710-8e64-dd691bcef695"},"vehicle_type_id":"4","last_reported":1700575622,"current_range_meters":11600,"station_id":"ce4bgi92rcd13ifvqb90","pricing_plan_id":"free"},{"bike_id":"988e4b3e-8f46-45b5-a6ee-9ba6cd0a2f5a","system_id":"levelo_inurba_marseille","lat":43.29534,"lon":5.37498,"is_reserved":false,"is_disabled":false,"rental_uris":{"android":"levelo://app?vid=988e4b3e-8f46-45b5-a6ee-9ba6cd0a2f5a","ios":"levelo://app?vid=988e4b3e-8f46-45b5-a6ee-9ba6cd0a2f5a"},"vehicle_type_id":"4","last_reported":1700575622,"current_range_meters":30000,"station_id":"ce4bgkp2rcd13ifvqbmg","pricing_plan_id":"free"},{"bike_id":"3399fdaa-b0aa-434c-9f56-198c6d3eb80c","system_id":"levelo_inurba_marseille","lat":43.2953,"lon":5.375,"is_reserved":false,"is_disabled":false,"rental_uris":{"android":"levelo://app?vid=3399fdaa-b0aa-434c-9f56-198c6d3eb80c","ios":"levelo://app?vid=3399fdaa-b0aa-434c-9f56-198c6d3eb80c"},"vehicle_type_id":"4","last_reported":1700575622,"current_range_meters":5600,"station_id":"ce4bgkp2rcd13ifvqbmg","pricing_plan_id":"free"},{"bike_id":"d4da279c-335b-47ba-9560-3c5b62f864ca","system_id":"levelo_inurba_marseille","lat":43.29529,"lon":5.37498,"is_reserved":false,"is_disabled":false,"rental_uris":{"android":"levelo://app?vid=d4da279c-335b-47ba-9560-3c5b62f864ca","ios":"levelo://app?vid=d4da279c-335b-47ba-9560-3c5b62f864ca"},"vehicle_type_id":"4","last_reported":1700575622,"current_range_meters":0,"station_id":"","pricing_plan_id":"free"},{"bike_id":"76b73a61-6cb4-4d07-be4a-002b18515343","system_id":"levelo_inurba_marseille","lat":43.299716,"lon":5.384842,"is_reserved":false,"is_disabled":false,"rental_uris":{"android":"levelo://app?vid=76b73a61-6cb4-4d07-be4a-002b18515343","ios":"levelo://app?vid=76b73a61-6cb4-4d07-be4a-002b18515343"},"vehicle_type_id":"4","last_reported":1700575622,"current_range_meters":31200,"station_id":"ce4bgj92rcd13ifvqbd0","pricing_plan_id":"free"},{"bike_id":"d9f1b5b7-74b1-4efe-8de2-6e65b24038f7","system_id":"levelo_inurba_marseille","lat":43.29526,"lon":5.375065,"is_reserved":false,"is_disabled":false,"rental_uris":{"android":"levelo://app?vid=d9f1b5b7-74b1-4efe-8de2-6e65b24038f7","ios":"levelo://app?vid=d9f1b5b7-74b1-4efe-8de2-6e65b24038f7"},"vehicle_type_id":"4","last_reported":1700575622,"current_range_meters":5600,"station_id":"ce4bgkp2rcd13ifvqbmg","pricing_plan_id":"free"},{"bike_id":"b8b48de9-6bce-4a05-a22b-9af49b464c5d","system_id":"levelo_inurba_marseille","lat":43.29527,"lon":5.37513,"is_reserved":false,"is_disabled":false,"rental_uris":{"android":"levelo://app?vid=b8b48de9-6bce-4a05-a22b-9af49b464c5d","ios":"levelo://app?vid=b8b48de9-6bce-4a05-a22b-9af49b464c5d"},"vehicle_type_id":"4","last_reported":1700575622,"current_range_meters":24400,"station_id":"ce4bgkp2rcd13ifvqbmg","pricing_plan_id":"free"},{"bike_id":"36e1cb32-e4d5-483d-9c82-7519dc495070","system_id":"levelo_inurba_marseille","lat":43.299717,"lon":5.384845,"is_reserved":false,"is_disabled":false,"rental_uris":{"android":"levelo://app?vid=36e1cb32-e4d5-483d-9c82-7519dc495070","ios":"levelo://app?vid=36e1cb32-e4d5-483d-9c82-7519dc495070"},"vehicle_type_id":"4","last_reported":1700575622,"current_range_meters":22000,"station_id":"ce4bgj92rcd13ifvqbd0","pricing_plan_id":"free"},{"bike_id":"0032bc13-0994-47bf-9b60-12d0696c1718","system_id":"levelo_inurba_marseille","lat":43.299724,"lon":5.384848,"is_reserved":false,"is_disabled":false,"rental_uris":{"android":"levelo://app?vid=0032bc13-0994-47bf-9b60-12d0696c1718","ios":"levelo://app?vid=0032bc13-0994-47bf-9b60-12d0696c1718"},"vehicle_type_id":"4","last_reported":1700575622,"current_range_meters":25200,"station_id":"ce4bgj92rcd13ifvqbd0","pricing_plan_id":"free"},{"bike_id":"102745c0-f459-4df4-a2b7-bc6820f64bbd","system_id":"levelo_inurba_marseille","lat":43.29969,"lon":5.38499,"is_reserved":false,"is_disabled":false,"rental_uris":{"android":"levelo://app?vid=102745c0-f459-4df4-a2b7-bc6820f64bbd","ios":"levelo://app?vid=102745c0-f459-4df4-a2b7-bc6820f64bbd"},"vehicle_type_id":"4","last_reported":1700575622,"current_range_meters":13600,"station_id":"ce4bgj92rcd13ifvqbd0","pricing_plan_id":"free"},{"bike_id":"7e51ffe7-4c86-4259-8951-e0fbf2b7e12c","system_id":"levelo_inurba_marseille","lat":43.299724,"lon":5.384848,"is_reserved":false,"is_disabled":false,"rental_uris":{"android":"levelo://app?vid=7e51ffe7-4c86-4259-8951-e0fbf2b7e12c","ios":"levelo://app?vid=7e51ffe7-4c86-4259-8951-e0fbf2b7e12c"},"vehicle_type_id":"4","last_reported":1700575622,"current_range_meters":31200,"station_id":"ce4bgj92rcd13ifvqbd0","pricing_plan_id":"free"},{"bike_id":"6b621983-5e9e-42f7-990d-ad5a093820d2","system_id":"levelo_inurba_marseille","lat":43.293801,"lon":5.363066,"is_reserved":false,"is_disabled":false,"rental_uris":{"android":"levelo://app?vid=6b621983-5e9e-42f7-990d-ad5a093820d2","ios":"levelo://app?vid=6b621983-5e9e-42f7-990d-ad5a093820d2"},"vehicle_type_id":"4","last_reported":1700575622,"current_range_meters":16000,"station_id":"","pricing_plan_id":"free"},{"bike_id":"d08f04bf-d1cb-49fb-9aa7-04e7f7676b3c","system_id":"levelo_inurba_marseille","lat":43.32342,"lon":5.38947,"is_reserved":false,"is_disabled":false,"rental_uris":{"android":"levelo://app?vid=d08f04bf-d1cb-49fb-9aa7-04e7f7676b3c","ios":"levelo://app?vid=d08f04bf-d1cb-49fb-9aa7-04e7f7676b3c"},"vehicle_type_id":"4","last_reported":1700575622,"current_range_meters":0,"station_id":"","pricing_plan_id":"free"},{"bike_id":"6f710790-a8bb-49f0-84ef-99bcd23d11b1","system_id":"levelo_inurba_marseille","lat":43.29601,"lon":5.381084,"is_reserved":false,"is_disabled":false,"rental_uris":{"android":"levelo://app?vid=6f710790-a8bb-49f0-84ef-99bcd23d11b1","ios":"levelo://app?vid=6f710790-a8bb-49f0-84ef-99bcd23d11b1"},"vehicle_type_id":"4","last_reported":1700575622,"current_range_meters":28800,"station_id":"ce4bgl12rcd13ifvqbo0","pricing_plan_id":"free"},{"bike_id":"068385e1-1ff5-44ff-87f8-ed276fbfa6ac","system_id":"levelo_inurba_marseille","lat":43.29278,"lon":5.3685,"is_reserved":false,"is_disabled":false,"rental_uris":{"android":"levelo://app?vid=068385e1-1ff5-44ff-87f8-ed276fbfa6ac","ios":"levelo://app?vid=068385e1-1ff5-44ff-87f8-ed276fbfa6ac"},"vehicle_type_id":"4","last_reported":1700575622,"current_range_meters":20400,"station_id":"ce4bhbp2rcd13ifvqesg","pricing_plan_id":"free"},{"bike_id":"5e2aed21-7431-4d86-89de-50ab71f208bf","system_id":"levelo_inurba_marseille","lat":43.293009,"lon":5.374584,"is_reserved":false,"is_disabled":false,"rental_uris":{"android":"levelo://app?vid=5e2aed21-7431-4d86-89de-50ab71f208bf","ios":"levelo://app?vid=5e2aed21-7431-4d86-89de-50ab71f208bf"},"vehicle_type_id":"4","last_reported":1700575622,"current_range_meters":7600,"station_id":"ce4bgi12rcd13ifvqb70","pricing_plan_id":"free"},{"bike_id":"56976b36-0d06-4b7b-9507-582ab8ce8f96","system_id":"levelo_inurba_marseille","lat":43.29299,"lon":5.37459,"is_reserved":false,"is_disabled":false,"rental_uris":{"android":"levelo://app?vid=56976b36-0d06-4b7b-9507-582ab8ce8f96","ios":"levelo://app?vid=56976b36-0d06-4b7b-9507-582ab8ce8f96"},"vehicle_type_id":"4","last_reported":1700575622,"current_range_meters":14000,"station_id":"ce4bgi12rcd13ifvqb70","pricing_plan_id":"free"},{"bike_id":"679d6013-5f69-4199-b7a0-04df5acc415a","system_id":"levelo_inurba_marseille","lat":43.292777,"lon":5.374805,"is_reserved":false,"is_disabled":false,"rental_uris":{"android":"levelo://app?vid=679d6013-5f69-4199-b7a0-04df5acc415a","ios":"levelo://app?vid=679d6013-5f69-4199-b7a0-04df5acc415a"},"vehicle_type_id":"4","last_reported":1700575622,"current_range_meters":30000,"station_id":"ce4bgi12rcd13ifvqb70","pricing_plan_id":"free"},{"bike_id":"9a2ff756-7c48-4a9e-8ed6-0fef9b76f91b","system_id":"levelo_inurba_marseille","lat":43.303002,"lon":5.392142,"is_reserved":false,"is_disabled":false,"rental_uris":{"android":"levelo://app?vid=9a2ff756-7c48-4a9e-8ed6-0fef9b76f91b","ios":"levelo://app?vid=9a2ff756-7c48-4a9e-8ed6-0fef9b76f91b"},"vehicle_type_id":"4","last_reported":1700575622,"current_range_meters":10400,"station_id":"ce4bgkh2rcd13ifvqbk0","pricing_plan_id":"free"},{"bike_id":"9e4c5d35-8bc8-4054-bc78-d764ae975390","system_id":"levelo_inurba_marseille","lat":43.2936,"lon":5.37835,"is_reserved":false,"is_disabled":false,"rental_uris":{"android":"levelo://app?vid=9e4c5d35-8bc8-4054-bc78-d764ae975390","ios":"levelo://app?vid=9e4c5d35-8bc8-4054-bc78-d764ae975390"},"vehicle_type_id":"4","last_reported":1700575622,"current_range_meters":27600,"station_id":"ce4bgjh2rcd13ifvqbf0","pricing_plan_id":"free"},{"bike_id":"fa4a9490-6e32-4c97-98db-522df5e468fc","system_id":"levelo_inurba_marseille","lat":43.292311,"lon":5.360731,"is_reserved":false,"is_disabled":false,"rental_uris":{"android":"levelo://app?vid=fa4a9490-6e32-4c97-98db-522df5e468fc","ios":"levelo://app?vid=fa4a9490-6e32-4c97-98db-522df5e468fc"},"vehicle_type_id":"4","last_reported":1700575622,"current_range_meters":7200,"station_id":"ce4bhbh2rcd13ifvqeqg","pricing_plan_id":"free"},{"bike_id":"f21d9868-c90a-437e-9e31-1337dddb37a0","system_id":"levelo_inurba_marseille","lat":43.292311,"lon":5.360731,"is_reserved":false,"is_disabled":false,"rental_uris":{"android":"levelo://app?vid=f21d9868-c90a-437e-9e31-1337dddb37a0","ios":"levelo://app?vid=f21d9868-c90a-437e-9e31-1337dddb37a0"},"vehicle_type_id":"4","last_reported":1700575622,"current_range_meters":14000,"station_id":"ce4bhbh2rcd13ifvqeqg","pricing_plan_id":"free"},{"bike_id":"76a5588b-4171-420e-83e6-341d72479c18","system_id":"levelo_inurba_marseille","lat":43.292311,"lon":5.360731,"is_reserved":false,"is_disabled":false,"rental_uris":{"android":"levelo://app?vid=76a5588b-4171-420e-83e6-341d72479c18","ios":"levelo://app?vid=76a5588b-4171-420e-83e6-341d72479c18"},"vehicle_type_id":"4","last_reported":1700575622,"current_range_meters":14800,"station_id":"ce4bhbh2rcd13ifvqeqg","pricing_plan_id":"free"},{"bike_id":"df15d2d3-71b7-4b9f-ac5b-84c43ed816a2","system_id":"levelo_inurba_marseille","lat":43.292663,"lon":5.376389,"is_reserved":false,"is_disabled":false,"rental_uris":{"android":"levelo://app?vid=df15d2d3-71b7-4b9f-ac5b-84c43ed816a2","ios":"levelo://app?vid=df15d2d3-71b7-4b9f-ac5b-84c43ed816a2"},"vehicle_type_id":"4","last_reported":1700575622,"current_range_meters":4400,"station_id":"ce4bgi12rcd13ifvqb80","pricing_plan_id":"free"},{"bike_id":"c1a122bc-2d82-4afe-bd13-7c0d166532ae","system_id":"levelo_inurba_marseille","lat":43.292663,"lon":5.376389,"is_reserved":false,"is_disabled":false,"rental_uris":{"android":"levelo://app?vid=c1a122bc-2d82-4afe-bd13-7c0d166532ae","ios":"levelo://app?vid=c1a122bc-2d82-4afe-bd13-7c0d166532ae"},"vehicle_type_id":"4","last_reported":1700575622,"current_range_meters":24400,"station_id":"ce4bgi12rcd13ifvqb80","pricing_plan_id":"free"},{"bike_id":"62527b9f-dd5c-4b57-9a49-74d65f07f2b8","system_id":"levelo_inurba_marseille","lat":43.298764,"lon":5.388973,"is_reserved":false,"is_disabled":false,"rental_uris":{"android":"levelo://app?vid=62527b9f-dd5c-4b57-9a49-74d65f07f2b8","ios":"levelo://app?vid=62527b9f-dd5c-4b57-9a49-74d65f07f2b8"},"vehicle_type_id":"4","last_reported":1700575622,"current_range_meters":1600,"station_id":"ce4bh392rcd13ifvqdl0","pricing_plan_id":"free"},{"bike_id":"23153cae-4d29-4d2c-be93-a6c43a20971a","system_id":"levelo_inurba_marseille","lat":43.291671,"lon":5.371575,"is_reserved":false,"is_disabled":false,"rental_uris":{"android":"levelo://app?vid=23153cae-4d29-4d2c-be93-a6c43a20971a","ios":"levelo://app?vid=23153cae-4d29-4d2c-be93-a6c43a20971a"},"vehicle_type_id":"4","last_reported":1700575622,"current_range_meters":27200,"station_id":"ce4bha92rcd13ifvqeh0","pricing_plan_id":"free"},{"bike_id":"4fdc9e0d-d2b1-4468-a601-87ceee55ecf0","system_id":"levelo_inurba_marseille","lat":43.31334,"lon":5.3969,"is_reserved":false,"is_disabled":false,"rental_uris":{"android":"levelo://app?vid=4fdc9e0d-d2b1-4468-a601-87ceee55ecf0","ios":"levelo://app?vid=4fdc9e0d-d2b1-4468-a601-87ceee55ecf0"},"vehicle_type_id":"4","last_reported":1700575622,"current_range_meters":18000,"station_id":"ce4bgvp2rcd13ifvqcu0","pricing_plan_id":"free"},{"bike_id":"cb8d2b9c-cac9-4630-8922-235bc125a387","system_id":"levelo_inurba_marseille","lat":43.2919,"lon":5.35802,"is_reserved":false,"is_disabled":false,"rental_uris":{"android":"levelo://app?vid=cb8d2b9c-cac9-4630-8922-235bc125a387","ios":"levelo://app?vid=cb8d2b9c-cac9-4630-8922-235bc125a387"},"vehicle_type_id":"4","last_reported":1700575622,"current_range_meters":0,"station_id":"ce4bhb12rcd13ifvqel0","pricing_plan_id":"free"},{"bike_id":"04b487af-4478-445b-8918-d0a50c8f45fe","system_id":"levelo_inurba_marseille","lat":43.313291,"lon":5.396838,"is_reserved":false,"is_disabled":false,"rental_uris":{"android":"levelo://app?vid=04b487af-4478-445b-8918-d0a50c8f45fe","ios":"levelo://app?vid=04b487af-4478-445b-8918-d0a50c8f45fe"},"vehicle_type_id":"4","last_reported":1700575622,"current_range_meters":4400,"station_id":"ce4bgvp2rcd13ifvqcu0","pricing_plan_id":"free"},{"bike_id":"cdfd4d0a-14e5-4e93-b6b8-0b2e2f85621f","system_id":"levelo_inurba_marseille","lat":43.31325,"lon":5.39693,"is_reserved":false,"is_disabled":false,"rental_uris":{"android":"levelo://app?vid=cdfd4d0a-14e5-4e93-b6b8-0b2e2f85621f","ios":"levelo://app?vid=cdfd4d0a-14e5-4e93-b6b8-0b2e2f85621f"},"vehicle_type_id":"4","last_reported":1700575622,"current_range_meters":3200,"station_id":"ce4bgvp2rcd13ifvqcu0","pricing_plan_id":"free"},{"bike_id":"4859eab2-9e40-47b4-a288-a5736214b212","system_id":"levelo_inurba_marseille","lat":43.31333,"lon":5.39693,"is_reserved":false,"is_disabled":false,"rental_uris":{"android":"levelo://app?vid=4859eab2-9e40-47b4-a288-a5736214b212","ios":"levelo://app?vid=4859eab2-9e40-47b4-a288-a5736214b212"},"vehicle_type_id":"4","last_reported":1700575622,"current_range_meters":11200,"station_id":"ce4bgvp2rcd13ifvqcu0","pricing_plan_id":"free"},{"bike_id":"ea7c8079-e65e-4090-aac8-eba724ce95c9","system_id":"levelo_inurba_marseille","lat":43.309047,"lon":5.396551,"is_reserved":false,"is_disabled":false,"rental_uris":{"android":"levelo://app?vid=ea7c8079-e65e-4090-aac8-eba724ce95c9","ios":"levelo://app?vid=ea7c8079-e65e-4090-aac8-eba724ce95c9"},"vehicle_type_id":"4","last_reported":1700575622,"current_range_meters":24400,"station_id":"ce4bh012rcd13ifvqcv0","pricing_plan_id":"free"},{"bike_id":"b0aeb102-10cd-4d19-b4bf-97196f9b8343","system_id":"levelo_inurba_marseille","lat":43.309038,"lon":5.396546,"is_reserved":false,"is_disabled":false,"rental_uris":{"android":"levelo://app?vid=b0aeb102-10cd-4d19-b4bf-97196f9b8343","ios":"levelo://app?vid=b0aeb102-10cd-4d19-b4bf-97196f9b8343"},"vehicle_type_id":"4","last_reported":1700575622,"current_range_meters":18400,"station_id":"ce4bh012rcd13ifvqcv0","pricing_plan_id":"free"},{"bike_id":"1d10a1b1-d55f-4279-928a-9c6858f32ca9","system_id":"levelo_inurba_marseille","lat":43.33254,"lon":5.38029,"is_reserved":false,"is_disabled":false,"rental_uris":{"android":"levelo://app?vid=1d10a1b1-d55f-4279-928a-9c6858f32ca9","ios":"levelo://app?vid=1d10a1b1-d55f-4279-928a-9c6858f32ca9"},"vehicle_type_id":"4","last_reported":1700575622,"current_range_meters":3600,"station_id":"","pricing_plan_id":"free"},{"bike_id":"6a9e4c56-ba40-4c25-8f9c-3e1e85f3ece9","system_id":"levelo_inurba_marseille","lat":43.29529,"lon":5.385581,"is_reserved":false,"is_disabled":false,"rental_uris":{"android":"levelo://app?vid=6a9e4c56-ba40-4c25-8f9c-3e1e85f3ece9","ios":"levelo://app?vid=6a9e4c56-ba40-4c25-8f9c-3e1e85f3ece9"},"vehicle_type_id":"4","last_reported":1700575622,"current_range_meters":10800,"station_id":"ce4bgih2rcd13ifvqba0","pricing_plan_id":"free"},{"bike_id":"4c7f48f1-0a2e-400d-a484-57206e56b9d9","system_id":"levelo_inurba_marseille","lat":43.290779,"lon":5.371482,"is_reserved":false,"is_disabled":false,"rental_uris":{"android":"levelo://app?vid=4c7f48f1-0a2e-400d-a484-57206e56b9d9","ios":"levelo://app?vid=4c7f48f1-0a2e-400d-a484-57206e56b9d9"},"vehicle_type_id":"4","last_reported":1700575622,"current_range_meters":21200,"station_id":"ce4bh5p2rcd13ifvqe4g","pricing_plan_id":"free"},{"bike_id":"449c1bd5-df21-4151-a0c7-74f8c9df118b","system_id":"levelo_inurba_marseille","lat":43.290779,"lon":5.371482,"is_reserved":false,"is_disabled":false,"rental_uris":{"android":"levelo://app?vid=449c1bd5-df21-4151-a0c7-74f8c9df118b","ios":"levelo://app?vid=449c1bd5-df21-4151-a0c7-74f8c9df118b"},"vehicle_type_id":"4","last_reported":1700575622,"current_range_meters":11200,"station_id":"ce4bh5p2rcd13ifvqe4g","pricing_plan_id":"free"},{"bike_id":"7dbdbe66-eb86-4955-88e6-82eb4c068e56","system_id":"levelo_inurba_marseille","lat":43.302008,"lon":5.394694,"is_reserved":false,"is_disabled":false,"rental_uris":{"android":"levelo://app?vid=7dbdbe66-eb86-4955-88e6-82eb4c068e56","ios":"levelo://app?vid=7dbdbe66-eb86-4955-88e6-82eb4c068e56"},"vehicle_type_id":"4","last_reported":1700575622,"current_range_meters":31200,"station_id":"ce4bh0p2rcd13ifvqd70","pricing_plan_id":"free"},{"bike_id":"42ef061b-9360-4d28-a33d-42045e9c2769","system_id":"levelo_inurba_marseille","lat":43.302008,"lon":5.394694,"is_reserved":false,"is_disabled":false,"rental_uris":{"android":"levelo://app?vid=42ef061b-9360-4d28-a33d-42045e9c2769","ios":"levelo://app?vid=42ef061b-9360-4d28-a33d-42045e9c2769"},"vehicle_type_id":"4","last_reported":1700575622,"current_range_meters":31200,"station_id":"ce4bh0p2rcd13ifvqd70","pricing_plan_id":"free"},{"bike_id":"1a912ba7-bfbf-4fc6-9eda-b813a59f3e94","system_id":"levelo_inurba_marseille","lat":43.302008,"lon":5.394694,"is_reserved":false,"is_disabled":false,"rental_uris":{"android":"levelo://app?vid=1a912ba7-bfbf-4fc6-9eda-b813a59f3e94","ios":"levelo://app?vid=1a912ba7-bfbf-4fc6-9eda-b813a59f3e94"},"vehicle_type_id":"4","last_reported":1700575622,"current_range_meters":13600,"station_id":"ce4bh0p2rcd13ifvqd70","pricing_plan_id":"free"},{"bike_id":"bdca4974-6f23-428d-b7ef-086113be8da0","system_id":"levelo_inurba_marseille","lat":43.294162,"lon":5.386292,"is_reserved":false,"is_disabled":false,"rental_uris":{"android":"levelo://app?vid=bdca4974-6f23-428d-b7ef-086113be8da0","ios":"levelo://app?vid=bdca4974-6f23-428d-b7ef-086113be8da0"},"vehicle_type_id":"4","last_reported":1700575622,"current_range_meters":11600,"station_id":"ce4bh2h2rcd13ifvqdh0","pricing_plan_id":"free"},{"bike_id":"290780b4-9992-47b8-b0a8-25bc5870c488","system_id":"levelo_inurba_marseille","lat":43.28939,"lon":5.36388,"is_reserved":false,"is_disabled":false,"rental_uris":{"android":"levelo://app?vid=290780b4-9992-47b8-b0a8-25bc5870c488","ios":"levelo://app?vid=290780b4-9992-47b8-b0a8-25bc5870c488"},"vehicle_type_id":"4","last_reported":1700575622,"current_range_meters":4000,"station_id":"ce4bhc92rcd13ifvqetg","pricing_plan_id":"free"},{"bike_id":"2d9c4bc3-af39-44e3-a4f4-640bd07aae00","system_id":"levelo_inurba_marseille","lat":43.304296,"lon":5.397513,"is_reserved":false,"is_disabled":false,"rental_uris":{"android":"levelo://app?vid=2d9c4bc3-af39-44e3-a4f4-640bd07aae00","ios":"levelo://app?vid=2d9c4bc3-af39-44e3-a4f4-640bd07aae00"},"vehicle_type_id":"4","last_reported":1700575622,"current_range_meters":10800,"station_id":"ce4bh092rcd13ifvqd20","pricing_plan_id":"free"},{"bike_id":"6289695a-cc3e-4b24-8ca5-8d546eabaa93","system_id":"levelo_inurba_marseille","lat":43.292644,"lon":5.384257,"is_reserved":false,"is_disabled":false,"rental_uris":{"android":"levelo://app?vid=6289695a-cc3e-4b24-8ca5-8d546eabaa93","ios":"levelo://app?vid=6289695a-cc3e-4b24-8ca5-8d546eabaa93"},"vehicle_type_id":"4","last_reported":1700575622,"current_range_meters":13600,"station_id":"ce4bh692rcd13ifvqea0","pricing_plan_id":"free"},{"bike_id":"e1ec537f-77bf-40d9-b60d-8daff2ddae3a","system_id":"levelo_inurba_marseille","lat":43.29007,"lon":5.35618,"is_reserved":false,"is_disabled":false,"rental_uris":{"android":"levelo://app?vid=e1ec537f-77bf-40d9-b60d-8daff2ddae3a","ios":"levelo://app?vid=e1ec537f-77bf-40d9-b60d-8daff2ddae3a"},"vehicle_type_id":"4","last_reported":1700575622,"current_range_meters":0,"station_id":"ce4bhb92rcd13ifvqen0","pricing_plan_id":"free"},{"bike_id":"4c88117c-00cb-4854-8c9f-7ac84df87e70","system_id":"levelo_inurba_marseille","lat":43.290104,"lon":5.356111,"is_reserved":false,"is_disabled":false,"rental_uris":{"android":"levelo://app?vid=4c88117c-00cb-4854-8c9f-7ac84df87e70","ios":"levelo://app?vid=4c88117c-00cb-4854-8c9f-7ac84df87e70"},"vehicle_type_id":"4","last_reported":1700575622,"current_range_meters":4000,"station_id":"ce4bhb92rcd13ifvqen0","pricing_plan_id":"free"},{"bike_id":"73797b5e-0116-48db-9bb7-4592904f3d1c","system_id":"levelo_inurba_marseille","lat":43.29004,"lon":5.35614,"is_reserved":false,"is_disabled":false,"rental_uris":{"android":"levelo://app?vid=73797b5e-0116-48db-9bb7-4592904f3d1c","ios":"levelo://app?vid=73797b5e-0116-48db-9bb7-4592904f3d1c"},"vehicle_type_id":"4","last_reported":1700575622,"current_range_meters":3200,"station_id":"ce4bhb92rcd13ifvqen0","pricing_plan_id":"free"},{"bike_id":"230361b1-bac5-4d7d-a60e-9b2f2891ee92","system_id":"levelo_inurba_marseille","lat":43.29004,"lon":5.35611,"is_reserved":false,"is_disabled":false,"rental_uris":{"android":"levelo://app?vid=230361b1-bac5-4d7d-a60e-9b2f2891ee92","ios":"levelo://app?vid=230361b1-bac5-4d7d-a60e-9b2f2891ee92"},"vehicle_type_id":"4","last_reported":1700575622,"current_range_meters":0,"station_id":"ce4bhb92rcd13ifvqen0","pricing_plan_id":"free"},{"bike_id":"b35681b0-fee1-4c25-924d-78849226cb6d","system_id":"levelo_inurba_marseille","lat":43.290995,"lon":5.381361,"is_reserved":false,"is_disabled":false,"rental_uris":{"android":"levelo://app?vid=b35681b0-fee1-4c25-924d-78849226cb6d","ios":"levelo://app?vid=b35681b0-fee1-4c25-924d-78849226cb6d"},"vehicle_type_id":"4","last_reported":1700575622,"current_range_meters":20800,"station_id":"ce4bh512rcd13ifvqe2g","pricing_plan_id":"free"},{"bike_id":"afc2e1e6-1165-4c0c-abf2-63dfad0bc962","system_id":"levelo_inurba_marseille","lat":43.290995,"lon":5.381361,"is_reserved":false,"is_disabled":false,"rental_uris":{"android":"levelo://app?vid=afc2e1e6-1165-4c0c-abf2-63dfad0bc962","ios":"levelo://app?vid=afc2e1e6-1165-4c0c-abf2-63dfad0bc962"},"vehicle_type_id":"4","last_reported":1700575622,"current_range_meters":17200,"station_id":"ce4bh512rcd13ifvqe2g","pricing_plan_id":"free"},{"bike_id":"1959f95a-985d-4453-b479-7e126dc8fc69","system_id":"levelo_inurba_marseille","lat":43.297867,"lon":5.393497,"is_reserved":false,"is_disabled":false,"rental_uris":{"android":"levelo://app?vid=1959f95a-985d-4453-b479-7e126dc8fc69","ios":"levelo://app?vid=1959f95a-985d-4453-b479-7e126dc8fc69"},"vehicle_type_id":"4","last_reported":1700575622,"current_range_meters":13600,"station_id":"chh1huq6cuj3fo74tm60","pricing_plan_id":"free"},{"bike_id":"aad9a792-6976-4183-919a-aef819ff2e25","system_id":"levelo_inurba_marseille","lat":43.31251,"lon":5.40162,"is_reserved":false,"is_disabled":false,"rental_uris":{"android":"levelo://app?vid=aad9a792-6976-4183-919a-aef819ff2e25","ios":"levelo://app?vid=aad9a792-6976-4183-919a-aef819ff2e25"},"vehicle_type_id":"4","last_reported":1700575622,"current_range_meters":3200,"station_id":"","pricing_plan_id":"free"},{"bike_id":"0c6af13f-3533-4871-8ce1-4e7885a234e5","system_id":"levelo_inurba_marseille","lat":43.312805,"lon":5.401717,"is_reserved":false,"is_disabled":false,"rental_uris":{"android":"levelo://app?vid=0c6af13f-3533-4871-8ce1-4e7885a234e5","ios":"levelo://app?vid=0c6af13f-3533-4871-8ce1-4e7885a234e5"},"vehicle_type_id":"4","last_reported":1700575622,"current_range_meters":10800,"station_id":"","pricing_plan_id":"free"},{"bike_id":"d0a7927f-5e40-430e-ac9f-cb48ddc9024a","system_id":"levelo_inurba_marseille","lat":43.33747,"lon":5.37449,"is_reserved":false,"is_disabled":false,"rental_uris":{"android":"levelo://app?vid=d0a7927f-5e40-430e-ac9f-cb48ddc9024a","ios":"levelo://app?vid=d0a7927f-5e40-430e-ac9f-cb48ddc9024a"},"vehicle_type_id":"4","last_reported":1700575622,"current_range_meters":22400,"station_id":"","pricing_plan_id":"free"},{"bike_id":"44b73d44-b3fe-42fc-bcde-c373db6421e3","system_id":"levelo_inurba_marseille","lat":43.30634,"lon":5.40068,"is_reserved":false,"is_disabled":false,"rental_uris":{"android":"levelo://app?vid=44b73d44-b3fe-42fc-bcde-c373db6421e3","ios":"levelo://app?vid=44b73d44-b3fe-42fc-bcde-c373db6421e3"},"vehicle_type_id":"4","last_reported":1700575622,"current_range_meters":19200,"station_id":"ce4bh112rcd13ifvqda0","pricing_plan_id":"free"},{"bike_id":"2f6f1ef5-4847-453c-a2d4-4bb9327e3977","system_id":"levelo_inurba_marseille","lat":43.306369,"lon":5.400771,"is_reserved":false,"is_disabled":false,"rental_uris":{"android":"levelo://app?vid=2f6f1ef5-4847-453c-a2d4-4bb9327e3977","ios":"levelo://app?vid=2f6f1ef5-4847-453c-a2d4-4bb9327e3977"},"vehicle_type_id":"4","last_reported":1700575622,"current_range_meters":19200,"station_id":"ce4bh112rcd13ifvqda0","pricing_plan_id":"free"},{"bike_id":"0a0707e5-4b21-48b5-862e-f1a38e8d666f","system_id":"levelo_inurba_marseille","lat":43.337586,"lon":5.374543,"is_reserved":false,"is_disabled":false,"rental_uris":{"android":"levelo://app?vid=0a0707e5-4b21-48b5-862e-f1a38e8d666f","ios":"levelo://app?vid=0a0707e5-4b21-48b5-862e-f1a38e8d666f"},"vehicle_type_id":"4","last_reported":1700575622,"current_range_meters":30000,"station_id":"","pricing_plan_id":"free"},{"bike_id":"e688f7cb-f8bc-439e-91c0-23e0584d4649","system_id":"levelo_inurba_marseille","lat":43.312609,"lon":5.401662,"is_reserved":false,"is_disabled":false,"rental_uris":{"android":"levelo://app?vid=e688f7cb-f8bc-439e-91c0-23e0584d4649","ios":"levelo://app?vid=e688f7cb-f8bc-439e-91c0-23e0584d4649"},"vehicle_type_id":"4","last_reported":1700575622,"current_range_meters":24000,"station_id":"ce4bh092rcd13ifvqd30","pricing_plan_id":"free"},{"bike_id":"3e4696b2-1aa4-4bc7-9672-2fb461ce7fb9","system_id":"levelo_inurba_marseille","lat":43.306412,"lon":5.401035,"is_reserved":false,"is_disabled":false,"rental_uris":{"android":"levelo://app?vid=3e4696b2-1aa4-4bc7-9672-2fb461ce7fb9","ios":"levelo://app?vid=3e4696b2-1aa4-4bc7-9672-2fb461ce7fb9"},"vehicle_type_id":"4","last_reported":1700575622,"current_range_meters":22000,"station_id":"ce4bh112rcd13ifvqda0","pricing_plan_id":"free"},{"bike_id":"19323406-d2a7-4859-8276-d87779517364","system_id":"levelo_inurba_marseille","lat":43.33778,"lon":5.3745,"is_reserved":false,"is_disabled":false,"rental_uris":{"android":"levelo://app?vid=19323406-d2a7-4859-8276-d87779517364","ios":"levelo://app?vid=19323406-d2a7-4859-8276-d87779517364"},"vehicle_type_id":"4","last_reported":1700575622,"current_range_meters":31200,"station_id":"","pricing_plan_id":"free"},{"bike_id":"cf5a45fa-57b2-475a-be67-3a354fc40522","system_id":"levelo_inurba_marseille","lat":43.301117,"lon":5.398795,"is_reserved":false,"is_disabled":false,"rental_uris":{"android":"levelo://app?vid=cf5a45fa-57b2-475a-be67-3a354fc40522","ios":"levelo://app?vid=cf5a45fa-57b2-475a-be67-3a354fc40522"},"vehicle_type_id":"4","last_reported":1700575622,"current_range_meters":22400,"station_id":"ce4bh0h2rcd13ifvqd40","pricing_plan_id":"free"},{"bike_id":"fe649ea7-174f-4825-97df-28b2b5e264eb","system_id":"levelo_inurba_marseille","lat":43.301117,"lon":5.398795,"is_reserved":false,"is_disabled":false,"rental_uris":{"android":"levelo://app?vid=fe649ea7-174f-4825-97df-28b2b5e264eb","ios":"levelo://app?vid=fe649ea7-174f-4825-97df-28b2b5e264eb"},"vehicle_type_id":"4","last_reported":1700575622,"current_range_meters":31200,"station_id":"ce4bh0h2rcd13ifvqd40","pricing_plan_id":"free"},{"bike_id":"9f5e23dd-5bd1-4388-9640-5f02c4fcdf73","system_id":"levelo_inurba_marseille","lat":43.301117,"lon":5.398795,"is_reserved":false,"is_disabled":false,"rental_uris":{"android":"levelo://app?vid=9f5e23dd-5bd1-4388-9640-5f02c4fcdf73","ios":"levelo://app?vid=9f5e23dd-5bd1-4388-9640-5f02c4fcdf73"},"vehicle_type_id":"4","last_reported":1700575622,"current_range_meters":30000,"station_id":"ce4bh0h2rcd13ifvqd40","pricing_plan_id":"free"},{"bike_id":"c4fa8773-f4a5-46ab-9f15-78867acffc50","system_id":"levelo_inurba_marseille","lat":43.30129,"lon":5.39868,"is_reserved":false,"is_disabled":false,"rental_uris":{"android":"levelo://app?vid=c4fa8773-f4a5-46ab-9f15-78867acffc50","ios":"levelo://app?vid=c4fa8773-f4a5-46ab-9f15-78867acffc50"},"vehicle_type_id":"4","last_reported":1700575622,"current_range_meters":15200,"station_id":"ce4bh0h2rcd13ifvqd40","pricing_plan_id":"free"},{"bike_id":"86372c97-87fa-46d5-ac88-f31e27461c17","system_id":"levelo_inurba_marseille","lat":43.286591,"lon":5.363346,"is_reserved":false,"is_disabled":false,"rental_uris":{"android":"levelo://app?vid=86372c97-87fa-46d5-ac88-f31e27461c17","ios":"levelo://app?vid=86372c97-87fa-46d5-ac88-f31e27461c17"},"vehicle_type_id":"4","last_reported":1700575622,"current_range_meters":24800,"station_id":"ce4bhah2rcd13ifvqej0","pricing_plan_id":"free"},{"bike_id":"85fcbcf3-92c7-44ca-ae3c-af261abb5be2","system_id":"levelo_inurba_marseille","lat":43.28726,"lon":5.36085,"is_reserved":false,"is_disabled":false,"rental_uris":{"android":"levelo://app?vid=85fcbcf3-92c7-44ca-ae3c-af261abb5be2","ios":"levelo://app?vid=85fcbcf3-92c7-44ca-ae3c-af261abb5be2"},"vehicle_type_id":"4","last_reported":1700575622,"current_range_meters":28800,"station_id":"cki0cbj6b192h4jlfktg","pricing_plan_id":"free"},{"bike_id":"9159da8e-22c0-4e9b-9f48-83e3eab46d9c","system_id":"levelo_inurba_marseille","lat":43.286961,"lon":5.373785,"is_reserved":false,"is_disabled":false,"rental_uris":{"android":"levelo://app?vid=9159da8e-22c0-4e9b-9f48-83e3eab46d9c","ios":"levelo://app?vid=9159da8e-22c0-4e9b-9f48-83e3eab46d9c"},"vehicle_type_id":"4","last_reported":1700575622,"current_range_meters":29200,"station_id":"ce4bh3p2rcd13ifvqdq0","pricing_plan_id":"free"},{"bike_id":"514f7b66-33ec-484a-be5c-1341ac26bbcb","system_id":"levelo_inurba_marseille","lat":43.286961,"lon":5.373785,"is_reserved":false,"is_disabled":false,"rental_uris":{"android":"levelo://app?vid=514f7b66-33ec-484a-be5c-1341ac26bbcb","ios":"levelo://app?vid=514f7b66-33ec-484a-be5c-1341ac26bbcb"},"vehicle_type_id":"4","last_reported":1700575622,"current_range_meters":11200,"station_id":"ce4bh3p2rcd13ifvqdq0","pricing_plan_id":"free"},{"bike_id":"125d96e9-2e2d-43d4-82e4-50205602ddb3","system_id":"levelo_inurba_marseille","lat":43.2893,"lon":5.38394,"is_reserved":false,"is_disabled":false,"rental_uris":{"android":"levelo://app?vid=125d96e9-2e2d-43d4-82e4-50205602ddb3","ios":"levelo://app?vid=125d96e9-2e2d-43d4-82e4-50205602ddb3"},"vehicle_type_id":"4","last_reported":1700575622,"current_range_meters":30400,"station_id":"ce4bh612rcd13ifvqe6g","pricing_plan_id":"free"},{"bike_id":"72a09bd1-0c1e-4e12-956d-ba4e21d40b00","system_id":"levelo_inurba_marseille","lat":43.289275,"lon":5.383927,"is_reserved":false,"is_disabled":false,"rental_uris":{"android":"levelo://app?vid=72a09bd1-0c1e-4e12-956d-ba4e21d40b00","ios":"levelo://app?vid=72a09bd1-0c1e-4e12-956d-ba4e21d40b00"},"vehicle_type_id":"4","last_reported":1700575622,"current_range_meters":20000,"station_id":"ce4bh612rcd13ifvqe6g","pricing_plan_id":"free"},{"bike_id":"a892849c-78ee-4a47-9c27-a61559342063","system_id":"levelo_inurba_marseille","lat":43.302759,"lon":5.400793,"is_reserved":false,"is_disabled":false,"rental_uris":{"android":"levelo://app?vid=a892849c-78ee-4a47-9c27-a61559342063","ios":"levelo://app?vid=a892849c-78ee-4a47-9c27-a61559342063"},"vehicle_type_id":"4","last_reported":1700575622,"current_range_meters":26400,"station_id":"ce4bgvh2rcd13ifvqcs0","pricing_plan_id":"free"},{"bike_id":"061252c8-9dda-4eca-a0c4-4497343764af","system_id":"levelo_inurba_marseille","lat":43.29026,"lon":5.38639,"is_reserved":false,"is_disabled":false,"rental_uris":{"android":"levelo://app?vid=061252c8-9dda-4eca-a0c4-4497343764af","ios":"levelo://app?vid=061252c8-9dda-4eca-a0c4-4497343764af"},"vehicle_type_id":"4","last_reported":1700575622,"current_range_meters":2400,"station_id":"ce4bh4p2rcd13ifvqe0g","pricing_plan_id":"free"},{"bike_id":"f02973e8-17fd-4c10-ab4d-c5228e41d218","system_id":"levelo_inurba_marseille","lat":43.302759,"lon":5.400793,"is_reserved":false,"is_disabled":false,"rental_uris":{"android":"levelo://app?vid=f02973e8-17fd-4c10-ab4d-c5228e41d218","ios":"levelo://app?vid=f02973e8-17fd-4c10-ab4d-c5228e41d218"},"vehicle_type_id":"4","last_reported":1700575622,"current_range_meters":23200,"station_id":"ce4bgvh2rcd13ifvqcs0","pricing_plan_id":"free"},{"bike_id":"e20842cd-8eea-4741-8c73-0475dbb8d81a","system_id":"levelo_inurba_marseille","lat":43.28606,"lon":5.37062,"is_reserved":false,"is_disabled":false,"rental_uris":{"android":"levelo://app?vid=e20842cd-8eea-4741-8c73-0475dbb8d81a","ios":"levelo://app?vid=e20842cd-8eea-4741-8c73-0475dbb8d81a"},"vehicle_type_id":"4","last_reported":1700575622,"current_range_meters":12800,"station_id":"ce4bht12rcd13ifvqi60","pricing_plan_id":"free"},{"bike_id":"5defdcbf-5dff-4963-9cf9-883b30c61033","system_id":"levelo_inurba_marseille","lat":43.287601,"lon":5.379933,"is_reserved":false,"is_disabled":false,"rental_uris":{"android":"levelo://app?vid=5defdcbf-5dff-4963-9cf9-883b30c61033","ios":"levelo://app?vid=5defdcbf-5dff-4963-9cf9-883b30c61033"},"vehicle_type_id":"4","last_reported":1700575622,"current_range_meters":17200,"station_id":"","pricing_plan_id":"free"},{"bike_id":"441b57c7-37fe-4385-8111-172b1693f7be","system_id":"levelo_inurba_marseille","lat":43.287185,"lon":5.379373,"is_reserved":false,"is_disabled":false,"rental_uris":{"android":"levelo://app?vid=441b57c7-37fe-4385-8111-172b1693f7be","ios":"levelo://app?vid=441b57c7-37fe-4385-8111-172b1693f7be"},"vehicle_type_id":"4","last_reported":1700575622,"current_range_meters":10400,"station_id":"ce4bh9p2rcd13ifvqec0","pricing_plan_id":"free"},{"bike_id":"7950221f-ed1a-4c01-8e5b-5d2cd3d48d50","system_id":"levelo_inurba_marseille","lat":43.287185,"lon":5.379373,"is_reserved":false,"is_disabled":false,"rental_uris":{"android":"levelo://app?vid=7950221f-ed1a-4c01-8e5b-5d2cd3d48d50","ios":"levelo://app?vid=7950221f-ed1a-4c01-8e5b-5d2cd3d48d50"},"vehicle_type_id":"4","last_reported":1700575622,"current_range_meters":22000,"station_id":"ce4bh9p2rcd13ifvqec0","pricing_plan_id":"free"},{"bike_id":"33fd50e2-6b39-4d42-aad4-feb13a932c2c","system_id":"levelo_inurba_marseille","lat":43.29203,"lon":5.39322,"is_reserved":false,"is_disabled":false,"rental_uris":{"android":"levelo://app?vid=33fd50e2-6b39-4d42-aad4-feb13a932c2c","ios":"levelo://app?vid=33fd50e2-6b39-4d42-aad4-feb13a932c2c"},"vehicle_type_id":"4","last_reported":1700575622,"current_range_meters":11600,"station_id":"ce4bh192rcd13ifvqdd0","pricing_plan_id":"free"},{"bike_id":"de1fd897-c6c6-4280-9366-feaa2fc03aeb","system_id":"levelo_inurba_marseille","lat":43.284534,"lon":5.358662,"is_reserved":false,"is_disabled":false,"rental_uris":{"android":"levelo://app?vid=de1fd897-c6c6-4280-9366-feaa2fc03aeb","ios":"levelo://app?vid=de1fd897-c6c6-4280-9366-feaa2fc03aeb"},"vehicle_type_id":"4","last_reported":1700575622,"current_range_meters":13200,"station_id":"ce4bhah2rcd13ifvqei0","pricing_plan_id":"free"},{"bike_id":"4a40b4a9-e10b-4654-8c45-b3e8598373c1","system_id":"levelo_inurba_marseille","lat":43.284534,"lon":5.358662,"is_reserved":false,"is_disabled":false,"rental_uris":{"android":"levelo://app?vid=4a40b4a9-e10b-4654-8c45-b3e8598373c1","ios":"levelo://app?vid=4a40b4a9-e10b-4654-8c45-b3e8598373c1"},"vehicle_type_id":"4","last_reported":1700575622,"current_range_meters":12800,"station_id":"ce4bhah2rcd13ifvqei0","pricing_plan_id":"free"},{"bike_id":"88bb81a1-f30b-46c6-b403-9167110de5cb","system_id":"levelo_inurba_marseille","lat":43.284534,"lon":5.358662,"is_reserved":false,"is_disabled":false,"rental_uris":{"android":"levelo://app?vid=88bb81a1-f30b-46c6-b403-9167110de5cb","ios":"levelo://app?vid=88bb81a1-f30b-46c6-b403-9167110de5cb"},"vehicle_type_id":"4","last_reported":1700575622,"current_range_meters":24000,"station_id":"ce4bhah2rcd13ifvqei0","pricing_plan_id":"free"},{"bike_id":"f30ded8b-ad7e-4f79-8c0a-0ca12ecabaca","system_id":"levelo_inurba_marseille","lat":43.33515,"lon":5.3917,"is_reserved":false,"is_disabled":false,"rental_uris":{"android":"levelo://app?vid=f30ded8b-ad7e-4f79-8c0a-0ca12ecabaca","ios":"levelo://app?vid=f30ded8b-ad7e-4f79-8c0a-0ca12ecabaca"},"vehicle_type_id":"4","last_reported":1700575622,"current_range_meters":22400,"station_id":"","pricing_plan_id":"free"},{"bike_id":"f52ca6f9-01b6-44e1-af98-c4760b21268b","system_id":"levelo_inurba_marseille","lat":43.294314,"lon":5.397498,"is_reserved":false,"is_disabled":false,"rental_uris":{"android":"levelo://app?vid=f52ca6f9-01b6-44e1-af98-c4760b21268b","ios":"levelo://app?vid=f52ca6f9-01b6-44e1-af98-c4760b21268b"},"vehicle_type_id":"4","last_reported":1700575622,"current_range_meters":3600,"station_id":"ce4bh3h2rcd13ifvqdo0","pricing_plan_id":"free"},{"bike_id":"93591452-78a8-4deb-aa6d-58319e661151","system_id":"levelo_inurba_marseille","lat":43.286086,"lon":5.351127,"is_reserved":false,"is_disabled":false,"rental_uris":{"android":"levelo://app?vid=93591452-78a8-4deb-aa6d-58319e661151","ios":"levelo://app?vid=93591452-78a8-4deb-aa6d-58319e661151"},"vehicle_type_id":"4","last_reported":1700575622,"current_range_meters":26800,"station_id":"ce4bhch2rcd13ifvqeug","pricing_plan_id":"free"},{"bike_id":"dfaa0242-75d4-427e-aaae-0ff00cbaf7d0","system_id":"levelo_inurba_marseille","lat":43.29576,"lon":5.39962,"is_reserved":false,"is_disabled":false,"rental_uris":{"android":"levelo://app?vid=dfaa0242-75d4-427e-aaae-0ff00cbaf7d0","ios":"levelo://app?vid=dfaa0242-75d4-427e-aaae-0ff00cbaf7d0"},"vehicle_type_id":"4","last_reported":1700575622,"current_range_meters":0,"station_id":"ce4bh312rcd13ifvqdj0","pricing_plan_id":"free"},{"bike_id":"a6f6ea90-abe9-4a70-94d1-ea14ee2c65d1","system_id":"levelo_inurba_marseille","lat":43.28408,"lon":5.37521,"is_reserved":false,"is_disabled":false,"rental_uris":{"android":"levelo://app?vid=a6f6ea90-abe9-4a70-94d1-ea14ee2c65d1","ios":"levelo://app?vid=a6f6ea90-abe9-4a70-94d1-ea14ee2c65d1"},"vehicle_type_id":"4","last_reported":1700575622,"current_range_meters":0,"station_id":"ce4bh412rcd13ifvqds0","pricing_plan_id":"free"},{"bike_id":"35ce8031-6886-419d-bb30-f50d162db667","system_id":"levelo_inurba_marseille","lat":43.319179,"lon":5.407725,"is_reserved":false,"is_disabled":false,"rental_uris":{"android":"levelo://app?vid=35ce8031-6886-419d-bb30-f50d162db667","ios":"levelo://app?vid=35ce8031-6886-419d-bb30-f50d162db667"},"vehicle_type_id":"4","last_reported":1700575622,"current_range_meters":11600,"station_id":"ce4bhq12rcd13ifvqhig","pricing_plan_id":"free"},{"bike_id":"35b19955-8c3e-4374-b999-0b151664b0e8","system_id":"levelo_inurba_marseille","lat":43.33237,"lon":5.3985,"is_reserved":false,"is_disabled":false,"rental_uris":{"android":"levelo://app?vid=35b19955-8c3e-4374-b999-0b151664b0e8","ios":"levelo://app?vid=35b19955-8c3e-4374-b999-0b151664b0e8"},"vehicle_type_id":"4","last_reported":1700575622,"current_range_meters":0,"station_id":"","pricing_plan_id":"free"},{"bike_id":"76ef9d80-f23d-49dc-b1a7-ff2ca6c37f35","system_id":"levelo_inurba_marseille","lat":43.284793,"lon":5.384113,"is_reserved":false,"is_disabled":false,"rental_uris":{"android":"levelo://app?vid=76ef9d80-f23d-49dc-b1a7-ff2ca6c37f35","ios":"levelo://app?vid=76ef9d80-f23d-49dc-b1a7-ff2ca6c37f35"},"vehicle_type_id":"4","last_reported":1700575622,"current_range_meters":25600,"station_id":"ce4bh512rcd13ifvqe3g","pricing_plan_id":"free"},{"bike_id":"cd173f07-3d62-4675-9bff-2c9f2eaa4978","system_id":"levelo_inurba_marseille","lat":43.284793,"lon":5.384113,"is_reserved":false,"is_disabled":false,"rental_uris":{"android":"levelo://app?vid=cd173f07-3d62-4675-9bff-2c9f2eaa4978","ios":"levelo://app?vid=cd173f07-3d62-4675-9bff-2c9f2eaa4978"},"vehicle_type_id":"4","last_reported":1700575622,"current_range_meters":6400,"station_id":"ce4bh512rcd13ifvqe3g","pricing_plan_id":"free"},{"bike_id":"d8ea7ff8-afef-4f10-9d57-43b2f12077cb","system_id":"levelo_inurba_marseille","lat":43.283494,"lon":5.380945,"is_reserved":false,"is_disabled":false,"rental_uris":{"android":"levelo://app?vid=d8ea7ff8-afef-4f10-9d57-43b2f12077cb","ios":"levelo://app?vid=d8ea7ff8-afef-4f10-9d57-43b2f12077cb"},"vehicle_type_id":"4","last_reported":1700575622,"current_range_meters":17200,"station_id":"ce4bh412rcd13ifvqdr0","pricing_plan_id":"free"},{"bike_id":"a7e78337-8acf-4967-bb4e-cf74c287ca7f","system_id":"levelo_inurba_marseille","lat":43.283498,"lon":5.380948,"is_reserved":false,"is_disabled":false,"rental_uris":{"android":"levelo://app?vid=a7e78337-8acf-4967-bb4e-cf74c287ca7f","ios":"levelo://app?vid=a7e78337-8acf-4967-bb4e-cf74c287ca7f"},"vehicle_type_id":"4","last_reported":1700575622,"current_range_meters":12800,"station_id":"ce4bh412rcd13ifvqdr0","pricing_plan_id":"free"},{"bike_id":"dc6c3014-6a61-4619-af0e-ad1d3a758931","system_id":"levelo_inurba_marseille","lat":43.283498,"lon":5.380948,"is_reserved":false,"is_disabled":false,"rental_uris":{"android":"levelo://app?vid=dc6c3014-6a61-4619-af0e-ad1d3a758931","ios":"levelo://app?vid=dc6c3014-6a61-4619-af0e-ad1d3a758931"},"vehicle_type_id":"4","last_reported":1700575622,"current_range_meters":12800,"station_id":"ce4bh412rcd13ifvqdr0","pricing_plan_id":"free"},{"bike_id":"d9809cf1-6049-409f-8450-a27713587162","system_id":"levelo_inurba_marseille","lat":43.283455,"lon":5.38117,"is_reserved":false,"is_disabled":false,"rental_uris":{"android":"levelo://app?vid=d9809cf1-6049-409f-8450-a27713587162","ios":"levelo://app?vid=d9809cf1-6049-409f-8450-a27713587162"},"vehicle_type_id":"4","last_reported":1700575622,"current_range_meters":14400,"station_id":"ce4bh412rcd13ifvqdr0","pricing_plan_id":"free"},{"bike_id":"1f5b1714-2eb7-4ce5-ae08-954d98d255c6","system_id":"levelo_inurba_marseille","lat":43.28274,"lon":5.35063,"is_reserved":false,"is_disabled":false,"rental_uris":{"android":"levelo://app?vid=1f5b1714-2eb7-4ce5-ae08-954d98d255c6","ios":"levelo://app?vid=1f5b1714-2eb7-4ce5-ae08-954d98d255c6"},"vehicle_type_id":"4","last_reported":1700575622,"current_range_meters":0,"station_id":"ce4bhbp2rcd13ifvqerg","pricing_plan_id":"free"},{"bike_id":"b0253230-b53b-4dd1-8be8-74e612820f2f","system_id":"levelo_inurba_marseille","lat":43.28039,"lon":5.369297,"is_reserved":false,"is_disabled":false,"rental_uris":{"android":"levelo://app?vid=b0253230-b53b-4dd1-8be8-74e612820f2f","ios":"levelo://app?vid=b0253230-b53b-4dd1-8be8-74e612820f2f"},"vehicle_type_id":"4","last_reported":1700575622,"current_range_meters":24800,"station_id":"ce4bha12rcd13ifvqef0","pricing_plan_id":"free"},{"bike_id":"531e3f70-ada0-47c5-8657-9753bf52765a","system_id":"levelo_inurba_marseille","lat":43.280382,"lon":5.369291,"is_reserved":false,"is_disabled":false,"rental_uris":{"android":"levelo://app?vid=531e3f70-ada0-47c5-8657-9753bf52765a","ios":"levelo://app?vid=531e3f70-ada0-47c5-8657-9753bf52765a"},"vehicle_type_id":"4","last_reported":1700575622,"current_range_meters":27600,"station_id":"ce4bha12rcd13ifvqef0","pricing_plan_id":"free"},{"bike_id":"ba2baf8e-a137-4f39-a597-eca2d0df35f3","system_id":"levelo_inurba_marseille","lat":43.29049,"lon":5.399532,"is_reserved":false,"is_disabled":false,"rental_uris":{"android":"levelo://app?vid=ba2baf8e-a137-4f39-a597-eca2d0df35f3","ios":"levelo://app?vid=ba2baf8e-a137-4f39-a597-eca2d0df35f3"},"vehicle_type_id":"4","last_reported":1700575622,"current_range_meters":0,"station_id":"ce4bh392rcd13ifvqdm0","pricing_plan_id":"free"},{"bike_id":"198b0434-2d41-4f2f-bcb2-9e379e54adc4","system_id":"levelo_inurba_marseille","lat":43.283502,"lon":5.386471,"is_reserved":false,"is_disabled":false,"rental_uris":{"android":"levelo://app?vid=198b0434-2d41-4f2f-bcb2-9e379e54adc4","ios":"levelo://app?vid=198b0434-2d41-4f2f-bcb2-9e379e54adc4"},"vehicle_type_id":"4","last_reported":1700575622,"current_range_meters":3200,"station_id":"ce4bh492rcd13ifvqdvg","pricing_plan_id":"free"},{"bike_id":"f34a1dc8-df46-484a-b680-02880a9f7845","system_id":"levelo_inurba_marseille","lat":43.281044,"lon":5.378308,"is_reserved":false,"is_disabled":false,"rental_uris":{"android":"levelo://app?vid=f34a1dc8-df46-484a-b680-02880a9f7845","ios":"levelo://app?vid=f34a1dc8-df46-484a-b680-02880a9f7845"},"vehicle_type_id":"4","last_reported":1700575622,"current_range_meters":28400,"station_id":"ce4bha12rcd13ifvqee0","pricing_plan_id":"free"},{"bike_id":"a3f449d0-f355-4ac7-a319-02d14118a46f","system_id":"levelo_inurba_marseille","lat":43.281044,"lon":5.378308,"is_reserved":false,"is_disabled":false,"rental_uris":{"android":"levelo://app?vid=a3f449d0-f355-4ac7-a319-02d14118a46f","ios":"levelo://app?vid=a3f449d0-f355-4ac7-a319-02d14118a46f"},"vehicle_type_id":"4","last_reported":1700575622,"current_range_meters":13600,"station_id":"ce4bha12rcd13ifvqee0","pricing_plan_id":"free"},{"bike_id":"02538fab-9421-4126-9687-ce622b7371ba","system_id":"levelo_inurba_marseille","lat":43.281044,"lon":5.378308,"is_reserved":false,"is_disabled":false,"rental_uris":{"android":"levelo://app?vid=02538fab-9421-4126-9687-ce622b7371ba","ios":"levelo://app?vid=02538fab-9421-4126-9687-ce622b7371ba"},"vehicle_type_id":"4","last_reported":1700575622,"current_range_meters":19600,"station_id":"ce4bha12rcd13ifvqee0","pricing_plan_id":"free"},{"bike_id":"4ba19db7-c6d9-4690-a699-b459b6d7af48","system_id":"levelo_inurba_marseille","lat":43.304137,"lon":5.412751,"is_reserved":false,"is_disabled":false,"rental_uris":{"android":"levelo://app?vid=4ba19db7-c6d9-4690-a699-b459b6d7af48","ios":"levelo://app?vid=4ba19db7-c6d9-4690-a699-b459b6d7af48"},"vehicle_type_id":"4","last_reported":1700575622,"current_range_meters":0,"station_id":"ce4bhop2rcd13ifvqh8g","pricing_plan_id":"free"},{"bike_id":"a8dc0ba8-2a16-49de-bafd-be9d0493b009","system_id":"levelo_inurba_marseille","lat":43.279087,"lon":5.380114,"is_reserved":false,"is_disabled":false,"rental_uris":{"android":"levelo://app?vid=a8dc0ba8-2a16-49de-bafd-be9d0493b009","ios":"levelo://app?vid=a8dc0ba8-2a16-49de-bafd-be9d0493b009"},"vehicle_type_id":"4","last_reported":1700575622,"current_range_meters":11600,"station_id":"ce4bhf92rcd13ifvqf50","pricing_plan_id":"free"},{"bike_id":"f6ecbae3-f66e-42e6-8db3-7e298cf76b33","system_id":"levelo_inurba_marseille","lat":43.275625,"lon":5.384392,"is_reserved":false,"is_disabled":false,"rental_uris":{"android":"levelo://app?vid=f6ecbae3-f66e-42e6-8db3-7e298cf76b33","ios":"levelo://app?vid=f6ecbae3-f66e-42e6-8db3-7e298cf76b33"},"vehicle_type_id":"4","last_reported":1700575622,"current_range_meters":7200,"station_id":"ce4bhh92rcd13ifvqfi0","pricing_plan_id":"free"},{"bike_id":"b928f910-280e-43d3-aa67-d05f80b9b5c9","system_id":"levelo_inurba_marseille","lat":43.287154,"lon":5.399979,"is_reserved":false,"is_disabled":false,"rental_uris":{"android":"levelo://app?vid=b928f910-280e-43d3-aa67-d05f80b9b5c9","ios":"levelo://app?vid=b928f910-280e-43d3-aa67-d05f80b9b5c9"},"vehicle_type_id":"4","last_reported":1700575622,"current_range_meters":10400,"station_id":"ce4bho92rcd13ifvqh3g","pricing_plan_id":"free"},{"bike_id":"cf7c6503-d761-4e4a-b826-f55f74848caf","system_id":"levelo_inurba_marseille","lat":43.34879,"lon":5.3751,"is_reserved":false,"is_disabled":false,"rental_uris":{"android":"levelo://app?vid=cf7c6503-d761-4e4a-b826-f55f74848caf","ios":"levelo://app?vid=cf7c6503-d761-4e4a-b826-f55f74848caf"},"vehicle_type_id":"4","last_reported":1700575622,"current_range_meters":9600,"station_id":"","pricing_plan_id":"free"},{"bike_id":"ecc2516b-152f-44ac-9c92-1e87d1403a9b","system_id":"levelo_inurba_marseille","lat":43.303837,"lon":5.418724,"is_reserved":false,"is_disabled":false,"rental_uris":{"android":"levelo://app?vid=ecc2516b-152f-44ac-9c92-1e87d1403a9b","ios":"levelo://app?vid=ecc2516b-152f-44ac-9c92-1e87d1403a9b"},"vehicle_type_id":"4","last_reported":1700575622,"current_range_meters":27200,"station_id":"ce4bhop2rcd13ifvqh7g","pricing_plan_id":"free"},{"bike_id":"721177a1-c2c5-4ce1-bd2b-ceaade33d752","system_id":"levelo_inurba_marseille","lat":43.278399,"lon":5.392139,"is_reserved":false,"is_disabled":false,"rental_uris":{"android":"levelo://app?vid=721177a1-c2c5-4ce1-bd2b-ceaade33d752","ios":"levelo://app?vid=721177a1-c2c5-4ce1-bd2b-ceaade33d752"},"vehicle_type_id":"4","last_reported":1700575622,"current_range_meters":16400,"station_id":"ce4bhjp2rcd13ifvqga0","pricing_plan_id":"free"},{"bike_id":"b9b8dec9-64d4-4a02-868a-a0aa44f0f2ce","system_id":"levelo_inurba_marseille","lat":43.275625,"lon":5.384392,"is_reserved":false,"is_disabled":false,"rental_uris":{"android":"levelo://app?vid=b9b8dec9-64d4-4a02-868a-a0aa44f0f2ce","ios":"levelo://app?vid=b9b8dec9-64d4-4a02-868a-a0aa44f0f2ce"},"vehicle_type_id":"4","last_reported":1700575622,"current_range_meters":13600,"station_id":"ce4bhh92rcd13ifvqfi0","pricing_plan_id":"free"},{"bike_id":"6eb4d9b5-e215-4168-bb60-6a6966f1e4f3","system_id":"levelo_inurba_marseille","lat":43.27375,"lon":5.36254,"is_reserved":false,"is_disabled":false,"rental_uris":{"android":"levelo://app?vid=6eb4d9b5-e215-4168-bb60-6a6966f1e4f3","ios":"levelo://app?vid=6eb4d9b5-e215-4168-bb60-6a6966f1e4f3"},"vehicle_type_id":"4","last_reported":1700575622,"current_range_meters":22000,"station_id":"ce4bhbh2rcd13ifvqeo0","pricing_plan_id":"free"},{"bike_id":"37d486b1-0291-4be9-bf91-4d3d93e45274","system_id":"levelo_inurba_marseille","lat":43.27371,"lon":5.36251,"is_reserved":false,"is_disabled":false,"rental_uris":{"android":"levelo://app?vid=37d486b1-0291-4be9-bf91-4d3d93e45274","ios":"levelo://app?vid=37d486b1-0291-4be9-bf91-4d3d93e45274"},"vehicle_type_id":"4","last_reported":1700575622,"current_range_meters":25600,"station_id":"ce4bhbh2rcd13ifvqeo0","pricing_plan_id":"free"},{"bike_id":"f7baca7f-4069-43b7-a2ed-7ac06f35abb4","system_id":"levelo_inurba_marseille","lat":43.273609,"lon":5.362708,"is_reserved":false,"is_disabled":false,"rental_uris":{"android":"levelo://app?vid=f7baca7f-4069-43b7-a2ed-7ac06f35abb4","ios":"levelo://app?vid=f7baca7f-4069-43b7-a2ed-7ac06f35abb4"},"vehicle_type_id":"4","last_reported":1700575622,"current_range_meters":19600,"station_id":"ce4bhbh2rcd13ifvqeo0","pricing_plan_id":"free"},{"bike_id":"984240f0-5135-4c57-989d-246a0fd12003","system_id":"levelo_inurba_marseille","lat":43.275625,"lon":5.384392,"is_reserved":false,"is_disabled":false,"rental_uris":{"android":"levelo://app?vid=984240f0-5135-4c57-989d-246a0fd12003","ios":"levelo://app?vid=984240f0-5135-4c57-989d-246a0fd12003"},"vehicle_type_id":"4","last_reported":1700575622,"current_range_meters":26000,"station_id":"ce4bhh92rcd13ifvqfi0","pricing_plan_id":"free"},{"bike_id":"1f3e2ef8-cb78-42ff-8d25-7d6acdb17be1","system_id":"levelo_inurba_marseille","lat":43.273609,"lon":5.362708,"is_reserved":false,"is_disabled":false,"rental_uris":{"android":"levelo://app?vid=1f3e2ef8-cb78-42ff-8d25-7d6acdb17be1","ios":"levelo://app?vid=1f3e2ef8-cb78-42ff-8d25-7d6acdb17be1"},"vehicle_type_id":"4","last_reported":1700575622,"current_range_meters":29600,"station_id":"ce4bhbh2rcd13ifvqeo0","pricing_plan_id":"free"},{"bike_id":"f349fdbd-aedc-47bf-8dbe-b1e045d6517f","system_id":"levelo_inurba_marseille","lat":43.336134,"lon":5.410341,"is_reserved":false,"is_disabled":false,"rental_uris":{"android":"levelo://app?vid=f349fdbd-aedc-47bf-8dbe-b1e045d6517f","ios":"levelo://app?vid=f349fdbd-aedc-47bf-8dbe-b1e045d6517f"},"vehicle_type_id":"4","last_reported":1700575622,"current_range_meters":400,"station_id":"ce4bhqh2rcd13ifvqhmg","pricing_plan_id":"free"},{"bike_id":"521db101-4d08-4e78-a1a5-e85726fb4f45","system_id":"levelo_inurba_marseille","lat":43.275556,"lon":5.384308,"is_reserved":false,"is_disabled":false,"rental_uris":{"android":"levelo://app?vid=521db101-4d08-4e78-a1a5-e85726fb4f45","ios":"levelo://app?vid=521db101-4d08-4e78-a1a5-e85726fb4f45"},"vehicle_type_id":"4","last_reported":1700575622,"current_range_meters":12800,"station_id":"ce4bhh92rcd13ifvqfi0","pricing_plan_id":"free"},{"bike_id":"9bc9109e-b3d2-4cd2-8f6a-b883ef2bac26","system_id":"levelo_inurba_marseille","lat":43.275625,"lon":5.384392,"is_reserved":false,"is_disabled":false,"rental_uris":{"android":"levelo://app?vid=9bc9109e-b3d2-4cd2-8f6a-b883ef2bac26","ios":"levelo://app?vid=9bc9109e-b3d2-4cd2-8f6a-b883ef2bac26"},"vehicle_type_id":"4","last_reported":1700575622,"current_range_meters":6800,"station_id":"ce4bhh92rcd13ifvqfi0","pricing_plan_id":"free"},{"bike_id":"f7784a6b-be95-413b-a9b5-9a20701edb30","system_id":"levelo_inurba_marseille","lat":43.276771,"lon":5.388799,"is_reserved":false,"is_disabled":false,"rental_uris":{"android":"levelo://app?vid=f7784a6b-be95-413b-a9b5-9a20701edb30","ios":"levelo://app?vid=f7784a6b-be95-413b-a9b5-9a20701edb30"},"vehicle_type_id":"4","last_reported":1700575622,"current_range_meters":20400,"station_id":"ce4bhi12rcd13ifvqfo0","pricing_plan_id":"free"},{"bike_id":"87e52b70-1325-4e65-8d16-1b0519237158","system_id":"levelo_inurba_marseille","lat":43.276771,"lon":5.388799,"is_reserved":false,"is_disabled":false,"rental_uris":{"android":"levelo://app?vid=87e52b70-1325-4e65-8d16-1b0519237158","ios":"levelo://app?vid=87e52b70-1325-4e65-8d16-1b0519237158"},"vehicle_type_id":"4","last_reported":1700575622,"current_range_meters":400,"station_id":"ce4bhi12rcd13ifvqfo0","pricing_plan_id":"free"},{"bike_id":"59bbb88f-53fe-4b48-9e1f-512739d22981","system_id":"levelo_inurba_marseille","lat":43.279952,"lon":5.400085,"is_reserved":false,"is_disabled":false,"rental_uris":{"android":"levelo://app?vid=59bbb88f-53fe-4b48-9e1f-512739d22981","ios":"levelo://app?vid=59bbb88f-53fe-4b48-9e1f-512739d22981"},"vehicle_type_id":"4","last_reported":1700575622,"current_range_meters":28400,"station_id":"ce4bho92rcd13ifvqh4g","pricing_plan_id":"free"},{"bike_id":"85be31a5-6e86-481e-ae30-67156f014980","system_id":"levelo_inurba_marseille","lat":43.340804,"lon":5.410219,"is_reserved":false,"is_disabled":false,"rental_uris":{"android":"levelo://app?vid=85be31a5-6e86-481e-ae30-67156f014980","ios":"levelo://app?vid=85be31a5-6e86-481e-ae30-67156f014980"},"vehicle_type_id":"4","last_reported":1700575622,"current_range_meters":17600,"station_id":"ce4bhqh2rcd13ifvqhlg","pricing_plan_id":"free"},{"bike_id":"2404572d-f03b-41af-b32e-a6832d0f5fd3","system_id":"levelo_inurba_marseille","lat":43.273125,"lon":5.390731,"is_reserved":false,"is_disabled":false,"rental_uris":{"android":"levelo://app?vid=2404572d-f03b-41af-b32e-a6832d0f5fd3","ios":"levelo://app?vid=2404572d-f03b-41af-b32e-a6832d0f5fd3"},"vehicle_type_id":"4","last_reported":1700575622,"current_range_meters":18800,"station_id":"ce4bhgp2rcd13ifvqfe0","pricing_plan_id":"free"},{"bike_id":"f3bc6a5f-e37b-44ab-9df9-70c2884ac2bd","system_id":"levelo_inurba_marseille","lat":43.273125,"lon":5.390731,"is_reserved":false,"is_disabled":false,"rental_uris":{"android":"levelo://app?vid=f3bc6a5f-e37b-44ab-9df9-70c2884ac2bd","ios":"levelo://app?vid=f3bc6a5f-e37b-44ab-9df9-70c2884ac2bd"},"vehicle_type_id":"4","last_reported":1700575622,"current_range_meters":2000,"station_id":"ce4bhgp2rcd13ifvqfe0","pricing_plan_id":"free"},{"bike_id":"5b0f7840-a62d-4beb-92a8-fb1a5fe1a253","system_id":"levelo_inurba_marseille","lat":43.273129,"lon":5.390725,"is_reserved":false,"is_disabled":false,"rental_uris":{"android":"levelo://app?vid=5b0f7840-a62d-4beb-92a8-fb1a5fe1a253","ios":"levelo://app?vid=5b0f7840-a62d-4beb-92a8-fb1a5fe1a253"},"vehicle_type_id":"4","last_reported":1700575622,"current_range_meters":4400,"station_id":"ce4bhgp2rcd13ifvqfe0","pricing_plan_id":"free"},{"bike_id":"4a3b1e7c-abc5-46a2-a606-4f6618642ff8","system_id":"levelo_inurba_marseille","lat":43.274099,"lon":5.394019,"is_reserved":false,"is_disabled":false,"rental_uris":{"android":"levelo://app?vid=4a3b1e7c-abc5-46a2-a606-4f6618642ff8","ios":"levelo://app?vid=4a3b1e7c-abc5-46a2-a606-4f6618642ff8"},"vehicle_type_id":"4","last_reported":1700575622,"current_range_meters":10000,"station_id":"ce4bhdp2rcd13ifvqf20","pricing_plan_id":"free"},{"bike_id":"44fb0cb0-c45a-4260-b88f-7646dec3f5f5","system_id":"levelo_inurba_marseille","lat":43.272124,"lon":5.391768,"is_reserved":false,"is_disabled":false,"rental_uris":{"android":"levelo://app?vid=44fb0cb0-c45a-4260-b88f-7646dec3f5f5","ios":"levelo://app?vid=44fb0cb0-c45a-4260-b88f-7646dec3f5f5"},"vehicle_type_id":"4","last_reported":1700575622,"current_range_meters":23600,"station_id":"ce4bhhp2rcd13ifvqfm0","pricing_plan_id":"free"},{"bike_id":"146d7ab5-a564-4a2b-87ab-c1fc1ac0d956","system_id":"levelo_inurba_marseille","lat":43.272124,"lon":5.391768,"is_reserved":false,"is_disabled":false,"rental_uris":{"android":"levelo://app?vid=146d7ab5-a564-4a2b-87ab-c1fc1ac0d956","ios":"levelo://app?vid=146d7ab5-a564-4a2b-87ab-c1fc1ac0d956"},"vehicle_type_id":"4","last_reported":1700575622,"current_range_meters":20800,"station_id":"ce4bhhp2rcd13ifvqfm0","pricing_plan_id":"free"},{"bike_id":"d63f0213-db4d-4ade-9fb5-b0161bcbc51a","system_id":"levelo_inurba_marseille","lat":43.271929,"lon":5.392484,"is_reserved":false,"is_disabled":false,"rental_uris":{"android":"levelo://app?vid=d63f0213-db4d-4ade-9fb5-b0161bcbc51a","ios":"levelo://app?vid=d63f0213-db4d-4ade-9fb5-b0161bcbc51a"},"vehicle_type_id":"4","last_reported":1700575622,"current_range_meters":1200,"station_id":"","pricing_plan_id":"free"},{"bike_id":"cbc2fb9f-e1d7-438a-87af-611b36f7eeb3","system_id":"levelo_inurba_marseille","lat":43.271891,"lon":5.392412,"is_reserved":false,"is_disabled":false,"rental_uris":{"android":"levelo://app?vid=cbc2fb9f-e1d7-438a-87af-611b36f7eeb3","ios":"levelo://app?vid=cbc2fb9f-e1d7-438a-87af-611b36f7eeb3"},"vehicle_type_id":"4","last_reported":1700575622,"current_range_meters":0,"station_id":"","pricing_plan_id":"free"},{"bike_id":"7895cb2e-149a-49a7-bb56-2014c3497d86","system_id":"levelo_inurba_marseille","lat":43.278128,"lon":5.407195,"is_reserved":false,"is_disabled":false,"rental_uris":{"android":"levelo://app?vid=7895cb2e-149a-49a7-bb56-2014c3497d86","ios":"levelo://app?vid=7895cb2e-149a-49a7-bb56-2014c3497d86"},"vehicle_type_id":"4","last_reported":1700575622,"current_range_meters":400,"station_id":"ce4bhnh2rcd13ifvqgtg","pricing_plan_id":"free"},{"bike_id":"03d73999-aa26-4034-a14d-1c86ebdee3c7","system_id":"levelo_inurba_marseille","lat":43.269467,"lon":5.386439,"is_reserved":false,"is_disabled":false,"rental_uris":{"android":"levelo://app?vid=03d73999-aa26-4034-a14d-1c86ebdee3c7","ios":"levelo://app?vid=03d73999-aa26-4034-a14d-1c86ebdee3c7"},"vehicle_type_id":"4","last_reported":1700575622,"current_range_meters":29200,"station_id":"ce4bhh92rcd13ifvqfh0","pricing_plan_id":"free"},{"bike_id":"aa374883-46fe-4ed0-a352-4ef25b81dc2c","system_id":"levelo_inurba_marseille","lat":43.269467,"lon":5.386439,"is_reserved":false,"is_disabled":false,"rental_uris":{"android":"levelo://app?vid=aa374883-46fe-4ed0-a352-4ef25b81dc2c","ios":"levelo://app?vid=aa374883-46fe-4ed0-a352-4ef25b81dc2c"},"vehicle_type_id":"4","last_reported":1700575622,"current_range_meters":24400,"station_id":"ce4bhh92rcd13ifvqfh0","pricing_plan_id":"free"},{"bike_id":"00f58c6b-da1e-4036-b586-633320f0ccdd","system_id":"levelo_inurba_marseille","lat":43.269467,"lon":5.386439,"is_reserved":false,"is_disabled":false,"rental_uris":{"android":"levelo://app?vid=00f58c6b-da1e-4036-b586-633320f0ccdd","ios":"levelo://app?vid=00f58c6b-da1e-4036-b586-633320f0ccdd"},"vehicle_type_id":"4","last_reported":1700575622,"current_range_meters":4000,"station_id":"ce4bhh92rcd13ifvqfh0","pricing_plan_id":"free"},{"bike_id":"f8f467a5-9044-48b1-b05f-71311018976e","system_id":"levelo_inurba_marseille","lat":43.26949,"lon":5.386337,"is_reserved":false,"is_disabled":false,"rental_uris":{"android":"levelo://app?vid=f8f467a5-9044-48b1-b05f-71311018976e","ios":"levelo://app?vid=f8f467a5-9044-48b1-b05f-71311018976e"},"vehicle_type_id":"4","last_reported":1700575622,"current_range_meters":0,"station_id":"ce4bhh92rcd13ifvqfh0","pricing_plan_id":"free"},{"bike_id":"55f482c6-33f9-42fb-bf10-8e3d52e70945","system_id":"levelo_inurba_marseille","lat":43.269467,"lon":5.386439,"is_reserved":false,"is_disabled":false,"rental_uris":{"android":"levelo://app?vid=55f482c6-33f9-42fb-bf10-8e3d52e70945","ios":"levelo://app?vid=55f482c6-33f9-42fb-bf10-8e3d52e70945"},"vehicle_type_id":"4","last_reported":1700575622,"current_range_meters":29200,"station_id":"ce4bhh92rcd13ifvqfh0","pricing_plan_id":"free"},{"bike_id":"4b42afae-5445-44bd-9ca3-a1d01015689b","system_id":"levelo_inurba_marseille","lat":43.269319,"lon":5.389397,"is_reserved":false,"is_disabled":false,"rental_uris":{"android":"levelo://app?vid=4b42afae-5445-44bd-9ca3-a1d01015689b","ios":"levelo://app?vid=4b42afae-5445-44bd-9ca3-a1d01015689b"},"vehicle_type_id":"4","last_reported":1700575622,"current_range_meters":22400,"station_id":"ce4bhhh2rcd13ifvqfl0","pricing_plan_id":"free"},{"bike_id":"bd63d80c-cbda-4184-8338-c212e0b9fdac","system_id":"levelo_inurba_marseille","lat":43.269319,"lon":5.389397,"is_reserved":false,"is_disabled":false,"rental_uris":{"android":"levelo://app?vid=bd63d80c-cbda-4184-8338-c212e0b9fdac","ios":"levelo://app?vid=bd63d80c-cbda-4184-8338-c212e0b9fdac"},"vehicle_type_id":"4","last_reported":1700575622,"current_range_meters":20000,"station_id":"ce4bhhh2rcd13ifvqfl0","pricing_plan_id":"free"},