{"last_updated":1753117961,"ttl":60,"version":"2.2","data":{"bikes":[{"bike_id":"53b742a7-31ae-4272-9bba-7740339e2a2f","system_id":"levelo_inurba_marseille","lat":43.33747,"lon":5.37463,"is_reserved":false,"is_disabled":false,"rental_uris":{"android":"levelo://app?vid=53b742a7-31ae-4272-9bba-7740339e2a2f","ios":"levelo://app?vid=53b742a7-31ae-4272-9bba-7740339e2a2f"},"vehicle_type_id":"1","last_reported":1753117961,"current_range_meters":5600,"station_id":"","pricing_plan_id":"cebpf4jnsgd1na2vs0mg"},{"bike_id":"fe9ccdb5-1493-4096-88d7-0333a75924e2","system_id":"levelo_inurba_marseille","lat":43.269252,"lon":5.388842,"is_reserved":false,"is_disabled":false,"rental_uris":{"android":"levelo://app?vid=fe9ccdb5-1493-4096-88d7-0333a75924e2","ios":"levelo://app?vid=fe9ccdb5-1493-4096-88d7-0333a75924e2"},"vehicle_type_id":"4","last_reported":1753117961,"current_range_meters":2800,"station_id":"ce4bhhh2rcd13ifvqfl0","pricing_plan_id":"cebpf4jnsgd1na2vs0mg"},{"bike_id":"ac141403-2eff-454e-8bd1-3d400d40ed2b","system_id":"levelo_inurba_marseille","lat":43.33093,"lon":5.39987,"is_reserved":false,"is_disabled":false,"rental_uris":{"android":"levelo://app?vid=ac141403-2eff-454e-8bd1-3d400d40ed2b","ios":"levelo://app?vid=ac141403-2eff-454e-8bd1-3d400d40ed2b"},"vehicle_type_id":"4","last_reported":1753117961,"current_range_meters":2800,"station_id":"","pricing_plan_id":"cebpf4jnsgd1na2vs0mg"},{"bike_id":"192c0fa5-c826-4847-bdd0-11edb7180ff9","system_id":"levelo_inurba_marseille","lat":43.30662,"lon":5.40093,"is_reserved":false,"is_disabled":true,"rental_uris":{"android":"levelo://app?vid=192c0fa5-c826-4847-bdd0-11edb7180ff9","ios":"levelo://app?vid=192c0fa5-c826-4847-bdd0-11edb7180ff9"},"vehicle_type_id":"4","last_reported":1753117961,"current_range_meters":2800,"station_id":"ce4bh112rcd13ifvqda0","pricing_plan_id":"cebpf4jnsgd1na2vs0mg"},{"bike_id":"05d55f88-98e2-499b-ab36-ca2d41c3e874","system_id":"levelo_inurba_marseille","lat":43.23192,"lon":5.35553,"is_reserved":false,"is_disabled":false,"rental_uris":{"android":"levelo://app?vid=05d55f88-98e2-499b-ab36-ca2d41c3e874","ios":"levelo://app?vid=05d55f88-98e2-499b-ab36-ca2d41c3e874"},"vehicle_type_id":"4","last_reported":1753117961,"current_range_meters":2800,"station_id":"ce4bhu92rcd13ifvqi70","pricing_plan_id":"cebpf4jnsgd1na2vs0mg"},{"bike_id":"433415c1-acea-4306-b3ad-c55437db8988","system_id":"levelo_inurba_marseille","lat":43.29496,"lon":5.38198,"is_reserved":false,"is_disabled":false,"rental_uris":{"android":"levelo://app?vid=433415c1-acea-4306-b3ad-c55437db8988","ios":"levelo://app?vid=433415c1-acea-4306-b3ad-c55437db8988"},"vehicle_type_id":"4","last_reported":1753117961,"current_range_meters":3200,"station_id":"","pricing_plan_id":"cebpf4jnsgd1na2vs0mg"},{"bike_id":"668ec071-8d29-4813-ba3b-ece9acf8a45a","system_id":"levelo_inurba_marseille","lat":43.2859,"lon":5.38321,"is_reserved":false,"is_disabled":false,"rental_uris":{"android":"levelo://app?vid=668ec071-8d29-4813-ba3b-ece9acf8a45a","ios":"levelo://app?vid=668ec071-8d29-4813-ba3b-ece9acf8a45a"},"vehicle_type_id":"4","last_reported":1753117961,"current_range_meters":3600,"station_id":"","pricing_plan_id":"cebpf4jnsgd1na2vs0mg"},{"bike_id":"2e8951cb-9346-470a-9e9a-230b4cbeb894","system_id":"levelo_inurba_marseille","lat":43.28663,"lon":5.36354,"is_reserved":false,"is_disabled":false,"rental_uris":{"android":"levelo://app?vid=2e8951cb-9346-470a-9e9a-230b4cbeb894","ios":"levelo://app?vid=2e8951cb-9346-470a-9e9a-230b4cbeb894"},"vehicle_type_id":"4","last_reported":1753117961,"current_range_meters":3200,"station_id":"ce4bhah2rcd13ifvqej0","pricing_plan_id":"cebpf4jnsgd1na2vs0mg"},{"bike_id":"e71f94ea-dbe9-4c78-ae5c-ba0e6d445275","system_id":"levelo_inurba_marseille","lat":43.28471,"lon":5.38412,"is_reserved":false,"is_disabled":false,"rental_uris":{"android":"levelo://app?vid=e71f94ea-dbe9-4c78-ae5c-ba0e6d445275","ios":"levelo://app?vid=e71f94ea-dbe9-4c78-ae5c-ba0e6d445275"},"vehicle_type_id":"4","last_reported":1753117961,"current_range_meters":3200,"station_id":"ce4bh512rcd13ifvqe3g","pricing_plan_id":"cebpf4jnsgd1na2vs0mg"},{"bike_id":"fbd81496-1dbf-461b-a56a-5f1bb438df7b","system_id":"levelo_inurba_marseille","lat":43.23193,"lon":5.35553,"is_reserved":false,"is_disabled":false,"rental_uris":{"android":"levelo://app?vid=fbd81496-1dbf-461b-a56a-5f1bb438df7b","ios":"levelo://app?vid=fbd81496-1dbf-461b-a56a-5f1bb438df7b"},"vehicle_type_id":"4","last_reported":1753117961,"current_range_meters":4000,"station_id":"ce4bhu92rcd13ifvqi70","pricing_plan_id":"cebpf4jnsgd1na2vs0mg"},{"bike_id":"24ec6209-d68e-4d94-b053-e6678316df9e","system_id":"levelo_inurba_marseille","lat":43.31373,"lon":5.3849,"is_reserved":false,"is_disabled":false,"rental_uris":{"android":"levelo://app?vid=24ec6209-d68e-4d94-b053-e6678316df9e","ios":"levelo://app?vid=24ec6209-d68e-4d94-b053-e6678316df9e"},"vehicle_type_id":"4","last_reported":1753117961,"current_range_meters":4000,"station_id":"ce4bgt92rcd13ifvqcf0","pricing_plan_id":"cebpf4jnsgd1na2vs0mg"},{"bike_id":"cede53c3-b776-433a-81fc-4d106460f768","system_id":"levelo_inurba_marseille","lat":43.28945,"lon":5.36638,"is_reserved":false,"is_disabled":false,"rental_uris":{"android":"levelo://app?vid=cede53c3-b776-433a-81fc-4d106460f768","ios":"levelo://app?vid=cede53c3-b776-433a-81fc-4d106460f768"},"vehicle_type_id":"4","last_reported":1753117961,"current_range_meters":4400,"station_id":"ce4bhap2rcd13ifvqek0","pricing_plan_id":"cebpf4jnsgd1na2vs0mg"},{"bike_id":"0fd02cf6-67fb-4589-807f-241dd50b7e1a","system_id":"levelo_inurba_marseille","lat":43.29915,"lon":5.43659,"is_reserved":false,"is_disabled":true,"rental_uris":{"android":"levelo://app?vid=0fd02cf6-67fb-4589-807f-241dd50b7e1a","ios":"levelo://app?vid=0fd02cf6-67fb-4589-807f-241dd50b7e1a"},"vehicle_type_id":"4","last_reported":1753117961,"current_range_meters":4400,"station_id":"ce4bhpp2rcd13ifvqhfg","pricing_plan_id":"cebpf4jnsgd1na2vs0mg"},{"bike_id":"febd3fac-72ec-4dc3-95e6-dcbacb778acb","system_id":"levelo_inurba_marseille","lat":43.305006,"lon":5.384555,"is_reserved":false,"is_disabled":false,"rental_uris":{"android":"levelo://app?vid=febd3fac-72ec-4dc3-95e6-dcbacb778acb","ios":"levelo://app?vid=febd3fac-72ec-4dc3-95e6-dcbacb778acb"},"vehicle_type_id":"4","last_reported":1753117961,"current_range_meters":800,"station_id":"ce4bgg92rcd13ifvqb30","pricing_plan_id":"cebpf4jnsgd1na2vs0mg"},{"bike_id":"2904479c-d37a-4efa-b681-c553d10cac38","system_id":"levelo_inurba_marseille","lat":43.31211,"lon":5.36841,"is_reserved":false,"is_disabled":false,"rental_uris":{"android":"levelo://app?vid=2904479c-d37a-4efa-b681-c553d10cac38","ios":"levelo://app?vid=2904479c-d37a-4efa-b681-c553d10cac38"},"vehicle_type_id":"4","last_reported":1753117961,"current_range_meters":4400,"station_id":"ce4bgl92rcd13ifvqbq0","pricing_plan_id":"cebpf4jnsgd1na2vs0mg"},{"bike_id":"63d53e4b-5003-4483-af60-f6c4da39b62e","system_id":"levelo_inurba_marseille","lat":43.300633,"lon":5.390096,"is_reserved":false,"is_disabled":false,"rental_uris":{"android":"levelo://app?vid=63d53e4b-5003-4483-af60-f6c4da39b62e","ios":"levelo://app?vid=63d53e4b-5003-4483-af60-f6c4da39b62e"},"vehicle_type_id":"4","last_reported":1753117961,"current_range_meters":4800,"station_id":"ce4bh192rcd13ifvqdb0","pricing_plan_id":"cebpf4jnsgd1na2vs0mg"},{"bike_id":"4805bab1-45c4-40eb-b0b7-b135beb19656","system_id":"levelo_inurba_marseille","lat":43.31372,"lon":5.38486,"is_reserved":false,"is_disabled":false,"rental_uris":{"android":"levelo://app?vid=4805bab1-45c4-40eb-b0b7-b135beb19656","ios":"levelo://app?vid=4805bab1-45c4-40eb-b0b7-b135beb19656"},"vehicle_type_id":"4","last_reported":1753117961,"current_range_meters":5600,"station_id":"ce4bgt92rcd13ifvqcf0","pricing_plan_id":"cebpf4jnsgd1na2vs0mg"},{"bike_id":"c7db7e82-a47e-441e-aa67-80021d346d04","system_id":"levelo_inurba_marseille","lat":43.267881,"lon":5.394145,"is_reserved":false,"is_disabled":false,"rental_uris":{"android":"levelo://app?vid=c7db7e82-a47e-441e-aa67-80021d346d04","ios":"levelo://app?vid=c7db7e82-a47e-441e-aa67-80021d346d04"},"vehicle_type_id":"4","last_reported":1753117961,"current_range_meters":5600,"station_id":"ce4bhh12rcd13ifvqfg0","pricing_plan_id":"cebpf4jnsgd1na2vs0mg"},{"bike_id":"7059f996-b97d-4d75-a7ad-3bc35c650fbd","system_id":"levelo_inurba_marseille","lat":43.28414,"lon":5.34975,"is_reserved":false,"is_disabled":false,"rental_uris":{"android":"levelo://app?vid=7059f996-b97d-4d75-a7ad-3bc35c650fbd","ios":"levelo://app?vid=7059f996-b97d-4d75-a7ad-3bc35c650fbd"},"vehicle_type_id":"4","last_reported":1753117961,"current_range_meters":5600,"station_id":"ce4bhbh2rcd13ifvqepg","pricing_plan_id":"cebpf4jnsgd1na2vs0mg"},{"bike_id":"76079598-42da-4f5b-997c-6538723632a8","system_id":"levelo_inurba_marseille","lat":43.3088,"lon":5.37202,"is_reserved":false,"is_disabled":false,"rental_uris":{"android":"levelo://app?vid=76079598-42da-4f5b-997c-6538723632a8","ios":"levelo://app?vid=76079598-42da-4f5b-997c-6538723632a8"},"vehicle_type_id":"4","last_reported":1753117961,"current_range_meters":5600,"station_id":"ce4bguh2rcd13ifvqckg","pricing_plan_id":"cebpf4jnsgd1na2vs0mg"},{"bike_id":"1f6939b7-339b-40ca-8ed8-ead7196b18ea","system_id":"levelo_inurba_marseille","lat":43.292314,"lon":5.361648,"is_reserved":false,"is_disabled":true,"rental_uris":{"android":"levelo://app?vid=1f6939b7-339b-40ca-8ed8-ead7196b18ea","ios":"levelo://app?vid=1f6939b7-339b-40ca-8ed8-ead7196b18ea"},"vehicle_type_id":"4","last_reported":1753117961,"current_range_meters":5600,"station_id":"ce4bhbh2rcd13ifvqeqg","pricing_plan_id":"cebpf4jnsgd1na2vs0mg"},{"bike_id":"697bf32d-5094-4112-9cd6-6ea587b94df7","system_id":"levelo_inurba_marseille","lat":43.299352,"lon":5.376639,"is_reserved":false,"is_disabled":false,"rental_uris":{"android":"levelo://app?vid=697bf32d-5094-4112-9cd6-6ea587b94df7","ios":"levelo://app?vid=697bf32d-5094-4112-9cd6-6ea587b94df7"},"vehicle_type_id":"4","last_reported":1753117961,"current_range_meters":6000,"station_id":"ce4bgnh2rcd13ifvqc0g","pricing_plan_id":"cebpf4jnsgd1na2vs0mg"},{"bike_id":"ed415a14-b4b4-4caf-8a06-7fd1c907bac5","system_id":"levelo_inurba_marseille","lat":43.2153,"lon":5.34609,"is_reserved":false,"is_disabled":false,"rental_uris":{"android":"levelo://app?vid=ed415a14-b4b4-4caf-8a06-7fd1c907bac5","ios":"levelo://app?vid=ed415a14-b4b4-4caf-8a06-7fd1c907bac5"},"vehicle_type_id":"4","last_reported":1753117961,"current_range_meters":6000,"station_id":"","pricing_plan_id":"cebpf4jnsgd1na2vs0mg"},{"bike_id":"76243fd7-14d6-45c4-8e66-32359f6d02da","system_id":"levelo_inurba_marseille","lat":43.2848,"lon":5.38554,"is_reserved":false,"is_disabled":false,"rental_uris":{"android":"levelo://app?vid=76243fd7-14d6-45c4-8e66-32359f6d02da","ios":"levelo://app?vid=76243fd7-14d6-45c4-8e66-32359f6d02da"},"vehicle_type_id":"4","last_reported":1753117961,"current_range_meters":6000,"station_id":"ce4bh8p2rcd13ifvqeb0","pricing_plan_id":"cebpf4jnsgd1na2vs0mg"},{"bike_id":"6cd6b05f-3a14-4163-96bb-0da9518f5049","system_id":"levelo_inurba_marseille","lat":43.27944,"lon":5.4105,"is_reserved":false,"is_disabled":false,"rental_uris":{"android":"levelo://app?vid=6cd6b05f-3a14-4163-96bb-0da9518f5049","ios":"levelo://app?vid=6cd6b05f-3a14-4163-96bb-0da9518f5049"},"vehicle_type_id":"4","last_reported":1753117961,"current_range_meters":6400,"station_id":"ce4bhnp2rcd13ifvqh0g","pricing_plan_id":"cebpf4jnsgd1na2vs0mg"},{"bike_id":"a6de290b-5c15-427b-bc37-8301607e1735","system_id":"levelo_inurba_marseille","lat":43.337725,"lon":5.374294,"is_reserved":false,"is_disabled":false,"rental_uris":{"android":"levelo://app?vid=a6de290b-5c15-427b-bc37-8301607e1735","ios":"levelo://app?vid=a6de290b-5c15-427b-bc37-8301607e1735"},"vehicle_type_id":"4","last_reported":1753117961,"current_range_meters":6400,"station_id":"","pricing_plan_id":"cebpf4jnsgd1na2vs0mg"},{"bike_id":"a823a5ba-2ff9-44ba-92e0-80e053d63f43","system_id":"levelo_inurba_marseille","lat":43.30301,"lon":5.39214,"is_reserved":false,"is_disabled":false,"rental_uris":{"android":"levelo://app?vid=a823a5ba-2ff9-44ba-92e0-80e053d63f43","ios":"levelo://app?vid=a823a5ba-2ff9-44ba-92e0-80e053d63f43"},"vehicle_type_id":"4","last_reported":1753117961,"current_range_meters":6400,"station_id":"ce4bgkh2rcd13ifvqbk0","pricing_plan_id":"cebpf4jnsgd1na2vs0mg"},{"bike_id":"e0970957-01ab-48d1-a9c0-d8f89b64ae56","system_id":"levelo_inurba_marseille","lat":43.273723,"lon":5.36246,"is_reserved":false,"is_disabled":true,"rental_uris":{"android":"levelo://app?vid=e0970957-01ab-48d1-a9c0-d8f89b64ae56","ios":"levelo://app?vid=e0970957-01ab-48d1-a9c0-d8f89b64ae56"},"vehicle_type_id":"4","last_reported":1753117961,"current_range_meters":6400,"station_id":"ce4bhbh2rcd13ifvqeo0","pricing_plan_id":"cebpf4jnsgd1na2vs0mg"},{"bike_id":"7f920b71-949a-4dda-afba-c766f67a057c","system_id":"levelo_inurba_marseille","lat":43.28668,"lon":5.3635,"is_reserved":false,"is_disabled":false,"rental_uris":{"android":"levelo://app?vid=7f920b71-949a-4dda-afba-c766f67a057c","ios":"levelo://app?vid=7f920b71-949a-4dda-afba-c766f67a057c"},"vehicle_type_id":"4","last_reported":1753117961,"current_range_meters":6400,"station_id":"ce4bhah2rcd13ifvqej0","pricing_plan_id":"cebpf4jnsgd1na2vs0mg"},{"bike_id":"62a74583-e95f-4c38-85a2-1cd4c22972b2","system_id":"levelo_inurba_marseille","lat":43.25587,"lon":5.3823,"is_reserved":false,"is_disabled":false,"rental_uris":{"android":"levelo://app?vid=62a74583-e95f-4c38-85a2-1cd4c22972b2","ios":"levelo://app?vid=62a74583-e95f-4c38-85a2-1cd4c22972b2"},"vehicle_type_id":"4","last_reported":1753117961,"current_range_meters":6800,"station_id":"ce4bhih2rcd13ifvqfs0","pricing_plan_id":"cebpf4jnsgd1na2vs0mg"},{"bike_id":"cdba946f-3bab-4064-91a5-980de8d65fd8","system_id":"levelo_inurba_marseille","lat":43.30338,"lon":5.40431,"is_reserved":false,"is_disabled":false,"rental_uris":{"android":"levelo://app?vid=cdba946f-3bab-4064-91a5-980de8d65fd8","ios":"levelo://app?vid=cdba946f-3bab-4064-91a5-980de8d65fd8"},"vehicle_type_id":"4","last_reported":1753117961,"current_range_meters":6800,"station_id":"ce4bh012rcd13ifvqd10","pricing_plan_id":"cebpf4jnsgd1na2vs0mg"},{"bike_id":"736c363b-3641-43dd-b890-bd43d8fd5283","system_id":"levelo_inurba_marseille","lat":43.33789,"lon":5.37466,"is_reserved":false,"is_disabled":false,"rental_uris":{"android":"levelo://app?vid=736c363b-3641-43dd-b890-bd43d8fd5283","ios":"levelo://app?vid=736c363b-3641-43dd-b890-bd43d8fd5283"},"vehicle_type_id":"4","last_reported":1753117961,"current_range_meters":6800,"station_id":"","pricing_plan_id":"cebpf4jnsgd1na2vs0mg"},{"bike_id":"84133b2c-54f7-40c0-9db6-ff896dc83184","system_id":"levelo_inurba_marseille","lat":43.30149,"lon":5.39874,"is_reserved":false,"is_disabled":true,"rental_uris":{"android":"levelo://app?vid=84133b2c-54f7-40c0-9db6-ff896dc83184","ios":"levelo://app?vid=84133b2c-54f7-40c0-9db6-ff896dc83184"},"vehicle_type_id":"4","last_reported":1753117961,"current_range_meters":6800,"station_id":"ce4bh0h2rcd13ifvqd40","pricing_plan_id":"cebpf4jnsgd1na2vs0mg"},{"bike_id":"ef5c1446-37bd-4830-b7b0-ea420576a56f","system_id":"levelo_inurba_marseille","lat":43.268,"lon":5.40258,"is_reserved":false,"is_disabled":true,"rental_uris":{"android":"levelo://app?vid=ef5c1446-37bd-4830-b7b0-ea420576a56f","ios":"levelo://app?vid=ef5c1446-37bd-4830-b7b0-ea420576a56f"},"vehicle_type_id":"4","last_reported":1753117961,"current_range_meters":6800,"station_id":"ce501612rcd8frsf0b60","pricing_plan_id":"cebpf4jnsgd1na2vs0mg"},{"bike_id":"d2d1ed2c-939f-4d46-97dc-d56fb1b47ae0","system_id":"levelo_inurba_marseille","lat":43.292236,"lon":5.360672,"is_reserved":false,"is_disabled":false,"rental_uris":{"android":"levelo://app?vid=d2d1ed2c-939f-4d46-97dc-d56fb1b47ae0","ios":"levelo://app?vid=d2d1ed2c-939f-4d46-97dc-d56fb1b47ae0"},"vehicle_type_id":"4","last_reported":1753117961,"current_range_meters":6800,"station_id":"ce4bhbh2rcd13ifvqeqg","pricing_plan_id":"cebpf4jnsgd1na2vs0mg"},{"bike_id":"f18952d9-de72-4b00-ac50-ca46d1bc16b9","system_id":"levelo_inurba_marseille","lat":43.2119,"lon":5.350743,"is_reserved":false,"is_disabled":false,"rental_uris":{"android":"levelo://app?vid=f18952d9-de72-4b00-ac50-ca46d1bc16b9","ios":"levelo://app?vid=f18952d9-de72-4b00-ac50-ca46d1bc16b9"},"vehicle_type_id":"4","last_reported":1753117961,"current_range_meters":7200,"station_id":"st_cvj6sg6p6f1abm77japg","pricing_plan_id":"cebpf4jnsgd1na2vs0mg"},{"bike_id":"ab222931-4692-4ce3-b482-41f490d6fbfc","system_id":"levelo_inurba_marseille","lat":43.302592,"lon":5.400688,"is_reserved":false,"is_disabled":false,"rental_uris":{"android":"levelo://app?vid=ab222931-4692-4ce3-b482-41f490d6fbfc","ios":"levelo://app?vid=ab222931-4692-4ce3-b482-41f490d6fbfc"},"vehicle_type_id":"4","last_reported":1753117961,"current_range_meters":8000,"station_id":"","pricing_plan_id":"cebpf4jnsgd1na2vs0mg"},{"bike_id":"d7fe672b-936b-4d1e-b1d3-c462a46c4d53","system_id":"levelo_inurba_marseille","lat":43.26209,"lon":5.37926,"is_reserved":false,"is_disabled":false,"rental_uris":{"android":"levelo://app?vid=d7fe672b-936b-4d1e-b1d3-c462a46c4d53","ios":"levelo://app?vid=d7fe672b-936b-4d1e-b1d3-c462a46c4d53"},"vehicle_type_id":"4","last_reported":1753117961,"current_range_meters":8000,"station_id":"ce4bhjp2rcd13ifvqg90","pricing_plan_id":"cebpf4jnsgd1na2vs0mg"},{"bike_id":"3423441d-6e3c-4eba-a1d5-1157326e62b8","system_id":"levelo_inurba_marseille","lat":43.2861,"lon":5.3511,"is_reserved":false,"is_disabled":false,"rental_uris":{"android":"levelo://app?vid=3423441d-6e3c-4eba-a1d5-1157326e62b8","ios":"levelo://app?vid=3423441d-6e3c-4eba-a1d5-1157326e62b8"},"vehicle_type_id":"4","last_reported":1753117961,"current_range_meters":8000,"station_id":"ce4bhch2rcd13ifvqeug","pricing_plan_id":"cebpf4jnsgd1na2vs0mg"},{"bike_id":"9036d315-4723-4cdd-9f68-856fe767f9c3","system_id":"levelo_inurba_marseille","lat":43.331457,"lon":5.381743,"is_reserved":false,"is_disabled":false,"rental_uris":{"android":"levelo://app?vid=9036d315-4723-4cdd-9f68-856fe767f9c3","ios":"levelo://app?vid=9036d315-4723-4cdd-9f68-856fe767f9c3"},"vehicle_type_id":"4","last_reported":1753117961,"current_range_meters":8400,"station_id":"","pricing_plan_id":"cebpf4jnsgd1na2vs0mg"},{"bike_id":"e2e86d79-641d-47ff-b255-3d033ef2cec7","system_id":"levelo_inurba_marseille","lat":43.29578,"lon":5.39971,"is_reserved":false,"is_disabled":false,"rental_uris":{"android":"levelo://app?vid=e2e86d79-641d-47ff-b255-3d033ef2cec7","ios":"levelo://app?vid=e2e86d79-641d-47ff-b255-3d033ef2cec7"},"vehicle_type_id":"4","last_reported":1753117961,"current_range_meters":8400,"station_id":"ce4bh312rcd13ifvqdj0","pricing_plan_id":"cebpf4jnsgd1na2vs0mg"},{"bike_id":"44b9480f-9040-45e4-9f62-016510ef87be","system_id":"levelo_inurba_marseille","lat":43.30358,"lon":5.41877,"is_reserved":false,"is_disabled":false,"rental_uris":{"android":"levelo://app?vid=44b9480f-9040-45e4-9f62-016510ef87be","ios":"levelo://app?vid=44b9480f-9040-45e4-9f62-016510ef87be"},"vehicle_type_id":"4","last_reported":1753117961,"current_range_meters":8400,"station_id":"ce4bhop2rcd13ifvqh7g","pricing_plan_id":"cebpf4jnsgd1na2vs0mg"},{"bike_id":"06333f60-d9ea-43c9-ba2a-80c3002c726d","system_id":"levelo_inurba_marseille","lat":43.21197,"lon":5.35074,"is_reserved":false,"is_disabled":false,"rental_uris":{"android":"levelo://app?vid=06333f60-d9ea-43c9-ba2a-80c3002c726d","ios":"levelo://app?vid=06333f60-d9ea-43c9-ba2a-80c3002c726d"},"vehicle_type_id":"4","last_reported":1753117961,"current_range_meters":8400,"station_id":"st_cvj6sg6p6f1abm77japg","pricing_plan_id":"cebpf4jnsgd1na2vs0mg"},{"bike_id":"54c62cfd-190d-4a0a-99a0-7a5cc5804e08","system_id":"levelo_inurba_marseille","lat":43.21185,"lon":5.35071,"is_reserved":false,"is_disabled":false,"rental_uris":{"android":"levelo://app?vid=54c62cfd-190d-4a0a-99a0-7a5cc5804e08","ios":"levelo://app?vid=54c62cfd-190d-4a0a-99a0-7a5cc5804e08"},"vehicle_type_id":"4","last_reported":1753117961,"current_range_meters":8800,"station_id":"st_cvj6sg6p6f1abm77japg","pricing_plan_id":"cebpf4jnsgd1na2vs0mg"},{"bike_id":"84ef117c-ed19-4180-9901-38d884946c45","system_id":"levelo_inurba_marseille","lat":43.30735,"lon":5.42447,"is_reserved":false,"is_disabled":false,"rental_uris":{"android":"levelo://app?vid=84ef117c-ed19-4180-9901-38d884946c45","ios":"levelo://app?vid=84ef117c-ed19-4180-9901-38d884946c45"},"vehicle_type_id":"4","last_reported":1753117961,"current_range_meters":8800,"station_id":"st_cvj6ca6bvosntc0bfgr0","pricing_plan_id":"cebpf4jnsgd1na2vs0mg"},{"bike_id":"f089b17b-e03d-4380-b5a0-209595a63a36","system_id":"levelo_inurba_marseille","lat":43.27497,"lon":5.42454,"is_reserved":false,"is_disabled":false,"rental_uris":{"android":"levelo://app?vid=f089b17b-e03d-4380-b5a0-209595a63a36","ios":"levelo://app?vid=f089b17b-e03d-4380-b5a0-209595a63a36"},"vehicle_type_id":"4","last_reported":1753117961,"current_range_meters":8800,"station_id":"ce4bhn92rcd13ifvqgrg","pricing_plan_id":"cebpf4jnsgd1na2vs0mg"},{"bike_id":"1ba53a6a-bc07-4054-96a1-93cbaa5d985d","system_id":"levelo_inurba_marseille","lat":43.254944,"lon":5.376498,"is_reserved":false,"is_disabled":false,"rental_uris":{"android":"levelo://app?vid=1ba53a6a-bc07-4054-96a1-93cbaa5d985d","ios":"levelo://app?vid=1ba53a6a-bc07-4054-96a1-93cbaa5d985d"},"vehicle_type_id":"4","last_reported":1753117961,"current_range_meters":8800,"station_id":"ce4bhh12rcd13ifvqff0","pricing_plan_id":"cebpf4jnsgd1na2vs0mg"},{"bike_id":"d75748fa-edfe-4b78-8c8f-a5c186d27567","system_id":"levelo_inurba_marseille","lat":43.29305,"lon":5.37176,"is_reserved":false,"is_disabled":false,"rental_uris":{"android":"levelo://app?vid=d75748fa-edfe-4b78-8c8f-a5c186d27567","ios":"levelo://app?vid=d75748fa-edfe-4b78-8c8f-a5c186d27567"},"vehicle_type_id":"4","last_reported":1753117961,"current_range_meters":9200,"station_id":"ce4bgh92rcd13ifvqb40","pricing_plan_id":"cebpf4jnsgd1na2vs0mg"},{"bike_id":"b45ae7f7-afb9-4836-835e-7857751edce6","system_id":"levelo_inurba_marseille","lat":43.24807,"lon":5.37457,"is_reserved":false,"is_disabled":false,"rental_uris":{"android":"levelo://app?vid=b45ae7f7-afb9-4836-835e-7857751edce6","ios":"levelo://app?vid=b45ae7f7-afb9-4836-835e-7857751edce6"},"vehicle_type_id":"4","last_reported":1753117961,"current_range_meters":9200,"station_id":"ce4bhgh2rcd13ifvqfb0","pricing_plan_id":"cebpf4jnsgd1na2vs0mg"},{"bike_id":"dee6628b-f370-478a-a4db-32c84542aee7","system_id":"levelo_inurba_marseille","lat":43.33289,"lon":5.3904,"is_reserved":false,"is_disabled":false,"rental_uris":{"android":"levelo://app?vid=dee6628b-f370-478a-a4db-32c84542aee7","ios":"levelo://app?vid=dee6628b-f370-478a-a4db-32c84542aee7"},"vehicle_type_id":"4","last_reported":1753117961,"current_range_meters":9200,"station_id":"","pricing_plan_id":"cebpf4jnsgd1na2vs0mg"},{"bike_id":"33158063-5608-4f9d-be25-829030b52068","system_id":"levelo_inurba_marseille","lat":43.28865,"lon":5.35853,"is_reserved":false,"is_disabled":false,"rental_uris":{"android":"levelo://app?vid=33158063-5608-4f9d-be25-829030b52068","ios":"levelo://app?vid=33158063-5608-4f9d-be25-829030b52068"},"vehicle_type_id":"4","last_reported":1753117961,"current_range_meters":9200,"station_id":"ce4bhb12rcd13ifvqem0","pricing_plan_id":"cebpf4jnsgd1na2vs0mg"},{"bike_id":"a93dde99-7b3b-4907-828c-2b796f672160","system_id":"levelo_inurba_marseille","lat":43.28419,"lon":5.34975,"is_reserved":false,"is_disabled":false,"rental_uris":{"android":"levelo://app?vid=a93dde99-7b3b-4907-828c-2b796f672160","ios":"levelo://app?vid=a93dde99-7b3b-4907-828c-2b796f672160"},"vehicle_type_id":"4","last_reported":1753117961,"current_range_meters":9600,"station_id":"ce4bhbh2rcd13ifvqepg","pricing_plan_id":"cebpf4jnsgd1na2vs0mg"},{"bike_id":"d39694e8-0b6d-4211-9e8a-53bcd17d271d","system_id":"levelo_inurba_marseille","lat":43.30327,"lon":5.40434,"is_reserved":false,"is_disabled":false,"rental_uris":{"android":"levelo://app?vid=d39694e8-0b6d-4211-9e8a-53bcd17d271d","ios":"levelo://app?vid=d39694e8-0b6d-4211-9e8a-53bcd17d271d"},"vehicle_type_id":"4","last_reported":1753117961,"current_range_meters":9600,"station_id":"ce4bh012rcd13ifvqd10","pricing_plan_id":"cebpf4jnsgd1na2vs0mg"},{"bike_id":"37d8cb1b-1988-4390-9e4c-4eca73c82c19","system_id":"levelo_inurba_marseille","lat":43.261966,"lon":5.374513,"is_reserved":false,"is_disabled":true,"rental_uris":{"android":"levelo://app?vid=37d8cb1b-1988-4390-9e4c-4eca73c82c19","ios":"levelo://app?vid=37d8cb1b-1988-4390-9e4c-4eca73c82c19"},"vehicle_type_id":"4","last_reported":1753117961,"current_range_meters":9600,"station_id":"ce4bhgp2rcd13ifvqfc0","pricing_plan_id":"cebpf4jnsgd1na2vs0mg"},{"bike_id":"61a3b3d3-b849-4531-89e6-7ab0d5c4e532","system_id":"levelo_inurba_marseille","lat":43.2999,"lon":5.38485,"is_reserved":false,"is_disabled":false,"rental_uris":{"android":"levelo://app?vid=61a3b3d3-b849-4531-89e6-7ab0d5c4e532","ios":"levelo://app?vid=61a3b3d3-b849-4531-89e6-7ab0d5c4e532"},"vehicle_type_id":"4","last_reported":1753117961,"current_range_meters":9600,"station_id":"ce4bgj92rcd13ifvqbd0","pricing_plan_id":"cebpf4jnsgd1na2vs0mg"},{"bike_id":"ed416463-51a9-4d52-bfdf-135f126afb2e","system_id":"levelo_inurba_marseille","lat":43.26496,"lon":5.39535,"is_reserved":false,"is_disabled":false,"rental_uris":{"android":"levelo://app?vid=ed416463-51a9-4d52-bfdf-135f126afb2e","ios":"levelo://app?vid=ed416463-51a9-4d52-bfdf-135f126afb2e"},"vehicle_type_id":"4","last_reported":1753117961,"current_range_meters":9600,"station_id":"ce4bhi12rcd13ifvqfq0","pricing_plan_id":"cebpf4jnsgd1na2vs0mg"},{"bike_id":"46e102b1-5078-44b1-b4bd-64369dd8b04f","system_id":"levelo_inurba_marseille","lat":43.27919,"lon":5.3958,"is_reserved":false,"is_disabled":false,"rental_uris":{"android":"levelo://app?vid=46e102b1-5078-44b1-b4bd-64369dd8b04f","ios":"levelo://app?vid=46e102b1-5078-44b1-b4bd-64369dd8b04f"},"vehicle_type_id":"4","last_reported":1753117961,"current_range_meters":10000,"station_id":"ce4bhf92rcd13ifvqf40","pricing_plan_id":"cebpf4jnsgd1na2vs0mg"},{"bike_id":"b7082957-3a9f-4d91-9a0b-08d65eafeb7f","system_id":"levelo_inurba_marseille","lat":43.25016,"lon":5.38907,"is_reserved":false,"is_disabled":true,"rental_uris":{"android":"levelo://app?vid=b7082957-3a9f-4d91-9a0b-08d65eafeb7f","ios":"levelo://app?vid=b7082957-3a9f-4d91-9a0b-08d65eafeb7f"},"vehicle_type_id":"4","last_reported":1753117961,"current_range_meters":10000,"station_id":"ce4bhgp2rcd13ifvqfd0","pricing_plan_id":"cebpf4jnsgd1na2vs0mg"},{"bike_id":"19b1fdca-3da7-4396-ace6-03da642e33d8","system_id":"levelo_inurba_marseille","lat":43.26059,"lon":5.39398,"is_reserved":false,"is_disabled":false,"rental_uris":{"android":"levelo://app?vid=19b1fdca-3da7-4396-ace6-03da642e33d8","ios":"levelo://app?vid=19b1fdca-3da7-4396-ace6-03da642e33d8"},"vehicle_type_id":"4","last_reported":1753117961,"current_range_meters":10000,"station_id":"ce4bhh92rcd13ifvqfj0","pricing_plan_id":"cebpf4jnsgd1na2vs0mg"},{"bike_id":"53cb4f43-b1af-4efe-9f40-e0338804f4d4","system_id":"levelo_inurba_marseille","lat":43.31293,"lon":5.39017,"is_reserved":false,"is_disabled":false,"rental_uris":{"android":"levelo://app?vid=53cb4f43-b1af-4efe-9f40-e0338804f4d4","ios":"levelo://app?vid=53cb4f43-b1af-4efe-9f40-e0338804f4d4"},"vehicle_type_id":"4","last_reported":1753117961,"current_range_meters":10800,"station_id":"","pricing_plan_id":"cebpf4jnsgd1na2vs0mg"},{"bike_id":"3669335c-51b8-4ef9-8bdd-2881dd86a0cf","system_id":"levelo_inurba_marseille","lat":43.28417,"lon":5.34976,"is_reserved":false,"is_disabled":false,"rental_uris":{"android":"levelo://app?vid=3669335c-51b8-4ef9-8bdd-2881dd86a0cf","ios":"levelo://app?vid=3669335c-51b8-4ef9-8bdd-2881dd86a0cf"},"vehicle_type_id":"4","last_reported":1753117961,"current_range_meters":10800,"station_id":"ce4bhbh2rcd13ifvqepg","pricing_plan_id":"cebpf4jnsgd1na2vs0mg"},{"bike_id":"5512a66a-8f78-427a-84a1-ade479b1c068","system_id":"levelo_inurba_marseille","lat":43.24807,"lon":5.37448,"is_reserved":false,"is_disabled":false,"rental_uris":{"android":"levelo://app?vid=5512a66a-8f78-427a-84a1-ade479b1c068","ios":"levelo://app?vid=5512a66a-8f78-427a-84a1-ade479b1c068"},"vehicle_type_id":"4","last_reported":1753117961,"current_range_meters":10800,"station_id":"ce4bhgh2rcd13ifvqfb0","pricing_plan_id":"cebpf4jnsgd1na2vs0mg"},{"bike_id":"0cb2c80a-7457-4a4a-ad92-f0361b5225d6","system_id":"levelo_inurba_marseille","lat":43.24413,"lon":5.37413,"is_reserved":false,"is_disabled":false,"rental_uris":{"android":"levelo://app?vid=0cb2c80a-7457-4a4a-ad92-f0361b5225d6","ios":"levelo://app?vid=0cb2c80a-7457-4a4a-ad92-f0361b5225d6"},"vehicle_type_id":"4","last_reported":1753117961,"current_range_meters":10800,"station_id":"","pricing_plan_id":"cebpf4jnsgd1na2vs0mg"},{"bike_id":"b77fe6c8-1f91-4b1b-8115-632a32b6995a","system_id":"levelo_inurba_marseille","lat":43.29795,"lon":5.38084,"is_reserved":false,"is_disabled":false,"rental_uris":{"android":"levelo://app?vid=b77fe6c8-1f91-4b1b-8115-632a32b6995a","ios":"levelo://app?vid=b77fe6c8-1f91-4b1b-8115-632a32b6995a"},"vehicle_type_id":"4","last_reported":1753117961,"current_range_meters":10800,"station_id":"ce4bgip2rcd13ifvqbb0","pricing_plan_id":"cebpf4jnsgd1na2vs0mg"},{"bike_id":"2e98944f-acb7-4d0f-96e7-12e14aca88fe","system_id":"levelo_inurba_marseille","lat":43.29802,"lon":5.38085,"is_reserved":false,"is_disabled":false,"rental_uris":{"android":"levelo://app?vid=2e98944f-acb7-4d0f-96e7-12e14aca88fe","ios":"levelo://app?vid=2e98944f-acb7-4d0f-96e7-12e14aca88fe"},"vehicle_type_id":"4","last_reported":1753117961,"current_range_meters":11200,"station_id":"ce4bgip2rcd13ifvqbb0","pricing_plan_id":"cebpf4jnsgd1na2vs0mg"},{"bike_id":"523d528a-80ef-4c0a-986f-e24abf3cd641","system_id":"levelo_inurba_marseille","lat":43.27317,"lon":5.39106,"is_reserved":false,"is_disabled":true,"rental_uris":{"android":"levelo://app?vid=523d528a-80ef-4c0a-986f-e24abf3cd641","ios":"levelo://app?vid=523d528a-80ef-4c0a-986f-e24abf3cd641"},"vehicle_type_id":"4","last_reported":1753117961,"current_range_meters":11200,"station_id":"ce4bhgp2rcd13ifvqfe0","pricing_plan_id":"cebpf4jnsgd1na2vs0mg"},{"bike_id":"52f73733-807a-4be0-8cd3-4ed9ea3e96c4","system_id":"levelo_inurba_marseille","lat":43.30783,"lon":5.37646,"is_reserved":false,"is_disabled":false,"rental_uris":{"android":"levelo://app?vid=52f73733-807a-4be0-8cd3-4ed9ea3e96c4","ios":"levelo://app?vid=52f73733-807a-4be0-8cd3-4ed9ea3e96c4"},"vehicle_type_id":"4","last_reported":1753117961,"current_range_meters":10800,"station_id":"ce4bgv92rcd13ifvqcq0","pricing_plan_id":"cebpf4jnsgd1na2vs0mg"},{"bike_id":"579b68b0-245d-43bc-8fd5-bbdd3f7b012e","system_id":"levelo_inurba_marseille","lat":43.28452,"lon":5.35875,"is_reserved":false,"is_disabled":false,"rental_uris":{"android":"levelo://app?vid=579b68b0-245d-43bc-8fd5-bbdd3f7b012e","ios":"levelo://app?vid=579b68b0-245d-43bc-8fd5-bbdd3f7b012e"},"vehicle_type_id":"4","last_reported":1753117961,"current_range_meters":11200,"station_id":"ce4bhah2rcd13ifvqei0","pricing_plan_id":"cebpf4jnsgd1na2vs0mg"},{"bike_id":"e0617db1-230f-450a-b932-d4190411fa95","system_id":"levelo_inurba_marseille","lat":43.29604,"lon":5.37343,"is_reserved":false,"is_disabled":false,"rental_uris":{"android":"levelo://app?vid=e0617db1-230f-450a-b932-d4190411fa95","ios":"levelo://app?vid=e0617db1-230f-450a-b932-d4190411fa95"},"vehicle_type_id":"4","last_reported":1753117961,"current_range_meters":11600,"station_id":"","pricing_plan_id":"cebpf4jnsgd1na2vs0mg"},{"bike_id":"fa735810-c8ef-4655-9986-45687b55c457","system_id":"levelo_inurba_marseille","lat":43.3015,"lon":5.37413,"is_reserved":false,"is_disabled":false,"rental_uris":{"android":"levelo://app?vid=fa735810-c8ef-4655-9986-45687b55c457","ios":"levelo://app?vid=fa735810-c8ef-4655-9986-45687b55c457"},"vehicle_type_id":"4","last_reported":1753117961,"current_range_meters":10800,"station_id":"ce4bgs92rcd13ifvqcc0","pricing_plan_id":"cebpf4jnsgd1na2vs0mg"},{"bike_id":"ba682993-f173-4c0c-b1d5-de60caf1bc81","system_id":"levelo_inurba_marseille","lat":43.231954,"lon":5.35556,"is_reserved":false,"is_disabled":false,"rental_uris":{"android":"levelo://app?vid=ba682993-f173-4c0c-b1d5-de60caf1bc81","ios":"levelo://app?vid=ba682993-f173-4c0c-b1d5-de60caf1bc81"},"vehicle_type_id":"4","last_reported":1753117961,"current_range_meters":11600,"station_id":"ce4bhu92rcd13ifvqi70","pricing_plan_id":"cebpf4jnsgd1na2vs0mg"},{"bike_id":"c695f162-6b42-40d7-8780-ed224e75f8e8","system_id":"levelo_inurba_marseille","lat":43.33773,"lon":5.37477,"is_reserved":false,"is_disabled":false,"rental_uris":{"android":"levelo://app?vid=c695f162-6b42-40d7-8780-ed224e75f8e8","ios":"levelo://app?vid=c695f162-6b42-40d7-8780-ed224e75f8e8"},"vehicle_type_id":"4","last_reported":1753117961,"current_range_meters":11600,"station_id":"","pricing_plan_id":"cebpf4jnsgd1na2vs0mg"},{"bike_id":"b6e76832-b199-4086-875c-717f2f30f739","system_id":"levelo_inurba_marseille","lat":43.24192,"lon":5.36453,"is_reserved":false,"is_disabled":false,"rental_uris":{"android":"levelo://app?vid=b6e76832-b199-4086-875c-717f2f30f739","ios":"levelo://app?vid=b6e76832-b199-4086-875c-717f2f30f739"},"vehicle_type_id":"4","last_reported":1753117961,"current_range_meters":11600,"station_id":"","pricing_plan_id":"cebpf4jnsgd1na2vs0mg"},{"bike_id":"7230cb4d-8cd2-4957-9d99-c27265ab6ce1","system_id":"levelo_inurba_marseille","lat":43.29299,"lon":5.37168,"is_reserved":false,"is_disabled":true,"rental_uris":{"android":"levelo://app?vid=7230cb4d-8cd2-4957-9d99-c27265ab6ce1","ios":"levelo://app?vid=7230cb4d-8cd2-4957-9d99-c27265ab6ce1"},"vehicle_type_id":"4","last_reported":1753117961,"current_range_meters":11600,"station_id":"","pricing_plan_id":"cebpf4jnsgd1na2vs0mg"},{"bike_id":"0559fdf7-6c68-4f3d-8df7-853ce53afec3","system_id":"levelo_inurba_marseille","lat":43.24662,"lon":5.38164,"is_reserved":false,"is_disabled":false,"rental_uris":{"android":"levelo://app?vid=0559fdf7-6c68-4f3d-8df7-853ce53afec3","ios":"levelo://app?vid=0559fdf7-6c68-4f3d-8df7-853ce53afec3"},"vehicle_type_id":"4","last_reported":1753117961,"current_range_meters":11600,"station_id":"ce4bhih2rcd13ifvqfr0","pricing_plan_id":"cebpf4jnsgd1na2vs0mg"},{"bike_id":"5a42e90a-94ef-4a1b-b43d-3c279f1b53e1","system_id":"levelo_inurba_marseille","lat":43.231871,"lon":5.355701,"is_reserved":false,"is_disabled":false,"rental_uris":{"android":"levelo://app?vid=5a42e90a-94ef-4a1b-b43d-3c279f1b53e1","ios":"levelo://app?vid=5a42e90a-94ef-4a1b-b43d-3c279f1b53e1"},"vehicle_type_id":"4","last_reported":1753117961,"current_range_meters":11600,"station_id":"ce4bhu92rcd13ifvqi70","pricing_plan_id":"cebpf4jnsgd1na2vs0mg"},{"bike_id":"7f4967d0-1ab9-4d58-a79f-394fef3c4842","system_id":"levelo_inurba_marseille","lat":43.28081,"lon":5.39661,"is_reserved":false,"is_disabled":false,"rental_uris":{"android":"levelo://app?vid=7f4967d0-1ab9-4d58-a79f-394fef3c4842","ios":"levelo://app?vid=7f4967d0-1ab9-4d58-a79f-394fef3c4842"},"vehicle_type_id":"4","last_reported":1753117961,"current_range_meters":12000,"station_id":"ce4bho12rcd13ifvqh2g","pricing_plan_id":"cebpf4jnsgd1na2vs0mg"},{"bike_id":"8ec3987c-4e5e-4f67-aba7-96e36709e826","system_id":"levelo_inurba_marseille","lat":43.32732,"lon":5.40927,"is_reserved":false,"is_disabled":false,"rental_uris":{"android":"levelo://app?vid=8ec3987c-4e5e-4f67-aba7-96e36709e826","ios":"levelo://app?vid=8ec3987c-4e5e-4f67-aba7-96e36709e826"},"vehicle_type_id":"4","last_reported":1753117961,"current_range_meters":12000,"station_id":"","pricing_plan_id":"cebpf4jnsgd1na2vs0mg"},{"bike_id":"0921f7df-2f57-4078-aed8-d9e6f4afda21","system_id":"levelo_inurba_marseille","lat":43.24186,"lon":5.36389,"is_reserved":false,"is_disabled":false,"rental_uris":{"android":"levelo://app?vid=0921f7df-2f57-4078-aed8-d9e6f4afda21","ios":"levelo://app?vid=0921f7df-2f57-4078-aed8-d9e6f4afda21"},"vehicle_type_id":"4","last_reported":1753117961,"current_range_meters":12400,"station_id":"cpo36qri1sfpv3e86is0","pricing_plan_id":"cebpf4jnsgd1na2vs0mg"},{"bike_id":"b66b7bcf-074a-4ddd-b865-56e52bca6033","system_id":"levelo_inurba_marseille","lat":43.283067,"lon":5.352367,"is_reserved":false,"is_disabled":false,"rental_uris":{"android":"levelo://app?vid=b66b7bcf-074a-4ddd-b865-56e52bca6033","ios":"levelo://app?vid=b66b7bcf-074a-4ddd-b865-56e52bca6033"},"vehicle_type_id":"4","last_reported":1753117961,"current_range_meters":12400,"station_id":"","pricing_plan_id":"cebpf4jnsgd1na2vs0mg"},{"bike_id":"b355686e-9711-4834-88a1-57b23f58ae4b","system_id":"levelo_inurba_marseille","lat":43.23201,"lon":5.35536,"is_reserved":false,"is_disabled":false,"rental_uris":{"android":"levelo://app?vid=b355686e-9711-4834-88a1-57b23f58ae4b","ios":"levelo://app?vid=b355686e-9711-4834-88a1-57b23f58ae4b"},"vehicle_type_id":"4","last_reported":1753117961,"current_range_meters":12400,"station_id":"ce4bhu92rcd13ifvqi70","pricing_plan_id":"cebpf4jnsgd1na2vs0mg"},{"bike_id":"8d6e25ce-7f87-465b-b6e3-15e0bd63f705","system_id":"levelo_inurba_marseille","lat":43.25504,"lon":5.37651,"is_reserved":false,"is_disabled":false,"rental_uris":{"android":"levelo://app?vid=8d6e25ce-7f87-465b-b6e3-15e0bd63f705","ios":"levelo://app?vid=8d6e25ce-7f87-465b-b6e3-15e0bd63f705"},"vehicle_type_id":"4","last_reported":1753117961,"current_range_meters":12400,"station_id":"ce4bhh12rcd13ifvqff0","pricing_plan_id":"cebpf4jnsgd1na2vs0mg"},{"bike_id":"d2a9ef2a-3ecf-454e-ac8d-c81b3a196753","system_id":"levelo_inurba_marseille","lat":43.28623,"lon":5.3822,"is_reserved":false,"is_disabled":false,"rental_uris":{"android":"levelo://app?vid=d2a9ef2a-3ecf-454e-ac8d-c81b3a196753","ios":"levelo://app?vid=d2a9ef2a-3ecf-454e-ac8d-c81b3a196753"},"vehicle_type_id":"4","last_reported":1753117961,"current_range_meters":12400,"station_id":"","pricing_plan_id":"cebpf4jnsgd1na2vs0mg"},{"bike_id":"6025dd25-702e-4ed3-9fd2-3f9a61664560","system_id":"levelo_inurba_marseille","lat":43.31729,"lon":5.42403,"is_reserved":false,"is_disabled":false,"rental_uris":{"android":"levelo://app?vid=6025dd25-702e-4ed3-9fd2-3f9a61664560","ios":"levelo://app?vid=6025dd25-702e-4ed3-9fd2-3f9a61664560"},"vehicle_type_id":"4","last_reported":1753117961,"current_range_meters":12400,"station_id":"ce4bhp92rcd13ifvqhbg","pricing_plan_id":"cebpf4jnsgd1na2vs0mg"},{"bike_id":"a044c2d6-82df-44e2-a7bb-4de01d9c4ef5","system_id":"levelo_inurba_marseille","lat":43.303594,"lon":5.373835,"is_reserved":false,"is_disabled":false,"rental_uris":{"android":"levelo://app?vid=a044c2d6-82df-44e2-a7bb-4de01d9c4ef5","ios":"levelo://app?vid=a044c2d6-82df-44e2-a7bb-4de01d9c4ef5"},"vehicle_type_id":"4","last_reported":1753117961,"current_range_meters":12800,"station_id":"ce4bhr12rcd13ifvqhqg","pricing_plan_id":"cebpf4jnsgd1na2vs0mg"},{"bike_id":"07481afa-6635-4dc1-8a31-8a97247e4afb","system_id":"levelo_inurba_marseille","lat":43.21198,"lon":5.35063,"is_reserved":false,"is_disabled":false,"rental_uris":{"android":"levelo://app?vid=07481afa-6635-4dc1-8a31-8a97247e4afb","ios":"levelo://app?vid=07481afa-6635-4dc1-8a31-8a97247e4afb"},"vehicle_type_id":"4","last_reported":1753117961,"current_range_meters":12800,"station_id":"st_cvj6sg6p6f1abm77japg","pricing_plan_id":"cebpf4jnsgd1na2vs0mg"},{"bike_id":"e73311b7-fa70-4b1e-a5d0-1df10e8c7128","system_id":"levelo_inurba_marseille","lat":43.2808,"lon":5.39668,"is_reserved":false,"is_disabled":false,"rental_uris":{"android":"levelo://app?vid=e73311b7-fa70-4b1e-a5d0-1df10e8c7128","ios":"levelo://app?vid=e73311b7-fa70-4b1e-a5d0-1df10e8c7128"},"vehicle_type_id":"4","last_reported":1753117961,"current_range_meters":12800,"station_id":"ce4bho12rcd13ifvqh2g","pricing_plan_id":"cebpf4jnsgd1na2vs0mg"},{"bike_id":"e5aa5efc-870f-4fb3-9f4d-c06e244642c5","system_id":"levelo_inurba_marseille","lat":43.31224,"lon":5.36865,"is_reserved":false,"is_disabled":false,"rental_uris":{"android":"levelo://app?vid=e5aa5efc-870f-4fb3-9f4d-c06e244642c5","ios":"levelo://app?vid=e5aa5efc-870f-4fb3-9f4d-c06e244642c5"},"vehicle_type_id":"4","last_reported":1753117961,"current_range_meters":12800,"station_id":"ce4bgl92rcd13ifvqbq0","pricing_plan_id":"cebpf4jnsgd1na2vs0mg"},{"bike_id":"c3dcbc09-4603-46de-86c3-0077bf1f382e","system_id":"levelo_inurba_marseille","lat":43.2623,"lon":5.4045,"is_reserved":false,"is_disabled":false,"rental_uris":{"android":"levelo://app?vid=c3dcbc09-4603-46de-86c3-0077bf1f382e","ios":"levelo://app?vid=c3dcbc09-4603-46de-86c3-0077bf1f382e"},"vehicle_type_id":"4","last_reported":1753117961,"current_range_meters":12800,"station_id":"ce4bhmh2rcd13ifvqgmg","pricing_plan_id":"cebpf4jnsgd1na2vs0mg"},{"bike_id":"829915d1-e486-4f77-a21a-1a0a65722b23","system_id":"levelo_inurba_marseille","lat":43.270757,"lon":5.422753,"is_reserved":false,"is_disabled":false,"rental_uris":{"android":"levelo://app?vid=829915d1-e486-4f77-a21a-1a0a65722b23","ios":"levelo://app?vid=829915d1-e486-4f77-a21a-1a0a65722b23"},"vehicle_type_id":"4","last_reported":1753117961,"current_range_meters":12800,"station_id":"ce4bhk92rcd13ifvqgb0","pricing_plan_id":"cebpf4jnsgd1na2vs0mg"},{"bike_id":"9c838529-2f8d-4cf1-ba58-27067ac84219","system_id":"levelo_inurba_marseille","lat":43.24195,"lon":5.36387,"is_reserved":false,"is_disabled":false,"rental_uris":{"android":"levelo://app?vid=9c838529-2f8d-4cf1-ba58-27067ac84219","ios":"levelo://app?vid=9c838529-2f8d-4cf1-ba58-27067ac84219"},"vehicle_type_id":"4","last_reported":1753117961,"current_range_meters":13600,"station_id":"cpo36qri1sfpv3e86is0","pricing_plan_id":"cebpf4jnsgd1na2vs0mg"},{"bike_id":"aced5c27-0821-4b90-8157-b09e16693554","system_id":"levelo_inurba_marseille","lat":43.292,"lon":5.35802,"is_reserved":false,"is_disabled":false,"rental_uris":{"android":"levelo://app?vid=aced5c27-0821-4b90-8157-b09e16693554","ios":"levelo://app?vid=aced5c27-0821-4b90-8157-b09e16693554"},"vehicle_type_id":"4","last_reported":1753117961,"current_range_meters":13600,"station_id":"ce4bhb12rcd13ifvqel0","pricing_plan_id":"cebpf4jnsgd1na2vs0mg"},{"bike_id":"3b806f32-80c1-4bb0-8930-b584a634e14f","system_id":"levelo_inurba_marseille","lat":43.29848,"lon":5.36281,"is_reserved":false,"is_disabled":false,"rental_uris":{"android":"levelo://app?vid=3b806f32-80c1-4bb0-8930-b584a634e14f","ios":"levelo://app?vid=3b806f32-80c1-4bb0-8930-b584a634e14f"},"vehicle_type_id":"4","last_reported":1753117961,"current_range_meters":13600,"station_id":"ce4bgpp2rcd13ifvqc3g","pricing_plan_id":"cebpf4jnsgd1na2vs0mg"},{"bike_id":"ac49738a-4d4f-43d3-9c67-46980e61ae95","system_id":"levelo_inurba_marseille","lat":43.31718,"lon":5.37669,"is_reserved":false,"is_disabled":false,"rental_uris":{"android":"levelo://app?vid=ac49738a-4d4f-43d3-9c67-46980e61ae95","ios":"levelo://app?vid=ac49738a-4d4f-43d3-9c67-46980e61ae95"},"vehicle_type_id":"4","last_reported":1753117961,"current_range_meters":13600,"station_id":"ce4bgth2rcd13ifvqch0","pricing_plan_id":"cebpf4jnsgd1na2vs0mg"},{"bike_id":"98dbb568-fd1a-4b31-87e4-71dc099048a0","system_id":"levelo_inurba_marseille","lat":43.29991,"lon":5.385,"is_reserved":false,"is_disabled":false,"rental_uris":{"android":"levelo://app?vid=98dbb568-fd1a-4b31-87e4-71dc099048a0","ios":"levelo://app?vid=98dbb568-fd1a-4b31-87e4-71dc099048a0"},"vehicle_type_id":"4","last_reported":1753117961,"current_range_meters":14000,"station_id":"ce4bgj92rcd13ifvqbd0","pricing_plan_id":"cebpf4jnsgd1na2vs0mg"},{"bike_id":"3117258b-a0b2-4038-960e-7505313a6719","system_id":"levelo_inurba_marseille","lat":43.321159,"lon":5.367715,"is_reserved":false,"is_disabled":false,"rental_uris":{"android":"levelo://app?vid=3117258b-a0b2-4038-960e-7505313a6719","ios":"levelo://app?vid=3117258b-a0b2-4038-960e-7505313a6719"},"vehicle_type_id":"4","last_reported":1753117961,"current_range_meters":14000,"station_id":"ce4bhrh2rcd13ifvqhug","pricing_plan_id":"cebpf4jnsgd1na2vs0mg"},{"bike_id":"42c6daca-a04f-4385-b335-d79919ebfbf3","system_id":"levelo_inurba_marseille","lat":43.32485,"lon":5.36598,"is_reserved":false,"is_disabled":false,"rental_uris":{"android":"levelo://app?vid=42c6daca-a04f-4385-b335-d79919ebfbf3","ios":"levelo://app?vid=42c6daca-a04f-4385-b335-d79919ebfbf3"},"vehicle_type_id":"4","last_reported":1753117961,"current_range_meters":14000,"station_id":"ce4bhs12rcd13ifvqhvg","pricing_plan_id":"cebpf4jnsgd1na2vs0mg"},{"bike_id":"328e472f-5ae1-4ad9-833e-8bfd84d0df0a","system_id":"levelo_inurba_marseille","lat":43.27984,"lon":5.39918,"is_reserved":false,"is_disabled":false,"rental_uris":{"android":"levelo://app?vid=328e472f-5ae1-4ad9-833e-8bfd84d0df0a","ios":"levelo://app?vid=328e472f-5ae1-4ad9-833e-8bfd84d0df0a"},"vehicle_type_id":"4","last_reported":1753117961,"current_range_meters":14400,"station_id":"","pricing_plan_id":"cebpf4jnsgd1na2vs0mg"},{"bike_id":"44123914-143c-42e4-9ea1-aee4c6daff8f","system_id":"levelo_inurba_marseille","lat":43.29974,"lon":5.37175,"is_reserved":false,"is_disabled":false,"rental_uris":{"android":"levelo://app?vid=44123914-143c-42e4-9ea1-aee4c6daff8f","ios":"levelo://app?vid=44123914-143c-42e4-9ea1-aee4c6daff8f"},"vehicle_type_id":"4","last_reported":1753117961,"current_range_meters":14400,"station_id":"ce4bgr92rcd13ifvqc7g","pricing_plan_id":"cebpf4jnsgd1na2vs0mg"},{"bike_id":"983d4263-f897-41cb-ada9-22b842710b92","system_id":"levelo_inurba_marseille","lat":43.28152,"lon":5.42637,"is_reserved":false,"is_disabled":false,"rental_uris":{"android":"levelo://app?vid=983d4263-f897-41cb-ada9-22b842710b92","ios":"levelo://app?vid=983d4263-f897-41cb-ada9-22b842710b92"},"vehicle_type_id":"4","last_reported":1753117961,"current_range_meters":14400,"station_id":"ce4bhnh2rcd13ifvqgug","pricing_plan_id":"cebpf4jnsgd1na2vs0mg"},{"bike_id":"d8f1bde7-1e22-446f-bde3-e0d398fb3042","system_id":"levelo_inurba_marseille","lat":43.23185,"lon":5.39985,"is_reserved":false,"is_disabled":false,"rental_uris":{"android":"levelo://app?vid=d8f1bde7-1e22-446f-bde3-e0d398fb3042","ios":"levelo://app?vid=d8f1bde7-1e22-446f-bde3-e0d398fb3042"},"vehicle_type_id":"4","last_reported":1753117961,"current_range_meters":14400,"station_id":"ce4bhn12rcd13ifvqgqg","pricing_plan_id":"cebpf4jnsgd1na2vs0mg"},{"bike_id":"1bdd9c08-4ccc-4ba0-a02d-2fb42cf9cd12","system_id":"levelo_inurba_marseille","lat":43.284,"lon":5.37513,"is_reserved":false,"is_disabled":false,"rental_uris":{"android":"levelo://app?vid=1bdd9c08-4ccc-4ba0-a02d-2fb42cf9cd12","ios":"levelo://app?vid=1bdd9c08-4ccc-4ba0-a02d-2fb42cf9cd12"},"vehicle_type_id":"4","last_reported":1753117961,"current_range_meters":14400,"station_id":"ce4bh412rcd13ifvqds0","pricing_plan_id":"cebpf4jnsgd1na2vs0mg"},{"bike_id":"cbd8a204-6979-47c0-955b-47a64c85b743","system_id":"levelo_inurba_marseille","lat":43.31527,"lon":5.3804,"is_reserved":false,"is_disabled":false,"rental_uris":{"android":"levelo://app?vid=cbd8a204-6979-47c0-955b-47a64c85b743","ios":"levelo://app?vid=cbd8a204-6979-47c0-955b-47a64c85b743"},"vehicle_type_id":"4","last_reported":1753117961,"current_range_meters":14400,"station_id":"ce4bhsp2rcd13ifvqi50","pricing_plan_id":"cebpf4jnsgd1na2vs0mg"},{"bike_id":"87d3c11e-b34c-4ab5-a410-26cf68cf1d0f","system_id":"levelo_inurba_marseille","lat":43.301228,"lon":5.398594,"is_reserved":false,"is_disabled":false,"rental_uris":{"android":"levelo://app?vid=87d3c11e-b34c-4ab5-a410-26cf68cf1d0f","ios":"levelo://app?vid=87d3c11e-b34c-4ab5-a410-26cf68cf1d0f"},"vehicle_type_id":"4","last_reported":1753117961,"current_range_meters":14000,"station_id":"ce4bh0h2rcd13ifvqd40","pricing_plan_id":"cebpf4jnsgd1na2vs0mg"},{"bike_id":"1ddfcf4c-6d2f-4f04-a1a5-85cc3c148700","system_id":"levelo_inurba_marseille","lat":43.28269,"lon":5.35058,"is_reserved":false,"is_disabled":false,"rental_uris":{"android":"levelo://app?vid=1ddfcf4c-6d2f-4f04-a1a5-85cc3c148700","ios":"levelo://app?vid=1ddfcf4c-6d2f-4f04-a1a5-85cc3c148700"},"vehicle_type_id":"4","last_reported":1753117961,"current_range_meters":14800,"station_id":"ce4bhbp2rcd13ifvqerg","pricing_plan_id":"cebpf4jnsgd1na2vs0mg"},{"bike_id":"14fa9f74-f17e-4c63-9553-16028c7ef947","system_id":"levelo_inurba_marseille","lat":43.29192,"lon":5.35796,"is_reserved":false,"is_disabled":false,"rental_uris":{"android":"levelo://app?vid=14fa9f74-f17e-4c63-9553-16028c7ef947","ios":"levelo://app?vid=14fa9f74-f17e-4c63-9553-16028c7ef947"},"vehicle_type_id":"4","last_reported":1753117961,"current_range_meters":14800,"station_id":"ce4bhb12rcd13ifvqel0","pricing_plan_id":"cebpf4jnsgd1na2vs0mg"},{"bike_id":"6f350f63-afa4-445f-9581-48971f3af504","system_id":"levelo_inurba_marseille","lat":43.32012,"lon":5.41557,"is_reserved":false,"is_disabled":false,"rental_uris":{"android":"levelo://app?vid=6f350f63-afa4-445f-9581-48971f3af504","ios":"levelo://app?vid=6f350f63-afa4-445f-9581-48971f3af504"},"vehicle_type_id":"4","last_reported":1753117961,"current_range_meters":14800,"station_id":"ce4bhq92rcd13ifvqhkg","pricing_plan_id":"cebpf4jnsgd1na2vs0mg"},{"bike_id":"267da6de-bcd7-4563-8bde-de6f5ddc50c8","system_id":"levelo_inurba_marseille","lat":43.26194,"lon":5.3745,"is_reserved":false,"is_disabled":false,"rental_uris":{"android":"levelo://app?vid=267da6de-bcd7-4563-8bde-de6f5ddc50c8","ios":"levelo://app?vid=267da6de-bcd7-4563-8bde-de6f5ddc50c8"},"vehicle_type_id":"4","last_reported":1753117961,"current_range_meters":14800,"station_id":"ce4bhgp2rcd13ifvqfc0","pricing_plan_id":"cebpf4jnsgd1na2vs0mg"},{"bike_id":"03ad25a0-1d2d-4da6-977a-ec2697554712","system_id":"levelo_inurba_marseille","lat":43.301342,"lon":5.398634,"is_reserved":false,"is_disabled":false,"rental_uris":{"android":"levelo://app?vid=03ad25a0-1d2d-4da6-977a-ec2697554712","ios":"levelo://app?vid=03ad25a0-1d2d-4da6-977a-ec2697554712"},"vehicle_type_id":"4","last_reported":1753117961,"current_range_meters":14800,"station_id":"ce4bh112rcd13ifvqda0","pricing_plan_id":"cebpf4jnsgd1na2vs0mg"},{"bike_id":"96e48d28-168f-4543-9328-a4bf44e820ec","system_id":"levelo_inurba_marseille","lat":43.2623,"lon":5.37441,"is_reserved":false,"is_disabled":false,"rental_uris":{"android":"levelo://app?vid=96e48d28-168f-4543-9328-a4bf44e820ec","ios":"levelo://app?vid=96e48d28-168f-4543-9328-a4bf44e820ec"},"vehicle_type_id":"4","last_reported":1753117961,"current_range_meters":14800,"station_id":"ce4bhgp2rcd13ifvqfc0","pricing_plan_id":"cebpf4jnsgd1na2vs0mg"},{"bike_id":"0cc15ffc-59e6-43b8-849f-a23edea1b08f","system_id":"levelo_inurba_marseille","lat":43.28836,"lon":5.35864,"is_reserved":false,"is_disabled":false,"rental_uris":{"android":"levelo://app?vid=0cc15ffc-59e6-43b8-849f-a23edea1b08f","ios":"levelo://app?vid=0cc15ffc-59e6-43b8-849f-a23edea1b08f"},"vehicle_type_id":"4","last_reported":1753117961,"current_range_meters":14800,"station_id":"ce4bhb12rcd13ifvqem0","pricing_plan_id":"cebpf4jnsgd1na2vs0mg"},{"bike_id":"545d99d7-6f42-40ce-b244-1c2376ed3ebf","system_id":"levelo_inurba_marseille","lat":43.28425,"lon":5.34997,"is_reserved":false,"is_disabled":false,"rental_uris":{"android":"levelo://app?vid=545d99d7-6f42-40ce-b244-1c2376ed3ebf","ios":"levelo://app?vid=545d99d7-6f42-40ce-b244-1c2376ed3ebf"},"vehicle_type_id":"4","last_reported":1753117961,"current_range_meters":14800,"station_id":"ce4bhbh2rcd13ifvqepg","pricing_plan_id":"cebpf4jnsgd1na2vs0mg"},{"bike_id":"2e53d9f8-1df5-48f5-b763-5f8396a6577a","system_id":"levelo_inurba_marseille","lat":43.23198,"lon":5.35553,"is_reserved":false,"is_disabled":false,"rental_uris":{"android":"levelo://app?vid=2e53d9f8-1df5-48f5-b763-5f8396a6577a","ios":"levelo://app?vid=2e53d9f8-1df5-48f5-b763-5f8396a6577a"},"vehicle_type_id":"4","last_reported":1753117961,"current_range_meters":14800,"station_id":"ce4bhu92rcd13ifvqi70","pricing_plan_id":"cebpf4jnsgd1na2vs0mg"},{"bike_id":"33f61526-b640-47b6-9cd8-b7ab50aaf47b","system_id":"levelo_inurba_marseille","lat":43.23177,"lon":5.35546,"is_reserved":false,"is_disabled":false,"rental_uris":{"android":"levelo://app?vid=33f61526-b640-47b6-9cd8-b7ab50aaf47b","ios":"levelo://app?vid=33f61526-b640-47b6-9cd8-b7ab50aaf47b"},"vehicle_type_id":"4","last_reported":1753117961,"current_range_meters":14800,"station_id":"ce4bhu92rcd13ifvqi70","pricing_plan_id":"cebpf4jnsgd1na2vs0mg"},{"bike_id":"1c22819b-ef69-41c3-af80-068c7a58af48","system_id":"levelo_inurba_marseille","lat":43.32116,"lon":5.36787,"is_reserved":false,"is_disabled":false,"rental_uris":{"android":"levelo://app?vid=1c22819b-ef69-41c3-af80-068c7a58af48","ios":"levelo://app?vid=1c22819b-ef69-41c3-af80-068c7a58af48"},"vehicle_type_id":"4","last_reported":1753117961,"current_range_meters":14800,"station_id":"ce4bhrh2rcd13ifvqhug","pricing_plan_id":"cebpf4jnsgd1na2vs0mg"},{"bike_id":"a1c55572-f5ac-4d41-903d-60a4a92533d5","system_id":"levelo_inurba_marseille","lat":43.29196,"lon":5.35807,"is_reserved":false,"is_disabled":false,"rental_uris":{"android":"levelo://app?vid=a1c55572-f5ac-4d41-903d-60a4a92533d5","ios":"levelo://app?vid=a1c55572-f5ac-4d41-903d-60a4a92533d5"},"vehicle_type_id":"4","last_reported":1753117961,"current_range_meters":14800,"station_id":"ce4bhb12rcd13ifvqel0","pricing_plan_id":"cebpf4jnsgd1na2vs0mg"},{"bike_id":"c50f7388-ab20-464d-92b2-207d85c50d56","system_id":"levelo_inurba_marseille","lat":43.30804,"lon":5.38138,"is_reserved":false,"is_disabled":false,"rental_uris":{"android":"levelo://app?vid=c50f7388-ab20-464d-92b2-207d85c50d56","ios":"levelo://app?vid=c50f7388-ab20-464d-92b2-207d85c50d56"},"vehicle_type_id":"4","last_reported":1753117961,"current_range_meters":15200,"station_id":"ce4bgt12rcd13ifvqce0","pricing_plan_id":"cebpf4jnsgd1na2vs0mg"},{"bike_id":"c4ddf749-008b-4a14-af16-f3a13a431402","system_id":"levelo_inurba_marseille","lat":43.21199,"lon":5.35058,"is_reserved":false,"is_disabled":false,"rental_uris":{"android":"levelo://app?vid=c4ddf749-008b-4a14-af16-f3a13a431402","ios":"levelo://app?vid=c4ddf749-008b-4a14-af16-f3a13a431402"},"vehicle_type_id":"4","last_reported":1753117961,"current_range_meters":15200,"station_id":"st_cvj6sg6p6f1abm77japg","pricing_plan_id":"cebpf4jnsgd1na2vs0mg"},{"bike_id":"7347599e-b85b-4370-902c-7d96e95ce228","system_id":"levelo_inurba_marseille","lat":43.28151,"lon":5.4264,"is_reserved":false,"is_disabled":false,"rental_uris":{"android":"levelo://app?vid=7347599e-b85b-4370-902c-7d96e95ce228","ios":"levelo://app?vid=7347599e-b85b-4370-902c-7d96e95ce228"},"vehicle_type_id":"4","last_reported":1753117961,"current_range_meters":15200,"station_id":"ce4bhnh2rcd13ifvqgug","pricing_plan_id":"cebpf4jnsgd1na2vs0mg"},{"bike_id":"f295050c-d390-4a6b-af70-5aafaa49f1bd","system_id":"levelo_inurba_marseille","lat":43.2979,"lon":5.39348,"is_reserved":false,"is_disabled":false,"rental_uris":{"android":"levelo://app?vid=f295050c-d390-4a6b-af70-5aafaa49f1bd","ios":"levelo://app?vid=f295050c-d390-4a6b-af70-5aafaa49f1bd"},"vehicle_type_id":"4","last_reported":1753117961,"current_range_meters":15200,"station_id":"chh1huq6cuj3fo74tm60","pricing_plan_id":"cebpf4jnsgd1na2vs0mg"},{"bike_id":"b815afde-3e29-4338-ad6e-d6423120c9c9","system_id":"levelo_inurba_marseille","lat":43.30133,"lon":5.38781,"is_reserved":false,"is_disabled":false,"rental_uris":{"android":"levelo://app?vid=b815afde-3e29-4338-ad6e-d6423120c9c9","ios":"levelo://app?vid=b815afde-3e29-4338-ad6e-d6423120c9c9"},"vehicle_type_id":"4","last_reported":1753117961,"current_range_meters":15200,"station_id":"ce4bghh2rcd13ifvqb60","pricing_plan_id":"cebpf4jnsgd1na2vs0mg"},{"bike_id":"236be301-b501-4818-b842-bb44288fa44d","system_id":"levelo_inurba_marseille","lat":43.28407,"lon":5.37523,"is_reserved":false,"is_disabled":false,"rental_uris":{"android":"levelo://app?vid=236be301-b501-4818-b842-bb44288fa44d","ios":"levelo://app?vid=236be301-b501-4818-b842-bb44288fa44d"},"vehicle_type_id":"4","last_reported":1753117961,"current_range_meters":15200,"station_id":"ce4bh412rcd13ifvqds0","pricing_plan_id":"cebpf4jnsgd1na2vs0mg"},{"bike_id":"638b7090-e2ac-49db-8007-178c18ab74fb","system_id":"levelo_inurba_marseille","lat":43.30532,"lon":5.38414,"is_reserved":false,"is_disabled":false,"rental_uris":{"android":"levelo://app?vid=638b7090-e2ac-49db-8007-178c18ab74fb","ios":"levelo://app?vid=638b7090-e2ac-49db-8007-178c18ab74fb"},"vehicle_type_id":"4","last_reported":1753117961,"current_range_meters":15200,"station_id":"ce4bgg92rcd13ifvqb30","pricing_plan_id":"cebpf4jnsgd1na2vs0mg"},{"bike_id":"8002c71a-7809-4815-a9bb-c120cc9e3fbd","system_id":"levelo_inurba_marseille","lat":43.30395,"lon":5.42462,"is_reserved":false,"is_disabled":false,"rental_uris":{"android":"levelo://app?vid=8002c71a-7809-4815-a9bb-c120cc9e3fbd","ios":"levelo://app?vid=8002c71a-7809-4815-a9bb-c120cc9e3fbd"},"vehicle_type_id":"4","last_reported":1753117961,"current_range_meters":15200,"station_id":"ce4bghh2rcd13ifvqb60","pricing_plan_id":"cebpf4jnsgd1na2vs0mg"},{"bike_id":"04959137-c5f9-4635-a833-b2c8f75ff59e","system_id":"levelo_inurba_marseille","lat":43.28458,"lon":5.39204,"is_reserved":false,"is_disabled":false,"rental_uris":{"android":"levelo://app?vid=04959137-c5f9-4635-a833-b2c8f75ff59e","ios":"levelo://app?vid=04959137-c5f9-4635-a833-b2c8f75ff59e"},"vehicle_type_id":"4","last_reported":1753117961,"current_range_meters":15200,"station_id":"ce4bhoh2rcd13ifvqh5g","pricing_plan_id":"cebpf4jnsgd1na2vs0mg"},{"bike_id":"1ef5f478-897d-43d6-8f14-7ab04aed6dc7","system_id":"levelo_inurba_marseille","lat":43.302629,"lon":5.400845,"is_reserved":false,"is_disabled":false,"rental_uris":{"android":"levelo://app?vid=1ef5f478-897d-43d6-8f14-7ab04aed6dc7","ios":"levelo://app?vid=1ef5f478-897d-43d6-8f14-7ab04aed6dc7"},"vehicle_type_id":"4","last_reported":1753117961,"current_range_meters":15200,"station_id":"ce4bgvh2rcd13ifvqcs0","pricing_plan_id":"cebpf4jnsgd1na2vs0mg"},{"bike_id":"37eb163c-27b6-4f21-8e81-022abe2385c0","system_id":"levelo_inurba_marseille","lat":43.28426,"lon":5.34998,"is_reserved":false,"is_disabled":false,"rental_uris":{"android":"levelo://app?vid=37eb163c-27b6-4f21-8e81-022abe2385c0","ios":"levelo://app?vid=37eb163c-27b6-4f21-8e81-022abe2385c0"},"vehicle_type_id":"4","last_reported":1753117961,"current_range_meters":16000,"station_id":"ce4bhbh2rcd13ifvqepg","pricing_plan_id":"cebpf4jnsgd1na2vs0mg"},{"bike_id":"ba2b3a99-8668-4f5d-bab3-0079c47bd454","system_id":"levelo_inurba_marseille","lat":43.32533,"lon":5.41449,"is_reserved":false,"is_disabled":true,"rental_uris":{"android":"levelo://app?vid=ba2b3a99-8668-4f5d-bab3-0079c47bd454","ios":"levelo://app?vid=ba2b3a99-8668-4f5d-bab3-0079c47bd454"},"vehicle_type_id":"4","last_reported":1753117961,"current_range_meters":16000,"station_id":"ce4bhq12rcd13ifvqhhg","pricing_plan_id":"cebpf4jnsgd1na2vs0mg"},{"bike_id":"8423e589-47bf-47a8-b90f-452fc938c46b","system_id":"levelo_inurba_marseille","lat":43.323611,"lon":5.367512,"is_reserved":false,"is_disabled":false,"rental_uris":{"android":"levelo://app?vid=8423e589-47bf-47a8-b90f-452fc938c46b","ios":"levelo://app?vid=8423e589-47bf-47a8-b90f-452fc938c46b"},"vehicle_type_id":"4","last_reported":1753117961,"current_range_meters":16000,"station_id":"ce4bhsh2rcd13ifvqi2g","pricing_plan_id":"cebpf4jnsgd1na2vs0mg"},{"bike_id":"8f286a53-11b4-4d84-b9ef-1762d5ab74d4","system_id":"levelo_inurba_marseille","lat":43.28431,"lon":5.34967,"is_reserved":false,"is_disabled":false,"rental_uris":{"android":"levelo://app?vid=8f286a53-11b4-4d84-b9ef-1762d5ab74d4","ios":"levelo://app?vid=8f286a53-11b4-4d84-b9ef-1762d5ab74d4"},"vehicle_type_id":"4","last_reported":1753117961,"current_range_meters":16000,"station_id":"ce4bhbh2rcd13ifvqepg","pricing_plan_id":"cebpf4jnsgd1na2vs0mg"},{"bike_id":"ba898dca-42f2-4bc4-97e7-20fe6cd1678f","system_id":"levelo_inurba_marseille","lat":43.284613,"lon":5.358833,"is_reserved":false,"is_disabled":false,"rental_uris":{"android":"levelo://app?vid=ba898dca-42f2-4bc4-97e7-20fe6cd1678f","ios":"levelo://app?vid=ba898dca-42f2-4bc4-97e7-20fe6cd1678f"},"vehicle_type_id":"4","last_reported":1753117961,"current_range_meters":16000,"station_id":"ce4bhah2rcd13ifvqei0","pricing_plan_id":"cebpf4jnsgd1na2vs0mg"},{"bike_id":"50d16da1-39af-48c8-9080-8fc1a2184959","system_id":"levelo_inurba_marseille","lat":43.21207,"lon":5.35039,"is_reserved":false,"is_disabled":false,"rental_uris":{"android":"levelo://app?vid=50d16da1-39af-48c8-9080-8fc1a2184959","ios":"levelo://app?vid=50d16da1-39af-48c8-9080-8fc1a2184959"},"vehicle_type_id":"4","last_reported":1753117961,"current_range_meters":16000,"station_id":"st_cvj6sg6p6f1abm77japg","pricing_plan_id":"cebpf4jnsgd1na2vs0mg"},{"bike_id":"3f42f628-7b6e-4bbf-aa62-d84965c97755","system_id":"levelo_inurba_marseille","lat":43.279211,"lon":5.395714,"is_reserved":false,"is_disabled":false,"rental_uris":{"android":"levelo://app?vid=3f42f628-7b6e-4bbf-aa62-d84965c97755","ios":"levelo://app?vid=3f42f628-7b6e-4bbf-aa62-d84965c97755"},"vehicle_type_id":"4","last_reported":1753117961,"current_range_meters":16000,"station_id":"ce4bhf92rcd13ifvqf40","pricing_plan_id":"cebpf4jnsgd1na2vs0mg"},{"bike_id":"ae32b495-c27b-4010-b89d-bde1dc255045","system_id":"levelo_inurba_marseille","lat":43.28615,"lon":5.37055,"is_reserved":false,"is_disabled":false,"rental_uris":{"android":"levelo://app?vid=ae32b495-c27b-4010-b89d-bde1dc255045","ios":"levelo://app?vid=ae32b495-c27b-4010-b89d-bde1dc255045"},"vehicle_type_id":"4","last_reported":1753117961,"current_range_meters":16400,"station_id":"ce4bht12rcd13ifvqi60","pricing_plan_id":"cebpf4jnsgd1na2vs0mg"},{"bike_id":"766c727d-8e16-476c-a012-2758e85466ca","system_id":"levelo_inurba_marseille","lat":43.28613,"lon":5.3511,"is_reserved":false,"is_disabled":false,"rental_uris":{"android":"levelo://app?vid=766c727d-8e16-476c-a012-2758e85466ca","ios":"levelo://app?vid=766c727d-8e16-476c-a012-2758e85466ca"},"vehicle_type_id":"4","last_reported":1753117961,"current_range_meters":16400,"station_id":"ce4bhch2rcd13ifvqeug","pricing_plan_id":"cebpf4jnsgd1na2vs0mg"},{"bike_id":"85b008dd-0f9f-4205-aa28-4f549082c3e6","system_id":"levelo_inurba_marseille","lat":43.212,"lon":5.35065,"is_reserved":false,"is_disabled":false,"rental_uris":{"android":"levelo://app?vid=85b008dd-0f9f-4205-aa28-4f549082c3e6","ios":"levelo://app?vid=85b008dd-0f9f-4205-aa28-4f549082c3e6"},"vehicle_type_id":"4","last_reported":1753117961,"current_range_meters":16400,"station_id":"st_cvj6sg6p6f1abm77japg","pricing_plan_id":"cebpf4jnsgd1na2vs0mg"},{"bike_id":"68ad25bf-3ce4-4219-aae6-b4b4ca3df214","system_id":"levelo_inurba_marseille","lat":43.22515,"lon":5.34769,"is_reserved":false,"is_disabled":false,"rental_uris":{"android":"levelo://app?vid=68ad25bf-3ce4-4219-aae6-b4b4ca3df214","ios":"levelo://app?vid=68ad25bf-3ce4-4219-aae6-b4b4ca3df214"},"vehicle_type_id":"4","last_reported":1753117961,"current_range_meters":16400,"station_id":"st_cvj5dfep6f1abm77gieg","pricing_plan_id":"cebpf4jnsgd1na2vs0mg"},{"bike_id":"6940e707-2866-429c-af31-7f2bd9c2bc86","system_id":"levelo_inurba_marseille","lat":43.2419,"lon":5.36369,"is_reserved":false,"is_disabled":false,"rental_uris":{"android":"levelo://app?vid=6940e707-2866-429c-af31-7f2bd9c2bc86","ios":"levelo://app?vid=6940e707-2866-429c-af31-7f2bd9c2bc86"},"vehicle_type_id":"4","last_reported":1753117961,"current_range_meters":16400,"station_id":"cpo36qri1sfpv3e86is0","pricing_plan_id":"cebpf4jnsgd1na2vs0mg"},{"bike_id":"e57606de-d549-4a50-8b75-91216215a181","system_id":"levelo_inurba_marseille","lat":43.27505,"lon":5.4244,"is_reserved":false,"is_disabled":true,"rental_uris":{"android":"levelo://app?vid=e57606de-d549-4a50-8b75-91216215a181","ios":"levelo://app?vid=e57606de-d549-4a50-8b75-91216215a181"},"vehicle_type_id":"4","last_reported":1753117961,"current_range_meters":16400,"station_id":"ce4bhn92rcd13ifvqgrg","pricing_plan_id":"cebpf4jnsgd1na2vs0mg"},{"bike_id":"9180d689-518c-4051-bf85-515becc255ec","system_id":"levelo_inurba_marseille","lat":43.2708,"lon":5.39257,"is_reserved":false,"is_disabled":false,"rental_uris":{"android":"levelo://app?vid=9180d689-518c-4051-bf85-515becc255ec","ios":"levelo://app?vid=9180d689-518c-4051-bf85-515becc255ec"},"vehicle_type_id":"4","last_reported":1753117961,"current_range_meters":16400,"station_id":"","pricing_plan_id":"cebpf4jnsgd1na2vs0mg"},{"bike_id":"711becf2-385b-46ae-a42f-176ecf7d8b33","system_id":"levelo_inurba_marseille","lat":43.290787,"lon":5.37158,"is_reserved":false,"is_disabled":false,"rental_uris":{"android":"levelo://app?vid=711becf2-385b-46ae-a42f-176ecf7d8b33","ios":"levelo://app?vid=711becf2-385b-46ae-a42f-176ecf7d8b33"},"vehicle_type_id":"4","last_reported":1753117961,"current_range_meters":16400,"station_id":"ce4bh5p2rcd13ifvqe4g","pricing_plan_id":"cebpf4jnsgd1na2vs0mg"},{"bike_id":"f4e07016-6377-40c8-a7c9-4f6adf9a9ada","system_id":"levelo_inurba_marseille","lat":43.3234,"lon":5.40613,"is_reserved":false,"is_disabled":false,"rental_uris":{"android":"levelo://app?vid=f4e07016-6377-40c8-a7c9-4f6adf9a9ada","ios":"levelo://app?vid=f4e07016-6377-40c8-a7c9-4f6adf9a9ada"},"vehicle_type_id":"4","last_reported":1753117961,"current_range_meters":16400,"station_id":"ce4bhq92rcd13ifvqhjg","pricing_plan_id":"cebpf4jnsgd1na2vs0mg"},{"bike_id":"ae2d1f3f-5ac3-4308-ac13-f92780a3db9d","system_id":"levelo_inurba_marseille","lat":43.29161,"lon":5.37162,"is_reserved":false,"is_disabled":false,"rental_uris":{"android":"levelo://app?vid=ae2d1f3f-5ac3-4308-ac13-f92780a3db9d","ios":"levelo://app?vid=ae2d1f3f-5ac3-4308-ac13-f92780a3db9d"},"vehicle_type_id":"4","last_reported":1753117961,"current_range_meters":16400,"station_id":"ce4bha92rcd13ifvqeh0","pricing_plan_id":"cebpf4jnsgd1na2vs0mg"},{"bike_id":"9bb0ab3b-e429-4cf6-9e70-8eb319553894","system_id":"levelo_inurba_marseille","lat":43.31335,"lon":5.39691,"is_reserved":false,"is_disabled":false,"rental_uris":{"android":"levelo://app?vid=9bb0ab3b-e429-4cf6-9e70-8eb319553894","ios":"levelo://app?vid=9bb0ab3b-e429-4cf6-9e70-8eb319553894"},"vehicle_type_id":"4","last_reported":1753117961,"current_range_meters":16400,"station_id":"ce4bgvp2rcd13ifvqcu0","pricing_plan_id":"cebpf4jnsgd1na2vs0mg"},{"bike_id":"6ecd5a2b-6dae-44b3-a162-e5286af43d43","system_id":"levelo_inurba_marseille","lat":43.22535,"lon":5.34785,"is_reserved":false,"is_disabled":false,"rental_uris":{"android":"levelo://app?vid=6ecd5a2b-6dae-44b3-a162-e5286af43d43","ios":"levelo://app?vid=6ecd5a2b-6dae-44b3-a162-e5286af43d43"},"vehicle_type_id":"4","last_reported":1753117961,"current_range_meters":16400,"station_id":"st_cvj5dfep6f1abm77gieg","pricing_plan_id":"cebpf4jnsgd1na2vs0mg"},{"bike_id":"8623e104-31b9-42b2-96cf-b9f1ba7058fc","system_id":"levelo_inurba_marseille","lat":43.2123,"lon":5.35057,"is_reserved":false,"is_disabled":false,"rental_uris":{"android":"levelo://app?vid=8623e104-31b9-42b2-96cf-b9f1ba7058fc","ios":"levelo://app?vid=8623e104-31b9-42b2-96cf-b9f1ba7058fc"},"vehicle_type_id":"4","last_reported":1753117961,"current_range_meters":16400,"station_id":"","pricing_plan_id":"cebpf4jnsgd1na2vs0mg"},{"bike_id":"2d6095ea-f882-494d-a187-fa879408181e","system_id":"levelo_inurba_marseille","lat":43.25181,"lon":5.37349,"is_reserved":false,"is_disabled":false,"rental_uris":{"android":"levelo://app?vid=2d6095ea-f882-494d-a187-fa879408181e","ios":"levelo://app?vid=2d6095ea-f882-494d-a187-fa879408181e"},"vehicle_type_id":"4","last_reported":1753117961,"current_range_meters":16400,"station_id":"","pricing_plan_id":"cebpf4jnsgd1na2vs0mg"},{"bike_id":"298d7476-28c7-4c61-8302-df95a7d5d3d6","system_id":"levelo_inurba_marseille","lat":43.22503,"lon":5.34787,"is_reserved":false,"is_disabled":false,"rental_uris":{"android":"levelo://app?vid=298d7476-28c7-4c61-8302-df95a7d5d3d6","ios":"levelo://app?vid=298d7476-28c7-4c61-8302-df95a7d5d3d6"},"vehicle_type_id":"4","last_reported":1753117961,"current_range_meters":16800,"station_id":"st_cvj5dfep6f1abm77gieg","pricing_plan_id":"cebpf4jnsgd1na2vs0mg"},{"bike_id":"b6191c96-af83-462f-a3cc-e4778a781fff","system_id":"levelo_inurba_marseille","lat":43.21204,"lon":5.35065,"is_reserved":false,"is_disabled":false,"rental_uris":{"android":"levelo://app?vid=b6191c96-af83-462f-a3cc-e4778a781fff","ios":"levelo://app?vid=b6191c96-af83-462f-a3cc-e4778a781fff"},"vehicle_type_id":"4","last_reported":1753117961,"current_range_meters":16800,"station_id":"st_cvj6sg6p6f1abm77japg","pricing_plan_id":"cebpf4jnsgd1na2vs0mg"},{"bike_id":"3fb96fc8-d5fa-4cf5-a8ad-367ac5eda46c","system_id":"levelo_inurba_marseille","lat":43.32555,"lon":5.41431,"is_reserved":false,"is_disabled":false,"rental_uris":{"android":"levelo://app?vid=3fb96fc8-d5fa-4cf5-a8ad-367ac5eda46c","ios":"levelo://app?vid=3fb96fc8-d5fa-4cf5-a8ad-367ac5eda46c"},"vehicle_type_id":"4","last_reported":1753117961,"current_range_meters":16800,"station_id":"ce4bhq12rcd13ifvqhhg","pricing_plan_id":"cebpf4jnsgd1na2vs0mg"},{"bike_id":"a5d420c1-6f63-4560-9fe2-e08db2c4fecb","system_id":"levelo_inurba_marseille","lat":43.21188,"lon":5.35073,"is_reserved":false,"is_disabled":false,"rental_uris":{"android":"levelo://app?vid=a5d420c1-6f63-4560-9fe2-e08db2c4fecb","ios":"levelo://app?vid=a5d420c1-6f63-4560-9fe2-e08db2c4fecb"},"vehicle_type_id":"4","last_reported":1753117961,"current_range_meters":16800,"station_id":"st_cvj6sg6p6f1abm77japg","pricing_plan_id":"cebpf4jnsgd1na2vs0mg"},{"bike_id":"91faf937-6768-4101-98da-411036d125c4","system_id":"levelo_inurba_marseille","lat":43.22953,"lon":5.3537,"is_reserved":false,"is_disabled":false,"rental_uris":{"android":"levelo://app?vid=91faf937-6768-4101-98da-411036d125c4","ios":"levelo://app?vid=91faf937-6768-4101-98da-411036d125c4"},"vehicle_type_id":"4","last_reported":1753117961,"current_range_meters":16800,"station_id":"cpo3532slgdg3j2ikp40","pricing_plan_id":"cebpf4jnsgd1na2vs0mg"},{"bike_id":"e4f86cb4-7f62-49ce-ae1c-bfae213ed2b1","system_id":"levelo_inurba_marseille","lat":43.317593,"lon":5.39018,"is_reserved":false,"is_disabled":false,"rental_uris":{"android":"levelo://app?vid=e4f86cb4-7f62-49ce-ae1c-bfae213ed2b1","ios":"levelo://app?vid=e4f86cb4-7f62-49ce-ae1c-bfae213ed2b1"},"vehicle_type_id":"4","last_reported":1753117961,"current_range_meters":16800,"station_id":"ce4bhqp2rcd13ifvqhng","pricing_plan_id":"cebpf4jnsgd1na2vs0mg"},{"bike_id":"ccb3a2c1-5335-4346-b5bb-08cb08061e0e","system_id":"levelo_inurba_marseille","lat":43.297777,"lon":5.381044,"is_reserved":false,"is_disabled":true,"rental_uris":{"android":"levelo://app?vid=ccb3a2c1-5335-4346-b5bb-08cb08061e0e","ios":"levelo://app?vid=ccb3a2c1-5335-4346-b5bb-08cb08061e0e"},"vehicle_type_id":"4","last_reported":1753117961,"current_range_meters":16800,"station_id":"ce4bgip2rcd13ifvqbb0","pricing_plan_id":"cebpf4jnsgd1na2vs0mg"},{"bike_id":"0d04369e-f201-4daa-bf5d-cbf094f424a0","system_id":"levelo_inurba_marseille","lat":43.27497,"lon":5.42452,"is_reserved":false,"is_disabled":false,"rental_uris":{"android":"levelo://app?vid=0d04369e-f201-4daa-bf5d-cbf094f424a0","ios":"levelo://app?vid=0d04369e-f201-4daa-bf5d-cbf094f424a0"},"vehicle_type_id":"4","last_reported":1753117961,"current_range_meters":16800,"station_id":"ce4bhn92rcd13ifvqgrg","pricing_plan_id":"cebpf4jnsgd1na2vs0mg"},{"bike_id":"4d2fb385-600a-460f-817d-c81c8838ad28","system_id":"levelo_inurba_marseille","lat":43.32308,"lon":5.36728,"is_reserved":false,"is_disabled":false,"rental_uris":{"android":"levelo://app?vid=4d2fb385-600a-460f-817d-c81c8838ad28","ios":"levelo://app?vid=4d2fb385-600a-460f-817d-c81c8838ad28"},"vehicle_type_id":"4","last_reported":1753117961,"current_range_meters":17200,"station_id":"ce4bhsh2rcd13ifvqi2g","pricing_plan_id":"cebpf4jnsgd1na2vs0mg"},{"bike_id":"76e8a4c7-1966-4c02-a21a-c2d4f4e224d8","system_id":"levelo_inurba_marseille","lat":43.29281,"lon":5.37633,"is_reserved":false,"is_disabled":true,"rental_uris":{"android":"levelo://app?vid=76e8a4c7-1966-4c02-a21a-c2d4f4e224d8","ios":"levelo://app?vid=76e8a4c7-1966-4c02-a21a-c2d4f4e224d8"},"vehicle_type_id":"4","last_reported":1753117961,"current_range_meters":17200,"station_id":"ce4bgi12rcd13ifvqb80","pricing_plan_id":"cebpf4jnsgd1na2vs0mg"},{"bike_id":"0cb19f5e-6a19-4fc0-9b18-698188d68bf4","system_id":"levelo_inurba_marseille","lat":43.29726,"lon":5.43265,"is_reserved":false,"is_disabled":false,"rental_uris":{"android":"levelo://app?vid=0cb19f5e-6a19-4fc0-9b18-698188d68bf4","ios":"levelo://app?vid=0cb19f5e-6a19-4fc0-9b18-698188d68bf4"},"vehicle_type_id":"4","last_reported":1753117961,"current_range_meters":17200,"station_id":"","pricing_plan_id":"cebpf4jnsgd1na2vs0mg"},{"bike_id":"de4e98c3-82ca-4c88-9379-c8eb99022426","system_id":"levelo_inurba_marseille","lat":43.22923,"lon":5.35376,"is_reserved":false,"is_disabled":true,"rental_uris":{"android":"levelo://app?vid=de4e98c3-82ca-4c88-9379-c8eb99022426","ios":"levelo://app?vid=de4e98c3-82ca-4c88-9379-c8eb99022426"},"vehicle_type_id":"4","last_reported":1753117961,"current_range_meters":17200,"station_id":"cpo3532slgdg3j2ikp40","pricing_plan_id":"cebpf4jnsgd1na2vs0mg"},{"bike_id":"51931bf6-1eb4-445c-8f29-98888cfaefc7","system_id":"levelo_inurba_marseille","lat":43.29404,"lon":5.3986,"is_reserved":false,"is_disabled":false,"rental_uris":{"android":"levelo://app?vid=51931bf6-1eb4-445c-8f29-98888cfaefc7","ios":"levelo://app?vid=51931bf6-1eb4-445c-8f29-98888cfaefc7"},"vehicle_type_id":"4","last_reported":1753117961,"current_range_meters":17200,"station_id":"","pricing_plan_id":"cebpf4jnsgd1na2vs0mg"},{"bike_id":"d8b8fe1a-935a-4849-9347-8d060a09c48c","system_id":"levelo_inurba_marseille","lat":43.23178,"lon":5.39983,"is_reserved":false,"is_disabled":false,"rental_uris":{"android":"levelo://app?vid=d8b8fe1a-935a-4849-9347-8d060a09c48c","ios":"levelo://app?vid=d8b8fe1a-935a-4849-9347-8d060a09c48c"},"vehicle_type_id":"4","last_reported":1753117961,"current_range_meters":17200,"station_id":"ce4bhn12rcd13ifvqgqg","pricing_plan_id":"cebpf4jnsgd1na2vs0mg"},{"bike_id":"a978752e-fbd0-41f7-b543-335940a9607f","system_id":"levelo_inurba_marseille","lat":43.3025,"lon":5.40076,"is_reserved":false,"is_disabled":false,"rental_uris":{"android":"levelo://app?vid=a978752e-fbd0-41f7-b543-335940a9607f","ios":"levelo://app?vid=a978752e-fbd0-41f7-b543-335940a9607f"},"vehicle_type_id":"4","last_reported":1753117961,"current_range_meters":17200,"station_id":"ce4bgvh2rcd13ifvqcs0","pricing_plan_id":"cebpf4jnsgd1na2vs0mg"},{"bike_id":"263d4ced-6e04-4169-ac4b-7fa733c92fa6","system_id":"levelo_inurba_marseille","lat":43.32365,"lon":5.36753,"is_reserved":false,"is_disabled":false,"rental_uris":{"android":"levelo://app?vid=263d4ced-6e04-4169-ac4b-7fa733c92fa6","ios":"levelo://app?vid=263d4ced-6e04-4169-ac4b-7fa733c92fa6"},"vehicle_type_id":"4","last_reported":1753117961,"current_range_meters":17200,"station_id":"ce4bhsh2rcd13ifvqi2g","pricing_plan_id":"cebpf4jnsgd1na2vs0mg"},{"bike_id":"f01709f5-fc8e-4c59-84a8-5865490eb05d","system_id":"levelo_inurba_marseille","lat":43.29602,"lon":5.38112,"is_reserved":false,"is_disabled":false,"rental_uris":{"android":"levelo://app?vid=f01709f5-fc8e-4c59-84a8-5865490eb05d","ios":"levelo://app?vid=f01709f5-fc8e-4c59-84a8-5865490eb05d"},"vehicle_type_id":"4","last_reported":1753117961,"current_range_meters":17200,"station_id":"ce4bgl12rcd13ifvqbo0","pricing_plan_id":"cebpf4jnsgd1na2vs0mg"},{"bike_id":"97aa2cec-abd2-4bb1-9cfc-35f925e52cee","system_id":"levelo_inurba_marseille","lat":43.2293,"lon":5.35374,"is_reserved":false,"is_disabled":false,"rental_uris":{"android":"levelo://app?vid=97aa2cec-abd2-4bb1-9cfc-35f925e52cee","ios":"levelo://app?vid=97aa2cec-abd2-4bb1-9cfc-35f925e52cee"},"vehicle_type_id":"4","last_reported":1753117961,"current_range_meters":17200,"station_id":"cpo3532slgdg3j2ikp40","pricing_plan_id":"cebpf4jnsgd1na2vs0mg"},{"bike_id":"07549bbd-96eb-4635-ae16-ac8b6149d67c","system_id":"levelo_inurba_marseille","lat":43.31268,"lon":5.40177,"is_reserved":false,"is_disabled":false,"rental_uris":{"android":"levelo://app?vid=07549bbd-96eb-4635-ae16-ac8b6149d67c","ios":"levelo://app?vid=07549bbd-96eb-4635-ae16-ac8b6149d67c"},"vehicle_type_id":"4","last_reported":1753117961,"current_range_meters":17600,"station_id":"ce4bh092rcd13ifvqd30","pricing_plan_id":"cebpf4jnsgd1na2vs0mg"},{"bike_id":"42dd5d68-3180-43b4-877a-6144326e2dbd","system_id":"levelo_inurba_marseille","lat":43.28485,"lon":5.38536,"is_reserved":false,"is_disabled":false,"rental_uris":{"android":"levelo://app?vid=42dd5d68-3180-43b4-877a-6144326e2dbd","ios":"levelo://app?vid=42dd5d68-3180-43b4-877a-6144326e2dbd"},"vehicle_type_id":"4","last_reported":1753117961,"current_range_meters":17600,"station_id":"","pricing_plan_id":"cebpf4jnsgd1na2vs0mg"},{"bike_id":"d7db48f8-71fc-4f80-8b6a-e78153afc6b5","system_id":"levelo_inurba_marseille","lat":43.29376,"lon":5.37301,"is_reserved":false,"is_disabled":false,"rental_uris":{"android":"levelo://app?vid=d7db48f8-71fc-4f80-8b6a-e78153afc6b5","ios":"levelo://app?vid=d7db48f8-71fc-4f80-8b6a-e78153afc6b5"},"vehicle_type_id":"4","last_reported":1753117961,"current_range_meters":17600,"station_id":"ce4bgh92rcd13ifvqb40","pricing_plan_id":"cebpf4jnsgd1na2vs0mg"},{"bike_id":"7294dee6-bcb0-405e-9a6d-36abd19a5193","system_id":"levelo_inurba_marseille","lat":43.23967,"lon":5.36626,"is_reserved":false,"is_disabled":false,"rental_uris":{"android":"levelo://app?vid=7294dee6-bcb0-405e-9a6d-36abd19a5193","ios":"levelo://app?vid=7294dee6-bcb0-405e-9a6d-36abd19a5193"},"vehicle_type_id":"4","last_reported":1753117961,"current_range_meters":17600,"station_id":"ce4bhi12rcd13ifvqfp0","pricing_plan_id":"cebpf4jnsgd1na2vs0mg"},{"bike_id":"642b9e5a-8cdd-4a6c-ad01-c805b54c2376","system_id":"levelo_inurba_marseille","lat":43.29509,"lon":5.39398,"is_reserved":false,"is_disabled":false,"rental_uris":{"android":"levelo://app?vid=642b9e5a-8cdd-4a6c-ad01-c805b54c2376","ios":"levelo://app?vid=642b9e5a-8cdd-4a6c-ad01-c805b54c2376"},"vehicle_type_id":"4","last_reported":1753117961,"current_range_meters":17600,"station_id":"ce4bh292rcd13ifvqdf0","pricing_plan_id":"cebpf4jnsgd1na2vs0mg"},{"bike_id":"58cbfa7e-c704-4866-ba9b-204648f1391a","system_id":"levelo_inurba_marseille","lat":43.299579,"lon":5.380973,"is_reserved":false,"is_disabled":false,"rental_uris":{"android":"levelo://app?vid=58cbfa7e-c704-4866-ba9b-204648f1391a","ios":"levelo://app?vid=58cbfa7e-c704-4866-ba9b-204648f1391a"},"vehicle_type_id":"4","last_reported":1753117961,"current_range_meters":17600,"station_id":"","pricing_plan_id":"cebpf4jnsgd1na2vs0mg"},{"bike_id":"4c573c81-38a2-4e4f-81cf-b179fb8a2a79","system_id":"levelo_inurba_marseille","lat":43.30254,"lon":5.40067,"is_reserved":false,"is_disabled":false,"rental_uris":{"android":"levelo://app?vid=4c573c81-38a2-4e4f-81cf-b179fb8a2a79","ios":"levelo://app?vid=4c573c81-38a2-4e4f-81cf-b179fb8a2a79"},"vehicle_type_id":"4","last_reported":1753117961,"current_range_meters":17600,"station_id":"ce4bgvh2rcd13ifvqcs0","pricing_plan_id":"cebpf4jnsgd1na2vs0mg"},{"bike_id":"5d23d543-5435-460c-a3cc-7d2fea5714fd","system_id":"levelo_inurba_marseille","lat":43.298811,"lon":5.389079,"is_reserved":false,"is_disabled":false,"rental_uris":{"android":"levelo://app?vid=5d23d543-5435-460c-a3cc-7d2fea5714fd","ios":"levelo://app?vid=5d23d543-5435-460c-a3cc-7d2fea5714fd"},"vehicle_type_id":"4","last_reported":1753117961,"current_range_meters":17600,"station_id":"ce4bh392rcd13ifvqdl0","pricing_plan_id":"cebpf4jnsgd1na2vs0mg"},{"bike_id":"fecdf1c7-ccb6-4463-b5f7-c599d4507262","system_id":"levelo_inurba_marseille","lat":43.23967,"lon":5.36633,"is_reserved":false,"is_disabled":false,"rental_uris":{"android":"levelo://app?vid=fecdf1c7-ccb6-4463-b5f7-c599d4507262","ios":"levelo://app?vid=fecdf1c7-ccb6-4463-b5f7-c599d4507262"},"vehicle_type_id":"4","last_reported":1753117961,"current_range_meters":17200,"station_id":"ce4bhi12rcd13ifvqfp0","pricing_plan_id":"cebpf4jnsgd1na2vs0mg"},{"bike_id":"6c044854-6f6d-4a86-85d3-68a507343a54","system_id":"levelo_inurba_marseille","lat":43.29025,"lon":5.37559,"is_reserved":false,"is_disabled":true,"rental_uris":{"android":"levelo://app?vid=6c044854-6f6d-4a86-85d3-68a507343a54","ios":"levelo://app?vid=6c044854-6f6d-4a86-85d3-68a507343a54"},"vehicle_type_id":"4","last_reported":1753117961,"current_range_meters":17600,"station_id":"ce4bh692rcd13ifvqe90","pricing_plan_id":"cebpf4jnsgd1na2vs0mg"},{"bike_id":"fe732a6c-bff8-47cc-932a-3c976c2c7a76","system_id":"levelo_inurba_marseille","lat":43.280363,"lon":5.369555,"is_reserved":false,"is_disabled":true,"rental_uris":{"android":"levelo://app?vid=fe732a6c-bff8-47cc-932a-3c976c2c7a76","ios":"levelo://app?vid=fe732a6c-bff8-47cc-932a-3c976c2c7a76"},"vehicle_type_id":"4","last_reported":1753117961,"current_range_meters":18000,"station_id":"","pricing_plan_id":"cebpf4jnsgd1na2vs0mg"},{"bike_id":"c99f07e3-b1b2-4054-b5c5-a34dacfa31da","system_id":"levelo_inurba_marseille","lat":43.29,"lon":5.35616,"is_reserved":false,"is_disabled":false,"rental_uris":{"android":"levelo://app?vid=c99f07e3-b1b2-4054-b5c5-a34dacfa31da","ios":"levelo://app?vid=c99f07e3-b1b2-4054-b5c5-a34dacfa31da"},"vehicle_type_id":"4","last_reported":1753117961,"current_range_meters":18000,"station_id":"ce4bhb92rcd13ifvqen0","pricing_plan_id":"cebpf4jnsgd1na2vs0mg"},{"bike_id":"668bfa40-7ae0-42dd-a6b6-6631a40f0c0f","system_id":"levelo_inurba_marseille","lat":43.33146,"lon":5.38611,"is_reserved":false,"is_disabled":false,"rental_uris":{"android":"levelo://app?vid=668bfa40-7ae0-42dd-a6b6-6631a40f0c0f","ios":"levelo://app?vid=668bfa40-7ae0-42dd-a6b6-6631a40f0c0f"},"vehicle_type_id":"4","last_reported":1753117961,"current_range_meters":18000,"station_id":"","pricing_plan_id":"cebpf4jnsgd1na2vs0mg"},{"bike_id":"105b4ea4-b2e8-401b-a05b-653a3efd1fe0","system_id":"levelo_inurba_marseille","lat":43.30211,"lon":5.39467,"is_reserved":false,"is_disabled":false,"rental_uris":{"android":"levelo://app?vid=105b4ea4-b2e8-401b-a05b-653a3efd1fe0","ios":"levelo://app?vid=105b4ea4-b2e8-401b-a05b-653a3efd1fe0"},"vehicle_type_id":"4","last_reported":1753117961,"current_range_meters":18000,"station_id":"ce4bh0p2rcd13ifvqd70","pricing_plan_id":"cebpf4jnsgd1na2vs0mg"},{"bike_id":"b85e6560-1d91-48a0-93a4-e24441fa6d0f","system_id":"levelo_inurba_marseille","lat":43.28864,"lon":5.35863,"is_reserved":false,"is_disabled":false,"rental_uris":{"android":"levelo://app?vid=b85e6560-1d91-48a0-93a4-e24441fa6d0f","ios":"levelo://app?vid=b85e6560-1d91-48a0-93a4-e24441fa6d0f"},"vehicle_type_id":"4","last_reported":1753117961,"current_range_meters":18000,"station_id":"ce4bhb12rcd13ifvqem0","pricing_plan_id":"cebpf4jnsgd1na2vs0mg"},{"bike_id":"857f1185-9ed5-4b3f-9500-01b243184030","system_id":"levelo_inurba_marseille","lat":43.2827,"lon":5.37906,"is_reserved":false,"is_disabled":false,"rental_uris":{"android":"levelo://app?vid=857f1185-9ed5-4b3f-9500-01b243184030","ios":"levelo://app?vid=857f1185-9ed5-4b3f-9500-01b243184030"},"vehicle_type_id":"4","last_reported":1753117961,"current_range_meters":18800,"station_id":"ce4bha12rcd13ifvqee0","pricing_plan_id":"cebpf4jnsgd1na2vs0mg"},{"bike_id":"c1268686-99d7-4c01-a505-4e6d8a9bd95e","system_id":"levelo_inurba_marseille","lat":43.25495,"lon":5.37647,"is_reserved":false,"is_disabled":false,"rental_uris":{"android":"levelo://app?vid=c1268686-99d7-4c01-a505-4e6d8a9bd95e","ios":"levelo://app?vid=c1268686-99d7-4c01-a505-4e6d8a9bd95e"},"vehicle_type_id":"4","last_reported":1753117961,"current_range_meters":18800,"station_id":"ce4bhh12rcd13ifvqff0","pricing_plan_id":"cebpf4jnsgd1na2vs0mg"},{"bike_id":"31d64493-91c3-4676-a31d-d3498f5e10a7","system_id":"levelo_inurba_marseille","lat":43.29604,"lon":5.37723,"is_reserved":false,"is_disabled":false,"rental_uris":{"android":"levelo://app?vid=31d64493-91c3-4676-a31d-d3498f5e10a7","ios":"levelo://app?vid=31d64493-91c3-4676-a31d-d3498f5e10a7"},"vehicle_type_id":"4","last_reported":1753117961,"current_range_meters":18800,"station_id":"ce4bgi92rcd13ifvqb90","pricing_plan_id":"cebpf4jnsgd1na2vs0mg"},{"bike_id":"07cad5da-863b-4dcd-9b5f-8a55c0a76449","system_id":"levelo_inurba_marseille","lat":43.288,"lon":5.391333,"is_reserved":false,"is_disabled":false,"rental_uris":{"android":"levelo://app?vid=07cad5da-863b-4dcd-9b5f-8a55c0a76449","ios":"levelo://app?vid=07cad5da-863b-4dcd-9b5f-8a55c0a76449"},"vehicle_type_id":"4","last_reported":1753117961,"current_range_meters":18800,"station_id":"","pricing_plan_id":"cebpf4jnsgd1na2vs0mg"},{"bike_id":"13adf853-6ca7-4ebd-8c9f-f4512dd3a322","system_id":"levelo_inurba_marseille","lat":43.33221,"lon":5.39863,"is_reserved":false,"is_disabled":true,"rental_uris":{"android":"levelo://app?vid=13adf853-6ca7-4ebd-8c9f-f4512dd3a322","ios":"levelo://app?vid=13adf853-6ca7-4ebd-8c9f-f4512dd3a322"},"vehicle_type_id":"4","last_reported":1753117961,"current_range_meters":18800,"station_id":"","pricing_plan_id":"cebpf4jnsgd1na2vs0mg"},{"bike_id":"b4c1aa2a-e931-4ce6-8816-30ad77bdd520","system_id":"levelo_inurba_marseille","lat":43.241448,"lon":5.363743,"is_reserved":false,"is_disabled":false,"rental_uris":{"android":"levelo://app?vid=b4c1aa2a-e931-4ce6-8816-30ad77bdd520","ios":"levelo://app?vid=b4c1aa2a-e931-4ce6-8816-30ad77bdd520"},"vehicle_type_id":"4","last_reported":1753117961,"current_range_meters":18800,"station_id":"","pricing_plan_id":"cebpf4jnsgd1na2vs0mg"},{"bike_id":"6ae5568f-90de-4ff5-a463-d670cadb945d","system_id":"levelo_inurba_marseille","lat":43.28929,"lon":5.36642,"is_reserved":false,"is_disabled":false,"rental_uris":{"android":"levelo://app?vid=6ae5568f-90de-4ff5-a463-d670cadb945d","ios":"levelo://app?vid=6ae5568f-90de-4ff5-a463-d670cadb945d"},"vehicle_type_id":"4","last_reported":1753117961,"current_range_meters":18800,"station_id":"ce4bhap2rcd13ifvqek0","pricing_plan_id":"cebpf4jnsgd1na2vs0mg"},{"bike_id":"b050b2a0-6d4d-4d6b-b7de-6a89501ce2b7","system_id":"levelo_inurba_marseille","lat":43.28925,"lon":5.36402,"is_reserved":false,"is_disabled":true,"rental_uris":{"android":"levelo://app?vid=b050b2a0-6d4d-4d6b-b7de-6a89501ce2b7","ios":"levelo://app?vid=b050b2a0-6d4d-4d6b-b7de-6a89501ce2b7"},"vehicle_type_id":"4","last_reported":1753117961,"current_range_meters":18800,"station_id":"ce4bhc92rcd13ifvqetg","pricing_plan_id":"cebpf4jnsgd1na2vs0mg"},{"bike_id":"87bc9e6f-1d5b-4237-a1df-3b5cfd8a9777","system_id":"levelo_inurba_marseille","lat":43.2119,"lon":5.350678,"is_reserved":false,"is_disabled":false,"rental_uris":{"android":"levelo://app?vid=87bc9e6f-1d5b-4237-a1df-3b5cfd8a9777","ios":"levelo://app?vid=87bc9e6f-1d5b-4237-a1df-3b5cfd8a9777"},"vehicle_type_id":"4","last_reported":1753117961,"current_range_meters":18800,"station_id":"st_cvj6sg6p6f1abm77japg","pricing_plan_id":"cebpf4jnsgd1na2vs0mg"},{"bike_id":"51810feb-c9da-4f93-85f1-44fc0b989db6","system_id":"levelo_inurba_marseille","lat":43.22958,"lon":5.35362,"is_reserved":false,"is_disabled":false,"rental_uris":{"android":"levelo://app?vid=51810feb-c9da-4f93-85f1-44fc0b989db6","ios":"levelo://app?vid=51810feb-c9da-4f93-85f1-44fc0b989db6"},"vehicle_type_id":"4","last_reported":1753117961,"current_range_meters":18800,"station_id":"cpo3532slgdg3j2ikp40","pricing_plan_id":"cebpf4jnsgd1na2vs0mg"},{"bike_id":"b52df7e2-ad75-4d6b-a395-f1eb700f2fd1","system_id":"levelo_inurba_marseille","lat":43.24177,"lon":5.36397,"is_reserved":false,"is_disabled":false,"rental_uris":{"android":"levelo://app?vid=b52df7e2-ad75-4d6b-a395-f1eb700f2fd1","ios":"levelo://app?vid=b52df7e2-ad75-4d6b-a395-f1eb700f2fd1"},"vehicle_type_id":"4","last_reported":1753117961,"current_range_meters":18800,"station_id":"cpo36qri1sfpv3e86is0","pricing_plan_id":"cebpf4jnsgd1na2vs0mg"},{"bike_id":"a31ea856-693e-4b3f-bb68-48da10419fc6","system_id":"levelo_inurba_marseille","lat":43.29003,"lon":5.35618,"is_reserved":false,"is_disabled":false,"rental_uris":{"android":"levelo://app?vid=a31ea856-693e-4b3f-bb68-48da10419fc6","ios":"levelo://app?vid=a31ea856-693e-4b3f-bb68-48da10419fc6"},"vehicle_type_id":"4","last_reported":1753117961,"current_range_meters":18800,"station_id":"ce4bhb92rcd13ifvqen0","pricing_plan_id":"cebpf4jnsgd1na2vs0mg"},{"bike_id":"563a18b0-6b44-4830-a0d9-1c5b2d80c052","system_id":"levelo_inurba_marseille","lat":43.296234,"lon":5.371651,"is_reserved":false,"is_disabled":false,"rental_uris":{"android":"levelo://app?vid=563a18b0-6b44-4830-a0d9-1c5b2d80c052","ios":"levelo://app?vid=563a18b0-6b44-4830-a0d9-1c5b2d80c052"},"vehicle_type_id":"4","last_reported":1753117961,"current_range_meters":19600,"station_id":"ce4bgnh2rcd13ifvqc0g","pricing_plan_id":"cebpf4jnsgd1na2vs0mg"},{"bike_id":"0252eab3-c3f3-4486-b893-58cb3f957c57","system_id":"levelo_inurba_marseille","lat":43.31714,"lon":5.38479,"is_reserved":false,"is_disabled":false,"rental_uris":{"android":"levelo://app?vid=0252eab3-c3f3-4486-b893-58cb3f957c57","ios":"levelo://app?vid=0252eab3-c3f3-4486-b893-58cb3f957c57"},"vehicle_type_id":"4","last_reported":1753117961,"current_range_meters":19200,"station_id":"","pricing_plan_id":"cebpf4jnsgd1na2vs0mg"},{"bike_id":"626494ca-3641-4a15-9c73-62c6e932248d","system_id":"levelo_inurba_marseille","lat":43.29535,"lon":5.39389,"is_reserved":false,"is_disabled":false,"rental_uris":{"android":"levelo://app?vid=626494ca-3641-4a15-9c73-62c6e932248d","ios":"levelo://app?vid=626494ca-3641-4a15-9c73-62c6e932248d"},"vehicle_type_id":"4","last_reported":1753117961,"current_range_meters":19200,"station_id":"ce4bh292rcd13ifvqdf0","pricing_plan_id":"cebpf4jnsgd1na2vs0mg"},{"bike_id":"bdf04ed2-e6a7-4cad-9c20-d530b6be9825","system_id":"levelo_inurba_marseille","lat":43.276239,"lon":5.361149,"is_reserved":false,"is_disabled":false,"rental_uris":{"android":"levelo://app?vid=bdf04ed2-e6a7-4cad-9c20-d530b6be9825","ios":"levelo://app?vid=bdf04ed2-e6a7-4cad-9c20-d530b6be9825"},"vehicle_type_id":"4","last_reported":1753117961,"current_range_meters":19200,"station_id":"ce4bgj92rcd13ifvqbe0","pricing_plan_id":"cebpf4jnsgd1na2vs0mg"},{"bike_id":"7227f2a0-48ac-47a6-aa2d-661ad6a7a763","system_id":"levelo_inurba_marseille","lat":43.29058,"lon":5.3717,"is_reserved":false,"is_disabled":true,"rental_uris":{"android":"levelo://app?vid=7227f2a0-48ac-47a6-aa2d-661ad6a7a763","ios":"levelo://app?vid=7227f2a0-48ac-47a6-aa2d-661ad6a7a763"},"vehicle_type_id":"4","last_reported":1753117961,"current_range_meters":19200,"station_id":"ce4bgh92rcd13ifvqb40","pricing_plan_id":"cebpf4jnsgd1na2vs0mg"},{"bike_id":"02bda465-5730-4d42-a0d1-5ffc89217a3f","system_id":"levelo_inurba_marseille","lat":43.30658,"lon":5.38184,"is_reserved":false,"is_disabled":false,"rental_uris":{"android":"levelo://app?vid=02bda465-5730-4d42-a0d1-5ffc89217a3f","ios":"levelo://app?vid=02bda465-5730-4d42-a0d1-5ffc89217a3f"},"vehicle_type_id":"4","last_reported":1753117961,"current_range_meters":19600,"station_id":"","pricing_plan_id":"cebpf4jnsgd1na2vs0mg"},{"bike_id":"312d1f37-8ca6-494d-b256-a16b6656a817","system_id":"levelo_inurba_marseille","lat":43.28572,"lon":5.39511,"is_reserved":false,"is_disabled":false,"rental_uris":{"android":"levelo://app?vid=312d1f37-8ca6-494d-b256-a16b6656a817","ios":"levelo://app?vid=312d1f37-8ca6-494d-b256-a16b6656a817"},"vehicle_type_id":"4","last_reported":1753117961,"current_range_meters":19200,"station_id":"ce4bh292rcd13ifvqdg0","pricing_plan_id":"cebpf4jnsgd1na2vs0mg"},{"bike_id":"9c9e4778-e101-47f5-8711-89ed144448a6","system_id":"levelo_inurba_marseille","lat":43.30764,"lon":5.36608,"is_reserved":false,"is_disabled":true,"rental_uris":{"android":"levelo://app?vid=9c9e4778-e101-47f5-8711-89ed144448a6","ios":"levelo://app?vid=9c9e4778-e101-47f5-8711-89ed144448a6"},"vehicle_type_id":"4","last_reported":1753117961,"current_range_meters":19600,"station_id":"ce4bgn92rcd13ifvqbvg","pricing_plan_id":"cebpf4jnsgd1na2vs0mg"},{"bike_id":"17cced04-ab9d-44c2-8e89-1092afbbd3fe","system_id":"levelo_inurba_marseille","lat":43.287,"lon":5.37382,"is_reserved":false,"is_disabled":false,"rental_uris":{"android":"levelo://app?vid=17cced04-ab9d-44c2-8e89-1092afbbd3fe","ios":"levelo://app?vid=17cced04-ab9d-44c2-8e89-1092afbbd3fe"},"vehicle_type_id":"4","last_reported":1753117961,"current_range_meters":19200,"station_id":"ce4bh3p2rcd13ifvqdq0","pricing_plan_id":"cebpf4jnsgd1na2vs0mg"},{"bike_id":"0e2520fd-e3b5-4363-a405-9b9d4714f252","system_id":"levelo_inurba_marseille","lat":43.24994,"lon":5.38921,"is_reserved":false,"is_disabled":false,"rental_uris":{"android":"levelo://app?vid=0e2520fd-e3b5-4363-a405-9b9d4714f252","ios":"levelo://app?vid=0e2520fd-e3b5-4363-a405-9b9d4714f252"},"vehicle_type_id":"4","last_reported":1753117961,"current_range_meters":19200,"station_id":"ce4bhgp2rcd13ifvqfd0","pricing_plan_id":"cebpf4jnsgd1na2vs0mg"},{"bike_id":"f62466d3-321a-4cce-a9a9-a9174f658809","system_id":"levelo_inurba_marseille","lat":43.30434,"lon":5.3889,"is_reserved":false,"is_disabled":false,"rental_uris":{"android":"levelo://app?vid=f62466d3-321a-4cce-a9a9-a9174f658809","ios":"levelo://app?vid=f62466d3-321a-4cce-a9a9-a9174f658809"},"vehicle_type_id":"4","last_reported":1753117961,"current_range_meters":19200,"station_id":"ce4bgk12rcd13ifvqbi0","pricing_plan_id":"cebpf4jnsgd1na2vs0mg"},{"bike_id":"c4255c5b-72b0-4f19-85b5-0ec5c2726ac7","system_id":"levelo_inurba_marseille","lat":43.26228,"lon":5.4045,"is_reserved":false,"is_disabled":false,"rental_uris":{"android":"levelo://app?vid=c4255c5b-72b0-4f19-85b5-0ec5c2726ac7","ios":"levelo://app?vid=c4255c5b-72b0-4f19-85b5-0ec5c2726ac7"},"vehicle_type_id":"4","last_reported":1753117961,"current_range_meters":19600,"station_id":"ce4bhmh2rcd13ifvqgmg","pricing_plan_id":"cebpf4jnsgd1na2vs0mg"},{"bike_id":"2d2dd102-ab8c-46f8-af76-25d78c8c1930","system_id":"levelo_inurba_marseille","lat":43.28406,"lon":5.34975,"is_reserved":false,"is_disabled":false,"rental_uris":{"android":"levelo://app?vid=2d2dd102-ab8c-46f8-af76-25d78c8c1930","ios":"levelo://app?vid=2d2dd102-ab8c-46f8-af76-25d78c8c1930"},"vehicle_type_id":"4","last_reported":1753117961,"current_range_meters":19600,"station_id":"ce4bhbh2rcd13ifvqepg","pricing_plan_id":"cebpf4jnsgd1na2vs0mg"},{"bike_id":"5153e984-1abc-4d5b-91ef-21249865a3e6","system_id":"levelo_inurba_marseille","lat":43.21184,"lon":5.35052,"is_reserved":false,"is_disabled":false,"rental_uris":{"android":"levelo://app?vid=5153e984-1abc-4d5b-91ef-21249865a3e6","ios":"levelo://app?vid=5153e984-1abc-4d5b-91ef-21249865a3e6"},"vehicle_type_id":"4","last_reported":1753117961,"current_range_meters":19600,"station_id":"st_cvj6sg6p6f1abm77japg","pricing_plan_id":"cebpf4jnsgd1na2vs0mg"},{"bike_id":"ce77ed30-76a6-46cf-94f3-a626fe24a481","system_id":"levelo_inurba_marseille","lat":43.24184,"lon":5.36384,"is_reserved":false,"is_disabled":false,"rental_uris":{"android":"levelo://app?vid=ce77ed30-76a6-46cf-94f3-a626fe24a481","ios":"levelo://app?vid=ce77ed30-76a6-46cf-94f3-a626fe24a481"},"vehicle_type_id":"4","last_reported":1753117961,"current_range_meters":19600,"station_id":"cpo36qri1sfpv3e86is0","pricing_plan_id":"cebpf4jnsgd1na2vs0mg"},{"bike_id":"6c20c22b-6454-4331-8c34-14ae5a9ff39c","system_id":"levelo_inurba_marseille","lat":43.23965,"lon":5.36631,"is_reserved":false,"is_disabled":false,"rental_uris":{"android":"levelo://app?vid=6c20c22b-6454-4331-8c34-14ae5a9ff39c","ios":"levelo://app?vid=6c20c22b-6454-4331-8c34-14ae5a9ff39c"},"vehicle_type_id":"4","last_reported":1753117961,"current_range_meters":19600,"station_id":"ce4bhi12rcd13ifvqfp0","pricing_plan_id":"cebpf4jnsgd1na2vs0mg"},{"bike_id":"d05bc00b-7e16-4441-9e07-1ae48a2b4f5f","system_id":"levelo_inurba_marseille","lat":43.27493,"lon":5.42452,"is_reserved":false,"is_disabled":false,"rental_uris":{"android":"levelo://app?vid=d05bc00b-7e16-4441-9e07-1ae48a2b4f5f","ios":"levelo://app?vid=d05bc00b-7e16-4441-9e07-1ae48a2b4f5f"},"vehicle_type_id":"4","last_reported":1753117961,"current_range_meters":19600,"station_id":"ce4bhn92rcd13ifvqgrg","pricing_plan_id":"cebpf4jnsgd1na2vs0mg"},{"bike_id":"1d948992-f44b-42c5-90bd-384500ec6a69","system_id":"levelo_inurba_marseille","lat":43.29581,"lon":5.39944,"is_reserved":false,"is_disabled":false,"rental_uris":{"android":"levelo://app?vid=1d948992-f44b-42c5-90bd-384500ec6a69","ios":"levelo://app?vid=1d948992-f44b-42c5-90bd-384500ec6a69"},"vehicle_type_id":"4","last_reported":1753117961,"current_range_meters":19600,"station_id":"ce4bh312rcd13ifvqdj0","pricing_plan_id":"cebpf4jnsgd1na2vs0mg"},{"bike_id":"de5426ba-ae67-47a4-bece-c11c7065cd1e","system_id":"levelo_inurba_marseille","lat":43.21183,"lon":5.3508,"is_reserved":false,"is_disabled":false,"rental_uris":{"android":"levelo://app?vid=de5426ba-ae67-47a4-bece-c11c7065cd1e","ios":"levelo://app?vid=de5426ba-ae67-47a4-bece-c11c7065cd1e"},"vehicle_type_id":"4","last_reported":1753117961,"current_range_meters":19600,"station_id":"st_cvj6sg6p6f1abm77japg","pricing_plan_id":"cebpf4jnsgd1na2vs0mg"},{"bike_id":"9fbe51a7-a494-4978-98f1-b4a0f1e38c58","system_id":"levelo_inurba_marseille","lat":43.29987,"lon":5.38497,"is_reserved":false,"is_disabled":false,"rental_uris":{"android":"levelo://app?vid=9fbe51a7-a494-4978-98f1-b4a0f1e38c58","ios":"levelo://app?vid=9fbe51a7-a494-4978-98f1-b4a0f1e38c58"},"vehicle_type_id":"4","last_reported":1753117961,"current_range_meters":19600,"station_id":"ce4bgj92rcd13ifvqbd0","pricing_plan_id":"cebpf4jnsgd1na2vs0mg"},{"bike_id":"64a2f514-4942-458d-b3fc-7d7fd0dfd1b1","system_id":"levelo_inurba_marseille","lat":43.211986,"lon":5.35072,"is_reserved":false,"is_disabled":false,"rental_uris":{"android":"levelo://app?vid=64a2f514-4942-458d-b3fc-7d7fd0dfd1b1","ios":"levelo://app?vid=64a2f514-4942-458d-b3fc-7d7fd0dfd1b1"},"vehicle_type_id":"4","last_reported":1753117961,"current_range_meters":19600,"station_id":"st_cvj6sg6p6f1abm77japg","pricing_plan_id":"cebpf4jnsgd1na2vs0mg"},{"bike_id":"0cf0915f-45fe-4b9a-82be-e141d23e4744","system_id":"levelo_inurba_marseille","lat":43.255776,"lon":5.382497,"is_reserved":false,"is_disabled":false,"rental_uris":{"android":"levelo://app?vid=0cf0915f-45fe-4b9a-82be-e141d23e4744","ios":"levelo://app?vid=0cf0915f-45fe-4b9a-82be-e141d23e4744"},"vehicle_type_id":"4","last_reported":1753117961,"current_range_meters":19600,"station_id":"ce4bhih2rcd13ifvqfs0","pricing_plan_id":"cebpf4jnsgd1na2vs0mg"},{"bike_id":"dda96cde-9f78-4371-a72f-1d24145c396a","system_id":"levelo_inurba_marseille","lat":43.212,"lon":5.35061,"is_reserved":false,"is_disabled":false,"rental_uris":{"android":"levelo://app?vid=dda96cde-9f78-4371-a72f-1d24145c396a","ios":"levelo://app?vid=dda96cde-9f78-4371-a72f-1d24145c396a"},"vehicle_type_id":"4","last_reported":1753117961,"current_range_meters":20000,"station_id":"st_cvj6sg6p6f1abm77japg","pricing_plan_id":"cebpf4jnsgd1na2vs0mg"},{"bike_id":"1d76d70f-2d5f-4bdb-8e77-059b3c40a824","system_id":"levelo_inurba_marseille","lat":43.295366,"lon":5.385616,"is_reserved":false,"is_disabled":false,"rental_uris":{"android":"levelo://app?vid=1d76d70f-2d5f-4bdb-8e77-059b3c40a824","ios":"levelo://app?vid=1d76d70f-2d5f-4bdb-8e77-059b3c40a824"},"vehicle_type_id":"4","last_reported":1753117961,"current_range_meters":20000,"station_id":"ce4bgih2rcd13ifvqba0","pricing_plan_id":"cebpf4jnsgd1na2vs0mg"},{"bike_id":"5650d288-6a35-4d6e-af8b-ba6d15f1c776","system_id":"levelo_inurba_marseille","lat":43.28615,"lon":5.35104,"is_reserved":false,"is_disabled":false,"rental_uris":{"android":"levelo://app?vid=5650d288-6a35-4d6e-af8b-ba6d15f1c776","ios":"levelo://app?vid=5650d288-6a35-4d6e-af8b-ba6d15f1c776"},"vehicle_type_id":"4","last_reported":1753117961,"current_range_meters":20000,"station_id":"ce4bhch2rcd13ifvqeug","pricing_plan_id":"cebpf4jnsgd1na2vs0mg"},{"bike_id":"f5767321-03ff-4c6c-8a78-ad57e022e0a0","system_id":"levelo_inurba_marseille","lat":43.29031,"lon":5.38127,"is_reserved":false,"is_disabled":true,"rental_uris":{"android":"levelo://app?vid=f5767321-03ff-4c6c-8a78-ad57e022e0a0","ios":"levelo://app?vid=f5767321-03ff-4c6c-8a78-ad57e022e0a0"},"vehicle_type_id":"4","last_reported":1753117961,"current_range_meters":20000,"station_id":"ce4bh4p2rcd13ifvqe1g","pricing_plan_id":"cebpf4jnsgd1na2vs0mg"},{"bike_id":"b6a513f8-8ed8-4292-b8e1-ba489d682df9","system_id":"levelo_inurba_marseille","lat":43.29262,"lon":5.40907,"is_reserved":false,"is_disabled":false,"rental_uris":{"android":"levelo://app?vid=b6a513f8-8ed8-4292-b8e1-ba489d682df9","ios":"levelo://app?vid=b6a513f8-8ed8-4292-b8e1-ba489d682df9"},"vehicle_type_id":"4","last_reported":1753117961,"current_range_meters":20000,"station_id":"ce4bh192rcd13ifvqdc0","pricing_plan_id":"cebpf4jnsgd1na2vs0mg"},{"bike_id":"1367b248-8421-4a8a-b4ce-b5b27d626155","system_id":"levelo_inurba_marseille","lat":43.28026,"lon":5.36938,"is_reserved":false,"is_disabled":false,"rental_uris":{"android":"levelo://app?vid=1367b248-8421-4a8a-b4ce-b5b27d626155","ios":"levelo://app?vid=1367b248-8421-4a8a-b4ce-b5b27d626155"},"vehicle_type_id":"4","last_reported":1753117961,"current_range_meters":20000,"station_id":"ce4bha12rcd13ifvqef0","pricing_plan_id":"cebpf4jnsgd1na2vs0mg"},