{"last_updated":1707030458,"ttl":30,"version":"2.2","data":{"bikes":[{"bike_id":"8afbf1ee-a236-401d-977a-fe0a88333f06","system_id":"levelo_inurba_marseille","lat":43.312239,"lon":5.368562,"is_reserved":false,"is_disabled":false,"rental_uris":{"android":"levelo://app?vid=8afbf1ee-a236-401d-977a-fe0a88333f06","ios":"levelo://app?vid=8afbf1ee-a236-401d-977a-fe0a88333f06"},"vehicle_type_id":"4","last_reported":1707030458,"current_range_meters":30000,"station_id":"ce4bgl92rcd13ifvqbq0","pricing_plan_id":"free"},{"bike_id":"d95e2387-434c-4b69-8908-9707087feaf0","system_id":"levelo_inurba_marseille","lat":43.312239,"lon":5.368562,"is_reserved":false,"is_disabled":false,"rental_uris":{"android":"levelo://app?vid=d95e2387-434c-4b69-8908-9707087feaf0","ios":"levelo://app?vid=d95e2387-434c-4b69-8908-9707087feaf0"},"vehicle_type_id":"4","last_reported":1707030458,"current_range_meters":0,"station_id":"ce4bgl92rcd13ifvqbq0","pricing_plan_id":"free"},{"bike_id":"9f97ffb1-587e-441e-9cfe-b8c5b4b4ef1d","system_id":"levelo_inurba_marseille","lat":43.312239,"lon":5.368562,"is_reserved":false,"is_disabled":false,"rental_uris":{"android":"levelo://app?vid=9f97ffb1-587e-441e-9cfe-b8c5b4b4ef1d","ios":"levelo://app?vid=9f97ffb1-587e-441e-9cfe-b8c5b4b4ef1d"},"vehicle_type_id":"4","last_reported":1707030458,"current_range_meters":20000,"station_id":"ce4bgl92rcd13ifvqbq0","pricing_plan_id":"free"},{"bike_id":"8f714542-601e-469f-8d68-1b5171d9240b","system_id":"levelo_inurba_marseille","lat":43.314811,"lon":5.373103,"is_reserved":false,"is_disabled":false,"rental_uris":{"android":"levelo://app?vid=8f714542-601e-469f-8d68-1b5171d9240b","ios":"levelo://app?vid=8f714542-601e-469f-8d68-1b5171d9240b"},"vehicle_type_id":"4","last_reported":1707030458,"current_range_meters":17200,"station_id":"ce4bgt12rcd13ifvqcd0","pricing_plan_id":"free"},{"bike_id":"d2be7cfc-cbe4-40df-b202-480ca2ed1165","system_id":"levelo_inurba_marseille","lat":43.314811,"lon":5.373103,"is_reserved":false,"is_disabled":false,"rental_uris":{"android":"levelo://app?vid=d2be7cfc-cbe4-40df-b202-480ca2ed1165","ios":"levelo://app?vid=d2be7cfc-cbe4-40df-b202-480ca2ed1165"},"vehicle_type_id":"4","last_reported":1707030458,"current_range_meters":26800,"station_id":"ce4bgt12rcd13ifvqcd0","pricing_plan_id":"free"},{"bike_id":"a02fa4d4-439f-400e-965a-eaeec7da82cd","system_id":"levelo_inurba_marseille","lat":43.314811,"lon":5.373104,"is_reserved":false,"is_disabled":false,"rental_uris":{"android":"levelo://app?vid=a02fa4d4-439f-400e-965a-eaeec7da82cd","ios":"levelo://app?vid=a02fa4d4-439f-400e-965a-eaeec7da82cd"},"vehicle_type_id":"4","last_reported":1707030458,"current_range_meters":32000,"station_id":"ce4bgt12rcd13ifvqcd0","pricing_plan_id":"free"},{"bike_id":"04441cac-34e9-431c-bd52-152153dd8b69","system_id":"levelo_inurba_marseille","lat":43.314811,"lon":5.373103,"is_reserved":false,"is_disabled":false,"rental_uris":{"android":"levelo://app?vid=04441cac-34e9-431c-bd52-152153dd8b69","ios":"levelo://app?vid=04441cac-34e9-431c-bd52-152153dd8b69"},"vehicle_type_id":"4","last_reported":1707030458,"current_range_meters":24800,"station_id":"ce4bgt12rcd13ifvqcd0","pricing_plan_id":"free"},{"bike_id":"f0ae0dcc-b172-4eaa-952d-385ada21a9a7","system_id":"levelo_inurba_marseille","lat":43.314811,"lon":5.373103,"is_reserved":false,"is_disabled":false,"rental_uris":{"android":"levelo://app?vid=f0ae0dcc-b172-4eaa-952d-385ada21a9a7","ios":"levelo://app?vid=f0ae0dcc-b172-4eaa-952d-385ada21a9a7"},"vehicle_type_id":"4","last_reported":1707030458,"current_range_meters":28400,"station_id":"ce4bgt12rcd13ifvqcd0","pricing_plan_id":"free"},{"bike_id":"67dd5d66-972d-410f-a4e3-7e94541e6974","system_id":"levelo_inurba_marseille","lat":43.314811,"lon":5.373103,"is_reserved":false,"is_disabled":false,"rental_uris":{"android":"levelo://app?vid=67dd5d66-972d-410f-a4e3-7e94541e6974","ios":"levelo://app?vid=67dd5d66-972d-410f-a4e3-7e94541e6974"},"vehicle_type_id":"4","last_reported":1707030458,"current_range_meters":24400,"station_id":"ce4bgt12rcd13ifvqcd0","pricing_plan_id":"free"},{"bike_id":"e6260c09-8a16-438d-8f12-9112cd2bdda6","system_id":"levelo_inurba_marseille","lat":43.314811,"lon":5.373104,"is_reserved":false,"is_disabled":false,"rental_uris":{"android":"levelo://app?vid=e6260c09-8a16-438d-8f12-9112cd2bdda6","ios":"levelo://app?vid=e6260c09-8a16-438d-8f12-9112cd2bdda6"},"vehicle_type_id":"4","last_reported":1707030458,"current_range_meters":12800,"station_id":"ce4bgt12rcd13ifvqcd0","pricing_plan_id":"free"},{"bike_id":"6ecd07a2-ee5e-47c4-93be-a7d99db601d7","system_id":"levelo_inurba_marseille","lat":43.3149,"lon":5.3731,"is_reserved":false,"is_disabled":false,"rental_uris":{"android":"levelo://app?vid=6ecd07a2-ee5e-47c4-93be-a7d99db601d7","ios":"levelo://app?vid=6ecd07a2-ee5e-47c4-93be-a7d99db601d7"},"vehicle_type_id":"4","last_reported":1707030458,"current_range_meters":0,"station_id":"ce4bgt12rcd13ifvqcd0","pricing_plan_id":"free"},{"bike_id":"ab9ed61b-2296-496d-ba64-22d15d50384f","system_id":"levelo_inurba_marseille","lat":43.30886,"lon":5.37191,"is_reserved":false,"is_disabled":false,"rental_uris":{"android":"levelo://app?vid=ab9ed61b-2296-496d-ba64-22d15d50384f","ios":"levelo://app?vid=ab9ed61b-2296-496d-ba64-22d15d50384f"},"vehicle_type_id":"4","last_reported":1707030458,"current_range_meters":15600,"station_id":"ce4bguh2rcd13ifvqckg","pricing_plan_id":"free"},{"bike_id":"a434400d-15a2-4845-90b1-2aa1cf6901e7","system_id":"levelo_inurba_marseille","lat":43.305706,"lon":5.365654,"is_reserved":false,"is_disabled":false,"rental_uris":{"android":"levelo://app?vid=a434400d-15a2-4845-90b1-2aa1cf6901e7","ios":"levelo://app?vid=a434400d-15a2-4845-90b1-2aa1cf6901e7"},"vehicle_type_id":"4","last_reported":1707030458,"current_range_meters":24800,"station_id":"ce4bgs12rcd13ifvqcag","pricing_plan_id":"free"},{"bike_id":"d64f5ce3-7516-4d44-8393-399f1a88056c","system_id":"levelo_inurba_marseille","lat":43.305989,"lon":5.37225,"is_reserved":false,"is_disabled":false,"rental_uris":{"android":"levelo://app?vid=d64f5ce3-7516-4d44-8393-399f1a88056c","ios":"levelo://app?vid=d64f5ce3-7516-4d44-8393-399f1a88056c"},"vehicle_type_id":"4","last_reported":1707030458,"current_range_meters":8800,"station_id":"ce4bgqh2rcd13ifvqc4g","pricing_plan_id":"free"},{"bike_id":"f4eb1b05-b136-488e-bc82-411c2f3cf5a2","system_id":"levelo_inurba_marseille","lat":43.31121,"lon":5.37758,"is_reserved":false,"is_disabled":false,"rental_uris":{"android":"levelo://app?vid=f4eb1b05-b136-488e-bc82-411c2f3cf5a2","ios":"levelo://app?vid=f4eb1b05-b136-488e-bc82-411c2f3cf5a2"},"vehicle_type_id":"4","last_reported":1707030458,"current_range_meters":26400,"station_id":"ce4bgt92rcd13ifvqcg0","pricing_plan_id":"free"},{"bike_id":"cc63059a-837c-4a56-a904-33c303aed642","system_id":"levelo_inurba_marseille","lat":43.31112,"lon":5.37757,"is_reserved":false,"is_disabled":false,"rental_uris":{"android":"levelo://app?vid=cc63059a-837c-4a56-a904-33c303aed642","ios":"levelo://app?vid=cc63059a-837c-4a56-a904-33c303aed642"},"vehicle_type_id":"4","last_reported":1707030458,"current_range_meters":4400,"station_id":"ce4bgt92rcd13ifvqcg0","pricing_plan_id":"free"},{"bike_id":"0537b2ba-bb16-4580-92fb-ca98b6c76146","system_id":"levelo_inurba_marseille","lat":43.311227,"lon":5.377665,"is_reserved":false,"is_disabled":false,"rental_uris":{"android":"levelo://app?vid=0537b2ba-bb16-4580-92fb-ca98b6c76146","ios":"levelo://app?vid=0537b2ba-bb16-4580-92fb-ca98b6c76146"},"vehicle_type_id":"4","last_reported":1707030458,"current_range_meters":6400,"station_id":"ce4bgt92rcd13ifvqcg0","pricing_plan_id":"free"},{"bike_id":"5a504d23-b209-409a-afa2-c748d32d55c6","system_id":"levelo_inurba_marseille","lat":43.311131,"lon":5.377651,"is_reserved":false,"is_disabled":false,"rental_uris":{"android":"levelo://app?vid=5a504d23-b209-409a-afa2-c748d32d55c6","ios":"levelo://app?vid=5a504d23-b209-409a-afa2-c748d32d55c6"},"vehicle_type_id":"4","last_reported":1707030458,"current_range_meters":2000,"station_id":"ce4bgt92rcd13ifvqcg0","pricing_plan_id":"free"},{"bike_id":"64bb3490-f04c-45b0-a6c3-dbcd45f91c18","system_id":"levelo_inurba_marseille","lat":43.31118,"lon":5.37785,"is_reserved":false,"is_disabled":false,"rental_uris":{"android":"levelo://app?vid=64bb3490-f04c-45b0-a6c3-dbcd45f91c18","ios":"levelo://app?vid=64bb3490-f04c-45b0-a6c3-dbcd45f91c18"},"vehicle_type_id":"4","last_reported":1707030458,"current_range_meters":29600,"station_id":"ce4bgt92rcd13ifvqcg0","pricing_plan_id":"free"},{"bike_id":"662cde05-06f7-4ec2-8e64-e6a473293046","system_id":"levelo_inurba_marseille","lat":43.307945,"lon":5.376487,"is_reserved":false,"is_disabled":false,"rental_uris":{"android":"levelo://app?vid=662cde05-06f7-4ec2-8e64-e6a473293046","ios":"levelo://app?vid=662cde05-06f7-4ec2-8e64-e6a473293046"},"vehicle_type_id":"4","last_reported":1707030458,"current_range_meters":30400,"station_id":"ce4bgv92rcd13ifvqcq0","pricing_plan_id":"free"},{"bike_id":"64956eac-ebd7-41d0-b9c8-454bc4de378e","system_id":"levelo_inurba_marseille","lat":43.307945,"lon":5.376487,"is_reserved":false,"is_disabled":false,"rental_uris":{"android":"levelo://app?vid=64956eac-ebd7-41d0-b9c8-454bc4de378e","ios":"levelo://app?vid=64956eac-ebd7-41d0-b9c8-454bc4de378e"},"vehicle_type_id":"4","last_reported":1707030458,"current_range_meters":31200,"station_id":"ce4bgv92rcd13ifvqcq0","pricing_plan_id":"free"},{"bike_id":"54237b33-655d-4a40-b3a7-5415caf3190c","system_id":"levelo_inurba_marseille","lat":43.307881,"lon":5.376545,"is_reserved":false,"is_disabled":false,"rental_uris":{"android":"levelo://app?vid=54237b33-655d-4a40-b3a7-5415caf3190c","ios":"levelo://app?vid=54237b33-655d-4a40-b3a7-5415caf3190c"},"vehicle_type_id":"4","last_reported":1707030458,"current_range_meters":1200,"station_id":"ce4bgv92rcd13ifvqcq0","pricing_plan_id":"free"},{"bike_id":"50803d87-3776-45ab-a9bb-f452c1d8bc01","system_id":"levelo_inurba_marseille","lat":43.30781,"lon":5.37651,"is_reserved":false,"is_disabled":false,"rental_uris":{"android":"levelo://app?vid=50803d87-3776-45ab-a9bb-f452c1d8bc01","ios":"levelo://app?vid=50803d87-3776-45ab-a9bb-f452c1d8bc01"},"vehicle_type_id":"4","last_reported":1707030458,"current_range_meters":5600,"station_id":"ce4bgv92rcd13ifvqcq0","pricing_plan_id":"free"},{"bike_id":"544a54c5-badf-418f-891b-250bbc823c70","system_id":"levelo_inurba_marseille","lat":43.307778,"lon":5.376481,"is_reserved":false,"is_disabled":false,"rental_uris":{"android":"levelo://app?vid=544a54c5-badf-418f-891b-250bbc823c70","ios":"levelo://app?vid=544a54c5-badf-418f-891b-250bbc823c70"},"vehicle_type_id":"4","last_reported":1707030458,"current_range_meters":11600,"station_id":"ce4bgv92rcd13ifvqcq0","pricing_plan_id":"free"},{"bike_id":"5b1a5c18-bb7b-4173-a5ef-a952504b3a24","system_id":"levelo_inurba_marseille","lat":43.307845,"lon":5.376574,"is_reserved":false,"is_disabled":false,"rental_uris":{"android":"levelo://app?vid=5b1a5c18-bb7b-4173-a5ef-a952504b3a24","ios":"levelo://app?vid=5b1a5c18-bb7b-4173-a5ef-a952504b3a24"},"vehicle_type_id":"4","last_reported":1707030458,"current_range_meters":2400,"station_id":"ce4bgv92rcd13ifvqcq0","pricing_plan_id":"free"},{"bike_id":"6f2f08de-0806-4b08-b862-b5680b05a8c1","system_id":"levelo_inurba_marseille","lat":43.307945,"lon":5.376487,"is_reserved":false,"is_disabled":false,"rental_uris":{"android":"levelo://app?vid=6f2f08de-0806-4b08-b862-b5680b05a8c1","ios":"levelo://app?vid=6f2f08de-0806-4b08-b862-b5680b05a8c1"},"vehicle_type_id":"4","last_reported":1707030458,"current_range_meters":30000,"station_id":"ce4bgv92rcd13ifvqcq0","pricing_plan_id":"free"},{"bike_id":"1bb385ed-7288-49d1-ae9d-c67c55d42f5b","system_id":"levelo_inurba_marseille","lat":43.307945,"lon":5.376487,"is_reserved":false,"is_disabled":false,"rental_uris":{"android":"levelo://app?vid=1bb385ed-7288-49d1-ae9d-c67c55d42f5b","ios":"levelo://app?vid=1bb385ed-7288-49d1-ae9d-c67c55d42f5b"},"vehicle_type_id":"4","last_reported":1707030458,"current_range_meters":28800,"station_id":"ce4bgv92rcd13ifvqcq0","pricing_plan_id":"free"},{"bike_id":"99bfa85a-611a-4927-a3f1-11966d02b1be","system_id":"levelo_inurba_marseille","lat":43.317075,"lon":5.377367,"is_reserved":false,"is_disabled":false,"rental_uris":{"android":"levelo://app?vid=99bfa85a-611a-4927-a3f1-11966d02b1be","ios":"levelo://app?vid=99bfa85a-611a-4927-a3f1-11966d02b1be"},"vehicle_type_id":"4","last_reported":1707030458,"current_range_meters":30800,"station_id":"ce4bgth2rcd13ifvqch0","pricing_plan_id":"free"},{"bike_id":"766d03f2-a248-486a-9c99-874413d3086e","system_id":"levelo_inurba_marseille","lat":43.303046,"lon":5.368981,"is_reserved":false,"is_disabled":false,"rental_uris":{"android":"levelo://app?vid=766d03f2-a248-486a-9c99-874413d3086e","ios":"levelo://app?vid=766d03f2-a248-486a-9c99-874413d3086e"},"vehicle_type_id":"4","last_reported":1707030458,"current_range_meters":18800,"station_id":"ce4bgqh2rcd13ifvqc5g","pricing_plan_id":"free"},{"bike_id":"b3fdee80-37a0-47bb-b8ca-a3c133c6ab3b","system_id":"levelo_inurba_marseille","lat":43.303102,"lon":5.369107,"is_reserved":false,"is_disabled":false,"rental_uris":{"android":"levelo://app?vid=b3fdee80-37a0-47bb-b8ca-a3c133c6ab3b","ios":"levelo://app?vid=b3fdee80-37a0-47bb-b8ca-a3c133c6ab3b"},"vehicle_type_id":"4","last_reported":1707030458,"current_range_meters":16000,"station_id":"ce4bgqh2rcd13ifvqc5g","pricing_plan_id":"free"},{"bike_id":"adcad12f-a841-49e7-8325-aefff59fe17a","system_id":"levelo_inurba_marseille","lat":43.315293,"lon":5.380349,"is_reserved":false,"is_disabled":false,"rental_uris":{"android":"levelo://app?vid=adcad12f-a841-49e7-8325-aefff59fe17a","ios":"levelo://app?vid=adcad12f-a841-49e7-8325-aefff59fe17a"},"vehicle_type_id":"4","last_reported":1707030458,"current_range_meters":26400,"station_id":"ce4bhsp2rcd13ifvqi50","pricing_plan_id":"free"},{"bike_id":"6bdb6ecd-edf7-4296-98bc-66a30c85b58b","system_id":"levelo_inurba_marseille","lat":43.315293,"lon":5.380349,"is_reserved":false,"is_disabled":false,"rental_uris":{"android":"levelo://app?vid=6bdb6ecd-edf7-4296-98bc-66a30c85b58b","ios":"levelo://app?vid=6bdb6ecd-edf7-4296-98bc-66a30c85b58b"},"vehicle_type_id":"4","last_reported":1707030458,"current_range_meters":30400,"station_id":"ce4bhsp2rcd13ifvqi50","pricing_plan_id":"free"},{"bike_id":"532654a0-4b95-48cc-b919-8bc35c0e2009","system_id":"levelo_inurba_marseille","lat":43.301928,"lon":5.366144,"is_reserved":false,"is_disabled":false,"rental_uris":{"android":"levelo://app?vid=532654a0-4b95-48cc-b919-8bc35c0e2009","ios":"levelo://app?vid=532654a0-4b95-48cc-b919-8bc35c0e2009"},"vehicle_type_id":"4","last_reported":1707030458,"current_range_meters":30400,"station_id":"ce4bgrh2rcd13ifvqc8g","pricing_plan_id":"free"},{"bike_id":"9fb2e65b-76e1-4f20-8d63-77278486b99e","system_id":"levelo_inurba_marseille","lat":43.308012,"lon":5.381511,"is_reserved":false,"is_disabled":false,"rental_uris":{"android":"levelo://app?vid=9fb2e65b-76e1-4f20-8d63-77278486b99e","ios":"levelo://app?vid=9fb2e65b-76e1-4f20-8d63-77278486b99e"},"vehicle_type_id":"4","last_reported":1707030458,"current_range_meters":24400,"station_id":"ce4bgt12rcd13ifvqce0","pricing_plan_id":"free"},{"bike_id":"6398e869-6328-4ee8-a95d-b9991104f5b4","system_id":"levelo_inurba_marseille","lat":43.308012,"lon":5.381511,"is_reserved":false,"is_disabled":false,"rental_uris":{"android":"levelo://app?vid=6398e869-6328-4ee8-a95d-b9991104f5b4","ios":"levelo://app?vid=6398e869-6328-4ee8-a95d-b9991104f5b4"},"vehicle_type_id":"4","last_reported":1707030458,"current_range_meters":28400,"station_id":"ce4bgt12rcd13ifvqce0","pricing_plan_id":"free"},{"bike_id":"f1fd1c09-35ca-4b6b-a0f6-5338671796d9","system_id":"levelo_inurba_marseille","lat":43.308012,"lon":5.381511,"is_reserved":false,"is_disabled":false,"rental_uris":{"android":"levelo://app?vid=f1fd1c09-35ca-4b6b-a0f6-5338671796d9","ios":"levelo://app?vid=f1fd1c09-35ca-4b6b-a0f6-5338671796d9"},"vehicle_type_id":"4","last_reported":1707030458,"current_range_meters":27200,"station_id":"ce4bgt12rcd13ifvqce0","pricing_plan_id":"free"},{"bike_id":"8452c01c-6f80-47e4-8e65-81fe32e6421a","system_id":"levelo_inurba_marseille","lat":43.308012,"lon":5.381511,"is_reserved":false,"is_disabled":false,"rental_uris":{"android":"levelo://app?vid=8452c01c-6f80-47e4-8e65-81fe32e6421a","ios":"levelo://app?vid=8452c01c-6f80-47e4-8e65-81fe32e6421a"},"vehicle_type_id":"4","last_reported":1707030458,"current_range_meters":26000,"station_id":"ce4bgt12rcd13ifvqce0","pricing_plan_id":"free"},{"bike_id":"1ac3ac2b-060d-4273-907a-e22467b79676","system_id":"levelo_inurba_marseille","lat":43.308012,"lon":5.381511,"is_reserved":false,"is_disabled":false,"rental_uris":{"android":"levelo://app?vid=1ac3ac2b-060d-4273-907a-e22467b79676","ios":"levelo://app?vid=1ac3ac2b-060d-4273-907a-e22467b79676"},"vehicle_type_id":"4","last_reported":1707030458,"current_range_meters":28000,"station_id":"ce4bgt12rcd13ifvqce0","pricing_plan_id":"free"},{"bike_id":"41dfbe0b-dad2-4351-9d5e-7148ce4ef868","system_id":"levelo_inurba_marseille","lat":43.308012,"lon":5.381511,"is_reserved":false,"is_disabled":false,"rental_uris":{"android":"levelo://app?vid=41dfbe0b-dad2-4351-9d5e-7148ce4ef868","ios":"levelo://app?vid=41dfbe0b-dad2-4351-9d5e-7148ce4ef868"},"vehicle_type_id":"4","last_reported":1707030458,"current_range_meters":21600,"station_id":"ce4bgt12rcd13ifvqce0","pricing_plan_id":"free"},{"bike_id":"46e7d8b1-fdca-4c11-bcd7-457d99877fdd","system_id":"levelo_inurba_marseille","lat":43.308012,"lon":5.381511,"is_reserved":false,"is_disabled":false,"rental_uris":{"android":"levelo://app?vid=46e7d8b1-fdca-4c11-bcd7-457d99877fdd","ios":"levelo://app?vid=46e7d8b1-fdca-4c11-bcd7-457d99877fdd"},"vehicle_type_id":"4","last_reported":1707030458,"current_range_meters":27200,"station_id":"ce4bgt12rcd13ifvqce0","pricing_plan_id":"free"},{"bike_id":"9feeb662-d29f-4e1d-bb77-50b30e144a5a","system_id":"levelo_inurba_marseille","lat":43.308012,"lon":5.381511,"is_reserved":false,"is_disabled":false,"rental_uris":{"android":"levelo://app?vid=9feeb662-d29f-4e1d-bb77-50b30e144a5a","ios":"levelo://app?vid=9feeb662-d29f-4e1d-bb77-50b30e144a5a"},"vehicle_type_id":"4","last_reported":1707030458,"current_range_meters":32000,"station_id":"ce4bgt12rcd13ifvqce0","pricing_plan_id":"free"},{"bike_id":"add2213e-2b08-42e9-8f3f-19ce416d5222","system_id":"levelo_inurba_marseille","lat":43.308012,"lon":5.381511,"is_reserved":false,"is_disabled":false,"rental_uris":{"android":"levelo://app?vid=add2213e-2b08-42e9-8f3f-19ce416d5222","ios":"levelo://app?vid=add2213e-2b08-42e9-8f3f-19ce416d5222"},"vehicle_type_id":"4","last_reported":1707030458,"current_range_meters":24800,"station_id":"ce4bgt12rcd13ifvqce0","pricing_plan_id":"free"},{"bike_id":"bc5d1b8f-ec83-48e1-ae8c-91d48d917d94","system_id":"levelo_inurba_marseille","lat":43.304606,"lon":5.379026,"is_reserved":false,"is_disabled":false,"rental_uris":{"android":"levelo://app?vid=bc5d1b8f-ec83-48e1-ae8c-91d48d917d94","ios":"levelo://app?vid=bc5d1b8f-ec83-48e1-ae8c-91d48d917d94"},"vehicle_type_id":"4","last_reported":1707030458,"current_range_meters":12000,"station_id":"ce4bgup2rcd13ifvqcn0","pricing_plan_id":"free"},{"bike_id":"86ccd956-6323-4d1f-954a-5938d6c09006","system_id":"levelo_inurba_marseille","lat":43.304606,"lon":5.379026,"is_reserved":false,"is_disabled":false,"rental_uris":{"android":"levelo://app?vid=86ccd956-6323-4d1f-954a-5938d6c09006","ios":"levelo://app?vid=86ccd956-6323-4d1f-954a-5938d6c09006"},"vehicle_type_id":"4","last_reported":1707030458,"current_range_meters":12000,"station_id":"ce4bgup2rcd13ifvqcn0","pricing_plan_id":"free"},{"bike_id":"86d98dda-1dfc-4a9c-8e82-50a628e5a830","system_id":"levelo_inurba_marseille","lat":43.304606,"lon":5.379026,"is_reserved":false,"is_disabled":false,"rental_uris":{"android":"levelo://app?vid=86d98dda-1dfc-4a9c-8e82-50a628e5a830","ios":"levelo://app?vid=86d98dda-1dfc-4a9c-8e82-50a628e5a830"},"vehicle_type_id":"4","last_reported":1707030458,"current_range_meters":9200,"station_id":"ce4bgup2rcd13ifvqcn0","pricing_plan_id":"free"},{"bike_id":"a0a6edc3-6666-4023-a122-7145a6847b19","system_id":"levelo_inurba_marseille","lat":43.304606,"lon":5.379026,"is_reserved":false,"is_disabled":false,"rental_uris":{"android":"levelo://app?vid=a0a6edc3-6666-4023-a122-7145a6847b19","ios":"levelo://app?vid=a0a6edc3-6666-4023-a122-7145a6847b19"},"vehicle_type_id":"4","last_reported":1707030458,"current_range_meters":26800,"station_id":"ce4bgup2rcd13ifvqcn0","pricing_plan_id":"free"},{"bike_id":"b7bd530a-22b9-49ae-a793-92ae9808f53f","system_id":"levelo_inurba_marseille","lat":43.304606,"lon":5.379026,"is_reserved":false,"is_disabled":false,"rental_uris":{"android":"levelo://app?vid=b7bd530a-22b9-49ae-a793-92ae9808f53f","ios":"levelo://app?vid=b7bd530a-22b9-49ae-a793-92ae9808f53f"},"vehicle_type_id":"4","last_reported":1707030458,"current_range_meters":25200,"station_id":"ce4bgup2rcd13ifvqcn0","pricing_plan_id":"free"},{"bike_id":"906e0206-8e37-409f-862f-27ba8fecfe81","system_id":"levelo_inurba_marseille","lat":43.304606,"lon":5.379026,"is_reserved":false,"is_disabled":false,"rental_uris":{"android":"levelo://app?vid=906e0206-8e37-409f-862f-27ba8fecfe81","ios":"levelo://app?vid=906e0206-8e37-409f-862f-27ba8fecfe81"},"vehicle_type_id":"4","last_reported":1707030458,"current_range_meters":24400,"station_id":"ce4bgup2rcd13ifvqcn0","pricing_plan_id":"free"},{"bike_id":"b0736d46-316d-44c4-97ca-0d226cc4dba8","system_id":"levelo_inurba_marseille","lat":43.324771,"lon":5.36557,"is_reserved":false,"is_disabled":false,"rental_uris":{"android":"levelo://app?vid=b0736d46-316d-44c4-97ca-0d226cc4dba8","ios":"levelo://app?vid=b0736d46-316d-44c4-97ca-0d226cc4dba8"},"vehicle_type_id":"4","last_reported":1707030458,"current_range_meters":12800,"station_id":"ce4bhs12rcd13ifvqhvg","pricing_plan_id":"free"},{"bike_id":"e3d3782c-aad7-4ee4-839c-29342838b574","system_id":"levelo_inurba_marseille","lat":43.324771,"lon":5.36557,"is_reserved":false,"is_disabled":false,"rental_uris":{"android":"levelo://app?vid=e3d3782c-aad7-4ee4-839c-29342838b574","ios":"levelo://app?vid=e3d3782c-aad7-4ee4-839c-29342838b574"},"vehicle_type_id":"4","last_reported":1707030458,"current_range_meters":13200,"station_id":"ce4bhs12rcd13ifvqhvg","pricing_plan_id":"free"},{"bike_id":"bc2249d4-0722-4283-8e88-7641cdb8764c","system_id":"levelo_inurba_marseille","lat":43.310653,"lon":5.383483,"is_reserved":false,"is_disabled":false,"rental_uris":{"android":"levelo://app?vid=bc2249d4-0722-4283-8e88-7641cdb8764c","ios":"levelo://app?vid=bc2249d4-0722-4283-8e88-7641cdb8764c"},"vehicle_type_id":"4","last_reported":1707030458,"current_range_meters":1200,"station_id":"ce4bgv92rcd13ifvqcr0","pricing_plan_id":"free"},{"bike_id":"34442e98-ea6b-4adf-a847-608b542204b0","system_id":"levelo_inurba_marseille","lat":43.310674,"lon":5.383511,"is_reserved":false,"is_disabled":false,"rental_uris":{"android":"levelo://app?vid=34442e98-ea6b-4adf-a847-608b542204b0","ios":"levelo://app?vid=34442e98-ea6b-4adf-a847-608b542204b0"},"vehicle_type_id":"4","last_reported":1707030458,"current_range_meters":11200,"station_id":"ce4bgv92rcd13ifvqcr0","pricing_plan_id":"free"},{"bike_id":"d5752836-f393-4b21-ba9c-c2b9ba436727","system_id":"levelo_inurba_marseille","lat":43.302784,"lon":5.377158,"is_reserved":false,"is_disabled":false,"rental_uris":{"android":"levelo://app?vid=d5752836-f393-4b21-ba9c-c2b9ba436727","ios":"levelo://app?vid=d5752836-f393-4b21-ba9c-c2b9ba436727"},"vehicle_type_id":"4","last_reported":1707030458,"current_range_meters":28800,"station_id":"ce4bguh2rcd13ifvqcj0","pricing_plan_id":"free"},{"bike_id":"dda80877-c865-40ce-bbdd-2867bd7c1a84","system_id":"levelo_inurba_marseille","lat":43.302784,"lon":5.377158,"is_reserved":false,"is_disabled":false,"rental_uris":{"android":"levelo://app?vid=dda80877-c865-40ce-bbdd-2867bd7c1a84","ios":"levelo://app?vid=dda80877-c865-40ce-bbdd-2867bd7c1a84"},"vehicle_type_id":"4","last_reported":1707030458,"current_range_meters":30400,"station_id":"ce4bguh2rcd13ifvqcj0","pricing_plan_id":"free"},{"bike_id":"a6128042-25ec-43f3-84a1-f5c0259ed022","system_id":"levelo_inurba_marseille","lat":43.319935,"lon":5.381699,"is_reserved":false,"is_disabled":false,"rental_uris":{"android":"levelo://app?vid=a6128042-25ec-43f3-84a1-f5c0259ed022","ios":"levelo://app?vid=a6128042-25ec-43f3-84a1-f5c0259ed022"},"vehicle_type_id":"4","last_reported":1707030458,"current_range_meters":0,"station_id":"ce4bhr12rcd13ifvqhpg","pricing_plan_id":"free"},{"bike_id":"245843ad-bfeb-465e-a2d5-e97ffa7d3f53","system_id":"levelo_inurba_marseille","lat":43.31368,"lon":5.38477,"is_reserved":false,"is_disabled":false,"rental_uris":{"android":"levelo://app?vid=245843ad-bfeb-465e-a2d5-e97ffa7d3f53","ios":"levelo://app?vid=245843ad-bfeb-465e-a2d5-e97ffa7d3f53"},"vehicle_type_id":"4","last_reported":1707030458,"current_range_meters":26400,"station_id":"ce4bgt92rcd13ifvqcf0","pricing_plan_id":"free"},{"bike_id":"d102897c-c82b-45cb-af1d-4f319a6c9901","system_id":"levelo_inurba_marseille","lat":43.31358,"lon":5.38493,"is_reserved":false,"is_disabled":false,"rental_uris":{"android":"levelo://app?vid=d102897c-c82b-45cb-af1d-4f319a6c9901","ios":"levelo://app?vid=d102897c-c82b-45cb-af1d-4f319a6c9901"},"vehicle_type_id":"4","last_reported":1707030458,"current_range_meters":19200,"station_id":"ce4bgt92rcd13ifvqcf0","pricing_plan_id":"free"},{"bike_id":"507a16f8-135b-478f-9c64-112ce41f7017","system_id":"levelo_inurba_marseille","lat":43.299724,"lon":5.371829,"is_reserved":false,"is_disabled":false,"rental_uris":{"android":"levelo://app?vid=507a16f8-135b-478f-9c64-112ce41f7017","ios":"levelo://app?vid=507a16f8-135b-478f-9c64-112ce41f7017"},"vehicle_type_id":"4","last_reported":1707030458,"current_range_meters":26800,"station_id":"ce4bgr92rcd13ifvqc7g","pricing_plan_id":"free"},{"bike_id":"d1c75c2e-7954-4db9-98a6-7154f150715c","system_id":"levelo_inurba_marseille","lat":43.299222,"lon":5.365554,"is_reserved":false,"is_disabled":false,"rental_uris":{"android":"levelo://app?vid=d1c75c2e-7954-4db9-98a6-7154f150715c","ios":"levelo://app?vid=d1c75c2e-7954-4db9-98a6-7154f150715c"},"vehicle_type_id":"4","last_reported":1707030458,"current_range_meters":20400,"station_id":"ce4bgm92rcd13ifvqbr0","pricing_plan_id":"free"},{"bike_id":"fcdb2512-ec04-4403-99f6-b6d256439b3c","system_id":"levelo_inurba_marseille","lat":43.299222,"lon":5.365554,"is_reserved":false,"is_disabled":false,"rental_uris":{"android":"levelo://app?vid=fcdb2512-ec04-4403-99f6-b6d256439b3c","ios":"levelo://app?vid=fcdb2512-ec04-4403-99f6-b6d256439b3c"},"vehicle_type_id":"4","last_reported":1707030458,"current_range_meters":4800,"station_id":"ce4bgm92rcd13ifvqbr0","pricing_plan_id":"free"},{"bike_id":"9956cb6c-f2fa-4c38-8c96-dd03539573e9","system_id":"levelo_inurba_marseille","lat":43.299222,"lon":5.365554,"is_reserved":false,"is_disabled":false,"rental_uris":{"android":"levelo://app?vid=9956cb6c-f2fa-4c38-8c96-dd03539573e9","ios":"levelo://app?vid=9956cb6c-f2fa-4c38-8c96-dd03539573e9"},"vehicle_type_id":"4","last_reported":1707030458,"current_range_meters":9600,"station_id":"ce4bgm92rcd13ifvqbr0","pricing_plan_id":"free"},{"bike_id":"b5d6fbee-6a1a-48cd-a2a3-6cb61bfd28bd","system_id":"levelo_inurba_marseille","lat":43.299222,"lon":5.365554,"is_reserved":false,"is_disabled":false,"rental_uris":{"android":"levelo://app?vid=b5d6fbee-6a1a-48cd-a2a3-6cb61bfd28bd","ios":"levelo://app?vid=b5d6fbee-6a1a-48cd-a2a3-6cb61bfd28bd"},"vehicle_type_id":"4","last_reported":1707030458,"current_range_meters":1200,"station_id":"ce4bgm92rcd13ifvqbr0","pricing_plan_id":"free"},{"bike_id":"235df2d7-87bf-4971-94de-e10700107448","system_id":"levelo_inurba_marseille","lat":43.305371,"lon":5.384283,"is_reserved":false,"is_disabled":false,"rental_uris":{"android":"levelo://app?vid=235df2d7-87bf-4971-94de-e10700107448","ios":"levelo://app?vid=235df2d7-87bf-4971-94de-e10700107448"},"vehicle_type_id":"4","last_reported":1707030458,"current_range_meters":20800,"station_id":"ce4bgg92rcd13ifvqb30","pricing_plan_id":"free"},{"bike_id":"3a80e70a-86c9-4856-96ee-9d13cbbef993","system_id":"levelo_inurba_marseille","lat":43.305364,"lon":5.384119,"is_reserved":false,"is_disabled":false,"rental_uris":{"android":"levelo://app?vid=3a80e70a-86c9-4856-96ee-9d13cbbef993","ios":"levelo://app?vid=3a80e70a-86c9-4856-96ee-9d13cbbef993"},"vehicle_type_id":"4","last_reported":1707030458,"current_range_meters":30400,"station_id":"ce4bgg92rcd13ifvqb30","pricing_plan_id":"free"},{"bike_id":"1eeed3ec-ee0c-4b35-bd80-fbb0c5c60a1e","system_id":"levelo_inurba_marseille","lat":43.311722,"lon":5.387247,"is_reserved":false,"is_disabled":false,"rental_uris":{"android":"levelo://app?vid=1eeed3ec-ee0c-4b35-bd80-fbb0c5c60a1e","ios":"levelo://app?vid=1eeed3ec-ee0c-4b35-bd80-fbb0c5c60a1e"},"vehicle_type_id":"4","last_reported":1707030458,"current_range_meters":29200,"station_id":"ce4bgv12rcd13ifvqcp0","pricing_plan_id":"free"},{"bike_id":"9c695bfc-4e11-46a2-a541-d704e8acb052","system_id":"levelo_inurba_marseille","lat":43.311722,"lon":5.387247,"is_reserved":false,"is_disabled":false,"rental_uris":{"android":"levelo://app?vid=9c695bfc-4e11-46a2-a541-d704e8acb052","ios":"levelo://app?vid=9c695bfc-4e11-46a2-a541-d704e8acb052"},"vehicle_type_id":"4","last_reported":1707030458,"current_range_meters":1600,"station_id":"ce4bgv12rcd13ifvqcp0","pricing_plan_id":"free"},{"bike_id":"216b855f-e444-42bd-9d2d-29b07dc056b3","system_id":"levelo_inurba_marseille","lat":43.311722,"lon":5.387247,"is_reserved":false,"is_disabled":false,"rental_uris":{"android":"levelo://app?vid=216b855f-e444-42bd-9d2d-29b07dc056b3","ios":"levelo://app?vid=216b855f-e444-42bd-9d2d-29b07dc056b3"},"vehicle_type_id":"4","last_reported":1707030458,"current_range_meters":30000,"station_id":"ce4bgv12rcd13ifvqcp0","pricing_plan_id":"free"},{"bike_id":"6fb6c590-012d-4557-8da6-153a5ac38e80","system_id":"levelo_inurba_marseille","lat":43.311722,"lon":5.387247,"is_reserved":false,"is_disabled":false,"rental_uris":{"android":"levelo://app?vid=6fb6c590-012d-4557-8da6-153a5ac38e80","ios":"levelo://app?vid=6fb6c590-012d-4557-8da6-153a5ac38e80"},"vehicle_type_id":"4","last_reported":1707030458,"current_range_meters":11200,"station_id":"ce4bgv12rcd13ifvqcp0","pricing_plan_id":"free"},{"bike_id":"09010240-320e-4a23-85e5-38e922a4790e","system_id":"levelo_inurba_marseille","lat":43.311722,"lon":5.387247,"is_reserved":false,"is_disabled":false,"rental_uris":{"android":"levelo://app?vid=09010240-320e-4a23-85e5-38e922a4790e","ios":"levelo://app?vid=09010240-320e-4a23-85e5-38e922a4790e"},"vehicle_type_id":"4","last_reported":1707030458,"current_range_meters":27600,"station_id":"ce4bgv12rcd13ifvqcp0","pricing_plan_id":"free"},{"bike_id":"e6fcc903-8abe-4b43-af7c-0978bdc00112","system_id":"levelo_inurba_marseille","lat":43.311722,"lon":5.387247,"is_reserved":false,"is_disabled":false,"rental_uris":{"android":"levelo://app?vid=e6fcc903-8abe-4b43-af7c-0978bdc00112","ios":"levelo://app?vid=e6fcc903-8abe-4b43-af7c-0978bdc00112"},"vehicle_type_id":"4","last_reported":1707030458,"current_range_meters":26400,"station_id":"ce4bgv12rcd13ifvqcp0","pricing_plan_id":"free"},{"bike_id":"12641b50-7ae9-414f-b457-bf8a84eb942e","system_id":"levelo_inurba_marseille","lat":43.311722,"lon":5.387247,"is_reserved":false,"is_disabled":false,"rental_uris":{"android":"levelo://app?vid=12641b50-7ae9-414f-b457-bf8a84eb942e","ios":"levelo://app?vid=12641b50-7ae9-414f-b457-bf8a84eb942e"},"vehicle_type_id":"4","last_reported":1707030458,"current_range_meters":6800,"station_id":"ce4bgv12rcd13ifvqcp0","pricing_plan_id":"free"},{"bike_id":"e330e314-19b4-41a2-a190-ff5827c11a65","system_id":"levelo_inurba_marseille","lat":43.299243,"lon":5.37481,"is_reserved":false,"is_disabled":false,"rental_uris":{"android":"levelo://app?vid=e330e314-19b4-41a2-a190-ff5827c11a65","ios":"levelo://app?vid=e330e314-19b4-41a2-a190-ff5827c11a65"},"vehicle_type_id":"4","last_reported":1707030458,"current_range_meters":16000,"station_id":"ce4bgjh2rcd13ifvqbg0","pricing_plan_id":"free"},{"bike_id":"2a349993-a2ba-453e-98f3-13acbad55637","system_id":"levelo_inurba_marseille","lat":43.311722,"lon":5.387247,"is_reserved":false,"is_disabled":false,"rental_uris":{"android":"levelo://app?vid=2a349993-a2ba-453e-98f3-13acbad55637","ios":"levelo://app?vid=2a349993-a2ba-453e-98f3-13acbad55637"},"vehicle_type_id":"4","last_reported":1707030458,"current_range_meters":29600,"station_id":"ce4bgv12rcd13ifvqcp0","pricing_plan_id":"free"},{"bike_id":"f83569fd-48a4-48f7-84b4-43c9a58ddbfe","system_id":"levelo_inurba_marseille","lat":43.311722,"lon":5.387247,"is_reserved":false,"is_disabled":false,"rental_uris":{"android":"levelo://app?vid=f83569fd-48a4-48f7-84b4-43c9a58ddbfe","ios":"levelo://app?vid=f83569fd-48a4-48f7-84b4-43c9a58ddbfe"},"vehicle_type_id":"4","last_reported":1707030458,"current_range_meters":31600,"station_id":"ce4bgv12rcd13ifvqcp0","pricing_plan_id":"free"},{"bike_id":"fc1a5ece-a582-4acd-b14f-e8bf4eca5319","system_id":"levelo_inurba_marseille","lat":43.311722,"lon":5.387247,"is_reserved":false,"is_disabled":false,"rental_uris":{"android":"levelo://app?vid=fc1a5ece-a582-4acd-b14f-e8bf4eca5319","ios":"levelo://app?vid=fc1a5ece-a582-4acd-b14f-e8bf4eca5319"},"vehicle_type_id":"4","last_reported":1707030458,"current_range_meters":8800,"station_id":"ce4bgv12rcd13ifvqcp0","pricing_plan_id":"free"},{"bike_id":"d3766b14-fc7e-461f-9614-8a50557d539c","system_id":"levelo_inurba_marseille","lat":43.299243,"lon":5.37481,"is_reserved":false,"is_disabled":false,"rental_uris":{"android":"levelo://app?vid=d3766b14-fc7e-461f-9614-8a50557d539c","ios":"levelo://app?vid=d3766b14-fc7e-461f-9614-8a50557d539c"},"vehicle_type_id":"4","last_reported":1707030458,"current_range_meters":11200,"station_id":"ce4bgjh2rcd13ifvqbg0","pricing_plan_id":"free"},{"bike_id":"a28f0eb8-6ba7-4a7e-9d96-6aa8c8ab36d0","system_id":"levelo_inurba_marseille","lat":43.322872,"lon":5.382756,"is_reserved":false,"is_disabled":false,"rental_uris":{"android":"levelo://app?vid=a28f0eb8-6ba7-4a7e-9d96-6aa8c8ab36d0","ios":"levelo://app?vid=a28f0eb8-6ba7-4a7e-9d96-6aa8c8ab36d0"},"vehicle_type_id":"4","last_reported":1707030458,"current_range_meters":30000,"station_id":"ce4bhr12rcd13ifvqhqg","pricing_plan_id":"free"},{"bike_id":"d3067c66-e7e2-46f1-8f0d-eabc61ae0d41","system_id":"levelo_inurba_marseille","lat":43.32285,"lon":5.382703,"is_reserved":false,"is_disabled":false,"rental_uris":{"android":"levelo://app?vid=d3067c66-e7e2-46f1-8f0d-eabc61ae0d41","ios":"levelo://app?vid=d3067c66-e7e2-46f1-8f0d-eabc61ae0d41"},"vehicle_type_id":"4","last_reported":1707030458,"current_range_meters":4800,"station_id":"ce4bhr12rcd13ifvqhqg","pricing_plan_id":"free"},{"bike_id":"dec8b008-992e-4c64-b540-1c9b2b5e6fc3","system_id":"levelo_inurba_marseille","lat":43.322825,"lon":5.382737,"is_reserved":false,"is_disabled":false,"rental_uris":{"android":"levelo://app?vid=dec8b008-992e-4c64-b540-1c9b2b5e6fc3","ios":"levelo://app?vid=dec8b008-992e-4c64-b540-1c9b2b5e6fc3"},"vehicle_type_id":"4","last_reported":1707030458,"current_range_meters":2800,"station_id":"ce4bhr12rcd13ifvqhqg","pricing_plan_id":"free"},{"bike_id":"8b023912-5267-4e1c-a403-4d70b425cebe","system_id":"levelo_inurba_marseille","lat":43.322873,"lon":5.382808,"is_reserved":false,"is_disabled":false,"rental_uris":{"android":"levelo://app?vid=8b023912-5267-4e1c-a403-4d70b425cebe","ios":"levelo://app?vid=8b023912-5267-4e1c-a403-4d70b425cebe"},"vehicle_type_id":"4","last_reported":1707030458,"current_range_meters":30000,"station_id":"ce4bhr12rcd13ifvqhqg","pricing_plan_id":"free"},{"bike_id":"1900e2ea-9239-49b1-933e-57903fa99707","system_id":"levelo_inurba_marseille","lat":43.32826,"lon":5.36695,"is_reserved":false,"is_disabled":false,"rental_uris":{"android":"levelo://app?vid=1900e2ea-9239-49b1-933e-57903fa99707","ios":"levelo://app?vid=1900e2ea-9239-49b1-933e-57903fa99707"},"vehicle_type_id":"4","last_reported":1707030458,"current_range_meters":12000,"station_id":"ce4bhs92rcd13ifvqi0g","pricing_plan_id":"free"},{"bike_id":"4c60f124-983d-4709-a95c-31ae5c64ae30","system_id":"levelo_inurba_marseille","lat":43.328303,"lon":5.366775,"is_reserved":false,"is_disabled":false,"rental_uris":{"android":"levelo://app?vid=4c60f124-983d-4709-a95c-31ae5c64ae30","ios":"levelo://app?vid=4c60f124-983d-4709-a95c-31ae5c64ae30"},"vehicle_type_id":"4","last_reported":1707030458,"current_range_meters":0,"station_id":"ce4bhs92rcd13ifvqi0g","pricing_plan_id":"free"},{"bike_id":"a46cebf8-b22b-47bd-be3d-1a9736717336","system_id":"levelo_inurba_marseille","lat":43.297163,"lon":5.365866,"is_reserved":false,"is_disabled":false,"rental_uris":{"android":"levelo://app?vid=a46cebf8-b22b-47bd-be3d-1a9736717336","ios":"levelo://app?vid=a46cebf8-b22b-47bd-be3d-1a9736717336"},"vehicle_type_id":"4","last_reported":1707030458,"current_range_meters":30000,"station_id":"ce4bgn12rcd13ifvqbt0","pricing_plan_id":"free"},{"bike_id":"5348c1e8-9e6b-4896-a986-964a9087e27c","system_id":"levelo_inurba_marseille","lat":43.296131,"lon":5.370791,"is_reserved":false,"is_disabled":false,"rental_uris":{"android":"levelo://app?vid=5348c1e8-9e6b-4896-a986-964a9087e27c","ios":"levelo://app?vid=5348c1e8-9e6b-4896-a986-964a9087e27c"},"vehicle_type_id":"4","last_reported":1707030458,"current_range_meters":27600,"station_id":"ce4bgnh2rcd13ifvqc0g","pricing_plan_id":"free"},{"bike_id":"4582e7de-a86f-433c-9528-4894f4807339","system_id":"levelo_inurba_marseille","lat":43.29573,"lon":5.367355,"is_reserved":false,"is_disabled":false,"rental_uris":{"android":"levelo://app?vid=4582e7de-a86f-433c-9528-4894f4807339","ios":"levelo://app?vid=4582e7de-a86f-433c-9528-4894f4807339"},"vehicle_type_id":"4","last_reported":1707030458,"current_range_meters":24800,"station_id":"ce4bgph2rcd13ifvqc2g","pricing_plan_id":"free"},{"bike_id":"e71dbeb2-bdcd-41a9-9e92-b0477debf34d","system_id":"levelo_inurba_marseille","lat":43.296526,"lon":5.37444,"is_reserved":false,"is_disabled":false,"rental_uris":{"android":"levelo://app?vid=e71dbeb2-bdcd-41a9-9e92-b0477debf34d","ios":"levelo://app?vid=e71dbeb2-bdcd-41a9-9e92-b0477debf34d"},"vehicle_type_id":"4","last_reported":1707030458,"current_range_meters":14000,"station_id":"","pricing_plan_id":"free"},{"bike_id":"ba917418-00b2-4656-9118-12cf188f3748","system_id":"levelo_inurba_marseille","lat":43.299028,"lon":5.381509,"is_reserved":false,"is_disabled":false,"rental_uris":{"android":"levelo://app?vid=ba917418-00b2-4656-9118-12cf188f3748","ios":"levelo://app?vid=ba917418-00b2-4656-9118-12cf188f3748"},"vehicle_type_id":"4","last_reported":1707030458,"current_range_meters":17200,"station_id":"ce4bgj12rcd13ifvqbc0","pricing_plan_id":"free"},{"bike_id":"379d9f64-d382-4f69-b2a0-19a9f1134e9d","system_id":"levelo_inurba_marseille","lat":43.299028,"lon":5.381509,"is_reserved":false,"is_disabled":false,"rental_uris":{"android":"levelo://app?vid=379d9f64-d382-4f69-b2a0-19a9f1134e9d","ios":"levelo://app?vid=379d9f64-d382-4f69-b2a0-19a9f1134e9d"},"vehicle_type_id":"4","last_reported":1707030458,"current_range_meters":0,"station_id":"ce4bgj12rcd13ifvqbc0","pricing_plan_id":"free"},{"bike_id":"08d06f6f-bc8b-4182-84fe-4962cdddf10e","system_id":"levelo_inurba_marseille","lat":43.299028,"lon":5.381509,"is_reserved":false,"is_disabled":false,"rental_uris":{"android":"levelo://app?vid=08d06f6f-bc8b-4182-84fe-4962cdddf10e","ios":"levelo://app?vid=08d06f6f-bc8b-4182-84fe-4962cdddf10e"},"vehicle_type_id":"4","last_reported":1707030458,"current_range_meters":20400,"station_id":"ce4bgj12rcd13ifvqbc0","pricing_plan_id":"free"},{"bike_id":"70fbf395-cd7a-4255-a601-840249551b83","system_id":"levelo_inurba_marseille","lat":43.299028,"lon":5.381509,"is_reserved":false,"is_disabled":false,"rental_uris":{"android":"levelo://app?vid=70fbf395-cd7a-4255-a601-840249551b83","ios":"levelo://app?vid=70fbf395-cd7a-4255-a601-840249551b83"},"vehicle_type_id":"4","last_reported":1707030458,"current_range_meters":13200,"station_id":"ce4bgj12rcd13ifvqbc0","pricing_plan_id":"free"},{"bike_id":"fea65c5e-4aa4-4c77-9ef8-6393cad6abbf","system_id":"levelo_inurba_marseille","lat":43.299028,"lon":5.381509,"is_reserved":false,"is_disabled":false,"rental_uris":{"android":"levelo://app?vid=fea65c5e-4aa4-4c77-9ef8-6393cad6abbf","ios":"levelo://app?vid=fea65c5e-4aa4-4c77-9ef8-6393cad6abbf"},"vehicle_type_id":"4","last_reported":1707030458,"current_range_meters":23600,"station_id":"ce4bgj12rcd13ifvqbc0","pricing_plan_id":"free"},{"bike_id":"5e4051a0-397b-414f-9672-21a8d39ca269","system_id":"levelo_inurba_marseille","lat":43.31757,"lon":5.39006,"is_reserved":false,"is_disabled":false,"rental_uris":{"android":"levelo://app?vid=5e4051a0-397b-414f-9672-21a8d39ca269","ios":"levelo://app?vid=5e4051a0-397b-414f-9672-21a8d39ca269"},"vehicle_type_id":"4","last_reported":1707030458,"current_range_meters":16400,"station_id":"ce4bhqp2rcd13ifvqhng","pricing_plan_id":"free"},{"bike_id":"0b49491c-81b8-4ed9-9fa4-1ac082e034fe","system_id":"levelo_inurba_marseille","lat":43.317557,"lon":5.390173,"is_reserved":false,"is_disabled":false,"rental_uris":{"android":"levelo://app?vid=0b49491c-81b8-4ed9-9fa4-1ac082e034fe","ios":"levelo://app?vid=0b49491c-81b8-4ed9-9fa4-1ac082e034fe"},"vehicle_type_id":"4","last_reported":1707030458,"current_range_meters":32000,"station_id":"ce4bhqp2rcd13ifvqhng","pricing_plan_id":"free"},{"bike_id":"86eba5ee-3f3e-465e-879d-a26eca611b6f","system_id":"levelo_inurba_marseille","lat":43.31827,"lon":5.39025,"is_reserved":false,"is_disabled":false,"rental_uris":{"android":"levelo://app?vid=86eba5ee-3f3e-465e-879d-a26eca611b6f","ios":"levelo://app?vid=86eba5ee-3f3e-465e-879d-a26eca611b6f"},"vehicle_type_id":"4","last_reported":1707030458,"current_range_meters":18400,"station_id":"","pricing_plan_id":"free"},{"bike_id":"3b1c1d9a-d81e-415c-ae8b-2b3277ee298c","system_id":"levelo_inurba_marseille","lat":43.29795,"lon":5.38087,"is_reserved":false,"is_disabled":false,"rental_uris":{"android":"levelo://app?vid=3b1c1d9a-d81e-415c-ae8b-2b3277ee298c","ios":"levelo://app?vid=3b1c1d9a-d81e-415c-ae8b-2b3277ee298c"},"vehicle_type_id":"4","last_reported":1707030458,"current_range_meters":0,"station_id":"ce4bgip2rcd13ifvqbb0","pricing_plan_id":"free"},{"bike_id":"4d7c6525-4884-4a68-b1ba-575d3f7c6e1e","system_id":"levelo_inurba_marseille","lat":43.304278,"lon":5.388868,"is_reserved":false,"is_disabled":false,"rental_uris":{"android":"levelo://app?vid=4d7c6525-4884-4a68-b1ba-575d3f7c6e1e","ios":"levelo://app?vid=4d7c6525-4884-4a68-b1ba-575d3f7c6e1e"},"vehicle_type_id":"4","last_reported":1707030458,"current_range_meters":31200,"station_id":"ce4bgk12rcd13ifvqbi0","pricing_plan_id":"free"},{"bike_id":"92b2444c-998f-48ed-a178-d650ca8368a2","system_id":"levelo_inurba_marseille","lat":43.298037,"lon":5.381066,"is_reserved":false,"is_disabled":false,"rental_uris":{"android":"levelo://app?vid=92b2444c-998f-48ed-a178-d650ca8368a2","ios":"levelo://app?vid=92b2444c-998f-48ed-a178-d650ca8368a2"},"vehicle_type_id":"4","last_reported":1707030458,"current_range_meters":22800,"station_id":"ce4bgip2rcd13ifvqbb0","pricing_plan_id":"free"},{"bike_id":"c05f0c8d-e2b4-48aa-85c3-fa885c09bd98","system_id":"levelo_inurba_marseille","lat":43.304278,"lon":5.388868,"is_reserved":false,"is_disabled":false,"rental_uris":{"android":"levelo://app?vid=c05f0c8d-e2b4-48aa-85c3-fa885c09bd98","ios":"levelo://app?vid=c05f0c8d-e2b4-48aa-85c3-fa885c09bd98"},"vehicle_type_id":"4","last_reported":1707030458,"current_range_meters":31200,"station_id":"ce4bgk12rcd13ifvqbi0","pricing_plan_id":"free"},{"bike_id":"4abb9983-06ac-44af-a396-3af90ff44fd3","system_id":"levelo_inurba_marseille","lat":43.304274,"lon":5.388873,"is_reserved":false,"is_disabled":false,"rental_uris":{"android":"levelo://app?vid=4abb9983-06ac-44af-a396-3af90ff44fd3","ios":"levelo://app?vid=4abb9983-06ac-44af-a396-3af90ff44fd3"},"vehicle_type_id":"4","last_reported":1707030458,"current_range_meters":31600,"station_id":"ce4bgk12rcd13ifvqbi0","pricing_plan_id":"free"},{"bike_id":"ca162ae4-1a25-4901-98a3-bab0c9540dba","system_id":"levelo_inurba_marseille","lat":43.304278,"lon":5.388868,"is_reserved":false,"is_disabled":false,"rental_uris":{"android":"levelo://app?vid=ca162ae4-1a25-4901-98a3-bab0c9540dba","ios":"levelo://app?vid=ca162ae4-1a25-4901-98a3-bab0c9540dba"},"vehicle_type_id":"4","last_reported":1707030458,"current_range_meters":29600,"station_id":"ce4bgk12rcd13ifvqbi0","pricing_plan_id":"free"},{"bike_id":"dae004f9-002e-420a-bba3-f2097c334f28","system_id":"levelo_inurba_marseille","lat":43.304274,"lon":5.388873,"is_reserved":false,"is_disabled":false,"rental_uris":{"android":"levelo://app?vid=dae004f9-002e-420a-bba3-f2097c334f28","ios":"levelo://app?vid=dae004f9-002e-420a-bba3-f2097c334f28"},"vehicle_type_id":"4","last_reported":1707030458,"current_range_meters":31200,"station_id":"ce4bgk12rcd13ifvqbi0","pricing_plan_id":"free"},{"bike_id":"5b052e33-3366-4f92-949c-5e1575f52608","system_id":"levelo_inurba_marseille","lat":43.295748,"lon":5.37522,"is_reserved":false,"is_disabled":false,"rental_uris":{"android":"levelo://app?vid=5b052e33-3366-4f92-949c-5e1575f52608","ios":"levelo://app?vid=5b052e33-3366-4f92-949c-5e1575f52608"},"vehicle_type_id":"4","last_reported":1707030458,"current_range_meters":30000,"station_id":"ce4bgh92rcd13ifvqb50","pricing_plan_id":"free"},{"bike_id":"7979ae44-9d52-43a9-98e5-7afe384e64f1","system_id":"levelo_inurba_marseille","lat":43.304278,"lon":5.388868,"is_reserved":false,"is_disabled":false,"rental_uris":{"android":"levelo://app?vid=7979ae44-9d52-43a9-98e5-7afe384e64f1","ios":"levelo://app?vid=7979ae44-9d52-43a9-98e5-7afe384e64f1"},"vehicle_type_id":"4","last_reported":1707030458,"current_range_meters":30000,"station_id":"ce4bgk12rcd13ifvqbi0","pricing_plan_id":"free"},{"bike_id":"4545352a-5cc4-4bfc-b3b7-b3257d61f1af","system_id":"levelo_inurba_marseille","lat":43.299717,"lon":5.384845,"is_reserved":false,"is_disabled":false,"rental_uris":{"android":"levelo://app?vid=4545352a-5cc4-4bfc-b3b7-b3257d61f1af","ios":"levelo://app?vid=4545352a-5cc4-4bfc-b3b7-b3257d61f1af"},"vehicle_type_id":"4","last_reported":1707030458,"current_range_meters":13600,"station_id":"ce4bgj92rcd13ifvqbd0","pricing_plan_id":"free"},{"bike_id":"cee66d04-5de1-4164-8450-732819dac0ea","system_id":"levelo_inurba_marseille","lat":43.32359,"lon":5.38881,"is_reserved":false,"is_disabled":false,"rental_uris":{"android":"levelo://app?vid=cee66d04-5de1-4164-8450-732819dac0ea","ios":"levelo://app?vid=cee66d04-5de1-4164-8450-732819dac0ea"},"vehicle_type_id":"4","last_reported":1707030458,"current_range_meters":0,"station_id":"ce4bhqp2rcd13ifvqhog","pricing_plan_id":"free"},{"bike_id":"62a9b393-09b1-4b3b-91a3-6352eceb9b04","system_id":"levelo_inurba_marseille","lat":43.32367,"lon":5.388836,"is_reserved":false,"is_disabled":false,"rental_uris":{"android":"levelo://app?vid=62a9b393-09b1-4b3b-91a3-6352eceb9b04","ios":"levelo://app?vid=62a9b393-09b1-4b3b-91a3-6352eceb9b04"},"vehicle_type_id":"4","last_reported":1707030458,"current_range_meters":5600,"station_id":"ce4bhqp2rcd13ifvqhog","pricing_plan_id":"free"},{"bike_id":"02e5c3ba-d57f-45cd-83a5-34e8a95ace48","system_id":"levelo_inurba_marseille","lat":43.32367,"lon":5.388836,"is_reserved":false,"is_disabled":false,"rental_uris":{"android":"levelo://app?vid=02e5c3ba-d57f-45cd-83a5-34e8a95ace48","ios":"levelo://app?vid=02e5c3ba-d57f-45cd-83a5-34e8a95ace48"},"vehicle_type_id":"4","last_reported":1707030458,"current_range_meters":12000,"station_id":"ce4bhqp2rcd13ifvqhog","pricing_plan_id":"free"},{"bike_id":"c6478534-8a92-48aa-87e2-bf565bc04fb6","system_id":"levelo_inurba_marseille","lat":43.32367,"lon":5.388836,"is_reserved":false,"is_disabled":false,"rental_uris":{"android":"levelo://app?vid=c6478534-8a92-48aa-87e2-bf565bc04fb6","ios":"levelo://app?vid=c6478534-8a92-48aa-87e2-bf565bc04fb6"},"vehicle_type_id":"4","last_reported":1707030458,"current_range_meters":3600,"station_id":"ce4bhqp2rcd13ifvqhog","pricing_plan_id":"free"},{"bike_id":"7cf3b8af-b8d6-432c-b58a-109610b9908d","system_id":"levelo_inurba_marseille","lat":43.32367,"lon":5.388836,"is_reserved":false,"is_disabled":false,"rental_uris":{"android":"levelo://app?vid=7cf3b8af-b8d6-432c-b58a-109610b9908d","ios":"levelo://app?vid=7cf3b8af-b8d6-432c-b58a-109610b9908d"},"vehicle_type_id":"4","last_reported":1707030458,"current_range_meters":24400,"station_id":"ce4bhqp2rcd13ifvqhog","pricing_plan_id":"free"},{"bike_id":"75ed1df4-b7df-4e88-9e9a-696a19f1762a","system_id":"levelo_inurba_marseille","lat":43.32359,"lon":5.38887,"is_reserved":false,"is_disabled":false,"rental_uris":{"android":"levelo://app?vid=75ed1df4-b7df-4e88-9e9a-696a19f1762a","ios":"levelo://app?vid=75ed1df4-b7df-4e88-9e9a-696a19f1762a"},"vehicle_type_id":"4","last_reported":1707030458,"current_range_meters":6800,"station_id":"ce4bhqp2rcd13ifvqhog","pricing_plan_id":"free"},{"bike_id":"e808f989-0c3c-4d8c-9157-0c9c3f8ab5b0","system_id":"levelo_inurba_marseille","lat":43.32367,"lon":5.388836,"is_reserved":false,"is_disabled":false,"rental_uris":{"android":"levelo://app?vid=e808f989-0c3c-4d8c-9157-0c9c3f8ab5b0","ios":"levelo://app?vid=e808f989-0c3c-4d8c-9157-0c9c3f8ab5b0"},"vehicle_type_id":"4","last_reported":1707030458,"current_range_meters":10400,"station_id":"ce4bhqp2rcd13ifvqhog","pricing_plan_id":"free"},{"bike_id":"86690f2d-bc79-4602-9fc0-888cbe1590d1","system_id":"levelo_inurba_marseille","lat":43.3236,"lon":5.38888,"is_reserved":false,"is_disabled":false,"rental_uris":{"android":"levelo://app?vid=86690f2d-bc79-4602-9fc0-888cbe1590d1","ios":"levelo://app?vid=86690f2d-bc79-4602-9fc0-888cbe1590d1"},"vehicle_type_id":"4","last_reported":1707030458,"current_range_meters":19600,"station_id":"ce4bhqp2rcd13ifvqhog","pricing_plan_id":"free"},{"bike_id":"6ddd6644-0475-4d38-97ea-3c5cc97bcc31","system_id":"levelo_inurba_marseille","lat":43.32367,"lon":5.388836,"is_reserved":false,"is_disabled":false,"rental_uris":{"android":"levelo://app?vid=6ddd6644-0475-4d38-97ea-3c5cc97bcc31","ios":"levelo://app?vid=6ddd6644-0475-4d38-97ea-3c5cc97bcc31"},"vehicle_type_id":"4","last_reported":1707030458,"current_range_meters":9600,"station_id":"ce4bhqp2rcd13ifvqhog","pricing_plan_id":"free"},{"bike_id":"c25fc67a-bf97-4f21-9916-d0fe78b3e657","system_id":"levelo_inurba_marseille","lat":43.32364,"lon":5.38889,"is_reserved":false,"is_disabled":false,"rental_uris":{"android":"levelo://app?vid=c25fc67a-bf97-4f21-9916-d0fe78b3e657","ios":"levelo://app?vid=c25fc67a-bf97-4f21-9916-d0fe78b3e657"},"vehicle_type_id":"4","last_reported":1707030458,"current_range_meters":22400,"station_id":"ce4bhqp2rcd13ifvqhog","pricing_plan_id":"free"},{"bike_id":"9b081c91-637e-47ff-a6d8-ba13bb5f1be4","system_id":"levelo_inurba_marseille","lat":43.32367,"lon":5.388836,"is_reserved":false,"is_disabled":false,"rental_uris":{"android":"levelo://app?vid=9b081c91-637e-47ff-a6d8-ba13bb5f1be4","ios":"levelo://app?vid=9b081c91-637e-47ff-a6d8-ba13bb5f1be4"},"vehicle_type_id":"4","last_reported":1707030458,"current_range_meters":28400,"station_id":"ce4bhqp2rcd13ifvqhog","pricing_plan_id":"free"},{"bike_id":"7edce67e-3468-4f36-8fb9-6aa2d4fac4be","system_id":"levelo_inurba_marseille","lat":43.29601,"lon":5.381084,"is_reserved":false,"is_disabled":false,"rental_uris":{"android":"levelo://app?vid=7edce67e-3468-4f36-8fb9-6aa2d4fac4be","ios":"levelo://app?vid=7edce67e-3468-4f36-8fb9-6aa2d4fac4be"},"vehicle_type_id":"4","last_reported":1707030458,"current_range_meters":18400,"station_id":"ce4bgl12rcd13ifvqbo0","pricing_plan_id":"free"},{"bike_id":"62dbc075-b672-4e3b-a544-7f87cee91950","system_id":"levelo_inurba_marseille","lat":43.29306,"lon":5.37179,"is_reserved":false,"is_disabled":false,"rental_uris":{"android":"levelo://app?vid=62dbc075-b672-4e3b-a544-7f87cee91950","ios":"levelo://app?vid=62dbc075-b672-4e3b-a544-7f87cee91950"},"vehicle_type_id":"4","last_reported":1707030458,"current_range_meters":31200,"station_id":"ce4bgh92rcd13ifvqb40","pricing_plan_id":"free"},{"bike_id":"97b1149c-abc5-4bc5-bc7c-f1526de650bc","system_id":"levelo_inurba_marseille","lat":43.292749,"lon":5.368402,"is_reserved":false,"is_disabled":false,"rental_uris":{"android":"levelo://app?vid=97b1149c-abc5-4bc5-bc7c-f1526de650bc","ios":"levelo://app?vid=97b1149c-abc5-4bc5-bc7c-f1526de650bc"},"vehicle_type_id":"4","last_reported":1707030458,"current_range_meters":30000,"station_id":"ce4bhbp2rcd13ifvqesg","pricing_plan_id":"free"},{"bike_id":"7d99e204-5d9b-4c63-81db-c1d379bfd486","system_id":"levelo_inurba_marseille","lat":43.292749,"lon":5.368402,"is_reserved":false,"is_disabled":false,"rental_uris":{"android":"levelo://app?vid=7d99e204-5d9b-4c63-81db-c1d379bfd486","ios":"levelo://app?vid=7d99e204-5d9b-4c63-81db-c1d379bfd486"},"vehicle_type_id":"4","last_reported":1707030458,"current_range_meters":31200,"station_id":"ce4bhbp2rcd13ifvqesg","pricing_plan_id":"free"},{"bike_id":"2fd25843-f4ca-43b5-8abf-58b764215523","system_id":"levelo_inurba_marseille","lat":43.29301,"lon":5.3717,"is_reserved":false,"is_disabled":false,"rental_uris":{"android":"levelo://app?vid=2fd25843-f4ca-43b5-8abf-58b764215523","ios":"levelo://app?vid=2fd25843-f4ca-43b5-8abf-58b764215523"},"vehicle_type_id":"4","last_reported":1707030458,"current_range_meters":31200,"station_id":"ce4bgh92rcd13ifvqb40","pricing_plan_id":"free"},{"bike_id":"976914d6-e92a-44a3-8c86-5d2a1b2c9ceb","system_id":"levelo_inurba_marseille","lat":43.292749,"lon":5.368402,"is_reserved":false,"is_disabled":false,"rental_uris":{"android":"levelo://app?vid=976914d6-e92a-44a3-8c86-5d2a1b2c9ceb","ios":"levelo://app?vid=976914d6-e92a-44a3-8c86-5d2a1b2c9ceb"},"vehicle_type_id":"4","last_reported":1707030458,"current_range_meters":31200,"station_id":"ce4bhbp2rcd13ifvqesg","pricing_plan_id":"free"},{"bike_id":"9fe7937e-8ea8-40cd-b619-0cca439f718f","system_id":"levelo_inurba_marseille","lat":43.292749,"lon":5.368402,"is_reserved":false,"is_disabled":false,"rental_uris":{"android":"levelo://app?vid=9fe7937e-8ea8-40cd-b619-0cca439f718f","ios":"levelo://app?vid=9fe7937e-8ea8-40cd-b619-0cca439f718f"},"vehicle_type_id":"4","last_reported":1707030458,"current_range_meters":30000,"station_id":"ce4bhbp2rcd13ifvqesg","pricing_plan_id":"free"},{"bike_id":"9a805a15-d3cb-4ffe-8b53-805aa0afc023","system_id":"levelo_inurba_marseille","lat":43.292749,"lon":5.368402,"is_reserved":false,"is_disabled":false,"rental_uris":{"android":"levelo://app?vid=9a805a15-d3cb-4ffe-8b53-805aa0afc023","ios":"levelo://app?vid=9a805a15-d3cb-4ffe-8b53-805aa0afc023"},"vehicle_type_id":"4","last_reported":1707030458,"current_range_meters":31200,"station_id":"ce4bhbp2rcd13ifvqesg","pricing_plan_id":"free"},{"bike_id":"8c136cee-4742-4603-9a90-77387cd20e46","system_id":"levelo_inurba_marseille","lat":43.293009,"lon":5.374584,"is_reserved":false,"is_disabled":false,"rental_uris":{"android":"levelo://app?vid=8c136cee-4742-4603-9a90-77387cd20e46","ios":"levelo://app?vid=8c136cee-4742-4603-9a90-77387cd20e46"},"vehicle_type_id":"4","last_reported":1707030458,"current_range_meters":27200,"station_id":"ce4bgi12rcd13ifvqb70","pricing_plan_id":"free"},{"bike_id":"394b930b-ca25-4a67-8496-196ba950ef21","system_id":"levelo_inurba_marseille","lat":43.305994,"lon":5.393687,"is_reserved":false,"is_disabled":false,"rental_uris":{"android":"levelo://app?vid=394b930b-ca25-4a67-8496-196ba950ef21","ios":"levelo://app?vid=394b930b-ca25-4a67-8496-196ba950ef21"},"vehicle_type_id":"4","last_reported":1707030458,"current_range_meters":31200,"station_id":"ce4bh0p2rcd13ifvqd80","pricing_plan_id":"free"},{"bike_id":"65ef71b4-7289-42c0-8a02-7e7b898c3dcb","system_id":"levelo_inurba_marseille","lat":43.305994,"lon":5.393687,"is_reserved":false,"is_disabled":false,"rental_uris":{"android":"levelo://app?vid=65ef71b4-7289-42c0-8a02-7e7b898c3dcb","ios":"levelo://app?vid=65ef71b4-7289-42c0-8a02-7e7b898c3dcb"},"vehicle_type_id":"4","last_reported":1707030458,"current_range_meters":27600,"station_id":"ce4bh0p2rcd13ifvqd80","pricing_plan_id":"free"},{"bike_id":"d963217d-fbd3-47ff-8678-ccee48b7b98b","system_id":"levelo_inurba_marseille","lat":43.305994,"lon":5.393687,"is_reserved":false,"is_disabled":false,"rental_uris":{"android":"levelo://app?vid=d963217d-fbd3-47ff-8678-ccee48b7b98b","ios":"levelo://app?vid=d963217d-fbd3-47ff-8678-ccee48b7b98b"},"vehicle_type_id":"4","last_reported":1707030458,"current_range_meters":31200,"station_id":"ce4bh0p2rcd13ifvqd80","pricing_plan_id":"free"},{"bike_id":"96939410-a555-495a-b044-f3c738c94550","system_id":"levelo_inurba_marseille","lat":43.293009,"lon":5.374584,"is_reserved":false,"is_disabled":false,"rental_uris":{"android":"levelo://app?vid=96939410-a555-495a-b044-f3c738c94550","ios":"levelo://app?vid=96939410-a555-495a-b044-f3c738c94550"},"vehicle_type_id":"4","last_reported":1707030458,"current_range_meters":31200,"station_id":"ce4bgi12rcd13ifvqb70","pricing_plan_id":"free"},{"bike_id":"3f4e8a64-646b-4a90-92eb-90d18aad266b","system_id":"levelo_inurba_marseille","lat":43.293009,"lon":5.374584,"is_reserved":false,"is_disabled":false,"rental_uris":{"android":"levelo://app?vid=3f4e8a64-646b-4a90-92eb-90d18aad266b","ios":"levelo://app?vid=3f4e8a64-646b-4a90-92eb-90d18aad266b"},"vehicle_type_id":"4","last_reported":1707030458,"current_range_meters":29200,"station_id":"ce4bgi12rcd13ifvqb70","pricing_plan_id":"free"},{"bike_id":"0874a7a8-a507-4276-bdb3-124e53273247","system_id":"levelo_inurba_marseille","lat":43.305994,"lon":5.393687,"is_reserved":false,"is_disabled":false,"rental_uris":{"android":"levelo://app?vid=0874a7a8-a507-4276-bdb3-124e53273247","ios":"levelo://app?vid=0874a7a8-a507-4276-bdb3-124e53273247"},"vehicle_type_id":"4","last_reported":1707030458,"current_range_meters":28000,"station_id":"ce4bh0p2rcd13ifvqd80","pricing_plan_id":"free"},{"bike_id":"f20ebac8-851c-4e23-93e7-e3113c7f799a","system_id":"levelo_inurba_marseille","lat":43.293009,"lon":5.374584,"is_reserved":false,"is_disabled":false,"rental_uris":{"android":"levelo://app?vid=f20ebac8-851c-4e23-93e7-e3113c7f799a","ios":"levelo://app?vid=f20ebac8-851c-4e23-93e7-e3113c7f799a"},"vehicle_type_id":"4","last_reported":1707030458,"current_range_meters":9200,"station_id":"ce4bgi12rcd13ifvqb70","pricing_plan_id":"free"},{"bike_id":"32f210af-a312-4239-a759-03482ccb7c5c","system_id":"levelo_inurba_marseille","lat":43.291675,"lon":5.371583,"is_reserved":false,"is_disabled":false,"rental_uris":{"android":"levelo://app?vid=32f210af-a312-4239-a759-03482ccb7c5c","ios":"levelo://app?vid=32f210af-a312-4239-a759-03482ccb7c5c"},"vehicle_type_id":"4","last_reported":1707030458,"current_range_meters":17600,"station_id":"ce4bha92rcd13ifvqeh0","pricing_plan_id":"free"},{"bike_id":"fe7a3d2a-616e-4ce0-82d3-8abe80ebc15e","system_id":"levelo_inurba_marseille","lat":43.298764,"lon":5.388973,"is_reserved":false,"is_disabled":false,"rental_uris":{"android":"levelo://app?vid=fe7a3d2a-616e-4ce0-82d3-8abe80ebc15e","ios":"levelo://app?vid=fe7a3d2a-616e-4ce0-82d3-8abe80ebc15e"},"vehicle_type_id":"4","last_reported":1707030458,"current_range_meters":30400,"station_id":"ce4bh392rcd13ifvqdl0","pricing_plan_id":"free"},{"bike_id":"4c8982e9-a056-466d-b0fe-bf3661d7ce7c","system_id":"levelo_inurba_marseille","lat":43.2936,"lon":5.37835,"is_reserved":false,"is_disabled":false,"rental_uris":{"android":"levelo://app?vid=4c8982e9-a056-466d-b0fe-bf3661d7ce7c","ios":"levelo://app?vid=4c8982e9-a056-466d-b0fe-bf3661d7ce7c"},"vehicle_type_id":"4","last_reported":1707030458,"current_range_meters":22000,"station_id":"ce4bgjh2rcd13ifvqbf0","pricing_plan_id":"free"},{"bike_id":"93ea52e9-b3a3-4468-8687-ca8a8d2cdc87","system_id":"levelo_inurba_marseille","lat":43.308819,"lon":5.396333,"is_reserved":false,"is_disabled":false,"rental_uris":{"android":"levelo://app?vid=93ea52e9-b3a3-4468-8687-ca8a8d2cdc87","ios":"levelo://app?vid=93ea52e9-b3a3-4468-8687-ca8a8d2cdc87"},"vehicle_type_id":"4","last_reported":1707030458,"current_range_meters":25600,"station_id":"ce4bh012rcd13ifvqcv0","pricing_plan_id":"free"},{"bike_id":"5ac600ba-d79c-4960-af98-a28596c33cf5","system_id":"levelo_inurba_marseille","lat":43.308804,"lon":5.396373,"is_reserved":false,"is_disabled":false,"rental_uris":{"android":"levelo://app?vid=5ac600ba-d79c-4960-af98-a28596c33cf5","ios":"levelo://app?vid=5ac600ba-d79c-4960-af98-a28596c33cf5"},"vehicle_type_id":"4","last_reported":1707030458,"current_range_meters":22400,"station_id":"ce4bh012rcd13ifvqcv0","pricing_plan_id":"free"},{"bike_id":"45411c9c-df60-4ad5-ae2b-9d258e385b28","system_id":"levelo_inurba_marseille","lat":43.291994,"lon":5.357886,"is_reserved":false,"is_disabled":false,"rental_uris":{"android":"levelo://app?vid=45411c9c-df60-4ad5-ae2b-9d258e385b28","ios":"levelo://app?vid=45411c9c-df60-4ad5-ae2b-9d258e385b28"},"vehicle_type_id":"4","last_reported":1707030458,"current_range_meters":20000,"station_id":"ce4bhb12rcd13ifvqel0","pricing_plan_id":"free"},{"bike_id":"c6daa204-4f4a-44c4-8fd3-0dabf60cd5d8","system_id":"levelo_inurba_marseille","lat":43.313291,"lon":5.396838,"is_reserved":false,"is_disabled":false,"rental_uris":{"android":"levelo://app?vid=c6daa204-4f4a-44c4-8fd3-0dabf60cd5d8","ios":"levelo://app?vid=c6daa204-4f4a-44c4-8fd3-0dabf60cd5d8"},"vehicle_type_id":"4","last_reported":1707030458,"current_range_meters":6000,"station_id":"ce4bgvp2rcd13ifvqcu0","pricing_plan_id":"free"},{"bike_id":"d4ba593a-6b35-4748-9648-3fb71b1d6ea8","system_id":"levelo_inurba_marseille","lat":43.29194,"lon":5.35797,"is_reserved":false,"is_disabled":false,"rental_uris":{"android":"levelo://app?vid=d4ba593a-6b35-4748-9648-3fb71b1d6ea8","ios":"levelo://app?vid=d4ba593a-6b35-4748-9648-3fb71b1d6ea8"},"vehicle_type_id":"4","last_reported":1707030458,"current_range_meters":0,"station_id":"ce4bhb12rcd13ifvqel0","pricing_plan_id":"free"},{"bike_id":"058e71d3-2a23-430b-ae8a-4baf66e95b48","system_id":"levelo_inurba_marseille","lat":43.309047,"lon":5.396551,"is_reserved":false,"is_disabled":false,"rental_uris":{"android":"levelo://app?vid=058e71d3-2a23-430b-ae8a-4baf66e95b48","ios":"levelo://app?vid=058e71d3-2a23-430b-ae8a-4baf66e95b48"},"vehicle_type_id":"4","last_reported":1707030458,"current_range_meters":14400,"station_id":"ce4bh012rcd13ifvqcv0","pricing_plan_id":"free"},{"bike_id":"8333097a-acaa-4323-8a15-f6cce7749304","system_id":"levelo_inurba_marseille","lat":43.313291,"lon":5.396838,"is_reserved":false,"is_disabled":false,"rental_uris":{"android":"levelo://app?vid=8333097a-acaa-4323-8a15-f6cce7749304","ios":"levelo://app?vid=8333097a-acaa-4323-8a15-f6cce7749304"},"vehicle_type_id":"4","last_reported":1707030458,"current_range_meters":11600,"station_id":"ce4bgvp2rcd13ifvqcu0","pricing_plan_id":"free"},{"bike_id":"fd17d491-65c0-4396-bfd2-0b316c709fe6","system_id":"levelo_inurba_marseille","lat":43.313291,"lon":5.396838,"is_reserved":false,"is_disabled":false,"rental_uris":{"android":"levelo://app?vid=fd17d491-65c0-4396-bfd2-0b316c709fe6","ios":"levelo://app?vid=fd17d491-65c0-4396-bfd2-0b316c709fe6"},"vehicle_type_id":"4","last_reported":1707030458,"current_range_meters":10000,"station_id":"ce4bgvp2rcd13ifvqcu0","pricing_plan_id":"free"},{"bike_id":"1a6dbca4-84ed-4cd3-96ca-17b8b2354b7c","system_id":"levelo_inurba_marseille","lat":43.313291,"lon":5.396838,"is_reserved":false,"is_disabled":false,"rental_uris":{"android":"levelo://app?vid=1a6dbca4-84ed-4cd3-96ca-17b8b2354b7c","ios":"levelo://app?vid=1a6dbca4-84ed-4cd3-96ca-17b8b2354b7c"},"vehicle_type_id":"4","last_reported":1707030458,"current_range_meters":800,"station_id":"ce4bgvp2rcd13ifvqcu0","pricing_plan_id":"free"},{"bike_id":"b62de982-61e2-4d2b-a4ea-43aa513da9ea","system_id":"levelo_inurba_marseille","lat":43.313291,"lon":5.396838,"is_reserved":false,"is_disabled":false,"rental_uris":{"android":"levelo://app?vid=b62de982-61e2-4d2b-a4ea-43aa513da9ea","ios":"levelo://app?vid=b62de982-61e2-4d2b-a4ea-43aa513da9ea"},"vehicle_type_id":"4","last_reported":1707030458,"current_range_meters":0,"station_id":"ce4bgvp2rcd13ifvqcu0","pricing_plan_id":"free"},{"bike_id":"82d8741f-50da-49e5-94ca-7969d4f46a40","system_id":"levelo_inurba_marseille","lat":43.313291,"lon":5.396838,"is_reserved":false,"is_disabled":false,"rental_uris":{"android":"levelo://app?vid=82d8741f-50da-49e5-94ca-7969d4f46a40","ios":"levelo://app?vid=82d8741f-50da-49e5-94ca-7969d4f46a40"},"vehicle_type_id":"4","last_reported":1707030458,"current_range_meters":32000,"station_id":"ce4bgvp2rcd13ifvqcu0","pricing_plan_id":"free"},{"bike_id":"d7b864d9-0f4e-483f-a3aa-3de53903d219","system_id":"levelo_inurba_marseille","lat":43.313291,"lon":5.396838,"is_reserved":false,"is_disabled":false,"rental_uris":{"android":"levelo://app?vid=d7b864d9-0f4e-483f-a3aa-3de53903d219","ios":"levelo://app?vid=d7b864d9-0f4e-483f-a3aa-3de53903d219"},"vehicle_type_id":"4","last_reported":1707030458,"current_range_meters":28400,"station_id":"ce4bgvp2rcd13ifvqcu0","pricing_plan_id":"free"},{"bike_id":"40ff9ed6-626f-4826-85ea-3b49ee017824","system_id":"levelo_inurba_marseille","lat":43.30877,"lon":5.39646,"is_reserved":false,"is_disabled":false,"rental_uris":{"android":"levelo://app?vid=40ff9ed6-626f-4826-85ea-3b49ee017824","ios":"levelo://app?vid=40ff9ed6-626f-4826-85ea-3b49ee017824"},"vehicle_type_id":"4","last_reported":1707030458,"current_range_meters":30800,"station_id":"ce4bh012rcd13ifvqcv0","pricing_plan_id":"free"},{"bike_id":"f59750fd-4e7f-4836-88b6-26dbbef14977","system_id":"levelo_inurba_marseille","lat":43.313291,"lon":5.396838,"is_reserved":false,"is_disabled":false,"rental_uris":{"android":"levelo://app?vid=f59750fd-4e7f-4836-88b6-26dbbef14977","ios":"levelo://app?vid=f59750fd-4e7f-4836-88b6-26dbbef14977"},"vehicle_type_id":"4","last_reported":1707030458,"current_range_meters":8000,"station_id":"ce4bgvp2rcd13ifvqcu0","pricing_plan_id":"free"},{"bike_id":"7febc8cf-8a0b-45bb-95af-6ee2d9ead968","system_id":"levelo_inurba_marseille","lat":43.313291,"lon":5.396838,"is_reserved":false,"is_disabled":false,"rental_uris":{"android":"levelo://app?vid=7febc8cf-8a0b-45bb-95af-6ee2d9ead968","ios":"levelo://app?vid=7febc8cf-8a0b-45bb-95af-6ee2d9ead968"},"vehicle_type_id":"4","last_reported":1707030458,"current_range_meters":23200,"station_id":"ce4bgvp2rcd13ifvqcu0","pricing_plan_id":"free"},{"bike_id":"3722485d-68e2-4715-99cb-34c0b522adff","system_id":"levelo_inurba_marseille","lat":43.29529,"lon":5.385581,"is_reserved":false,"is_disabled":false,"rental_uris":{"android":"levelo://app?vid=3722485d-68e2-4715-99cb-34c0b522adff","ios":"levelo://app?vid=3722485d-68e2-4715-99cb-34c0b522adff"},"vehicle_type_id":"4","last_reported":1707030458,"current_range_meters":26400,"station_id":"ce4bgih2rcd13ifvqba0","pricing_plan_id":"free"},{"bike_id":"c9829d94-226c-4b71-b0e6-0965e9398286","system_id":"levelo_inurba_marseille","lat":43.290779,"lon":5.371482,"is_reserved":false,"is_disabled":false,"rental_uris":{"android":"levelo://app?vid=c9829d94-226c-4b71-b0e6-0965e9398286","ios":"levelo://app?vid=c9829d94-226c-4b71-b0e6-0965e9398286"},"vehicle_type_id":"4","last_reported":1707030458,"current_range_meters":30400,"station_id":"ce4bh5p2rcd13ifvqe4g","pricing_plan_id":"free"},{"bike_id":"70eadfae-dcbf-433c-9f6a-d795f83eed4a","system_id":"levelo_inurba_marseille","lat":43.294162,"lon":5.386292,"is_reserved":false,"is_disabled":false,"rental_uris":{"android":"levelo://app?vid=70eadfae-dcbf-433c-9f6a-d795f83eed4a","ios":"levelo://app?vid=70eadfae-dcbf-433c-9f6a-d795f83eed4a"},"vehicle_type_id":"4","last_reported":1707030458,"current_range_meters":30400,"station_id":"ce4bh2h2rcd13ifvqdh0","pricing_plan_id":"free"},{"bike_id":"a3f0898d-5c52-4c3f-9ca5-f139f296ad09","system_id":"levelo_inurba_marseille","lat":43.302008,"lon":5.394694,"is_reserved":false,"is_disabled":false,"rental_uris":{"android":"levelo://app?vid=a3f0898d-5c52-4c3f-9ca5-f139f296ad09","ios":"levelo://app?vid=a3f0898d-5c52-4c3f-9ca5-f139f296ad09"},"vehicle_type_id":"4","last_reported":1707030458,"current_range_meters":14000,"station_id":"ce4bh0p2rcd13ifvqd70","pricing_plan_id":"free"},{"bike_id":"5dca012d-c1bd-4d16-9d0d-0a65f5b52a99","system_id":"levelo_inurba_marseille","lat":43.302008,"lon":5.394694,"is_reserved":false,"is_disabled":false,"rental_uris":{"android":"levelo://app?vid=5dca012d-c1bd-4d16-9d0d-0a65f5b52a99","ios":"levelo://app?vid=5dca012d-c1bd-4d16-9d0d-0a65f5b52a99"},"vehicle_type_id":"4","last_reported":1707030458,"current_range_meters":29600,"station_id":"ce4bh0p2rcd13ifvqd70","pricing_plan_id":"free"},{"bike_id":"9ac86452-5a32-435e-8419-dcad2a7fd700","system_id":"levelo_inurba_marseille","lat":43.289885,"lon":5.368006,"is_reserved":false,"is_disabled":false,"rental_uris":{"android":"levelo://app?vid=9ac86452-5a32-435e-8419-dcad2a7fd700","ios":"levelo://app?vid=9ac86452-5a32-435e-8419-dcad2a7fd700"},"vehicle_type_id":"4","last_reported":1707030458,"current_range_meters":19200,"station_id":"","pricing_plan_id":"free"},{"bike_id":"7c755874-04f4-49a7-881c-3dccfea2f0df","system_id":"levelo_inurba_marseille","lat":43.290441,"lon":5.359123,"is_reserved":false,"is_disabled":false,"rental_uris":{"android":"levelo://app?vid=7c755874-04f4-49a7-881c-3dccfea2f0df","ios":"levelo://app?vid=7c755874-04f4-49a7-881c-3dccfea2f0df"},"vehicle_type_id":"4","last_reported":1707030458,"current_range_meters":0,"station_id":"","pricing_plan_id":"free"},{"bike_id":"91d2ebdd-420e-4452-b4e3-f21638601c3e","system_id":"levelo_inurba_marseille","lat":43.290405,"lon":5.359168,"is_reserved":false,"is_disabled":false,"rental_uris":{"android":"levelo://app?vid=91d2ebdd-420e-4452-b4e3-f21638601c3e","ios":"levelo://app?vid=91d2ebdd-420e-4452-b4e3-f21638601c3e"},"vehicle_type_id":"4","last_reported":1707030458,"current_range_meters":3200,"station_id":"ce4bha92rcd13ifvqeg0","pricing_plan_id":"free"},{"bike_id":"94d2e7df-7e12-4449-b4a4-d535680b6b44","system_id":"levelo_inurba_marseille","lat":43.294153,"lon":5.386305,"is_reserved":false,"is_disabled":false,"rental_uris":{"android":"levelo://app?vid=94d2e7df-7e12-4449-b4a4-d535680b6b44","ios":"levelo://app?vid=94d2e7df-7e12-4449-b4a4-d535680b6b44"},"vehicle_type_id":"4","last_reported":1707030458,"current_range_meters":24400,"station_id":"ce4bh2h2rcd13ifvqdh0","pricing_plan_id":"free"},{"bike_id":"5f7b0bdf-ec18-4f51-9138-6e2d8f366be5","system_id":"levelo_inurba_marseille","lat":43.28946,"lon":5.363996,"is_reserved":false,"is_disabled":false,"rental_uris":{"android":"levelo://app?vid=5f7b0bdf-ec18-4f51-9138-6e2d8f366be5","ios":"levelo://app?vid=5f7b0bdf-ec18-4f51-9138-6e2d8f366be5"},"vehicle_type_id":"4","last_reported":1707030458,"current_range_meters":0,"station_id":"ce4bhc92rcd13ifvqetg","pricing_plan_id":"free"},{"bike_id":"22385ece-6bf0-4ff9-b0d0-60b30d4e9e27","system_id":"levelo_inurba_marseille","lat":43.289248,"lon":5.36638,"is_reserved":false,"is_disabled":false,"rental_uris":{"android":"levelo://app?vid=22385ece-6bf0-4ff9-b0d0-60b30d4e9e27","ios":"levelo://app?vid=22385ece-6bf0-4ff9-b0d0-60b30d4e9e27"},"vehicle_type_id":"4","last_reported":1707030458,"current_range_meters":28000,"station_id":"ce4bhap2rcd13ifvqek0","pricing_plan_id":"free"},{"bike_id":"6031c6d5-5571-4585-92c7-fb64c31add8b","system_id":"levelo_inurba_marseille","lat":43.292644,"lon":5.384257,"is_reserved":false,"is_disabled":false,"rental_uris":{"android":"levelo://app?vid=6031c6d5-5571-4585-92c7-fb64c31add8b","ios":"levelo://app?vid=6031c6d5-5571-4585-92c7-fb64c31add8b"},"vehicle_type_id":"4","last_reported":1707030458,"current_range_meters":24400,"station_id":"ce4bh692rcd13ifvqea0","pricing_plan_id":"free"},{"bike_id":"046e4094-061f-4346-aaca-ad1ac1a1ffdb","system_id":"levelo_inurba_marseille","lat":43.292642,"lon":5.384254,"is_reserved":false,"is_disabled":false,"rental_uris":{"android":"levelo://app?vid=046e4094-061f-4346-aaca-ad1ac1a1ffdb","ios":"levelo://app?vid=046e4094-061f-4346-aaca-ad1ac1a1ffdb"},"vehicle_type_id":"4","last_reported":1707030458,"current_range_meters":15200,"station_id":"ce4bh692rcd13ifvqea0","pricing_plan_id":"free"},{"bike_id":"2e41e4f6-36da-431c-a77f-9a7119f97d4f","system_id":"levelo_inurba_marseille","lat":43.290103,"lon":5.356114,"is_reserved":false,"is_disabled":false,"rental_uris":{"android":"levelo://app?vid=2e41e4f6-36da-431c-a77f-9a7119f97d4f","ios":"levelo://app?vid=2e41e4f6-36da-431c-a77f-9a7119f97d4f"},"vehicle_type_id":"4","last_reported":1707030458,"current_range_meters":30000,"station_id":"ce4bhb92rcd13ifvqen0","pricing_plan_id":"free"},{"bike_id":"7729e5b5-cda9-44ee-bd52-d003f44f0e8c","system_id":"levelo_inurba_marseille","lat":43.290103,"lon":5.356114,"is_reserved":false,"is_disabled":false,"rental_uris":{"android":"levelo://app?vid=7729e5b5-cda9-44ee-bd52-d003f44f0e8c","ios":"levelo://app?vid=7729e5b5-cda9-44ee-bd52-d003f44f0e8c"},"vehicle_type_id":"4","last_reported":1707030458,"current_range_meters":17600,"station_id":"ce4bhb92rcd13ifvqen0","pricing_plan_id":"free"},{"bike_id":"2e555b56-fe79-4289-9d8a-2cbcb894191b","system_id":"levelo_inurba_marseille","lat":43.290104,"lon":5.356111,"is_reserved":false,"is_disabled":false,"rental_uris":{"android":"levelo://app?vid=2e555b56-fe79-4289-9d8a-2cbcb894191b","ios":"levelo://app?vid=2e555b56-fe79-4289-9d8a-2cbcb894191b"},"vehicle_type_id":"4","last_reported":1707030458,"current_range_meters":2400,"station_id":"ce4bhb92rcd13ifvqen0","pricing_plan_id":"free"},{"bike_id":"716bc777-24c0-49b4-bbdd-34a004e99eb0","system_id":"levelo_inurba_marseille","lat":43.330442,"lon":5.389148,"is_reserved":false,"is_disabled":false,"rental_uris":{"android":"levelo://app?vid=716bc777-24c0-49b4-bbdd-34a004e99eb0","ios":"levelo://app?vid=716bc777-24c0-49b4-bbdd-34a004e99eb0"},"vehicle_type_id":"4","last_reported":1707030458,"current_range_meters":7600,"station_id":"ce4bhr92rcd13ifvqhrg","pricing_plan_id":"free"},{"bike_id":"7d5618d2-78b6-4ec2-a358-7c9e7362b478","system_id":"levelo_inurba_marseille","lat":43.330442,"lon":5.389148,"is_reserved":false,"is_disabled":false,"rental_uris":{"android":"levelo://app?vid=7d5618d2-78b6-4ec2-a358-7c9e7362b478","ios":"levelo://app?vid=7d5618d2-78b6-4ec2-a358-7c9e7362b478"},"vehicle_type_id":"4","last_reported":1707030458,"current_range_meters":15600,"station_id":"ce4bhr92rcd13ifvqhrg","pricing_plan_id":"free"},{"bike_id":"0a9bfce5-f889-443b-a848-9888cf4483af","system_id":"levelo_inurba_marseille","lat":43.330442,"lon":5.389148,"is_reserved":false,"is_disabled":false,"rental_uris":{"android":"levelo://app?vid=0a9bfce5-f889-443b-a848-9888cf4483af","ios":"levelo://app?vid=0a9bfce5-f889-443b-a848-9888cf4483af"},"vehicle_type_id":"4","last_reported":1707030458,"current_range_meters":14000,"station_id":"ce4bhr92rcd13ifvqhrg","pricing_plan_id":"free"},{"bike_id":"84ac4dc3-c2f9-4ae0-bf58-9c14e10a514e","system_id":"levelo_inurba_marseille","lat":43.330442,"lon":5.389148,"is_reserved":false,"is_disabled":false,"rental_uris":{"android":"levelo://app?vid=84ac4dc3-c2f9-4ae0-bf58-9c14e10a514e","ios":"levelo://app?vid=84ac4dc3-c2f9-4ae0-bf58-9c14e10a514e"},"vehicle_type_id":"4","last_reported":1707030458,"current_range_meters":0,"station_id":"ce4bhr92rcd13ifvqhrg","pricing_plan_id":"free"},{"bike_id":"156c8e1e-787f-479e-8458-d2c163ccd396","system_id":"levelo_inurba_marseille","lat":43.28856,"lon":5.358371,"is_reserved":false,"is_disabled":false,"rental_uris":{"android":"levelo://app?vid=156c8e1e-787f-479e-8458-d2c163ccd396","ios":"levelo://app?vid=156c8e1e-787f-479e-8458-d2c163ccd396"},"vehicle_type_id":"4","last_reported":1707030458,"current_range_meters":22400,"station_id":"ce4bhb12rcd13ifvqem0","pricing_plan_id":"free"},{"bike_id":"4708086c-ed47-4992-88c0-b37ffce616c5","system_id":"levelo_inurba_marseille","lat":43.28856,"lon":5.358371,"is_reserved":false,"is_disabled":false,"rental_uris":{"android":"levelo://app?vid=4708086c-ed47-4992-88c0-b37ffce616c5","ios":"levelo://app?vid=4708086c-ed47-4992-88c0-b37ffce616c5"},"vehicle_type_id":"4","last_reported":1707030458,"current_range_meters":21200,"station_id":"ce4bhb12rcd13ifvqem0","pricing_plan_id":"free"},{"bike_id":"0bdc8968-6516-419b-8f65-9b6f097828db","system_id":"levelo_inurba_marseille","lat":43.28856,"lon":5.358371,"is_reserved":false,"is_disabled":false,"rental_uris":{"android":"levelo://app?vid=0bdc8968-6516-419b-8f65-9b6f097828db","ios":"levelo://app?vid=0bdc8968-6516-419b-8f65-9b6f097828db"},"vehicle_type_id":"4","last_reported":1707030458,"current_range_meters":24400,"station_id":"ce4bhb12rcd13ifvqem0","pricing_plan_id":"free"},{"bike_id":"618acd8e-a5cf-4857-a992-f76e5d8ce971","system_id":"levelo_inurba_marseille","lat":43.28849,"lon":5.358493,"is_reserved":false,"is_disabled":false,"rental_uris":{"android":"levelo://app?vid=618acd8e-a5cf-4857-a992-f76e5d8ce971","ios":"levelo://app?vid=618acd8e-a5cf-4857-a992-f76e5d8ce971"},"vehicle_type_id":"4","last_reported":1707030458,"current_range_meters":31200,"station_id":"ce4bhb12rcd13ifvqem0","pricing_plan_id":"free"},{"bike_id":"fe9d3f80-2871-4a71-bafe-cbf120694993","system_id":"levelo_inurba_marseille","lat":43.28846,"lon":5.35858,"is_reserved":false,"is_disabled":false,"rental_uris":{"android":"levelo://app?vid=fe9d3f80-2871-4a71-bafe-cbf120694993","ios":"levelo://app?vid=fe9d3f80-2871-4a71-bafe-cbf120694993"},"vehicle_type_id":"4","last_reported":1707030458,"current_range_meters":31200,"station_id":"ce4bhb12rcd13ifvqem0","pricing_plan_id":"free"},{"bike_id":"f563408f-4c75-4852-aa68-9d9de8246097","system_id":"levelo_inurba_marseille","lat":43.28856,"lon":5.358371,"is_reserved":false,"is_disabled":false,"rental_uris":{"android":"levelo://app?vid=f563408f-4c75-4852-aa68-9d9de8246097","ios":"levelo://app?vid=f563408f-4c75-4852-aa68-9d9de8246097"},"vehicle_type_id":"4","last_reported":1707030458,"current_range_meters":28000,"station_id":"ce4bhb12rcd13ifvqem0","pricing_plan_id":"free"},{"bike_id":"d2345171-b2b8-4cd8-8787-1179c2e6bff8","system_id":"levelo_inurba_marseille","lat":43.28844,"lon":5.35842,"is_reserved":false,"is_disabled":false,"rental_uris":{"android":"levelo://app?vid=d2345171-b2b8-4cd8-8787-1179c2e6bff8","ios":"levelo://app?vid=d2345171-b2b8-4cd8-8787-1179c2e6bff8"},"vehicle_type_id":"4","last_reported":1707030458,"current_range_meters":31200,"station_id":"ce4bhb12rcd13ifvqem0","pricing_plan_id":"free"},{"bike_id":"9fd156b3-bcc2-4d50-b2ca-d6ed5693e0b6","system_id":"levelo_inurba_marseille","lat":43.312609,"lon":5.401662,"is_reserved":false,"is_disabled":false,"rental_uris":{"android":"levelo://app?vid=9fd156b3-bcc2-4d50-b2ca-d6ed5693e0b6","ios":"levelo://app?vid=9fd156b3-bcc2-4d50-b2ca-d6ed5693e0b6"},"vehicle_type_id":"4","last_reported":1707030458,"current_range_meters":22000,"station_id":"ce4bh092rcd13ifvqd30","pricing_plan_id":"free"},{"bike_id":"94bb8a61-ba09-4432-b2f9-1507b0e2be2a","system_id":"levelo_inurba_marseille","lat":43.312609,"lon":5.401662,"is_reserved":false,"is_disabled":false,"rental_uris":{"android":"levelo://app?vid=94bb8a61-ba09-4432-b2f9-1507b0e2be2a","ios":"levelo://app?vid=94bb8a61-ba09-4432-b2f9-1507b0e2be2a"},"vehicle_type_id":"4","last_reported":1707030458,"current_range_meters":22400,"station_id":"ce4bh092rcd13ifvqd30","pricing_plan_id":"free"},{"bike_id":"54629bbb-4df2-4ea4-bad3-698eeef738d2","system_id":"levelo_inurba_marseille","lat":43.29622,"lon":5.39318,"is_reserved":false,"is_disabled":false,"rental_uris":{"android":"levelo://app?vid=54629bbb-4df2-4ea4-bad3-698eeef738d2","ios":"levelo://app?vid=54629bbb-4df2-4ea4-bad3-698eeef738d2"},"vehicle_type_id":"4","last_reported":1707030458,"current_range_meters":0,"station_id":"","pricing_plan_id":"free"},{"bike_id":"4e7d6062-9b94-4daf-b733-69eb5f269a36","system_id":"levelo_inurba_marseille","lat":43.312609,"lon":5.401662,"is_reserved":false,"is_disabled":false,"rental_uris":{"android":"levelo://app?vid=4e7d6062-9b94-4daf-b733-69eb5f269a36","ios":"levelo://app?vid=4e7d6062-9b94-4daf-b733-69eb5f269a36"},"vehicle_type_id":"4","last_reported":1707030458,"current_range_meters":26000,"station_id":"ce4bh092rcd13ifvqd30","pricing_plan_id":"free"},{"bike_id":"c6776248-4950-445f-9307-ae6dd6fb03af","system_id":"levelo_inurba_marseille","lat":43.33738,"lon":5.37457,"is_reserved":false,"is_disabled":false,"rental_uris":{"android":"levelo://app?vid=c6776248-4950-445f-9307-ae6dd6fb03af","ios":"levelo://app?vid=c6776248-4950-445f-9307-ae6dd6fb03af"},"vehicle_type_id":"4","last_reported":1707030458,"current_range_meters":26000,"station_id":"","pricing_plan_id":"free"},{"bike_id":"ee9a07da-7aec-41e2-97ce-e84872797b8e","system_id":"levelo_inurba_marseille","lat":43.312609,"lon":5.401662,"is_reserved":false,"is_disabled":false,"rental_uris":{"android":"levelo://app?vid=ee9a07da-7aec-41e2-97ce-e84872797b8e","ios":"levelo://app?vid=ee9a07da-7aec-41e2-97ce-e84872797b8e"},"vehicle_type_id":"4","last_reported":1707030458,"current_range_meters":20400,"station_id":"ce4bh092rcd13ifvqd30","pricing_plan_id":"free"},{"bike_id":"f237e9c3-9151-4f55-9bd5-6a1ec2a6a300","system_id":"levelo_inurba_marseille","lat":43.312609,"lon":5.401662,"is_reserved":false,"is_disabled":false,"rental_uris":{"android":"levelo://app?vid=f237e9c3-9151-4f55-9bd5-6a1ec2a6a300","ios":"levelo://app?vid=f237e9c3-9151-4f55-9bd5-6a1ec2a6a300"},"vehicle_type_id":"4","last_reported":1707030458,"current_range_meters":12800,"station_id":"ce4bh092rcd13ifvqd30","pricing_plan_id":"free"},{"bike_id":"2d98a11f-af32-4c0c-8df9-bf6faf1ee1b6","system_id":"levelo_inurba_marseille","lat":43.30935,"lon":5.4014,"is_reserved":false,"is_disabled":false,"rental_uris":{"android":"levelo://app?vid=2d98a11f-af32-4c0c-8df9-bf6faf1ee1b6","ios":"levelo://app?vid=2d98a11f-af32-4c0c-8df9-bf6faf1ee1b6"},"vehicle_type_id":"4","last_reported":1707030458,"current_range_meters":5200,"station_id":"ce4bgvp2rcd13ifvqct0","pricing_plan_id":"free"},{"bike_id":"9c928177-f84d-408a-b79a-5e78a106288a","system_id":"levelo_inurba_marseille","lat":43.288227,"lon":5.35825,"is_reserved":false,"is_disabled":false,"rental_uris":{"android":"levelo://app?vid=9c928177-f84d-408a-b79a-5e78a106288a","ios":"levelo://app?vid=9c928177-f84d-408a-b79a-5e78a106288a"},"vehicle_type_id":"4","last_reported":1707030458,"current_range_meters":28000,"station_id":"ce4bhb12rcd13ifvqem0","pricing_plan_id":"free"},{"bike_id":"c88b544a-7d5f-44cd-9e90-26ffcf31651a","system_id":"levelo_inurba_marseille","lat":43.32686,"lon":5.39586,"is_reserved":false,"is_disabled":false,"rental_uris":{"android":"levelo://app?vid=c88b544a-7d5f-44cd-9e90-26ffcf31651a","ios":"levelo://app?vid=c88b544a-7d5f-44cd-9e90-26ffcf31651a"},"vehicle_type_id":"4","last_reported":1707030458,"current_range_meters":14800,"station_id":"","pricing_plan_id":"free"},{"bike_id":"f3ab065c-6043-499b-9110-46f2f02326a2","system_id":"levelo_inurba_marseille","lat":43.30923,"lon":5.401431,"is_reserved":false,"is_disabled":false,"rental_uris":{"android":"levelo://app?vid=f3ab065c-6043-499b-9110-46f2f02326a2","ios":"levelo://app?vid=f3ab065c-6043-499b-9110-46f2f02326a2"},"vehicle_type_id":"4","last_reported":1707030458,"current_range_meters":0,"station_id":"ce4bgvp2rcd13ifvqct0","pricing_plan_id":"free"},{"bike_id":"d6deb5d0-af48-440a-a920-16a880ef4dc7","system_id":"levelo_inurba_marseille","lat":43.309371,"lon":5.401449,"is_reserved":false,"is_disabled":false,"rental_uris":{"android":"levelo://app?vid=d6deb5d0-af48-440a-a920-16a880ef4dc7","ios":"levelo://app?vid=d6deb5d0-af48-440a-a920-16a880ef4dc7"},"vehicle_type_id":"4","last_reported":1707030458,"current_range_meters":8000,"station_id":"ce4bgvp2rcd13ifvqct0","pricing_plan_id":"free"},{"bike_id":"68ed10e6-445b-4c94-9c7e-433b243c208b","system_id":"levelo_inurba_marseille","lat":43.309371,"lon":5.401449,"is_reserved":false,"is_disabled":false,"rental_uris":{"android":"levelo://app?vid=68ed10e6-445b-4c94-9c7e-433b243c208b","ios":"levelo://app?vid=68ed10e6-445b-4c94-9c7e-433b243c208b"},"vehicle_type_id":"4","last_reported":1707030458,"current_range_meters":28800,"station_id":"ce4bgvp2rcd13ifvqct0","pricing_plan_id":"free"},{"bike_id":"72bb7a29-1025-4bae-b611-78ee177d5f5b","system_id":"levelo_inurba_marseille","lat":43.30932,"lon":5.40147,"is_reserved":false,"is_disabled":false,"rental_uris":{"android":"levelo://app?vid=72bb7a29-1025-4bae-b611-78ee177d5f5b","ios":"levelo://app?vid=72bb7a29-1025-4bae-b611-78ee177d5f5b"},"vehicle_type_id":"4","last_reported":1707030458,"current_range_meters":20800,"station_id":"ce4bgvp2rcd13ifvqct0","pricing_plan_id":"free"},{"bike_id":"92be5a0d-cde1-4b39-a9e7-2001973727fc","system_id":"levelo_inurba_marseille","lat":43.309371,"lon":5.401449,"is_reserved":false,"is_disabled":false,"rental_uris":{"android":"levelo://app?vid=92be5a0d-cde1-4b39-a9e7-2001973727fc","ios":"levelo://app?vid=92be5a0d-cde1-4b39-a9e7-2001973727fc"},"vehicle_type_id":"4","last_reported":1707030458,"current_range_meters":22800,"station_id":"ce4bgvp2rcd13ifvqct0","pricing_plan_id":"free"},{"bike_id":"628a0e79-a0dc-4686-9d79-0aab2f9a317b","system_id":"levelo_inurba_marseille","lat":43.306412,"lon":5.401035,"is_reserved":false,"is_disabled":false,"rental_uris":{"android":"levelo://app?vid=628a0e79-a0dc-4686-9d79-0aab2f9a317b","ios":"levelo://app?vid=628a0e79-a0dc-4686-9d79-0aab2f9a317b"},"vehicle_type_id":"4","last_reported":1707030458,"current_range_meters":4800,"station_id":"ce4bh112rcd13ifvqda0","pricing_plan_id":"free"},{"bike_id":"6c9da28a-e413-4fb3-8479-78d118923783","system_id":"levelo_inurba_marseille","lat":43.30642,"lon":5.401031,"is_reserved":false,"is_disabled":false,"rental_uris":{"android":"levelo://app?vid=6c9da28a-e413-4fb3-8479-78d118923783","ios":"levelo://app?vid=6c9da28a-e413-4fb3-8479-78d118923783"},"vehicle_type_id":"4","last_reported":1707030458,"current_range_meters":23200,"station_id":"ce4bh112rcd13ifvqda0","pricing_plan_id":"free"},{"bike_id":"1f2f1fc7-de9a-45d7-bdeb-95bd33b08aca","system_id":"levelo_inurba_marseille","lat":43.301373,"lon":5.398422,"is_reserved":false,"is_disabled":false,"rental_uris":{"android":"levelo://app?vid=1f2f1fc7-de9a-45d7-bdeb-95bd33b08aca","ios":"levelo://app?vid=1f2f1fc7-de9a-45d7-bdeb-95bd33b08aca"},"vehicle_type_id":"4","last_reported":1707030458,"current_range_meters":14800,"station_id":"ce4bh0h2rcd13ifvqd40","pricing_plan_id":"free"},{"bike_id":"b5c8cd35-34dd-45ee-b3e7-3050ef3cbe6a","system_id":"levelo_inurba_marseille","lat":43.337673,"lon":5.374918,"is_reserved":false,"is_disabled":false,"rental_uris":{"android":"levelo://app?vid=b5c8cd35-34dd-45ee-b3e7-3050ef3cbe6a","ios":"levelo://app?vid=b5c8cd35-34dd-45ee-b3e7-3050ef3cbe6a"},"vehicle_type_id":"4","last_reported":1707030458,"current_range_meters":13200,"station_id":"","pricing_plan_id":"free"},{"bike_id":"913294c0-a254-4883-aab2-31ac5a4eea65","system_id":"levelo_inurba_marseille","lat":43.301117,"lon":5.398795,"is_reserved":false,"is_disabled":false,"rental_uris":{"android":"levelo://app?vid=913294c0-a254-4883-aab2-31ac5a4eea65","ios":"levelo://app?vid=913294c0-a254-4883-aab2-31ac5a4eea65"},"vehicle_type_id":"4","last_reported":1707030458,"current_range_meters":9200,"station_id":"ce4bh0h2rcd13ifvqd40","pricing_plan_id":"free"},{"bike_id":"9e260c5b-7cbb-4b4f-b770-63b3ce1eaa35","system_id":"levelo_inurba_marseille","lat":43.301117,"lon":5.398795,"is_reserved":false,"is_disabled":false,"rental_uris":{"android":"levelo://app?vid=9e260c5b-7cbb-4b4f-b770-63b3ce1eaa35","ios":"levelo://app?vid=9e260c5b-7cbb-4b4f-b770-63b3ce1eaa35"},"vehicle_type_id":"4","last_reported":1707030458,"current_range_meters":21200,"station_id":"ce4bh0h2rcd13ifvqd40","pricing_plan_id":"free"},{"bike_id":"6a393fac-0eef-44f1-996f-b1ae13441501","system_id":"levelo_inurba_marseille","lat":43.301117,"lon":5.398795,"is_reserved":false,"is_disabled":false,"rental_uris":{"android":"levelo://app?vid=6a393fac-0eef-44f1-996f-b1ae13441501","ios":"levelo://app?vid=6a393fac-0eef-44f1-996f-b1ae13441501"},"vehicle_type_id":"4","last_reported":1707030458,"current_range_meters":24000,"station_id":"ce4bh0h2rcd13ifvqd40","pricing_plan_id":"free"},{"bike_id":"b9c0f704-1da7-4a81-a720-025abd1c9592","system_id":"levelo_inurba_marseille","lat":43.301117,"lon":5.398795,"is_reserved":false,"is_disabled":false,"rental_uris":{"android":"levelo://app?vid=b9c0f704-1da7-4a81-a720-025abd1c9592","ios":"levelo://app?vid=b9c0f704-1da7-4a81-a720-025abd1c9592"},"vehicle_type_id":"4","last_reported":1707030458,"current_range_meters":24000,"station_id":"ce4bh0h2rcd13ifvqd40","pricing_plan_id":"free"},{"bike_id":"2bc7914d-90d8-42d4-bd76-ce6021aa893b","system_id":"levelo_inurba_marseille","lat":43.287232,"lon":5.360848,"is_reserved":false,"is_disabled":false,"rental_uris":{"android":"levelo://app?vid=2bc7914d-90d8-42d4-bd76-ce6021aa893b","ios":"levelo://app?vid=2bc7914d-90d8-42d4-bd76-ce6021aa893b"},"vehicle_type_id":"4","last_reported":1707030458,"current_range_meters":23200,"station_id":"cki0cbj6b192h4jlfktg","pricing_plan_id":"free"},{"bike_id":"df763bff-828c-4983-ac63-7e08c3c7be28","system_id":"levelo_inurba_marseille","lat":43.286591,"lon":5.363346,"is_reserved":false,"is_disabled":false,"rental_uris":{"android":"levelo://app?vid=df763bff-828c-4983-ac63-7e08c3c7be28","ios":"levelo://app?vid=df763bff-828c-4983-ac63-7e08c3c7be28"},"vehicle_type_id":"4","last_reported":1707030458,"current_range_meters":26400,"station_id":"ce4bhah2rcd13ifvqej0","pricing_plan_id":"free"},{"bike_id":"2513d9be-aa10-45e8-84cd-6e64ac968ca3","system_id":"levelo_inurba_marseille","lat":43.286591,"lon":5.363346,"is_reserved":false,"is_disabled":false,"rental_uris":{"android":"levelo://app?vid=2513d9be-aa10-45e8-84cd-6e64ac968ca3","ios":"levelo://app?vid=2513d9be-aa10-45e8-84cd-6e64ac968ca3"},"vehicle_type_id":"4","last_reported":1707030458,"current_range_meters":31600,"station_id":"ce4bhah2rcd13ifvqej0","pricing_plan_id":"free"},{"bike_id":"aad232fb-c9db-4712-9894-b295f933b2e2","system_id":"levelo_inurba_marseille","lat":43.298681,"lon":5.397225,"is_reserved":false,"is_disabled":false,"rental_uris":{"android":"levelo://app?vid=aad232fb-c9db-4712-9894-b295f933b2e2","ios":"levelo://app?vid=aad232fb-c9db-4712-9894-b295f933b2e2"},"vehicle_type_id":"4","last_reported":1707030458,"current_range_meters":17600,"station_id":"ce4bh0h2rcd13ifvqd50","pricing_plan_id":"free"},{"bike_id":"99276449-6f94-4996-8c18-63341606666a","system_id":"levelo_inurba_marseille","lat":43.286591,"lon":5.363346,"is_reserved":false,"is_disabled":false,"rental_uris":{"android":"levelo://app?vid=99276449-6f94-4996-8c18-63341606666a","ios":"levelo://app?vid=99276449-6f94-4996-8c18-63341606666a"},"vehicle_type_id":"4","last_reported":1707030458,"current_range_meters":32000,"station_id":"ce4bhah2rcd13ifvqej0","pricing_plan_id":"free"},{"bike_id":"fc312800-2937-494d-9a26-8a66a796dc37","system_id":"levelo_inurba_marseille","lat":43.286591,"lon":5.363346,"is_reserved":false,"is_disabled":false,"rental_uris":{"android":"levelo://app?vid=fc312800-2937-494d-9a26-8a66a796dc37","ios":"levelo://app?vid=fc312800-2937-494d-9a26-8a66a796dc37"},"vehicle_type_id":"4","last_reported":1707030458,"current_range_meters":14000,"station_id":"ce4bhah2rcd13ifvqej0","pricing_plan_id":"free"},{"bike_id":"9b3e43f1-7d0e-4046-a11f-81164ee0b3a7","system_id":"levelo_inurba_marseille","lat":43.286591,"lon":5.363346,"is_reserved":false,"is_disabled":false,"rental_uris":{"android":"levelo://app?vid=9b3e43f1-7d0e-4046-a11f-81164ee0b3a7","ios":"levelo://app?vid=9b3e43f1-7d0e-4046-a11f-81164ee0b3a7"},"vehicle_type_id":"4","last_reported":1707030458,"current_range_meters":27600,"station_id":"ce4bhah2rcd13ifvqej0","pricing_plan_id":"free"},{"bike_id":"6ae1500a-607b-42ee-b1f5-df2113e0b5ac","system_id":"levelo_inurba_marseille","lat":43.286593,"lon":5.363346,"is_reserved":false,"is_disabled":false,"rental_uris":{"android":"levelo://app?vid=6ae1500a-607b-42ee-b1f5-df2113e0b5ac","ios":"levelo://app?vid=6ae1500a-607b-42ee-b1f5-df2113e0b5ac"},"vehicle_type_id":"4","last_reported":1707030458,"current_range_meters":28000,"station_id":"ce4bhah2rcd13ifvqej0","pricing_plan_id":"free"},{"bike_id":"5f99f4eb-fc5d-4573-ab04-27d1a28c6f83","system_id":"levelo_inurba_marseille","lat":43.298681,"lon":5.397225,"is_reserved":false,"is_disabled":false,"rental_uris":{"android":"levelo://app?vid=5f99f4eb-fc5d-4573-ab04-27d1a28c6f83","ios":"levelo://app?vid=5f99f4eb-fc5d-4573-ab04-27d1a28c6f83"},"vehicle_type_id":"4","last_reported":1707030458,"current_range_meters":12400,"station_id":"ce4bh0h2rcd13ifvqd50","pricing_plan_id":"free"},{"bike_id":"7d6c5427-3a6d-4fee-9f20-e8b7b110b678","system_id":"levelo_inurba_marseille","lat":43.298681,"lon":5.397225,"is_reserved":false,"is_disabled":false,"rental_uris":{"android":"levelo://app?vid=7d6c5427-3a6d-4fee-9f20-e8b7b110b678","ios":"levelo://app?vid=7d6c5427-3a6d-4fee-9f20-e8b7b110b678"},"vehicle_type_id":"4","last_reported":1707030458,"current_range_meters":30400,"station_id":"ce4bh0h2rcd13ifvqd50","pricing_plan_id":"free"},{"bike_id":"c25a40cb-068e-483b-af82-db2e0af4b533","system_id":"levelo_inurba_marseille","lat":43.290345,"lon":5.38646,"is_reserved":false,"is_disabled":false,"rental_uris":{"android":"levelo://app?vid=c25a40cb-068e-483b-af82-db2e0af4b533","ios":"levelo://app?vid=c25a40cb-068e-483b-af82-db2e0af4b533"},"vehicle_type_id":"4","last_reported":1707030458,"current_range_meters":18800,"station_id":"ce4bh4p2rcd13ifvqe0g","pricing_plan_id":"free"},{"bike_id":"82e93e04-5560-4283-9d19-963e60df57f3","system_id":"levelo_inurba_marseille","lat":43.290313,"lon":5.386428,"is_reserved":false,"is_disabled":false,"rental_uris":{"android":"levelo://app?vid=82e93e04-5560-4283-9d19-963e60df57f3","ios":"levelo://app?vid=82e93e04-5560-4283-9d19-963e60df57f3"},"vehicle_type_id":"4","last_reported":1707030458,"current_range_meters":0,"station_id":"ce4bh4p2rcd13ifvqe0g","pricing_plan_id":"free"},{"bike_id":"9e5a7cfe-70a9-4a6a-bff8-3bb346c3966e","system_id":"levelo_inurba_marseille","lat":43.302583,"lon":5.400654,"is_reserved":false,"is_disabled":false,"rental_uris":{"android":"levelo://app?vid=9e5a7cfe-70a9-4a6a-bff8-3bb346c3966e","ios":"levelo://app?vid=9e5a7cfe-70a9-4a6a-bff8-3bb346c3966e"},"vehicle_type_id":"4","last_reported":1707030458,"current_range_meters":8800,"station_id":"ce4bgvh2rcd13ifvqcs0","pricing_plan_id":"free"},{"bike_id":"71be30e3-6a9f-41fd-9870-f9d6abd3878b","system_id":"levelo_inurba_marseille","lat":43.302549,"lon":5.40068,"is_reserved":false,"is_disabled":false,"rental_uris":{"android":"levelo://app?vid=71be30e3-6a9f-41fd-9870-f9d6abd3878b","ios":"levelo://app?vid=71be30e3-6a9f-41fd-9870-f9d6abd3878b"},"vehicle_type_id":"4","last_reported":1707030458,"current_range_meters":30400,"station_id":"ce4bgvh2rcd13ifvqcs0","pricing_plan_id":"free"},{"bike_id":"97302acb-a74f-4f9b-9cb8-5d1110161acf","system_id":"levelo_inurba_marseille","lat":43.30251,"lon":5.40069,"is_reserved":false,"is_disabled":false,"rental_uris":{"android":"levelo://app?vid=97302acb-a74f-4f9b-9cb8-5d1110161acf","ios":"levelo://app?vid=97302acb-a74f-4f9b-9cb8-5d1110161acf"},"vehicle_type_id":"4","last_reported":1707030458,"current_range_meters":27600,"station_id":"ce4bgvh2rcd13ifvqcs0","pricing_plan_id":"free"},{"bike_id":"5a10feab-1878-4925-b5e0-0ad60fa041a3","system_id":"levelo_inurba_marseille","lat":43.302759,"lon":5.400793,"is_reserved":false,"is_disabled":false,"rental_uris":{"android":"levelo://app?vid=5a10feab-1878-4925-b5e0-0ad60fa041a3","ios":"levelo://app?vid=5a10feab-1878-4925-b5e0-0ad60fa041a3"},"vehicle_type_id":"4","last_reported":1707030458,"current_range_meters":24400,"station_id":"ce4bgvh2rcd13ifvqcs0","pricing_plan_id":"free"},{"bike_id":"d28e34da-8fcd-40ec-8587-85cffe44553a","system_id":"levelo_inurba_marseille","lat":43.302459,"lon":5.400745,"is_reserved":false,"is_disabled":false,"rental_uris":{"android":"levelo://app?vid=d28e34da-8fcd-40ec-8587-85cffe44553a","ios":"levelo://app?vid=d28e34da-8fcd-40ec-8587-85cffe44553a"},"vehicle_type_id":"4","last_reported":1707030458,"current_range_meters":8400,"station_id":"ce4bgvh2rcd13ifvqcs0","pricing_plan_id":"free"},{"bike_id":"ee4262ff-3d93-4915-bb7a-021c53d6f9f9","system_id":"levelo_inurba_marseille","lat":43.302506,"lon":5.400792,"is_reserved":false,"is_disabled":false,"rental_uris":{"android":"levelo://app?vid=ee4262ff-3d93-4915-bb7a-021c53d6f9f9","ios":"levelo://app?vid=ee4262ff-3d93-4915-bb7a-021c53d6f9f9"},"vehicle_type_id":"4","last_reported":1707030458,"current_range_meters":3600,"station_id":"ce4bgvh2rcd13ifvqcs0","pricing_plan_id":"free"},{"bike_id":"186a1ff7-c7a2-44c7-93ee-62de18f1f265","system_id":"levelo_inurba_marseille","lat":43.289307,"lon":5.38406,"is_reserved":false,"is_disabled":false,"rental_uris":{"android":"levelo://app?vid=186a1ff7-c7a2-44c7-93ee-62de18f1f265","ios":"levelo://app?vid=186a1ff7-c7a2-44c7-93ee-62de18f1f265"},"vehicle_type_id":"4","last_reported":1707030458,"current_range_meters":28400,"station_id":"ce4bh612rcd13ifvqe6g","pricing_plan_id":"free"},{"bike_id":"571d83e4-c554-4679-874e-a0ed8f279ff6","system_id":"levelo_inurba_marseille","lat":43.286039,"lon":5.370679,"is_reserved":false,"is_disabled":false,"rental_uris":{"android":"levelo://app?vid=571d83e4-c554-4679-874e-a0ed8f279ff6","ios":"levelo://app?vid=571d83e4-c554-4679-874e-a0ed8f279ff6"},"vehicle_type_id":"4","last_reported":1707030458,"current_range_meters":27200,"station_id":"ce4bht12rcd13ifvqi60","pricing_plan_id":"free"},{"bike_id":"443e66ba-9147-4336-bf4f-819e85087b03","system_id":"levelo_inurba_marseille","lat":43.316915,"lon":5.404779,"is_reserved":false,"is_disabled":false,"rental_uris":{"android":"levelo://app?vid=443e66ba-9147-4336-bf4f-819e85087b03","ios":"levelo://app?vid=443e66ba-9147-4336-bf4f-819e85087b03"},"vehicle_type_id":"4","last_reported":1707030458,"current_range_meters":1200,"station_id":"ce4bh012rcd13ifvqd00","pricing_plan_id":"free"},{"bike_id":"c51819b7-7544-44d5-a1e6-4dd101754762","system_id":"levelo_inurba_marseille","lat":43.291994,"lon":5.392907,"is_reserved":false,"is_disabled":false,"rental_uris":{"android":"levelo://app?vid=c51819b7-7544-44d5-a1e6-4dd101754762","ios":"levelo://app?vid=c51819b7-7544-44d5-a1e6-4dd101754762"},"vehicle_type_id":"4","last_reported":1707030458,"current_range_meters":30800,"station_id":"ce4bh192rcd13ifvqdd0","pricing_plan_id":"free"},{"bike_id":"fcaa222a-5ca2-425f-a320-4f3a0644cb8e","system_id":"levelo_inurba_marseille","lat":43.284538,"lon":5.358657,"is_reserved":false,"is_disabled":false,"rental_uris":{"android":"levelo://app?vid=fcaa222a-5ca2-425f-a320-4f3a0644cb8e","ios":"levelo://app?vid=fcaa222a-5ca2-425f-a320-4f3a0644cb8e"},"vehicle_type_id":"4","last_reported":1707030458,"current_range_meters":31200,"station_id":"ce4bhah2rcd13ifvqei0","pricing_plan_id":"free"},{"bike_id":"4fd6a2b6-181c-4530-9396-134d344fb37a","system_id":"levelo_inurba_marseille","lat":43.284534,"lon":5.358662,"is_reserved":false,"is_disabled":false,"rental_uris":{"android":"levelo://app?vid=4fd6a2b6-181c-4530-9396-134d344fb37a","ios":"levelo://app?vid=4fd6a2b6-181c-4530-9396-134d344fb37a"},"vehicle_type_id":"4","last_reported":1707030458,"current_range_meters":28000,"station_id":"ce4bhah2rcd13ifvqei0","pricing_plan_id":"free"},{"bike_id":"959ddf3a-b927-4500-9bac-6857bd30b5d5","system_id":"levelo_inurba_marseille","lat":43.286594,"lon":5.383336,"is_reserved":false,"is_disabled":false,"rental_uris":{"android":"levelo://app?vid=959ddf3a-b927-4500-9bac-6857bd30b5d5","ios":"levelo://app?vid=959ddf3a-b927-4500-9bac-6857bd30b5d5"},"vehicle_type_id":"4","last_reported":1707030458,"current_range_meters":12800,"station_id":"","pricing_plan_id":"free"},{"bike_id":"7a4670d8-88ee-4dc9-b18d-f940af504554","system_id":"levelo_inurba_marseille","lat":43.284534,"lon":5.358662,"is_reserved":false,"is_disabled":false,"rental_uris":{"android":"levelo://app?vid=7a4670d8-88ee-4dc9-b18d-f940af504554","ios":"levelo://app?vid=7a4670d8-88ee-4dc9-b18d-f940af504554"},"vehicle_type_id":"4","last_reported":1707030458,"current_range_meters":32000,"station_id":"ce4bhah2rcd13ifvqei0","pricing_plan_id":"free"},{"bike_id":"71927643-2d5b-45b5-a161-129fae02e328","system_id":"levelo_inurba_marseille","lat":43.294314,"lon":5.397498,"is_reserved":false,"is_disabled":false,"rental_uris":{"android":"levelo://app?vid=71927643-2d5b-45b5-a161-129fae02e328","ios":"levelo://app?vid=71927643-2d5b-45b5-a161-129fae02e328"},"vehicle_type_id":"4","last_reported":1707030458,"current_range_meters":10800,"station_id":"ce4bh3h2rcd13ifvqdo0","pricing_plan_id":"free"},