{"last_updated":1753387866,"ttl":60,"version":"2.2","data":{"bikes":[{"bike_id":"9ae7d50c-a3ea-4136-8080-315c191e000a","system_id":"levelo_inurba_marseille","lat":43.28755,"lon":5.38421,"is_reserved":false,"is_disabled":false,"rental_uris":{"android":"levelo://app?vid=9ae7d50c-a3ea-4136-8080-315c191e000a","ios":"levelo://app?vid=9ae7d50c-a3ea-4136-8080-315c191e000a"},"vehicle_type_id":"4","last_reported":1753387866,"current_range_meters":2800,"station_id":"","pricing_plan_id":"cebpf4jnsgd1na2vs0mg"},{"bike_id":"85358859-ffd5-4367-b41b-622da68684e3","system_id":"levelo_inurba_marseille","lat":43.29564,"lon":5.37543,"is_reserved":false,"is_disabled":false,"rental_uris":{"android":"levelo://app?vid=85358859-ffd5-4367-b41b-622da68684e3","ios":"levelo://app?vid=85358859-ffd5-4367-b41b-622da68684e3"},"vehicle_type_id":"4","last_reported":1753387866,"current_range_meters":2800,"station_id":"ce4bgh92rcd13ifvqb50","pricing_plan_id":"cebpf4jnsgd1na2vs0mg"},{"bike_id":"a61c3ffa-f010-453d-a8ff-d64e52ad67dc","system_id":"levelo_inurba_marseille","lat":43.28649,"lon":5.37734,"is_reserved":false,"is_disabled":false,"rental_uris":{"android":"levelo://app?vid=a61c3ffa-f010-453d-a8ff-d64e52ad67dc","ios":"levelo://app?vid=a61c3ffa-f010-453d-a8ff-d64e52ad67dc"},"vehicle_type_id":"4","last_reported":1753387866,"current_range_meters":2800,"station_id":"","pricing_plan_id":"cebpf4jnsgd1na2vs0mg"},{"bike_id":"4023483f-3ba3-4c42-9344-97a39fb1ff87","system_id":"levelo_inurba_marseille","lat":43.22495,"lon":5.34767,"is_reserved":false,"is_disabled":false,"rental_uris":{"android":"levelo://app?vid=4023483f-3ba3-4c42-9344-97a39fb1ff87","ios":"levelo://app?vid=4023483f-3ba3-4c42-9344-97a39fb1ff87"},"vehicle_type_id":"4","last_reported":1753387866,"current_range_meters":2800,"station_id":"st_cvj5dfep6f1abm77gieg","pricing_plan_id":"cebpf4jnsgd1na2vs0mg"},{"bike_id":"5fd4cb9f-2c91-49b7-b819-24615ff075d8","system_id":"levelo_inurba_marseille","lat":43.28703,"lon":5.39984,"is_reserved":false,"is_disabled":false,"rental_uris":{"android":"levelo://app?vid=5fd4cb9f-2c91-49b7-b819-24615ff075d8","ios":"levelo://app?vid=5fd4cb9f-2c91-49b7-b819-24615ff075d8"},"vehicle_type_id":"4","last_reported":1753387866,"current_range_meters":2800,"station_id":"ce4bho92rcd13ifvqh3g","pricing_plan_id":"cebpf4jnsgd1na2vs0mg"},{"bike_id":"12aa18e6-54b4-4f17-8d75-27573f932a0c","system_id":"levelo_inurba_marseille","lat":43.296823,"lon":5.372723,"is_reserved":false,"is_disabled":true,"rental_uris":{"android":"levelo://app?vid=12aa18e6-54b4-4f17-8d75-27573f932a0c","ios":"levelo://app?vid=12aa18e6-54b4-4f17-8d75-27573f932a0c"},"vehicle_type_id":"4","last_reported":1753387866,"current_range_meters":3200,"station_id":"ce4bgk12rcd13ifvqbj0","pricing_plan_id":"cebpf4jnsgd1na2vs0mg"},{"bike_id":"c8cbe188-8c80-4aac-881d-65feb870e521","system_id":"levelo_inurba_marseille","lat":43.33012,"lon":5.38016,"is_reserved":false,"is_disabled":false,"rental_uris":{"android":"levelo://app?vid=c8cbe188-8c80-4aac-881d-65feb870e521","ios":"levelo://app?vid=c8cbe188-8c80-4aac-881d-65feb870e521"},"vehicle_type_id":"4","last_reported":1753387866,"current_range_meters":3200,"station_id":"","pricing_plan_id":"cebpf4jnsgd1na2vs0mg"},{"bike_id":"5798a23f-891e-4914-bcf8-34edfbb8656b","system_id":"levelo_inurba_marseille","lat":43.28695,"lon":5.39983,"is_reserved":false,"is_disabled":false,"rental_uris":{"android":"levelo://app?vid=5798a23f-891e-4914-bcf8-34edfbb8656b","ios":"levelo://app?vid=5798a23f-891e-4914-bcf8-34edfbb8656b"},"vehicle_type_id":"4","last_reported":1753387866,"current_range_meters":3200,"station_id":"ce4bho92rcd13ifvqh3g","pricing_plan_id":"cebpf4jnsgd1na2vs0mg"},{"bike_id":"09a8bc6a-ab3a-4c9e-b873-b672b12f169e","system_id":"levelo_inurba_marseille","lat":43.29828,"lon":5.37139,"is_reserved":false,"is_disabled":true,"rental_uris":{"android":"levelo://app?vid=09a8bc6a-ab3a-4c9e-b873-b672b12f169e","ios":"levelo://app?vid=09a8bc6a-ab3a-4c9e-b873-b672b12f169e"},"vehicle_type_id":"4","last_reported":1753387866,"current_range_meters":3600,"station_id":"","pricing_plan_id":"cebpf4jnsgd1na2vs0mg"},{"bike_id":"90082b92-08ed-4085-bb80-faf3a1850172","system_id":"levelo_inurba_marseille","lat":43.2841,"lon":5.37513,"is_reserved":false,"is_disabled":false,"rental_uris":{"android":"levelo://app?vid=90082b92-08ed-4085-bb80-faf3a1850172","ios":"levelo://app?vid=90082b92-08ed-4085-bb80-faf3a1850172"},"vehicle_type_id":"4","last_reported":1753387866,"current_range_meters":3600,"station_id":"ce4bh412rcd13ifvqds0","pricing_plan_id":"cebpf4jnsgd1na2vs0mg"},{"bike_id":"ee14c9e7-19fc-4ae2-acbb-71b14874c30b","system_id":"levelo_inurba_marseille","lat":43.316566,"lon":5.404191,"is_reserved":false,"is_disabled":false,"rental_uris":{"android":"levelo://app?vid=ee14c9e7-19fc-4ae2-acbb-71b14874c30b","ios":"levelo://app?vid=ee14c9e7-19fc-4ae2-acbb-71b14874c30b"},"vehicle_type_id":"4","last_reported":1753387866,"current_range_meters":4000,"station_id":"ce4bh012rcd13ifvqd00","pricing_plan_id":"cebpf4jnsgd1na2vs0mg"},{"bike_id":"1610f48b-d797-495d-844e-b3407483b20d","system_id":"levelo_inurba_marseille","lat":43.29034,"lon":5.37562,"is_reserved":false,"is_disabled":false,"rental_uris":{"android":"levelo://app?vid=1610f48b-d797-495d-844e-b3407483b20d","ios":"levelo://app?vid=1610f48b-d797-495d-844e-b3407483b20d"},"vehicle_type_id":"4","last_reported":1753387866,"current_range_meters":3600,"station_id":"ce4bh692rcd13ifvqe90","pricing_plan_id":"cebpf4jnsgd1na2vs0mg"},{"bike_id":"6451ed48-c911-458c-b378-7dacacc25209","system_id":"levelo_inurba_marseille","lat":43.29255,"lon":5.38444,"is_reserved":false,"is_disabled":false,"rental_uris":{"android":"levelo://app?vid=6451ed48-c911-458c-b378-7dacacc25209","ios":"levelo://app?vid=6451ed48-c911-458c-b378-7dacacc25209"},"vehicle_type_id":"4","last_reported":1753387866,"current_range_meters":4000,"station_id":"ce4bh692rcd13ifvqea0","pricing_plan_id":"cebpf4jnsgd1na2vs0mg"},{"bike_id":"d4043fff-8474-4a89-965a-b8794944d0a3","system_id":"levelo_inurba_marseille","lat":43.23178,"lon":5.39998,"is_reserved":false,"is_disabled":true,"rental_uris":{"android":"levelo://app?vid=d4043fff-8474-4a89-965a-b8794944d0a3","ios":"levelo://app?vid=d4043fff-8474-4a89-965a-b8794944d0a3"},"vehicle_type_id":"4","last_reported":1753387866,"current_range_meters":4400,"station_id":"ce4bhn12rcd13ifvqgqg","pricing_plan_id":"cebpf4jnsgd1na2vs0mg"},{"bike_id":"b5581021-647a-4b6c-b12b-82cfbe76fcdc","system_id":"levelo_inurba_marseille","lat":43.30643,"lon":5.40076,"is_reserved":false,"is_disabled":false,"rental_uris":{"android":"levelo://app?vid=b5581021-647a-4b6c-b12b-82cfbe76fcdc","ios":"levelo://app?vid=b5581021-647a-4b6c-b12b-82cfbe76fcdc"},"vehicle_type_id":"4","last_reported":1753387866,"current_range_meters":4400,"station_id":"ce4bh112rcd13ifvqda0","pricing_plan_id":"cebpf4jnsgd1na2vs0mg"},{"bike_id":"c9dbd36b-479c-4a5c-b200-3aa7673340d9","system_id":"levelo_inurba_marseille","lat":43.241448,"lon":5.363743,"is_reserved":false,"is_disabled":false,"rental_uris":{"android":"levelo://app?vid=c9dbd36b-479c-4a5c-b200-3aa7673340d9","ios":"levelo://app?vid=c9dbd36b-479c-4a5c-b200-3aa7673340d9"},"vehicle_type_id":"4","last_reported":1753387866,"current_range_meters":4400,"station_id":"","pricing_plan_id":"cebpf4jnsgd1na2vs0mg"},{"bike_id":"37185c64-86ee-4566-8eb4-bce39b485c26","system_id":"levelo_inurba_marseille","lat":43.29298,"lon":5.37445,"is_reserved":false,"is_disabled":false,"rental_uris":{"android":"levelo://app?vid=37185c64-86ee-4566-8eb4-bce39b485c26","ios":"levelo://app?vid=37185c64-86ee-4566-8eb4-bce39b485c26"},"vehicle_type_id":"4","last_reported":1753387866,"current_range_meters":4400,"station_id":"ce4bgi12rcd13ifvqb70","pricing_plan_id":"cebpf4jnsgd1na2vs0mg"},{"bike_id":"1a38f580-2e87-4704-aafe-111e1ce02134","system_id":"levelo_inurba_marseille","lat":43.29265,"lon":5.38442,"is_reserved":false,"is_disabled":false,"rental_uris":{"android":"levelo://app?vid=1a38f580-2e87-4704-aafe-111e1ce02134","ios":"levelo://app?vid=1a38f580-2e87-4704-aafe-111e1ce02134"},"vehicle_type_id":"4","last_reported":1753387866,"current_range_meters":4400,"station_id":"ce4bh692rcd13ifvqea0","pricing_plan_id":"cebpf4jnsgd1na2vs0mg"},{"bike_id":"a3a31f38-49ac-4c41-be2e-a4f2ba868962","system_id":"levelo_inurba_marseille","lat":43.28488,"lon":5.38433,"is_reserved":false,"is_disabled":false,"rental_uris":{"android":"levelo://app?vid=a3a31f38-49ac-4c41-be2e-a4f2ba868962","ios":"levelo://app?vid=a3a31f38-49ac-4c41-be2e-a4f2ba868962"},"vehicle_type_id":"4","last_reported":1753387866,"current_range_meters":4800,"station_id":"ce4bh512rcd13ifvqe3g","pricing_plan_id":"cebpf4jnsgd1na2vs0mg"},{"bike_id":"57030d2f-9da2-41ee-ad88-de4074263cc0","system_id":"levelo_inurba_marseille","lat":43.296877,"lon":5.37304,"is_reserved":false,"is_disabled":false,"rental_uris":{"android":"levelo://app?vid=57030d2f-9da2-41ee-ad88-de4074263cc0","ios":"levelo://app?vid=57030d2f-9da2-41ee-ad88-de4074263cc0"},"vehicle_type_id":"4","last_reported":1753387866,"current_range_meters":5600,"station_id":"ce4bgk12rcd13ifvqbj0","pricing_plan_id":"cebpf4jnsgd1na2vs0mg"},{"bike_id":"339704e9-66d6-4f4b-bdc9-bf338413b02d","system_id":"levelo_inurba_marseille","lat":43.250893,"lon":5.395271,"is_reserved":false,"is_disabled":false,"rental_uris":{"android":"levelo://app?vid=339704e9-66d6-4f4b-bdc9-bf338413b02d","ios":"levelo://app?vid=339704e9-66d6-4f4b-bdc9-bf338413b02d"},"vehicle_type_id":"4","last_reported":1753387866,"current_range_meters":5600,"station_id":"ce4bhm12rcd13ifvqgkg","pricing_plan_id":"cebpf4jnsgd1na2vs0mg"},{"bike_id":"35d23edc-2d4b-462c-ae32-0d1b9da6c7ea","system_id":"levelo_inurba_marseille","lat":43.30431,"lon":5.38894,"is_reserved":false,"is_disabled":false,"rental_uris":{"android":"levelo://app?vid=35d23edc-2d4b-462c-ae32-0d1b9da6c7ea","ios":"levelo://app?vid=35d23edc-2d4b-462c-ae32-0d1b9da6c7ea"},"vehicle_type_id":"4","last_reported":1753387866,"current_range_meters":5600,"station_id":"ce4bgk12rcd13ifvqbi0","pricing_plan_id":"cebpf4jnsgd1na2vs0mg"},{"bike_id":"d4c431ed-c6e4-4273-a854-975fe7a7b18a","system_id":"levelo_inurba_marseille","lat":43.28001,"lon":5.4002,"is_reserved":false,"is_disabled":false,"rental_uris":{"android":"levelo://app?vid=d4c431ed-c6e4-4273-a854-975fe7a7b18a","ios":"levelo://app?vid=d4c431ed-c6e4-4273-a854-975fe7a7b18a"},"vehicle_type_id":"4","last_reported":1753387866,"current_range_meters":6000,"station_id":"ce4bho92rcd13ifvqh4g","pricing_plan_id":"cebpf4jnsgd1na2vs0mg"},{"bike_id":"5753837b-5b72-451c-ad69-511fe79a58f5","system_id":"levelo_inurba_marseille","lat":43.26546,"lon":5.37293,"is_reserved":false,"is_disabled":false,"rental_uris":{"android":"levelo://app?vid=5753837b-5b72-451c-ad69-511fe79a58f5","ios":"levelo://app?vid=5753837b-5b72-451c-ad69-511fe79a58f5"},"vehicle_type_id":"4","last_reported":1753387866,"current_range_meters":6000,"station_id":"ce4bhg12rcd13ifvqf70","pricing_plan_id":"cebpf4jnsgd1na2vs0mg"},{"bike_id":"1cbae63a-8cc1-4638-8c65-7a60f104e322","system_id":"levelo_inurba_marseille","lat":43.297054,"lon":5.366148,"is_reserved":false,"is_disabled":false,"rental_uris":{"android":"levelo://app?vid=1cbae63a-8cc1-4638-8c65-7a60f104e322","ios":"levelo://app?vid=1cbae63a-8cc1-4638-8c65-7a60f104e322"},"vehicle_type_id":"4","last_reported":1753387866,"current_range_meters":6400,"station_id":"ce4bgn12rcd13ifvqbt0","pricing_plan_id":"cebpf4jnsgd1na2vs0mg"},{"bike_id":"59a15ad2-15d7-4154-b27a-a8773758dd23","system_id":"levelo_inurba_marseille","lat":43.298182,"lon":5.370916,"is_reserved":false,"is_disabled":true,"rental_uris":{"android":"levelo://app?vid=59a15ad2-15d7-4154-b27a-a8773758dd23","ios":"levelo://app?vid=59a15ad2-15d7-4154-b27a-a8773758dd23"},"vehicle_type_id":"4","last_reported":1753387866,"current_range_meters":6400,"station_id":"","pricing_plan_id":"cebpf4jnsgd1na2vs0mg"},{"bike_id":"b982e5a3-88f5-4403-a53a-38d90073ed80","system_id":"levelo_inurba_marseille","lat":43.29374,"lon":5.39861,"is_reserved":false,"is_disabled":false,"rental_uris":{"android":"levelo://app?vid=b982e5a3-88f5-4403-a53a-38d90073ed80","ios":"levelo://app?vid=b982e5a3-88f5-4403-a53a-38d90073ed80"},"vehicle_type_id":"4","last_reported":1753387866,"current_range_meters":6400,"station_id":"","pricing_plan_id":"cebpf4jnsgd1na2vs0mg"},{"bike_id":"d8e04568-f8c1-4266-9207-acd43bd263b6","system_id":"levelo_inurba_marseille","lat":43.29303,"lon":5.37163,"is_reserved":false,"is_disabled":false,"rental_uris":{"android":"levelo://app?vid=d8e04568-f8c1-4266-9207-acd43bd263b6","ios":"levelo://app?vid=d8e04568-f8c1-4266-9207-acd43bd263b6"},"vehicle_type_id":"4","last_reported":1753387866,"current_range_meters":6800,"station_id":"ce4bgh92rcd13ifvqb40","pricing_plan_id":"cebpf4jnsgd1na2vs0mg"},{"bike_id":"ebc373e9-7b8a-4881-b771-413c853ce604","system_id":"levelo_inurba_marseille","lat":43.26559,"lon":5.37282,"is_reserved":false,"is_disabled":false,"rental_uris":{"android":"levelo://app?vid=ebc373e9-7b8a-4881-b771-413c853ce604","ios":"levelo://app?vid=ebc373e9-7b8a-4881-b771-413c853ce604"},"vehicle_type_id":"4","last_reported":1753387866,"current_range_meters":6800,"station_id":"ce4bhg12rcd13ifvqf70","pricing_plan_id":"cebpf4jnsgd1na2vs0mg"},{"bike_id":"6a0ba67f-9cf9-4d3c-85b3-8b9930488817","system_id":"levelo_inurba_marseille","lat":43.31173,"lon":5.3872,"is_reserved":false,"is_disabled":false,"rental_uris":{"android":"levelo://app?vid=6a0ba67f-9cf9-4d3c-85b3-8b9930488817","ios":"levelo://app?vid=6a0ba67f-9cf9-4d3c-85b3-8b9930488817"},"vehicle_type_id":"4","last_reported":1753387866,"current_range_meters":6800,"station_id":"ce4bgv12rcd13ifvqcp0","pricing_plan_id":"cebpf4jnsgd1na2vs0mg"},{"bike_id":"ed97ab74-0239-4106-8c85-954b30bec5d0","system_id":"levelo_inurba_marseille","lat":43.30945,"lon":5.39038,"is_reserved":false,"is_disabled":false,"rental_uris":{"android":"levelo://app?vid=ed97ab74-0239-4106-8c85-954b30bec5d0","ios":"levelo://app?vid=ed97ab74-0239-4106-8c85-954b30bec5d0"},"vehicle_type_id":"4","last_reported":1753387866,"current_range_meters":7200,"station_id":"ce4bgup2rcd13ifvqco0","pricing_plan_id":"cebpf4jnsgd1na2vs0mg"},{"bike_id":"da053e6a-15f2-492e-8bc1-42b1d66cc329","system_id":"levelo_inurba_marseille","lat":43.28358,"lon":5.43256,"is_reserved":false,"is_disabled":false,"rental_uris":{"android":"levelo://app?vid=da053e6a-15f2-492e-8bc1-42b1d66cc329","ios":"levelo://app?vid=da053e6a-15f2-492e-8bc1-42b1d66cc329"},"vehicle_type_id":"4","last_reported":1753387866,"current_range_meters":7200,"station_id":"","pricing_plan_id":"cebpf4jnsgd1na2vs0mg"},{"bike_id":"93d7cfbb-5843-4d1c-82cc-86d84ceb59bc","system_id":"levelo_inurba_marseille","lat":43.284589,"lon":5.358718,"is_reserved":false,"is_disabled":false,"rental_uris":{"android":"levelo://app?vid=93d7cfbb-5843-4d1c-82cc-86d84ceb59bc","ios":"levelo://app?vid=93d7cfbb-5843-4d1c-82cc-86d84ceb59bc"},"vehicle_type_id":"4","last_reported":1753387866,"current_range_meters":7200,"station_id":"ce4bhah2rcd13ifvqei0","pricing_plan_id":"cebpf4jnsgd1na2vs0mg"},{"bike_id":"e355fcb0-c359-48e7-94a5-35a9e7a88bb4","system_id":"levelo_inurba_marseille","lat":43.30127,"lon":5.39862,"is_reserved":false,"is_disabled":false,"rental_uris":{"android":"levelo://app?vid=e355fcb0-c359-48e7-94a5-35a9e7a88bb4","ios":"levelo://app?vid=e355fcb0-c359-48e7-94a5-35a9e7a88bb4"},"vehicle_type_id":"4","last_reported":1753387866,"current_range_meters":7200,"station_id":"ce4bh0h2rcd13ifvqd40","pricing_plan_id":"cebpf4jnsgd1na2vs0mg"},{"bike_id":"62a6bac8-4f60-4abb-bbab-c512b6669722","system_id":"levelo_inurba_marseille","lat":43.30122,"lon":5.3985,"is_reserved":false,"is_disabled":false,"rental_uris":{"android":"levelo://app?vid=62a6bac8-4f60-4abb-bbab-c512b6669722","ios":"levelo://app?vid=62a6bac8-4f60-4abb-bbab-c512b6669722"},"vehicle_type_id":"4","last_reported":1753387866,"current_range_meters":7200,"station_id":"ce4bh0h2rcd13ifvqd40","pricing_plan_id":"cebpf4jnsgd1na2vs0mg"},{"bike_id":"8d4c0420-d0a3-4380-bcc1-62c045f8d4b9","system_id":"levelo_inurba_marseille","lat":43.26578,"lon":5.39011,"is_reserved":false,"is_disabled":true,"rental_uris":{"android":"levelo://app?vid=8d4c0420-d0a3-4380-bcc1-62c045f8d4b9","ios":"levelo://app?vid=8d4c0420-d0a3-4380-bcc1-62c045f8d4b9"},"vehicle_type_id":"4","last_reported":1753387866,"current_range_meters":7200,"station_id":"ce4bhe12rcd13ifvqf30","pricing_plan_id":"cebpf4jnsgd1na2vs0mg"},{"bike_id":"4c69b24a-c11d-4492-964b-1fd49466555e","system_id":"levelo_inurba_marseille","lat":43.32658,"lon":5.40996,"is_reserved":false,"is_disabled":false,"rental_uris":{"android":"levelo://app?vid=4c69b24a-c11d-4492-964b-1fd49466555e","ios":"levelo://app?vid=4c69b24a-c11d-4492-964b-1fd49466555e"},"vehicle_type_id":"4","last_reported":1753387866,"current_range_meters":8000,"station_id":"ce4bhpp2rcd13ifvqhgg","pricing_plan_id":"cebpf4jnsgd1na2vs0mg"},{"bike_id":"ca6ad6cb-ffd7-4c59-b992-a60755fc2071","system_id":"levelo_inurba_marseille","lat":43.29034,"lon":5.37558,"is_reserved":false,"is_disabled":false,"rental_uris":{"android":"levelo://app?vid=ca6ad6cb-ffd7-4c59-b992-a60755fc2071","ios":"levelo://app?vid=ca6ad6cb-ffd7-4c59-b992-a60755fc2071"},"vehicle_type_id":"4","last_reported":1753387866,"current_range_meters":8000,"station_id":"ce4bh692rcd13ifvqe90","pricing_plan_id":"cebpf4jnsgd1na2vs0mg"},{"bike_id":"e0f4556b-1525-4eff-ac19-a1270436371d","system_id":"levelo_inurba_marseille","lat":43.278231,"lon":5.397766,"is_reserved":false,"is_disabled":false,"rental_uris":{"android":"levelo://app?vid=e0f4556b-1525-4eff-ac19-a1270436371d","ios":"levelo://app?vid=e0f4556b-1525-4eff-ac19-a1270436371d"},"vehicle_type_id":"4","last_reported":1753387866,"current_range_meters":8400,"station_id":"","pricing_plan_id":"cebpf4jnsgd1na2vs0mg"},{"bike_id":"87d9cc9e-fb09-41d9-ab2e-0f924589aaeb","system_id":"levelo_inurba_marseille","lat":43.3124,"lon":5.36878,"is_reserved":false,"is_disabled":true,"rental_uris":{"android":"levelo://app?vid=87d9cc9e-fb09-41d9-ab2e-0f924589aaeb","ios":"levelo://app?vid=87d9cc9e-fb09-41d9-ab2e-0f924589aaeb"},"vehicle_type_id":"4","last_reported":1753387866,"current_range_meters":8400,"station_id":"ce4bgl92rcd13ifvqbq0","pricing_plan_id":"cebpf4jnsgd1na2vs0mg"},{"bike_id":"fb9750f2-c887-4965-a008-0d58a938a146","system_id":"levelo_inurba_marseille","lat":43.31724,"lon":5.42395,"is_reserved":false,"is_disabled":false,"rental_uris":{"android":"levelo://app?vid=fb9750f2-c887-4965-a008-0d58a938a146","ios":"levelo://app?vid=fb9750f2-c887-4965-a008-0d58a938a146"},"vehicle_type_id":"4","last_reported":1753387866,"current_range_meters":8400,"station_id":"ce4bhp92rcd13ifvqhbg","pricing_plan_id":"cebpf4jnsgd1na2vs0mg"},{"bike_id":"6b171128-a7d4-440d-a987-45fad1964d81","system_id":"levelo_inurba_marseille","lat":43.292659,"lon":5.384409,"is_reserved":false,"is_disabled":false,"rental_uris":{"android":"levelo://app?vid=6b171128-a7d4-440d-a987-45fad1964d81","ios":"levelo://app?vid=6b171128-a7d4-440d-a987-45fad1964d81"},"vehicle_type_id":"4","last_reported":1753387866,"current_range_meters":8400,"station_id":"","pricing_plan_id":"cebpf4jnsgd1na2vs0mg"},{"bike_id":"ce0ffc32-a366-4e8b-b135-ca54d0fd6cbb","system_id":"levelo_inurba_marseille","lat":43.26194,"lon":5.37444,"is_reserved":false,"is_disabled":true,"rental_uris":{"android":"levelo://app?vid=ce0ffc32-a366-4e8b-b135-ca54d0fd6cbb","ios":"levelo://app?vid=ce0ffc32-a366-4e8b-b135-ca54d0fd6cbb"},"vehicle_type_id":"4","last_reported":1753387866,"current_range_meters":8800,"station_id":"ce4bhgp2rcd13ifvqfc0","pricing_plan_id":"cebpf4jnsgd1na2vs0mg"},{"bike_id":"204c876b-4948-46fb-889a-c70ab0d20bdf","system_id":"levelo_inurba_marseille","lat":43.30938,"lon":5.40137,"is_reserved":false,"is_disabled":false,"rental_uris":{"android":"levelo://app?vid=204c876b-4948-46fb-889a-c70ab0d20bdf","ios":"levelo://app?vid=204c876b-4948-46fb-889a-c70ab0d20bdf"},"vehicle_type_id":"4","last_reported":1753387866,"current_range_meters":8800,"station_id":"ce4bgvp2rcd13ifvqct0","pricing_plan_id":"cebpf4jnsgd1na2vs0mg"},{"bike_id":"3a0115ae-55d2-4405-805f-0ad4917dce47","system_id":"levelo_inurba_marseille","lat":43.29264,"lon":5.38433,"is_reserved":false,"is_disabled":false,"rental_uris":{"android":"levelo://app?vid=3a0115ae-55d2-4405-805f-0ad4917dce47","ios":"levelo://app?vid=3a0115ae-55d2-4405-805f-0ad4917dce47"},"vehicle_type_id":"4","last_reported":1753387866,"current_range_meters":8800,"station_id":"ce4bh692rcd13ifvqea0","pricing_plan_id":"cebpf4jnsgd1na2vs0mg"},{"bike_id":"511cba7a-1908-456a-8d33-005fb634328f","system_id":"levelo_inurba_marseille","lat":43.29256,"lon":5.38434,"is_reserved":false,"is_disabled":false,"rental_uris":{"android":"levelo://app?vid=511cba7a-1908-456a-8d33-005fb634328f","ios":"levelo://app?vid=511cba7a-1908-456a-8d33-005fb634328f"},"vehicle_type_id":"4","last_reported":1753387866,"current_range_meters":8800,"station_id":"ce4bh692rcd13ifvqea0","pricing_plan_id":"cebpf4jnsgd1na2vs0mg"},{"bike_id":"953467ef-df90-4273-bcf6-edba54162057","system_id":"levelo_inurba_marseille","lat":43.29054,"lon":5.37146,"is_reserved":false,"is_disabled":true,"rental_uris":{"android":"levelo://app?vid=953467ef-df90-4273-bcf6-edba54162057","ios":"levelo://app?vid=953467ef-df90-4273-bcf6-edba54162057"},"vehicle_type_id":"4","last_reported":1753387866,"current_range_meters":8800,"station_id":"ce4bh5p2rcd13ifvqe4g","pricing_plan_id":"cebpf4jnsgd1na2vs0mg"},{"bike_id":"28229b56-823c-4c62-bd34-c10bf14f50ec","system_id":"levelo_inurba_marseille","lat":43.28733,"lon":5.36051,"is_reserved":false,"is_disabled":false,"rental_uris":{"android":"levelo://app?vid=28229b56-823c-4c62-bd34-c10bf14f50ec","ios":"levelo://app?vid=28229b56-823c-4c62-bd34-c10bf14f50ec"},"vehicle_type_id":"4","last_reported":1753387866,"current_range_meters":8800,"station_id":"cki0cbj6b192h4jlfktg","pricing_plan_id":"cebpf4jnsgd1na2vs0mg"},{"bike_id":"483180d4-8699-4f73-80e9-e631137a856d","system_id":"levelo_inurba_marseille","lat":43.22927,"lon":5.35376,"is_reserved":false,"is_disabled":false,"rental_uris":{"android":"levelo://app?vid=483180d4-8699-4f73-80e9-e631137a856d","ios":"levelo://app?vid=483180d4-8699-4f73-80e9-e631137a856d"},"vehicle_type_id":"4","last_reported":1753387866,"current_range_meters":8800,"station_id":"cpo3532slgdg3j2ikp40","pricing_plan_id":"cebpf4jnsgd1na2vs0mg"},{"bike_id":"7593f3c6-547e-485d-872d-38e9157d9fe0","system_id":"levelo_inurba_marseille","lat":43.30217,"lon":5.39485,"is_reserved":false,"is_disabled":false,"rental_uris":{"android":"levelo://app?vid=7593f3c6-547e-485d-872d-38e9157d9fe0","ios":"levelo://app?vid=7593f3c6-547e-485d-872d-38e9157d9fe0"},"vehicle_type_id":"4","last_reported":1753387866,"current_range_meters":8800,"station_id":"ce4bh0p2rcd13ifvqd70","pricing_plan_id":"cebpf4jnsgd1na2vs0mg"},{"bike_id":"6de3e9b8-c113-47bd-a4ad-af3df0fe0884","system_id":"levelo_inurba_marseille","lat":43.28392,"lon":5.37502,"is_reserved":false,"is_disabled":false,"rental_uris":{"android":"levelo://app?vid=6de3e9b8-c113-47bd-a4ad-af3df0fe0884","ios":"levelo://app?vid=6de3e9b8-c113-47bd-a4ad-af3df0fe0884"},"vehicle_type_id":"4","last_reported":1753387866,"current_range_meters":9200,"station_id":"ce4bh412rcd13ifvqds0","pricing_plan_id":"cebpf4jnsgd1na2vs0mg"},{"bike_id":"2936456c-77f6-4f82-a181-4bc2dd541746","system_id":"levelo_inurba_marseille","lat":43.29178,"lon":5.3581,"is_reserved":false,"is_disabled":true,"rental_uris":{"android":"levelo://app?vid=2936456c-77f6-4f82-a181-4bc2dd541746","ios":"levelo://app?vid=2936456c-77f6-4f82-a181-4bc2dd541746"},"vehicle_type_id":"4","last_reported":1753387866,"current_range_meters":9200,"station_id":"ce4bhb12rcd13ifvqel0","pricing_plan_id":"cebpf4jnsgd1na2vs0mg"},{"bike_id":"7af2f0f8-99a1-45bf-bb00-366862ccacb8","system_id":"levelo_inurba_marseille","lat":43.2926,"lon":5.38442,"is_reserved":false,"is_disabled":false,"rental_uris":{"android":"levelo://app?vid=7af2f0f8-99a1-45bf-bb00-366862ccacb8","ios":"levelo://app?vid=7af2f0f8-99a1-45bf-bb00-366862ccacb8"},"vehicle_type_id":"4","last_reported":1753387866,"current_range_meters":9200,"station_id":"ce4bh692rcd13ifvqea0","pricing_plan_id":"cebpf4jnsgd1na2vs0mg"},{"bike_id":"0358604e-c8ee-41b2-9ec9-0f3488c8b4ee","system_id":"levelo_inurba_marseille","lat":43.25075,"lon":5.39508,"is_reserved":false,"is_disabled":false,"rental_uris":{"android":"levelo://app?vid=0358604e-c8ee-41b2-9ec9-0f3488c8b4ee","ios":"levelo://app?vid=0358604e-c8ee-41b2-9ec9-0f3488c8b4ee"},"vehicle_type_id":"4","last_reported":1753387866,"current_range_meters":9200,"station_id":"ce4bhm12rcd13ifvqgkg","pricing_plan_id":"cebpf4jnsgd1na2vs0mg"},{"bike_id":"bc20f4ef-32ad-4973-9273-af14279017f4","system_id":"levelo_inurba_marseille","lat":43.32967,"lon":5.36773,"is_reserved":false,"is_disabled":false,"rental_uris":{"android":"levelo://app?vid=bc20f4ef-32ad-4973-9273-af14279017f4","ios":"levelo://app?vid=bc20f4ef-32ad-4973-9273-af14279017f4"},"vehicle_type_id":"4","last_reported":1753387866,"current_range_meters":9200,"station_id":"","pricing_plan_id":"cebpf4jnsgd1na2vs0mg"},{"bike_id":"bbc2b271-396f-4875-9f1d-0fcc163d87b6","system_id":"levelo_inurba_marseille","lat":43.29062,"lon":5.39911,"is_reserved":false,"is_disabled":false,"rental_uris":{"android":"levelo://app?vid=bbc2b271-396f-4875-9f1d-0fcc163d87b6","ios":"levelo://app?vid=bbc2b271-396f-4875-9f1d-0fcc163d87b6"},"vehicle_type_id":"4","last_reported":1753387866,"current_range_meters":9200,"station_id":"ce4bh392rcd13ifvqdm0","pricing_plan_id":"cebpf4jnsgd1na2vs0mg"},{"bike_id":"f3217e35-0bb5-43ab-beb0-dd5e233a7114","system_id":"levelo_inurba_marseille","lat":43.25578,"lon":5.382244,"is_reserved":false,"is_disabled":true,"rental_uris":{"android":"levelo://app?vid=f3217e35-0bb5-43ab-beb0-dd5e233a7114","ios":"levelo://app?vid=f3217e35-0bb5-43ab-beb0-dd5e233a7114"},"vehicle_type_id":"4","last_reported":1753387866,"current_range_meters":9200,"station_id":"ce4bhih2rcd13ifvqfs0","pricing_plan_id":"cebpf4jnsgd1na2vs0mg"},{"bike_id":"69f4fe3b-1fc8-4e2a-b36b-16d9537ef8ac","system_id":"levelo_inurba_marseille","lat":43.29297,"lon":5.3746,"is_reserved":false,"is_disabled":false,"rental_uris":{"android":"levelo://app?vid=69f4fe3b-1fc8-4e2a-b36b-16d9537ef8ac","ios":"levelo://app?vid=69f4fe3b-1fc8-4e2a-b36b-16d9537ef8ac"},"vehicle_type_id":"4","last_reported":1753387866,"current_range_meters":9600,"station_id":"ce4bgi12rcd13ifvqb70","pricing_plan_id":"cebpf4jnsgd1na2vs0mg"},{"bike_id":"c97be33b-4ce6-48f3-be65-1e868f06e30a","system_id":"levelo_inurba_marseille","lat":43.24545,"lon":5.39522,"is_reserved":false,"is_disabled":false,"rental_uris":{"android":"levelo://app?vid=c97be33b-4ce6-48f3-be65-1e868f06e30a","ios":"levelo://app?vid=c97be33b-4ce6-48f3-be65-1e868f06e30a"},"vehicle_type_id":"4","last_reported":1753387866,"current_range_meters":9600,"station_id":"ce4bhlp2rcd13ifvqgjg","pricing_plan_id":"cebpf4jnsgd1na2vs0mg"},{"bike_id":"7250624a-63df-4e44-9e5a-1056e5f8a90f","system_id":"levelo_inurba_marseille","lat":43.29138,"lon":5.40796,"is_reserved":false,"is_disabled":false,"rental_uris":{"android":"levelo://app?vid=7250624a-63df-4e44-9e5a-1056e5f8a90f","ios":"levelo://app?vid=7250624a-63df-4e44-9e5a-1056e5f8a90f"},"vehicle_type_id":"4","last_reported":1753387866,"current_range_meters":9600,"station_id":"","pricing_plan_id":"cebpf4jnsgd1na2vs0mg"},{"bike_id":"b5ce8d93-17c0-45a5-b2b1-eefce45c2d79","system_id":"levelo_inurba_marseille","lat":43.29261,"lon":5.44608,"is_reserved":false,"is_disabled":false,"rental_uris":{"android":"levelo://app?vid=b5ce8d93-17c0-45a5-b2b1-eefce45c2d79","ios":"levelo://app?vid=b5ce8d93-17c0-45a5-b2b1-eefce45c2d79"},"vehicle_type_id":"4","last_reported":1753387866,"current_range_meters":9600,"station_id":"","pricing_plan_id":"cebpf4jnsgd1na2vs0mg"},{"bike_id":"103f1055-8f09-4334-abab-9f44037f0884","system_id":"levelo_inurba_marseille","lat":43.23193,"lon":5.3555,"is_reserved":false,"is_disabled":true,"rental_uris":{"android":"levelo://app?vid=103f1055-8f09-4334-abab-9f44037f0884","ios":"levelo://app?vid=103f1055-8f09-4334-abab-9f44037f0884"},"vehicle_type_id":"4","last_reported":1753387866,"current_range_meters":9600,"station_id":"ce4bhu92rcd13ifvqi70","pricing_plan_id":"cebpf4jnsgd1na2vs0mg"},{"bike_id":"c05ba594-00fa-4af2-9980-be07fc888b37","system_id":"levelo_inurba_marseille","lat":43.27558,"lon":5.38432,"is_reserved":false,"is_disabled":false,"rental_uris":{"android":"levelo://app?vid=c05ba594-00fa-4af2-9980-be07fc888b37","ios":"levelo://app?vid=c05ba594-00fa-4af2-9980-be07fc888b37"},"vehicle_type_id":"4","last_reported":1753387866,"current_range_meters":9200,"station_id":"ce4bhh92rcd13ifvqfi0","pricing_plan_id":"cebpf4jnsgd1na2vs0mg"},{"bike_id":"1242185d-2b3c-44b4-8f56-bd2cf4041b46","system_id":"levelo_inurba_marseille","lat":43.288545,"lon":5.358527,"is_reserved":false,"is_disabled":false,"rental_uris":{"android":"levelo://app?vid=1242185d-2b3c-44b4-8f56-bd2cf4041b46","ios":"levelo://app?vid=1242185d-2b3c-44b4-8f56-bd2cf4041b46"},"vehicle_type_id":"4","last_reported":1753387866,"current_range_meters":9600,"station_id":"","pricing_plan_id":"cebpf4jnsgd1na2vs0mg"},{"bike_id":"8fc40684-9b2f-4471-90f0-d80318962260","system_id":"levelo_inurba_marseille","lat":43.28576,"lon":5.3776,"is_reserved":false,"is_disabled":false,"rental_uris":{"android":"levelo://app?vid=8fc40684-9b2f-4471-90f0-d80318962260","ios":"levelo://app?vid=8fc40684-9b2f-4471-90f0-d80318962260"},"vehicle_type_id":"4","last_reported":1753387866,"current_range_meters":9600,"station_id":"","pricing_plan_id":"cebpf4jnsgd1na2vs0mg"},{"bike_id":"f9392d6c-b35e-40bc-b1a7-ee8e2382d230","system_id":"levelo_inurba_marseille","lat":43.30551,"lon":5.36692,"is_reserved":false,"is_disabled":true,"rental_uris":{"android":"levelo://app?vid=f9392d6c-b35e-40bc-b1a7-ee8e2382d230","ios":"levelo://app?vid=f9392d6c-b35e-40bc-b1a7-ee8e2382d230"},"vehicle_type_id":"4","last_reported":1753387866,"current_range_meters":9600,"station_id":"ce4bgrp2rcd13ifvqc9g","pricing_plan_id":"cebpf4jnsgd1na2vs0mg"},{"bike_id":"364fd2f2-8de0-49b8-98f8-e4da06d8266d","system_id":"levelo_inurba_marseille","lat":43.3055,"lon":5.36528,"is_reserved":false,"is_disabled":false,"rental_uris":{"android":"levelo://app?vid=364fd2f2-8de0-49b8-98f8-e4da06d8266d","ios":"levelo://app?vid=364fd2f2-8de0-49b8-98f8-e4da06d8266d"},"vehicle_type_id":"4","last_reported":1753387866,"current_range_meters":9600,"station_id":"ce4bgs12rcd13ifvqcag","pricing_plan_id":"cebpf4jnsgd1na2vs0mg"},{"bike_id":"91f8d4d5-04e4-407e-b067-13ce2f3b81fa","system_id":"levelo_inurba_marseille","lat":43.29275,"lon":5.40114,"is_reserved":false,"is_disabled":false,"rental_uris":{"android":"levelo://app?vid=91f8d4d5-04e4-407e-b067-13ce2f3b81fa","ios":"levelo://app?vid=91f8d4d5-04e4-407e-b067-13ce2f3b81fa"},"vehicle_type_id":"4","last_reported":1753387866,"current_range_meters":10000,"station_id":"ce4bh312rcd13ifvqdk0","pricing_plan_id":"cebpf4jnsgd1na2vs0mg"},{"bike_id":"584eeb59-2f98-4790-bf2f-ee49bd5a7915","system_id":"levelo_inurba_marseille","lat":43.29626,"lon":5.38115,"is_reserved":false,"is_disabled":false,"rental_uris":{"android":"levelo://app?vid=584eeb59-2f98-4790-bf2f-ee49bd5a7915","ios":"levelo://app?vid=584eeb59-2f98-4790-bf2f-ee49bd5a7915"},"vehicle_type_id":"4","last_reported":1753387866,"current_range_meters":10000,"station_id":"ce4bgl12rcd13ifvqbo0","pricing_plan_id":"cebpf4jnsgd1na2vs0mg"},{"bike_id":"20b3ac39-d220-4d0b-8848-1b7f328b0525","system_id":"levelo_inurba_marseille","lat":43.2623,"lon":5.40424,"is_reserved":false,"is_disabled":true,"rental_uris":{"android":"levelo://app?vid=20b3ac39-d220-4d0b-8848-1b7f328b0525","ios":"levelo://app?vid=20b3ac39-d220-4d0b-8848-1b7f328b0525"},"vehicle_type_id":"4","last_reported":1753387866,"current_range_meters":10000,"station_id":"ce4bhmh2rcd13ifvqgmg","pricing_plan_id":"cebpf4jnsgd1na2vs0mg"},{"bike_id":"300a4756-01bd-4e0c-90d5-87daadcf6e14","system_id":"levelo_inurba_marseille","lat":43.290972,"lon":5.359105,"is_reserved":false,"is_disabled":true,"rental_uris":{"android":"levelo://app?vid=300a4756-01bd-4e0c-90d5-87daadcf6e14","ios":"levelo://app?vid=300a4756-01bd-4e0c-90d5-87daadcf6e14"},"vehicle_type_id":"4","last_reported":1753387866,"current_range_meters":10000,"station_id":"","pricing_plan_id":"cebpf4jnsgd1na2vs0mg"},{"bike_id":"ae131367-d818-44a0-9e1d-4aa65dcdb16a","system_id":"levelo_inurba_marseille","lat":43.27494,"lon":5.39657,"is_reserved":false,"is_disabled":false,"rental_uris":{"android":"levelo://app?vid=ae131367-d818-44a0-9e1d-4aa65dcdb16a","ios":"levelo://app?vid=ae131367-d818-44a0-9e1d-4aa65dcdb16a"},"vehicle_type_id":"4","last_reported":1753387866,"current_range_meters":10000,"station_id":"","pricing_plan_id":"cebpf4jnsgd1na2vs0mg"},{"bike_id":"109ea003-cc16-47ea-9320-c16704e26812","system_id":"levelo_inurba_marseille","lat":43.29523,"lon":5.39402,"is_reserved":false,"is_disabled":false,"rental_uris":{"android":"levelo://app?vid=109ea003-cc16-47ea-9320-c16704e26812","ios":"levelo://app?vid=109ea003-cc16-47ea-9320-c16704e26812"},"vehicle_type_id":"4","last_reported":1753387866,"current_range_meters":10000,"station_id":"ce4bh292rcd13ifvqdf0","pricing_plan_id":"cebpf4jnsgd1na2vs0mg"},{"bike_id":"63cdae9c-8c30-4640-9063-d57f54967c75","system_id":"levelo_inurba_marseille","lat":43.293,"lon":5.37458,"is_reserved":false,"is_disabled":false,"rental_uris":{"android":"levelo://app?vid=63cdae9c-8c30-4640-9063-d57f54967c75","ios":"levelo://app?vid=63cdae9c-8c30-4640-9063-d57f54967c75"},"vehicle_type_id":"4","last_reported":1753387866,"current_range_meters":10000,"station_id":"ce4bgi12rcd13ifvqb70","pricing_plan_id":"cebpf4jnsgd1na2vs0mg"},{"bike_id":"bf774168-5756-4aef-b5b4-cea176b083fc","system_id":"levelo_inurba_marseille","lat":43.29715,"lon":5.36619,"is_reserved":false,"is_disabled":false,"rental_uris":{"android":"levelo://app?vid=bf774168-5756-4aef-b5b4-cea176b083fc","ios":"levelo://app?vid=bf774168-5756-4aef-b5b4-cea176b083fc"},"vehicle_type_id":"4","last_reported":1753387866,"current_range_meters":10000,"station_id":"ce4bgn12rcd13ifvqbt0","pricing_plan_id":"cebpf4jnsgd1na2vs0mg"},{"bike_id":"2ae83899-90fd-4b59-b691-4169c75aef1a","system_id":"levelo_inurba_marseille","lat":43.33747,"lon":5.37437,"is_reserved":false,"is_disabled":false,"rental_uris":{"android":"levelo://app?vid=2ae83899-90fd-4b59-b691-4169c75aef1a","ios":"levelo://app?vid=2ae83899-90fd-4b59-b691-4169c75aef1a"},"vehicle_type_id":"4","last_reported":1753387866,"current_range_meters":10000,"station_id":"","pricing_plan_id":"cebpf4jnsgd1na2vs0mg"},{"bike_id":"4a73d052-6ddb-4aea-882b-8fc11592dc54","system_id":"levelo_inurba_marseille","lat":43.28579,"lon":5.39483,"is_reserved":false,"is_disabled":false,"rental_uris":{"android":"levelo://app?vid=4a73d052-6ddb-4aea-882b-8fc11592dc54","ios":"levelo://app?vid=4a73d052-6ddb-4aea-882b-8fc11592dc54"},"vehicle_type_id":"4","last_reported":1753387866,"current_range_meters":10000,"station_id":"ce4bh292rcd13ifvqdg0","pricing_plan_id":"cebpf4jnsgd1na2vs0mg"},{"bike_id":"9e604628-bf44-4b75-9b62-320a105527f6","system_id":"levelo_inurba_marseille","lat":43.32362,"lon":5.3676,"is_reserved":false,"is_disabled":false,"rental_uris":{"android":"levelo://app?vid=9e604628-bf44-4b75-9b62-320a105527f6","ios":"levelo://app?vid=9e604628-bf44-4b75-9b62-320a105527f6"},"vehicle_type_id":"4","last_reported":1753387866,"current_range_meters":10000,"station_id":"ce4bhsh2rcd13ifvqi2g","pricing_plan_id":"cebpf4jnsgd1na2vs0mg"},{"bike_id":"c0b74190-1c83-41b8-b72a-fbce5a3210e5","system_id":"levelo_inurba_marseille","lat":43.28694,"lon":5.39977,"is_reserved":false,"is_disabled":false,"rental_uris":{"android":"levelo://app?vid=c0b74190-1c83-41b8-b72a-fbce5a3210e5","ios":"levelo://app?vid=c0b74190-1c83-41b8-b72a-fbce5a3210e5"},"vehicle_type_id":"4","last_reported":1753387866,"current_range_meters":10000,"station_id":"ce4bho92rcd13ifvqh3g","pricing_plan_id":"cebpf4jnsgd1na2vs0mg"},{"bike_id":"7bb4ae9d-7aef-43e4-86f2-1d28530a480b","system_id":"levelo_inurba_marseille","lat":43.31689,"lon":5.40446,"is_reserved":false,"is_disabled":false,"rental_uris":{"android":"levelo://app?vid=7bb4ae9d-7aef-43e4-86f2-1d28530a480b","ios":"levelo://app?vid=7bb4ae9d-7aef-43e4-86f2-1d28530a480b"},"vehicle_type_id":"4","last_reported":1753387866,"current_range_meters":10800,"station_id":"ce4bh012rcd13ifvqd00","pricing_plan_id":"cebpf4jnsgd1na2vs0mg"},{"bike_id":"7ddd7d42-af4a-4740-809b-fd161e360866","system_id":"levelo_inurba_marseille","lat":43.255024,"lon":5.37649,"is_reserved":false,"is_disabled":false,"rental_uris":{"android":"levelo://app?vid=7ddd7d42-af4a-4740-809b-fd161e360866","ios":"levelo://app?vid=7ddd7d42-af4a-4740-809b-fd161e360866"},"vehicle_type_id":"4","last_reported":1753387866,"current_range_meters":10800,"station_id":"ce4bhh12rcd13ifvqff0","pricing_plan_id":"cebpf4jnsgd1na2vs0mg"},{"bike_id":"3cd09fc8-9554-4236-8496-0931a7be09d1","system_id":"levelo_inurba_marseille","lat":43.21189,"lon":5.35092,"is_reserved":false,"is_disabled":false,"rental_uris":{"android":"levelo://app?vid=3cd09fc8-9554-4236-8496-0931a7be09d1","ios":"levelo://app?vid=3cd09fc8-9554-4236-8496-0931a7be09d1"},"vehicle_type_id":"4","last_reported":1753387866,"current_range_meters":10800,"station_id":"st_cvj6sg6p6f1abm77japg","pricing_plan_id":"cebpf4jnsgd1na2vs0mg"},{"bike_id":"cb480ee2-ed3f-424d-ba59-872bdc396a71","system_id":"levelo_inurba_marseille","lat":43.31113,"lon":5.42463,"is_reserved":false,"is_disabled":false,"rental_uris":{"android":"levelo://app?vid=cb480ee2-ed3f-424d-ba59-872bdc396a71","ios":"levelo://app?vid=cb480ee2-ed3f-424d-ba59-872bdc396a71"},"vehicle_type_id":"4","last_reported":1753387866,"current_range_meters":10800,"station_id":"ce4bhp92rcd13ifvqhag","pricing_plan_id":"cebpf4jnsgd1na2vs0mg"},{"bike_id":"a4b946b9-d774-4aa8-a674-ad0eb8d743ec","system_id":"levelo_inurba_marseille","lat":43.29071,"lon":5.37171,"is_reserved":false,"is_disabled":false,"rental_uris":{"android":"levelo://app?vid=a4b946b9-d774-4aa8-a674-ad0eb8d743ec","ios":"levelo://app?vid=a4b946b9-d774-4aa8-a674-ad0eb8d743ec"},"vehicle_type_id":"4","last_reported":1753387866,"current_range_meters":10800,"station_id":"ce4bh5p2rcd13ifvqe4g","pricing_plan_id":"cebpf4jnsgd1na2vs0mg"},{"bike_id":"75921511-23bf-408f-9470-1062209789d6","system_id":"levelo_inurba_marseille","lat":43.25582,"lon":5.38215,"is_reserved":false,"is_disabled":false,"rental_uris":{"android":"levelo://app?vid=75921511-23bf-408f-9470-1062209789d6","ios":"levelo://app?vid=75921511-23bf-408f-9470-1062209789d6"},"vehicle_type_id":"4","last_reported":1753387866,"current_range_meters":11200,"station_id":"ce4bhih2rcd13ifvqfs0","pricing_plan_id":"cebpf4jnsgd1na2vs0mg"},{"bike_id":"c0f2e8f9-eb82-4ce0-9741-2df6b7bb6b45","system_id":"levelo_inurba_marseille","lat":43.250891,"lon":5.395187,"is_reserved":false,"is_disabled":false,"rental_uris":{"android":"levelo://app?vid=c0f2e8f9-eb82-4ce0-9741-2df6b7bb6b45","ios":"levelo://app?vid=c0f2e8f9-eb82-4ce0-9741-2df6b7bb6b45"},"vehicle_type_id":"4","last_reported":1753387866,"current_range_meters":11200,"station_id":"ce4bhm12rcd13ifvqgkg","pricing_plan_id":"cebpf4jnsgd1na2vs0mg"},{"bike_id":"ee41479c-1ed6-47c4-a4bf-bb9bedbbaa54","system_id":"levelo_inurba_marseille","lat":43.23963,"lon":5.36629,"is_reserved":false,"is_disabled":false,"rental_uris":{"android":"levelo://app?vid=ee41479c-1ed6-47c4-a4bf-bb9bedbbaa54","ios":"levelo://app?vid=ee41479c-1ed6-47c4-a4bf-bb9bedbbaa54"},"vehicle_type_id":"4","last_reported":1753387866,"current_range_meters":11200,"station_id":"ce4bhi12rcd13ifvqfp0","pricing_plan_id":"cebpf4jnsgd1na2vs0mg"},{"bike_id":"0836f668-bebb-41e9-a6dd-df53647bdc7f","system_id":"levelo_inurba_marseille","lat":43.25574,"lon":5.38267,"is_reserved":false,"is_disabled":false,"rental_uris":{"android":"levelo://app?vid=0836f668-bebb-41e9-a6dd-df53647bdc7f","ios":"levelo://app?vid=0836f668-bebb-41e9-a6dd-df53647bdc7f"},"vehicle_type_id":"4","last_reported":1753387866,"current_range_meters":11200,"station_id":"ce4bhih2rcd13ifvqfs0","pricing_plan_id":"cebpf4jnsgd1na2vs0mg"},{"bike_id":"5ac85406-65d0-4336-aa89-4b04b2e6689e","system_id":"levelo_inurba_marseille","lat":43.33262,"lon":5.41989,"is_reserved":false,"is_disabled":false,"rental_uris":{"android":"levelo://app?vid=5ac85406-65d0-4336-aa89-4b04b2e6689e","ios":"levelo://app?vid=5ac85406-65d0-4336-aa89-4b04b2e6689e"},"vehicle_type_id":"4","last_reported":1753387866,"current_range_meters":11200,"station_id":"","pricing_plan_id":"cebpf4jnsgd1na2vs0mg"},{"bike_id":"c056311f-78c9-4e18-8685-91c659ddb125","system_id":"levelo_inurba_marseille","lat":43.3161,"lon":5.38975,"is_reserved":false,"is_disabled":false,"rental_uris":{"android":"levelo://app?vid=c056311f-78c9-4e18-8685-91c659ddb125","ios":"levelo://app?vid=c056311f-78c9-4e18-8685-91c659ddb125"},"vehicle_type_id":"4","last_reported":1753387866,"current_range_meters":11200,"station_id":"","pricing_plan_id":"cebpf4jnsgd1na2vs0mg"},{"bike_id":"f49d6556-198a-4347-b854-b09c3f651117","system_id":"levelo_inurba_marseille","lat":43.296818,"lon":5.378979,"is_reserved":false,"is_disabled":false,"rental_uris":{"android":"levelo://app?vid=f49d6556-198a-4347-b854-b09c3f651117","ios":"levelo://app?vid=f49d6556-198a-4347-b854-b09c3f651117"},"vehicle_type_id":"4","last_reported":1753387866,"current_range_meters":11200,"station_id":"ce4bh9p2rcd13ifvqed0","pricing_plan_id":"cebpf4jnsgd1na2vs0mg"},{"bike_id":"2006d6ab-c619-4a15-b9f3-97c1160843f0","system_id":"levelo_inurba_marseille","lat":43.28157,"lon":5.3611,"is_reserved":false,"is_disabled":false,"rental_uris":{"android":"levelo://app?vid=2006d6ab-c619-4a15-b9f3-97c1160843f0","ios":"levelo://app?vid=2006d6ab-c619-4a15-b9f3-97c1160843f0"},"vehicle_type_id":"4","last_reported":1753387866,"current_range_meters":11200,"station_id":"","pricing_plan_id":"cebpf4jnsgd1na2vs0mg"},{"bike_id":"956ca188-06ac-40f1-83e0-de88c2c4bd07","system_id":"levelo_inurba_marseille","lat":43.2928,"lon":5.40117,"is_reserved":false,"is_disabled":false,"rental_uris":{"android":"levelo://app?vid=956ca188-06ac-40f1-83e0-de88c2c4bd07","ios":"levelo://app?vid=956ca188-06ac-40f1-83e0-de88c2c4bd07"},"vehicle_type_id":"4","last_reported":1753387866,"current_range_meters":11600,"station_id":"ce4bh312rcd13ifvqdk0","pricing_plan_id":"cebpf4jnsgd1na2vs0mg"},{"bike_id":"1b346751-150c-4931-bb61-29833d53c125","system_id":"levelo_inurba_marseille","lat":43.23192,"lon":5.3556,"is_reserved":false,"is_disabled":false,"rental_uris":{"android":"levelo://app?vid=1b346751-150c-4931-bb61-29833d53c125","ios":"levelo://app?vid=1b346751-150c-4931-bb61-29833d53c125"},"vehicle_type_id":"4","last_reported":1753387866,"current_range_meters":11600,"station_id":"","pricing_plan_id":"cebpf4jnsgd1na2vs0mg"},{"bike_id":"6bb1f31c-9335-4f39-9585-31374a4775f9","system_id":"levelo_inurba_marseille","lat":43.325583,"lon":5.379059,"is_reserved":false,"is_disabled":false,"rental_uris":{"android":"levelo://app?vid=6bb1f31c-9335-4f39-9585-31374a4775f9","ios":"levelo://app?vid=6bb1f31c-9335-4f39-9585-31374a4775f9"},"vehicle_type_id":"4","last_reported":1753387866,"current_range_meters":11600,"station_id":"","pricing_plan_id":"cebpf4jnsgd1na2vs0mg"},{"bike_id":"90baef95-d8f8-4784-893d-8a0418fdd837","system_id":"levelo_inurba_marseille","lat":43.29532,"lon":5.38541,"is_reserved":false,"is_disabled":false,"rental_uris":{"android":"levelo://app?vid=90baef95-d8f8-4784-893d-8a0418fdd837","ios":"levelo://app?vid=90baef95-d8f8-4784-893d-8a0418fdd837"},"vehicle_type_id":"4","last_reported":1753387866,"current_range_meters":11600,"station_id":"ce4bgih2rcd13ifvqba0","pricing_plan_id":"cebpf4jnsgd1na2vs0mg"},{"bike_id":"18b86593-4f21-41ed-81b3-f3a5b378dc91","system_id":"levelo_inurba_marseille","lat":43.3122,"lon":5.38143,"is_reserved":false,"is_disabled":false,"rental_uris":{"android":"levelo://app?vid=18b86593-4f21-41ed-81b3-f3a5b378dc91","ios":"levelo://app?vid=18b86593-4f21-41ed-81b3-f3a5b378dc91"},"vehicle_type_id":"4","last_reported":1753387866,"current_range_meters":11600,"station_id":"","pricing_plan_id":"cebpf4jnsgd1na2vs0mg"},{"bike_id":"6a95c831-81fc-4eff-8256-834e950cede6","system_id":"levelo_inurba_marseille","lat":43.26559,"lon":5.3729,"is_reserved":false,"is_disabled":false,"rental_uris":{"android":"levelo://app?vid=6a95c831-81fc-4eff-8256-834e950cede6","ios":"levelo://app?vid=6a95c831-81fc-4eff-8256-834e950cede6"},"vehicle_type_id":"4","last_reported":1753387866,"current_range_meters":11600,"station_id":"","pricing_plan_id":"cebpf4jnsgd1na2vs0mg"},{"bike_id":"61669521-2c65-4931-bc2c-4bdfe86f873c","system_id":"levelo_inurba_marseille","lat":43.21753,"lon":5.34613,"is_reserved":false,"is_disabled":false,"rental_uris":{"android":"levelo://app?vid=61669521-2c65-4931-bc2c-4bdfe86f873c","ios":"levelo://app?vid=61669521-2c65-4931-bc2c-4bdfe86f873c"},"vehicle_type_id":"4","last_reported":1753387866,"current_range_meters":11600,"station_id":"","pricing_plan_id":"cebpf4jnsgd1na2vs0mg"},{"bike_id":"d6f40dc1-27da-4a67-8ed3-8cd86d65885d","system_id":"levelo_inurba_marseille","lat":43.29277,"lon":5.40114,"is_reserved":false,"is_disabled":false,"rental_uris":{"android":"levelo://app?vid=d6f40dc1-27da-4a67-8ed3-8cd86d65885d","ios":"levelo://app?vid=d6f40dc1-27da-4a67-8ed3-8cd86d65885d"},"vehicle_type_id":"4","last_reported":1753387866,"current_range_meters":12000,"station_id":"ce4bh312rcd13ifvqdk0","pricing_plan_id":"cebpf4jnsgd1na2vs0mg"},{"bike_id":"f429658b-ba26-4225-a7bb-7528d0248a04","system_id":"levelo_inurba_marseille","lat":43.28577,"lon":5.39512,"is_reserved":false,"is_disabled":false,"rental_uris":{"android":"levelo://app?vid=f429658b-ba26-4225-a7bb-7528d0248a04","ios":"levelo://app?vid=f429658b-ba26-4225-a7bb-7528d0248a04"},"vehicle_type_id":"4","last_reported":1753387866,"current_range_meters":12000,"station_id":"ce4bh292rcd13ifvqdg0","pricing_plan_id":"cebpf4jnsgd1na2vs0mg"},{"bike_id":"6406721e-49dd-48e6-8438-7b71296d350b","system_id":"levelo_inurba_marseille","lat":43.29094,"lon":5.38158,"is_reserved":false,"is_disabled":false,"rental_uris":{"android":"levelo://app?vid=6406721e-49dd-48e6-8438-7b71296d350b","ios":"levelo://app?vid=6406721e-49dd-48e6-8438-7b71296d350b"},"vehicle_type_id":"4","last_reported":1753387866,"current_range_meters":12000,"station_id":"ce4bh512rcd13ifvqe2g","pricing_plan_id":"cebpf4jnsgd1na2vs0mg"},{"bike_id":"3ac9e330-1df6-4fa0-8e3b-17f5d696b48c","system_id":"levelo_inurba_marseille","lat":43.27371,"lon":5.36252,"is_reserved":false,"is_disabled":false,"rental_uris":{"android":"levelo://app?vid=3ac9e330-1df6-4fa0-8e3b-17f5d696b48c","ios":"levelo://app?vid=3ac9e330-1df6-4fa0-8e3b-17f5d696b48c"},"vehicle_type_id":"4","last_reported":1753387866,"current_range_meters":12000,"station_id":"ce4bhbh2rcd13ifvqeo0","pricing_plan_id":"cebpf4jnsgd1na2vs0mg"},{"bike_id":"b57f5444-81ff-4a62-9ea3-1b3feaeafb55","system_id":"levelo_inurba_marseille","lat":43.28326,"lon":5.38098,"is_reserved":false,"is_disabled":true,"rental_uris":{"android":"levelo://app?vid=b57f5444-81ff-4a62-9ea3-1b3feaeafb55","ios":"levelo://app?vid=b57f5444-81ff-4a62-9ea3-1b3feaeafb55"},"vehicle_type_id":"4","last_reported":1753387866,"current_range_meters":12000,"station_id":"ce4bh412rcd13ifvqdr0","pricing_plan_id":"cebpf4jnsgd1na2vs0mg"},{"bike_id":"15764e5c-9dbf-4127-b7d5-4ec1473657e5","system_id":"levelo_inurba_marseille","lat":43.28933,"lon":5.36397,"is_reserved":false,"is_disabled":false,"rental_uris":{"android":"levelo://app?vid=15764e5c-9dbf-4127-b7d5-4ec1473657e5","ios":"levelo://app?vid=15764e5c-9dbf-4127-b7d5-4ec1473657e5"},"vehicle_type_id":"4","last_reported":1753387866,"current_range_meters":12000,"station_id":"ce4bhc92rcd13ifvqetg","pricing_plan_id":"cebpf4jnsgd1na2vs0mg"},{"bike_id":"23676bb6-ebf4-4de2-a907-47cd4c593fa5","system_id":"levelo_inurba_marseille","lat":43.29538,"lon":5.38536,"is_reserved":false,"is_disabled":false,"rental_uris":{"android":"levelo://app?vid=23676bb6-ebf4-4de2-a907-47cd4c593fa5","ios":"levelo://app?vid=23676bb6-ebf4-4de2-a907-47cd4c593fa5"},"vehicle_type_id":"4","last_reported":1753387866,"current_range_meters":12000,"station_id":"ce4bgih2rcd13ifvqba0","pricing_plan_id":"cebpf4jnsgd1na2vs0mg"},{"bike_id":"4672c998-1997-43e5-921f-5a7f3913e2f6","system_id":"levelo_inurba_marseille","lat":43.32656,"lon":5.40997,"is_reserved":false,"is_disabled":false,"rental_uris":{"android":"levelo://app?vid=4672c998-1997-43e5-921f-5a7f3913e2f6","ios":"levelo://app?vid=4672c998-1997-43e5-921f-5a7f3913e2f6"},"vehicle_type_id":"4","last_reported":1753387866,"current_range_meters":12000,"station_id":"ce4bhpp2rcd13ifvqhgg","pricing_plan_id":"cebpf4jnsgd1na2vs0mg"},{"bike_id":"1ad257b5-7f83-42c1-867f-92635ff1abbf","system_id":"levelo_inurba_marseille","lat":43.22939,"lon":5.35377,"is_reserved":false,"is_disabled":false,"rental_uris":{"android":"levelo://app?vid=1ad257b5-7f83-42c1-867f-92635ff1abbf","ios":"levelo://app?vid=1ad257b5-7f83-42c1-867f-92635ff1abbf"},"vehicle_type_id":"4","last_reported":1753387866,"current_range_meters":12000,"station_id":"cpo3532slgdg3j2ikp40","pricing_plan_id":"cebpf4jnsgd1na2vs0mg"},{"bike_id":"f49f9698-952d-4555-909f-1e450fd5b434","system_id":"levelo_inurba_marseille","lat":43.26536,"lon":5.37277,"is_reserved":false,"is_disabled":false,"rental_uris":{"android":"levelo://app?vid=f49f9698-952d-4555-909f-1e450fd5b434","ios":"levelo://app?vid=f49f9698-952d-4555-909f-1e450fd5b434"},"vehicle_type_id":"4","last_reported":1753387866,"current_range_meters":12000,"station_id":"ce4bhg12rcd13ifvqf70","pricing_plan_id":"cebpf4jnsgd1na2vs0mg"},{"bike_id":"b913c24d-ffa7-4a46-9ee5-97549d6a74ee","system_id":"levelo_inurba_marseille","lat":43.26773,"lon":5.39426,"is_reserved":false,"is_disabled":true,"rental_uris":{"android":"levelo://app?vid=b913c24d-ffa7-4a46-9ee5-97549d6a74ee","ios":"levelo://app?vid=b913c24d-ffa7-4a46-9ee5-97549d6a74ee"},"vehicle_type_id":"4","last_reported":1753387866,"current_range_meters":12400,"station_id":"ce4bhh12rcd13ifvqfg0","pricing_plan_id":"cebpf4jnsgd1na2vs0mg"},{"bike_id":"cc5dbab6-22b7-4bf7-83b4-2f2dc7b1ca62","system_id":"levelo_inurba_marseille","lat":43.2512,"lon":5.40319,"is_reserved":false,"is_disabled":false,"rental_uris":{"android":"levelo://app?vid=cc5dbab6-22b7-4bf7-83b4-2f2dc7b1ca62","ios":"levelo://app?vid=cc5dbab6-22b7-4bf7-83b4-2f2dc7b1ca62"},"vehicle_type_id":"4","last_reported":1753387866,"current_range_meters":12400,"station_id":"ce4bhlh2rcd13ifvqgig","pricing_plan_id":"cebpf4jnsgd1na2vs0mg"},{"bike_id":"69376deb-82f3-4aec-bc70-4325df74e423","system_id":"levelo_inurba_marseille","lat":43.24802,"lon":5.37454,"is_reserved":false,"is_disabled":false,"rental_uris":{"android":"levelo://app?vid=69376deb-82f3-4aec-bc70-4325df74e423","ios":"levelo://app?vid=69376deb-82f3-4aec-bc70-4325df74e423"},"vehicle_type_id":"4","last_reported":1753387866,"current_range_meters":12400,"station_id":"ce4bhgh2rcd13ifvqfb0","pricing_plan_id":"cebpf4jnsgd1na2vs0mg"},{"bike_id":"7ae4980d-ac6a-47ed-8d0d-1fa6aeceec9b","system_id":"levelo_inurba_marseille","lat":43.292644,"lon":5.384352,"is_reserved":false,"is_disabled":false,"rental_uris":{"android":"levelo://app?vid=7ae4980d-ac6a-47ed-8d0d-1fa6aeceec9b","ios":"levelo://app?vid=7ae4980d-ac6a-47ed-8d0d-1fa6aeceec9b"},"vehicle_type_id":"4","last_reported":1753387866,"current_range_meters":12400,"station_id":"ce4bh692rcd13ifvqea0","pricing_plan_id":"cebpf4jnsgd1na2vs0mg"},{"bike_id":"17363968-8bd1-4510-8a30-7d5b7dbb3dd7","system_id":"levelo_inurba_marseille","lat":43.28152,"lon":5.42642,"is_reserved":false,"is_disabled":false,"rental_uris":{"android":"levelo://app?vid=17363968-8bd1-4510-8a30-7d5b7dbb3dd7","ios":"levelo://app?vid=17363968-8bd1-4510-8a30-7d5b7dbb3dd7"},"vehicle_type_id":"4","last_reported":1753387866,"current_range_meters":12400,"station_id":"ce4bhnh2rcd13ifvqgug","pricing_plan_id":"cebpf4jnsgd1na2vs0mg"},{"bike_id":"3ec311a9-a32b-4001-91d6-375453161c80","system_id":"levelo_inurba_marseille","lat":43.266,"lon":5.37332,"is_reserved":false,"is_disabled":false,"rental_uris":{"android":"levelo://app?vid=3ec311a9-a32b-4001-91d6-375453161c80","ios":"levelo://app?vid=3ec311a9-a32b-4001-91d6-375453161c80"},"vehicle_type_id":"4","last_reported":1753387866,"current_range_meters":12400,"station_id":"ce4bhg12rcd13ifvqf70","pricing_plan_id":"cebpf4jnsgd1na2vs0mg"},{"bike_id":"6edd5b10-ea79-446b-b5f9-2134477d8cc1","system_id":"levelo_inurba_marseille","lat":43.30227,"lon":5.40084,"is_reserved":false,"is_disabled":false,"rental_uris":{"android":"levelo://app?vid=6edd5b10-ea79-446b-b5f9-2134477d8cc1","ios":"levelo://app?vid=6edd5b10-ea79-446b-b5f9-2134477d8cc1"},"vehicle_type_id":"4","last_reported":1753387866,"current_range_meters":12400,"station_id":"","pricing_plan_id":"cebpf4jnsgd1na2vs0mg"},{"bike_id":"9437277c-d886-4a0b-9535-11724bd91051","system_id":"levelo_inurba_marseille","lat":43.27074,"lon":5.42255,"is_reserved":false,"is_disabled":false,"rental_uris":{"android":"levelo://app?vid=9437277c-d886-4a0b-9535-11724bd91051","ios":"levelo://app?vid=9437277c-d886-4a0b-9535-11724bd91051"},"vehicle_type_id":"4","last_reported":1753387866,"current_range_meters":12400,"station_id":"ce4bhk92rcd13ifvqgb0","pricing_plan_id":"cebpf4jnsgd1na2vs0mg"},{"bike_id":"89a8529e-8879-4124-8039-b907686611bc","system_id":"levelo_inurba_marseille","lat":43.29533,"lon":5.38529,"is_reserved":false,"is_disabled":false,"rental_uris":{"android":"levelo://app?vid=89a8529e-8879-4124-8039-b907686611bc","ios":"levelo://app?vid=89a8529e-8879-4124-8039-b907686611bc"},"vehicle_type_id":"4","last_reported":1753387866,"current_range_meters":12800,"station_id":"ce4bgih2rcd13ifvqba0","pricing_plan_id":"cebpf4jnsgd1na2vs0mg"},{"bike_id":"27dc3ac3-6dca-4d4b-a164-0479bbc3b62f","system_id":"levelo_inurba_marseille","lat":43.30321,"lon":5.36898,"is_reserved":false,"is_disabled":false,"rental_uris":{"android":"levelo://app?vid=27dc3ac3-6dca-4d4b-a164-0479bbc3b62f","ios":"levelo://app?vid=27dc3ac3-6dca-4d4b-a164-0479bbc3b62f"},"vehicle_type_id":"4","last_reported":1753387866,"current_range_meters":12800,"station_id":"ce4bgqh2rcd13ifvqc5g","pricing_plan_id":"cebpf4jnsgd1na2vs0mg"},{"bike_id":"a5ec0df8-a141-453d-bf18-19268a53af5b","system_id":"levelo_inurba_marseille","lat":43.28111,"lon":5.4278,"is_reserved":false,"is_disabled":false,"rental_uris":{"android":"levelo://app?vid=a5ec0df8-a141-453d-bf18-19268a53af5b","ios":"levelo://app?vid=a5ec0df8-a141-453d-bf18-19268a53af5b"},"vehicle_type_id":"4","last_reported":1753387866,"current_range_meters":12800,"station_id":"","pricing_plan_id":"cebpf4jnsgd1na2vs0mg"},{"bike_id":"46e5b704-0f49-498f-92f3-b52af67ca47c","system_id":"levelo_inurba_marseille","lat":43.29623,"lon":5.38106,"is_reserved":false,"is_disabled":false,"rental_uris":{"android":"levelo://app?vid=46e5b704-0f49-498f-92f3-b52af67ca47c","ios":"levelo://app?vid=46e5b704-0f49-498f-92f3-b52af67ca47c"},"vehicle_type_id":"4","last_reported":1753387866,"current_range_meters":12800,"station_id":"ce4bgl12rcd13ifvqbo0","pricing_plan_id":"cebpf4jnsgd1na2vs0mg"},{"bike_id":"5b60f57d-b8df-45b1-a77e-1a26de4cd1e1","system_id":"levelo_inurba_marseille","lat":43.30797,"lon":5.37659,"is_reserved":false,"is_disabled":false,"rental_uris":{"android":"levelo://app?vid=5b60f57d-b8df-45b1-a77e-1a26de4cd1e1","ios":"levelo://app?vid=5b60f57d-b8df-45b1-a77e-1a26de4cd1e1"},"vehicle_type_id":"4","last_reported":1753387866,"current_range_meters":12800,"station_id":"ce4bgv92rcd13ifvqcq0","pricing_plan_id":"cebpf4jnsgd1na2vs0mg"},{"bike_id":"3bebb7c7-3de2-4cc9-867e-5f7515d17bec","system_id":"levelo_inurba_marseille","lat":43.296967,"lon":5.36606,"is_reserved":false,"is_disabled":true,"rental_uris":{"android":"levelo://app?vid=3bebb7c7-3de2-4cc9-867e-5f7515d17bec","ios":"levelo://app?vid=3bebb7c7-3de2-4cc9-867e-5f7515d17bec"},"vehicle_type_id":"4","last_reported":1753387866,"current_range_meters":12800,"station_id":"ce4bgn12rcd13ifvqbt0","pricing_plan_id":"cebpf4jnsgd1na2vs0mg"},{"bike_id":"c5145a51-2e33-441d-8065-b00c5a15bad7","system_id":"levelo_inurba_marseille","lat":43.29623,"lon":5.38092,"is_reserved":false,"is_disabled":false,"rental_uris":{"android":"levelo://app?vid=c5145a51-2e33-441d-8065-b00c5a15bad7","ios":"levelo://app?vid=c5145a51-2e33-441d-8065-b00c5a15bad7"},"vehicle_type_id":"4","last_reported":1753387866,"current_range_meters":13600,"station_id":"ce4bgl12rcd13ifvqbo0","pricing_plan_id":"cebpf4jnsgd1na2vs0mg"},{"bike_id":"4de9a30f-2408-4636-a906-9f9a9345ca1b","system_id":"levelo_inurba_marseille","lat":43.273726,"lon":5.36245,"is_reserved":false,"is_disabled":false,"rental_uris":{"android":"levelo://app?vid=4de9a30f-2408-4636-a906-9f9a9345ca1b","ios":"levelo://app?vid=4de9a30f-2408-4636-a906-9f9a9345ca1b"},"vehicle_type_id":"4","last_reported":1753387866,"current_range_meters":13600,"station_id":"ce4bhbh2rcd13ifvqeo0","pricing_plan_id":"cebpf4jnsgd1na2vs0mg"},{"bike_id":"c23937bb-008e-4c5d-b23c-7dc93b4bea4c","system_id":"levelo_inurba_marseille","lat":43.29872,"lon":5.39737,"is_reserved":false,"is_disabled":false,"rental_uris":{"android":"levelo://app?vid=c23937bb-008e-4c5d-b23c-7dc93b4bea4c","ios":"levelo://app?vid=c23937bb-008e-4c5d-b23c-7dc93b4bea4c"},"vehicle_type_id":"4","last_reported":1753387866,"current_range_meters":13600,"station_id":"ce4bh0h2rcd13ifvqd50","pricing_plan_id":"cebpf4jnsgd1na2vs0mg"},{"bike_id":"5f824980-27aa-4ef2-856d-b766bebead8a","system_id":"levelo_inurba_marseille","lat":43.22489,"lon":5.34813,"is_reserved":false,"is_disabled":false,"rental_uris":{"android":"levelo://app?vid=5f824980-27aa-4ef2-856d-b766bebead8a","ios":"levelo://app?vid=5f824980-27aa-4ef2-856d-b766bebead8a"},"vehicle_type_id":"4","last_reported":1753387866,"current_range_meters":13600,"station_id":"st_cvj5dfep6f1abm77gieg","pricing_plan_id":"cebpf4jnsgd1na2vs0mg"},{"bike_id":"3f94cca8-8ca9-4713-8017-eed8acb78034","system_id":"levelo_inurba_marseille","lat":43.24169,"lon":5.36393,"is_reserved":false,"is_disabled":false,"rental_uris":{"android":"levelo://app?vid=3f94cca8-8ca9-4713-8017-eed8acb78034","ios":"levelo://app?vid=3f94cca8-8ca9-4713-8017-eed8acb78034"},"vehicle_type_id":"4","last_reported":1753387866,"current_range_meters":13600,"station_id":"cpo36qri1sfpv3e86is0","pricing_plan_id":"cebpf4jnsgd1na2vs0mg"},{"bike_id":"cc172e54-006d-4cd4-aeef-7efa6df29fa6","system_id":"levelo_inurba_marseille","lat":43.30135,"lon":5.38775,"is_reserved":false,"is_disabled":false,"rental_uris":{"android":"levelo://app?vid=cc172e54-006d-4cd4-aeef-7efa6df29fa6","ios":"levelo://app?vid=cc172e54-006d-4cd4-aeef-7efa6df29fa6"},"vehicle_type_id":"4","last_reported":1753387866,"current_range_meters":13600,"station_id":"ce4bghh2rcd13ifvqb60","pricing_plan_id":"cebpf4jnsgd1na2vs0mg"},{"bike_id":"de993af1-8c6e-4fcd-aa11-3cbf2991a890","system_id":"levelo_inurba_marseille","lat":43.23192,"lon":5.35543,"is_reserved":false,"is_disabled":false,"rental_uris":{"android":"levelo://app?vid=de993af1-8c6e-4fcd-aa11-3cbf2991a890","ios":"levelo://app?vid=de993af1-8c6e-4fcd-aa11-3cbf2991a890"},"vehicle_type_id":"4","last_reported":1753387866,"current_range_meters":13600,"station_id":"ce4bhu92rcd13ifvqi70","pricing_plan_id":"cebpf4jnsgd1na2vs0mg"},{"bike_id":"90714519-d1d3-4ec1-99ae-4a1b7c5775db","system_id":"levelo_inurba_marseille","lat":43.25107,"lon":5.40327,"is_reserved":false,"is_disabled":false,"rental_uris":{"android":"levelo://app?vid=90714519-d1d3-4ec1-99ae-4a1b7c5775db","ios":"levelo://app?vid=90714519-d1d3-4ec1-99ae-4a1b7c5775db"},"vehicle_type_id":"4","last_reported":1753387866,"current_range_meters":14000,"station_id":"ce4bhlh2rcd13ifvqgig","pricing_plan_id":"cebpf4jnsgd1na2vs0mg"},{"bike_id":"8f1e00a7-0fba-4955-8012-26682fe532a6","system_id":"levelo_inurba_marseille","lat":43.29265,"lon":5.38434,"is_reserved":false,"is_disabled":false,"rental_uris":{"android":"levelo://app?vid=8f1e00a7-0fba-4955-8012-26682fe532a6","ios":"levelo://app?vid=8f1e00a7-0fba-4955-8012-26682fe532a6"},"vehicle_type_id":"4","last_reported":1753387866,"current_range_meters":14000,"station_id":"ce4bh692rcd13ifvqea0","pricing_plan_id":"cebpf4jnsgd1na2vs0mg"},{"bike_id":"35a86048-76dd-4de0-afb2-7da8772fad44","system_id":"levelo_inurba_marseille","lat":43.21536,"lon":5.34765,"is_reserved":false,"is_disabled":false,"rental_uris":{"android":"levelo://app?vid=35a86048-76dd-4de0-afb2-7da8772fad44","ios":"levelo://app?vid=35a86048-76dd-4de0-afb2-7da8772fad44"},"vehicle_type_id":"4","last_reported":1753387866,"current_range_meters":14000,"station_id":"","pricing_plan_id":"cebpf4jnsgd1na2vs0mg"},{"bike_id":"4234b945-889a-4433-9afa-0fc44e3fe457","system_id":"levelo_inurba_marseille","lat":43.299644,"lon":5.384903,"is_reserved":false,"is_disabled":false,"rental_uris":{"android":"levelo://app?vid=4234b945-889a-4433-9afa-0fc44e3fe457","ios":"levelo://app?vid=4234b945-889a-4433-9afa-0fc44e3fe457"},"vehicle_type_id":"4","last_reported":1753387866,"current_range_meters":14000,"station_id":"ce4bgj92rcd13ifvqbd0","pricing_plan_id":"cebpf4jnsgd1na2vs0mg"},{"bike_id":"629a8c5a-969c-4341-8268-ff1cd308a1c9","system_id":"levelo_inurba_marseille","lat":43.25817,"lon":5.39425,"is_reserved":false,"is_disabled":false,"rental_uris":{"android":"levelo://app?vid=629a8c5a-969c-4341-8268-ff1cd308a1c9","ios":"levelo://app?vid=629a8c5a-969c-4341-8268-ff1cd308a1c9"},"vehicle_type_id":"4","last_reported":1753387866,"current_range_meters":14400,"station_id":"ce4bhip2rcd13ifvqft0","pricing_plan_id":"cebpf4jnsgd1na2vs0mg"},{"bike_id":"14e3ef8e-2649-4e46-a7af-e3534e8c8749","system_id":"levelo_inurba_marseille","lat":43.268022,"lon":5.402654,"is_reserved":false,"is_disabled":false,"rental_uris":{"android":"levelo://app?vid=14e3ef8e-2649-4e46-a7af-e3534e8c8749","ios":"levelo://app?vid=14e3ef8e-2649-4e46-a7af-e3534e8c8749"},"vehicle_type_id":"4","last_reported":1753387866,"current_range_meters":14400,"station_id":"ce501612rcd8frsf0b60","pricing_plan_id":"cebpf4jnsgd1na2vs0mg"},{"bike_id":"eaea15aa-98ae-4f78-b37a-80e2e4524837","system_id":"levelo_inurba_marseille","lat":43.297916,"lon":5.381026,"is_reserved":false,"is_disabled":false,"rental_uris":{"android":"levelo://app?vid=eaea15aa-98ae-4f78-b37a-80e2e4524837","ios":"levelo://app?vid=eaea15aa-98ae-4f78-b37a-80e2e4524837"},"vehicle_type_id":"4","last_reported":1753387866,"current_range_meters":14400,"station_id":"","pricing_plan_id":"cebpf4jnsgd1na2vs0mg"},{"bike_id":"f7f07796-c7c9-4a74-80e9-fb85744448b8","system_id":"levelo_inurba_marseille","lat":43.22929,"lon":5.35383,"is_reserved":false,"is_disabled":false,"rental_uris":{"android":"levelo://app?vid=f7f07796-c7c9-4a74-80e9-fb85744448b8","ios":"levelo://app?vid=f7f07796-c7c9-4a74-80e9-fb85744448b8"},"vehicle_type_id":"4","last_reported":1753387866,"current_range_meters":14400,"station_id":"cpo3532slgdg3j2ikp40","pricing_plan_id":"cebpf4jnsgd1na2vs0mg"},{"bike_id":"8ec965d1-09d7-4663-a986-051ebcbee4a1","system_id":"levelo_inurba_marseille","lat":43.29272,"lon":5.38451,"is_reserved":false,"is_disabled":false,"rental_uris":{"android":"levelo://app?vid=8ec965d1-09d7-4663-a986-051ebcbee4a1","ios":"levelo://app?vid=8ec965d1-09d7-4663-a986-051ebcbee4a1"},"vehicle_type_id":"4","last_reported":1753387866,"current_range_meters":14400,"station_id":"ce4bh692rcd13ifvqea0","pricing_plan_id":"cebpf4jnsgd1na2vs0mg"},{"bike_id":"ad25e224-b15c-4949-92a3-53289b1bd1fb","system_id":"levelo_inurba_marseille","lat":43.28748,"lon":5.38504,"is_reserved":false,"is_disabled":false,"rental_uris":{"android":"levelo://app?vid=ad25e224-b15c-4949-92a3-53289b1bd1fb","ios":"levelo://app?vid=ad25e224-b15c-4949-92a3-53289b1bd1fb"},"vehicle_type_id":"4","last_reported":1753387866,"current_range_meters":14400,"station_id":"","pricing_plan_id":"cebpf4jnsgd1na2vs0mg"},{"bike_id":"8e6b50fb-58a0-4a77-9a6d-d5949613765a","system_id":"levelo_inurba_marseille","lat":43.29536,"lon":5.3854,"is_reserved":false,"is_disabled":false,"rental_uris":{"android":"levelo://app?vid=8e6b50fb-58a0-4a77-9a6d-d5949613765a","ios":"levelo://app?vid=8e6b50fb-58a0-4a77-9a6d-d5949613765a"},"vehicle_type_id":"4","last_reported":1753387866,"current_range_meters":14400,"station_id":"ce4bgih2rcd13ifvqba0","pricing_plan_id":"cebpf4jnsgd1na2vs0mg"},{"bike_id":"27b5acbc-b1fd-4385-9be5-bae49e9e4f6a","system_id":"levelo_inurba_marseille","lat":43.24809,"lon":5.37461,"is_reserved":false,"is_disabled":false,"rental_uris":{"android":"levelo://app?vid=27b5acbc-b1fd-4385-9be5-bae49e9e4f6a","ios":"levelo://app?vid=27b5acbc-b1fd-4385-9be5-bae49e9e4f6a"},"vehicle_type_id":"4","last_reported":1753387866,"current_range_meters":14400,"station_id":"ce4bhgh2rcd13ifvqfb0","pricing_plan_id":"cebpf4jnsgd1na2vs0mg"},{"bike_id":"fbda76a5-068e-4d90-b9ba-25721acd9298","system_id":"levelo_inurba_marseille","lat":43.29033,"lon":5.43966,"is_reserved":false,"is_disabled":false,"rental_uris":{"android":"levelo://app?vid=fbda76a5-068e-4d90-b9ba-25721acd9298","ios":"levelo://app?vid=fbda76a5-068e-4d90-b9ba-25721acd9298"},"vehicle_type_id":"4","last_reported":1753387866,"current_range_meters":14800,"station_id":"","pricing_plan_id":"cebpf4jnsgd1na2vs0mg"},{"bike_id":"cd46d7a3-2aff-40e0-9e50-73919cfa0e11","system_id":"levelo_inurba_marseille","lat":43.273617,"lon":5.362379,"is_reserved":false,"is_disabled":false,"rental_uris":{"android":"levelo://app?vid=cd46d7a3-2aff-40e0-9e50-73919cfa0e11","ios":"levelo://app?vid=cd46d7a3-2aff-40e0-9e50-73919cfa0e11"},"vehicle_type_id":"4","last_reported":1753387866,"current_range_meters":14800,"station_id":"ce4bhbh2rcd13ifvqeo0","pricing_plan_id":"cebpf4jnsgd1na2vs0mg"},{"bike_id":"fe3027f2-fb8e-45d1-8b65-66612f6c9347","system_id":"levelo_inurba_marseille","lat":43.30324,"lon":5.40432,"is_reserved":false,"is_disabled":false,"rental_uris":{"android":"levelo://app?vid=fe3027f2-fb8e-45d1-8b65-66612f6c9347","ios":"levelo://app?vid=fe3027f2-fb8e-45d1-8b65-66612f6c9347"},"vehicle_type_id":"4","last_reported":1753387866,"current_range_meters":14800,"station_id":"ce4bh012rcd13ifvqd10","pricing_plan_id":"cebpf4jnsgd1na2vs0mg"},{"bike_id":"fb843cf4-8244-4ff0-a94c-910b99913b83","system_id":"levelo_inurba_marseille","lat":43.26555,"lon":5.37284,"is_reserved":false,"is_disabled":false,"rental_uris":{"android":"levelo://app?vid=fb843cf4-8244-4ff0-a94c-910b99913b83","ios":"levelo://app?vid=fb843cf4-8244-4ff0-a94c-910b99913b83"},"vehicle_type_id":"4","last_reported":1753387866,"current_range_meters":14800,"station_id":"ce4bhg12rcd13ifvqf70","pricing_plan_id":"cebpf4jnsgd1na2vs0mg"},{"bike_id":"de2d40b7-8650-4386-b97c-d3e02fabfca2","system_id":"levelo_inurba_marseille","lat":43.30892,"lon":5.37189,"is_reserved":false,"is_disabled":false,"rental_uris":{"android":"levelo://app?vid=de2d40b7-8650-4386-b97c-d3e02fabfca2","ios":"levelo://app?vid=de2d40b7-8650-4386-b97c-d3e02fabfca2"},"vehicle_type_id":"4","last_reported":1753387866,"current_range_meters":14400,"station_id":"ce4bguh2rcd13ifvqckg","pricing_plan_id":"cebpf4jnsgd1na2vs0mg"},{"bike_id":"b7fbbd5d-d745-4d16-bb3e-afa01b4cd517","system_id":"levelo_inurba_marseille","lat":43.31171,"lon":5.38715,"is_reserved":false,"is_disabled":false,"rental_uris":{"android":"levelo://app?vid=b7fbbd5d-d745-4d16-bb3e-afa01b4cd517","ios":"levelo://app?vid=b7fbbd5d-d745-4d16-bb3e-afa01b4cd517"},"vehicle_type_id":"4","last_reported":1753387866,"current_range_meters":14800,"station_id":"ce4bgv12rcd13ifvqcp0","pricing_plan_id":"cebpf4jnsgd1na2vs0mg"},{"bike_id":"3bbe661b-090d-492c-a06c-4150d5afc5d0","system_id":"levelo_inurba_marseille","lat":43.33019,"lon":5.39052,"is_reserved":false,"is_disabled":false,"rental_uris":{"android":"levelo://app?vid=3bbe661b-090d-492c-a06c-4150d5afc5d0","ios":"levelo://app?vid=3bbe661b-090d-492c-a06c-4150d5afc5d0"},"vehicle_type_id":"4","last_reported":1753387866,"current_range_meters":14800,"station_id":"ce4bhr92rcd13ifvqhrg","pricing_plan_id":"cebpf4jnsgd1na2vs0mg"},{"bike_id":"f7f2157f-effd-43ab-80cb-e8fe0ec86a59","system_id":"levelo_inurba_marseille","lat":43.29548,"lon":5.38544,"is_reserved":false,"is_disabled":false,"rental_uris":{"android":"levelo://app?vid=f7f2157f-effd-43ab-80cb-e8fe0ec86a59","ios":"levelo://app?vid=f7f2157f-effd-43ab-80cb-e8fe0ec86a59"},"vehicle_type_id":"4","last_reported":1753387866,"current_range_meters":14800,"station_id":"ce4bgih2rcd13ifvqba0","pricing_plan_id":"cebpf4jnsgd1na2vs0mg"},{"bike_id":"df52031d-f6ba-4af3-a318-cddaa787b97a","system_id":"levelo_inurba_marseille","lat":43.27057,"lon":5.40278,"is_reserved":false,"is_disabled":false,"rental_uris":{"android":"levelo://app?vid=df52031d-f6ba-4af3-a318-cddaa787b97a","ios":"levelo://app?vid=df52031d-f6ba-4af3-a318-cddaa787b97a"},"vehicle_type_id":"4","last_reported":1753387866,"current_range_meters":14800,"station_id":"ce4bhk92rcd13ifvqgc0","pricing_plan_id":"cebpf4jnsgd1na2vs0mg"},{"bike_id":"0aebb1ba-a085-44cd-a9bb-701f968678b2","system_id":"levelo_inurba_marseille","lat":43.28928,"lon":5.36628,"is_reserved":false,"is_disabled":false,"rental_uris":{"android":"levelo://app?vid=0aebb1ba-a085-44cd-a9bb-701f968678b2","ios":"levelo://app?vid=0aebb1ba-a085-44cd-a9bb-701f968678b2"},"vehicle_type_id":"4","last_reported":1753387866,"current_range_meters":14800,"station_id":"ce4bhap2rcd13ifvqek0","pricing_plan_id":"cebpf4jnsgd1na2vs0mg"},{"bike_id":"1f39eb17-34c7-4235-9069-0f68f613789c","system_id":"levelo_inurba_marseille","lat":43.26886,"lon":5.36871,"is_reserved":false,"is_disabled":false,"rental_uris":{"android":"levelo://app?vid=1f39eb17-34c7-4235-9069-0f68f613789c","ios":"levelo://app?vid=1f39eb17-34c7-4235-9069-0f68f613789c"},"vehicle_type_id":"4","last_reported":1753387866,"current_range_meters":15200,"station_id":"","pricing_plan_id":"cebpf4jnsgd1na2vs0mg"},{"bike_id":"cf776233-7766-4109-aadc-a0d3c334d400","system_id":"levelo_inurba_marseille","lat":43.24062,"lon":5.37762,"is_reserved":false,"is_disabled":false,"rental_uris":{"android":"levelo://app?vid=cf776233-7766-4109-aadc-a0d3c334d400","ios":"levelo://app?vid=cf776233-7766-4109-aadc-a0d3c334d400"},"vehicle_type_id":"4","last_reported":1753387866,"current_range_meters":15200,"station_id":"ce4bhnp2rcd13ifvqgvg","pricing_plan_id":"cebpf4jnsgd1na2vs0mg"},{"bike_id":"0328ec12-5a05-4c30-bd25-27f5ce8bb3b4","system_id":"levelo_inurba_marseille","lat":43.31072,"lon":5.40092,"is_reserved":false,"is_disabled":false,"rental_uris":{"android":"levelo://app?vid=0328ec12-5a05-4c30-bd25-27f5ce8bb3b4","ios":"levelo://app?vid=0328ec12-5a05-4c30-bd25-27f5ce8bb3b4"},"vehicle_type_id":"4","last_reported":1753387866,"current_range_meters":15200,"station_id":"","pricing_plan_id":"cebpf4jnsgd1na2vs0mg"},{"bike_id":"8358fb6d-6a6e-4322-96bb-a6e709c59903","system_id":"levelo_inurba_marseille","lat":43.29535,"lon":5.38541,"is_reserved":false,"is_disabled":false,"rental_uris":{"android":"levelo://app?vid=8358fb6d-6a6e-4322-96bb-a6e709c59903","ios":"levelo://app?vid=8358fb6d-6a6e-4322-96bb-a6e709c59903"},"vehicle_type_id":"4","last_reported":1753387866,"current_range_meters":15200,"station_id":"ce4bgih2rcd13ifvqba0","pricing_plan_id":"cebpf4jnsgd1na2vs0mg"},{"bike_id":"a302e6db-894f-4644-8978-8a77289dc3cb","system_id":"levelo_inurba_marseille","lat":43.2835,"lon":5.38099,"is_reserved":false,"is_disabled":false,"rental_uris":{"android":"levelo://app?vid=a302e6db-894f-4644-8978-8a77289dc3cb","ios":"levelo://app?vid=a302e6db-894f-4644-8978-8a77289dc3cb"},"vehicle_type_id":"4","last_reported":1753387866,"current_range_meters":15200,"station_id":"ce4bh412rcd13ifvqdr0","pricing_plan_id":"cebpf4jnsgd1na2vs0mg"},{"bike_id":"0aa2d153-96d1-4d69-83b8-d39119aa9dd5","system_id":"levelo_inurba_marseille","lat":43.33523,"lon":5.36229,"is_reserved":false,"is_disabled":false,"rental_uris":{"android":"levelo://app?vid=0aa2d153-96d1-4d69-83b8-d39119aa9dd5","ios":"levelo://app?vid=0aa2d153-96d1-4d69-83b8-d39119aa9dd5"},"vehicle_type_id":"4","last_reported":1753387866,"current_range_meters":15200,"station_id":"","pricing_plan_id":"cebpf4jnsgd1na2vs0mg"},{"bike_id":"d40c33a9-f40e-45aa-b3fa-af49177afd3d","system_id":"levelo_inurba_marseille","lat":43.26208,"lon":5.37452,"is_reserved":false,"is_disabled":false,"rental_uris":{"android":"levelo://app?vid=d40c33a9-f40e-45aa-b3fa-af49177afd3d","ios":"levelo://app?vid=d40c33a9-f40e-45aa-b3fa-af49177afd3d"},"vehicle_type_id":"4","last_reported":1753387866,"current_range_meters":16000,"station_id":"ce4bhgp2rcd13ifvqfc0","pricing_plan_id":"cebpf4jnsgd1na2vs0mg"},{"bike_id":"f0ec3f2b-99d6-4143-b9d2-f44852809e36","system_id":"levelo_inurba_marseille","lat":43.25115,"lon":5.40315,"is_reserved":false,"is_disabled":false,"rental_uris":{"android":"levelo://app?vid=f0ec3f2b-99d6-4143-b9d2-f44852809e36","ios":"levelo://app?vid=f0ec3f2b-99d6-4143-b9d2-f44852809e36"},"vehicle_type_id":"4","last_reported":1753387866,"current_range_meters":16000,"station_id":"ce4bhlh2rcd13ifvqgig","pricing_plan_id":"cebpf4jnsgd1na2vs0mg"},{"bike_id":"7f5018cc-9b53-42cc-a46e-56d3b1cb092f","system_id":"levelo_inurba_marseille","lat":43.22933,"lon":5.35369,"is_reserved":false,"is_disabled":false,"rental_uris":{"android":"levelo://app?vid=7f5018cc-9b53-42cc-a46e-56d3b1cb092f","ios":"levelo://app?vid=7f5018cc-9b53-42cc-a46e-56d3b1cb092f"},"vehicle_type_id":"4","last_reported":1753387866,"current_range_meters":16000,"station_id":"cpo3532slgdg3j2ikp40","pricing_plan_id":"cebpf4jnsgd1na2vs0mg"},{"bike_id":"d8ab8225-ebfc-48f1-9981-f15e3b9960ea","system_id":"levelo_inurba_marseille","lat":43.22924,"lon":5.35371,"is_reserved":false,"is_disabled":false,"rental_uris":{"android":"levelo://app?vid=d8ab8225-ebfc-48f1-9981-f15e3b9960ea","ios":"levelo://app?vid=d8ab8225-ebfc-48f1-9981-f15e3b9960ea"},"vehicle_type_id":"4","last_reported":1753387866,"current_range_meters":16000,"station_id":"cpo3532slgdg3j2ikp40","pricing_plan_id":"cebpf4jnsgd1na2vs0mg"},{"bike_id":"3a5f7c4e-1705-4e19-9588-77c71d36fcdf","system_id":"levelo_inurba_marseille","lat":43.29307,"lon":5.36328,"is_reserved":false,"is_disabled":false,"rental_uris":{"android":"levelo://app?vid=3a5f7c4e-1705-4e19-9588-77c71d36fcdf","ios":"levelo://app?vid=3a5f7c4e-1705-4e19-9588-77c71d36fcdf"},"vehicle_type_id":"4","last_reported":1753387866,"current_range_meters":16000,"station_id":"","pricing_plan_id":"cebpf4jnsgd1na2vs0mg"},{"bike_id":"481351de-e3d5-4a6f-aa67-c1762e7ed223","system_id":"levelo_inurba_marseille","lat":43.27071,"lon":5.42276,"is_reserved":false,"is_disabled":false,"rental_uris":{"android":"levelo://app?vid=481351de-e3d5-4a6f-aa67-c1762e7ed223","ios":"levelo://app?vid=481351de-e3d5-4a6f-aa67-c1762e7ed223"},"vehicle_type_id":"4","last_reported":1753387866,"current_range_meters":16000,"station_id":"ce4bhk92rcd13ifvqgb0","pricing_plan_id":"cebpf4jnsgd1na2vs0mg"},{"bike_id":"622af20d-224f-4b3c-b0c8-986465e7da29","system_id":"levelo_inurba_marseille","lat":43.28848,"lon":5.3587,"is_reserved":false,"is_disabled":false,"rental_uris":{"android":"levelo://app?vid=622af20d-224f-4b3c-b0c8-986465e7da29","ios":"levelo://app?vid=622af20d-224f-4b3c-b0c8-986465e7da29"},"vehicle_type_id":"4","last_reported":1753387866,"current_range_meters":16000,"station_id":"ce4bhb12rcd13ifvqem0","pricing_plan_id":"cebpf4jnsgd1na2vs0mg"},{"bike_id":"0a7e2862-d8ec-4c77-89d9-cfcdd51f8d75","system_id":"levelo_inurba_marseille","lat":43.31872,"lon":5.37373,"is_reserved":false,"is_disabled":false,"rental_uris":{"android":"levelo://app?vid=0a7e2862-d8ec-4c77-89d9-cfcdd51f8d75","ios":"levelo://app?vid=0a7e2862-d8ec-4c77-89d9-cfcdd51f8d75"},"vehicle_type_id":"4","last_reported":1753387866,"current_range_meters":16000,"station_id":"","pricing_plan_id":"cebpf4jnsgd1na2vs0mg"},{"bike_id":"84e141b4-2db0-441f-ab31-ac4042288d14","system_id":"levelo_inurba_marseille","lat":43.28484,"lon":5.38408,"is_reserved":false,"is_disabled":false,"rental_uris":{"android":"levelo://app?vid=84e141b4-2db0-441f-ab31-ac4042288d14","ios":"levelo://app?vid=84e141b4-2db0-441f-ab31-ac4042288d14"},"vehicle_type_id":"4","last_reported":1753387866,"current_range_meters":16000,"station_id":"ce4bh512rcd13ifvqe3g","pricing_plan_id":"cebpf4jnsgd1na2vs0mg"},{"bike_id":"dbc65b2c-0a62-459e-b0da-b5053b63dedd","system_id":"levelo_inurba_marseille","lat":43.29253,"lon":5.38441,"is_reserved":false,"is_disabled":false,"rental_uris":{"android":"levelo://app?vid=dbc65b2c-0a62-459e-b0da-b5053b63dedd","ios":"levelo://app?vid=dbc65b2c-0a62-459e-b0da-b5053b63dedd"},"vehicle_type_id":"4","last_reported":1753387866,"current_range_meters":16400,"station_id":"ce4bh692rcd13ifvqea0","pricing_plan_id":"cebpf4jnsgd1na2vs0mg"},{"bike_id":"39156e71-4562-4a50-9545-0953cce2fef7","system_id":"levelo_inurba_marseille","lat":43.29881,"lon":5.36271,"is_reserved":false,"is_disabled":false,"rental_uris":{"android":"levelo://app?vid=39156e71-4562-4a50-9545-0953cce2fef7","ios":"levelo://app?vid=39156e71-4562-4a50-9545-0953cce2fef7"},"vehicle_type_id":"4","last_reported":1753387866,"current_range_meters":16400,"station_id":"ce4bgpp2rcd13ifvqc3g","pricing_plan_id":"cebpf4jnsgd1na2vs0mg"},{"bike_id":"ce193c8e-90e0-4599-95e2-d02b7d163b03","system_id":"levelo_inurba_marseille","lat":43.24084,"lon":5.37762,"is_reserved":false,"is_disabled":false,"rental_uris":{"android":"levelo://app?vid=ce193c8e-90e0-4599-95e2-d02b7d163b03","ios":"levelo://app?vid=ce193c8e-90e0-4599-95e2-d02b7d163b03"},"vehicle_type_id":"4","last_reported":1753387866,"current_range_meters":16400,"station_id":"ce4bhnp2rcd13ifvqgvg","pricing_plan_id":"cebpf4jnsgd1na2vs0mg"},{"bike_id":"91137914-8536-46f1-ba13-d0f49da2d7d7","system_id":"levelo_inurba_marseille","lat":43.29256,"lon":5.38445,"is_reserved":false,"is_disabled":false,"rental_uris":{"android":"levelo://app?vid=91137914-8536-46f1-ba13-d0f49da2d7d7","ios":"levelo://app?vid=91137914-8536-46f1-ba13-d0f49da2d7d7"},"vehicle_type_id":"4","last_reported":1753387866,"current_range_meters":16400,"station_id":"ce4bh692rcd13ifvqea0","pricing_plan_id":"cebpf4jnsgd1na2vs0mg"},{"bike_id":"ac96d0d2-7b82-4352-9804-df694e7d34c5","system_id":"levelo_inurba_marseille","lat":43.30953,"lon":5.3903,"is_reserved":false,"is_disabled":false,"rental_uris":{"android":"levelo://app?vid=ac96d0d2-7b82-4352-9804-df694e7d34c5","ios":"levelo://app?vid=ac96d0d2-7b82-4352-9804-df694e7d34c5"},"vehicle_type_id":"4","last_reported":1753387866,"current_range_meters":16400,"station_id":"ce4bgup2rcd13ifvqco0","pricing_plan_id":"cebpf4jnsgd1na2vs0mg"},{"bike_id":"9a112995-f59e-4d73-b589-2b99cfbc717d","system_id":"levelo_inurba_marseille","lat":43.311198,"lon":5.377603,"is_reserved":false,"is_disabled":false,"rental_uris":{"android":"levelo://app?vid=9a112995-f59e-4d73-b589-2b99cfbc717d","ios":"levelo://app?vid=9a112995-f59e-4d73-b589-2b99cfbc717d"},"vehicle_type_id":"4","last_reported":1753387866,"current_range_meters":16400,"station_id":"ce4bgt92rcd13ifvqcg0","pricing_plan_id":"cebpf4jnsgd1na2vs0mg"},{"bike_id":"1bad41f4-2220-48a2-9d56-f732121985af","system_id":"levelo_inurba_marseille","lat":43.31306,"lon":5.43113,"is_reserved":false,"is_disabled":false,"rental_uris":{"android":"levelo://app?vid=1bad41f4-2220-48a2-9d56-f732121985af","ios":"levelo://app?vid=1bad41f4-2220-48a2-9d56-f732121985af"},"vehicle_type_id":"4","last_reported":1753387866,"current_range_meters":16400,"station_id":"","pricing_plan_id":"cebpf4jnsgd1na2vs0mg"},{"bike_id":"ffab4a34-82e9-461f-8967-2ccafce68b3b","system_id":"levelo_inurba_marseille","lat":43.265431,"lon":5.373112,"is_reserved":false,"is_disabled":false,"rental_uris":{"android":"levelo://app?vid=ffab4a34-82e9-461f-8967-2ccafce68b3b","ios":"levelo://app?vid=ffab4a34-82e9-461f-8967-2ccafce68b3b"},"vehicle_type_id":"4","last_reported":1753387866,"current_range_meters":16400,"station_id":"ce4bhg12rcd13ifvqf70","pricing_plan_id":"cebpf4jnsgd1na2vs0mg"},{"bike_id":"668d3622-317d-4af1-bbd6-1f8c2bb0f9b0","system_id":"levelo_inurba_marseille","lat":43.28941,"lon":5.36625,"is_reserved":false,"is_disabled":false,"rental_uris":{"android":"levelo://app?vid=668d3622-317d-4af1-bbd6-1f8c2bb0f9b0","ios":"levelo://app?vid=668d3622-317d-4af1-bbd6-1f8c2bb0f9b0"},"vehicle_type_id":"4","last_reported":1753387866,"current_range_meters":16400,"station_id":"ce4bhap2rcd13ifvqek0","pricing_plan_id":"cebpf4jnsgd1na2vs0mg"},{"bike_id":"c20c96f2-90a9-4543-8fef-80806115a862","system_id":"levelo_inurba_marseille","lat":43.30114,"lon":5.38775,"is_reserved":false,"is_disabled":false,"rental_uris":{"android":"levelo://app?vid=c20c96f2-90a9-4543-8fef-80806115a862","ios":"levelo://app?vid=c20c96f2-90a9-4543-8fef-80806115a862"},"vehicle_type_id":"4","last_reported":1753387866,"current_range_meters":16400,"station_id":"ce4bghh2rcd13ifvqb60","pricing_plan_id":"cebpf4jnsgd1na2vs0mg"},{"bike_id":"46db254f-c41e-438b-802d-5d0ab7133624","system_id":"levelo_inurba_marseille","lat":43.30796,"lon":5.38152,"is_reserved":false,"is_disabled":false,"rental_uris":{"android":"levelo://app?vid=46db254f-c41e-438b-802d-5d0ab7133624","ios":"levelo://app?vid=46db254f-c41e-438b-802d-5d0ab7133624"},"vehicle_type_id":"4","last_reported":1753387866,"current_range_meters":16400,"station_id":"ce4bgt12rcd13ifvqce0","pricing_plan_id":"cebpf4jnsgd1na2vs0mg"},{"bike_id":"eee05789-f787-4601-865f-9112c2e8e323","system_id":"levelo_inurba_marseille","lat":43.296463,"lon":5.371835,"is_reserved":false,"is_disabled":false,"rental_uris":{"android":"levelo://app?vid=eee05789-f787-4601-865f-9112c2e8e323","ios":"levelo://app?vid=eee05789-f787-4601-865f-9112c2e8e323"},"vehicle_type_id":"4","last_reported":1753387866,"current_range_meters":16800,"station_id":"ce4bgnh2rcd13ifvqc0g","pricing_plan_id":"cebpf4jnsgd1na2vs0mg"},{"bike_id":"3edd833f-0d3f-4b2c-af71-d0f31b0f462c","system_id":"levelo_inurba_marseille","lat":43.284505,"lon":5.392017,"is_reserved":false,"is_disabled":false,"rental_uris":{"android":"levelo://app?vid=3edd833f-0d3f-4b2c-af71-d0f31b0f462c","ios":"levelo://app?vid=3edd833f-0d3f-4b2c-af71-d0f31b0f462c"},"vehicle_type_id":"4","last_reported":1753387866,"current_range_meters":16800,"station_id":"ce4bhoh2rcd13ifvqh5g","pricing_plan_id":"cebpf4jnsgd1na2vs0mg"},{"bike_id":"31950a22-06e6-4fd7-947e-ed0356e9a53f","system_id":"levelo_inurba_marseille","lat":43.24216,"lon":5.39733,"is_reserved":false,"is_disabled":false,"rental_uris":{"android":"levelo://app?vid=31950a22-06e6-4fd7-947e-ed0356e9a53f","ios":"levelo://app?vid=31950a22-06e6-4fd7-947e-ed0356e9a53f"},"vehicle_type_id":"4","last_reported":1753387866,"current_range_meters":16800,"station_id":"ce4bhn12rcd13ifvqgpg","pricing_plan_id":"cebpf4jnsgd1na2vs0mg"},{"bike_id":"261d4bb0-7bb9-4c80-93f3-cd6f68b7285e","system_id":"levelo_inurba_marseille","lat":43.31479,"lon":5.36937,"is_reserved":false,"is_disabled":false,"rental_uris":{"android":"levelo://app?vid=261d4bb0-7bb9-4c80-93f3-cd6f68b7285e","ios":"levelo://app?vid=261d4bb0-7bb9-4c80-93f3-cd6f68b7285e"},"vehicle_type_id":"4","last_reported":1753387866,"current_range_meters":16800,"station_id":"","pricing_plan_id":"cebpf4jnsgd1na2vs0mg"},{"bike_id":"76c2176d-20df-4c0c-846f-d109f0e6f041","system_id":"levelo_inurba_marseille","lat":43.28406,"lon":5.37515,"is_reserved":false,"is_disabled":false,"rental_uris":{"android":"levelo://app?vid=76c2176d-20df-4c0c-846f-d109f0e6f041","ios":"levelo://app?vid=76c2176d-20df-4c0c-846f-d109f0e6f041"},"vehicle_type_id":"4","last_reported":1753387866,"current_range_meters":16800,"station_id":"ce4bh412rcd13ifvqds0","pricing_plan_id":"cebpf4jnsgd1na2vs0mg"},{"bike_id":"9ea56ab2-ac76-40e9-a300-419720468605","system_id":"levelo_inurba_marseille","lat":43.24656,"lon":5.38891,"is_reserved":false,"is_disabled":false,"rental_uris":{"android":"levelo://app?vid=9ea56ab2-ac76-40e9-a300-419720468605","ios":"levelo://app?vid=9ea56ab2-ac76-40e9-a300-419720468605"},"vehicle_type_id":"4","last_reported":1753387866,"current_range_meters":16800,"station_id":"ce4bhg12rcd13ifvqf60","pricing_plan_id":"cebpf4jnsgd1na2vs0mg"},{"bike_id":"4959794a-4e9d-4f48-84e6-f53723e5c259","system_id":"levelo_inurba_marseille","lat":43.29068,"lon":5.37169,"is_reserved":false,"is_disabled":false,"rental_uris":{"android":"levelo://app?vid=4959794a-4e9d-4f48-84e6-f53723e5c259","ios":"levelo://app?vid=4959794a-4e9d-4f48-84e6-f53723e5c259"},"vehicle_type_id":"4","last_reported":1753387866,"current_range_meters":16800,"station_id":"ce4bh5p2rcd13ifvqe4g","pricing_plan_id":"cebpf4jnsgd1na2vs0mg"},{"bike_id":"ad7f924d-5443-4b14-80c3-fdbe71f8752e","system_id":"levelo_inurba_marseille","lat":43.26101,"lon":5.37285,"is_reserved":false,"is_disabled":false,"rental_uris":{"android":"levelo://app?vid=ad7f924d-5443-4b14-80c3-fdbe71f8752e","ios":"levelo://app?vid=ad7f924d-5443-4b14-80c3-fdbe71f8752e"},"vehicle_type_id":"4","last_reported":1753387866,"current_range_meters":16800,"station_id":"","pricing_plan_id":"cebpf4jnsgd1na2vs0mg"},{"bike_id":"f2ca3887-7e82-498b-8c49-e80cd18a3051","system_id":"levelo_inurba_marseille","lat":43.23961,"lon":5.36634,"is_reserved":false,"is_disabled":false,"rental_uris":{"android":"levelo://app?vid=f2ca3887-7e82-498b-8c49-e80cd18a3051","ios":"levelo://app?vid=f2ca3887-7e82-498b-8c49-e80cd18a3051"},"vehicle_type_id":"4","last_reported":1753387866,"current_range_meters":17200,"station_id":"ce4bhi12rcd13ifvqfp0","pricing_plan_id":"cebpf4jnsgd1na2vs0mg"},{"bike_id":"68ff37db-f69c-4eca-a371-ec0103a26d9b","system_id":"levelo_inurba_marseille","lat":43.31327,"lon":5.39685,"is_reserved":false,"is_disabled":false,"rental_uris":{"android":"levelo://app?vid=68ff37db-f69c-4eca-a371-ec0103a26d9b","ios":"levelo://app?vid=68ff37db-f69c-4eca-a371-ec0103a26d9b"},"vehicle_type_id":"4","last_reported":1753387866,"current_range_meters":17200,"station_id":"ce4bgvp2rcd13ifvqcu0","pricing_plan_id":"cebpf4jnsgd1na2vs0mg"},{"bike_id":"da6539e7-9a4d-4c84-938b-c14932fed786","system_id":"levelo_inurba_marseille","lat":43.296207,"lon":5.371623,"is_reserved":false,"is_disabled":false,"rental_uris":{"android":"levelo://app?vid=da6539e7-9a4d-4c84-938b-c14932fed786","ios":"levelo://app?vid=da6539e7-9a4d-4c84-938b-c14932fed786"},"vehicle_type_id":"4","last_reported":1753387866,"current_range_meters":17200,"station_id":"ce4bgnh2rcd13ifvqc0g","pricing_plan_id":"cebpf4jnsgd1na2vs0mg"},{"bike_id":"4b0ad43b-20c1-498f-9206-5725091397e9","system_id":"levelo_inurba_marseille","lat":43.2756,"lon":5.38427,"is_reserved":false,"is_disabled":false,"rental_uris":{"android":"levelo://app?vid=4b0ad43b-20c1-498f-9206-5725091397e9","ios":"levelo://app?vid=4b0ad43b-20c1-498f-9206-5725091397e9"},"vehicle_type_id":"4","last_reported":1753387866,"current_range_meters":17200,"station_id":"ce4bhh92rcd13ifvqfi0","pricing_plan_id":"cebpf4jnsgd1na2vs0mg"},{"bike_id":"39d5d8c8-01b0-4a59-91a6-074cb7825aee","system_id":"levelo_inurba_marseille","lat":43.29045,"lon":5.37146,"is_reserved":false,"is_disabled":false,"rental_uris":{"android":"levelo://app?vid=39d5d8c8-01b0-4a59-91a6-074cb7825aee","ios":"levelo://app?vid=39d5d8c8-01b0-4a59-91a6-074cb7825aee"},"vehicle_type_id":"4","last_reported":1753387866,"current_range_meters":17200,"station_id":"ce4bh5p2rcd13ifvqe4g","pricing_plan_id":"cebpf4jnsgd1na2vs0mg"},{"bike_id":"c6f5c883-ec34-4331-9400-187ad9737b75","system_id":"levelo_inurba_marseille","lat":43.29528,"lon":5.38539,"is_reserved":false,"is_disabled":false,"rental_uris":{"android":"levelo://app?vid=c6f5c883-ec34-4331-9400-187ad9737b75","ios":"levelo://app?vid=c6f5c883-ec34-4331-9400-187ad9737b75"},"vehicle_type_id":"4","last_reported":1753387866,"current_range_meters":17200,"station_id":"ce4bgih2rcd13ifvqba0","pricing_plan_id":"cebpf4jnsgd1na2vs0mg"},{"bike_id":"1e9cf983-3afc-4620-a4d4-2dd094704fd1","system_id":"levelo_inurba_marseille","lat":43.22501,"lon":5.34774,"is_reserved":false,"is_disabled":false,"rental_uris":{"android":"levelo://app?vid=1e9cf983-3afc-4620-a4d4-2dd094704fd1","ios":"levelo://app?vid=1e9cf983-3afc-4620-a4d4-2dd094704fd1"},"vehicle_type_id":"4","last_reported":1753387866,"current_range_meters":17200,"station_id":"st_cvj5dfep6f1abm77gieg","pricing_plan_id":"cebpf4jnsgd1na2vs0mg"},{"bike_id":"81214a4c-aec9-4439-9ab4-8d3754022513","system_id":"levelo_inurba_marseille","lat":43.23191,"lon":5.35556,"is_reserved":false,"is_disabled":true,"rental_uris":{"android":"levelo://app?vid=81214a4c-aec9-4439-9ab4-8d3754022513","ios":"levelo://app?vid=81214a4c-aec9-4439-9ab4-8d3754022513"},"vehicle_type_id":"4","last_reported":1753387866,"current_range_meters":17200,"station_id":"ce4bhu92rcd13ifvqi70","pricing_plan_id":"cebpf4jnsgd1na2vs0mg"},{"bike_id":"a4bd8a96-2bb9-4e62-b563-4fd33a52cd04","system_id":"levelo_inurba_marseille","lat":43.28851,"lon":5.35863,"is_reserved":false,"is_disabled":false,"rental_uris":{"android":"levelo://app?vid=a4bd8a96-2bb9-4e62-b563-4fd33a52cd04","ios":"levelo://app?vid=a4bd8a96-2bb9-4e62-b563-4fd33a52cd04"},"vehicle_type_id":"4","last_reported":1753387866,"current_range_meters":17200,"station_id":"ce4bhb12rcd13ifvqem0","pricing_plan_id":"cebpf4jnsgd1na2vs0mg"},{"bike_id":"d2c1d56d-6a3a-4ae3-b7ab-84022ad7ad84","system_id":"levelo_inurba_marseille","lat":43.29766,"lon":5.37708,"is_reserved":false,"is_disabled":false,"rental_uris":{"android":"levelo://app?vid=d2c1d56d-6a3a-4ae3-b7ab-84022ad7ad84","ios":"levelo://app?vid=d2c1d56d-6a3a-4ae3-b7ab-84022ad7ad84"},"vehicle_type_id":"4","last_reported":1753387866,"current_range_meters":17200,"station_id":"","pricing_plan_id":"cebpf4jnsgd1na2vs0mg"},{"bike_id":"cee10a10-187e-4ed0-bb82-a39b38395646","system_id":"levelo_inurba_marseille","lat":43.24817,"lon":5.37466,"is_reserved":false,"is_disabled":false,"rental_uris":{"android":"levelo://app?vid=cee10a10-187e-4ed0-bb82-a39b38395646","ios":"levelo://app?vid=cee10a10-187e-4ed0-bb82-a39b38395646"},"vehicle_type_id":"4","last_reported":1753387866,"current_range_meters":17600,"station_id":"ce4bhgh2rcd13ifvqfb0","pricing_plan_id":"cebpf4jnsgd1na2vs0mg"},{"bike_id":"21c9e1d5-025f-4658-aa85-7738499e33cb","system_id":"levelo_inurba_marseille","lat":43.29529,"lon":5.38555,"is_reserved":false,"is_disabled":false,"rental_uris":{"android":"levelo://app?vid=21c9e1d5-025f-4658-aa85-7738499e33cb","ios":"levelo://app?vid=21c9e1d5-025f-4658-aa85-7738499e33cb"},"vehicle_type_id":"4","last_reported":1753387866,"current_range_meters":17600,"station_id":"ce4bgih2rcd13ifvqba0","pricing_plan_id":"cebpf4jnsgd1na2vs0mg"},{"bike_id":"21bb3fef-81ef-46bb-a48d-d85402757c94","system_id":"levelo_inurba_marseille","lat":43.25439,"lon":5.37991,"is_reserved":false,"is_disabled":false,"rental_uris":{"android":"levelo://app?vid=21bb3fef-81ef-46bb-a48d-d85402757c94","ios":"levelo://app?vid=21bb3fef-81ef-46bb-a48d-d85402757c94"},"vehicle_type_id":"4","last_reported":1753387866,"current_range_meters":17600,"station_id":"","pricing_plan_id":"cebpf4jnsgd1na2vs0mg"},{"bike_id":"37a6bccb-0b1e-436a-be3a-4e6d618dc372","system_id":"levelo_inurba_marseille","lat":43.29534,"lon":5.38541,"is_reserved":false,"is_disabled":false,"rental_uris":{"android":"levelo://app?vid=37a6bccb-0b1e-436a-be3a-4e6d618dc372","ios":"levelo://app?vid=37a6bccb-0b1e-436a-be3a-4e6d618dc372"},"vehicle_type_id":"4","last_reported":1753387866,"current_range_meters":17600,"station_id":"ce4bgih2rcd13ifvqba0","pricing_plan_id":"cebpf4jnsgd1na2vs0mg"},{"bike_id":"dddbef83-b47e-460f-a4ac-beade05833f1","system_id":"levelo_inurba_marseille","lat":43.22947,"lon":5.35376,"is_reserved":false,"is_disabled":false,"rental_uris":{"android":"levelo://app?vid=dddbef83-b47e-460f-a4ac-beade05833f1","ios":"levelo://app?vid=dddbef83-b47e-460f-a4ac-beade05833f1"},"vehicle_type_id":"4","last_reported":1753387866,"current_range_meters":17600,"station_id":"cpo3532slgdg3j2ikp40","pricing_plan_id":"cebpf4jnsgd1na2vs0mg"},{"bike_id":"771fe00f-0e39-4812-b27e-7cab0c32ff41","system_id":"levelo_inurba_marseille","lat":43.295443,"lon":5.385117,"is_reserved":false,"is_disabled":false,"rental_uris":{"android":"levelo://app?vid=771fe00f-0e39-4812-b27e-7cab0c32ff41","ios":"levelo://app?vid=771fe00f-0e39-4812-b27e-7cab0c32ff41"},"vehicle_type_id":"4","last_reported":1753387866,"current_range_meters":17600,"station_id":"ce4bgih2rcd13ifvqba0","pricing_plan_id":"cebpf4jnsgd1na2vs0mg"},{"bike_id":"557011e9-d7bf-414b-870b-c050c63145f5","system_id":"levelo_inurba_marseille","lat":43.3107,"lon":5.38362,"is_reserved":false,"is_disabled":false,"rental_uris":{"android":"levelo://app?vid=557011e9-d7bf-414b-870b-c050c63145f5","ios":"levelo://app?vid=557011e9-d7bf-414b-870b-c050c63145f5"},"vehicle_type_id":"4","last_reported":1753387866,"current_range_meters":17600,"station_id":"ce4bgv92rcd13ifvqcr0","pricing_plan_id":"cebpf4jnsgd1na2vs0mg"},{"bike_id":"801db1e4-c98f-4264-885d-cbbe47da06a0","system_id":"levelo_inurba_marseille","lat":43.29262,"lon":5.38443,"is_reserved":false,"is_disabled":false,"rental_uris":{"android":"levelo://app?vid=801db1e4-c98f-4264-885d-cbbe47da06a0","ios":"levelo://app?vid=801db1e4-c98f-4264-885d-cbbe47da06a0"},"vehicle_type_id":"4","last_reported":1753387866,"current_range_meters":17600,"station_id":"ce4bh692rcd13ifvqea0","pricing_plan_id":"cebpf4jnsgd1na2vs0mg"},{"bike_id":"2ae6f27f-8a5f-4732-ae20-383aa4fbd29f","system_id":"levelo_inurba_marseille","lat":43.29533,"lon":5.38544,"is_reserved":false,"is_disabled":false,"rental_uris":{"android":"levelo://app?vid=2ae6f27f-8a5f-4732-ae20-383aa4fbd29f","ios":"levelo://app?vid=2ae6f27f-8a5f-4732-ae20-383aa4fbd29f"},"vehicle_type_id":"4","last_reported":1753387866,"current_range_meters":17600,"station_id":"ce4bgih2rcd13ifvqba0","pricing_plan_id":"cebpf4jnsgd1na2vs0mg"},{"bike_id":"a7742abf-ead4-402b-a427-c8cbc9c3c6ef","system_id":"levelo_inurba_marseille","lat":43.29243,"lon":5.3686,"is_reserved":false,"is_disabled":false,"rental_uris":{"android":"levelo://app?vid=a7742abf-ead4-402b-a427-c8cbc9c3c6ef","ios":"levelo://app?vid=a7742abf-ead4-402b-a427-c8cbc9c3c6ef"},"vehicle_type_id":"4","last_reported":1753387866,"current_range_meters":18000,"station_id":"ce4bhbp2rcd13ifvqesg","pricing_plan_id":"cebpf4jnsgd1na2vs0mg"},{"bike_id":"edc8ad2e-05c4-4008-9bfd-f0869ed643c3","system_id":"levelo_inurba_marseille","lat":43.292689,"lon":5.384312,"is_reserved":false,"is_disabled":false,"rental_uris":{"android":"levelo://app?vid=edc8ad2e-05c4-4008-9bfd-f0869ed643c3","ios":"levelo://app?vid=edc8ad2e-05c4-4008-9bfd-f0869ed643c3"},"vehicle_type_id":"4","last_reported":1753387866,"current_range_meters":18000,"station_id":"ce4bh692rcd13ifvqea0","pricing_plan_id":"cebpf4jnsgd1na2vs0mg"},{"bike_id":"2f225cf7-5390-445c-80ee-8cd1dfe3b172","system_id":"levelo_inurba_marseille","lat":43.29257,"lon":5.38435,"is_reserved":false,"is_disabled":false,"rental_uris":{"android":"levelo://app?vid=2f225cf7-5390-445c-80ee-8cd1dfe3b172","ios":"levelo://app?vid=2f225cf7-5390-445c-80ee-8cd1dfe3b172"},"vehicle_type_id":"4","last_reported":1753387866,"current_range_meters":18000,"station_id":"ce4bh692rcd13ifvqea0","pricing_plan_id":"cebpf4jnsgd1na2vs0mg"},{"bike_id":"37b9389e-258d-465b-a007-f58e3e55dc20","system_id":"levelo_inurba_marseille","lat":43.28854,"lon":5.35856,"is_reserved":false,"is_disabled":false,"rental_uris":{"android":"levelo://app?vid=37b9389e-258d-465b-a007-f58e3e55dc20","ios":"levelo://app?vid=37b9389e-258d-465b-a007-f58e3e55dc20"},"vehicle_type_id":"4","last_reported":1753387866,"current_range_meters":18000,"station_id":"ce4bhb12rcd13ifvqem0","pricing_plan_id":"cebpf4jnsgd1na2vs0mg"},{"bike_id":"e4eef487-ea06-4102-957d-4cda667bc267","system_id":"levelo_inurba_marseille","lat":43.26215,"lon":5.37444,"is_reserved":false,"is_disabled":false,"rental_uris":{"android":"levelo://app?vid=e4eef487-ea06-4102-957d-4cda667bc267","ios":"levelo://app?vid=e4eef487-ea06-4102-957d-4cda667bc267"},"vehicle_type_id":"4","last_reported":1753387866,"current_range_meters":18000,"station_id":"ce4bhgp2rcd13ifvqfc0","pricing_plan_id":"cebpf4jnsgd1na2vs0mg"},{"bike_id":"cf321470-3422-4864-a2b3-8e56e10e4f67","system_id":"levelo_inurba_marseille","lat":43.2737,"lon":5.36264,"is_reserved":false,"is_disabled":false,"rental_uris":{"android":"levelo://app?vid=cf321470-3422-4864-a2b3-8e56e10e4f67","ios":"levelo://app?vid=cf321470-3422-4864-a2b3-8e56e10e4f67"},"vehicle_type_id":"4","last_reported":1753387866,"current_range_meters":18000,"station_id":"ce4bhbh2rcd13ifvqeo0","pricing_plan_id":"cebpf4jnsgd1na2vs0mg"},{"bike_id":"4aa97969-2f6e-4edb-a09f-12d31a04a044","system_id":"levelo_inurba_marseille","lat":43.30788,"lon":5.37671,"is_reserved":false,"is_disabled":false,"rental_uris":{"android":"levelo://app?vid=4aa97969-2f6e-4edb-a09f-12d31a04a044","ios":"levelo://app?vid=4aa97969-2f6e-4edb-a09f-12d31a04a044"},"vehicle_type_id":"4","last_reported":1753387866,"current_range_meters":18000,"station_id":"ce4bgv92rcd13ifvqcq0","pricing_plan_id":"cebpf4jnsgd1na2vs0mg"},{"bike_id":"a46484a7-6b72-4d9e-bdb6-1e4526e97228","system_id":"levelo_inurba_marseille","lat":43.291666,"lon":5.371588,"is_reserved":false,"is_disabled":false,"rental_uris":{"android":"levelo://app?vid=a46484a7-6b72-4d9e-bdb6-1e4526e97228","ios":"levelo://app?vid=a46484a7-6b72-4d9e-bdb6-1e4526e97228"},"vehicle_type_id":"4","last_reported":1753387866,"current_range_meters":18000,"station_id":"ce4bha92rcd13ifvqeh0","pricing_plan_id":"cebpf4jnsgd1na2vs0mg"},{"bike_id":"29f648dd-1ad3-4a78-afd4-9c55d2914c57","system_id":"levelo_inurba_marseille","lat":43.30877,"lon":5.37187,"is_reserved":false,"is_disabled":false,"rental_uris":{"android":"levelo://app?vid=29f648dd-1ad3-4a78-afd4-9c55d2914c57","ios":"levelo://app?vid=29f648dd-1ad3-4a78-afd4-9c55d2914c57"},"vehicle_type_id":"4","last_reported":1753387866,"current_range_meters":18000,"station_id":"ce4bguh2rcd13ifvqckg","pricing_plan_id":"cebpf4jnsgd1na2vs0mg"},{"bike_id":"4c913d98-85a7-416d-b1bc-6bcbe612b630","system_id":"levelo_inurba_marseille","lat":43.301287,"lon":5.387671,"is_reserved":false,"is_disabled":false,"rental_uris":{"android":"levelo://app?vid=4c913d98-85a7-416d-b1bc-6bcbe612b630","ios":"levelo://app?vid=4c913d98-85a7-416d-b1bc-6bcbe612b630"},"vehicle_type_id":"4","last_reported":1753387866,"current_range_meters":18000,"station_id":"ce4bghh2rcd13ifvqb60","pricing_plan_id":"cebpf4jnsgd1na2vs0mg"},{"bike_id":"6b4ebec4-52b1-484d-b344-50b095939dd7","system_id":"levelo_inurba_marseille","lat":43.28723,"lon":5.36076,"is_reserved":false,"is_disabled":false,"rental_uris":{"android":"levelo://app?vid=6b4ebec4-52b1-484d-b344-50b095939dd7","ios":"levelo://app?vid=6b4ebec4-52b1-484d-b344-50b095939dd7"},"vehicle_type_id":"4","last_reported":1753387866,"current_range_meters":18000,"station_id":"cki0cbj6b192h4jlfktg","pricing_plan_id":"cebpf4jnsgd1na2vs0mg"},{"bike_id":"514125a9-9b35-457d-bb0a-0580c7005cf5","system_id":"levelo_inurba_marseille","lat":43.2559,"lon":5.38247,"is_reserved":false,"is_disabled":false,"rental_uris":{"android":"levelo://app?vid=514125a9-9b35-457d-bb0a-0580c7005cf5","ios":"levelo://app?vid=514125a9-9b35-457d-bb0a-0580c7005cf5"},"vehicle_type_id":"4","last_reported":1753387866,"current_range_meters":18000,"station_id":"ce4bhih2rcd13ifvqfs0","pricing_plan_id":"cebpf4jnsgd1na2vs0mg"},{"bike_id":"fd13a871-6a7c-45ab-8193-0aedb29a36fc","system_id":"levelo_inurba_marseille","lat":43.26554,"lon":5.3729,"is_reserved":false,"is_disabled":false,"rental_uris":{"android":"levelo://app?vid=fd13a871-6a7c-45ab-8193-0aedb29a36fc","ios":"levelo://app?vid=fd13a871-6a7c-45ab-8193-0aedb29a36fc"},"vehicle_type_id":"4","last_reported":1753387866,"current_range_meters":18800,"station_id":"ce4bhg12rcd13ifvqf70","pricing_plan_id":"cebpf4jnsgd1na2vs0mg"},{"bike_id":"f2c1cc68-66ae-448d-8763-030629ea502f","system_id":"levelo_inurba_marseille","lat":43.26696,"lon":5.40297,"is_reserved":false,"is_disabled":true,"rental_uris":{"android":"levelo://app?vid=f2c1cc68-66ae-448d-8763-030629ea502f","ios":"levelo://app?vid=f2c1cc68-66ae-448d-8763-030629ea502f"},"vehicle_type_id":"4","last_reported":1753387866,"current_range_meters":18800,"station_id":"","pricing_plan_id":"cebpf4jnsgd1na2vs0mg"},{"bike_id":"d57ac6cf-a62b-4ea9-8237-c412f25d156d","system_id":"levelo_inurba_marseille","lat":43.26021,"lon":5.37545,"is_reserved":false,"is_disabled":false,"rental_uris":{"android":"levelo://app?vid=d57ac6cf-a62b-4ea9-8237-c412f25d156d","ios":"levelo://app?vid=d57ac6cf-a62b-4ea9-8237-c412f25d156d"},"vehicle_type_id":"4","last_reported":1753387866,"current_range_meters":18800,"station_id":"ce4bhgh2rcd13ifvqfa0","pricing_plan_id":"cebpf4jnsgd1na2vs0mg"},