{"last_updated":1726160885,"ttl":30,"version":"2.2","data":{"bikes":[{"bike_id":"2ca2fd52-6283-4397-ac7e-8db28b0c8f78","system_id":"levelo_inurba_marseille","lat":43.23199,"lon":5.35555,"is_reserved":false,"is_disabled":false,"rental_uris":{"android":"levelo://app?vid=2ca2fd52-6283-4397-ac7e-8db28b0c8f78","ios":"levelo://app?vid=2ca2fd52-6283-4397-ac7e-8db28b0c8f78"},"vehicle_type_id":"4","last_reported":1726160886,"current_range_meters":16800,"station_id":"ce4bhu92rcd13ifvqi70","pricing_plan_id":"cebpf4jnsgd1na2vs0mg"},{"bike_id":"9b633d55-16bf-493b-aaf9-bf563c4bdace","system_id":"levelo_inurba_marseille","lat":43.28458,"lon":5.35908,"is_reserved":false,"is_disabled":false,"rental_uris":{"android":"levelo://app?vid=9b633d55-16bf-493b-aaf9-bf563c4bdace","ios":"levelo://app?vid=9b633d55-16bf-493b-aaf9-bf563c4bdace"},"vehicle_type_id":"4","last_reported":1726160886,"current_range_meters":29600,"station_id":"ce4bhah2rcd13ifvqei0","pricing_plan_id":"cebpf4jnsgd1na2vs0mg"},{"bike_id":"ac2132fa-da37-4f2a-8856-41d88b9ed44b","system_id":"levelo_inurba_marseille","lat":43.27331,"lon":5.39071,"is_reserved":false,"is_disabled":false,"rental_uris":{"android":"levelo://app?vid=ac2132fa-da37-4f2a-8856-41d88b9ed44b","ios":"levelo://app?vid=ac2132fa-da37-4f2a-8856-41d88b9ed44b"},"vehicle_type_id":"4","last_reported":1726160886,"current_range_meters":38800,"station_id":"ce4bhgp2rcd13ifvqfe0","pricing_plan_id":"cebpf4jnsgd1na2vs0mg"},{"bike_id":"ae8c7bd4-e320-4650-aaec-5acdea38c512","system_id":"levelo_inurba_marseille","lat":43.28033,"lon":5.38695,"is_reserved":false,"is_disabled":false,"rental_uris":{"android":"levelo://app?vid=ae8c7bd4-e320-4650-aaec-5acdea38c512","ios":"levelo://app?vid=ae8c7bd4-e320-4650-aaec-5acdea38c512"},"vehicle_type_id":"4","last_reported":1726160886,"current_range_meters":24800,"station_id":"","pricing_plan_id":"cebpf4jnsgd1na2vs0mg"},{"bike_id":"4559dba1-b0cb-4c88-804d-ea24100e4a9a","system_id":"levelo_inurba_marseille","lat":43.29202,"lon":5.39312,"is_reserved":false,"is_disabled":false,"rental_uris":{"android":"levelo://app?vid=4559dba1-b0cb-4c88-804d-ea24100e4a9a","ios":"levelo://app?vid=4559dba1-b0cb-4c88-804d-ea24100e4a9a"},"vehicle_type_id":"4","last_reported":1726160886,"current_range_meters":11600,"station_id":"ce4bh192rcd13ifvqdd0","pricing_plan_id":"cebpf4jnsgd1na2vs0mg"},{"bike_id":"2ec4d1cc-97bd-43e7-ba2d-fbb1d5bb262a","system_id":"levelo_inurba_marseille","lat":43.2909,"lon":5.38144,"is_reserved":false,"is_disabled":false,"rental_uris":{"android":"levelo://app?vid=2ec4d1cc-97bd-43e7-ba2d-fbb1d5bb262a","ios":"levelo://app?vid=2ec4d1cc-97bd-43e7-ba2d-fbb1d5bb262a"},"vehicle_type_id":"4","last_reported":1726160886,"current_range_meters":5600,"station_id":"ce4bh512rcd13ifvqe2g","pricing_plan_id":"cebpf4jnsgd1na2vs0mg"},{"bike_id":"af94052c-d55c-4818-9eeb-aa95b86b1861","system_id":"levelo_inurba_marseille","lat":43.248183,"lon":5.374688,"is_reserved":false,"is_disabled":false,"rental_uris":{"android":"levelo://app?vid=af94052c-d55c-4818-9eeb-aa95b86b1861","ios":"levelo://app?vid=af94052c-d55c-4818-9eeb-aa95b86b1861"},"vehicle_type_id":"4","last_reported":1726160886,"current_range_meters":16800,"station_id":"ce4bhgh2rcd13ifvqfb0","pricing_plan_id":"cebpf4jnsgd1na2vs0mg"},{"bike_id":"2d49691c-26b9-42ec-b500-01b2e592d6d4","system_id":"levelo_inurba_marseille","lat":43.317046,"lon":5.377287,"is_reserved":false,"is_disabled":false,"rental_uris":{"android":"levelo://app?vid=2d49691c-26b9-42ec-b500-01b2e592d6d4","ios":"levelo://app?vid=2d49691c-26b9-42ec-b500-01b2e592d6d4"},"vehicle_type_id":"4","last_reported":1726160886,"current_range_meters":3600,"station_id":"ce4bgth2rcd13ifvqch0","pricing_plan_id":"cebpf4jnsgd1na2vs0mg"},{"bike_id":"5a0f079c-d0a6-48b9-8663-daaee15addc8","system_id":"levelo_inurba_marseille","lat":43.2481,"lon":5.3746,"is_reserved":false,"is_disabled":false,"rental_uris":{"android":"levelo://app?vid=5a0f079c-d0a6-48b9-8663-daaee15addc8","ios":"levelo://app?vid=5a0f079c-d0a6-48b9-8663-daaee15addc8"},"vehicle_type_id":"4","last_reported":1726160886,"current_range_meters":30400,"station_id":"ce4bhgh2rcd13ifvqfb0","pricing_plan_id":"cebpf4jnsgd1na2vs0mg"},{"bike_id":"13ec4916-f0ea-4897-8afc-596425b42c42","system_id":"levelo_inurba_marseille","lat":43.23194,"lon":5.35551,"is_reserved":false,"is_disabled":false,"rental_uris":{"android":"levelo://app?vid=13ec4916-f0ea-4897-8afc-596425b42c42","ios":"levelo://app?vid=13ec4916-f0ea-4897-8afc-596425b42c42"},"vehicle_type_id":"4","last_reported":1726160886,"current_range_meters":34000,"station_id":"ce4bhu92rcd13ifvqi70","pricing_plan_id":"cebpf4jnsgd1na2vs0mg"},{"bike_id":"376db200-0cc2-4eb8-a162-4d3bc8ff1066","system_id":"levelo_inurba_marseille","lat":43.317175,"lon":5.43705,"is_reserved":false,"is_disabled":false,"rental_uris":{"android":"levelo://app?vid=376db200-0cc2-4eb8-a162-4d3bc8ff1066","ios":"levelo://app?vid=376db200-0cc2-4eb8-a162-4d3bc8ff1066"},"vehicle_type_id":"4","last_reported":1726160886,"current_range_meters":25600,"station_id":"ce4bhp92rcd13ifvqhcg","pricing_plan_id":"cebpf4jnsgd1na2vs0mg"},{"bike_id":"d13844ac-d8d5-4630-a735-d14a8cd8cfc2","system_id":"levelo_inurba_marseille","lat":43.24678,"lon":5.3814,"is_reserved":false,"is_disabled":false,"rental_uris":{"android":"levelo://app?vid=d13844ac-d8d5-4630-a735-d14a8cd8cfc2","ios":"levelo://app?vid=d13844ac-d8d5-4630-a735-d14a8cd8cfc2"},"vehicle_type_id":"4","last_reported":1726160886,"current_range_meters":38400,"station_id":"ce4bhih2rcd13ifvqfr0","pricing_plan_id":"cebpf4jnsgd1na2vs0mg"},{"bike_id":"a59d64a6-0c90-478e-8726-6eda2f84c2f7","system_id":"levelo_inurba_marseille","lat":43.26032,"lon":5.37548,"is_reserved":false,"is_disabled":false,"rental_uris":{"android":"levelo://app?vid=a59d64a6-0c90-478e-8726-6eda2f84c2f7","ios":"levelo://app?vid=a59d64a6-0c90-478e-8726-6eda2f84c2f7"},"vehicle_type_id":"4","last_reported":1726160886,"current_range_meters":8400,"station_id":"ce4bhgh2rcd13ifvqfa0","pricing_plan_id":"cebpf4jnsgd1na2vs0mg"},{"bike_id":"acd8a3d5-a9db-4ea3-b234-2a790cfd605a","system_id":"levelo_inurba_marseille","lat":43.23964,"lon":5.36625,"is_reserved":false,"is_disabled":false,"rental_uris":{"android":"levelo://app?vid=acd8a3d5-a9db-4ea3-b234-2a790cfd605a","ios":"levelo://app?vid=acd8a3d5-a9db-4ea3-b234-2a790cfd605a"},"vehicle_type_id":"4","last_reported":1726160886,"current_range_meters":20000,"station_id":"ce4bhi12rcd13ifvqfp0","pricing_plan_id":"cebpf4jnsgd1na2vs0mg"},{"bike_id":"9d712991-dbb5-4bbd-a8ea-27ce2aa1175e","system_id":"levelo_inurba_marseille","lat":43.28928,"lon":5.38402,"is_reserved":false,"is_disabled":false,"rental_uris":{"android":"levelo://app?vid=9d712991-dbb5-4bbd-a8ea-27ce2aa1175e","ios":"levelo://app?vid=9d712991-dbb5-4bbd-a8ea-27ce2aa1175e"},"vehicle_type_id":"4","last_reported":1726160886,"current_range_meters":24000,"station_id":"ce4bgih2rcd13ifvqba0","pricing_plan_id":"cebpf4jnsgd1na2vs0mg"},{"bike_id":"ee5bd0a5-1257-48de-9343-ea8521c36cdd","system_id":"levelo_inurba_marseille","lat":43.23194,"lon":5.35552,"is_reserved":false,"is_disabled":false,"rental_uris":{"android":"levelo://app?vid=ee5bd0a5-1257-48de-9343-ea8521c36cdd","ios":"levelo://app?vid=ee5bd0a5-1257-48de-9343-ea8521c36cdd"},"vehicle_type_id":"4","last_reported":1726160886,"current_range_meters":8000,"station_id":"ce4bhu92rcd13ifvqi70","pricing_plan_id":"cebpf4jnsgd1na2vs0mg"},{"bike_id":"995d3a7e-289e-4ebd-b785-9d2da426ad57","system_id":"levelo_inurba_marseille","lat":43.23196,"lon":5.35548,"is_reserved":false,"is_disabled":false,"rental_uris":{"android":"levelo://app?vid=995d3a7e-289e-4ebd-b785-9d2da426ad57","ios":"levelo://app?vid=995d3a7e-289e-4ebd-b785-9d2da426ad57"},"vehicle_type_id":"4","last_reported":1726160886,"current_range_meters":28400,"station_id":"ce4bhu92rcd13ifvqi70","pricing_plan_id":"cebpf4jnsgd1na2vs0mg"},{"bike_id":"74c67d55-8a5f-40c9-8066-d68354718f8c","system_id":"levelo_inurba_marseille","lat":43.23188,"lon":5.35551,"is_reserved":false,"is_disabled":false,"rental_uris":{"android":"levelo://app?vid=74c67d55-8a5f-40c9-8066-d68354718f8c","ios":"levelo://app?vid=74c67d55-8a5f-40c9-8066-d68354718f8c"},"vehicle_type_id":"4","last_reported":1726160886,"current_range_meters":30800,"station_id":"ce4bhu92rcd13ifvqi70","pricing_plan_id":"cebpf4jnsgd1na2vs0mg"},{"bike_id":"86a397a5-5a46-427a-884b-f528ef77038a","system_id":"levelo_inurba_marseille","lat":43.28616,"lon":5.351,"is_reserved":false,"is_disabled":false,"rental_uris":{"android":"levelo://app?vid=86a397a5-5a46-427a-884b-f528ef77038a","ios":"levelo://app?vid=86a397a5-5a46-427a-884b-f528ef77038a"},"vehicle_type_id":"4","last_reported":1726160886,"current_range_meters":17600,"station_id":"ce4bhch2rcd13ifvqeug","pricing_plan_id":"cebpf4jnsgd1na2vs0mg"},{"bike_id":"67005bdc-d6d9-46e0-b0b6-071a047e1e04","system_id":"levelo_inurba_marseille","lat":43.3205,"lon":5.41566,"is_reserved":false,"is_disabled":false,"rental_uris":{"android":"levelo://app?vid=67005bdc-d6d9-46e0-b0b6-071a047e1e04","ios":"levelo://app?vid=67005bdc-d6d9-46e0-b0b6-071a047e1e04"},"vehicle_type_id":"4","last_reported":1726160886,"current_range_meters":22400,"station_id":"ce4bhq92rcd13ifvqhkg","pricing_plan_id":"cebpf4jnsgd1na2vs0mg"},{"bike_id":"03700b80-744f-470e-981c-03002de9fd01","system_id":"levelo_inurba_marseille","lat":43.24083,"lon":5.37737,"is_reserved":false,"is_disabled":false,"rental_uris":{"android":"levelo://app?vid=03700b80-744f-470e-981c-03002de9fd01","ios":"levelo://app?vid=03700b80-744f-470e-981c-03002de9fd01"},"vehicle_type_id":"4","last_reported":1726160886,"current_range_meters":38800,"station_id":"ce4bhnp2rcd13ifvqgvg","pricing_plan_id":"cebpf4jnsgd1na2vs0mg"},{"bike_id":"12ab67fc-3193-4e29-bf33-053d347db09d","system_id":"levelo_inurba_marseille","lat":43.25577,"lon":5.38239,"is_reserved":false,"is_disabled":false,"rental_uris":{"android":"levelo://app?vid=12ab67fc-3193-4e29-bf33-053d347db09d","ios":"levelo://app?vid=12ab67fc-3193-4e29-bf33-053d347db09d"},"vehicle_type_id":"4","last_reported":1726160886,"current_range_meters":13600,"station_id":"ce4bhih2rcd13ifvqfs0","pricing_plan_id":"cebpf4jnsgd1na2vs0mg"},{"bike_id":"e4027f34-7708-47fc-aa05-c866ed764b83","system_id":"levelo_inurba_marseille","lat":43.32053,"lon":5.41551,"is_reserved":false,"is_disabled":false,"rental_uris":{"android":"levelo://app?vid=e4027f34-7708-47fc-aa05-c866ed764b83","ios":"levelo://app?vid=e4027f34-7708-47fc-aa05-c866ed764b83"},"vehicle_type_id":"4","last_reported":1726160886,"current_range_meters":9600,"station_id":"ce4bhq92rcd13ifvqhkg","pricing_plan_id":"cebpf4jnsgd1na2vs0mg"},{"bike_id":"905c42bf-0f4c-43bb-8ee8-8e67de619cb7","system_id":"levelo_inurba_marseille","lat":43.30542,"lon":5.38428,"is_reserved":false,"is_disabled":false,"rental_uris":{"android":"levelo://app?vid=905c42bf-0f4c-43bb-8ee8-8e67de619cb7","ios":"levelo://app?vid=905c42bf-0f4c-43bb-8ee8-8e67de619cb7"},"vehicle_type_id":"4","last_reported":1726160886,"current_range_meters":9200,"station_id":"ce4bgg92rcd13ifvqb30","pricing_plan_id":"cebpf4jnsgd1na2vs0mg"},{"bike_id":"f95797f5-d9ec-45fc-9ec0-12f334cd7cab","system_id":"levelo_inurba_marseille","lat":43.29019,"lon":5.38625,"is_reserved":false,"is_disabled":false,"rental_uris":{"android":"levelo://app?vid=f95797f5-d9ec-45fc-9ec0-12f334cd7cab","ios":"levelo://app?vid=f95797f5-d9ec-45fc-9ec0-12f334cd7cab"},"vehicle_type_id":"4","last_reported":1726160886,"current_range_meters":26800,"station_id":"ce4bh4p2rcd13ifvqe0g","pricing_plan_id":"cebpf4jnsgd1na2vs0mg"},{"bike_id":"a41d64cd-c173-465d-9c1c-9361adf830bd","system_id":"levelo_inurba_marseille","lat":43.28612,"lon":5.37062,"is_reserved":false,"is_disabled":false,"rental_uris":{"android":"levelo://app?vid=a41d64cd-c173-465d-9c1c-9361adf830bd","ios":"levelo://app?vid=a41d64cd-c173-465d-9c1c-9361adf830bd"},"vehicle_type_id":"4","last_reported":1726160886,"current_range_meters":8800,"station_id":"ce4bht12rcd13ifvqi60","pricing_plan_id":"cebpf4jnsgd1na2vs0mg"},{"bike_id":"d5a18a78-ab27-4592-ba76-7dd61906b9f0","system_id":"levelo_inurba_marseille","lat":43.29791,"lon":5.39351,"is_reserved":false,"is_disabled":false,"rental_uris":{"android":"levelo://app?vid=d5a18a78-ab27-4592-ba76-7dd61906b9f0","ios":"levelo://app?vid=d5a18a78-ab27-4592-ba76-7dd61906b9f0"},"vehicle_type_id":"4","last_reported":1726160886,"current_range_meters":14400,"station_id":"chh1huq6cuj3fo74tm60","pricing_plan_id":"cebpf4jnsgd1na2vs0mg"},{"bike_id":"8d6d4259-42bc-48a3-8f7d-ea0d3803efc9","system_id":"levelo_inurba_marseille","lat":43.31331,"lon":5.39689,"is_reserved":false,"is_disabled":false,"rental_uris":{"android":"levelo://app?vid=8d6d4259-42bc-48a3-8f7d-ea0d3803efc9","ios":"levelo://app?vid=8d6d4259-42bc-48a3-8f7d-ea0d3803efc9"},"vehicle_type_id":"4","last_reported":1726160886,"current_range_meters":36400,"station_id":"ce4bgvp2rcd13ifvqcu0","pricing_plan_id":"cebpf4jnsgd1na2vs0mg"},{"bike_id":"d54209f6-3398-4e00-8b3a-a3ed0a88f3b6","system_id":"levelo_inurba_marseille","lat":43.24558,"lon":5.37313,"is_reserved":false,"is_disabled":false,"rental_uris":{"android":"levelo://app?vid=d54209f6-3398-4e00-8b3a-a3ed0a88f3b6","ios":"levelo://app?vid=d54209f6-3398-4e00-8b3a-a3ed0a88f3b6"},"vehicle_type_id":"4","last_reported":1726160886,"current_range_meters":32400,"station_id":"","pricing_plan_id":"cebpf4jnsgd1na2vs0mg"},{"bike_id":"8f8acd34-b5ec-42d7-8eff-8a3155e32c59","system_id":"levelo_inurba_marseille","lat":43.2861,"lon":5.35097,"is_reserved":false,"is_disabled":false,"rental_uris":{"android":"levelo://app?vid=8f8acd34-b5ec-42d7-8eff-8a3155e32c59","ios":"levelo://app?vid=8f8acd34-b5ec-42d7-8eff-8a3155e32c59"},"vehicle_type_id":"4","last_reported":1726160886,"current_range_meters":28400,"station_id":"ce4bhch2rcd13ifvqeug","pricing_plan_id":"cebpf4jnsgd1na2vs0mg"},{"bike_id":"c84ad035-d485-496e-9cc5-9b45d892b9ca","system_id":"levelo_inurba_marseille","lat":43.29811,"lon":5.38108,"is_reserved":false,"is_disabled":false,"rental_uris":{"android":"levelo://app?vid=c84ad035-d485-496e-9cc5-9b45d892b9ca","ios":"levelo://app?vid=c84ad035-d485-496e-9cc5-9b45d892b9ca"},"vehicle_type_id":"4","last_reported":1726160886,"current_range_meters":9200,"station_id":"ce4bgip2rcd13ifvqbb0","pricing_plan_id":"cebpf4jnsgd1na2vs0mg"},{"bike_id":"1952830b-0823-41a9-8e31-0f3a983559c9","system_id":"levelo_inurba_marseille","lat":43.2942,"lon":5.38617,"is_reserved":false,"is_disabled":false,"rental_uris":{"android":"levelo://app?vid=1952830b-0823-41a9-8e31-0f3a983559c9","ios":"levelo://app?vid=1952830b-0823-41a9-8e31-0f3a983559c9"},"vehicle_type_id":"4","last_reported":1726160886,"current_range_meters":38800,"station_id":"ce4bh2h2rcd13ifvqdh0","pricing_plan_id":"cebpf4jnsgd1na2vs0mg"},{"bike_id":"9d302fd2-cf2d-4d06-b7d7-4f621dedcd6a","system_id":"levelo_inurba_marseille","lat":43.32369,"lon":5.38889,"is_reserved":false,"is_disabled":false,"rental_uris":{"android":"levelo://app?vid=9d302fd2-cf2d-4d06-b7d7-4f621dedcd6a","ios":"levelo://app?vid=9d302fd2-cf2d-4d06-b7d7-4f621dedcd6a"},"vehicle_type_id":"4","last_reported":1726160886,"current_range_meters":24800,"station_id":"ce4bhqp2rcd13ifvqhog","pricing_plan_id":"cebpf4jnsgd1na2vs0mg"},{"bike_id":"f0a892f4-e768-4968-80bf-5133cf16b7a8","system_id":"levelo_inurba_marseille","lat":43.29422,"lon":5.401563,"is_reserved":false,"is_disabled":false,"rental_uris":{"android":"levelo://app?vid=f0a892f4-e768-4968-80bf-5133cf16b7a8","ios":"levelo://app?vid=f0a892f4-e768-4968-80bf-5133cf16b7a8"},"vehicle_type_id":"4","last_reported":1726160886,"current_range_meters":5600,"station_id":"ce4bh312rcd13ifvqdj0","pricing_plan_id":"cebpf4jnsgd1na2vs0mg"},{"bike_id":"3fd95b83-0fdb-4146-a785-5a14738680ad","system_id":"levelo_inurba_marseille","lat":43.25722,"lon":5.41115,"is_reserved":false,"is_disabled":false,"rental_uris":{"android":"levelo://app?vid=3fd95b83-0fdb-4146-a785-5a14738680ad","ios":"levelo://app?vid=3fd95b83-0fdb-4146-a785-5a14738680ad"},"vehicle_type_id":"4","last_reported":1726160886,"current_range_meters":11200,"station_id":"ce4bhkp2rcd13ifvqgd0","pricing_plan_id":"cebpf4jnsgd1na2vs0mg"},{"bike_id":"d4ca384e-a23d-4802-be23-f450736c27cb","system_id":"levelo_inurba_marseille","lat":43.279,"lon":5.38002,"is_reserved":false,"is_disabled":false,"rental_uris":{"android":"levelo://app?vid=d4ca384e-a23d-4802-be23-f450736c27cb","ios":"levelo://app?vid=d4ca384e-a23d-4802-be23-f450736c27cb"},"vehicle_type_id":"4","last_reported":1726160886,"current_range_meters":26800,"station_id":"ce4bhf92rcd13ifvqf50","pricing_plan_id":"cebpf4jnsgd1na2vs0mg"},{"bike_id":"deb66642-87df-40d6-8403-82e14024cfaa","system_id":"levelo_inurba_marseille","lat":43.26677,"lon":5.38269,"is_reserved":false,"is_disabled":false,"rental_uris":{"android":"levelo://app?vid=deb66642-87df-40d6-8403-82e14024cfaa","ios":"levelo://app?vid=deb66642-87df-40d6-8403-82e14024cfaa"},"vehicle_type_id":"4","last_reported":1726160886,"current_range_meters":14400,"station_id":"ce4bhg92rcd13ifvqf90","pricing_plan_id":"cebpf4jnsgd1na2vs0mg"},{"bike_id":"0a1f63c4-8197-4edd-9c0f-886e05340093","system_id":"levelo_inurba_marseille","lat":43.26205,"lon":5.37445,"is_reserved":false,"is_disabled":false,"rental_uris":{"android":"levelo://app?vid=0a1f63c4-8197-4edd-9c0f-886e05340093","ios":"levelo://app?vid=0a1f63c4-8197-4edd-9c0f-886e05340093"},"vehicle_type_id":"4","last_reported":1726160886,"current_range_meters":36800,"station_id":"ce4bhgp2rcd13ifvqfc0","pricing_plan_id":"cebpf4jnsgd1na2vs0mg"},{"bike_id":"a92135de-434e-483e-ad33-45972bbeb00f","system_id":"levelo_inurba_marseille","lat":43.26787,"lon":5.39415,"is_reserved":false,"is_disabled":false,"rental_uris":{"android":"levelo://app?vid=a92135de-434e-483e-ad33-45972bbeb00f","ios":"levelo://app?vid=a92135de-434e-483e-ad33-45972bbeb00f"},"vehicle_type_id":"4","last_reported":1726160886,"current_range_meters":10000,"station_id":"ce4bhh12rcd13ifvqfg0","pricing_plan_id":"cebpf4jnsgd1na2vs0mg"},{"bike_id":"335d1eaa-695e-4659-9432-afd1d6cb4f48","system_id":"levelo_inurba_marseille","lat":43.29266,"lon":5.38432,"is_reserved":false,"is_disabled":false,"rental_uris":{"android":"levelo://app?vid=335d1eaa-695e-4659-9432-afd1d6cb4f48","ios":"levelo://app?vid=335d1eaa-695e-4659-9432-afd1d6cb4f48"},"vehicle_type_id":"4","last_reported":1726160886,"current_range_meters":34000,"station_id":"ce4bh692rcd13ifvqea0","pricing_plan_id":"cebpf4jnsgd1na2vs0mg"},{"bike_id":"ed13e5fc-1f73-4d37-85f0-688a6556d0e3","system_id":"levelo_inurba_marseille","lat":43.29055,"lon":5.35916,"is_reserved":false,"is_disabled":false,"rental_uris":{"android":"levelo://app?vid=ed13e5fc-1f73-4d37-85f0-688a6556d0e3","ios":"levelo://app?vid=ed13e5fc-1f73-4d37-85f0-688a6556d0e3"},"vehicle_type_id":"4","last_reported":1726160886,"current_range_meters":24000,"station_id":"ce4bha92rcd13ifvqeg0","pricing_plan_id":"cebpf4jnsgd1na2vs0mg"},{"bike_id":"86b6a2b1-86a4-46ee-8c7e-90cb86d3d820","system_id":"levelo_inurba_marseille","lat":43.31326,"lon":5.39707,"is_reserved":false,"is_disabled":false,"rental_uris":{"android":"levelo://app?vid=86b6a2b1-86a4-46ee-8c7e-90cb86d3d820","ios":"levelo://app?vid=86b6a2b1-86a4-46ee-8c7e-90cb86d3d820"},"vehicle_type_id":"4","last_reported":1726160886,"current_range_meters":38800,"station_id":"ce4bgvp2rcd13ifvqcu0","pricing_plan_id":"cebpf4jnsgd1na2vs0mg"},{"bike_id":"e69cd65a-611c-46ee-8272-485d7b18bdac","system_id":"levelo_inurba_marseille","lat":43.27809,"lon":5.40713,"is_reserved":false,"is_disabled":false,"rental_uris":{"android":"levelo://app?vid=e69cd65a-611c-46ee-8272-485d7b18bdac","ios":"levelo://app?vid=e69cd65a-611c-46ee-8272-485d7b18bdac"},"vehicle_type_id":"4","last_reported":1726160886,"current_range_meters":36800,"station_id":"ce4bhnh2rcd13ifvqgtg","pricing_plan_id":"cebpf4jnsgd1na2vs0mg"},{"bike_id":"5c3ce468-2a1d-4084-afb8-c54c00b56887","system_id":"levelo_inurba_marseille","lat":43.24079,"lon":5.37755,"is_reserved":false,"is_disabled":false,"rental_uris":{"android":"levelo://app?vid=5c3ce468-2a1d-4084-afb8-c54c00b56887","ios":"levelo://app?vid=5c3ce468-2a1d-4084-afb8-c54c00b56887"},"vehicle_type_id":"4","last_reported":1726160886,"current_range_meters":16000,"station_id":"ce4bhnp2rcd13ifvqgvg","pricing_plan_id":"cebpf4jnsgd1na2vs0mg"},{"bike_id":"4067cf6c-6e3d-4ac9-99bf-c1b92b69f736","system_id":"levelo_inurba_marseille","lat":43.3248,"lon":5.36556,"is_reserved":false,"is_disabled":false,"rental_uris":{"android":"levelo://app?vid=4067cf6c-6e3d-4ac9-99bf-c1b92b69f736","ios":"levelo://app?vid=4067cf6c-6e3d-4ac9-99bf-c1b92b69f736"},"vehicle_type_id":"4","last_reported":1726160886,"current_range_meters":28000,"station_id":"ce4bhs12rcd13ifvqhvg","pricing_plan_id":"cebpf4jnsgd1na2vs0mg"},{"bike_id":"289084d7-136a-4b23-8f3a-ce25f5628920","system_id":"levelo_inurba_marseille","lat":43.28723,"lon":5.36081,"is_reserved":false,"is_disabled":false,"rental_uris":{"android":"levelo://app?vid=289084d7-136a-4b23-8f3a-ce25f5628920","ios":"levelo://app?vid=289084d7-136a-4b23-8f3a-ce25f5628920"},"vehicle_type_id":"4","last_reported":1726160886,"current_range_meters":22000,"station_id":"cki0cbj6b192h4jlfktg","pricing_plan_id":"cebpf4jnsgd1na2vs0mg"},{"bike_id":"20766e73-8f5d-4704-bd77-5acdbdf3c1b7","system_id":"levelo_inurba_marseille","lat":43.27959,"lon":5.41075,"is_reserved":false,"is_disabled":false,"rental_uris":{"android":"levelo://app?vid=20766e73-8f5d-4704-bd77-5acdbdf3c1b7","ios":"levelo://app?vid=20766e73-8f5d-4704-bd77-5acdbdf3c1b7"},"vehicle_type_id":"4","last_reported":1726160886,"current_range_meters":27200,"station_id":"ce4bhnp2rcd13ifvqh0g","pricing_plan_id":"cebpf4jnsgd1na2vs0mg"},{"bike_id":"38bf01e6-5b68-48f6-890c-ce3aec8c9c38","system_id":"levelo_inurba_marseille","lat":43.28724,"lon":5.36077,"is_reserved":false,"is_disabled":false,"rental_uris":{"android":"levelo://app?vid=38bf01e6-5b68-48f6-890c-ce3aec8c9c38","ios":"levelo://app?vid=38bf01e6-5b68-48f6-890c-ce3aec8c9c38"},"vehicle_type_id":"4","last_reported":1726160886,"current_range_meters":38800,"station_id":"cki0cbj6b192h4jlfktg","pricing_plan_id":"cebpf4jnsgd1na2vs0mg"},{"bike_id":"59bed8ef-5a1d-4d33-8e3e-63b5fd85b4c9","system_id":"levelo_inurba_marseille","lat":43.25002,"lon":5.38923,"is_reserved":false,"is_disabled":false,"rental_uris":{"android":"levelo://app?vid=59bed8ef-5a1d-4d33-8e3e-63b5fd85b4c9","ios":"levelo://app?vid=59bed8ef-5a1d-4d33-8e3e-63b5fd85b4c9"},"vehicle_type_id":"4","last_reported":1726160886,"current_range_meters":16000,"station_id":"ce4bhgp2rcd13ifvqfd0","pricing_plan_id":"cebpf4jnsgd1na2vs0mg"},{"bike_id":"5b1d7934-e27e-405a-837e-bc4476f8c2e0","system_id":"levelo_inurba_marseille","lat":43.30951,"lon":5.39027,"is_reserved":false,"is_disabled":false,"rental_uris":{"android":"levelo://app?vid=5b1d7934-e27e-405a-837e-bc4476f8c2e0","ios":"levelo://app?vid=5b1d7934-e27e-405a-837e-bc4476f8c2e0"},"vehicle_type_id":"4","last_reported":1726160886,"current_range_meters":14000,"station_id":"ce4bgup2rcd13ifvqco0","pricing_plan_id":"cebpf4jnsgd1na2vs0mg"},{"bike_id":"b413d41f-7993-42f5-a3cc-daaaeaf22886","system_id":"levelo_inurba_marseille","lat":43.3248,"lon":5.36555,"is_reserved":false,"is_disabled":false,"rental_uris":{"android":"levelo://app?vid=b413d41f-7993-42f5-a3cc-daaaeaf22886","ios":"levelo://app?vid=b413d41f-7993-42f5-a3cc-daaaeaf22886"},"vehicle_type_id":"4","last_reported":1726160886,"current_range_meters":27200,"station_id":"ce4bhs12rcd13ifvqhvg","pricing_plan_id":"cebpf4jnsgd1na2vs0mg"},{"bike_id":"bcf9b742-74a2-4beb-b767-efe16d84b573","system_id":"levelo_inurba_marseille","lat":43.26958,"lon":5.3863,"is_reserved":false,"is_disabled":false,"rental_uris":{"android":"levelo://app?vid=bcf9b742-74a2-4beb-b767-efe16d84b573","ios":"levelo://app?vid=bcf9b742-74a2-4beb-b767-efe16d84b573"},"vehicle_type_id":"4","last_reported":1726160886,"current_range_meters":3200,"station_id":"ce4bhh92rcd13ifvqfh0","pricing_plan_id":"cebpf4jnsgd1na2vs0mg"},{"bike_id":"14ad66c2-69f9-45f5-a458-0c4dfc040a0a","system_id":"levelo_inurba_marseille","lat":43.287746,"lon":5.400308,"is_reserved":false,"is_disabled":false,"rental_uris":{"android":"levelo://app?vid=14ad66c2-69f9-45f5-a458-0c4dfc040a0a","ios":"levelo://app?vid=14ad66c2-69f9-45f5-a458-0c4dfc040a0a"},"vehicle_type_id":"4","last_reported":1726160886,"current_range_meters":10800,"station_id":"ce4bho92rcd13ifvqh3g","pricing_plan_id":"cebpf4jnsgd1na2vs0mg"},{"bike_id":"00b41bbf-ddf3-4e20-a472-b80a982dfc0a","system_id":"levelo_inurba_marseille","lat":43.27497,"lon":5.42453,"is_reserved":false,"is_disabled":false,"rental_uris":{"android":"levelo://app?vid=00b41bbf-ddf3-4e20-a472-b80a982dfc0a","ios":"levelo://app?vid=00b41bbf-ddf3-4e20-a472-b80a982dfc0a"},"vehicle_type_id":"4","last_reported":1726160886,"current_range_meters":10800,"station_id":"ce4bhn92rcd13ifvqgrg","pricing_plan_id":"cebpf4jnsgd1na2vs0mg"},{"bike_id":"96cb29cb-8da1-4dd6-bd35-ee190827a973","system_id":"levelo_inurba_marseille","lat":43.26563,"lon":5.37283,"is_reserved":false,"is_disabled":false,"rental_uris":{"android":"levelo://app?vid=96cb29cb-8da1-4dd6-bd35-ee190827a973","ios":"levelo://app?vid=96cb29cb-8da1-4dd6-bd35-ee190827a973"},"vehicle_type_id":"4","last_reported":1726160886,"current_range_meters":9600,"station_id":"ce4bhg12rcd13ifvqf70","pricing_plan_id":"cebpf4jnsgd1na2vs0mg"},{"bike_id":"a61c9e04-bce5-4e44-99ea-7dd65bcde295","system_id":"levelo_inurba_marseille","lat":43.29006,"lon":5.35611,"is_reserved":false,"is_disabled":false,"rental_uris":{"android":"levelo://app?vid=a61c9e04-bce5-4e44-99ea-7dd65bcde295","ios":"levelo://app?vid=a61c9e04-bce5-4e44-99ea-7dd65bcde295"},"vehicle_type_id":"4","last_reported":1726160886,"current_range_meters":28800,"station_id":"ce4bhb92rcd13ifvqen0","pricing_plan_id":"cebpf4jnsgd1na2vs0mg"},{"bike_id":"cd75701b-d41a-41fb-929e-c69d8fbf02a7","system_id":"levelo_inurba_marseille","lat":43.23967,"lon":5.36621,"is_reserved":false,"is_disabled":false,"rental_uris":{"android":"levelo://app?vid=cd75701b-d41a-41fb-929e-c69d8fbf02a7","ios":"levelo://app?vid=cd75701b-d41a-41fb-929e-c69d8fbf02a7"},"vehicle_type_id":"4","last_reported":1726160886,"current_range_meters":31200,"station_id":"ce4bhi12rcd13ifvqfp0","pricing_plan_id":"cebpf4jnsgd1na2vs0mg"},{"bike_id":"ca27585c-3455-49b3-9c0b-fac2e7f2fbd0","system_id":"levelo_inurba_marseille","lat":43.26943,"lon":5.40264,"is_reserved":false,"is_disabled":false,"rental_uris":{"android":"levelo://app?vid=ca27585c-3455-49b3-9c0b-fac2e7f2fbd0","ios":"levelo://app?vid=ca27585c-3455-49b3-9c0b-fac2e7f2fbd0"},"vehicle_type_id":"4","last_reported":1726160886,"current_range_meters":32000,"station_id":"cjm6bp8fraef2m0cb0m0","pricing_plan_id":"cebpf4jnsgd1na2vs0mg"},{"bike_id":"45fd1349-65fd-4fc4-8c9c-ae978d8cccb8","system_id":"levelo_inurba_marseille","lat":43.270508,"lon":5.402603,"is_reserved":false,"is_disabled":false,"rental_uris":{"android":"levelo://app?vid=45fd1349-65fd-4fc4-8c9c-ae978d8cccb8","ios":"levelo://app?vid=45fd1349-65fd-4fc4-8c9c-ae978d8cccb8"},"vehicle_type_id":"4","last_reported":1726160886,"current_range_meters":2000,"station_id":"ce4bhk92rcd13ifvqgc0","pricing_plan_id":"cebpf4jnsgd1na2vs0mg"},{"bike_id":"98bd8641-6eda-457e-98aa-df5a4c60988f","system_id":"levelo_inurba_marseille","lat":43.30254,"lon":5.40075,"is_reserved":false,"is_disabled":false,"rental_uris":{"android":"levelo://app?vid=98bd8641-6eda-457e-98aa-df5a4c60988f","ios":"levelo://app?vid=98bd8641-6eda-457e-98aa-df5a4c60988f"},"vehicle_type_id":"4","last_reported":1726160886,"current_range_meters":4000,"station_id":"ce4bgvh2rcd13ifvqcs0","pricing_plan_id":"cebpf4jnsgd1na2vs0mg"},{"bike_id":"2a5b8669-a39c-418c-95de-04ed7a3b697d","system_id":"levelo_inurba_marseille","lat":43.28109,"lon":5.37832,"is_reserved":false,"is_disabled":false,"rental_uris":{"android":"levelo://app?vid=2a5b8669-a39c-418c-95de-04ed7a3b697d","ios":"levelo://app?vid=2a5b8669-a39c-418c-95de-04ed7a3b697d"},"vehicle_type_id":"4","last_reported":1726160886,"current_range_meters":30400,"station_id":"ce4bha12rcd13ifvqee0","pricing_plan_id":"cebpf4jnsgd1na2vs0mg"},{"bike_id":"bfbf639b-9bb6-415b-864a-8d9efb699d6f","system_id":"levelo_inurba_marseille","lat":43.28154,"lon":5.42644,"is_reserved":false,"is_disabled":false,"rental_uris":{"android":"levelo://app?vid=bfbf639b-9bb6-415b-864a-8d9efb699d6f","ios":"levelo://app?vid=bfbf639b-9bb6-415b-864a-8d9efb699d6f"},"vehicle_type_id":"4","last_reported":1726160886,"current_range_meters":4400,"station_id":"ce4bhnh2rcd13ifvqgug","pricing_plan_id":"cebpf4jnsgd1na2vs0mg"},{"bike_id":"cac78a6e-a1e0-4f97-9b48-10fba0a2004d","system_id":"levelo_inurba_marseille","lat":43.23195,"lon":5.35546,"is_reserved":false,"is_disabled":false,"rental_uris":{"android":"levelo://app?vid=cac78a6e-a1e0-4f97-9b48-10fba0a2004d","ios":"levelo://app?vid=cac78a6e-a1e0-4f97-9b48-10fba0a2004d"},"vehicle_type_id":"4","last_reported":1726160886,"current_range_meters":6800,"station_id":"ce4bhu92rcd13ifvqi70","pricing_plan_id":"cebpf4jnsgd1na2vs0mg"},{"bike_id":"87106bbb-5858-42a8-85c6-232aa030bbd4","system_id":"levelo_inurba_marseille","lat":43.256622,"lon":5.4204,"is_reserved":false,"is_disabled":false,"rental_uris":{"android":"levelo://app?vid=87106bbb-5858-42a8-85c6-232aa030bbd4","ios":"levelo://app?vid=87106bbb-5858-42a8-85c6-232aa030bbd4"},"vehicle_type_id":"4","last_reported":1726160886,"current_range_meters":22000,"station_id":"ce4bhkp2rcd13ifvqgd0","pricing_plan_id":"cebpf4jnsgd1na2vs0mg"},{"bike_id":"8fddd729-8d8e-4d24-94ad-0f397d783aed","system_id":"levelo_inurba_marseille","lat":43.2981,"lon":5.381,"is_reserved":false,"is_disabled":false,"rental_uris":{"android":"levelo://app?vid=8fddd729-8d8e-4d24-94ad-0f397d783aed","ios":"levelo://app?vid=8fddd729-8d8e-4d24-94ad-0f397d783aed"},"vehicle_type_id":"4","last_reported":1726160886,"current_range_meters":38800,"station_id":"ce4bgip2rcd13ifvqbb0","pricing_plan_id":"cebpf4jnsgd1na2vs0mg"},{"bike_id":"2b6819a7-c105-466e-8e78-ab7e00ebb5a1","system_id":"levelo_inurba_marseille","lat":43.29534,"lon":5.39416,"is_reserved":false,"is_disabled":false,"rental_uris":{"android":"levelo://app?vid=2b6819a7-c105-466e-8e78-ab7e00ebb5a1","ios":"levelo://app?vid=2b6819a7-c105-466e-8e78-ab7e00ebb5a1"},"vehicle_type_id":"4","last_reported":1726160886,"current_range_meters":20000,"station_id":"ce4bh292rcd13ifvqdf0","pricing_plan_id":"cebpf4jnsgd1na2vs0mg"},{"bike_id":"529c196c-88f8-481b-8fc9-bb42fba58e8f","system_id":"levelo_inurba_marseille","lat":43.29028,"lon":5.38639,"is_reserved":false,"is_disabled":false,"rental_uris":{"android":"levelo://app?vid=529c196c-88f8-481b-8fc9-bb42fba58e8f","ios":"levelo://app?vid=529c196c-88f8-481b-8fc9-bb42fba58e8f"},"vehicle_type_id":"4","last_reported":1726160886,"current_range_meters":38800,"station_id":"ce4bh4p2rcd13ifvqe0g","pricing_plan_id":"cebpf4jnsgd1na2vs0mg"},{"bike_id":"2c4577b3-3689-495e-a3c3-a78eafd4dc43","system_id":"levelo_inurba_marseille","lat":43.26555,"lon":5.37285,"is_reserved":false,"is_disabled":false,"rental_uris":{"android":"levelo://app?vid=2c4577b3-3689-495e-a3c3-a78eafd4dc43","ios":"levelo://app?vid=2c4577b3-3689-495e-a3c3-a78eafd4dc43"},"vehicle_type_id":"4","last_reported":1726160886,"current_range_meters":26000,"station_id":"ce4bhg12rcd13ifvqf70","pricing_plan_id":"cebpf4jnsgd1na2vs0mg"},{"bike_id":"a45d008e-2886-4f57-b4d9-05dcbf06bd81","system_id":"levelo_inurba_marseille","lat":43.33607,"lon":5.41021,"is_reserved":false,"is_disabled":false,"rental_uris":{"android":"levelo://app?vid=a45d008e-2886-4f57-b4d9-05dcbf06bd81","ios":"levelo://app?vid=a45d008e-2886-4f57-b4d9-05dcbf06bd81"},"vehicle_type_id":"4","last_reported":1726160886,"current_range_meters":28800,"station_id":"ce4bhqh2rcd13ifvqhmg","pricing_plan_id":"cebpf4jnsgd1na2vs0mg"},{"bike_id":"f4e6b18b-6ab8-4ad7-8995-f695057b258e","system_id":"levelo_inurba_marseille","lat":43.27072,"lon":5.42281,"is_reserved":false,"is_disabled":false,"rental_uris":{"android":"levelo://app?vid=f4e6b18b-6ab8-4ad7-8995-f695057b258e","ios":"levelo://app?vid=f4e6b18b-6ab8-4ad7-8995-f695057b258e"},"vehicle_type_id":"4","last_reported":1726160886,"current_range_meters":28400,"station_id":"ce4bhk92rcd13ifvqgb0","pricing_plan_id":"cebpf4jnsgd1na2vs0mg"},{"bike_id":"4e09195e-9004-4fa3-8ab0-1d4ac6be3f74","system_id":"levelo_inurba_marseille","lat":43.307,"lon":5.36995,"is_reserved":false,"is_disabled":false,"rental_uris":{"android":"levelo://app?vid=4e09195e-9004-4fa3-8ab0-1d4ac6be3f74","ios":"levelo://app?vid=4e09195e-9004-4fa3-8ab0-1d4ac6be3f74"},"vehicle_type_id":"4","last_reported":1726160886,"current_range_meters":22000,"station_id":"","pricing_plan_id":"cebpf4jnsgd1na2vs0mg"},{"bike_id":"7dea9175-0fb5-4d49-ac6e-d13b7c47ac00","system_id":"levelo_inurba_marseille","lat":43.25712,"lon":5.41109,"is_reserved":false,"is_disabled":false,"rental_uris":{"android":"levelo://app?vid=7dea9175-0fb5-4d49-ac6e-d13b7c47ac00","ios":"levelo://app?vid=7dea9175-0fb5-4d49-ac6e-d13b7c47ac00"},"vehicle_type_id":"4","last_reported":1726160886,"current_range_meters":24000,"station_id":"ce4bhkp2rcd13ifvqgd0","pricing_plan_id":"cebpf4jnsgd1na2vs0mg"},{"bike_id":"60d5bda9-f640-405a-935d-62d1314e50fa","system_id":"levelo_inurba_marseille","lat":43.23964,"lon":5.36627,"is_reserved":false,"is_disabled":false,"rental_uris":{"android":"levelo://app?vid=60d5bda9-f640-405a-935d-62d1314e50fa","ios":"levelo://app?vid=60d5bda9-f640-405a-935d-62d1314e50fa"},"vehicle_type_id":"4","last_reported":1726160886,"current_range_meters":28800,"station_id":"ce4bhi12rcd13ifvqfp0","pricing_plan_id":"cebpf4jnsgd1na2vs0mg"},{"bike_id":"33f03670-cf2a-43f9-bafe-26c48df8fd80","system_id":"levelo_inurba_marseille","lat":43.31082,"lon":5.42428,"is_reserved":false,"is_disabled":false,"rental_uris":{"android":"levelo://app?vid=33f03670-cf2a-43f9-bafe-26c48df8fd80","ios":"levelo://app?vid=33f03670-cf2a-43f9-bafe-26c48df8fd80"},"vehicle_type_id":"4","last_reported":1726160886,"current_range_meters":6800,"station_id":"ce4bhp92rcd13ifvqhag","pricing_plan_id":"cebpf4jnsgd1na2vs0mg"},{"bike_id":"3b4d22eb-d41b-4bff-89a0-a9a57a7cc7e9","system_id":"levelo_inurba_marseille","lat":43.31114,"lon":5.40358,"is_reserved":false,"is_disabled":false,"rental_uris":{"android":"levelo://app?vid=3b4d22eb-d41b-4bff-89a0-a9a57a7cc7e9","ios":"levelo://app?vid=3b4d22eb-d41b-4bff-89a0-a9a57a7cc7e9"},"vehicle_type_id":"4","last_reported":1726160886,"current_range_meters":23200,"station_id":"ce4bhq92rcd13ifvqhkg","pricing_plan_id":"cebpf4jnsgd1na2vs0mg"},{"bike_id":"fef95d24-a5a5-404a-80ef-9b3961f615ab","system_id":"levelo_inurba_marseille","lat":43.25828,"lon":5.3944,"is_reserved":false,"is_disabled":false,"rental_uris":{"android":"levelo://app?vid=fef95d24-a5a5-404a-80ef-9b3961f615ab","ios":"levelo://app?vid=fef95d24-a5a5-404a-80ef-9b3961f615ab"},"vehicle_type_id":"4","last_reported":1726160886,"current_range_meters":6400,"station_id":"ce4bhip2rcd13ifvqft0","pricing_plan_id":"cebpf4jnsgd1na2vs0mg"},{"bike_id":"423a4cab-8a31-4718-8b7a-239bcdca67af","system_id":"levelo_inurba_marseille","lat":43.24184,"lon":5.39709,"is_reserved":false,"is_disabled":false,"rental_uris":{"android":"levelo://app?vid=423a4cab-8a31-4718-8b7a-239bcdca67af","ios":"levelo://app?vid=423a4cab-8a31-4718-8b7a-239bcdca67af"},"vehicle_type_id":"4","last_reported":1726160886,"current_range_meters":38800,"station_id":"ce4bhn12rcd13ifvqgpg","pricing_plan_id":"cebpf4jnsgd1na2vs0mg"},{"bike_id":"9163cc20-d457-4a59-bb69-e012a5ecf5a9","system_id":"levelo_inurba_marseille","lat":43.28459,"lon":5.35893,"is_reserved":false,"is_disabled":false,"rental_uris":{"android":"levelo://app?vid=9163cc20-d457-4a59-bb69-e012a5ecf5a9","ios":"levelo://app?vid=9163cc20-d457-4a59-bb69-e012a5ecf5a9"},"vehicle_type_id":"4","last_reported":1726160886,"current_range_meters":4400,"station_id":"ce4bhah2rcd13ifvqei0","pricing_plan_id":"cebpf4jnsgd1na2vs0mg"},{"bike_id":"35af00e1-5203-40a4-8877-247e8b8e5c90","system_id":"levelo_inurba_marseille","lat":43.28932,"lon":5.36639,"is_reserved":false,"is_disabled":false,"rental_uris":{"android":"levelo://app?vid=35af00e1-5203-40a4-8877-247e8b8e5c90","ios":"levelo://app?vid=35af00e1-5203-40a4-8877-247e8b8e5c90"},"vehicle_type_id":"4","last_reported":1726160886,"current_range_meters":6400,"station_id":"ce4bhap2rcd13ifvqek0","pricing_plan_id":"cebpf4jnsgd1na2vs0mg"},{"bike_id":"a5976abd-1feb-4e62-8096-8987ee96d2d3","system_id":"levelo_inurba_marseille","lat":43.30248,"lon":5.40057,"is_reserved":false,"is_disabled":false,"rental_uris":{"android":"levelo://app?vid=a5976abd-1feb-4e62-8096-8987ee96d2d3","ios":"levelo://app?vid=a5976abd-1feb-4e62-8096-8987ee96d2d3"},"vehicle_type_id":"4","last_reported":1726160886,"current_range_meters":12400,"station_id":"ce4bgvh2rcd13ifvqcs0","pricing_plan_id":"cebpf4jnsgd1na2vs0mg"},{"bike_id":"96296b06-953b-4a27-8f25-5de1930132b9","system_id":"levelo_inurba_marseille","lat":43.29532,"lon":5.38544,"is_reserved":false,"is_disabled":false,"rental_uris":{"android":"levelo://app?vid=96296b06-953b-4a27-8f25-5de1930132b9","ios":"levelo://app?vid=96296b06-953b-4a27-8f25-5de1930132b9"},"vehicle_type_id":"4","last_reported":1726160886,"current_range_meters":4000,"station_id":"ce4bgih2rcd13ifvqba0","pricing_plan_id":"cebpf4jnsgd1na2vs0mg"},{"bike_id":"2d9f6a36-1e8d-46ce-8819-b2bb04006d43","system_id":"levelo_inurba_marseille","lat":43.25582,"lon":5.38218,"is_reserved":false,"is_disabled":false,"rental_uris":{"android":"levelo://app?vid=2d9f6a36-1e8d-46ce-8819-b2bb04006d43","ios":"levelo://app?vid=2d9f6a36-1e8d-46ce-8819-b2bb04006d43"},"vehicle_type_id":"4","last_reported":1726160886,"current_range_meters":36800,"station_id":"ce4bhih2rcd13ifvqfs0","pricing_plan_id":"cebpf4jnsgd1na2vs0mg"},{"bike_id":"bdf787f5-e0e9-4e41-bd4c-08c3529c6bbc","system_id":"levelo_inurba_marseille","lat":43.29295,"lon":5.37455,"is_reserved":false,"is_disabled":false,"rental_uris":{"android":"levelo://app?vid=bdf787f5-e0e9-4e41-bd4c-08c3529c6bbc","ios":"levelo://app?vid=bdf787f5-e0e9-4e41-bd4c-08c3529c6bbc"},"vehicle_type_id":"4","last_reported":1726160886,"current_range_meters":3600,"station_id":"ce4bgi12rcd13ifvqb70","pricing_plan_id":"cebpf4jnsgd1na2vs0mg"},{"bike_id":"a9f6b724-38c1-4e47-bf6e-8849f2f9295d","system_id":"levelo_inurba_marseille","lat":43.2917,"lon":5.3716,"is_reserved":false,"is_disabled":false,"rental_uris":{"android":"levelo://app?vid=a9f6b724-38c1-4e47-bf6e-8849f2f9295d","ios":"levelo://app?vid=a9f6b724-38c1-4e47-bf6e-8849f2f9295d"},"vehicle_type_id":"4","last_reported":1726160886,"current_range_meters":19600,"station_id":"ce4bha92rcd13ifvqeh0","pricing_plan_id":"cebpf4jnsgd1na2vs0mg"},{"bike_id":"1e0df5ba-fa4d-4573-807a-e855b81fe691","system_id":"levelo_inurba_marseille","lat":43.23965,"lon":5.36626,"is_reserved":false,"is_disabled":false,"rental_uris":{"android":"levelo://app?vid=1e0df5ba-fa4d-4573-807a-e855b81fe691","ios":"levelo://app?vid=1e0df5ba-fa4d-4573-807a-e855b81fe691"},"vehicle_type_id":"4","last_reported":1726160886,"current_range_meters":34000,"station_id":"ce4bhi12rcd13ifvqfp0","pricing_plan_id":"cebpf4jnsgd1na2vs0mg"},{"bike_id":"d3444d07-b074-4832-a09e-3cb8b9d2ec4a","system_id":"levelo_inurba_marseille","lat":43.28925,"lon":5.38394,"is_reserved":false,"is_disabled":false,"rental_uris":{"android":"levelo://app?vid=d3444d07-b074-4832-a09e-3cb8b9d2ec4a","ios":"levelo://app?vid=d3444d07-b074-4832-a09e-3cb8b9d2ec4a"},"vehicle_type_id":"4","last_reported":1726160886,"current_range_meters":39200,"station_id":"ce4bh612rcd13ifvqe6g","pricing_plan_id":"cebpf4jnsgd1na2vs0mg"},{"bike_id":"768174ed-8e87-4dfb-8f24-a534a0005560","system_id":"levelo_inurba_marseille","lat":43.29005,"lon":5.35614,"is_reserved":false,"is_disabled":false,"rental_uris":{"android":"levelo://app?vid=768174ed-8e87-4dfb-8f24-a534a0005560","ios":"levelo://app?vid=768174ed-8e87-4dfb-8f24-a534a0005560"},"vehicle_type_id":"4","last_reported":1726160886,"current_range_meters":38800,"station_id":"ce4bhb92rcd13ifvqen0","pricing_plan_id":"cebpf4jnsgd1na2vs0mg"},{"bike_id":"59a2b5a9-0f56-40d5-a59c-cb2592419b75","system_id":"levelo_inurba_marseille","lat":43.25582,"lon":5.38244,"is_reserved":false,"is_disabled":false,"rental_uris":{"android":"levelo://app?vid=59a2b5a9-0f56-40d5-a59c-cb2592419b75","ios":"levelo://app?vid=59a2b5a9-0f56-40d5-a59c-cb2592419b75"},"vehicle_type_id":"4","last_reported":1726160886,"current_range_meters":38800,"station_id":"ce4bhih2rcd13ifvqfs0","pricing_plan_id":"cebpf4jnsgd1na2vs0mg"},{"bike_id":"4031096f-83fb-4c2b-b755-c19dc9b5cc19","system_id":"levelo_inurba_marseille","lat":43.29807,"lon":5.38077,"is_reserved":false,"is_disabled":false,"rental_uris":{"android":"levelo://app?vid=4031096f-83fb-4c2b-b755-c19dc9b5cc19","ios":"levelo://app?vid=4031096f-83fb-4c2b-b755-c19dc9b5cc19"},"vehicle_type_id":"4","last_reported":1726160886,"current_range_meters":38800,"station_id":"ce4bgip2rcd13ifvqbb0","pricing_plan_id":"cebpf4jnsgd1na2vs0mg"},{"bike_id":"8fa69eb8-1a55-49f2-bed4-e655bbb0033b","system_id":"levelo_inurba_marseille","lat":43.29264,"lon":5.40904,"is_reserved":false,"is_disabled":false,"rental_uris":{"android":"levelo://app?vid=8fa69eb8-1a55-49f2-bed4-e655bbb0033b","ios":"levelo://app?vid=8fa69eb8-1a55-49f2-bed4-e655bbb0033b"},"vehicle_type_id":"4","last_reported":1726160886,"current_range_meters":4800,"station_id":"ce4bh192rcd13ifvqdc0","pricing_plan_id":"cebpf4jnsgd1na2vs0mg"},{"bike_id":"89af2725-e201-44ef-a1cf-1ecbae597874","system_id":"levelo_inurba_marseille","lat":43.28615,"lon":5.35118,"is_reserved":false,"is_disabled":false,"rental_uris":{"android":"levelo://app?vid=89af2725-e201-44ef-a1cf-1ecbae597874","ios":"levelo://app?vid=89af2725-e201-44ef-a1cf-1ecbae597874"},"vehicle_type_id":"4","last_reported":1726160886,"current_range_meters":38800,"station_id":"ce4bhch2rcd13ifvqeug","pricing_plan_id":"cebpf4jnsgd1na2vs0mg"},{"bike_id":"9cd245b6-8d27-44c0-a2f3-b1861f317e9c","system_id":"levelo_inurba_marseille","lat":43.29728,"lon":5.377,"is_reserved":false,"is_disabled":false,"rental_uris":{"android":"levelo://app?vid=9cd245b6-8d27-44c0-a2f3-b1861f317e9c","ios":"levelo://app?vid=9cd245b6-8d27-44c0-a2f3-b1861f317e9c"},"vehicle_type_id":"4","last_reported":1726160886,"current_range_meters":32000,"station_id":"ce4bgkh2rcd13ifvqbl0","pricing_plan_id":"cebpf4jnsgd1na2vs0mg"},{"bike_id":"34e538a6-bbab-4c68-aad0-5ecc68b0c82d","system_id":"levelo_inurba_marseille","lat":43.286632,"lon":5.386789,"is_reserved":false,"is_disabled":false,"rental_uris":{"android":"levelo://app?vid=34e538a6-bbab-4c68-aad0-5ecc68b0c82d","ios":"levelo://app?vid=34e538a6-bbab-4c68-aad0-5ecc68b0c82d"},"vehicle_type_id":"4","last_reported":1726160886,"current_range_meters":8000,"station_id":"ce4bh492rcd13ifvqdug","pricing_plan_id":"cebpf4jnsgd1na2vs0mg"},{"bike_id":"a7225787-a1fe-4f9c-8189-093e4e1002aa","system_id":"levelo_inurba_marseille","lat":43.29009,"lon":5.35618,"is_reserved":false,"is_disabled":false,"rental_uris":{"android":"levelo://app?vid=a7225787-a1fe-4f9c-8189-093e4e1002aa","ios":"levelo://app?vid=a7225787-a1fe-4f9c-8189-093e4e1002aa"},"vehicle_type_id":"4","last_reported":1726160886,"current_range_meters":38800,"station_id":"ce4bhb92rcd13ifvqen0","pricing_plan_id":"cebpf4jnsgd1na2vs0mg"},{"bike_id":"ea87b901-00f7-4a0a-9bd3-1bab3a485194","system_id":"levelo_inurba_marseille","lat":43.250763,"lon":5.40299,"is_reserved":false,"is_disabled":false,"rental_uris":{"android":"levelo://app?vid=ea87b901-00f7-4a0a-9bd3-1bab3a485194","ios":"levelo://app?vid=ea87b901-00f7-4a0a-9bd3-1bab3a485194"},"vehicle_type_id":"4","last_reported":1726160886,"current_range_meters":11200,"station_id":"ce4bhlh2rcd13ifvqgig","pricing_plan_id":"cebpf4jnsgd1na2vs0mg"},{"bike_id":"dc5dca54-8ebf-43b2-acf8-9ae498c9992e","system_id":"levelo_inurba_marseille","lat":43.29543,"lon":5.38546,"is_reserved":false,"is_disabled":false,"rental_uris":{"android":"levelo://app?vid=dc5dca54-8ebf-43b2-acf8-9ae498c9992e","ios":"levelo://app?vid=dc5dca54-8ebf-43b2-acf8-9ae498c9992e"},"vehicle_type_id":"4","last_reported":1726160886,"current_range_meters":34000,"station_id":"ce4bgih2rcd13ifvqba0","pricing_plan_id":"cebpf4jnsgd1na2vs0mg"},{"bike_id":"deaeb920-23ab-4b51-a90a-3a4d369b9959","system_id":"levelo_inurba_marseille","lat":43.26552,"lon":5.37289,"is_reserved":false,"is_disabled":false,"rental_uris":{"android":"levelo://app?vid=deaeb920-23ab-4b51-a90a-3a4d369b9959","ios":"levelo://app?vid=deaeb920-23ab-4b51-a90a-3a4d369b9959"},"vehicle_type_id":"4","last_reported":1726160886,"current_range_meters":11200,"station_id":"ce4bhg12rcd13ifvqf70","pricing_plan_id":"cebpf4jnsgd1na2vs0mg"},{"bike_id":"2978c8ef-7735-4057-b33e-747fe355072e","system_id":"levelo_inurba_marseille","lat":43.25909,"lon":5.37601,"is_reserved":false,"is_disabled":false,"rental_uris":{"android":"levelo://app?vid=2978c8ef-7735-4057-b33e-747fe355072e","ios":"levelo://app?vid=2978c8ef-7735-4057-b33e-747fe355072e"},"vehicle_type_id":"4","last_reported":1726160886,"current_range_meters":5600,"station_id":"","pricing_plan_id":"cebpf4jnsgd1na2vs0mg"},{"bike_id":"dd332fda-665c-45f4-a043-c551b8b3248d","system_id":"levelo_inurba_marseille","lat":43.30792,"lon":5.43519,"is_reserved":false,"is_disabled":false,"rental_uris":{"android":"levelo://app?vid=dd332fda-665c-45f4-a043-c551b8b3248d","ios":"levelo://app?vid=dd332fda-665c-45f4-a043-c551b8b3248d"},"vehicle_type_id":"4","last_reported":1726160886,"current_range_meters":16400,"station_id":"ce4bhph2rcd13ifvqheg","pricing_plan_id":"cebpf4jnsgd1na2vs0mg"},{"bike_id":"4803fd1e-7b74-4c02-8e24-055c99930fd0","system_id":"levelo_inurba_marseille","lat":43.29011,"lon":5.35605,"is_reserved":false,"is_disabled":false,"rental_uris":{"android":"levelo://app?vid=4803fd1e-7b74-4c02-8e24-055c99930fd0","ios":"levelo://app?vid=4803fd1e-7b74-4c02-8e24-055c99930fd0"},"vehicle_type_id":"4","last_reported":1726160886,"current_range_meters":22400,"station_id":"ce4bhb92rcd13ifvqen0","pricing_plan_id":"cebpf4jnsgd1na2vs0mg"},{"bike_id":"c04d4476-e066-42f5-9923-2a6a5a177212","system_id":"levelo_inurba_marseille","lat":43.29256,"lon":5.40916,"is_reserved":false,"is_disabled":false,"rental_uris":{"android":"levelo://app?vid=c04d4476-e066-42f5-9923-2a6a5a177212","ios":"levelo://app?vid=c04d4476-e066-42f5-9923-2a6a5a177212"},"vehicle_type_id":"4","last_reported":1726160886,"current_range_meters":10000,"station_id":"ce4bh192rcd13ifvqdc0","pricing_plan_id":"cebpf4jnsgd1na2vs0mg"},{"bike_id":"c5e96473-727a-418c-919e-8d3acae62332","system_id":"levelo_inurba_marseille","lat":43.29227,"lon":5.36036,"is_reserved":false,"is_disabled":false,"rental_uris":{"android":"levelo://app?vid=c5e96473-727a-418c-919e-8d3acae62332","ios":"levelo://app?vid=c5e96473-727a-418c-919e-8d3acae62332"},"vehicle_type_id":"4","last_reported":1726160886,"current_range_meters":10000,"station_id":"ce4bhbh2rcd13ifvqeqg","pricing_plan_id":"cebpf4jnsgd1na2vs0mg"},{"bike_id":"586a8a04-2bc4-442a-9e9b-fc6e8ce7cc89","system_id":"levelo_inurba_marseille","lat":43.292,"lon":5.39323,"is_reserved":false,"is_disabled":false,"rental_uris":{"android":"levelo://app?vid=586a8a04-2bc4-442a-9e9b-fc6e8ce7cc89","ios":"levelo://app?vid=586a8a04-2bc4-442a-9e9b-fc6e8ce7cc89"},"vehicle_type_id":"4","last_reported":1726160886,"current_range_meters":12000,"station_id":"ce4bh192rcd13ifvqdd0","pricing_plan_id":"cebpf4jnsgd1na2vs0mg"},{"bike_id":"1b6b4677-9c6b-4e29-9bf6-abb793cfb377","system_id":"levelo_inurba_marseille","lat":43.29226,"lon":5.36047,"is_reserved":false,"is_disabled":false,"rental_uris":{"android":"levelo://app?vid=1b6b4677-9c6b-4e29-9bf6-abb793cfb377","ios":"levelo://app?vid=1b6b4677-9c6b-4e29-9bf6-abb793cfb377"},"vehicle_type_id":"4","last_reported":1726160886,"current_range_meters":38800,"station_id":"ce4bhbh2rcd13ifvqeqg","pricing_plan_id":"cebpf4jnsgd1na2vs0mg"},{"bike_id":"42730b64-4326-485c-ac36-4ff31138a499","system_id":"levelo_inurba_marseille","lat":43.31328,"lon":5.39689,"is_reserved":false,"is_disabled":false,"rental_uris":{"android":"levelo://app?vid=42730b64-4326-485c-ac36-4ff31138a499","ios":"levelo://app?vid=42730b64-4326-485c-ac36-4ff31138a499"},"vehicle_type_id":"4","last_reported":1726160886,"current_range_meters":10800,"station_id":"ce4bgvp2rcd13ifvqcu0","pricing_plan_id":"cebpf4jnsgd1na2vs0mg"},{"bike_id":"9cb9ab69-3148-4b2f-a970-03143086caba","system_id":"levelo_inurba_marseille","lat":43.29012,"lon":5.35617,"is_reserved":false,"is_disabled":false,"rental_uris":{"android":"levelo://app?vid=9cb9ab69-3148-4b2f-a970-03143086caba","ios":"levelo://app?vid=9cb9ab69-3148-4b2f-a970-03143086caba"},"vehicle_type_id":"4","last_reported":1726160886,"current_range_meters":6000,"station_id":"ce4bhb92rcd13ifvqen0","pricing_plan_id":"cebpf4jnsgd1na2vs0mg"},{"bike_id":"bb7acf50-b6bc-4b2d-adf4-833abc23b24c","system_id":"levelo_inurba_marseille","lat":43.23197,"lon":5.35546,"is_reserved":false,"is_disabled":false,"rental_uris":{"android":"levelo://app?vid=bb7acf50-b6bc-4b2d-adf4-833abc23b24c","ios":"levelo://app?vid=bb7acf50-b6bc-4b2d-adf4-833abc23b24c"},"vehicle_type_id":"4","last_reported":1726160886,"current_range_meters":22400,"station_id":"ce4bhu92rcd13ifvqi70","pricing_plan_id":"cebpf4jnsgd1na2vs0mg"},{"bike_id":"ac8737b6-966e-453d-9d42-97241ab1f048","system_id":"levelo_inurba_marseille","lat":43.32366,"lon":5.38886,"is_reserved":false,"is_disabled":false,"rental_uris":{"android":"levelo://app?vid=ac8737b6-966e-453d-9d42-97241ab1f048","ios":"levelo://app?vid=ac8737b6-966e-453d-9d42-97241ab1f048"},"vehicle_type_id":"4","last_reported":1726160886,"current_range_meters":33600,"station_id":"ce4bhqp2rcd13ifvqhog","pricing_plan_id":"cebpf4jnsgd1na2vs0mg"},{"bike_id":"8065c7d2-6b7f-42b9-bf39-a5c7a8ee9a7d","system_id":"levelo_inurba_marseille","lat":43.31762,"lon":5.39006,"is_reserved":false,"is_disabled":false,"rental_uris":{"android":"levelo://app?vid=8065c7d2-6b7f-42b9-bf39-a5c7a8ee9a7d","ios":"levelo://app?vid=8065c7d2-6b7f-42b9-bf39-a5c7a8ee9a7d"},"vehicle_type_id":"4","last_reported":1726160886,"current_range_meters":6400,"station_id":"ce4bhqp2rcd13ifvqhng","pricing_plan_id":"cebpf4jnsgd1na2vs0mg"},{"bike_id":"8eff384a-46bc-44b5-a7c3-c23a94eadd4c","system_id":"levelo_inurba_marseille","lat":43.24391,"lon":5.37056,"is_reserved":false,"is_disabled":false,"rental_uris":{"android":"levelo://app?vid=8eff384a-46bc-44b5-a7c3-c23a94eadd4c","ios":"levelo://app?vid=8eff384a-46bc-44b5-a7c3-c23a94eadd4c"},"vehicle_type_id":"4","last_reported":1726160886,"current_range_meters":30800,"station_id":"ce4bhhh2rcd13ifvqfk0","pricing_plan_id":"cebpf4jnsgd1na2vs0mg"},{"bike_id":"f0688d67-cf24-485f-b6eb-5709935e8360","system_id":"levelo_inurba_marseille","lat":43.294988,"lon":5.386059,"is_reserved":false,"is_disabled":false,"rental_uris":{"android":"levelo://app?vid=f0688d67-cf24-485f-b6eb-5709935e8360","ios":"levelo://app?vid=f0688d67-cf24-485f-b6eb-5709935e8360"},"vehicle_type_id":"4","last_reported":1726160886,"current_range_meters":8800,"station_id":"","pricing_plan_id":"cebpf4jnsgd1na2vs0mg"},{"bike_id":"86f19a36-bb1a-4269-88e8-5864eaf9f751","system_id":"levelo_inurba_marseille","lat":43.25083,"lon":5.39511,"is_reserved":false,"is_disabled":false,"rental_uris":{"android":"levelo://app?vid=86f19a36-bb1a-4269-88e8-5864eaf9f751","ios":"levelo://app?vid=86f19a36-bb1a-4269-88e8-5864eaf9f751"},"vehicle_type_id":"4","last_reported":1726160886,"current_range_meters":34000,"station_id":"ce4bhm12rcd13ifvqgkg","pricing_plan_id":"cebpf4jnsgd1na2vs0mg"},{"bike_id":"d38120ce-391a-4b4a-95ed-a2b396777ceb","system_id":"levelo_inurba_marseille","lat":43.26684,"lon":5.38267,"is_reserved":false,"is_disabled":false,"rental_uris":{"android":"levelo://app?vid=d38120ce-391a-4b4a-95ed-a2b396777ceb","ios":"levelo://app?vid=d38120ce-391a-4b4a-95ed-a2b396777ceb"},"vehicle_type_id":"4","last_reported":1726160886,"current_range_meters":25200,"station_id":"ce4bhg92rcd13ifvqf90","pricing_plan_id":"cebpf4jnsgd1na2vs0mg"},{"bike_id":"122a7256-bb08-44be-a52d-61d7798a2fb3","system_id":"levelo_inurba_marseille","lat":43.29021,"lon":5.38631,"is_reserved":false,"is_disabled":false,"rental_uris":{"android":"levelo://app?vid=122a7256-bb08-44be-a52d-61d7798a2fb3","ios":"levelo://app?vid=122a7256-bb08-44be-a52d-61d7798a2fb3"},"vehicle_type_id":"4","last_reported":1726160886,"current_range_meters":38800,"station_id":"ce4bh4p2rcd13ifvqe0g","pricing_plan_id":"cebpf4jnsgd1na2vs0mg"},{"bike_id":"af5208da-4062-421b-9888-91b1105f63da","system_id":"levelo_inurba_marseille","lat":43.24813,"lon":5.37456,"is_reserved":false,"is_disabled":false,"rental_uris":{"android":"levelo://app?vid=af5208da-4062-421b-9888-91b1105f63da","ios":"levelo://app?vid=af5208da-4062-421b-9888-91b1105f63da"},"vehicle_type_id":"4","last_reported":1726160886,"current_range_meters":11600,"station_id":"ce4bhgh2rcd13ifvqfb0","pricing_plan_id":"cebpf4jnsgd1na2vs0mg"},{"bike_id":"fd6b6a1f-b001-4db9-9087-2349d3247844","system_id":"levelo_inurba_marseille","lat":43.3133,"lon":5.3969,"is_reserved":false,"is_disabled":false,"rental_uris":{"android":"levelo://app?vid=fd6b6a1f-b001-4db9-9087-2349d3247844","ios":"levelo://app?vid=fd6b6a1f-b001-4db9-9087-2349d3247844"},"vehicle_type_id":"4","last_reported":1726160886,"current_range_meters":33200,"station_id":"ce4bgvp2rcd13ifvqcu0","pricing_plan_id":"cebpf4jnsgd1na2vs0mg"},{"bike_id":"dd2d66a6-976d-43e6-83be-d6211ff78acc","system_id":"levelo_inurba_marseille","lat":43.33722,"lon":5.39176,"is_reserved":false,"is_disabled":false,"rental_uris":{"android":"levelo://app?vid=dd2d66a6-976d-43e6-83be-d6211ff78acc","ios":"levelo://app?vid=dd2d66a6-976d-43e6-83be-d6211ff78acc"},"vehicle_type_id":"4","last_reported":1726160886,"current_range_meters":10800,"station_id":"ce4bhr92rcd13ifvqhsg","pricing_plan_id":"cebpf4jnsgd1na2vs0mg"},{"bike_id":"5ef7b96a-1cb8-4f42-af16-3a0d049b19cc","system_id":"levelo_inurba_marseille","lat":43.29554,"lon":5.42287,"is_reserved":false,"is_disabled":false,"rental_uris":{"android":"levelo://app?vid=5ef7b96a-1cb8-4f42-af16-3a0d049b19cc","ios":"levelo://app?vid=5ef7b96a-1cb8-4f42-af16-3a0d049b19cc"},"vehicle_type_id":"4","last_reported":1726160886,"current_range_meters":14800,"station_id":"ce4bhph2rcd13ifvqhdg","pricing_plan_id":"cebpf4jnsgd1na2vs0mg"},{"bike_id":"530226a5-933d-48fb-8564-a25d50a9c281","system_id":"levelo_inurba_marseille","lat":43.27818,"lon":5.40711,"is_reserved":false,"is_disabled":false,"rental_uris":{"android":"levelo://app?vid=530226a5-933d-48fb-8564-a25d50a9c281","ios":"levelo://app?vid=530226a5-933d-48fb-8564-a25d50a9c281"},"vehicle_type_id":"4","last_reported":1726160886,"current_range_meters":33200,"station_id":"ce4bhnh2rcd13ifvqgtg","pricing_plan_id":"cebpf4jnsgd1na2vs0mg"},{"bike_id":"f5636a68-0379-41fa-8f47-f8ba767dfc1a","system_id":"levelo_inurba_marseille","lat":43.2742,"lon":5.39408,"is_reserved":false,"is_disabled":false,"rental_uris":{"android":"levelo://app?vid=f5636a68-0379-41fa-8f47-f8ba767dfc1a","ios":"levelo://app?vid=f5636a68-0379-41fa-8f47-f8ba767dfc1a"},"vehicle_type_id":"4","last_reported":1726160886,"current_range_meters":6800,"station_id":"ce4bhdp2rcd13ifvqf20","pricing_plan_id":"cebpf4jnsgd1na2vs0mg"},{"bike_id":"bd7be440-8a27-4193-813b-1ecc460eb61e","system_id":"levelo_inurba_marseille","lat":43.33023,"lon":5.39041,"is_reserved":false,"is_disabled":false,"rental_uris":{"android":"levelo://app?vid=bd7be440-8a27-4193-813b-1ecc460eb61e","ios":"levelo://app?vid=bd7be440-8a27-4193-813b-1ecc460eb61e"},"vehicle_type_id":"4","last_reported":1726160886,"current_range_meters":6000,"station_id":"ce4bhr92rcd13ifvqhrg","pricing_plan_id":"cebpf4jnsgd1na2vs0mg"},{"bike_id":"f88de659-42f9-425c-94b6-8432653529f5","system_id":"levelo_inurba_marseille","lat":43.27942,"lon":5.41042,"is_reserved":false,"is_disabled":false,"rental_uris":{"android":"levelo://app?vid=f88de659-42f9-425c-94b6-8432653529f5","ios":"levelo://app?vid=f88de659-42f9-425c-94b6-8432653529f5"},"vehicle_type_id":"4","last_reported":1726160886,"current_range_meters":3200,"station_id":"ce4bhnp2rcd13ifvqh0g","pricing_plan_id":"cebpf4jnsgd1na2vs0mg"},{"bike_id":"7127940f-21af-4791-8d17-3ebd4e085ec1","system_id":"levelo_inurba_marseille","lat":43.25502,"lon":5.37646,"is_reserved":false,"is_disabled":false,"rental_uris":{"android":"levelo://app?vid=7127940f-21af-4791-8d17-3ebd4e085ec1","ios":"levelo://app?vid=7127940f-21af-4791-8d17-3ebd4e085ec1"},"vehicle_type_id":"4","last_reported":1726160886,"current_range_meters":2800,"station_id":"ce4bhh12rcd13ifvqff0","pricing_plan_id":"cebpf4jnsgd1na2vs0mg"},{"bike_id":"87692f4e-dc87-48f5-85ba-80f054d01568","system_id":"levelo_inurba_marseille","lat":43.30138,"lon":5.39876,"is_reserved":false,"is_disabled":false,"rental_uris":{"android":"levelo://app?vid=87692f4e-dc87-48f5-85ba-80f054d01568","ios":"levelo://app?vid=87692f4e-dc87-48f5-85ba-80f054d01568"},"vehicle_type_id":"4","last_reported":1726160886,"current_range_meters":39200,"station_id":"ce4bh0h2rcd13ifvqd40","pricing_plan_id":"cebpf4jnsgd1na2vs0mg"},{"bike_id":"d63b08fd-7716-422a-94e4-8f1dfff5bb11","system_id":"levelo_inurba_marseille","lat":43.28616,"lon":5.35102,"is_reserved":false,"is_disabled":false,"rental_uris":{"android":"levelo://app?vid=d63b08fd-7716-422a-94e4-8f1dfff5bb11","ios":"levelo://app?vid=d63b08fd-7716-422a-94e4-8f1dfff5bb11"},"vehicle_type_id":"4","last_reported":1726160886,"current_range_meters":17200,"station_id":"ce4bhch2rcd13ifvqeug","pricing_plan_id":"cebpf4jnsgd1na2vs0mg"},{"bike_id":"89a7d080-1ba1-4969-a2b0-416d29c7da19","system_id":"levelo_inurba_marseille","lat":43.289368,"lon":5.366398,"is_reserved":false,"is_disabled":false,"rental_uris":{"android":"levelo://app?vid=89a7d080-1ba1-4969-a2b0-416d29c7da19","ios":"levelo://app?vid=89a7d080-1ba1-4969-a2b0-416d29c7da19"},"vehicle_type_id":"4","last_reported":1726160886,"current_range_meters":37600,"station_id":"ce4bhap2rcd13ifvqek0","pricing_plan_id":"cebpf4jnsgd1na2vs0mg"},{"bike_id":"599eaaf8-a1b9-4b78-8074-8ec83fd4d3da","system_id":"levelo_inurba_marseille","lat":43.23198,"lon":5.35539,"is_reserved":false,"is_disabled":false,"rental_uris":{"android":"levelo://app?vid=599eaaf8-a1b9-4b78-8074-8ec83fd4d3da","ios":"levelo://app?vid=599eaaf8-a1b9-4b78-8074-8ec83fd4d3da"},"vehicle_type_id":"4","last_reported":1726160886,"current_range_meters":7200,"station_id":"ce4bhu92rcd13ifvqi70","pricing_plan_id":"cebpf4jnsgd1na2vs0mg"},{"bike_id":"2a93130c-e65e-4177-833e-035ddc7a9c9a","system_id":"levelo_inurba_marseille","lat":43.26688,"lon":5.38272,"is_reserved":false,"is_disabled":false,"rental_uris":{"android":"levelo://app?vid=2a93130c-e65e-4177-833e-035ddc7a9c9a","ios":"levelo://app?vid=2a93130c-e65e-4177-833e-035ddc7a9c9a"},"vehicle_type_id":"4","last_reported":1726160886,"current_range_meters":36800,"station_id":"ce4bhg92rcd13ifvqf90","pricing_plan_id":"cebpf4jnsgd1na2vs0mg"},{"bike_id":"4551c52b-7c04-4aae-a3b5-84c484bf4ee7","system_id":"levelo_inurba_marseille","lat":43.2956,"lon":5.42294,"is_reserved":false,"is_disabled":false,"rental_uris":{"android":"levelo://app?vid=4551c52b-7c04-4aae-a3b5-84c484bf4ee7","ios":"levelo://app?vid=4551c52b-7c04-4aae-a3b5-84c484bf4ee7"},"vehicle_type_id":"4","last_reported":1726160886,"current_range_meters":31200,"station_id":"ce4bhph2rcd13ifvqhdg","pricing_plan_id":"cebpf4jnsgd1na2vs0mg"},{"bike_id":"3c0f725e-5bd7-4a7d-8d4d-10bfd925df87","system_id":"levelo_inurba_marseille","lat":43.26781,"lon":5.3942,"is_reserved":false,"is_disabled":false,"rental_uris":{"android":"levelo://app?vid=3c0f725e-5bd7-4a7d-8d4d-10bfd925df87","ios":"levelo://app?vid=3c0f725e-5bd7-4a7d-8d4d-10bfd925df87"},"vehicle_type_id":"4","last_reported":1726160886,"current_range_meters":3200,"station_id":"ce4bhh12rcd13ifvqfg0","pricing_plan_id":"cebpf4jnsgd1na2vs0mg"},{"bike_id":"07936336-8860-4945-aac4-760b8a05b2b6","system_id":"levelo_inurba_marseille","lat":43.314758,"lon":5.372614,"is_reserved":false,"is_disabled":false,"rental_uris":{"android":"levelo://app?vid=07936336-8860-4945-aac4-760b8a05b2b6","ios":"levelo://app?vid=07936336-8860-4945-aac4-760b8a05b2b6"},"vehicle_type_id":"4","last_reported":1726160886,"current_range_meters":8400,"station_id":"ce4bgt12rcd13ifvqcd0","pricing_plan_id":"cebpf4jnsgd1na2vs0mg"},{"bike_id":"37bb5d46-6bb1-45fe-8ad8-22af0faa48ee","system_id":"levelo_inurba_marseille","lat":43.286123,"lon":5.351101,"is_reserved":false,"is_disabled":false,"rental_uris":{"android":"levelo://app?vid=37bb5d46-6bb1-45fe-8ad8-22af0faa48ee","ios":"levelo://app?vid=37bb5d46-6bb1-45fe-8ad8-22af0faa48ee"},"vehicle_type_id":"4","last_reported":1726160886,"current_range_meters":9200,"station_id":"ce4bhch2rcd13ifvqeug","pricing_plan_id":"cebpf4jnsgd1na2vs0mg"},{"bike_id":"f6431a50-5185-4c6f-aeaa-564ce318a3da","system_id":"levelo_inurba_marseille","lat":43.31756,"lon":5.39016,"is_reserved":false,"is_disabled":false,"rental_uris":{"android":"levelo://app?vid=f6431a50-5185-4c6f-aeaa-564ce318a3da","ios":"levelo://app?vid=f6431a50-5185-4c6f-aeaa-564ce318a3da"},"vehicle_type_id":"4","last_reported":1726160886,"current_range_meters":16000,"station_id":"ce4bhqp2rcd13ifvqhng","pricing_plan_id":"cebpf4jnsgd1na2vs0mg"},{"bike_id":"fa02e1ab-12a4-42d7-99e9-040959fdad4f","system_id":"levelo_inurba_marseille","lat":43.24592,"lon":5.39154,"is_reserved":false,"is_disabled":false,"rental_uris":{"android":"levelo://app?vid=fa02e1ab-12a4-42d7-99e9-040959fdad4f","ios":"levelo://app?vid=fa02e1ab-12a4-42d7-99e9-040959fdad4f"},"vehicle_type_id":"4","last_reported":1726160886,"current_range_meters":34000,"station_id":"","pricing_plan_id":"cebpf4jnsgd1na2vs0mg"},{"bike_id":"dc686f47-01f5-4a98-ac1c-77d1cebffb8c","system_id":"levelo_inurba_marseille","lat":43.23968,"lon":5.36629,"is_reserved":false,"is_disabled":false,"rental_uris":{"android":"levelo://app?vid=dc686f47-01f5-4a98-ac1c-77d1cebffb8c","ios":"levelo://app?vid=dc686f47-01f5-4a98-ac1c-77d1cebffb8c"},"vehicle_type_id":"4","last_reported":1726160886,"current_range_meters":26000,"station_id":"ce4bhi12rcd13ifvqfp0","pricing_plan_id":"cebpf4jnsgd1na2vs0mg"},{"bike_id":"6beb15ed-2c8d-4076-af9f-d4d302e6aee1","system_id":"levelo_inurba_marseille","lat":43.24087,"lon":5.3774,"is_reserved":false,"is_disabled":false,"rental_uris":{"android":"levelo://app?vid=6beb15ed-2c8d-4076-af9f-d4d302e6aee1","ios":"levelo://app?vid=6beb15ed-2c8d-4076-af9f-d4d302e6aee1"},"vehicle_type_id":"4","last_reported":1726160886,"current_range_meters":38400,"station_id":"ce4bhnp2rcd13ifvqgvg","pricing_plan_id":"cebpf4jnsgd1na2vs0mg"},{"bike_id":"8499aa7d-3df7-4854-8a3b-728308216b5a","system_id":"levelo_inurba_marseille","lat":43.25497,"lon":5.37645,"is_reserved":false,"is_disabled":false,"rental_uris":{"android":"levelo://app?vid=8499aa7d-3df7-4854-8a3b-728308216b5a","ios":"levelo://app?vid=8499aa7d-3df7-4854-8a3b-728308216b5a"},"vehicle_type_id":"4","last_reported":1726160886,"current_range_meters":32800,"station_id":"ce4bhh12rcd13ifvqff0","pricing_plan_id":"cebpf4jnsgd1na2vs0mg"},{"bike_id":"2d8cb670-bf24-4704-bf01-55da6ccdd101","system_id":"levelo_inurba_marseille","lat":43.295467,"lon":5.391613,"is_reserved":false,"is_disabled":false,"rental_uris":{"android":"levelo://app?vid=2d8cb670-bf24-4704-bf01-55da6ccdd101","ios":"levelo://app?vid=2d8cb670-bf24-4704-bf01-55da6ccdd101"},"vehicle_type_id":"4","last_reported":1726160886,"current_range_meters":8000,"station_id":"ce4bh3p2rcd13ifvqdp0","pricing_plan_id":"cebpf4jnsgd1na2vs0mg"},{"bike_id":"ada020d2-c81e-4662-82f3-60dd76b35180","system_id":"levelo_inurba_marseille","lat":43.27444,"lon":5.39397,"is_reserved":false,"is_disabled":false,"rental_uris":{"android":"levelo://app?vid=ada020d2-c81e-4662-82f3-60dd76b35180","ios":"levelo://app?vid=ada020d2-c81e-4662-82f3-60dd76b35180"},"vehicle_type_id":"4","last_reported":1726160886,"current_range_meters":0,"station_id":"ce4bhdp2rcd13ifvqf20","pricing_plan_id":"cebpf4jnsgd1na2vs0mg"},{"bike_id":"74052021-da2e-4217-b41e-898635a93c1d","system_id":"levelo_inurba_marseille","lat":43.282702,"lon":5.350594,"is_reserved":false,"is_disabled":false,"rental_uris":{"android":"levelo://app?vid=74052021-da2e-4217-b41e-898635a93c1d","ios":"levelo://app?vid=74052021-da2e-4217-b41e-898635a93c1d"},"vehicle_type_id":"4","last_reported":1726160886,"current_range_meters":33200,"station_id":"ce4bgs92rcd13ifvqcc0","pricing_plan_id":"cebpf4jnsgd1na2vs0mg"},{"bike_id":"878dba52-760a-4e06-83d4-05048a33158a","system_id":"levelo_inurba_marseille","lat":43.29027,"lon":5.38635,"is_reserved":false,"is_disabled":false,"rental_uris":{"android":"levelo://app?vid=878dba52-760a-4e06-83d4-05048a33158a","ios":"levelo://app?vid=878dba52-760a-4e06-83d4-05048a33158a"},"vehicle_type_id":"4","last_reported":1726160886,"current_range_meters":38800,"station_id":"ce4bh4p2rcd13ifvqe0g","pricing_plan_id":"cebpf4jnsgd1na2vs0mg"},{"bike_id":"56643592-b545-4d76-afa6-51a626025a53","system_id":"levelo_inurba_marseille","lat":43.29025,"lon":5.38626,"is_reserved":false,"is_disabled":false,"rental_uris":{"android":"levelo://app?vid=56643592-b545-4d76-afa6-51a626025a53","ios":"levelo://app?vid=56643592-b545-4d76-afa6-51a626025a53"},"vehicle_type_id":"4","last_reported":1726160886,"current_range_meters":38800,"station_id":"ce4bh4p2rcd13ifvqe0g","pricing_plan_id":"cebpf4jnsgd1na2vs0mg"},{"bike_id":"5596ce60-9839-4211-8445-311576022290","system_id":"levelo_inurba_marseille","lat":43.25584,"lon":5.38235,"is_reserved":false,"is_disabled":false,"rental_uris":{"android":"levelo://app?vid=5596ce60-9839-4211-8445-311576022290","ios":"levelo://app?vid=5596ce60-9839-4211-8445-311576022290"},"vehicle_type_id":"4","last_reported":1726160886,"current_range_meters":38400,"station_id":"ce4bhih2rcd13ifvqfs0","pricing_plan_id":"cebpf4jnsgd1na2vs0mg"},{"bike_id":"d1ccc78f-f60c-40d0-99e1-313fa3ee4698","system_id":"levelo_inurba_marseille","lat":43.32039,"lon":5.4157,"is_reserved":false,"is_disabled":false,"rental_uris":{"android":"levelo://app?vid=d1ccc78f-f60c-40d0-99e1-313fa3ee4698","ios":"levelo://app?vid=d1ccc78f-f60c-40d0-99e1-313fa3ee4698"},"vehicle_type_id":"4","last_reported":1726160886,"current_range_meters":33600,"station_id":"ce4bhq92rcd13ifvqhkg","pricing_plan_id":"cebpf4jnsgd1na2vs0mg"},{"bike_id":"ccdba629-1203-4135-8da7-2b049df258bb","system_id":"levelo_inurba_marseille","lat":43.29093,"lon":5.38144,"is_reserved":false,"is_disabled":false,"rental_uris":{"android":"levelo://app?vid=ccdba629-1203-4135-8da7-2b049df258bb","ios":"levelo://app?vid=ccdba629-1203-4135-8da7-2b049df258bb"},"vehicle_type_id":"4","last_reported":1726160886,"current_range_meters":32000,"station_id":"ce4bh512rcd13ifvqe2g","pricing_plan_id":"cebpf4jnsgd1na2vs0mg"},{"bike_id":"9c1c8234-7840-4bea-8e39-cbca34b58d96","system_id":"levelo_inurba_marseille","lat":43.31331,"lon":5.39686,"is_reserved":false,"is_disabled":false,"rental_uris":{"android":"levelo://app?vid=9c1c8234-7840-4bea-8e39-cbca34b58d96","ios":"levelo://app?vid=9c1c8234-7840-4bea-8e39-cbca34b58d96"},"vehicle_type_id":"4","last_reported":1726160886,"current_range_meters":24400,"station_id":"ce4bgvp2rcd13ifvqcu0","pricing_plan_id":"cebpf4jnsgd1na2vs0mg"},{"bike_id":"3250f807-485a-44fb-bd9e-7bc2076852cf","system_id":"levelo_inurba_marseille","lat":43.30811,"lon":5.38147,"is_reserved":false,"is_disabled":false,"rental_uris":{"android":"levelo://app?vid=3250f807-485a-44fb-bd9e-7bc2076852cf","ios":"levelo://app?vid=3250f807-485a-44fb-bd9e-7bc2076852cf"},"vehicle_type_id":"4","last_reported":1726160886,"current_range_meters":19200,"station_id":"ce4bgt12rcd13ifvqce0","pricing_plan_id":"cebpf4jnsgd1na2vs0mg"},{"bike_id":"0e7a2a12-7489-46fe-8319-6b8c6fb975b4","system_id":"levelo_inurba_marseille","lat":43.24388,"lon":5.37058,"is_reserved":false,"is_disabled":false,"rental_uris":{"android":"levelo://app?vid=0e7a2a12-7489-46fe-8319-6b8c6fb975b4","ios":"levelo://app?vid=0e7a2a12-7489-46fe-8319-6b8c6fb975b4"},"vehicle_type_id":"4","last_reported":1726160886,"current_range_meters":11200,"station_id":"ce4bhhh2rcd13ifvqfk0","pricing_plan_id":"cebpf4jnsgd1na2vs0mg"},{"bike_id":"5b98f1fc-f875-4fe7-8c26-ec55eded5fe8","system_id":"levelo_inurba_marseille","lat":43.3122,"lon":5.36857,"is_reserved":false,"is_disabled":false,"rental_uris":{"android":"levelo://app?vid=5b98f1fc-f875-4fe7-8c26-ec55eded5fe8","ios":"levelo://app?vid=5b98f1fc-f875-4fe7-8c26-ec55eded5fe8"},"vehicle_type_id":"4","last_reported":1726160886,"current_range_meters":8800,"station_id":"ce4bgl92rcd13ifvqbq0","pricing_plan_id":"cebpf4jnsgd1na2vs0mg"},{"bike_id":"7e30533e-4494-4f63-98a5-7809aac44858","system_id":"levelo_inurba_marseille","lat":43.29551,"lon":5.4228,"is_reserved":false,"is_disabled":false,"rental_uris":{"android":"levelo://app?vid=7e30533e-4494-4f63-98a5-7809aac44858","ios":"levelo://app?vid=7e30533e-4494-4f63-98a5-7809aac44858"},"vehicle_type_id":"4","last_reported":1726160886,"current_range_meters":19600,"station_id":"ce4bhph2rcd13ifvqhdg","pricing_plan_id":"cebpf4jnsgd1na2vs0mg"},{"bike_id":"c8fe9262-060b-4378-aaa3-300e4e21dd6c","system_id":"levelo_inurba_marseille","lat":43.250732,"lon":5.403278,"is_reserved":false,"is_disabled":false,"rental_uris":{"android":"levelo://app?vid=c8fe9262-060b-4378-aaa3-300e4e21dd6c","ios":"levelo://app?vid=c8fe9262-060b-4378-aaa3-300e4e21dd6c"},"vehicle_type_id":"4","last_reported":1726160886,"current_range_meters":18800,"station_id":"ce4bhlh2rcd13ifvqgig","pricing_plan_id":"cebpf4jnsgd1na2vs0mg"},{"bike_id":"2f16c72b-bc8e-4aea-9414-dde97b34b3f4","system_id":"levelo_inurba_marseille","lat":43.27173,"lon":5.40994,"is_reserved":false,"is_disabled":false,"rental_uris":{"android":"levelo://app?vid=2f16c72b-bc8e-4aea-9414-dde97b34b3f4","ios":"levelo://app?vid=2f16c72b-bc8e-4aea-9414-dde97b34b3f4"},"vehicle_type_id":"4","last_reported":1726160886,"current_range_meters":21600,"station_id":"ce4bhl12rcd13ifvqgf0","pricing_plan_id":"cebpf4jnsgd1na2vs0mg"},{"bike_id":"40460302-338d-49f3-bed1-a91ee5c68a33","system_id":"levelo_inurba_marseille","lat":43.290607,"lon":5.359059,"is_reserved":false,"is_disabled":false,"rental_uris":{"android":"levelo://app?vid=40460302-338d-49f3-bed1-a91ee5c68a33","ios":"levelo://app?vid=40460302-338d-49f3-bed1-a91ee5c68a33"},"vehicle_type_id":"4","last_reported":1726160886,"current_range_meters":37600,"station_id":"ce4bha92rcd13ifvqeg0","pricing_plan_id":"cebpf4jnsgd1na2vs0mg"},{"bike_id":"04829fc2-803b-4e7f-badc-b83bd2b8bea4","system_id":"levelo_inurba_marseille","lat":43.28154,"lon":5.426497,"is_reserved":false,"is_disabled":false,"rental_uris":{"android":"levelo://app?vid=04829fc2-803b-4e7f-badc-b83bd2b8bea4","ios":"levelo://app?vid=04829fc2-803b-4e7f-badc-b83bd2b8bea4"},"vehicle_type_id":"4","last_reported":1726160886,"current_range_meters":3600,"station_id":"ce4bhnh2rcd13ifvqgug","pricing_plan_id":"cebpf4jnsgd1na2vs0mg"},{"bike_id":"56a95e77-691b-41b1-8661-fe122a16547f","system_id":"levelo_inurba_marseille","lat":43.29268,"lon":5.38428,"is_reserved":false,"is_disabled":false,"rental_uris":{"android":"levelo://app?vid=56a95e77-691b-41b1-8661-fe122a16547f","ios":"levelo://app?vid=56a95e77-691b-41b1-8661-fe122a16547f"},"vehicle_type_id":"4","last_reported":1726160886,"current_range_meters":16400,"station_id":"ce4bh692rcd13ifvqea0","pricing_plan_id":"cebpf4jnsgd1na2vs0mg"},{"bike_id":"a7b7f8d0-3d61-4c0b-9251-35f7e67c851d","system_id":"levelo_inurba_marseille","lat":43.29519,"lon":5.39037,"is_reserved":false,"is_disabled":false,"rental_uris":{"android":"levelo://app?vid=a7b7f8d0-3d61-4c0b-9251-35f7e67c851d","ios":"levelo://app?vid=a7b7f8d0-3d61-4c0b-9251-35f7e67c851d"},"vehicle_type_id":"4","last_reported":1726160886,"current_range_meters":17200,"station_id":"ce4bh3p2rcd13ifvqdp0","pricing_plan_id":"cebpf4jnsgd1na2vs0mg"},{"bike_id":"9a1a9d3e-c3b7-4006-a99e-05c92d91f517","system_id":"levelo_inurba_marseille","lat":43.27905,"lon":5.38018,"is_reserved":false,"is_disabled":false,"rental_uris":{"android":"levelo://app?vid=9a1a9d3e-c3b7-4006-a99e-05c92d91f517","ios":"levelo://app?vid=9a1a9d3e-c3b7-4006-a99e-05c92d91f517"},"vehicle_type_id":"4","last_reported":1726160886,"current_range_meters":8400,"station_id":"ce4bhf92rcd13ifvqf50","pricing_plan_id":"cebpf4jnsgd1na2vs0mg"},{"bike_id":"1a8ea2fa-505f-4bc7-a9bf-4eea4727ec73","system_id":"levelo_inurba_marseille","lat":43.25113,"lon":5.40322,"is_reserved":false,"is_disabled":false,"rental_uris":{"android":"levelo://app?vid=1a8ea2fa-505f-4bc7-a9bf-4eea4727ec73","ios":"levelo://app?vid=1a8ea2fa-505f-4bc7-a9bf-4eea4727ec73"},"vehicle_type_id":"4","last_reported":1726160886,"current_range_meters":3600,"station_id":"ce4bhlh2rcd13ifvqgig","pricing_plan_id":"cebpf4jnsgd1na2vs0mg"},{"bike_id":"2b42e99a-0016-4253-a671-c17ea93c574f","system_id":"levelo_inurba_marseille","lat":43.29795,"lon":5.38083,"is_reserved":false,"is_disabled":false,"rental_uris":{"android":"levelo://app?vid=2b42e99a-0016-4253-a671-c17ea93c574f","ios":"levelo://app?vid=2b42e99a-0016-4253-a671-c17ea93c574f"},"vehicle_type_id":"4","last_reported":1726160886,"current_range_meters":38800,"station_id":"ce4bgip2rcd13ifvqbb0","pricing_plan_id":"cebpf4jnsgd1na2vs0mg"},{"bike_id":"f0adbc66-2b5a-49cb-9a84-cfb5390e984e","system_id":"levelo_inurba_marseille","lat":43.292579,"lon":5.383497,"is_reserved":false,"is_disabled":false,"rental_uris":{"android":"levelo://app?vid=f0adbc66-2b5a-49cb-9a84-cfb5390e984e","ios":"levelo://app?vid=f0adbc66-2b5a-49cb-9a84-cfb5390e984e"},"vehicle_type_id":"4","last_reported":1726160886,"current_range_meters":27600,"station_id":"","pricing_plan_id":"cebpf4jnsgd1na2vs0mg"},{"bike_id":"af9421c8-e08e-45c9-9f79-72574fc04e9d","system_id":"levelo_inurba_marseille","lat":43.24169,"lon":5.36395,"is_reserved":false,"is_disabled":false,"rental_uris":{"android":"levelo://app?vid=af9421c8-e08e-45c9-9f79-72574fc04e9d","ios":"levelo://app?vid=af9421c8-e08e-45c9-9f79-72574fc04e9d"},"vehicle_type_id":"4","last_reported":1726160886,"current_range_meters":34800,"station_id":"cpo36qri1sfpv3e86is0","pricing_plan_id":"cebpf4jnsgd1na2vs0mg"},{"bike_id":"2d17714a-824b-4815-a2a1-0c6b667a206d","system_id":"levelo_inurba_marseille","lat":43.25585,"lon":5.38239,"is_reserved":false,"is_disabled":false,"rental_uris":{"android":"levelo://app?vid=2d17714a-824b-4815-a2a1-0c6b667a206d","ios":"levelo://app?vid=2d17714a-824b-4815-a2a1-0c6b667a206d"},"vehicle_type_id":"4","last_reported":1726160886,"current_range_meters":12000,"station_id":"ce4bhih2rcd13ifvqfs0","pricing_plan_id":"cebpf4jnsgd1na2vs0mg"},{"bike_id":"eb26547d-d2dc-4271-9b46-5531bc5409a9","system_id":"levelo_inurba_marseille","lat":43.26069,"lon":5.39393,"is_reserved":false,"is_disabled":false,"rental_uris":{"android":"levelo://app?vid=eb26547d-d2dc-4271-9b46-5531bc5409a9","ios":"levelo://app?vid=eb26547d-d2dc-4271-9b46-5531bc5409a9"},"vehicle_type_id":"4","last_reported":1726160886,"current_range_meters":9600,"station_id":"ce4bhh92rcd13ifvqfj0","pricing_plan_id":"cebpf4jnsgd1na2vs0mg"},{"bike_id":"f400d370-a20e-4ced-86f0-64f62510749c","system_id":"levelo_inurba_marseille","lat":43.3237,"lon":5.38926,"is_reserved":false,"is_disabled":false,"rental_uris":{"android":"levelo://app?vid=f400d370-a20e-4ced-86f0-64f62510749c","ios":"levelo://app?vid=f400d370-a20e-4ced-86f0-64f62510749c"},"vehicle_type_id":"4","last_reported":1726160886,"current_range_meters":8800,"station_id":"","pricing_plan_id":"cebpf4jnsgd1na2vs0mg"},{"bike_id":"062db2c0-7f42-4b55-aea4-0d55c94e85c9","system_id":"levelo_inurba_marseille","lat":43.25869,"lon":5.39902,"is_reserved":false,"is_disabled":false,"rental_uris":{"android":"levelo://app?vid=062db2c0-7f42-4b55-aea4-0d55c94e85c9","ios":"levelo://app?vid=062db2c0-7f42-4b55-aea4-0d55c94e85c9"},"vehicle_type_id":"4","last_reported":1726160886,"current_range_meters":22400,"station_id":"ce4bhl92rcd13ifvqghg","pricing_plan_id":"cebpf4jnsgd1na2vs0mg"},{"bike_id":"d5b8cd47-7a67-4090-a97d-ed8237088151","system_id":"levelo_inurba_marseille","lat":43.2656,"lon":5.37283,"is_reserved":false,"is_disabled":false,"rental_uris":{"android":"levelo://app?vid=d5b8cd47-7a67-4090-a97d-ed8237088151","ios":"levelo://app?vid=d5b8cd47-7a67-4090-a97d-ed8237088151"},"vehicle_type_id":"4","last_reported":1726160886,"current_range_meters":8000,"station_id":"ce4bhg12rcd13ifvqf70","pricing_plan_id":"cebpf4jnsgd1na2vs0mg"},{"bike_id":"3b017a20-23e3-4d1b-be0b-cd7461203094","system_id":"levelo_inurba_marseille","lat":43.298798,"lon":5.436511,"is_reserved":false,"is_disabled":false,"rental_uris":{"android":"levelo://app?vid=3b017a20-23e3-4d1b-be0b-cd7461203094","ios":"levelo://app?vid=3b017a20-23e3-4d1b-be0b-cd7461203094"},"vehicle_type_id":"4","last_reported":1726160886,"current_range_meters":9600,"station_id":"ce4bhpp2rcd13ifvqhfg","pricing_plan_id":"cebpf4jnsgd1na2vs0mg"},{"bike_id":"b650bbd8-b957-4fea-afb8-9ce71134c32e","system_id":"levelo_inurba_marseille","lat":43.298863,"lon":5.389078,"is_reserved":false,"is_disabled":false,"rental_uris":{"android":"levelo://app?vid=b650bbd8-b957-4fea-afb8-9ce71134c32e","ios":"levelo://app?vid=b650bbd8-b957-4fea-afb8-9ce71134c32e"},"vehicle_type_id":"4","last_reported":1726160886,"current_range_meters":19200,"station_id":"ce4bh392rcd13ifvqdl0","pricing_plan_id":"cebpf4jnsgd1na2vs0mg"},{"bike_id":"bc34f07f-3a6f-4181-8419-5fb3e36fd48f","system_id":"levelo_inurba_marseille","lat":43.30136,"lon":5.3878,"is_reserved":false,"is_disabled":false,"rental_uris":{"android":"levelo://app?vid=bc34f07f-3a6f-4181-8419-5fb3e36fd48f","ios":"levelo://app?vid=bc34f07f-3a6f-4181-8419-5fb3e36fd48f"},"vehicle_type_id":"4","last_reported":1726160886,"current_range_meters":11200,"station_id":"ce4bghh2rcd13ifvqb60","pricing_plan_id":"cebpf4jnsgd1na2vs0mg"},{"bike_id":"595bca45-692d-4011-92c5-a1675ad1b9fb","system_id":"levelo_inurba_marseille","lat":43.28569,"lon":5.395,"is_reserved":false,"is_disabled":false,"rental_uris":{"android":"levelo://app?vid=595bca45-692d-4011-92c5-a1675ad1b9fb","ios":"levelo://app?vid=595bca45-692d-4011-92c5-a1675ad1b9fb"},"vehicle_type_id":"4","last_reported":1726160886,"current_range_meters":38800,"station_id":"ce4bh292rcd13ifvqdg0","pricing_plan_id":"cebpf4jnsgd1na2vs0mg"},{"bike_id":"e0ca8291-5315-4c33-bf6b-eb7494ddc760","system_id":"levelo_inurba_marseille","lat":43.33025,"lon":5.39038,"is_reserved":false,"is_disabled":false,"rental_uris":{"android":"levelo://app?vid=e0ca8291-5315-4c33-bf6b-eb7494ddc760","ios":"levelo://app?vid=e0ca8291-5315-4c33-bf6b-eb7494ddc760"},"vehicle_type_id":"4","last_reported":1726160886,"current_range_meters":18800,"station_id":"ce4bhr92rcd13ifvqhrg","pricing_plan_id":"cebpf4jnsgd1na2vs0mg"},{"bike_id":"5df19dbb-8ee8-42f4-8bf7-e43920d893c7","system_id":"levelo_inurba_marseille","lat":43.231537,"lon":5.437128,"is_reserved":false,"is_disabled":false,"rental_uris":{"android":"levelo://app?vid=5df19dbb-8ee8-42f4-8bf7-e43920d893c7","ios":"levelo://app?vid=5df19dbb-8ee8-42f4-8bf7-e43920d893c7"},"vehicle_type_id":"4","last_reported":1726160886,"current_range_meters":6400,"station_id":"ce4bhmp2rcd13ifvqgog","pricing_plan_id":"cebpf4jnsgd1na2vs0mg"},{"bike_id":"d2b5438d-c3ce-408a-97f0-f77b818c95bf","system_id":"levelo_inurba_marseille","lat":43.25931,"lon":5.40913,"is_reserved":false,"is_disabled":false,"rental_uris":{"android":"levelo://app?vid=d2b5438d-c3ce-408a-97f0-f77b818c95bf","ios":"levelo://app?vid=d2b5438d-c3ce-408a-97f0-f77b818c95bf"},"vehicle_type_id":"4","last_reported":1726160886,"current_range_meters":10000,"station_id":"ce4bhm92rcd13ifvqglg","pricing_plan_id":"cebpf4jnsgd1na2vs0mg"},{"bike_id":"61ecd83a-39a5-48b1-9f3f-a0053d2f233e","system_id":"levelo_inurba_marseille","lat":43.28734,"lon":5.36088,"is_reserved":false,"is_disabled":false,"rental_uris":{"android":"levelo://app?vid=61ecd83a-39a5-48b1-9f3f-a0053d2f233e","ios":"levelo://app?vid=61ecd83a-39a5-48b1-9f3f-a0053d2f233e"},"vehicle_type_id":"4","last_reported":1726160886,"current_range_meters":3200,"station_id":"cki0cbj6b192h4jlfktg","pricing_plan_id":"cebpf4jnsgd1na2vs0mg"},{"bike_id":"84c3ba86-110f-4556-a13c-989f6043c930","system_id":"levelo_inurba_marseille","lat":43.28702,"lon":5.39979,"is_reserved":false,"is_disabled":false,"rental_uris":{"android":"levelo://app?vid=84c3ba86-110f-4556-a13c-989f6043c930","ios":"levelo://app?vid=84c3ba86-110f-4556-a13c-989f6043c930"},"vehicle_type_id":"4","last_reported":1726160886,"current_range_meters":1600,"station_id":"ce4bho92rcd13ifvqh3g","pricing_plan_id":"cebpf4jnsgd1na2vs0mg"},{"bike_id":"a6eded9f-b484-4b0e-bf21-5161ffcaa4bf","system_id":"levelo_inurba_marseille","lat":43.289203,"lon":5.383919,"is_reserved":false,"is_disabled":false,"rental_uris":{"android":"levelo://app?vid=a6eded9f-b484-4b0e-bf21-5161ffcaa4bf","ios":"levelo://app?vid=a6eded9f-b484-4b0e-bf21-5161ffcaa4bf"},"vehicle_type_id":"4","last_reported":1726160886,"current_range_meters":38800,"station_id":"ce4bhb92rcd13ifvqen0","pricing_plan_id":"cebpf4jnsgd1na2vs0mg"},{"bike_id":"32171e9d-3c7e-4a3f-8c8d-9170383e06e8","system_id":"levelo_inurba_marseille","lat":43.289721,"lon":5.366335,"is_reserved":false,"is_disabled":false,"rental_uris":{"android":"levelo://app?vid=32171e9d-3c7e-4a3f-8c8d-9170383e06e8","ios":"levelo://app?vid=32171e9d-3c7e-4a3f-8c8d-9170383e06e8"},"vehicle_type_id":"4","last_reported":1726160886,"current_range_meters":16800,"station_id":"ce4bhap2rcd13ifvqek0","pricing_plan_id":"cebpf4jnsgd1na2vs0mg"},{"bike_id":"ea143587-534a-448d-995d-af5ce3b48c8c","system_id":"levelo_inurba_marseille","lat":43.31274,"lon":5.40173,"is_reserved":false,"is_disabled":false,"rental_uris":{"android":"levelo://app?vid=ea143587-534a-448d-995d-af5ce3b48c8c","ios":"levelo://app?vid=ea143587-534a-448d-995d-af5ce3b48c8c"},"vehicle_type_id":"4","last_reported":1726160886,"current_range_meters":30400,"station_id":"ce4bh092rcd13ifvqd30","pricing_plan_id":"cebpf4jnsgd1na2vs0mg"},{"bike_id":"8dd8438a-605c-4e2e-b3e7-6ddb4b97ab5b","system_id":"levelo_inurba_marseille","lat":43.28463,"lon":5.35886,"is_reserved":false,"is_disabled":false,"rental_uris":{"android":"levelo://app?vid=8dd8438a-605c-4e2e-b3e7-6ddb4b97ab5b","ios":"levelo://app?vid=8dd8438a-605c-4e2e-b3e7-6ddb4b97ab5b"},"vehicle_type_id":"4","last_reported":1726160886,"current_range_meters":6800,"station_id":"ce4bhah2rcd13ifvqei0","pricing_plan_id":"cebpf4jnsgd1na2vs0mg"},{"bike_id":"58900521-f788-4090-90d4-8129e5641ef0","system_id":"levelo_inurba_marseille","lat":43.28614,"lon":5.35102,"is_reserved":false,"is_disabled":false,"rental_uris":{"android":"levelo://app?vid=58900521-f788-4090-90d4-8129e5641ef0","ios":"levelo://app?vid=58900521-f788-4090-90d4-8129e5641ef0"},"vehicle_type_id":"4","last_reported":1726160886,"current_range_meters":28000,"station_id":"ce4bhch2rcd13ifvqeug","pricing_plan_id":"cebpf4jnsgd1na2vs0mg"},{"bike_id":"51f06222-6b05-4930-84d5-69e953c99472","system_id":"levelo_inurba_marseille","lat":43.29035,"lon":5.35913,"is_reserved":false,"is_disabled":false,"rental_uris":{"android":"levelo://app?vid=51f06222-6b05-4930-84d5-69e953c99472","ios":"levelo://app?vid=51f06222-6b05-4930-84d5-69e953c99472"},"vehicle_type_id":"4","last_reported":1726160886,"current_range_meters":6800,"station_id":"ce4bha92rcd13ifvqeg0","pricing_plan_id":"cebpf4jnsgd1na2vs0mg"},{"bike_id":"aabbb97b-a90f-465e-9fe1-2283a462b843","system_id":"levelo_inurba_marseille","lat":43.24805,"lon":5.37454,"is_reserved":false,"is_disabled":false,"rental_uris":{"android":"levelo://app?vid=aabbb97b-a90f-465e-9fe1-2283a462b843","ios":"levelo://app?vid=aabbb97b-a90f-465e-9fe1-2283a462b843"},"vehicle_type_id":"4","last_reported":1726160886,"current_range_meters":25600,"station_id":"ce4bhgh2rcd13ifvqfb0","pricing_plan_id":"cebpf4jnsgd1na2vs0mg"},{"bike_id":"2b60e27d-1f44-4c23-bac7-d8b550fa25ea","system_id":"levelo_inurba_marseille","lat":43.25584,"lon":5.38232,"is_reserved":false,"is_disabled":false,"rental_uris":{"android":"levelo://app?vid=2b60e27d-1f44-4c23-bac7-d8b550fa25ea","ios":"levelo://app?vid=2b60e27d-1f44-4c23-bac7-d8b550fa25ea"},"vehicle_type_id":"4","last_reported":1726160886,"current_range_meters":6400,"station_id":"ce4bhih2rcd13ifvqfs0","pricing_plan_id":"cebpf4jnsgd1na2vs0mg"},{"bike_id":"793eae10-aac8-4ad5-a8e2-6b20f0fed479","system_id":"levelo_inurba_marseille","lat":43.29581,"lon":5.36739,"is_reserved":false,"is_disabled":false,"rental_uris":{"android":"levelo://app?vid=793eae10-aac8-4ad5-a8e2-6b20f0fed479","ios":"levelo://app?vid=793eae10-aac8-4ad5-a8e2-6b20f0fed479"},"vehicle_type_id":"4","last_reported":1726160886,"current_range_meters":4000,"station_id":"ce4bgph2rcd13ifvqc2g","pricing_plan_id":"cebpf4jnsgd1na2vs0mg"},{"bike_id":"0e2116c5-2612-49a0-9302-87a4b28803e1","system_id":"levelo_inurba_marseille","lat":43.23964,"lon":5.36629,"is_reserved":false,"is_disabled":false,"rental_uris":{"android":"levelo://app?vid=0e2116c5-2612-49a0-9302-87a4b28803e1","ios":"levelo://app?vid=0e2116c5-2612-49a0-9302-87a4b28803e1"},"vehicle_type_id":"4","last_reported":1726160886,"current_range_meters":25600,"station_id":"ce4bhi12rcd13ifvqfp0","pricing_plan_id":"cebpf4jnsgd1na2vs0mg"},{"bike_id":"c731313d-f2f9-4b34-9cd4-fffcb4bd880b","system_id":"levelo_inurba_marseille","lat":43.27072,"lon":5.42285,"is_reserved":false,"is_disabled":false,"rental_uris":{"android":"levelo://app?vid=c731313d-f2f9-4b34-9cd4-fffcb4bd880b","ios":"levelo://app?vid=c731313d-f2f9-4b34-9cd4-fffcb4bd880b"},"vehicle_type_id":"4","last_reported":1726160886,"current_range_meters":8800,"station_id":"ce4bhk92rcd13ifvqgb0","pricing_plan_id":"cebpf4jnsgd1na2vs0mg"},{"bike_id":"70a8929d-39dc-4d10-9a57-c650f6c9ebae","system_id":"levelo_inurba_marseille","lat":43.28105,"lon":5.3784,"is_reserved":false,"is_disabled":false,"rental_uris":{"android":"levelo://app?vid=70a8929d-39dc-4d10-9a57-c650f6c9ebae","ios":"levelo://app?vid=70a8929d-39dc-4d10-9a57-c650f6c9ebae"},"vehicle_type_id":"4","last_reported":1726160886,"current_range_meters":24400,"station_id":"ce4bha12rcd13ifvqee0","pricing_plan_id":"cebpf4jnsgd1na2vs0mg"},{"bike_id":"59a4a50e-7904-4b14-9a1d-ebfe2b8ccaa4","system_id":"levelo_inurba_marseille","lat":43.2979,"lon":5.40404,"is_reserved":false,"is_disabled":false,"rental_uris":{"android":"levelo://app?vid=59a4a50e-7904-4b14-9a1d-ebfe2b8ccaa4","ios":"levelo://app?vid=59a4a50e-7904-4b14-9a1d-ebfe2b8ccaa4"},"vehicle_type_id":"4","last_reported":1726160886,"current_range_meters":36000,"station_id":"ce4bh112rcd13ifvqd90","pricing_plan_id":"cebpf4jnsgd1na2vs0mg"},{"bike_id":"2ac1ce92-e83f-48c1-8be0-35e4da4cb98f","system_id":"levelo_inurba_marseille","lat":43.24171,"lon":5.3973,"is_reserved":false,"is_disabled":false,"rental_uris":{"android":"levelo://app?vid=2ac1ce92-e83f-48c1-8be0-35e4da4cb98f","ios":"levelo://app?vid=2ac1ce92-e83f-48c1-8be0-35e4da4cb98f"},"vehicle_type_id":"4","last_reported":1726160886,"current_range_meters":17200,"station_id":"ce4bhn12rcd13ifvqgpg","pricing_plan_id":"cebpf4jnsgd1na2vs0mg"},{"bike_id":"5d8c3029-8afd-42a3-afc6-3e55ec92743a","system_id":"levelo_inurba_marseille","lat":43.31266,"lon":5.40175,"is_reserved":false,"is_disabled":false,"rental_uris":{"android":"levelo://app?vid=5d8c3029-8afd-42a3-afc6-3e55ec92743a","ios":"levelo://app?vid=5d8c3029-8afd-42a3-afc6-3e55ec92743a"},"vehicle_type_id":"4","last_reported":1726160886,"current_range_meters":11200,"station_id":"ce4bh092rcd13ifvqd30","pricing_plan_id":"cebpf4jnsgd1na2vs0mg"},{"bike_id":"516bf647-294d-4e54-9da5-d1a26aacd3bb","system_id":"levelo_inurba_marseille","lat":43.27498,"lon":5.42456,"is_reserved":false,"is_disabled":false,"rental_uris":{"android":"levelo://app?vid=516bf647-294d-4e54-9da5-d1a26aacd3bb","ios":"levelo://app?vid=516bf647-294d-4e54-9da5-d1a26aacd3bb"},"vehicle_type_id":"4","last_reported":1726160886,"current_range_meters":19600,"station_id":"ce4bhn92rcd13ifvqgrg","pricing_plan_id":"cebpf4jnsgd1na2vs0mg"},{"bike_id":"4ae98463-2741-4482-9881-f7f1e5b4705e","system_id":"levelo_inurba_marseille","lat":43.33745,"lon":5.37453,"is_reserved":false,"is_disabled":false,"rental_uris":{"android":"levelo://app?vid=4ae98463-2741-4482-9881-f7f1e5b4705e","ios":"levelo://app?vid=4ae98463-2741-4482-9881-f7f1e5b4705e"},"vehicle_type_id":"4","last_reported":1726160886,"current_range_meters":3600,"station_id":"","pricing_plan_id":"cebpf4jnsgd1na2vs0mg"},{"bike_id":"932403e8-9869-498c-8e6a-2ec44ba92dc4","system_id":"levelo_inurba_marseille","lat":43.29312,"lon":5.37176,"is_reserved":false,"is_disabled":false,"rental_uris":{"android":"levelo://app?vid=932403e8-9869-498c-8e6a-2ec44ba92dc4","ios":"levelo://app?vid=932403e8-9869-498c-8e6a-2ec44ba92dc4"},"vehicle_type_id":"4","last_reported":1726160886,"current_range_meters":17600,"station_id":"ce4bgh92rcd13ifvqb40","pricing_plan_id":"cebpf4jnsgd1na2vs0mg"},{"bike_id":"f466871e-6a83-4c36-bd1e-6ca5fa258041","system_id":"levelo_inurba_marseille","lat":43.32486,"lon":5.36576,"is_reserved":false,"is_disabled":false,"rental_uris":{"android":"levelo://app?vid=f466871e-6a83-4c36-bd1e-6ca5fa258041","ios":"levelo://app?vid=f466871e-6a83-4c36-bd1e-6ca5fa258041"},"vehicle_type_id":"4","last_reported":1726160886,"current_range_meters":28800,"station_id":"ce4bhs12rcd13ifvqhvg","pricing_plan_id":"cebpf4jnsgd1na2vs0mg"},{"bike_id":"0336d870-c49d-4470-a71f-452942676f5a","system_id":"levelo_inurba_marseille","lat":43.24385,"lon":5.37058,"is_reserved":false,"is_disabled":false,"rental_uris":{"android":"levelo://app?vid=0336d870-c49d-4470-a71f-452942676f5a","ios":"levelo://app?vid=0336d870-c49d-4470-a71f-452942676f5a"},"vehicle_type_id":"4","last_reported":1726160886,"current_range_meters":30400,"station_id":"ce4bhhh2rcd13ifvqfk0","pricing_plan_id":"cebpf4jnsgd1na2vs0mg"},{"bike_id":"94afb66f-3b8f-4957-931c-65e2151b2389","system_id":"levelo_inurba_marseille","lat":43.24081,"lon":5.37757,"is_reserved":false,"is_disabled":false,"rental_uris":{"android":"levelo://app?vid=94afb66f-3b8f-4957-931c-65e2151b2389","ios":"levelo://app?vid=94afb66f-3b8f-4957-931c-65e2151b2389"},"vehicle_type_id":"4","last_reported":1726160886,"current_range_meters":21600,"station_id":"ce4bhnp2rcd13ifvqgvg","pricing_plan_id":"cebpf4jnsgd1na2vs0mg"},{"bike_id":"83ed2c2a-c3e6-4c71-877c-ab224ee59227","system_id":"levelo_inurba_marseille","lat":43.29528,"lon":5.39033,"is_reserved":false,"is_disabled":false,"rental_uris":{"android":"levelo://app?vid=83ed2c2a-c3e6-4c71-877c-ab224ee59227","ios":"levelo://app?vid=83ed2c2a-c3e6-4c71-877c-ab224ee59227"},"vehicle_type_id":"4","last_reported":1726160886,"current_range_meters":18800,"station_id":"ce4bh3p2rcd13ifvqdp0","pricing_plan_id":"cebpf4jnsgd1na2vs0mg"},{"bike_id":"414d5c0d-e40c-47cc-aab1-07cc410a45c0","system_id":"levelo_inurba_marseille","lat":43.26031,"lon":5.37552,"is_reserved":false,"is_disabled":false,"rental_uris":{"android":"levelo://app?vid=414d5c0d-e40c-47cc-aab1-07cc410a45c0","ios":"levelo://app?vid=414d5c0d-e40c-47cc-aab1-07cc410a45c0"},"vehicle_type_id":"4","last_reported":1726160886,"current_range_meters":28000,"station_id":"ce4bhgh2rcd13ifvqfa0","pricing_plan_id":"cebpf4jnsgd1na2vs0mg"},{"bike_id":"c2c65b70-69f8-4f74-bc0c-5a76c2b4373b","system_id":"levelo_inurba_marseille","lat":43.27908,"lon":5.38014,"is_reserved":false,"is_disabled":false,"rental_uris":{"android":"levelo://app?vid=c2c65b70-69f8-4f74-bc0c-5a76c2b4373b","ios":"levelo://app?vid=c2c65b70-69f8-4f74-bc0c-5a76c2b4373b"},"vehicle_type_id":"4","last_reported":1726160886,"current_range_meters":4800,"station_id":"ce4bhf92rcd13ifvqf50","pricing_plan_id":"cebpf4jnsgd1na2vs0mg"},{"bike_id":"a84aba1b-8d3b-4764-a798-62e3df2b244b","system_id":"levelo_inurba_marseille","lat":43.23965,"lon":5.36622,"is_reserved":false,"is_disabled":false,"rental_uris":{"android":"levelo://app?vid=a84aba1b-8d3b-4764-a798-62e3df2b244b","ios":"levelo://app?vid=a84aba1b-8d3b-4764-a798-62e3df2b244b"},"vehicle_type_id":"4","last_reported":1726160886,"current_range_meters":22800,"station_id":"ce4bhi12rcd13ifvqfp0","pricing_plan_id":"cebpf4jnsgd1na2vs0mg"},{"bike_id":"ac9a0407-f13f-441a-bbda-398676892723","system_id":"levelo_inurba_marseille","lat":43.30792,"lon":5.43521,"is_reserved":false,"is_disabled":false,"rental_uris":{"android":"levelo://app?vid=ac9a0407-f13f-441a-bbda-398676892723","ios":"levelo://app?vid=ac9a0407-f13f-441a-bbda-398676892723"},"vehicle_type_id":"4","last_reported":1726160886,"current_range_meters":21600,"station_id":"ce4bhph2rcd13ifvqheg","pricing_plan_id":"cebpf4jnsgd1na2vs0mg"},{"bike_id":"0e8d51cc-3c6c-4a03-81e2-24f533f0885d","system_id":"levelo_inurba_marseille","lat":43.25705,"lon":5.41046,"is_reserved":false,"is_disabled":false,"rental_uris":{"android":"levelo://app?vid=0e8d51cc-3c6c-4a03-81e2-24f533f0885d","ios":"levelo://app?vid=0e8d51cc-3c6c-4a03-81e2-24f533f0885d"},"vehicle_type_id":"4","last_reported":1726160886,"current_range_meters":39200,"station_id":"ce4bhkp2rcd13ifvqgd0","pricing_plan_id":"cebpf4jnsgd1na2vs0mg"},{"bike_id":"0c0566b0-d0a8-4611-be99-9c11b9df0b50","system_id":"levelo_inurba_marseille","lat":43.23182,"lon":5.3998,"is_reserved":false,"is_disabled":false,"rental_uris":{"android":"levelo://app?vid=0c0566b0-d0a8-4611-be99-9c11b9df0b50","ios":"levelo://app?vid=0c0566b0-d0a8-4611-be99-9c11b9df0b50"},"vehicle_type_id":"4","last_reported":1726160886,"current_range_meters":32400,"station_id":"ce4bhn12rcd13ifvqgqg","pricing_plan_id":"cebpf4jnsgd1na2vs0mg"},{"bike_id":"ab531019-5862-4524-a575-e051040f465e","system_id":"levelo_inurba_marseille","lat":43.25109,"lon":5.40323,"is_reserved":false,"is_disabled":false,"rental_uris":{"android":"levelo://app?vid=ab531019-5862-4524-a575-e051040f465e","ios":"levelo://app?vid=ab531019-5862-4524-a575-e051040f465e"},"vehicle_type_id":"4","last_reported":1726160886,"current_range_meters":29600,"station_id":"ce4bhlh2rcd13ifvqgig","pricing_plan_id":"cebpf4jnsgd1na2vs0mg"},{"bike_id":"48671db6-6df8-40d2-8423-bba920b88789","system_id":"levelo_inurba_marseille","lat":43.28941,"lon":5.36635,"is_reserved":false,"is_disabled":false,"rental_uris":{"android":"levelo://app?vid=48671db6-6df8-40d2-8423-bba920b88789","ios":"levelo://app?vid=48671db6-6df8-40d2-8423-bba920b88789"},"vehicle_type_id":"4","last_reported":1726160886,"current_range_meters":5600,"station_id":"ce4bhap2rcd13ifvqek0","pricing_plan_id":"cebpf4jnsgd1na2vs0mg"},{"bike_id":"d57a40d5-ccfb-4d30-baba-350a9d535a51","system_id":"levelo_inurba_marseille","lat":43.28928,"lon":5.38396,"is_reserved":false,"is_disabled":false,"rental_uris":{"android":"levelo://app?vid=d57a40d5-ccfb-4d30-baba-350a9d535a51","ios":"levelo://app?vid=d57a40d5-ccfb-4d30-baba-350a9d535a51"},"vehicle_type_id":"4","last_reported":1726160886,"current_range_meters":38400,"station_id":"ce4bh612rcd13ifvqe6g","pricing_plan_id":"cebpf4jnsgd1na2vs0mg"},{"bike_id":"1d62640d-6f3f-4f9c-bb03-34ae22551572","system_id":"levelo_inurba_marseille","lat":43.29523,"lon":5.39039,"is_reserved":false,"is_disabled":false,"rental_uris":{"android":"levelo://app?vid=1d62640d-6f3f-4f9c-bb03-34ae22551572","ios":"levelo://app?vid=1d62640d-6f3f-4f9c-bb03-34ae22551572"},"vehicle_type_id":"4","last_reported":1726160886,"current_range_meters":30000,"station_id":"ce4bh3p2rcd13ifvqdp0","pricing_plan_id":"cebpf4jnsgd1na2vs0mg"},{"bike_id":"8fa4f331-62f8-46fe-b2ff-201e21fe2c26","system_id":"levelo_inurba_marseille","lat":43.29437,"lon":5.39763,"is_reserved":false,"is_disabled":false,"rental_uris":{"android":"levelo://app?vid=8fa4f331-62f8-46fe-b2ff-201e21fe2c26","ios":"levelo://app?vid=8fa4f331-62f8-46fe-b2ff-201e21fe2c26"},"vehicle_type_id":"4","last_reported":1726160886,"current_range_meters":17200,"station_id":"ce4bh3h2rcd13ifvqdo0","pricing_plan_id":"cebpf4jnsgd1na2vs0mg"},{"bike_id":"928b1c9b-b938-4e22-9f22-7191aacbe002","system_id":"levelo_inurba_marseille","lat":43.26681,"lon":5.38268,"is_reserved":false,"is_disabled":false,"rental_uris":{"android":"levelo://app?vid=928b1c9b-b938-4e22-9f22-7191aacbe002","ios":"levelo://app?vid=928b1c9b-b938-4e22-9f22-7191aacbe002"},"vehicle_type_id":"4","last_reported":1726160886,"current_range_meters":14800,"station_id":"ce4bhg92rcd13ifvqf90","pricing_plan_id":"cebpf4jnsgd1na2vs0mg"},{"bike_id":"d2dd2061-a8fa-44ba-9b13-d1b3eb7c0fc8","system_id":"levelo_inurba_marseille","lat":43.30796,"lon":5.43519,"is_reserved":false,"is_disabled":false,"rental_uris":{"android":"levelo://app?vid=d2dd2061-a8fa-44ba-9b13-d1b3eb7c0fc8","ios":"levelo://app?vid=d2dd2061-a8fa-44ba-9b13-d1b3eb7c0fc8"},"vehicle_type_id":"4","last_reported":1726160886,"current_range_meters":36800,"station_id":"ce4bhph2rcd13ifvqheg","pricing_plan_id":"cebpf4jnsgd1na2vs0mg"},{"bike_id":"e621983f-436d-4fae-a563-f0dcc2ae5188","system_id":"levelo_inurba_marseille","lat":43.28156,"lon":5.42644,"is_reserved":false,"is_disabled":false,"rental_uris":{"android":"levelo://app?vid=e621983f-436d-4fae-a563-f0dcc2ae5188","ios":"levelo://app?vid=e621983f-436d-4fae-a563-f0dcc2ae5188"},"vehicle_type_id":"4","last_reported":1726160886,"current_range_meters":6400,"station_id":"ce4bhnh2rcd13ifvqgug","pricing_plan_id":"cebpf4jnsgd1na2vs0mg"},{"bike_id":"ee41233d-7057-4ec4-b3c6-63f582836de8","system_id":"levelo_inurba_marseille","lat":43.22935,"lon":5.35384,"is_reserved":false,"is_disabled":false,"rental_uris":{"android":"levelo://app?vid=ee41233d-7057-4ec4-b3c6-63f582836de8","ios":"levelo://app?vid=ee41233d-7057-4ec4-b3c6-63f582836de8"},"vehicle_type_id":"4","last_reported":1726160886,"current_range_meters":26000,"station_id":"cpo3532slgdg3j2ikp40","pricing_plan_id":"cebpf4jnsgd1na2vs0mg"},{"bike_id":"cafbbe1a-2907-43f3-bd7a-dbc8b5399523","system_id":"levelo_inurba_marseille","lat":43.24076,"lon":5.37769,"is_reserved":false,"is_disabled":false,"rental_uris":{"android":"levelo://app?vid=cafbbe1a-2907-43f3-bd7a-dbc8b5399523","ios":"levelo://app?vid=cafbbe1a-2907-43f3-bd7a-dbc8b5399523"},"vehicle_type_id":"4","last_reported":1726160886,"current_range_meters":32000,"station_id":"ce4bhnp2rcd13ifvqgvg","pricing_plan_id":"cebpf4jnsgd1na2vs0mg"},{"bike_id":"472c8749-6e31-4bc7-b3f4-b67b2e80e632","system_id":"levelo_inurba_marseille","lat":43.26689,"lon":5.38272,"is_reserved":false,"is_disabled":false,"rental_uris":{"android":"levelo://app?vid=472c8749-6e31-4bc7-b3f4-b67b2e80e632","ios":"levelo://app?vid=472c8749-6e31-4bc7-b3f4-b67b2e80e632"},"vehicle_type_id":"4","last_reported":1726160886,"current_range_meters":3600,"station_id":"ce4bhg92rcd13ifvqf90","pricing_plan_id":"cebpf4jnsgd1na2vs0mg"},{"bike_id":"686ab96a-96dd-40e3-bdae-91661aab28b6","system_id":"levelo_inurba_marseille","lat":43.29271,"lon":5.38439,"is_reserved":false,"is_disabled":false,"rental_uris":{"android":"levelo://app?vid=686ab96a-96dd-40e3-bdae-91661aab28b6","ios":"levelo://app?vid=686ab96a-96dd-40e3-bdae-91661aab28b6"},"vehicle_type_id":"4","last_reported":1726160886,"current_range_meters":27200,"station_id":"ce4bh692rcd13ifvqea0","pricing_plan_id":"cebpf4jnsgd1na2vs0mg"},{"bike_id":"5e5a7ea7-7407-4cb6-ae1a-4a5912cc5184","system_id":"levelo_inurba_marseille","lat":43.26189,"lon":5.37933,"is_reserved":false,"is_disabled":false,"rental_uris":{"android":"levelo://app?vid=5e5a7ea7-7407-4cb6-ae1a-4a5912cc5184","ios":"levelo://app?vid=5e5a7ea7-7407-4cb6-ae1a-4a5912cc5184"},"vehicle_type_id":"4","last_reported":1726160886,"current_range_meters":38800,"station_id":"ce4bhjp2rcd13ifvqg90","pricing_plan_id":"cebpf4jnsgd1na2vs0mg"},{"bike_id":"c627b4af-8218-4bf8-8c3c-6671e85d6b01","system_id":"levelo_inurba_marseille","lat":43.28852,"lon":5.35865,"is_reserved":false,"is_disabled":false,"rental_uris":{"android":"levelo://app?vid=c627b4af-8218-4bf8-8c3c-6671e85d6b01","ios":"levelo://app?vid=c627b4af-8218-4bf8-8c3c-6671e85d6b01"},"vehicle_type_id":"4","last_reported":1726160886,"current_range_meters":22000,"station_id":"ce4bhb12rcd13ifvqem0","pricing_plan_id":"cebpf4jnsgd1na2vs0mg"},{"bike_id":"0f9c47df-fc89-441e-88bd-6534b3e7a23b","system_id":"levelo_inurba_marseille","lat":43.32384,"lon":5.38916,"is_reserved":false,"is_disabled":false,"rental_uris":{"android":"levelo://app?vid=0f9c47df-fc89-441e-88bd-6534b3e7a23b","ios":"levelo://app?vid=0f9c47df-fc89-441e-88bd-6534b3e7a23b"},"vehicle_type_id":"4","last_reported":1726160886,"current_range_meters":38400,"station_id":"ce4bhqp2rcd13ifvqhog","pricing_plan_id":"cebpf4jnsgd1na2vs0mg"},{"bike_id":"c7d81aa4-7b70-4679-b4bf-60d84f9492b8","system_id":"levelo_inurba_marseille","lat":43.2873,"lon":5.36089,"is_reserved":false,"is_disabled":false,"rental_uris":{"android":"levelo://app?vid=c7d81aa4-7b70-4679-b4bf-60d84f9492b8","ios":"levelo://app?vid=c7d81aa4-7b70-4679-b4bf-60d84f9492b8"},"vehicle_type_id":"4","last_reported":1726160886,"current_range_meters":8400,"station_id":"cki0cbj6b192h4jlfktg","pricing_plan_id":"cebpf4jnsgd1na2vs0mg"},