{"last_updated":1730351382,"ttl":60,"version":"2.2","data":{"bikes":[{"bike_id":"cff4c6c9-6f1d-42eb-aa93-5e57000071a7","system_id":"levelo_inurba_marseille","lat":43.307818,"lon":5.376548,"is_reserved":false,"is_disabled":false,"rental_uris":{"android":"levelo://app?vid=cff4c6c9-6f1d-42eb-aa93-5e57000071a7","ios":"levelo://app?vid=cff4c6c9-6f1d-42eb-aa93-5e57000071a7"},"vehicle_type_id":"4","last_reported":1730351382,"current_range_meters":38400,"station_id":"ce4bgv92rcd13ifvqcq0","pricing_plan_id":"cebpf4jnsgd1na2vs0mg"},{"bike_id":"c8b8337e-cc59-4f9e-9d27-28afc48d018a","system_id":"levelo_inurba_marseille","lat":43.30594,"lon":5.39343,"is_reserved":false,"is_disabled":false,"rental_uris":{"android":"levelo://app?vid=c8b8337e-cc59-4f9e-9d27-28afc48d018a","ios":"levelo://app?vid=c8b8337e-cc59-4f9e-9d27-28afc48d018a"},"vehicle_type_id":"4","last_reported":1730351382,"current_range_meters":17600,"station_id":"ce4bh0p2rcd13ifvqd80","pricing_plan_id":"cebpf4jnsgd1na2vs0mg"},{"bike_id":"cfab25b9-61af-4b1a-bb8e-4bdabf98d5dd","system_id":"levelo_inurba_marseille","lat":43.31494,"lon":5.373,"is_reserved":false,"is_disabled":false,"rental_uris":{"android":"levelo://app?vid=cfab25b9-61af-4b1a-bb8e-4bdabf98d5dd","ios":"levelo://app?vid=cfab25b9-61af-4b1a-bb8e-4bdabf98d5dd"},"vehicle_type_id":"4","last_reported":1730351382,"current_range_meters":28800,"station_id":"ce4bgt12rcd13ifvqcd0","pricing_plan_id":"cebpf4jnsgd1na2vs0mg"},{"bike_id":"415a9bae-8493-4e58-98ac-8aa882bd399c","system_id":"levelo_inurba_marseille","lat":43.25578,"lon":5.38242,"is_reserved":false,"is_disabled":false,"rental_uris":{"android":"levelo://app?vid=415a9bae-8493-4e58-98ac-8aa882bd399c","ios":"levelo://app?vid=415a9bae-8493-4e58-98ac-8aa882bd399c"},"vehicle_type_id":"4","last_reported":1730351382,"current_range_meters":38800,"station_id":"ce4bhih2rcd13ifvqfs0","pricing_plan_id":"cebpf4jnsgd1na2vs0mg"},{"bike_id":"dba2bf33-6b60-4920-bc91-eb01b8e46c4a","system_id":"levelo_inurba_marseille","lat":43.29628,"lon":5.40594,"is_reserved":false,"is_disabled":false,"rental_uris":{"android":"levelo://app?vid=dba2bf33-6b60-4920-bc91-eb01b8e46c4a","ios":"levelo://app?vid=dba2bf33-6b60-4920-bc91-eb01b8e46c4a"},"vehicle_type_id":"4","last_reported":1730351382,"current_range_meters":27600,"station_id":"ce4bh0h2rcd13ifvqd60","pricing_plan_id":"cebpf4jnsgd1na2vs0mg"},{"bike_id":"f64c1e7d-3ae9-4dfc-8ec2-0a90d036364f","system_id":"levelo_inurba_marseille","lat":43.32113,"lon":5.36774,"is_reserved":false,"is_disabled":false,"rental_uris":{"android":"levelo://app?vid=f64c1e7d-3ae9-4dfc-8ec2-0a90d036364f","ios":"levelo://app?vid=f64c1e7d-3ae9-4dfc-8ec2-0a90d036364f"},"vehicle_type_id":"4","last_reported":1730351382,"current_range_meters":22400,"station_id":"ce4bhrh2rcd13ifvqhug","pricing_plan_id":"cebpf4jnsgd1na2vs0mg"},{"bike_id":"5372a642-d5b3-44d2-bd95-093c5716325a","system_id":"levelo_inurba_marseille","lat":43.29578,"lon":5.39965,"is_reserved":false,"is_disabled":false,"rental_uris":{"android":"levelo://app?vid=5372a642-d5b3-44d2-bd95-093c5716325a","ios":"levelo://app?vid=5372a642-d5b3-44d2-bd95-093c5716325a"},"vehicle_type_id":"4","last_reported":1730351382,"current_range_meters":38800,"station_id":"ce4bh312rcd13ifvqdj0","pricing_plan_id":"cebpf4jnsgd1na2vs0mg"},{"bike_id":"1db2611d-8f57-4e59-8492-987ac472e3f4","system_id":"levelo_inurba_marseille","lat":43.23184,"lon":5.39992,"is_reserved":false,"is_disabled":false,"rental_uris":{"android":"levelo://app?vid=1db2611d-8f57-4e59-8492-987ac472e3f4","ios":"levelo://app?vid=1db2611d-8f57-4e59-8492-987ac472e3f4"},"vehicle_type_id":"4","last_reported":1730351382,"current_range_meters":38800,"station_id":"ce4bhn12rcd13ifvqgqg","pricing_plan_id":"cebpf4jnsgd1na2vs0mg"},{"bike_id":"621f9473-79cc-4ba7-9b20-8dfe3300ac2b","system_id":"levelo_inurba_marseille","lat":43.29021,"lon":5.38134,"is_reserved":false,"is_disabled":false,"rental_uris":{"android":"levelo://app?vid=621f9473-79cc-4ba7-9b20-8dfe3300ac2b","ios":"levelo://app?vid=621f9473-79cc-4ba7-9b20-8dfe3300ac2b"},"vehicle_type_id":"4","last_reported":1730351382,"current_range_meters":37600,"station_id":"ce4bh4p2rcd13ifvqe1g","pricing_plan_id":"cebpf4jnsgd1na2vs0mg"},{"bike_id":"37b55752-b22c-42c3-a42b-a42e27cbd0ca","system_id":"levelo_inurba_marseille","lat":43.30252,"lon":5.40073,"is_reserved":false,"is_disabled":false,"rental_uris":{"android":"levelo://app?vid=37b55752-b22c-42c3-a42b-a42e27cbd0ca","ios":"levelo://app?vid=37b55752-b22c-42c3-a42b-a42e27cbd0ca"},"vehicle_type_id":"4","last_reported":1730351382,"current_range_meters":27600,"station_id":"ce4bgvh2rcd13ifvqcs0","pricing_plan_id":"cebpf4jnsgd1na2vs0mg"},{"bike_id":"01e3c5ad-776d-47de-a481-7424c6a551a1","system_id":"levelo_inurba_marseille","lat":43.30324,"lon":5.40439,"is_reserved":false,"is_disabled":false,"rental_uris":{"android":"levelo://app?vid=01e3c5ad-776d-47de-a481-7424c6a551a1","ios":"levelo://app?vid=01e3c5ad-776d-47de-a481-7424c6a551a1"},"vehicle_type_id":"4","last_reported":1730351382,"current_range_meters":37600,"station_id":"ce4bh012rcd13ifvqd10","pricing_plan_id":"cebpf4jnsgd1na2vs0mg"},{"bike_id":"ddf9b3ae-2d28-4b9a-aa4e-ff6ba36b5432","system_id":"levelo_inurba_marseille","lat":43.3066,"lon":5.4009,"is_reserved":false,"is_disabled":false,"rental_uris":{"android":"levelo://app?vid=ddf9b3ae-2d28-4b9a-aa4e-ff6ba36b5432","ios":"levelo://app?vid=ddf9b3ae-2d28-4b9a-aa4e-ff6ba36b5432"},"vehicle_type_id":"4","last_reported":1730351382,"current_range_meters":38400,"station_id":"ce4bh112rcd13ifvqda0","pricing_plan_id":"cebpf4jnsgd1na2vs0mg"},{"bike_id":"1496c3ce-cca7-45b3-8716-c0119d2540e8","system_id":"levelo_inurba_marseille","lat":43.30808,"lon":5.3816,"is_reserved":false,"is_disabled":false,"rental_uris":{"android":"levelo://app?vid=1496c3ce-cca7-45b3-8716-c0119d2540e8","ios":"levelo://app?vid=1496c3ce-cca7-45b3-8716-c0119d2540e8"},"vehicle_type_id":"4","last_reported":1730351382,"current_range_meters":38800,"station_id":"ce4bgt12rcd13ifvqce0","pricing_plan_id":"cebpf4jnsgd1na2vs0mg"},{"bike_id":"aab306d7-157f-4168-8b9d-63846703cc70","system_id":"levelo_inurba_marseille","lat":43.31996,"lon":5.38151,"is_reserved":false,"is_disabled":false,"rental_uris":{"android":"levelo://app?vid=aab306d7-157f-4168-8b9d-63846703cc70","ios":"levelo://app?vid=aab306d7-157f-4168-8b9d-63846703cc70"},"vehicle_type_id":"4","last_reported":1730351382,"current_range_meters":7200,"station_id":"ce4bhr12rcd13ifvqhpg","pricing_plan_id":"cebpf4jnsgd1na2vs0mg"},{"bike_id":"7a5b30e6-bcdd-46db-9d3e-ec2105890f98","system_id":"levelo_inurba_marseille","lat":43.31174,"lon":5.3871,"is_reserved":false,"is_disabled":false,"rental_uris":{"android":"levelo://app?vid=7a5b30e6-bcdd-46db-9d3e-ec2105890f98","ios":"levelo://app?vid=7a5b30e6-bcdd-46db-9d3e-ec2105890f98"},"vehicle_type_id":"4","last_reported":1730351382,"current_range_meters":37600,"station_id":"ce4bgv12rcd13ifvqcp0","pricing_plan_id":"cebpf4jnsgd1na2vs0mg"},{"bike_id":"21926fe0-6920-4621-a4e3-a1fe5c9d58de","system_id":"levelo_inurba_marseille","lat":43.24806,"lon":5.37455,"is_reserved":false,"is_disabled":false,"rental_uris":{"android":"levelo://app?vid=21926fe0-6920-4621-a4e3-a1fe5c9d58de","ios":"levelo://app?vid=21926fe0-6920-4621-a4e3-a1fe5c9d58de"},"vehicle_type_id":"4","last_reported":1730351382,"current_range_meters":30400,"station_id":"ce4bhgh2rcd13ifvqfb0","pricing_plan_id":"cebpf4jnsgd1na2vs0mg"},{"bike_id":"bbf8f708-5e9b-41bf-bc19-afef39d244c3","system_id":"levelo_inurba_marseille","lat":43.27496,"lon":5.42451,"is_reserved":false,"is_disabled":false,"rental_uris":{"android":"levelo://app?vid=bbf8f708-5e9b-41bf-bc19-afef39d244c3","ios":"levelo://app?vid=bbf8f708-5e9b-41bf-bc19-afef39d244c3"},"vehicle_type_id":"4","last_reported":1730351382,"current_range_meters":30800,"station_id":"ce4bhn92rcd13ifvqgrg","pricing_plan_id":"cebpf4jnsgd1na2vs0mg"},{"bike_id":"b5beb8be-724a-4713-95e9-911c76389d06","system_id":"levelo_inurba_marseille","lat":43.30159,"lon":5.38091,"is_reserved":false,"is_disabled":false,"rental_uris":{"android":"levelo://app?vid=b5beb8be-724a-4713-95e9-911c76389d06","ios":"levelo://app?vid=b5beb8be-724a-4713-95e9-911c76389d06"},"vehicle_type_id":"4","last_reported":1730351382,"current_range_meters":38400,"station_id":"ce4bgjp2rcd13ifvqbh0","pricing_plan_id":"cebpf4jnsgd1na2vs0mg"},{"bike_id":"e35a8ca0-a448-45a9-9f0c-b3ec619fcd4b","system_id":"levelo_inurba_marseille","lat":43.30525,"lon":5.36531,"is_reserved":false,"is_disabled":false,"rental_uris":{"android":"levelo://app?vid=e35a8ca0-a448-45a9-9f0c-b3ec619fcd4b","ios":"levelo://app?vid=e35a8ca0-a448-45a9-9f0c-b3ec619fcd4b"},"vehicle_type_id":"4","last_reported":1730351382,"current_range_meters":30000,"station_id":"ce4bgs12rcd13ifvqcag","pricing_plan_id":"cebpf4jnsgd1na2vs0mg"},{"bike_id":"91f75106-8073-486e-8037-1d5f2fa10c75","system_id":"levelo_inurba_marseille","lat":43.31998,"lon":5.3815,"is_reserved":false,"is_disabled":false,"rental_uris":{"android":"levelo://app?vid=91f75106-8073-486e-8037-1d5f2fa10c75","ios":"levelo://app?vid=91f75106-8073-486e-8037-1d5f2fa10c75"},"vehicle_type_id":"4","last_reported":1730351382,"current_range_meters":38800,"station_id":"ce4bhr12rcd13ifvqhpg","pricing_plan_id":"cebpf4jnsgd1na2vs0mg"},{"bike_id":"4075e605-7e2d-4335-883e-4292dc011012","system_id":"levelo_inurba_marseille","lat":43.23962,"lon":5.36626,"is_reserved":false,"is_disabled":false,"rental_uris":{"android":"levelo://app?vid=4075e605-7e2d-4335-883e-4292dc011012","ios":"levelo://app?vid=4075e605-7e2d-4335-883e-4292dc011012"},"vehicle_type_id":"4","last_reported":1730351382,"current_range_meters":6800,"station_id":"ce4bhi12rcd13ifvqfp0","pricing_plan_id":"cebpf4jnsgd1na2vs0mg"},{"bike_id":"0e358097-8d3a-4a90-ac84-f856946475f6","system_id":"levelo_inurba_marseille","lat":43.25111,"lon":5.4032,"is_reserved":false,"is_disabled":false,"rental_uris":{"android":"levelo://app?vid=0e358097-8d3a-4a90-ac84-f856946475f6","ios":"levelo://app?vid=0e358097-8d3a-4a90-ac84-f856946475f6"},"vehicle_type_id":"4","last_reported":1730351382,"current_range_meters":38800,"station_id":"ce4bhlh2rcd13ifvqgig","pricing_plan_id":"cebpf4jnsgd1na2vs0mg"},{"bike_id":"66f87c05-90dc-43a7-acd2-2870fbee0cc8","system_id":"levelo_inurba_marseille","lat":43.2316,"lon":5.43711,"is_reserved":false,"is_disabled":false,"rental_uris":{"android":"levelo://app?vid=66f87c05-90dc-43a7-acd2-2870fbee0cc8","ios":"levelo://app?vid=66f87c05-90dc-43a7-acd2-2870fbee0cc8"},"vehicle_type_id":"4","last_reported":1730351382,"current_range_meters":38800,"station_id":"ce4bhmp2rcd13ifvqgog","pricing_plan_id":"cebpf4jnsgd1na2vs0mg"},{"bike_id":"88b41abc-7a6a-4d0c-8b4c-c5a28531c90c","system_id":"levelo_inurba_marseille","lat":43.31698,"lon":5.40455,"is_reserved":false,"is_disabled":false,"rental_uris":{"android":"levelo://app?vid=88b41abc-7a6a-4d0c-8b4c-c5a28531c90c","ios":"levelo://app?vid=88b41abc-7a6a-4d0c-8b4c-c5a28531c90c"},"vehicle_type_id":"4","last_reported":1730351382,"current_range_meters":28800,"station_id":"ce4bh012rcd13ifvqd00","pricing_plan_id":"cebpf4jnsgd1na2vs0mg"},{"bike_id":"4610e647-0972-4d5a-947a-311aa4e9bc1f","system_id":"levelo_inurba_marseille","lat":43.31177,"lon":5.3872,"is_reserved":false,"is_disabled":false,"rental_uris":{"android":"levelo://app?vid=4610e647-0972-4d5a-947a-311aa4e9bc1f","ios":"levelo://app?vid=4610e647-0972-4d5a-947a-311aa4e9bc1f"},"vehicle_type_id":"4","last_reported":1730351382,"current_range_meters":26000,"station_id":"ce4bgv12rcd13ifvqcp0","pricing_plan_id":"cebpf4jnsgd1na2vs0mg"},{"bike_id":"b92652ba-07ca-42f1-857b-4debf2d5d04e","system_id":"levelo_inurba_marseille","lat":43.30784,"lon":5.37646,"is_reserved":false,"is_disabled":false,"rental_uris":{"android":"levelo://app?vid=b92652ba-07ca-42f1-857b-4debf2d5d04e","ios":"levelo://app?vid=b92652ba-07ca-42f1-857b-4debf2d5d04e"},"vehicle_type_id":"4","last_reported":1730351382,"current_range_meters":8400,"station_id":"ce4bgv92rcd13ifvqcq0","pricing_plan_id":"cebpf4jnsgd1na2vs0mg"},{"bike_id":"50637344-4a20-4d06-ada1-2bdfc12f146e","system_id":"levelo_inurba_marseille","lat":43.31276,"lon":5.40171,"is_reserved":false,"is_disabled":false,"rental_uris":{"android":"levelo://app?vid=50637344-4a20-4d06-ada1-2bdfc12f146e","ios":"levelo://app?vid=50637344-4a20-4d06-ada1-2bdfc12f146e"},"vehicle_type_id":"4","last_reported":1730351382,"current_range_meters":39200,"station_id":"ce4bh092rcd13ifvqd30","pricing_plan_id":"cebpf4jnsgd1na2vs0mg"},{"bike_id":"0ae72b61-7c50-47a1-b35c-233be8c0f284","system_id":"levelo_inurba_marseille","lat":43.28097,"lon":5.37837,"is_reserved":false,"is_disabled":false,"rental_uris":{"android":"levelo://app?vid=0ae72b61-7c50-47a1-b35c-233be8c0f284","ios":"levelo://app?vid=0ae72b61-7c50-47a1-b35c-233be8c0f284"},"vehicle_type_id":"4","last_reported":1730351382,"current_range_meters":10800,"station_id":"ce4bha12rcd13ifvqee0","pricing_plan_id":"cebpf4jnsgd1na2vs0mg"},{"bike_id":"5d84df87-3ce6-4abc-bce1-e060438e724a","system_id":"levelo_inurba_marseille","lat":43.29044,"lon":5.39953,"is_reserved":false,"is_disabled":false,"rental_uris":{"android":"levelo://app?vid=5d84df87-3ce6-4abc-bce1-e060438e724a","ios":"levelo://app?vid=5d84df87-3ce6-4abc-bce1-e060438e724a"},"vehicle_type_id":"4","last_reported":1730351382,"current_range_meters":11600,"station_id":"ce4bh392rcd13ifvqdm0","pricing_plan_id":"cebpf4jnsgd1na2vs0mg"},{"bike_id":"830a36e9-6e3e-49e4-add0-59b63459e2f2","system_id":"levelo_inurba_marseille","lat":43.29159,"lon":5.38592,"is_reserved":false,"is_disabled":false,"rental_uris":{"android":"levelo://app?vid=830a36e9-6e3e-49e4-add0-59b63459e2f2","ios":"levelo://app?vid=830a36e9-6e3e-49e4-add0-59b63459e2f2"},"vehicle_type_id":"4","last_reported":1730351382,"current_range_meters":24000,"station_id":"","pricing_plan_id":"cebpf4jnsgd1na2vs0mg"},{"bike_id":"d33164b6-8c2c-4df3-9de4-7f110f14fc1c","system_id":"levelo_inurba_marseille","lat":43.30804,"lon":5.381519,"is_reserved":false,"is_disabled":false,"rental_uris":{"android":"levelo://app?vid=d33164b6-8c2c-4df3-9de4-7f110f14fc1c","ios":"levelo://app?vid=d33164b6-8c2c-4df3-9de4-7f110f14fc1c"},"vehicle_type_id":"4","last_reported":1730351382,"current_range_meters":38800,"station_id":"ce4bgt12rcd13ifvqce0","pricing_plan_id":"cebpf4jnsgd1na2vs0mg"},{"bike_id":"d7fe43d1-3499-4c89-8f02-63a35590c8e5","system_id":"levelo_inurba_marseille","lat":43.26947,"lon":5.40251,"is_reserved":false,"is_disabled":false,"rental_uris":{"android":"levelo://app?vid=d7fe43d1-3499-4c89-8f02-63a35590c8e5","ios":"levelo://app?vid=d7fe43d1-3499-4c89-8f02-63a35590c8e5"},"vehicle_type_id":"4","last_reported":1730351382,"current_range_meters":38000,"station_id":"cjm6bp8fraef2m0cb0m0","pricing_plan_id":"cebpf4jnsgd1na2vs0mg"},{"bike_id":"faac5a64-8892-43f8-9f41-647a17d49b27","system_id":"levelo_inurba_marseille","lat":43.312686,"lon":5.401659,"is_reserved":false,"is_disabled":false,"rental_uris":{"android":"levelo://app?vid=faac5a64-8892-43f8-9f41-647a17d49b27","ios":"levelo://app?vid=faac5a64-8892-43f8-9f41-647a17d49b27"},"vehicle_type_id":"4","last_reported":1730351382,"current_range_meters":35200,"station_id":"ce4bh092rcd13ifvqd30","pricing_plan_id":"cebpf4jnsgd1na2vs0mg"},{"bike_id":"2d65310e-a7ab-47d2-aed2-2ce5aa88e32d","system_id":"levelo_inurba_marseille","lat":43.25084,"lon":5.39513,"is_reserved":false,"is_disabled":false,"rental_uris":{"android":"levelo://app?vid=2d65310e-a7ab-47d2-aed2-2ce5aa88e32d","ios":"levelo://app?vid=2d65310e-a7ab-47d2-aed2-2ce5aa88e32d"},"vehicle_type_id":"4","last_reported":1730351382,"current_range_meters":8400,"station_id":"ce4bhm12rcd13ifvqgkg","pricing_plan_id":"cebpf4jnsgd1na2vs0mg"},{"bike_id":"acd4be18-09d6-480d-b11b-520844b93da4","system_id":"levelo_inurba_marseille","lat":43.28461,"lon":5.35891,"is_reserved":false,"is_disabled":false,"rental_uris":{"android":"levelo://app?vid=acd4be18-09d6-480d-b11b-520844b93da4","ios":"levelo://app?vid=acd4be18-09d6-480d-b11b-520844b93da4"},"vehicle_type_id":"4","last_reported":1730351382,"current_range_meters":25200,"station_id":"ce4bhah2rcd13ifvqei0","pricing_plan_id":"cebpf4jnsgd1na2vs0mg"},{"bike_id":"e4135fb1-128c-4498-8011-011092115ff6","system_id":"levelo_inurba_marseille","lat":43.29278,"lon":5.40117,"is_reserved":false,"is_disabled":false,"rental_uris":{"android":"levelo://app?vid=e4135fb1-128c-4498-8011-011092115ff6","ios":"levelo://app?vid=e4135fb1-128c-4498-8011-011092115ff6"},"vehicle_type_id":"4","last_reported":1730351382,"current_range_meters":4400,"station_id":"ce4bh312rcd13ifvqdk0","pricing_plan_id":"cebpf4jnsgd1na2vs0mg"},{"bike_id":"e5711905-f885-4bbc-a3df-9ebdb9912423","system_id":"levelo_inurba_marseille","lat":43.311771,"lon":5.387159,"is_reserved":false,"is_disabled":false,"rental_uris":{"android":"levelo://app?vid=e5711905-f885-4bbc-a3df-9ebdb9912423","ios":"levelo://app?vid=e5711905-f885-4bbc-a3df-9ebdb9912423"},"vehicle_type_id":"4","last_reported":1730351382,"current_range_meters":38800,"station_id":"ce4bgv12rcd13ifvqcp0","pricing_plan_id":"cebpf4jnsgd1na2vs0mg"},{"bike_id":"7ab2f1bd-7151-4559-9622-b212f0480b3f","system_id":"levelo_inurba_marseille","lat":43.25726,"lon":5.41105,"is_reserved":false,"is_disabled":false,"rental_uris":{"android":"levelo://app?vid=7ab2f1bd-7151-4559-9622-b212f0480b3f","ios":"levelo://app?vid=7ab2f1bd-7151-4559-9622-b212f0480b3f"},"vehicle_type_id":"4","last_reported":1730351382,"current_range_meters":30800,"station_id":"ce4bhkp2rcd13ifvqgd0","pricing_plan_id":"cebpf4jnsgd1na2vs0mg"},{"bike_id":"e38d264f-70d8-41c0-bca8-3c8f38ec51cb","system_id":"levelo_inurba_marseille","lat":43.31079,"lon":5.38357,"is_reserved":false,"is_disabled":false,"rental_uris":{"android":"levelo://app?vid=e38d264f-70d8-41c0-bca8-3c8f38ec51cb","ios":"levelo://app?vid=e38d264f-70d8-41c0-bca8-3c8f38ec51cb"},"vehicle_type_id":"4","last_reported":1730351382,"current_range_meters":38400,"station_id":"ce4bgv92rcd13ifvqcr0","pricing_plan_id":"cebpf4jnsgd1na2vs0mg"},{"bike_id":"ca42fafc-ec68-46ec-b376-f0ffa70f6fe6","system_id":"levelo_inurba_marseille","lat":43.32652,"lon":5.40983,"is_reserved":false,"is_disabled":false,"rental_uris":{"android":"levelo://app?vid=ca42fafc-ec68-46ec-b376-f0ffa70f6fe6","ios":"levelo://app?vid=ca42fafc-ec68-46ec-b376-f0ffa70f6fe6"},"vehicle_type_id":"4","last_reported":1730351382,"current_range_meters":38800,"station_id":"ce4bhpp2rcd13ifvqhgg","pricing_plan_id":"cebpf4jnsgd1na2vs0mg"},{"bike_id":"42e61598-64ce-4f84-97eb-90c09ebd9abe","system_id":"levelo_inurba_marseille","lat":43.23191,"lon":5.39995,"is_reserved":false,"is_disabled":false,"rental_uris":{"android":"levelo://app?vid=42e61598-64ce-4f84-97eb-90c09ebd9abe","ios":"levelo://app?vid=42e61598-64ce-4f84-97eb-90c09ebd9abe"},"vehicle_type_id":"4","last_reported":1730351382,"current_range_meters":11200,"station_id":"ce4bhn12rcd13ifvqgqg","pricing_plan_id":"cebpf4jnsgd1na2vs0mg"},{"bike_id":"fc7a3c57-2b5b-4cdc-a700-f625bb259997","system_id":"levelo_inurba_marseille","lat":43.25824,"lon":5.39428,"is_reserved":false,"is_disabled":false,"rental_uris":{"android":"levelo://app?vid=fc7a3c57-2b5b-4cdc-a700-f625bb259997","ios":"levelo://app?vid=fc7a3c57-2b5b-4cdc-a700-f625bb259997"},"vehicle_type_id":"4","last_reported":1730351382,"current_range_meters":38000,"station_id":"ce4bhip2rcd13ifvqft0","pricing_plan_id":"cebpf4jnsgd1na2vs0mg"},{"bike_id":"bd1d597a-6cd5-4f41-9039-86c74516aebb","system_id":"levelo_inurba_marseille","lat":43.3236,"lon":5.38885,"is_reserved":false,"is_disabled":false,"rental_uris":{"android":"levelo://app?vid=bd1d597a-6cd5-4f41-9039-86c74516aebb","ios":"levelo://app?vid=bd1d597a-6cd5-4f41-9039-86c74516aebb"},"vehicle_type_id":"4","last_reported":1730351382,"current_range_meters":28000,"station_id":"ce4bhqp2rcd13ifvqhog","pricing_plan_id":"cebpf4jnsgd1na2vs0mg"},{"bike_id":"790de6f6-7e88-45fe-82ab-67779ea11511","system_id":"levelo_inurba_marseille","lat":43.2926,"lon":5.40918,"is_reserved":false,"is_disabled":false,"rental_uris":{"android":"levelo://app?vid=790de6f6-7e88-45fe-82ab-67779ea11511","ios":"levelo://app?vid=790de6f6-7e88-45fe-82ab-67779ea11511"},"vehicle_type_id":"4","last_reported":1730351382,"current_range_meters":33200,"station_id":"ce4bh192rcd13ifvqdc0","pricing_plan_id":"cebpf4jnsgd1na2vs0mg"},{"bike_id":"64dab1a2-9a19-4671-8d0b-fe98cb5d329f","system_id":"levelo_inurba_marseille","lat":43.27996,"lon":5.40018,"is_reserved":false,"is_disabled":false,"rental_uris":{"android":"levelo://app?vid=64dab1a2-9a19-4671-8d0b-fe98cb5d329f","ios":"levelo://app?vid=64dab1a2-9a19-4671-8d0b-fe98cb5d329f"},"vehicle_type_id":"4","last_reported":1730351382,"current_range_meters":38000,"station_id":"ce4bho92rcd13ifvqh4g","pricing_plan_id":"cebpf4jnsgd1na2vs0mg"},{"bike_id":"53df4876-82e2-479d-9449-a65cd8e9f4fd","system_id":"levelo_inurba_marseille","lat":43.31886,"lon":5.40735,"is_reserved":false,"is_disabled":false,"rental_uris":{"android":"levelo://app?vid=53df4876-82e2-479d-9449-a65cd8e9f4fd","ios":"levelo://app?vid=53df4876-82e2-479d-9449-a65cd8e9f4fd"},"vehicle_type_id":"4","last_reported":1730351382,"current_range_meters":31200,"station_id":"ce4bhq12rcd13ifvqhig","pricing_plan_id":"cebpf4jnsgd1na2vs0mg"},{"bike_id":"c573c73f-75e4-475a-bcd6-666ce297695e","system_id":"levelo_inurba_marseille","lat":43.23185,"lon":5.39986,"is_reserved":false,"is_disabled":false,"rental_uris":{"android":"levelo://app?vid=c573c73f-75e4-475a-bcd6-666ce297695e","ios":"levelo://app?vid=c573c73f-75e4-475a-bcd6-666ce297695e"},"vehicle_type_id":"4","last_reported":1730351382,"current_range_meters":27600,"station_id":"ce4bhn12rcd13ifvqgqg","pricing_plan_id":"cebpf4jnsgd1na2vs0mg"},{"bike_id":"f6e2e454-d69d-451f-ab20-3fd389c36e8b","system_id":"levelo_inurba_marseille","lat":43.31236,"lon":5.36846,"is_reserved":false,"is_disabled":false,"rental_uris":{"android":"levelo://app?vid=f6e2e454-d69d-451f-ab20-3fd389c36e8b","ios":"levelo://app?vid=f6e2e454-d69d-451f-ab20-3fd389c36e8b"},"vehicle_type_id":"4","last_reported":1730351382,"current_range_meters":38800,"station_id":"ce4bgl92rcd13ifvqbq0","pricing_plan_id":"cebpf4jnsgd1na2vs0mg"},{"bike_id":"a65b7600-bc14-4cb1-bd98-91e0257743b9","system_id":"levelo_inurba_marseille","lat":43.24071,"lon":5.37753,"is_reserved":false,"is_disabled":false,"rental_uris":{"android":"levelo://app?vid=a65b7600-bc14-4cb1-bd98-91e0257743b9","ios":"levelo://app?vid=a65b7600-bc14-4cb1-bd98-91e0257743b9"},"vehicle_type_id":"4","last_reported":1730351382,"current_range_meters":7200,"station_id":"ce4bhnp2rcd13ifvqgvg","pricing_plan_id":"cebpf4jnsgd1na2vs0mg"},{"bike_id":"0a06ec05-8481-4798-969d-ec482d3be7df","system_id":"levelo_inurba_marseille","lat":43.28701,"lon":5.39987,"is_reserved":false,"is_disabled":false,"rental_uris":{"android":"levelo://app?vid=0a06ec05-8481-4798-969d-ec482d3be7df","ios":"levelo://app?vid=0a06ec05-8481-4798-969d-ec482d3be7df"},"vehicle_type_id":"4","last_reported":1730351382,"current_range_meters":37600,"station_id":"ce4bho92rcd13ifvqh3g","pricing_plan_id":"cebpf4jnsgd1na2vs0mg"},{"bike_id":"70bb78fe-4bef-4d56-a833-affc0bdfc9f3","system_id":"levelo_inurba_marseille","lat":43.231993,"lon":5.355571,"is_reserved":false,"is_disabled":false,"rental_uris":{"android":"levelo://app?vid=70bb78fe-4bef-4d56-a833-affc0bdfc9f3","ios":"levelo://app?vid=70bb78fe-4bef-4d56-a833-affc0bdfc9f3"},"vehicle_type_id":"4","last_reported":1730351382,"current_range_meters":38800,"station_id":"ce4bhu92rcd13ifvqi70","pricing_plan_id":"cebpf4jnsgd1na2vs0mg"},{"bike_id":"1549777b-33eb-4a32-9567-d6c31d0710f5","system_id":"levelo_inurba_marseille","lat":43.32492,"lon":5.36563,"is_reserved":false,"is_disabled":false,"rental_uris":{"android":"levelo://app?vid=1549777b-33eb-4a32-9567-d6c31d0710f5","ios":"levelo://app?vid=1549777b-33eb-4a32-9567-d6c31d0710f5"},"vehicle_type_id":"4","last_reported":1730351382,"current_range_meters":36800,"station_id":"ce4bhs12rcd13ifvqhvg","pricing_plan_id":"cebpf4jnsgd1na2vs0mg"},{"bike_id":"60b71c7c-4918-47ba-8287-329d23746782","system_id":"levelo_inurba_marseille","lat":43.29899,"lon":5.43654,"is_reserved":false,"is_disabled":false,"rental_uris":{"android":"levelo://app?vid=60b71c7c-4918-47ba-8287-329d23746782","ios":"levelo://app?vid=60b71c7c-4918-47ba-8287-329d23746782"},"vehicle_type_id":"4","last_reported":1730351382,"current_range_meters":38400,"station_id":"ce4bhpp2rcd13ifvqhfg","pricing_plan_id":"cebpf4jnsgd1na2vs0mg"},{"bike_id":"41d96ebe-6a5f-4dd8-8e4e-ad3534ba8994","system_id":"levelo_inurba_marseille","lat":43.28404,"lon":5.3751,"is_reserved":false,"is_disabled":false,"rental_uris":{"android":"levelo://app?vid=41d96ebe-6a5f-4dd8-8e4e-ad3534ba8994","ios":"levelo://app?vid=41d96ebe-6a5f-4dd8-8e4e-ad3534ba8994"},"vehicle_type_id":"4","last_reported":1730351382,"current_range_meters":28000,"station_id":"ce4bh412rcd13ifvqds0","pricing_plan_id":"cebpf4jnsgd1na2vs0mg"},{"bike_id":"2553ef9c-d30c-42ed-a374-3d794f11ae2f","system_id":"levelo_inurba_marseille","lat":43.23188,"lon":5.39999,"is_reserved":false,"is_disabled":false,"rental_uris":{"android":"levelo://app?vid=2553ef9c-d30c-42ed-a374-3d794f11ae2f","ios":"levelo://app?vid=2553ef9c-d30c-42ed-a374-3d794f11ae2f"},"vehicle_type_id":"4","last_reported":1730351382,"current_range_meters":24000,"station_id":"ce4bhn12rcd13ifvqgqg","pricing_plan_id":"cebpf4jnsgd1na2vs0mg"},{"bike_id":"7402b7e8-b1f4-4735-bca8-18b131717534","system_id":"levelo_inurba_marseille","lat":43.24388,"lon":5.3705,"is_reserved":false,"is_disabled":false,"rental_uris":{"android":"levelo://app?vid=7402b7e8-b1f4-4735-bca8-18b131717534","ios":"levelo://app?vid=7402b7e8-b1f4-4735-bca8-18b131717534"},"vehicle_type_id":"4","last_reported":1730351382,"current_range_meters":39200,"station_id":"ce4bhhh2rcd13ifvqfk0","pricing_plan_id":"cebpf4jnsgd1na2vs0mg"},{"bike_id":"ccb5b176-bdcb-4171-a3ac-1aa094a42900","system_id":"levelo_inurba_marseille","lat":43.25724,"lon":5.41114,"is_reserved":false,"is_disabled":false,"rental_uris":{"android":"levelo://app?vid=ccb5b176-bdcb-4171-a3ac-1aa094a42900","ios":"levelo://app?vid=ccb5b176-bdcb-4171-a3ac-1aa094a42900"},"vehicle_type_id":"4","last_reported":1730351382,"current_range_meters":22400,"station_id":"ce4bhkp2rcd13ifvqgd0","pricing_plan_id":"cebpf4jnsgd1na2vs0mg"},{"bike_id":"5c244c3d-8fd7-4c95-b825-2f7fe2f15994","system_id":"levelo_inurba_marseille","lat":43.23193,"lon":5.35543,"is_reserved":false,"is_disabled":false,"rental_uris":{"android":"levelo://app?vid=5c244c3d-8fd7-4c95-b825-2f7fe2f15994","ios":"levelo://app?vid=5c244c3d-8fd7-4c95-b825-2f7fe2f15994"},"vehicle_type_id":"4","last_reported":1730351382,"current_range_meters":39200,"station_id":"ce4bhu92rcd13ifvqi70","pricing_plan_id":"cebpf4jnsgd1na2vs0mg"},{"bike_id":"7d1fe817-f784-45b3-a7f6-2e79abcfa29c","system_id":"levelo_inurba_marseille","lat":43.337444,"lon":5.374475,"is_reserved":false,"is_disabled":false,"rental_uris":{"android":"levelo://app?vid=7d1fe817-f784-45b3-a7f6-2e79abcfa29c","ios":"levelo://app?vid=7d1fe817-f784-45b3-a7f6-2e79abcfa29c"},"vehicle_type_id":"4","last_reported":1730351382,"current_range_meters":36000,"station_id":"","pricing_plan_id":"cebpf4jnsgd1na2vs0mg"},{"bike_id":"6c8b77e4-7a02-4aab-aa5c-11b43f703a25","system_id":"levelo_inurba_marseille","lat":43.281123,"lon":5.406059,"is_reserved":false,"is_disabled":false,"rental_uris":{"android":"levelo://app?vid=6c8b77e4-7a02-4aab-aa5c-11b43f703a25","ios":"levelo://app?vid=6c8b77e4-7a02-4aab-aa5c-11b43f703a25"},"vehicle_type_id":"4","last_reported":1730351382,"current_range_meters":24400,"station_id":"ce4bhnh2rcd13ifvqgug","pricing_plan_id":"cebpf4jnsgd1na2vs0mg"},{"bike_id":"aebb363c-728d-483a-9073-49c46b1b9d19","system_id":"levelo_inurba_marseille","lat":43.28468,"lon":5.35891,"is_reserved":false,"is_disabled":false,"rental_uris":{"android":"levelo://app?vid=aebb363c-728d-483a-9073-49c46b1b9d19","ios":"levelo://app?vid=aebb363c-728d-483a-9073-49c46b1b9d19"},"vehicle_type_id":"4","last_reported":1730351382,"current_range_meters":20000,"station_id":"ce4bhah2rcd13ifvqei0","pricing_plan_id":"cebpf4jnsgd1na2vs0mg"},{"bike_id":"b36e4830-2996-4a48-af1a-0e271204aae5","system_id":"levelo_inurba_marseille","lat":43.29223,"lon":5.36062,"is_reserved":false,"is_disabled":false,"rental_uris":{"android":"levelo://app?vid=b36e4830-2996-4a48-af1a-0e271204aae5","ios":"levelo://app?vid=b36e4830-2996-4a48-af1a-0e271204aae5"},"vehicle_type_id":"4","last_reported":1730351382,"current_range_meters":38400,"station_id":"ce4bhbh2rcd13ifvqeqg","pricing_plan_id":"cebpf4jnsgd1na2vs0mg"},{"bike_id":"b6656321-07a2-484f-8363-e5a5ede34c21","system_id":"levelo_inurba_marseille","lat":43.26801,"lon":5.402668,"is_reserved":false,"is_disabled":false,"rental_uris":{"android":"levelo://app?vid=b6656321-07a2-484f-8363-e5a5ede34c21","ios":"levelo://app?vid=b6656321-07a2-484f-8363-e5a5ede34c21"},"vehicle_type_id":"4","last_reported":1730351382,"current_range_meters":28800,"station_id":"ce501612rcd8frsf0b60","pricing_plan_id":"cebpf4jnsgd1na2vs0mg"},{"bike_id":"c1811b06-5c1b-4ee2-88ab-5aaf80012dd5","system_id":"levelo_inurba_marseille","lat":43.31362,"lon":5.38498,"is_reserved":false,"is_disabled":false,"rental_uris":{"android":"levelo://app?vid=c1811b06-5c1b-4ee2-88ab-5aaf80012dd5","ios":"levelo://app?vid=c1811b06-5c1b-4ee2-88ab-5aaf80012dd5"},"vehicle_type_id":"4","last_reported":1730351382,"current_range_meters":38000,"station_id":"ce4bgt92rcd13ifvqcf0","pricing_plan_id":"cebpf4jnsgd1na2vs0mg"},{"bike_id":"335f1a08-5da0-4ae7-a584-7d7da59362a5","system_id":"levelo_inurba_marseille","lat":43.28467,"lon":5.35891,"is_reserved":false,"is_disabled":false,"rental_uris":{"android":"levelo://app?vid=335f1a08-5da0-4ae7-a584-7d7da59362a5","ios":"levelo://app?vid=335f1a08-5da0-4ae7-a584-7d7da59362a5"},"vehicle_type_id":"4","last_reported":1730351382,"current_range_meters":28400,"station_id":"ce4bhah2rcd13ifvqei0","pricing_plan_id":"cebpf4jnsgd1na2vs0mg"},{"bike_id":"d9756f3c-8cb0-46d7-bc3b-462c65789eef","system_id":"levelo_inurba_marseille","lat":43.30896,"lon":5.39661,"is_reserved":false,"is_disabled":false,"rental_uris":{"android":"levelo://app?vid=d9756f3c-8cb0-46d7-bc3b-462c65789eef","ios":"levelo://app?vid=d9756f3c-8cb0-46d7-bc3b-462c65789eef"},"vehicle_type_id":"4","last_reported":1730351382,"current_range_meters":39200,"station_id":"ce4bh012rcd13ifvqcv0","pricing_plan_id":"cebpf4jnsgd1na2vs0mg"},{"bike_id":"37b08927-785c-42a3-8528-bd7a11bfcaf6","system_id":"levelo_inurba_marseille","lat":43.286652,"lon":5.363532,"is_reserved":false,"is_disabled":false,"rental_uris":{"android":"levelo://app?vid=37b08927-785c-42a3-8528-bd7a11bfcaf6","ios":"levelo://app?vid=37b08927-785c-42a3-8528-bd7a11bfcaf6"},"vehicle_type_id":"4","last_reported":1730351382,"current_range_meters":38800,"station_id":"ce4bhah2rcd13ifvqej0","pricing_plan_id":"cebpf4jnsgd1na2vs0mg"},{"bike_id":"d4c75cb5-db79-44b2-ae3d-0051411fdd9b","system_id":"levelo_inurba_marseille","lat":43.28112,"lon":5.37833,"is_reserved":false,"is_disabled":false,"rental_uris":{"android":"levelo://app?vid=d4c75cb5-db79-44b2-ae3d-0051411fdd9b","ios":"levelo://app?vid=d4c75cb5-db79-44b2-ae3d-0051411fdd9b"},"vehicle_type_id":"4","last_reported":1730351382,"current_range_meters":9200,"station_id":"ce4bha12rcd13ifvqee0","pricing_plan_id":"cebpf4jnsgd1na2vs0mg"},{"bike_id":"96e693fc-9e0d-444f-97cf-4c5cf0e5a730","system_id":"levelo_inurba_marseille","lat":43.30424,"lon":5.41289,"is_reserved":false,"is_disabled":false,"rental_uris":{"android":"levelo://app?vid=96e693fc-9e0d-444f-97cf-4c5cf0e5a730","ios":"levelo://app?vid=96e693fc-9e0d-444f-97cf-4c5cf0e5a730"},"vehicle_type_id":"4","last_reported":1730351382,"current_range_meters":19600,"station_id":"ce4bhop2rcd13ifvqh8g","pricing_plan_id":"cebpf4jnsgd1na2vs0mg"},{"bike_id":"92adf987-4779-4b78-ad9c-8e29ab9175f3","system_id":"levelo_inurba_marseille","lat":43.23195,"lon":5.35554,"is_reserved":false,"is_disabled":false,"rental_uris":{"android":"levelo://app?vid=92adf987-4779-4b78-ad9c-8e29ab9175f3","ios":"levelo://app?vid=92adf987-4779-4b78-ad9c-8e29ab9175f3"},"vehicle_type_id":"4","last_reported":1730351382,"current_range_meters":8800,"station_id":"ce4bhu92rcd13ifvqi70","pricing_plan_id":"cebpf4jnsgd1na2vs0mg"},{"bike_id":"b646e9b4-de88-4831-9a2f-2b15bca6b74a","system_id":"levelo_inurba_marseille","lat":43.30431,"lon":5.39752,"is_reserved":false,"is_disabled":false,"rental_uris":{"android":"levelo://app?vid=b646e9b4-de88-4831-9a2f-2b15bca6b74a","ios":"levelo://app?vid=b646e9b4-de88-4831-9a2f-2b15bca6b74a"},"vehicle_type_id":"4","last_reported":1730351382,"current_range_meters":38000,"station_id":"ce4bh092rcd13ifvqd20","pricing_plan_id":"cebpf4jnsgd1na2vs0mg"},{"bike_id":"0d9e2dc0-7e48-44a4-9d02-16fb20798af5","system_id":"levelo_inurba_marseille","lat":43.23182,"lon":5.39985,"is_reserved":false,"is_disabled":false,"rental_uris":{"android":"levelo://app?vid=0d9e2dc0-7e48-44a4-9d02-16fb20798af5","ios":"levelo://app?vid=0d9e2dc0-7e48-44a4-9d02-16fb20798af5"},"vehicle_type_id":"4","last_reported":1730351382,"current_range_meters":39200,"station_id":"ce4bhn12rcd13ifvqgqg","pricing_plan_id":"cebpf4jnsgd1na2vs0mg"},{"bike_id":"ce2310f1-0848-4180-8bb1-c79c12d253ca","system_id":"levelo_inurba_marseille","lat":43.33746,"lon":5.37434,"is_reserved":false,"is_disabled":false,"rental_uris":{"android":"levelo://app?vid=ce2310f1-0848-4180-8bb1-c79c12d253ca","ios":"levelo://app?vid=ce2310f1-0848-4180-8bb1-c79c12d253ca"},"vehicle_type_id":"4","last_reported":1730351382,"current_range_meters":32400,"station_id":"","pricing_plan_id":"cebpf4jnsgd1na2vs0mg"},{"bike_id":"d112c7cc-3721-4d9b-8e02-c42fae8da055","system_id":"levelo_inurba_marseille","lat":43.30194,"lon":5.366137,"is_reserved":false,"is_disabled":false,"rental_uris":{"android":"levelo://app?vid=d112c7cc-3721-4d9b-8e02-c42fae8da055","ios":"levelo://app?vid=d112c7cc-3721-4d9b-8e02-c42fae8da055"},"vehicle_type_id":"4","last_reported":1730351382,"current_range_meters":36000,"station_id":"ce4bgrh2rcd13ifvqc8g","pricing_plan_id":"cebpf4jnsgd1na2vs0mg"},{"bike_id":"070c162b-8711-4689-82f8-ef565587512e","system_id":"levelo_inurba_marseille","lat":43.24664,"lon":5.38158,"is_reserved":false,"is_disabled":false,"rental_uris":{"android":"levelo://app?vid=070c162b-8711-4689-82f8-ef565587512e","ios":"levelo://app?vid=070c162b-8711-4689-82f8-ef565587512e"},"vehicle_type_id":"4","last_reported":1730351382,"current_range_meters":38400,"station_id":"ce4bhih2rcd13ifvqfr0","pricing_plan_id":"cebpf4jnsgd1na2vs0mg"},{"bike_id":"40e9d3c4-1e8d-4937-a025-be1e2dfd72da","system_id":"levelo_inurba_marseille","lat":43.24809,"lon":5.37455,"is_reserved":false,"is_disabled":false,"rental_uris":{"android":"levelo://app?vid=40e9d3c4-1e8d-4937-a025-be1e2dfd72da","ios":"levelo://app?vid=40e9d3c4-1e8d-4937-a025-be1e2dfd72da"},"vehicle_type_id":"4","last_reported":1730351382,"current_range_meters":39200,"station_id":"ce4bhgh2rcd13ifvqfb0","pricing_plan_id":"cebpf4jnsgd1na2vs0mg"},{"bike_id":"e2853331-5bcd-44a8-8a80-d4712e027a95","system_id":"levelo_inurba_marseille","lat":43.28864,"lon":5.35857,"is_reserved":false,"is_disabled":false,"rental_uris":{"android":"levelo://app?vid=e2853331-5bcd-44a8-8a80-d4712e027a95","ios":"levelo://app?vid=e2853331-5bcd-44a8-8a80-d4712e027a95"},"vehicle_type_id":"4","last_reported":1730351382,"current_range_meters":38000,"station_id":"ce4bhb12rcd13ifvqem0","pricing_plan_id":"cebpf4jnsgd1na2vs0mg"},{"bike_id":"fc216e9c-3fad-4cee-82f5-0e258eb25dcf","system_id":"levelo_inurba_marseille","lat":43.29282,"lon":5.40118,"is_reserved":false,"is_disabled":false,"rental_uris":{"android":"levelo://app?vid=fc216e9c-3fad-4cee-82f5-0e258eb25dcf","ios":"levelo://app?vid=fc216e9c-3fad-4cee-82f5-0e258eb25dcf"},"vehicle_type_id":"4","last_reported":1730351382,"current_range_meters":35200,"station_id":"ce4bh312rcd13ifvqdk0","pricing_plan_id":"cebpf4jnsgd1na2vs0mg"},{"bike_id":"7dfaf496-2e50-463a-a103-b8570a0c6a9a","system_id":"levelo_inurba_marseille","lat":43.24389,"lon":5.37053,"is_reserved":false,"is_disabled":false,"rental_uris":{"android":"levelo://app?vid=7dfaf496-2e50-463a-a103-b8570a0c6a9a","ios":"levelo://app?vid=7dfaf496-2e50-463a-a103-b8570a0c6a9a"},"vehicle_type_id":"4","last_reported":1730351382,"current_range_meters":38800,"station_id":"ce4bhhh2rcd13ifvqfk0","pricing_plan_id":"cebpf4jnsgd1na2vs0mg"},{"bike_id":"c0cd52e2-cd24-4691-a4da-05000b12f1a5","system_id":"levelo_inurba_marseille","lat":43.30245,"lon":5.40067,"is_reserved":false,"is_disabled":false,"rental_uris":{"android":"levelo://app?vid=c0cd52e2-cd24-4691-a4da-05000b12f1a5","ios":"levelo://app?vid=c0cd52e2-cd24-4691-a4da-05000b12f1a5"},"vehicle_type_id":"4","last_reported":1730351382,"current_range_meters":34800,"station_id":"ce4bgvh2rcd13ifvqcs0","pricing_plan_id":"cebpf4jnsgd1na2vs0mg"},{"bike_id":"e1981257-13d9-4ca8-88d5-098a3facc54d","system_id":"levelo_inurba_marseille","lat":43.22937,"lon":5.35379,"is_reserved":false,"is_disabled":false,"rental_uris":{"android":"levelo://app?vid=e1981257-13d9-4ca8-88d5-098a3facc54d","ios":"levelo://app?vid=e1981257-13d9-4ca8-88d5-098a3facc54d"},"vehicle_type_id":"4","last_reported":1730351382,"current_range_meters":28800,"station_id":"cpo3532slgdg3j2ikp40","pricing_plan_id":"cebpf4jnsgd1na2vs0mg"},{"bike_id":"ec6bf2c6-81ba-4965-828b-92e734ee6e46","system_id":"levelo_inurba_marseille","lat":43.23188,"lon":5.355515,"is_reserved":false,"is_disabled":false,"rental_uris":{"android":"levelo://app?vid=ec6bf2c6-81ba-4965-828b-92e734ee6e46","ios":"levelo://app?vid=ec6bf2c6-81ba-4965-828b-92e734ee6e46"},"vehicle_type_id":"4","last_reported":1730351382,"current_range_meters":25600,"station_id":"ce4bhu92rcd13ifvqi70","pricing_plan_id":"cebpf4jnsgd1na2vs0mg"},{"bike_id":"d67c2a8c-5175-4ec6-a54b-8e643d3e99bf","system_id":"levelo_inurba_marseille","lat":43.27495,"lon":5.42451,"is_reserved":false,"is_disabled":false,"rental_uris":{"android":"levelo://app?vid=d67c2a8c-5175-4ec6-a54b-8e643d3e99bf","ios":"levelo://app?vid=d67c2a8c-5175-4ec6-a54b-8e643d3e99bf"},"vehicle_type_id":"4","last_reported":1730351382,"current_range_meters":38800,"station_id":"ce4bhn92rcd13ifvqgrg","pricing_plan_id":"cebpf4jnsgd1na2vs0mg"},{"bike_id":"a118e4bd-6d09-413e-b002-db50f03b54e7","system_id":"levelo_inurba_marseille","lat":43.28706,"lon":5.39993,"is_reserved":false,"is_disabled":false,"rental_uris":{"android":"levelo://app?vid=a118e4bd-6d09-413e-b002-db50f03b54e7","ios":"levelo://app?vid=a118e4bd-6d09-413e-b002-db50f03b54e7"},"vehicle_type_id":"4","last_reported":1730351382,"current_range_meters":31200,"station_id":"ce4bho92rcd13ifvqh3g","pricing_plan_id":"cebpf4jnsgd1na2vs0mg"},{"bike_id":"8a70037e-022c-4d80-bac8-991d053fd2e2","system_id":"levelo_inurba_marseille","lat":43.30958,"lon":5.3906,"is_reserved":false,"is_disabled":false,"rental_uris":{"android":"levelo://app?vid=8a70037e-022c-4d80-bac8-991d053fd2e2","ios":"levelo://app?vid=8a70037e-022c-4d80-bac8-991d053fd2e2"},"vehicle_type_id":"4","last_reported":1730351382,"current_range_meters":28000,"station_id":"ce4bgup2rcd13ifvqco0","pricing_plan_id":"cebpf4jnsgd1na2vs0mg"},{"bike_id":"dfc15097-286b-4a19-888e-24b66d859567","system_id":"levelo_inurba_marseille","lat":43.26832,"lon":5.41118,"is_reserved":false,"is_disabled":false,"rental_uris":{"android":"levelo://app?vid=dfc15097-286b-4a19-888e-24b66d859567","ios":"levelo://app?vid=dfc15097-286b-4a19-888e-24b66d859567"},"vehicle_type_id":"4","last_reported":1730351382,"current_range_meters":10800,"station_id":"","pricing_plan_id":"cebpf4jnsgd1na2vs0mg"},{"bike_id":"de965c17-0fea-46be-9be4-3593657f97c6","system_id":"levelo_inurba_marseille","lat":43.26066,"lon":5.39394,"is_reserved":false,"is_disabled":false,"rental_uris":{"android":"levelo://app?vid=de965c17-0fea-46be-9be4-3593657f97c6","ios":"levelo://app?vid=de965c17-0fea-46be-9be4-3593657f97c6"},"vehicle_type_id":"4","last_reported":1730351382,"current_range_meters":26000,"station_id":"ce4bhh92rcd13ifvqfj0","pricing_plan_id":"cebpf4jnsgd1na2vs0mg"},{"bike_id":"62874f0c-2696-4712-9a95-c582d9bfbbaa","system_id":"levelo_inurba_marseille","lat":43.27836,"lon":5.41227,"is_reserved":false,"is_disabled":false,"rental_uris":{"android":"levelo://app?vid=62874f0c-2696-4712-9a95-c582d9bfbbaa","ios":"levelo://app?vid=62874f0c-2696-4712-9a95-c582d9bfbbaa"},"vehicle_type_id":"4","last_reported":1730351382,"current_range_meters":8000,"station_id":"","pricing_plan_id":"cebpf4jnsgd1na2vs0mg"},{"bike_id":"ea167c01-6113-4dc8-be0a-0b280cd8055a","system_id":"levelo_inurba_marseille","lat":43.23957,"lon":5.36625,"is_reserved":false,"is_disabled":false,"rental_uris":{"android":"levelo://app?vid=ea167c01-6113-4dc8-be0a-0b280cd8055a","ios":"levelo://app?vid=ea167c01-6113-4dc8-be0a-0b280cd8055a"},"vehicle_type_id":"4","last_reported":1730351382,"current_range_meters":14000,"station_id":"ce4bhi12rcd13ifvqfp0","pricing_plan_id":"cebpf4jnsgd1na2vs0mg"},{"bike_id":"b6b3da43-2210-45b5-8770-19b237e0b45d","system_id":"levelo_inurba_marseille","lat":43.28402,"lon":5.37518,"is_reserved":false,"is_disabled":false,"rental_uris":{"android":"levelo://app?vid=b6b3da43-2210-45b5-8770-19b237e0b45d","ios":"levelo://app?vid=b6b3da43-2210-45b5-8770-19b237e0b45d"},"vehicle_type_id":"4","last_reported":1730351382,"current_range_meters":10800,"station_id":"ce4bh412rcd13ifvqds0","pricing_plan_id":"cebpf4jnsgd1na2vs0mg"},{"bike_id":"f4275078-d247-4e72-ac15-c499ff15c1b1","system_id":"levelo_inurba_marseille","lat":43.31065,"lon":5.38345,"is_reserved":false,"is_disabled":false,"rental_uris":{"android":"levelo://app?vid=f4275078-d247-4e72-ac15-c499ff15c1b1","ios":"levelo://app?vid=f4275078-d247-4e72-ac15-c499ff15c1b1"},"vehicle_type_id":"4","last_reported":1730351382,"current_range_meters":22000,"station_id":"ce4bgv92rcd13ifvqcr0","pricing_plan_id":"cebpf4jnsgd1na2vs0mg"},{"bike_id":"3a8b00c4-db59-480f-8b02-c61ef2e023b3","system_id":"levelo_inurba_marseille","lat":43.30328,"lon":5.40446,"is_reserved":false,"is_disabled":false,"rental_uris":{"android":"levelo://app?vid=3a8b00c4-db59-480f-8b02-c61ef2e023b3","ios":"levelo://app?vid=3a8b00c4-db59-480f-8b02-c61ef2e023b3"},"vehicle_type_id":"4","last_reported":1730351382,"current_range_meters":20800,"station_id":"ce4bh012rcd13ifvqd10","pricing_plan_id":"cebpf4jnsgd1na2vs0mg"},{"bike_id":"eaeed4a6-c69c-457f-8cae-ab625092c5d0","system_id":"levelo_inurba_marseille","lat":43.30248,"lon":5.40065,"is_reserved":false,"is_disabled":false,"rental_uris":{"android":"levelo://app?vid=eaeed4a6-c69c-457f-8cae-ab625092c5d0","ios":"levelo://app?vid=eaeed4a6-c69c-457f-8cae-ab625092c5d0"},"vehicle_type_id":"4","last_reported":1730351382,"current_range_meters":36000,"station_id":"ce4bgvh2rcd13ifvqcs0","pricing_plan_id":"cebpf4jnsgd1na2vs0mg"},{"bike_id":"436a6a69-d3b4-4bdf-8c98-78260ced3e10","system_id":"levelo_inurba_marseille","lat":43.28699,"lon":5.3739,"is_reserved":false,"is_disabled":false,"rental_uris":{"android":"levelo://app?vid=436a6a69-d3b4-4bdf-8c98-78260ced3e10","ios":"levelo://app?vid=436a6a69-d3b4-4bdf-8c98-78260ced3e10"},"vehicle_type_id":"4","last_reported":1730351382,"current_range_meters":6800,"station_id":"ce4bh3p2rcd13ifvqdq0","pricing_plan_id":"cebpf4jnsgd1na2vs0mg"},{"bike_id":"6a6508a8-9f6b-4810-96a4-0ad7e19de049","system_id":"levelo_inurba_marseille","lat":43.30128,"lon":5.3878,"is_reserved":false,"is_disabled":false,"rental_uris":{"android":"levelo://app?vid=6a6508a8-9f6b-4810-96a4-0ad7e19de049","ios":"levelo://app?vid=6a6508a8-9f6b-4810-96a4-0ad7e19de049"},"vehicle_type_id":"4","last_reported":1730351382,"current_range_meters":38400,"station_id":"ce4bghh2rcd13ifvqb60","pricing_plan_id":"cebpf4jnsgd1na2vs0mg"},{"bike_id":"fb7c17c1-24fe-4bf6-98e4-2d7b75a8d8a8","system_id":"levelo_inurba_marseille","lat":43.30809,"lon":5.38141,"is_reserved":false,"is_disabled":false,"rental_uris":{"android":"levelo://app?vid=fb7c17c1-24fe-4bf6-98e4-2d7b75a8d8a8","ios":"levelo://app?vid=fb7c17c1-24fe-4bf6-98e4-2d7b75a8d8a8"},"vehicle_type_id":"4","last_reported":1730351382,"current_range_meters":38800,"station_id":"ce4bgt12rcd13ifvqce0","pricing_plan_id":"cebpf4jnsgd1na2vs0mg"},{"bike_id":"014a60cd-d725-46c2-9076-759dd505e218","system_id":"levelo_inurba_marseille","lat":43.2894,"lon":5.39631,"is_reserved":false,"is_disabled":false,"rental_uris":{"android":"levelo://app?vid=014a60cd-d725-46c2-9076-759dd505e218","ios":"levelo://app?vid=014a60cd-d725-46c2-9076-759dd505e218"},"vehicle_type_id":"4","last_reported":1730351382,"current_range_meters":37600,"station_id":"ce4bh3h2rcd13ifvqdn0","pricing_plan_id":"cebpf4jnsgd1na2vs0mg"},{"bike_id":"7c3d9f93-d8b7-44d8-ba97-ecce71635c84","system_id":"levelo_inurba_marseille","lat":43.2963,"lon":5.40598,"is_reserved":false,"is_disabled":false,"rental_uris":{"android":"levelo://app?vid=7c3d9f93-d8b7-44d8-ba97-ecce71635c84","ios":"levelo://app?vid=7c3d9f93-d8b7-44d8-ba97-ecce71635c84"},"vehicle_type_id":"4","last_reported":1730351382,"current_range_meters":24000,"station_id":"ce4bh0h2rcd13ifvqd60","pricing_plan_id":"cebpf4jnsgd1na2vs0mg"},{"bike_id":"2370a04e-d358-4a29-b67a-890bf50b34fd","system_id":"levelo_inurba_marseille","lat":43.24165,"lon":5.36398,"is_reserved":false,"is_disabled":false,"rental_uris":{"android":"levelo://app?vid=2370a04e-d358-4a29-b67a-890bf50b34fd","ios":"levelo://app?vid=2370a04e-d358-4a29-b67a-890bf50b34fd"},"vehicle_type_id":"4","last_reported":1730351382,"current_range_meters":38400,"station_id":"cpo36qri1sfpv3e86is0","pricing_plan_id":"cebpf4jnsgd1na2vs0mg"},{"bike_id":"2d09b255-c383-4598-b26d-af21dea65632","system_id":"levelo_inurba_marseille","lat":43.2841,"lon":5.37522,"is_reserved":false,"is_disabled":false,"rental_uris":{"android":"levelo://app?vid=2d09b255-c383-4598-b26d-af21dea65632","ios":"levelo://app?vid=2d09b255-c383-4598-b26d-af21dea65632"},"vehicle_type_id":"4","last_reported":1730351382,"current_range_meters":28400,"station_id":"ce4bh412rcd13ifvqds0","pricing_plan_id":"cebpf4jnsgd1na2vs0mg"},{"bike_id":"340ee56a-a57c-4790-b4a5-a461d2743ef5","system_id":"levelo_inurba_marseille","lat":43.28704,"lon":5.39987,"is_reserved":false,"is_disabled":false,"rental_uris":{"android":"levelo://app?vid=340ee56a-a57c-4790-b4a5-a461d2743ef5","ios":"levelo://app?vid=340ee56a-a57c-4790-b4a5-a461d2743ef5"},"vehicle_type_id":"4","last_reported":1730351382,"current_range_meters":36800,"station_id":"ce4bho92rcd13ifvqh3g","pricing_plan_id":"cebpf4jnsgd1na2vs0mg"},{"bike_id":"04a7e763-166e-4987-9ffa-b71b1d2f0cae","system_id":"levelo_inurba_marseille","lat":43.29276,"lon":5.4012,"is_reserved":false,"is_disabled":false,"rental_uris":{"android":"levelo://app?vid=04a7e763-166e-4987-9ffa-b71b1d2f0cae","ios":"levelo://app?vid=04a7e763-166e-4987-9ffa-b71b1d2f0cae"},"vehicle_type_id":"4","last_reported":1730351382,"current_range_meters":34800,"station_id":"ce4bh312rcd13ifvqdk0","pricing_plan_id":"cebpf4jnsgd1na2vs0mg"},{"bike_id":"7b380d38-1fae-43eb-8638-0dd8786e0b2e","system_id":"levelo_inurba_marseille","lat":43.3093,"lon":5.40149,"is_reserved":false,"is_disabled":false,"rental_uris":{"android":"levelo://app?vid=7b380d38-1fae-43eb-8638-0dd8786e0b2e","ios":"levelo://app?vid=7b380d38-1fae-43eb-8638-0dd8786e0b2e"},"vehicle_type_id":"4","last_reported":1730351382,"current_range_meters":16000,"station_id":"ce4bgvp2rcd13ifvqct0","pricing_plan_id":"cebpf4jnsgd1na2vs0mg"},{"bike_id":"25f36850-ca94-4a70-978b-c2c1354af70d","system_id":"levelo_inurba_marseille","lat":43.27837,"lon":5.39202,"is_reserved":false,"is_disabled":false,"rental_uris":{"android":"levelo://app?vid=25f36850-ca94-4a70-978b-c2c1354af70d","ios":"levelo://app?vid=25f36850-ca94-4a70-978b-c2c1354af70d"},"vehicle_type_id":"4","last_reported":1730351382,"current_range_meters":38800,"station_id":"ce4bhjp2rcd13ifvqga0","pricing_plan_id":"cebpf4jnsgd1na2vs0mg"},{"bike_id":"03e26363-1adc-494c-8098-91070571fba5","system_id":"levelo_inurba_marseille","lat":43.23198,"lon":5.35543,"is_reserved":false,"is_disabled":false,"rental_uris":{"android":"levelo://app?vid=03e26363-1adc-494c-8098-91070571fba5","ios":"levelo://app?vid=03e26363-1adc-494c-8098-91070571fba5"},"vehicle_type_id":"4","last_reported":1730351382,"current_range_meters":27200,"station_id":"ce4bhu92rcd13ifvqi70","pricing_plan_id":"cebpf4jnsgd1na2vs0mg"},{"bike_id":"a7511b99-21ba-492e-bef9-ae849b9e118f","system_id":"levelo_inurba_marseille","lat":43.31279,"lon":5.40168,"is_reserved":false,"is_disabled":false,"rental_uris":{"android":"levelo://app?vid=a7511b99-21ba-492e-bef9-ae849b9e118f","ios":"levelo://app?vid=a7511b99-21ba-492e-bef9-ae849b9e118f"},"vehicle_type_id":"4","last_reported":1730351382,"current_range_meters":39200,"station_id":"ce4bh092rcd13ifvqd30","pricing_plan_id":"cebpf4jnsgd1na2vs0mg"},{"bike_id":"546f9ccb-7511-4248-967e-654c019ef883","system_id":"levelo_inurba_marseille","lat":43.31167,"lon":5.38746,"is_reserved":false,"is_disabled":false,"rental_uris":{"android":"levelo://app?vid=546f9ccb-7511-4248-967e-654c019ef883","ios":"levelo://app?vid=546f9ccb-7511-4248-967e-654c019ef883"},"vehicle_type_id":"4","last_reported":1730351382,"current_range_meters":36800,"station_id":"ce4bgv12rcd13ifvqcp0","pricing_plan_id":"cebpf4jnsgd1na2vs0mg"},{"bike_id":"dc190658-8553-4551-b8cb-354443b662cd","system_id":"levelo_inurba_marseille","lat":43.23192,"lon":5.35547,"is_reserved":false,"is_disabled":false,"rental_uris":{"android":"levelo://app?vid=dc190658-8553-4551-b8cb-354443b662cd","ios":"levelo://app?vid=dc190658-8553-4551-b8cb-354443b662cd"},"vehicle_type_id":"4","last_reported":1730351382,"current_range_meters":9200,"station_id":"ce4bhu92rcd13ifvqi70","pricing_plan_id":"cebpf4jnsgd1na2vs0mg"},{"bike_id":"221109af-4300-4eeb-88a8-ac84874c15da","system_id":"levelo_inurba_marseille","lat":43.28663,"lon":5.36352,"is_reserved":false,"is_disabled":false,"rental_uris":{"android":"levelo://app?vid=221109af-4300-4eeb-88a8-ac84874c15da","ios":"levelo://app?vid=221109af-4300-4eeb-88a8-ac84874c15da"},"vehicle_type_id":"4","last_reported":1730351382,"current_range_meters":32000,"station_id":"ce4bhah2rcd13ifvqej0","pricing_plan_id":"cebpf4jnsgd1na2vs0mg"},{"bike_id":"47be6f99-e5f7-4f54-8bc7-184cce8f8b78","system_id":"levelo_inurba_marseille","lat":43.29784,"lon":5.37119,"is_reserved":false,"is_disabled":false,"rental_uris":{"android":"levelo://app?vid=47be6f99-e5f7-4f54-8bc7-184cce8f8b78","ios":"levelo://app?vid=47be6f99-e5f7-4f54-8bc7-184cce8f8b78"},"vehicle_type_id":"4","last_reported":1730351382,"current_range_meters":35600,"station_id":"ce4bgop2rcd13ifvqc1g","pricing_plan_id":"cebpf4jnsgd1na2vs0mg"},{"bike_id":"6c51b835-f26e-4b14-93d8-158123285309","system_id":"levelo_inurba_marseille","lat":43.28411,"lon":5.37513,"is_reserved":false,"is_disabled":false,"rental_uris":{"android":"levelo://app?vid=6c51b835-f26e-4b14-93d8-158123285309","ios":"levelo://app?vid=6c51b835-f26e-4b14-93d8-158123285309"},"vehicle_type_id":"4","last_reported":1730351382,"current_range_meters":38800,"station_id":"ce4bh412rcd13ifvqds0","pricing_plan_id":"cebpf4jnsgd1na2vs0mg"},{"bike_id":"7f270bf6-247e-4179-9a7e-a15659822bc2","system_id":"levelo_inurba_marseille","lat":43.29288,"lon":5.36804,"is_reserved":false,"is_disabled":false,"rental_uris":{"android":"levelo://app?vid=7f270bf6-247e-4179-9a7e-a15659822bc2","ios":"levelo://app?vid=7f270bf6-247e-4179-9a7e-a15659822bc2"},"vehicle_type_id":"4","last_reported":1730351382,"current_range_meters":35600,"station_id":"","pricing_plan_id":"cebpf4jnsgd1na2vs0mg"},{"bike_id":"c0221c21-a114-43ce-9a63-14f14308cefc","system_id":"levelo_inurba_marseille","lat":43.31324,"lon":5.39682,"is_reserved":false,"is_disabled":false,"rental_uris":{"android":"levelo://app?vid=c0221c21-a114-43ce-9a63-14f14308cefc","ios":"levelo://app?vid=c0221c21-a114-43ce-9a63-14f14308cefc"},"vehicle_type_id":"4","last_reported":1730351382,"current_range_meters":25200,"station_id":"ce4bgvp2rcd13ifvqcu0","pricing_plan_id":"cebpf4jnsgd1na2vs0mg"},{"bike_id":"b598b506-bfb7-46e1-8127-efc9d45965c7","system_id":"levelo_inurba_marseille","lat":43.30353,"lon":5.41876,"is_reserved":false,"is_disabled":false,"rental_uris":{"android":"levelo://app?vid=b598b506-bfb7-46e1-8127-efc9d45965c7","ios":"levelo://app?vid=b598b506-bfb7-46e1-8127-efc9d45965c7"},"vehicle_type_id":"4","last_reported":1730351382,"current_range_meters":38800,"station_id":"ce4bhop2rcd13ifvqh7g","pricing_plan_id":"cebpf4jnsgd1na2vs0mg"},{"bike_id":"599f087a-0d72-4a42-a196-c89c14e1947a","system_id":"levelo_inurba_marseille","lat":43.311754,"lon":5.38714,"is_reserved":false,"is_disabled":false,"rental_uris":{"android":"levelo://app?vid=599f087a-0d72-4a42-a196-c89c14e1947a","ios":"levelo://app?vid=599f087a-0d72-4a42-a196-c89c14e1947a"},"vehicle_type_id":"4","last_reported":1730351382,"current_range_meters":38800,"station_id":"ce4bgv12rcd13ifvqcp0","pricing_plan_id":"cebpf4jnsgd1na2vs0mg"},{"bike_id":"03c0fd92-d684-4e7a-91a9-32bdca149bd4","system_id":"levelo_inurba_marseille","lat":43.287,"lon":5.39978,"is_reserved":false,"is_disabled":false,"rental_uris":{"android":"levelo://app?vid=03c0fd92-d684-4e7a-91a9-32bdca149bd4","ios":"levelo://app?vid=03c0fd92-d684-4e7a-91a9-32bdca149bd4"},"vehicle_type_id":"4","last_reported":1730351382,"current_range_meters":30000,"station_id":"ce4bho92rcd13ifvqh3g","pricing_plan_id":"cebpf4jnsgd1na2vs0mg"},{"bike_id":"94d78fdb-21a3-4987-8146-31a00d337b13","system_id":"levelo_inurba_marseille","lat":43.2926,"lon":5.40914,"is_reserved":false,"is_disabled":false,"rental_uris":{"android":"levelo://app?vid=94d78fdb-21a3-4987-8146-31a00d337b13","ios":"levelo://app?vid=94d78fdb-21a3-4987-8146-31a00d337b13"},"vehicle_type_id":"4","last_reported":1730351382,"current_range_meters":38800,"station_id":"ce4bh192rcd13ifvqdc0","pricing_plan_id":"cebpf4jnsgd1na2vs0mg"},{"bike_id":"7e8c9aae-6e99-4e12-870a-c8665e5dc26c","system_id":"levelo_inurba_marseille","lat":43.31888,"lon":5.40735,"is_reserved":false,"is_disabled":false,"rental_uris":{"android":"levelo://app?vid=7e8c9aae-6e99-4e12-870a-c8665e5dc26c","ios":"levelo://app?vid=7e8c9aae-6e99-4e12-870a-c8665e5dc26c"},"vehicle_type_id":"4","last_reported":1730351382,"current_range_meters":36000,"station_id":"ce4bhq12rcd13ifvqhig","pricing_plan_id":"cebpf4jnsgd1na2vs0mg"},{"bike_id":"5266335c-fb51-4166-a0ab-8099a4c09e4b","system_id":"levelo_inurba_marseille","lat":43.32291,"lon":5.38265,"is_reserved":false,"is_disabled":false,"rental_uris":{"android":"levelo://app?vid=5266335c-fb51-4166-a0ab-8099a4c09e4b","ios":"levelo://app?vid=5266335c-fb51-4166-a0ab-8099a4c09e4b"},"vehicle_type_id":"4","last_reported":1730351382,"current_range_meters":38400,"station_id":"ce4bhr12rcd13ifvqhqg","pricing_plan_id":"cebpf4jnsgd1na2vs0mg"},{"bike_id":"9d3de218-82a9-40c0-95a9-e5e5d318bf6f","system_id":"levelo_inurba_marseille","lat":43.3234,"lon":5.40618,"is_reserved":false,"is_disabled":false,"rental_uris":{"android":"levelo://app?vid=9d3de218-82a9-40c0-95a9-e5e5d318bf6f","ios":"levelo://app?vid=9d3de218-82a9-40c0-95a9-e5e5d318bf6f"},"vehicle_type_id":"4","last_reported":1730351382,"current_range_meters":39200,"station_id":"ce4bhq92rcd13ifvqhjg","pricing_plan_id":"cebpf4jnsgd1na2vs0mg"},{"bike_id":"203cdc68-feff-483d-ac1a-996e1a200a5a","system_id":"levelo_inurba_marseille","lat":43.27924,"lon":5.39583,"is_reserved":false,"is_disabled":false,"rental_uris":{"android":"levelo://app?vid=203cdc68-feff-483d-ac1a-996e1a200a5a","ios":"levelo://app?vid=203cdc68-feff-483d-ac1a-996e1a200a5a"},"vehicle_type_id":"4","last_reported":1730351382,"current_range_meters":28400,"station_id":"ce4bhf92rcd13ifvqf40","pricing_plan_id":"cebpf4jnsgd1na2vs0mg"},{"bike_id":"de29f9b8-dcb3-493e-92b4-91f056dcfb84","system_id":"levelo_inurba_marseille","lat":43.27495,"lon":5.42456,"is_reserved":false,"is_disabled":false,"rental_uris":{"android":"levelo://app?vid=de29f9b8-dcb3-493e-92b4-91f056dcfb84","ios":"levelo://app?vid=de29f9b8-dcb3-493e-92b4-91f056dcfb84"},"vehicle_type_id":"4","last_reported":1730351382,"current_range_meters":6000,"station_id":"ce4bhn92rcd13ifvqgrg","pricing_plan_id":"cebpf4jnsgd1na2vs0mg"},{"bike_id":"0a9808e2-f1b6-47b0-9750-4317658d2a57","system_id":"levelo_inurba_marseille","lat":43.296382,"lon":5.406337,"is_reserved":false,"is_disabled":false,"rental_uris":{"android":"levelo://app?vid=0a9808e2-f1b6-47b0-9750-4317658d2a57","ios":"levelo://app?vid=0a9808e2-f1b6-47b0-9750-4317658d2a57"},"vehicle_type_id":"4","last_reported":1730351382,"current_range_meters":8800,"station_id":"ce4bh0h2rcd13ifvqd60","pricing_plan_id":"cebpf4jnsgd1na2vs0mg"},{"bike_id":"3bf1c621-62c6-4609-bdd6-34a6ade001c3","system_id":"levelo_inurba_marseille","lat":43.23189,"lon":5.39998,"is_reserved":false,"is_disabled":false,"rental_uris":{"android":"levelo://app?vid=3bf1c621-62c6-4609-bdd6-34a6ade001c3","ios":"levelo://app?vid=3bf1c621-62c6-4609-bdd6-34a6ade001c3"},"vehicle_type_id":"4","last_reported":1730351382,"current_range_meters":38800,"station_id":"ce4bhn12rcd13ifvqgqg","pricing_plan_id":"cebpf4jnsgd1na2vs0mg"},{"bike_id":"3b06a1ab-afd6-4913-a500-290b0e2bcfed","system_id":"levelo_inurba_marseille","lat":43.24664,"lon":5.38163,"is_reserved":false,"is_disabled":false,"rental_uris":{"android":"levelo://app?vid=3b06a1ab-afd6-4913-a500-290b0e2bcfed","ios":"levelo://app?vid=3b06a1ab-afd6-4913-a500-290b0e2bcfed"},"vehicle_type_id":"4","last_reported":1730351382,"current_range_meters":36000,"station_id":"ce4bhih2rcd13ifvqfr0","pricing_plan_id":"cebpf4jnsgd1na2vs0mg"},{"bike_id":"5b702019-0a05-40ca-aff1-e906f5dd2558","system_id":"levelo_inurba_marseille","lat":43.28702,"lon":5.39976,"is_reserved":false,"is_disabled":false,"rental_uris":{"android":"levelo://app?vid=5b702019-0a05-40ca-aff1-e906f5dd2558","ios":"levelo://app?vid=5b702019-0a05-40ca-aff1-e906f5dd2558"},"vehicle_type_id":"4","last_reported":1730351382,"current_range_meters":6000,"station_id":"ce4bho92rcd13ifvqh3g","pricing_plan_id":"cebpf4jnsgd1na2vs0mg"},{"bike_id":"58b3746b-90ae-4d2c-9398-44c5c08b7bd9","system_id":"levelo_inurba_marseille","lat":43.310668,"lon":5.383567,"is_reserved":false,"is_disabled":false,"rental_uris":{"android":"levelo://app?vid=58b3746b-90ae-4d2c-9398-44c5c08b7bd9","ios":"levelo://app?vid=58b3746b-90ae-4d2c-9398-44c5c08b7bd9"},"vehicle_type_id":"4","last_reported":1730351382,"current_range_meters":36800,"station_id":"ce4bgv92rcd13ifvqcr0","pricing_plan_id":"cebpf4jnsgd1na2vs0mg"},{"bike_id":"a47556d0-ff5e-4fbb-8fba-4af66f2afe1e","system_id":"levelo_inurba_marseille","lat":43.30465,"lon":5.37896,"is_reserved":false,"is_disabled":false,"rental_uris":{"android":"levelo://app?vid=a47556d0-ff5e-4fbb-8fba-4af66f2afe1e","ios":"levelo://app?vid=a47556d0-ff5e-4fbb-8fba-4af66f2afe1e"},"vehicle_type_id":"4","last_reported":1730351382,"current_range_meters":30400,"station_id":"ce4bgup2rcd13ifvqcn0","pricing_plan_id":"cebpf4jnsgd1na2vs0mg"},{"bike_id":"f13da5c6-fe3d-40a5-ae0b-3d1c747e437a","system_id":"levelo_inurba_marseille","lat":43.29561,"lon":5.42283,"is_reserved":false,"is_disabled":false,"rental_uris":{"android":"levelo://app?vid=f13da5c6-fe3d-40a5-ae0b-3d1c747e437a","ios":"levelo://app?vid=f13da5c6-fe3d-40a5-ae0b-3d1c747e437a"},"vehicle_type_id":"4","last_reported":1730351382,"current_range_meters":38800,"station_id":"ce4bhph2rcd13ifvqhdg","pricing_plan_id":"cebpf4jnsgd1na2vs0mg"},{"bike_id":"e6bafb1e-a247-4a2e-844b-77368e1d7628","system_id":"levelo_inurba_marseille","lat":43.29911,"lon":5.40942,"is_reserved":false,"is_disabled":false,"rental_uris":{"android":"levelo://app?vid=e6bafb1e-a247-4a2e-844b-77368e1d7628","ios":"levelo://app?vid=e6bafb1e-a247-4a2e-844b-77368e1d7628"},"vehicle_type_id":"4","last_reported":1730351382,"current_range_meters":16000,"station_id":"","pricing_plan_id":"cebpf4jnsgd1na2vs0mg"},{"bike_id":"cc0e4508-e6af-46d0-8d0e-7d98d9e9d8d3","system_id":"levelo_inurba_marseille","lat":43.31492,"lon":5.37302,"is_reserved":false,"is_disabled":false,"rental_uris":{"android":"levelo://app?vid=cc0e4508-e6af-46d0-8d0e-7d98d9e9d8d3","ios":"levelo://app?vid=cc0e4508-e6af-46d0-8d0e-7d98d9e9d8d3"},"vehicle_type_id":"4","last_reported":1730351382,"current_range_meters":32800,"station_id":"ce4bgt12rcd13ifvqcd0","pricing_plan_id":"cebpf4jnsgd1na2vs0mg"},{"bike_id":"53facf4a-a53f-4009-81d5-6390ac637137","system_id":"levelo_inurba_marseille","lat":43.32483,"lon":5.36563,"is_reserved":false,"is_disabled":false,"rental_uris":{"android":"levelo://app?vid=53facf4a-a53f-4009-81d5-6390ac637137","ios":"levelo://app?vid=53facf4a-a53f-4009-81d5-6390ac637137"},"vehicle_type_id":"4","last_reported":1730351382,"current_range_meters":38800,"station_id":"ce4bhs12rcd13ifvqhvg","pricing_plan_id":"cebpf4jnsgd1na2vs0mg"},{"bike_id":"f38514a1-ca7d-43c2-9103-3054b6dae674","system_id":"levelo_inurba_marseille","lat":43.27209,"lon":5.39184,"is_reserved":false,"is_disabled":false,"rental_uris":{"android":"levelo://app?vid=f38514a1-ca7d-43c2-9103-3054b6dae674","ios":"levelo://app?vid=f38514a1-ca7d-43c2-9103-3054b6dae674"},"vehicle_type_id":"4","last_reported":1730351382,"current_range_meters":38000,"station_id":"ce4bhhp2rcd13ifvqfm0","pricing_plan_id":"cebpf4jnsgd1na2vs0mg"},{"bike_id":"2f986fee-bfda-40ad-85c3-d385265561cf","system_id":"levelo_inurba_marseille","lat":43.24179,"lon":5.39738,"is_reserved":false,"is_disabled":false,"rental_uris":{"android":"levelo://app?vid=2f986fee-bfda-40ad-85c3-d385265561cf","ios":"levelo://app?vid=2f986fee-bfda-40ad-85c3-d385265561cf"},"vehicle_type_id":"4","last_reported":1730351382,"current_range_meters":39200,"station_id":"ce4bhn12rcd13ifvqgpg","pricing_plan_id":"cebpf4jnsgd1na2vs0mg"},{"bike_id":"4d30ee15-c750-4b59-8c67-b3223b5622fa","system_id":"levelo_inurba_marseille","lat":43.27615,"lon":5.36112,"is_reserved":false,"is_disabled":false,"rental_uris":{"android":"levelo://app?vid=4d30ee15-c750-4b59-8c67-b3223b5622fa","ios":"levelo://app?vid=4d30ee15-c750-4b59-8c67-b3223b5622fa"},"vehicle_type_id":"4","last_reported":1730351382,"current_range_meters":30000,"station_id":"ce4bgj92rcd13ifvqbe0","pricing_plan_id":"cebpf4jnsgd1na2vs0mg"},{"bike_id":"67b75dc5-76e9-47e8-9f50-b697c520c036","system_id":"levelo_inurba_marseille","lat":43.24666,"lon":5.38164,"is_reserved":false,"is_disabled":false,"rental_uris":{"android":"levelo://app?vid=67b75dc5-76e9-47e8-9f50-b697c520c036","ios":"levelo://app?vid=67b75dc5-76e9-47e8-9f50-b697c520c036"},"vehicle_type_id":"4","last_reported":1730351382,"current_range_meters":36000,"station_id":"ce4bhih2rcd13ifvqfr0","pricing_plan_id":"cebpf4jnsgd1na2vs0mg"},{"bike_id":"3a451088-bcd0-4ef1-8c3b-27053ff00bd4","system_id":"levelo_inurba_marseille","lat":43.30934,"lon":5.40138,"is_reserved":false,"is_disabled":false,"rental_uris":{"android":"levelo://app?vid=3a451088-bcd0-4ef1-8c3b-27053ff00bd4","ios":"levelo://app?vid=3a451088-bcd0-4ef1-8c3b-27053ff00bd4"},"vehicle_type_id":"4","last_reported":1730351382,"current_range_meters":33600,"station_id":"ce4bgvp2rcd13ifvqct0","pricing_plan_id":"cebpf4jnsgd1na2vs0mg"},{"bike_id":"eb9e4322-aa4e-4cfa-827f-8a5eb09fed2d","system_id":"levelo_inurba_marseille","lat":43.30887,"lon":5.39656,"is_reserved":false,"is_disabled":false,"rental_uris":{"android":"levelo://app?vid=eb9e4322-aa4e-4cfa-827f-8a5eb09fed2d","ios":"levelo://app?vid=eb9e4322-aa4e-4cfa-827f-8a5eb09fed2d"},"vehicle_type_id":"4","last_reported":1730351382,"current_range_meters":37600,"station_id":"ce4bh012rcd13ifvqcv0","pricing_plan_id":"cebpf4jnsgd1na2vs0mg"},{"bike_id":"ecf118ca-4185-452f-9020-81d1f189f592","system_id":"levelo_inurba_marseille","lat":43.30799,"lon":5.37657,"is_reserved":false,"is_disabled":false,"rental_uris":{"android":"levelo://app?vid=ecf118ca-4185-452f-9020-81d1f189f592","ios":"levelo://app?vid=ecf118ca-4185-452f-9020-81d1f189f592"},"vehicle_type_id":"4","last_reported":1730351382,"current_range_meters":25600,"station_id":"ce4bgv92rcd13ifvqcq0","pricing_plan_id":"cebpf4jnsgd1na2vs0mg"},{"bike_id":"07f7c3ae-1a3b-44f5-954b-999cbdcf88a3","system_id":"levelo_inurba_marseille","lat":43.29279,"lon":5.40116,"is_reserved":false,"is_disabled":false,"rental_uris":{"android":"levelo://app?vid=07f7c3ae-1a3b-44f5-954b-999cbdcf88a3","ios":"levelo://app?vid=07f7c3ae-1a3b-44f5-954b-999cbdcf88a3"},"vehicle_type_id":"4","last_reported":1730351382,"current_range_meters":17200,"station_id":"ce4bh312rcd13ifvqdk0","pricing_plan_id":"cebpf4jnsgd1na2vs0mg"},{"bike_id":"1644cea3-8151-499a-a401-13d145426c09","system_id":"levelo_inurba_marseille","lat":43.28083,"lon":5.39652,"is_reserved":false,"is_disabled":false,"rental_uris":{"android":"levelo://app?vid=1644cea3-8151-499a-a401-13d145426c09","ios":"levelo://app?vid=1644cea3-8151-499a-a401-13d145426c09"},"vehicle_type_id":"4","last_reported":1730351382,"current_range_meters":36000,"station_id":"ce4bho12rcd13ifvqh2g","pricing_plan_id":"cebpf4jnsgd1na2vs0mg"},{"bike_id":"2f95536c-fa73-4e5e-b17a-53dc7681765c","system_id":"levelo_inurba_marseille","lat":43.30807,"lon":5.38162,"is_reserved":false,"is_disabled":false,"rental_uris":{"android":"levelo://app?vid=2f95536c-fa73-4e5e-b17a-53dc7681765c","ios":"levelo://app?vid=2f95536c-fa73-4e5e-b17a-53dc7681765c"},"vehicle_type_id":"4","last_reported":1730351382,"current_range_meters":38800,"station_id":"ce4bgt12rcd13ifvqce0","pricing_plan_id":"cebpf4jnsgd1na2vs0mg"},{"bike_id":"c110d790-a90a-4443-ad85-d4c202a2fa7e","system_id":"levelo_inurba_marseille","lat":43.30894,"lon":5.39648,"is_reserved":false,"is_disabled":false,"rental_uris":{"android":"levelo://app?vid=c110d790-a90a-4443-ad85-d4c202a2fa7e","ios":"levelo://app?vid=c110d790-a90a-4443-ad85-d4c202a2fa7e"},"vehicle_type_id":"4","last_reported":1730351382,"current_range_meters":31200,"station_id":"ce4bh012rcd13ifvqcv0","pricing_plan_id":"cebpf4jnsgd1na2vs0mg"},{"bike_id":"724127e6-f34d-4f69-9814-da3cf4e64fd0","system_id":"levelo_inurba_marseille","lat":43.26054,"lon":5.39392,"is_reserved":false,"is_disabled":false,"rental_uris":{"android":"levelo://app?vid=724127e6-f34d-4f69-9814-da3cf4e64fd0","ios":"levelo://app?vid=724127e6-f34d-4f69-9814-da3cf4e64fd0"},"vehicle_type_id":"4","last_reported":1730351382,"current_range_meters":38800,"station_id":"ce4bhh92rcd13ifvqfj0","pricing_plan_id":"cebpf4jnsgd1na2vs0mg"},{"bike_id":"672245d2-354a-4038-9bd5-2aebc544d3d2","system_id":"levelo_inurba_marseille","lat":43.29283,"lon":5.40115,"is_reserved":false,"is_disabled":false,"rental_uris":{"android":"levelo://app?vid=672245d2-354a-4038-9bd5-2aebc544d3d2","ios":"levelo://app?vid=672245d2-354a-4038-9bd5-2aebc544d3d2"},"vehicle_type_id":"4","last_reported":1730351382,"current_range_meters":38800,"station_id":"ce4bh312rcd13ifvqdk0","pricing_plan_id":"cebpf4jnsgd1na2vs0mg"},{"bike_id":"58588f98-d979-4a89-a14d-d0d4a329cc8e","system_id":"levelo_inurba_marseille","lat":43.26808,"lon":5.40263,"is_reserved":false,"is_disabled":false,"rental_uris":{"android":"levelo://app?vid=58588f98-d979-4a89-a14d-d0d4a329cc8e","ios":"levelo://app?vid=58588f98-d979-4a89-a14d-d0d4a329cc8e"},"vehicle_type_id":"4","last_reported":1730351382,"current_range_meters":38400,"station_id":"ce501612rcd8frsf0b60","pricing_plan_id":"cebpf4jnsgd1na2vs0mg"},{"bike_id":"0a786649-190e-45c0-8fea-079db4e9e3b9","system_id":"levelo_inurba_marseille","lat":43.2587,"lon":5.39904,"is_reserved":false,"is_disabled":false,"rental_uris":{"android":"levelo://app?vid=0a786649-190e-45c0-8fea-079db4e9e3b9","ios":"levelo://app?vid=0a786649-190e-45c0-8fea-079db4e9e3b9"},"vehicle_type_id":"4","last_reported":1730351382,"current_range_meters":38800,"station_id":"ce4bhl92rcd13ifvqghg","pricing_plan_id":"cebpf4jnsgd1na2vs0mg"},{"bike_id":"69299274-583a-44de-a374-590a0224eed1","system_id":"levelo_inurba_marseille","lat":43.29258,"lon":5.40915,"is_reserved":false,"is_disabled":false,"rental_uris":{"android":"levelo://app?vid=69299274-583a-44de-a374-590a0224eed1","ios":"levelo://app?vid=69299274-583a-44de-a374-590a0224eed1"},"vehicle_type_id":"4","last_reported":1730351382,"current_range_meters":26000,"station_id":"ce4bh192rcd13ifvqdc0","pricing_plan_id":"cebpf4jnsgd1na2vs0mg"},{"bike_id":"317deb22-0138-43d7-a8fc-79593c5ac6fc","system_id":"levelo_inurba_marseille","lat":43.28718,"lon":5.36101,"is_reserved":false,"is_disabled":false,"rental_uris":{"android":"levelo://app?vid=317deb22-0138-43d7-a8fc-79593c5ac6fc","ios":"levelo://app?vid=317deb22-0138-43d7-a8fc-79593c5ac6fc"},"vehicle_type_id":"4","last_reported":1730351382,"current_range_meters":38800,"station_id":"cki0cbj6b192h4jlfktg","pricing_plan_id":"cebpf4jnsgd1na2vs0mg"},{"bike_id":"5ff74640-5d39-40f8-808a-e5695df59fd4","system_id":"levelo_inurba_marseille","lat":43.27193,"lon":5.41008,"is_reserved":false,"is_disabled":false,"rental_uris":{"android":"levelo://app?vid=5ff74640-5d39-40f8-808a-e5695df59fd4","ios":"levelo://app?vid=5ff74640-5d39-40f8-808a-e5695df59fd4"},"vehicle_type_id":"4","last_reported":1730351382,"current_range_meters":8400,"station_id":"ce4bhl12rcd13ifvqgf0","pricing_plan_id":"cebpf4jnsgd1na2vs0mg"},{"bike_id":"d220646d-f0f3-4c25-8329-1756840482b2","system_id":"levelo_inurba_marseille","lat":43.30241,"lon":5.40062,"is_reserved":false,"is_disabled":false,"rental_uris":{"android":"levelo://app?vid=d220646d-f0f3-4c25-8329-1756840482b2","ios":"levelo://app?vid=d220646d-f0f3-4c25-8329-1756840482b2"},"vehicle_type_id":"4","last_reported":1730351382,"current_range_meters":16000,"station_id":"ce4bgvh2rcd13ifvqcs0","pricing_plan_id":"cebpf4jnsgd1na2vs0mg"},{"bike_id":"d4829a7e-16fe-4e76-9a47-d409e1283694","system_id":"levelo_inurba_marseille","lat":43.25726,"lon":5.4111,"is_reserved":false,"is_disabled":false,"rental_uris":{"android":"levelo://app?vid=d4829a7e-16fe-4e76-9a47-d409e1283694","ios":"levelo://app?vid=d4829a7e-16fe-4e76-9a47-d409e1283694"},"vehicle_type_id":"4","last_reported":1730351382,"current_range_meters":20800,"station_id":"ce4bhkp2rcd13ifvqgd0","pricing_plan_id":"cebpf4jnsgd1na2vs0mg"},{"bike_id":"b9ef87cb-7521-4035-8177-31a394342a45","system_id":"levelo_inurba_marseille","lat":43.291402,"lon":5.366961,"is_reserved":false,"is_disabled":false,"rental_uris":{"android":"levelo://app?vid=b9ef87cb-7521-4035-8177-31a394342a45","ios":"levelo://app?vid=b9ef87cb-7521-4035-8177-31a394342a45"},"vehicle_type_id":"4","last_reported":1730351382,"current_range_meters":27600,"station_id":"","pricing_plan_id":"cebpf4jnsgd1na2vs0mg"},{"bike_id":"fd54f319-ba11-4beb-af32-4ac88b813a76","system_id":"levelo_inurba_marseille","lat":43.28079,"lon":5.39649,"is_reserved":false,"is_disabled":false,"rental_uris":{"android":"levelo://app?vid=fd54f319-ba11-4beb-af32-4ac88b813a76","ios":"levelo://app?vid=fd54f319-ba11-4beb-af32-4ac88b813a76"},"vehicle_type_id":"4","last_reported":1730351382,"current_range_meters":39200,"station_id":"ce4bho12rcd13ifvqh2g","pricing_plan_id":"cebpf4jnsgd1na2vs0mg"},{"bike_id":"87c87b0d-e88b-41a6-9b47-d1557d6def62","system_id":"levelo_inurba_marseille","lat":43.24072,"lon":5.37758,"is_reserved":false,"is_disabled":false,"rental_uris":{"android":"levelo://app?vid=87c87b0d-e88b-41a6-9b47-d1557d6def62","ios":"levelo://app?vid=87c87b0d-e88b-41a6-9b47-d1557d6def62"},"vehicle_type_id":"4","last_reported":1730351382,"current_range_meters":26000,"station_id":"ce4bhnp2rcd13ifvqgvg","pricing_plan_id":"cebpf4jnsgd1na2vs0mg"},{"bike_id":"d3144195-5738-4842-a23f-c22e2860827e","system_id":"levelo_inurba_marseille","lat":43.28151,"lon":5.42643,"is_reserved":false,"is_disabled":false,"rental_uris":{"android":"levelo://app?vid=d3144195-5738-4842-a23f-c22e2860827e","ios":"levelo://app?vid=d3144195-5738-4842-a23f-c22e2860827e"},"vehicle_type_id":"4","last_reported":1730351382,"current_range_meters":21600,"station_id":"ce4bhnh2rcd13ifvqgug","pricing_plan_id":"cebpf4jnsgd1na2vs0mg"},{"bike_id":"7f101e84-804c-4636-833b-da51e2d6e019","system_id":"levelo_inurba_marseille","lat":43.25868,"lon":5.39902,"is_reserved":false,"is_disabled":false,"rental_uris":{"android":"levelo://app?vid=7f101e84-804c-4636-833b-da51e2d6e019","ios":"levelo://app?vid=7f101e84-804c-4636-833b-da51e2d6e019"},"vehicle_type_id":"4","last_reported":1730351382,"current_range_meters":37600,"station_id":"ce4bhl92rcd13ifvqghg","pricing_plan_id":"cebpf4jnsgd1na2vs0mg"},{"bike_id":"21db50c4-db0a-4db9-9d44-cdcd4bedb78f","system_id":"levelo_inurba_marseille","lat":43.3065,"lon":5.40089,"is_reserved":false,"is_disabled":false,"rental_uris":{"android":"levelo://app?vid=21db50c4-db0a-4db9-9d44-cdcd4bedb78f","ios":"levelo://app?vid=21db50c4-db0a-4db9-9d44-cdcd4bedb78f"},"vehicle_type_id":"4","last_reported":1730351382,"current_range_meters":38400,"station_id":"ce4bh112rcd13ifvqda0","pricing_plan_id":"cebpf4jnsgd1na2vs0mg"},{"bike_id":"60a0557c-11af-4ad7-a654-1bb479291755","system_id":"levelo_inurba_marseille","lat":43.28566,"lon":5.3951,"is_reserved":false,"is_disabled":false,"rental_uris":{"android":"levelo://app?vid=60a0557c-11af-4ad7-a654-1bb479291755","ios":"levelo://app?vid=60a0557c-11af-4ad7-a654-1bb479291755"},"vehicle_type_id":"4","last_reported":1730351382,"current_range_meters":38800,"station_id":"ce4bh292rcd13ifvqdg0","pricing_plan_id":"cebpf4jnsgd1na2vs0mg"},{"bike_id":"62e9561e-ad05-4f0e-b75e-5d2e36048b40","system_id":"levelo_inurba_marseille","lat":43.31712,"lon":5.43707,"is_reserved":false,"is_disabled":false,"rental_uris":{"android":"levelo://app?vid=62e9561e-ad05-4f0e-b75e-5d2e36048b40","ios":"levelo://app?vid=62e9561e-ad05-4f0e-b75e-5d2e36048b40"},"vehicle_type_id":"4","last_reported":1730351382,"current_range_meters":38400,"station_id":"ce4bhp92rcd13ifvqhcg","pricing_plan_id":"cebpf4jnsgd1na2vs0mg"},{"bike_id":"a89c13b3-7367-4140-bb29-c6016f983bab","system_id":"levelo_inurba_marseille","lat":43.2465,"lon":5.38899,"is_reserved":false,"is_disabled":false,"rental_uris":{"android":"levelo://app?vid=a89c13b3-7367-4140-bb29-c6016f983bab","ios":"levelo://app?vid=a89c13b3-7367-4140-bb29-c6016f983bab"},"vehicle_type_id":"4","last_reported":1730351382,"current_range_meters":7200,"station_id":"ce4bhg12rcd13ifvqf60","pricing_plan_id":"cebpf4jnsgd1na2vs0mg"},{"bike_id":"8aacafcb-8a19-4596-9f56-4094e4f5ba1c","system_id":"levelo_inurba_marseille","lat":43.27215,"lon":5.39186,"is_reserved":false,"is_disabled":false,"rental_uris":{"android":"levelo://app?vid=8aacafcb-8a19-4596-9f56-4094e4f5ba1c","ios":"levelo://app?vid=8aacafcb-8a19-4596-9f56-4094e4f5ba1c"},"vehicle_type_id":"4","last_reported":1730351382,"current_range_meters":38400,"station_id":"","pricing_plan_id":"cebpf4jnsgd1na2vs0mg"},{"bike_id":"c25c2169-3dc8-41aa-aaad-528d911ae769","system_id":"levelo_inurba_marseille","lat":43.28701,"lon":5.37397,"is_reserved":false,"is_disabled":false,"rental_uris":{"android":"levelo://app?vid=c25c2169-3dc8-41aa-aaad-528d911ae769","ios":"levelo://app?vid=c25c2169-3dc8-41aa-aaad-528d911ae769"},"vehicle_type_id":"4","last_reported":1730351382,"current_range_meters":25600,"station_id":"ce4bh3p2rcd13ifvqdq0","pricing_plan_id":"cebpf4jnsgd1na2vs0mg"},{"bike_id":"cc43bf4d-496d-47ec-aa99-164bc1536ac8","system_id":"levelo_inurba_marseille","lat":43.25001,"lon":5.38936,"is_reserved":false,"is_disabled":false,"rental_uris":{"android":"levelo://app?vid=cc43bf4d-496d-47ec-aa99-164bc1536ac8","ios":"levelo://app?vid=cc43bf4d-496d-47ec-aa99-164bc1536ac8"},"vehicle_type_id":"4","last_reported":1730351382,"current_range_meters":34800,"station_id":"ce4bhgp2rcd13ifvqfd0","pricing_plan_id":"cebpf4jnsgd1na2vs0mg"},{"bike_id":"5e3e5e15-a26a-4370-a4d7-22b0461d60e4","system_id":"levelo_inurba_marseille","lat":43.31996,"lon":5.38147,"is_reserved":false,"is_disabled":false,"rental_uris":{"android":"levelo://app?vid=5e3e5e15-a26a-4370-a4d7-22b0461d60e4","ios":"levelo://app?vid=5e3e5e15-a26a-4370-a4d7-22b0461d60e4"},"vehicle_type_id":"4","last_reported":1730351382,"current_range_meters":38800,"station_id":"ce4bhr12rcd13ifvqhpg","pricing_plan_id":"cebpf4jnsgd1na2vs0mg"},{"bike_id":"d2e1d59f-a8a5-4e79-a74d-9d69f2a380aa","system_id":"levelo_inurba_marseille","lat":43.2558,"lon":5.38241,"is_reserved":false,"is_disabled":false,"rental_uris":{"android":"levelo://app?vid=d2e1d59f-a8a5-4e79-a74d-9d69f2a380aa","ios":"levelo://app?vid=d2e1d59f-a8a5-4e79-a74d-9d69f2a380aa"},"vehicle_type_id":"4","last_reported":1730351382,"current_range_meters":38800,"station_id":"ce4bhih2rcd13ifvqfs0","pricing_plan_id":"cebpf4jnsgd1na2vs0mg"},{"bike_id":"3271d7f6-0f65-475f-8b65-c5efde785335","system_id":"levelo_inurba_marseille","lat":43.23191,"lon":5.35552,"is_reserved":false,"is_disabled":false,"rental_uris":{"android":"levelo://app?vid=3271d7f6-0f65-475f-8b65-c5efde785335","ios":"levelo://app?vid=3271d7f6-0f65-475f-8b65-c5efde785335"},"vehicle_type_id":"4","last_reported":1730351382,"current_range_meters":36800,"station_id":"ce4bhu92rcd13ifvqi70","pricing_plan_id":"cebpf4jnsgd1na2vs0mg"},{"bike_id":"477bd4a0-15ea-4fb7-8fa3-544983b9d7ca","system_id":"levelo_inurba_marseille","lat":43.3234,"lon":5.40618,"is_reserved":false,"is_disabled":false,"rental_uris":{"android":"levelo://app?vid=477bd4a0-15ea-4fb7-8fa3-544983b9d7ca","ios":"levelo://app?vid=477bd4a0-15ea-4fb7-8fa3-544983b9d7ca"},"vehicle_type_id":"4","last_reported":1730351382,"current_range_meters":33600,"station_id":"ce4bhq92rcd13ifvqhjg","pricing_plan_id":"cebpf4jnsgd1na2vs0mg"},{"bike_id":"653c425c-e6c0-4b47-bce6-7f81508e12ee","system_id":"levelo_inurba_marseille","lat":43.23962,"lon":5.36638,"is_reserved":false,"is_disabled":false,"rental_uris":{"android":"levelo://app?vid=653c425c-e6c0-4b47-bce6-7f81508e12ee","ios":"levelo://app?vid=653c425c-e6c0-4b47-bce6-7f81508e12ee"},"vehicle_type_id":"4","last_reported":1730351382,"current_range_meters":22400,"station_id":"ce4bhi12rcd13ifvqfp0","pricing_plan_id":"cebpf4jnsgd1na2vs0mg"},{"bike_id":"b88dc6be-2205-4b2a-bff5-fbc0bc66c9a7","system_id":"levelo_inurba_marseille","lat":43.26066,"lon":5.39395,"is_reserved":false,"is_disabled":false,"rental_uris":{"android":"levelo://app?vid=b88dc6be-2205-4b2a-bff5-fbc0bc66c9a7","ios":"levelo://app?vid=b88dc6be-2205-4b2a-bff5-fbc0bc66c9a7"},"vehicle_type_id":"4","last_reported":1730351382,"current_range_meters":24800,"station_id":"ce4bhh92rcd13ifvqfj0","pricing_plan_id":"cebpf4jnsgd1na2vs0mg"},{"bike_id":"c907a494-afe8-498d-bae4-1bc03412e2ae","system_id":"levelo_inurba_marseille","lat":43.30929,"lon":5.40139,"is_reserved":false,"is_disabled":false,"rental_uris":{"android":"levelo://app?vid=c907a494-afe8-498d-bae4-1bc03412e2ae","ios":"levelo://app?vid=c907a494-afe8-498d-bae4-1bc03412e2ae"},"vehicle_type_id":"4","last_reported":1730351382,"current_range_meters":37600,"station_id":"ce4bgvp2rcd13ifvqct0","pricing_plan_id":"cebpf4jnsgd1na2vs0mg"},{"bike_id":"477f074b-8b2c-4b39-b0a2-780efa56fc22","system_id":"levelo_inurba_marseille","lat":43.30255,"lon":5.40079,"is_reserved":false,"is_disabled":false,"rental_uris":{"android":"levelo://app?vid=477f074b-8b2c-4b39-b0a2-780efa56fc22","ios":"levelo://app?vid=477f074b-8b2c-4b39-b0a2-780efa56fc22"},"vehicle_type_id":"4","last_reported":1730351382,"current_range_meters":15200,"station_id":"ce4bgvh2rcd13ifvqcs0","pricing_plan_id":"cebpf4jnsgd1na2vs0mg"},{"bike_id":"f99547b6-e0b7-4a86-b4bb-f600f8ca5cb2","system_id":"levelo_inurba_marseille","lat":43.24168,"lon":5.36401,"is_reserved":false,"is_disabled":false,"rental_uris":{"android":"levelo://app?vid=f99547b6-e0b7-4a86-b4bb-f600f8ca5cb2","ios":"levelo://app?vid=f99547b6-e0b7-4a86-b4bb-f600f8ca5cb2"},"vehicle_type_id":"4","last_reported":1730351382,"current_range_meters":12400,"station_id":"cpo36qri1sfpv3e86is0","pricing_plan_id":"cebpf4jnsgd1na2vs0mg"},{"bike_id":"e102b7c5-a4ed-4645-b11f-4d05e39a0ce4","system_id":"levelo_inurba_marseille","lat":43.32369,"lon":5.3889,"is_reserved":false,"is_disabled":false,"rental_uris":{"android":"levelo://app?vid=e102b7c5-a4ed-4645-b11f-4d05e39a0ce4","ios":"levelo://app?vid=e102b7c5-a4ed-4645-b11f-4d05e39a0ce4"},"vehicle_type_id":"4","last_reported":1730351382,"current_range_meters":20800,"station_id":"ce4bhqp2rcd13ifvqhog","pricing_plan_id":"cebpf4jnsgd1na2vs0mg"},{"bike_id":"06ee1b7b-81ff-4080-9458-ff5f60f44371","system_id":"levelo_inurba_marseille","lat":43.30793,"lon":5.37656,"is_reserved":false,"is_disabled":false,"rental_uris":{"android":"levelo://app?vid=06ee1b7b-81ff-4080-9458-ff5f60f44371","ios":"levelo://app?vid=06ee1b7b-81ff-4080-9458-ff5f60f44371"},"vehicle_type_id":"4","last_reported":1730351382,"current_range_meters":20800,"station_id":"ce4bgv92rcd13ifvqcq0","pricing_plan_id":"cebpf4jnsgd1na2vs0mg"},{"bike_id":"b947a9c5-a2e1-41d2-bf12-0fd6d6d37b0b","system_id":"levelo_inurba_marseille","lat":43.2418,"lon":5.39732,"is_reserved":false,"is_disabled":false,"rental_uris":{"android":"levelo://app?vid=b947a9c5-a2e1-41d2-bf12-0fd6d6d37b0b","ios":"levelo://app?vid=b947a9c5-a2e1-41d2-bf12-0fd6d6d37b0b"},"vehicle_type_id":"4","last_reported":1730351382,"current_range_meters":9600,"station_id":"ce4bhn12rcd13ifvqgpg","pricing_plan_id":"cebpf4jnsgd1na2vs0mg"},{"bike_id":"16fbc739-344e-44c8-a2dd-1303bdf6f153","system_id":"levelo_inurba_marseille","lat":43.28601,"lon":5.35522,"is_reserved":false,"is_disabled":false,"rental_uris":{"android":"levelo://app?vid=16fbc739-344e-44c8-a2dd-1303bdf6f153","ios":"levelo://app?vid=16fbc739-344e-44c8-a2dd-1303bdf6f153"},"vehicle_type_id":"4","last_reported":1730351382,"current_range_meters":13600,"station_id":"","pricing_plan_id":"cebpf4jnsgd1na2vs0mg"},{"bike_id":"9184f106-990f-439b-ab9f-d6ad1438786c","system_id":"levelo_inurba_marseille","lat":43.25088,"lon":5.39528,"is_reserved":false,"is_disabled":false,"rental_uris":{"android":"levelo://app?vid=9184f106-990f-439b-ab9f-d6ad1438786c","ios":"levelo://app?vid=9184f106-990f-439b-ab9f-d6ad1438786c"},"vehicle_type_id":"4","last_reported":1730351382,"current_range_meters":28400,"station_id":"ce4bhm12rcd13ifvqgkg","pricing_plan_id":"cebpf4jnsgd1na2vs0mg"},{"bike_id":"afc8a59e-718c-432c-b226-d6be0903e5fb","system_id":"levelo_inurba_marseille","lat":43.24389,"lon":5.37061,"is_reserved":false,"is_disabled":false,"rental_uris":{"android":"levelo://app?vid=afc8a59e-718c-432c-b226-d6be0903e5fb","ios":"levelo://app?vid=afc8a59e-718c-432c-b226-d6be0903e5fb"},"vehicle_type_id":"4","last_reported":1730351382,"current_range_meters":29600,"station_id":"ce4bhhh2rcd13ifvqfk0","pricing_plan_id":"cebpf4jnsgd1na2vs0mg"},{"bike_id":"7d17fd15-22e3-4d92-a512-a8f0e728950d","system_id":"levelo_inurba_marseille","lat":43.27939,"lon":5.41042,"is_reserved":false,"is_disabled":false,"rental_uris":{"android":"levelo://app?vid=7d17fd15-22e3-4d92-a512-a8f0e728950d","ios":"levelo://app?vid=7d17fd15-22e3-4d92-a512-a8f0e728950d"},"vehicle_type_id":"4","last_reported":1730351382,"current_range_meters":24000,"station_id":"ce4bhnp2rcd13ifvqh0g","pricing_plan_id":"cebpf4jnsgd1na2vs0mg"},{"bike_id":"72e37474-1bc8-4568-aec8-ce5464e6b828","system_id":"levelo_inurba_marseille","lat":43.23192,"lon":5.35562,"is_reserved":false,"is_disabled":false,"rental_uris":{"android":"levelo://app?vid=72e37474-1bc8-4568-aec8-ce5464e6b828","ios":"levelo://app?vid=72e37474-1bc8-4568-aec8-ce5464e6b828"},"vehicle_type_id":"4","last_reported":1730351382,"current_range_meters":26000,"station_id":"ce4bhu92rcd13ifvqi70","pricing_plan_id":"cebpf4jnsgd1na2vs0mg"},{"bike_id":"32372824-4298-4cd1-a081-9142d756c592","system_id":"levelo_inurba_marseille","lat":43.30789,"lon":5.37649,"is_reserved":false,"is_disabled":false,"rental_uris":{"android":"levelo://app?vid=32372824-4298-4cd1-a081-9142d756c592","ios":"levelo://app?vid=32372824-4298-4cd1-a081-9142d756c592"},"vehicle_type_id":"4","last_reported":1730351382,"current_range_meters":32800,"station_id":"ce4bgv92rcd13ifvqcq0","pricing_plan_id":"cebpf4jnsgd1na2vs0mg"},{"bike_id":"e9c71dab-a11f-475f-9801-fb1d09af7507","system_id":"levelo_inurba_marseille","lat":43.2318,"lon":5.39994,"is_reserved":false,"is_disabled":false,"rental_uris":{"android":"levelo://app?vid=e9c71dab-a11f-475f-9801-fb1d09af7507","ios":"levelo://app?vid=e9c71dab-a11f-475f-9801-fb1d09af7507"},"vehicle_type_id":"4","last_reported":1730351382,"current_range_meters":25600,"station_id":"ce4bhn12rcd13ifvqgqg","pricing_plan_id":"cebpf4jnsgd1na2vs0mg"},{"bike_id":"af436a42-9c58-4d3f-ad05-4b1a6c010963","system_id":"levelo_inurba_marseille","lat":43.27175,"lon":5.40991,"is_reserved":false,"is_disabled":false,"rental_uris":{"android":"levelo://app?vid=af436a42-9c58-4d3f-ad05-4b1a6c010963","ios":"levelo://app?vid=af436a42-9c58-4d3f-ad05-4b1a6c010963"},"vehicle_type_id":"4","last_reported":1730351382,"current_range_meters":3600,"station_id":"ce4bhl12rcd13ifvqgf0","pricing_plan_id":"cebpf4jnsgd1na2vs0mg"},{"bike_id":"59c4702e-2347-4827-85da-125921950835","system_id":"levelo_inurba_marseille","lat":43.31708,"lon":5.43706,"is_reserved":false,"is_disabled":false,"rental_uris":{"android":"levelo://app?vid=59c4702e-2347-4827-85da-125921950835","ios":"levelo://app?vid=59c4702e-2347-4827-85da-125921950835"},"vehicle_type_id":"4","last_reported":1730351382,"current_range_meters":8800,"station_id":"ce4bhp92rcd13ifvqhcg","pricing_plan_id":"cebpf4jnsgd1na2vs0mg"},{"bike_id":"cc241380-3aee-4768-983c-802888c81a9a","system_id":"levelo_inurba_marseille","lat":43.3044,"lon":5.39763,"is_reserved":false,"is_disabled":false,"rental_uris":{"android":"levelo://app?vid=cc241380-3aee-4768-983c-802888c81a9a","ios":"levelo://app?vid=cc241380-3aee-4768-983c-802888c81a9a"},"vehicle_type_id":"4","last_reported":1730351382,"current_range_meters":38000,"station_id":"ce4bh092rcd13ifvqd20","pricing_plan_id":"cebpf4jnsgd1na2vs0mg"},{"bike_id":"052c3e60-3ce1-4a7d-bfa5-c47181b928f3","system_id":"levelo_inurba_marseille","lat":43.30928,"lon":5.40139,"is_reserved":false,"is_disabled":false,"rental_uris":{"android":"levelo://app?vid=052c3e60-3ce1-4a7d-bfa5-c47181b928f3","ios":"levelo://app?vid=052c3e60-3ce1-4a7d-bfa5-c47181b928f3"},"vehicle_type_id":"4","last_reported":1730351382,"current_range_meters":37600,"station_id":"ce4bgvp2rcd13ifvqct0","pricing_plan_id":"cebpf4jnsgd1na2vs0mg"},{"bike_id":"88dc58c8-a632-450d-98e1-c0f672ee9cc5","system_id":"levelo_inurba_marseille","lat":43.2439,"lon":5.37054,"is_reserved":false,"is_disabled":false,"rental_uris":{"android":"levelo://app?vid=88dc58c8-a632-450d-98e1-c0f672ee9cc5","ios":"levelo://app?vid=88dc58c8-a632-450d-98e1-c0f672ee9cc5"},"vehicle_type_id":"4","last_reported":1730351382,"current_range_meters":28400,"station_id":"ce4bhhh2rcd13ifvqfk0","pricing_plan_id":"cebpf4jnsgd1na2vs0mg"},{"bike_id":"54d2e7c1-0997-4e85-b497-01eca9eb4f00","system_id":"levelo_inurba_marseille","lat":43.23191,"lon":5.35552,"is_reserved":false,"is_disabled":false,"rental_uris":{"android":"levelo://app?vid=54d2e7c1-0997-4e85-b497-01eca9eb4f00","ios":"levelo://app?vid=54d2e7c1-0997-4e85-b497-01eca9eb4f00"},"vehicle_type_id":"4","last_reported":1730351382,"current_range_meters":10800,"station_id":"ce4bhu92rcd13ifvqi70","pricing_plan_id":"cebpf4jnsgd1na2vs0mg"},{"bike_id":"03a568f6-414d-4d28-9207-f96676ac1d4f","system_id":"levelo_inurba_marseille","lat":43.24186,"lon":5.39738,"is_reserved":false,"is_disabled":false,"rental_uris":{"android":"levelo://app?vid=03a568f6-414d-4d28-9207-f96676ac1d4f","ios":"levelo://app?vid=03a568f6-414d-4d28-9207-f96676ac1d4f"},"vehicle_type_id":"4","last_reported":1730351382,"current_range_meters":38000,"station_id":"ce4bhn12rcd13ifvqgpg","pricing_plan_id":"cebpf4jnsgd1na2vs0mg"},{"bike_id":"55fc5511-69f4-42fb-8124-dad70ce6f573","system_id":"levelo_inurba_marseille","lat":43.28444,"lon":5.39186,"is_reserved":false,"is_disabled":false,"rental_uris":{"android":"levelo://app?vid=55fc5511-69f4-42fb-8124-dad70ce6f573","ios":"levelo://app?vid=55fc5511-69f4-42fb-8124-dad70ce6f573"},"vehicle_type_id":"4","last_reported":1730351382,"current_range_meters":38800,"station_id":"ce4bhoh2rcd13ifvqh5g","pricing_plan_id":"cebpf4jnsgd1na2vs0mg"},{"bike_id":"f8584fbd-b266-46f3-88c6-4cc95ff7fcfd","system_id":"levelo_inurba_marseille","lat":43.28157,"lon":5.42649,"is_reserved":false,"is_disabled":false,"rental_uris":{"android":"levelo://app?vid=f8584fbd-b266-46f3-88c6-4cc95ff7fcfd","ios":"levelo://app?vid=f8584fbd-b266-46f3-88c6-4cc95ff7fcfd"},"vehicle_type_id":"4","last_reported":1730351382,"current_range_meters":38400,"station_id":"ce4bhnh2rcd13ifvqgug","pricing_plan_id":"cebpf4jnsgd1na2vs0mg"},{"bike_id":"c843d4b3-e307-4a3f-9b6d-4ef36e881079","system_id":"levelo_inurba_marseille","lat":43.24067,"lon":5.37759,"is_reserved":false,"is_disabled":false,"rental_uris":{"android":"levelo://app?vid=c843d4b3-e307-4a3f-9b6d-4ef36e881079","ios":"levelo://app?vid=c843d4b3-e307-4a3f-9b6d-4ef36e881079"},"vehicle_type_id":"4","last_reported":1730351382,"current_range_meters":28800,"station_id":"ce4bhnp2rcd13ifvqgvg","pricing_plan_id":"cebpf4jnsgd1na2vs0mg"},{"bike_id":"43c4e39f-d5c3-47bd-8a62-b644789f4d09","system_id":"levelo_inurba_marseille","lat":43.28076,"lon":5.39647,"is_reserved":false,"is_disabled":false,"rental_uris":{"android":"levelo://app?vid=43c4e39f-d5c3-47bd-8a62-b644789f4d09","ios":"levelo://app?vid=43c4e39f-d5c3-47bd-8a62-b644789f4d09"},"vehicle_type_id":"4","last_reported":1730351382,"current_range_meters":37600,"station_id":"ce4bho12rcd13ifvqh2g","pricing_plan_id":"cebpf4jnsgd1na2vs0mg"},{"bike_id":"358476ef-3fe4-4564-b4f6-558008d6a500","system_id":"levelo_inurba_marseille","lat":43.281572,"lon":5.426492,"is_reserved":false,"is_disabled":false,"rental_uris":{"android":"levelo://app?vid=358476ef-3fe4-4564-b4f6-558008d6a500","ios":"levelo://app?vid=358476ef-3fe4-4564-b4f6-558008d6a500"},"vehicle_type_id":"4","last_reported":1730351382,"current_range_meters":9200,"station_id":"ce4bhnh2rcd13ifvqgug","pricing_plan_id":"cebpf4jnsgd1na2vs0mg"},{"bike_id":"ea9d42a3-8d88-4632-a9d2-19ca043c436c","system_id":"levelo_inurba_marseille","lat":43.31364,"lon":5.36719,"is_reserved":false,"is_disabled":false,"rental_uris":{"android":"levelo://app?vid=ea9d42a3-8d88-4632-a9d2-19ca043c436c","ios":"levelo://app?vid=ea9d42a3-8d88-4632-a9d2-19ca043c436c"},"vehicle_type_id":"4","last_reported":1730351382,"current_range_meters":38800,"station_id":"ce4bgr92rcd13ifvqc6g","pricing_plan_id":"cebpf4jnsgd1na2vs0mg"},{"bike_id":"a8cc5a5c-836a-4f36-be3f-d4baa7215256","system_id":"levelo_inurba_marseille","lat":43.30786,"lon":5.37652,"is_reserved":false,"is_disabled":false,"rental_uris":{"android":"levelo://app?vid=a8cc5a5c-836a-4f36-be3f-d4baa7215256","ios":"levelo://app?vid=a8cc5a5c-836a-4f36-be3f-d4baa7215256"},"vehicle_type_id":"4","last_reported":1730351382,"current_range_meters":39200,"station_id":"ce4bgv92rcd13ifvqcq0","pricing_plan_id":"cebpf4jnsgd1na2vs0mg"},{"bike_id":"18860285-b4dd-49b9-b75b-8632e05bbfe4","system_id":"levelo_inurba_marseille","lat":43.30251,"lon":5.40063,"is_reserved":false,"is_disabled":false,"rental_uris":{"android":"levelo://app?vid=18860285-b4dd-49b9-b75b-8632e05bbfe4","ios":"levelo://app?vid=18860285-b4dd-49b9-b75b-8632e05bbfe4"},"vehicle_type_id":"4","last_reported":1730351382,"current_range_meters":28800,"station_id":"ce4bgvh2rcd13ifvqcs0","pricing_plan_id":"cebpf4jnsgd1na2vs0mg"},{"bike_id":"d154eacc-687f-4cd6-86dd-5eadff4add80","system_id":"levelo_inurba_marseille","lat":43.2668,"lon":5.38263,"is_reserved":false,"is_disabled":false,"rental_uris":{"android":"levelo://app?vid=d154eacc-687f-4cd6-86dd-5eadff4add80","ios":"levelo://app?vid=d154eacc-687f-4cd6-86dd-5eadff4add80"},"vehicle_type_id":"4","last_reported":1730351382,"current_range_meters":24000,"station_id":"ce4bhg92rcd13ifvqf90","pricing_plan_id":"cebpf4jnsgd1na2vs0mg"},{"bike_id":"e0e57105-09ad-4dd2-86c5-5ffeccc2879b","system_id":"levelo_inurba_marseille","lat":43.28702,"lon":5.39985,"is_reserved":false,"is_disabled":false,"rental_uris":{"android":"levelo://app?vid=e0e57105-09ad-4dd2-86c5-5ffeccc2879b","ios":"levelo://app?vid=e0e57105-09ad-4dd2-86c5-5ffeccc2879b"},"vehicle_type_id":"4","last_reported":1730351382,"current_range_meters":6800,"station_id":"ce4bho92rcd13ifvqh3g","pricing_plan_id":"cebpf4jnsgd1na2vs0mg"},{"bike_id":"3e6f568d-3705-4594-9ae2-fbb4cde34b41","system_id":"levelo_inurba_marseille","lat":43.28102,"lon":5.3784,"is_reserved":false,"is_disabled":false,"rental_uris":{"android":"levelo://app?vid=3e6f568d-3705-4594-9ae2-fbb4cde34b41","ios":"levelo://app?vid=3e6f568d-3705-4594-9ae2-fbb4cde34b41"},"vehicle_type_id":"4","last_reported":1730351382,"current_range_meters":22800,"station_id":"ce4bha12rcd13ifvqee0","pricing_plan_id":"cebpf4jnsgd1na2vs0mg"},{"bike_id":"5627a8d8-5eac-413e-9eb1-c71b7b9b3b34","system_id":"levelo_inurba_marseille","lat":43.30599,"lon":5.37227,"is_reserved":false,"is_disabled":false,"rental_uris":{"android":"levelo://app?vid=5627a8d8-5eac-413e-9eb1-c71b7b9b3b34","ios":"levelo://app?vid=5627a8d8-5eac-413e-9eb1-c71b7b9b3b34"},"vehicle_type_id":"4","last_reported":1730351382,"current_range_meters":26000,"station_id":"ce4bgqh2rcd13ifvqc4g","pricing_plan_id":"cebpf4jnsgd1na2vs0mg"},{"bike_id":"50ddc3b9-0445-4606-8f39-393c248368e8","system_id":"levelo_inurba_marseille","lat":43.31172,"lon":5.38711,"is_reserved":false,"is_disabled":false,"rental_uris":{"android":"levelo://app?vid=50ddc3b9-0445-4606-8f39-393c248368e8","ios":"levelo://app?vid=50ddc3b9-0445-4606-8f39-393c248368e8"},"vehicle_type_id":"4","last_reported":1730351382,"current_range_meters":38800,"station_id":"ce4bgv12rcd13ifvqcp0","pricing_plan_id":"cebpf4jnsgd1na2vs0mg"},{"bike_id":"cbc288bd-da00-4980-a26a-731014613956","system_id":"levelo_inurba_marseille","lat":43.30932,"lon":5.40146,"is_reserved":false,"is_disabled":false,"rental_uris":{"android":"levelo://app?vid=cbc288bd-da00-4980-a26a-731014613956","ios":"levelo://app?vid=cbc288bd-da00-4980-a26a-731014613956"},"vehicle_type_id":"4","last_reported":1730351382,"current_range_meters":36400,"station_id":"ce4bgvp2rcd13ifvqct0","pricing_plan_id":"cebpf4jnsgd1na2vs0mg"},{"bike_id":"cbd6e71b-da90-49a9-852e-9e6ceb2a79ce","system_id":"levelo_inurba_marseille","lat":43.23184,"lon":5.39977,"is_reserved":false,"is_disabled":false,"rental_uris":{"android":"levelo://app?vid=cbd6e71b-da90-49a9-852e-9e6ceb2a79ce","ios":"levelo://app?vid=cbd6e71b-da90-49a9-852e-9e6ceb2a79ce"},"vehicle_type_id":"4","last_reported":1730351382,"current_range_meters":38800,"station_id":"ce4bhn12rcd13ifvqgqg","pricing_plan_id":"cebpf4jnsgd1na2vs0mg"},{"bike_id":"a57762d4-9057-4351-bfc3-ce673375d1f5","system_id":"levelo_inurba_marseille","lat":43.29252,"lon":5.40908,"is_reserved":false,"is_disabled":false,"rental_uris":{"android":"levelo://app?vid=a57762d4-9057-4351-bfc3-ce673375d1f5","ios":"levelo://app?vid=a57762d4-9057-4351-bfc3-ce673375d1f5"},"vehicle_type_id":"4","last_reported":1730351382,"current_range_meters":32800,"station_id":"ce4bh192rcd13ifvqdc0","pricing_plan_id":"cebpf4jnsgd1na2vs0mg"},{"bike_id":"6b33e0e7-4690-4b97-a1e1-72f9c608451e","system_id":"levelo_inurba_marseille","lat":43.28572,"lon":5.39498,"is_reserved":false,"is_disabled":false,"rental_uris":{"android":"levelo://app?vid=6b33e0e7-4690-4b97-a1e1-72f9c608451e","ios":"levelo://app?vid=6b33e0e7-4690-4b97-a1e1-72f9c608451e"},"vehicle_type_id":"4","last_reported":1730351382,"current_range_meters":13600,"station_id":"ce4bh292rcd13ifvqdg0","pricing_plan_id":"cebpf4jnsgd1na2vs0mg"},{"bike_id":"05d82b28-c191-448d-84c9-80baaa493760","system_id":"levelo_inurba_marseille","lat":43.31168,"lon":5.38703,"is_reserved":false,"is_disabled":false,"rental_uris":{"android":"levelo://app?vid=05d82b28-c191-448d-84c9-80baaa493760","ios":"levelo://app?vid=05d82b28-c191-448d-84c9-80baaa493760"},"vehicle_type_id":"4","last_reported":1730351382,"current_range_meters":36000,"station_id":"ce4bgv12rcd13ifvqcp0","pricing_plan_id":"cebpf4jnsgd1na2vs0mg"},{"bike_id":"81642900-ce60-4bdb-b1ad-6a01311c5ced","system_id":"levelo_inurba_marseille","lat":43.30319,"lon":5.4043,"is_reserved":false,"is_disabled":false,"rental_uris":{"android":"levelo://app?vid=81642900-ce60-4bdb-b1ad-6a01311c5ced","ios":"levelo://app?vid=81642900-ce60-4bdb-b1ad-6a01311c5ced"},"vehicle_type_id":"4","last_reported":1730351382,"current_range_meters":17600,"station_id":"ce4bh012rcd13ifvqd10","pricing_plan_id":"cebpf4jnsgd1na2vs0mg"},{"bike_id":"ef84f4b6-01b2-4a53-bdf2-0d57923d3ba7","system_id":"levelo_inurba_marseille","lat":43.28154,"lon":5.42642,"is_reserved":false,"is_disabled":false,"rental_uris":{"android":"levelo://app?vid=ef84f4b6-01b2-4a53-bdf2-0d57923d3ba7","ios":"levelo://app?vid=ef84f4b6-01b2-4a53-bdf2-0d57923d3ba7"},"vehicle_type_id":"4","last_reported":1730351382,"current_range_meters":38800,"station_id":"ce4bhnh2rcd13ifvqgug","pricing_plan_id":"cebpf4jnsgd1na2vs0mg"},{"bike_id":"1995d42f-9bb2-423e-a419-1706f5fab24e","system_id":"levelo_inurba_marseille","lat":43.27074,"lon":5.4227,"is_reserved":false,"is_disabled":false,"rental_uris":{"android":"levelo://app?vid=1995d42f-9bb2-423e-a419-1706f5fab24e","ios":"levelo://app?vid=1995d42f-9bb2-423e-a419-1706f5fab24e"},"vehicle_type_id":"4","last_reported":1730351382,"current_range_meters":30400,"station_id":"ce4bhk92rcd13ifvqgb0","pricing_plan_id":"cebpf4jnsgd1na2vs0mg"},{"bike_id":"d75a5f39-6d7e-41fe-bdc2-13c4c09528e6","system_id":"levelo_inurba_marseille","lat":43.23189,"lon":5.39986,"is_reserved":false,"is_disabled":false,"rental_uris":{"android":"levelo://app?vid=d75a5f39-6d7e-41fe-bdc2-13c4c09528e6","ios":"levelo://app?vid=d75a5f39-6d7e-41fe-bdc2-13c4c09528e6"},"vehicle_type_id":"4","last_reported":1730351382,"current_range_meters":39200,"station_id":"ce4bhn12rcd13ifvqgqg","pricing_plan_id":"cebpf4jnsgd1na2vs0mg"},{"bike_id":"be4cec61-2fbe-4c41-bc8f-6cef6f495468","system_id":"levelo_inurba_marseille","lat":43.313313,"lon":5.396989,"is_reserved":false,"is_disabled":false,"rental_uris":{"android":"levelo://app?vid=be4cec61-2fbe-4c41-bc8f-6cef6f495468","ios":"levelo://app?vid=be4cec61-2fbe-4c41-bc8f-6cef6f495468"},"vehicle_type_id":"4","last_reported":1730351382,"current_range_meters":37600,"station_id":"ce4bgvp2rcd13ifvqcu0","pricing_plan_id":"cebpf4jnsgd1na2vs0mg"},{"bike_id":"43f2a08e-1c4c-4949-a02f-6557846d7016","system_id":"levelo_inurba_marseille","lat":43.29045,"lon":5.39972,"is_reserved":false,"is_disabled":false,"rental_uris":{"android":"levelo://app?vid=43f2a08e-1c4c-4949-a02f-6557846d7016","ios":"levelo://app?vid=43f2a08e-1c4c-4949-a02f-6557846d7016"},"vehicle_type_id":"4","last_reported":1730351382,"current_range_meters":38800,"station_id":"ce4bh392rcd13ifvqdm0","pricing_plan_id":"cebpf4jnsgd1na2vs0mg"},{"bike_id":"8162e4a8-23c1-4020-bbef-be4a2e70aefe","system_id":"levelo_inurba_marseille","lat":43.23192,"lon":5.35549,"is_reserved":false,"is_disabled":false,"rental_uris":{"android":"levelo://app?vid=8162e4a8-23c1-4020-bbef-be4a2e70aefe","ios":"levelo://app?vid=8162e4a8-23c1-4020-bbef-be4a2e70aefe"},"vehicle_type_id":"4","last_reported":1730351382,"current_range_meters":6800,"station_id":"ce4bhu92rcd13ifvqi70","pricing_plan_id":"cebpf4jnsgd1na2vs0mg"},{"bike_id":"c26bb6f5-2c68-4c3f-ae19-c7ed99652366","system_id":"levelo_inurba_marseille","lat":43.31537,"lon":5.38034,"is_reserved":false,"is_disabled":false,"rental_uris":{"android":"levelo://app?vid=c26bb6f5-2c68-4c3f-ae19-c7ed99652366","ios":"levelo://app?vid=c26bb6f5-2c68-4c3f-ae19-c7ed99652366"},"vehicle_type_id":"4","last_reported":1730351382,"current_range_meters":9600,"station_id":"ce4bhsp2rcd13ifvqi50","pricing_plan_id":"cebpf4jnsgd1na2vs0mg"},{"bike_id":"3404184c-b4dd-4158-81d3-b380ad6360a5","system_id":"levelo_inurba_marseille","lat":43.30938,"lon":5.40148,"is_reserved":false,"is_disabled":false,"rental_uris":{"android":"levelo://app?vid=3404184c-b4dd-4158-81d3-b380ad6360a5","ios":"levelo://app?vid=3404184c-b4dd-4158-81d3-b380ad6360a5"},"vehicle_type_id":"4","last_reported":1730351382,"current_range_meters":37600,"station_id":"ce4bgvp2rcd13ifvqct0","pricing_plan_id":"cebpf4jnsgd1na2vs0mg"},{"bike_id":"a775d73a-6a3b-426f-86d7-d36b10be60ce","system_id":"levelo_inurba_marseille","lat":43.278988,"lon":5.38004,"is_reserved":false,"is_disabled":false,"rental_uris":{"android":"levelo://app?vid=a775d73a-6a3b-426f-86d7-d36b10be60ce","ios":"levelo://app?vid=a775d73a-6a3b-426f-86d7-d36b10be60ce"},"vehicle_type_id":"4","last_reported":1730351382,"current_range_meters":19200,"station_id":"ce4bhf92rcd13ifvqf50","pricing_plan_id":"cebpf4jnsgd1na2vs0mg"},{"bike_id":"4c9d1e06-f3f0-41b4-9b77-1e0a54f146d2","system_id":"levelo_inurba_marseille","lat":43.31895,"lon":5.4073,"is_reserved":false,"is_disabled":false,"rental_uris":{"android":"levelo://app?vid=4c9d1e06-f3f0-41b4-9b77-1e0a54f146d2","ios":"levelo://app?vid=4c9d1e06-f3f0-41b4-9b77-1e0a54f146d2"},"vehicle_type_id":"4","last_reported":1730351382,"current_range_meters":38800,"station_id":"ce4bhq12rcd13ifvqhig","pricing_plan_id":"cebpf4jnsgd1na2vs0mg"},