{"last_updated":1727557646,"ttl":60,"version":"2.2","data":{"bikes":[{"bike_id":"2713031b-7879-48ff-8abe-6c9306427eba","system_id":"levelo_inurba_marseille","lat":43.31887,"lon":5.40732,"is_reserved":false,"is_disabled":false,"rental_uris":{"android":"levelo://app?vid=2713031b-7879-48ff-8abe-6c9306427eba","ios":"levelo://app?vid=2713031b-7879-48ff-8abe-6c9306427eba"},"vehicle_type_id":"4","last_reported":1727557646,"current_range_meters":30800,"station_id":"ce4bhq12rcd13ifvqhig","pricing_plan_id":"cebpf4jnsgd1na2vs0mg"},{"bike_id":"6103b553-d24f-40fb-9867-6ef9176545d9","system_id":"levelo_inurba_marseille","lat":43.27919,"lon":5.3957,"is_reserved":false,"is_disabled":false,"rental_uris":{"android":"levelo://app?vid=6103b553-d24f-40fb-9867-6ef9176545d9","ios":"levelo://app?vid=6103b553-d24f-40fb-9867-6ef9176545d9"},"vehicle_type_id":"4","last_reported":1727557646,"current_range_meters":38800,"station_id":"ce4bhf92rcd13ifvqf40","pricing_plan_id":"cebpf4jnsgd1na2vs0mg"},{"bike_id":"1f67e8a5-7545-4f70-9a7b-0b7f6b5a2813","system_id":"levelo_inurba_marseille","lat":43.283655,"lon":5.386245,"is_reserved":false,"is_disabled":false,"rental_uris":{"android":"levelo://app?vid=1f67e8a5-7545-4f70-9a7b-0b7f6b5a2813","ios":"levelo://app?vid=1f67e8a5-7545-4f70-9a7b-0b7f6b5a2813"},"vehicle_type_id":"4","last_reported":1727557646,"current_range_meters":16400,"station_id":"ce4bh492rcd13ifvqdvg","pricing_plan_id":"cebpf4jnsgd1na2vs0mg"},{"bike_id":"409f8e56-7b05-4fc8-983d-fadc6468525f","system_id":"levelo_inurba_marseille","lat":43.2845,"lon":5.39215,"is_reserved":false,"is_disabled":false,"rental_uris":{"android":"levelo://app?vid=409f8e56-7b05-4fc8-983d-fadc6468525f","ios":"levelo://app?vid=409f8e56-7b05-4fc8-983d-fadc6468525f"},"vehicle_type_id":"4","last_reported":1727557646,"current_range_meters":38800,"station_id":"ce4bhoh2rcd13ifvqh5g","pricing_plan_id":"cebpf4jnsgd1na2vs0mg"},{"bike_id":"d3c2fe0e-3f4e-4303-ae23-7f25f368fade","system_id":"levelo_inurba_marseille","lat":43.32347,"lon":5.38918,"is_reserved":false,"is_disabled":false,"rental_uris":{"android":"levelo://app?vid=d3c2fe0e-3f4e-4303-ae23-7f25f368fade","ios":"levelo://app?vid=d3c2fe0e-3f4e-4303-ae23-7f25f368fade"},"vehicle_type_id":"4","last_reported":1727557646,"current_range_meters":9600,"station_id":"ce4bhqp2rcd13ifvqhog","pricing_plan_id":"cebpf4jnsgd1na2vs0mg"},{"bike_id":"acf0da7d-e6b3-48a2-8905-5de8bc3b795a","system_id":"levelo_inurba_marseille","lat":43.319956,"lon":5.381629,"is_reserved":false,"is_disabled":false,"rental_uris":{"android":"levelo://app?vid=acf0da7d-e6b3-48a2-8905-5de8bc3b795a","ios":"levelo://app?vid=acf0da7d-e6b3-48a2-8905-5de8bc3b795a"},"vehicle_type_id":"4","last_reported":1727557646,"current_range_meters":11600,"station_id":"ce4bhr12rcd13ifvqhpg","pricing_plan_id":"cebpf4jnsgd1na2vs0mg"},{"bike_id":"0ea9e4c4-cc08-41d9-862d-a80f7d54740c","system_id":"levelo_inurba_marseille","lat":43.32295,"lon":5.38274,"is_reserved":false,"is_disabled":false,"rental_uris":{"android":"levelo://app?vid=0ea9e4c4-cc08-41d9-862d-a80f7d54740c","ios":"levelo://app?vid=0ea9e4c4-cc08-41d9-862d-a80f7d54740c"},"vehicle_type_id":"4","last_reported":1727557646,"current_range_meters":38400,"station_id":"ce4bhr12rcd13ifvqhqg","pricing_plan_id":"cebpf4jnsgd1na2vs0mg"},{"bike_id":"a7f78ba6-f302-4191-9898-adba7098a8f9","system_id":"levelo_inurba_marseille","lat":43.25001,"lon":5.38932,"is_reserved":false,"is_disabled":false,"rental_uris":{"android":"levelo://app?vid=a7f78ba6-f302-4191-9898-adba7098a8f9","ios":"levelo://app?vid=a7f78ba6-f302-4191-9898-adba7098a8f9"},"vehicle_type_id":"4","last_reported":1727557646,"current_range_meters":16400,"station_id":"ce4bhgp2rcd13ifvqfd0","pricing_plan_id":"cebpf4jnsgd1na2vs0mg"},{"bike_id":"389a9e57-5871-457c-889c-ef0cac7e7abf","system_id":"levelo_inurba_marseille","lat":43.29225,"lon":5.36059,"is_reserved":false,"is_disabled":false,"rental_uris":{"android":"levelo://app?vid=389a9e57-5871-457c-889c-ef0cac7e7abf","ios":"levelo://app?vid=389a9e57-5871-457c-889c-ef0cac7e7abf"},"vehicle_type_id":"4","last_reported":1727557646,"current_range_meters":10800,"station_id":"ce4bhbh2rcd13ifvqeqg","pricing_plan_id":"cebpf4jnsgd1na2vs0mg"},{"bike_id":"85a93f4d-e947-41e7-9dfb-b3ad7065bc32","system_id":"levelo_inurba_marseille","lat":43.25825,"lon":5.39428,"is_reserved":false,"is_disabled":false,"rental_uris":{"android":"levelo://app?vid=85a93f4d-e947-41e7-9dfb-b3ad7065bc32","ios":"levelo://app?vid=85a93f4d-e947-41e7-9dfb-b3ad7065bc32"},"vehicle_type_id":"4","last_reported":1727557646,"current_range_meters":38000,"station_id":"ce4bhip2rcd13ifvqft0","pricing_plan_id":"cebpf4jnsgd1na2vs0mg"},{"bike_id":"e8f339a7-5e65-4275-8576-718fc09f5e43","system_id":"levelo_inurba_marseille","lat":43.27614,"lon":5.36115,"is_reserved":false,"is_disabled":false,"rental_uris":{"android":"levelo://app?vid=e8f339a7-5e65-4275-8576-718fc09f5e43","ios":"levelo://app?vid=e8f339a7-5e65-4275-8576-718fc09f5e43"},"vehicle_type_id":"4","last_reported":1727557646,"current_range_meters":12400,"station_id":"ce4bgj92rcd13ifvqbe0","pricing_plan_id":"cebpf4jnsgd1na2vs0mg"},{"bike_id":"b9f92e3c-a51c-46b7-8f29-cff0ea8b73c6","system_id":"levelo_inurba_marseille","lat":43.29419,"lon":5.38627,"is_reserved":false,"is_disabled":false,"rental_uris":{"android":"levelo://app?vid=b9f92e3c-a51c-46b7-8f29-cff0ea8b73c6","ios":"levelo://app?vid=b9f92e3c-a51c-46b7-8f29-cff0ea8b73c6"},"vehicle_type_id":"4","last_reported":1727557646,"current_range_meters":38800,"station_id":"ce4bh2h2rcd13ifvqdh0","pricing_plan_id":"cebpf4jnsgd1na2vs0mg"},{"bike_id":"9b5f5642-2491-4749-8ae4-e6530ea426af","system_id":"levelo_inurba_marseille","lat":43.24392,"lon":5.37062,"is_reserved":false,"is_disabled":false,"rental_uris":{"android":"levelo://app?vid=9b5f5642-2491-4749-8ae4-e6530ea426af","ios":"levelo://app?vid=9b5f5642-2491-4749-8ae4-e6530ea426af"},"vehicle_type_id":"4","last_reported":1727557646,"current_range_meters":19600,"station_id":"ce4bhhh2rcd13ifvqfk0","pricing_plan_id":"cebpf4jnsgd1na2vs0mg"},{"bike_id":"8fb9a0ee-a314-472a-99d5-f99430eaf598","system_id":"levelo_inurba_marseille","lat":43.29027,"lon":5.38136,"is_reserved":false,"is_disabled":false,"rental_uris":{"android":"levelo://app?vid=8fb9a0ee-a314-472a-99d5-f99430eaf598","ios":"levelo://app?vid=8fb9a0ee-a314-472a-99d5-f99430eaf598"},"vehicle_type_id":"4","last_reported":1727557646,"current_range_meters":38400,"station_id":"ce4bh4p2rcd13ifvqe1g","pricing_plan_id":"cebpf4jnsgd1na2vs0mg"},{"bike_id":"9a47dcb1-61bb-411f-affb-55731480b4cc","system_id":"levelo_inurba_marseille","lat":43.23959,"lon":5.36648,"is_reserved":false,"is_disabled":false,"rental_uris":{"android":"levelo://app?vid=9a47dcb1-61bb-411f-affb-55731480b4cc","ios":"levelo://app?vid=9a47dcb1-61bb-411f-affb-55731480b4cc"},"vehicle_type_id":"4","last_reported":1727557646,"current_range_meters":38800,"station_id":"ce4bhi12rcd13ifvqfp0","pricing_plan_id":"cebpf4jnsgd1na2vs0mg"},{"bike_id":"62d84ccd-d148-4560-a1c5-4eea865afcdc","system_id":"levelo_inurba_marseille","lat":43.29172,"lon":5.37156,"is_reserved":false,"is_disabled":false,"rental_uris":{"android":"levelo://app?vid=62d84ccd-d148-4560-a1c5-4eea865afcdc","ios":"levelo://app?vid=62d84ccd-d148-4560-a1c5-4eea865afcdc"},"vehicle_type_id":"4","last_reported":1727557646,"current_range_meters":22800,"station_id":"ce4bha92rcd13ifvqeh0","pricing_plan_id":"cebpf4jnsgd1na2vs0mg"},{"bike_id":"2ef8c22b-ee0f-43d0-a1b3-a6abeaa841c5","system_id":"levelo_inurba_marseille","lat":43.29312,"lon":5.37177,"is_reserved":false,"is_disabled":false,"rental_uris":{"android":"levelo://app?vid=2ef8c22b-ee0f-43d0-a1b3-a6abeaa841c5","ios":"levelo://app?vid=2ef8c22b-ee0f-43d0-a1b3-a6abeaa841c5"},"vehicle_type_id":"4","last_reported":1727557646,"current_range_meters":29600,"station_id":"ce4bgh92rcd13ifvqb40","pricing_plan_id":"cebpf4jnsgd1na2vs0mg"},{"bike_id":"333115ee-3a28-4881-86d9-800979274e52","system_id":"levelo_inurba_marseille","lat":43.27322,"lon":5.39097,"is_reserved":false,"is_disabled":false,"rental_uris":{"android":"levelo://app?vid=333115ee-3a28-4881-86d9-800979274e52","ios":"levelo://app?vid=333115ee-3a28-4881-86d9-800979274e52"},"vehicle_type_id":"4","last_reported":1727557646,"current_range_meters":38800,"station_id":"ce4bhgp2rcd13ifvqfe0","pricing_plan_id":"cebpf4jnsgd1na2vs0mg"},{"bike_id":"db169553-a4bd-4bfa-a94b-a9ae2476daab","system_id":"levelo_inurba_marseille","lat":43.30276,"lon":5.37694,"is_reserved":false,"is_disabled":false,"rental_uris":{"android":"levelo://app?vid=db169553-a4bd-4bfa-a94b-a9ae2476daab","ios":"levelo://app?vid=db169553-a4bd-4bfa-a94b-a9ae2476daab"},"vehicle_type_id":"4","last_reported":1727557646,"current_range_meters":32400,"station_id":"ce4bguh2rcd13ifvqcj0","pricing_plan_id":"cebpf4jnsgd1na2vs0mg"},{"bike_id":"e21861a2-b20c-4b62-bda7-c941810641f4","system_id":"levelo_inurba_marseille","lat":43.299787,"lon":5.371871,"is_reserved":false,"is_disabled":false,"rental_uris":{"android":"levelo://app?vid=e21861a2-b20c-4b62-bda7-c941810641f4","ios":"levelo://app?vid=e21861a2-b20c-4b62-bda7-c941810641f4"},"vehicle_type_id":"4","last_reported":1727557646,"current_range_meters":4800,"station_id":"ce4bgr92rcd13ifvqc7g","pricing_plan_id":"cebpf4jnsgd1na2vs0mg"},{"bike_id":"ad64f61c-6b7d-4e3b-a443-71c0a89e05ec","system_id":"levelo_inurba_marseille","lat":43.31367,"lon":5.38496,"is_reserved":false,"is_disabled":false,"rental_uris":{"android":"levelo://app?vid=ad64f61c-6b7d-4e3b-a443-71c0a89e05ec","ios":"levelo://app?vid=ad64f61c-6b7d-4e3b-a443-71c0a89e05ec"},"vehicle_type_id":"4","last_reported":1727557646,"current_range_meters":38800,"station_id":"ce4bgt92rcd13ifvqcf0","pricing_plan_id":"cebpf4jnsgd1na2vs0mg"},{"bike_id":"71f1bb4d-b9bc-43a2-b6e8-4d2a49f0a45c","system_id":"levelo_inurba_marseille","lat":43.27315,"lon":5.39076,"is_reserved":false,"is_disabled":false,"rental_uris":{"android":"levelo://app?vid=71f1bb4d-b9bc-43a2-b6e8-4d2a49f0a45c","ios":"levelo://app?vid=71f1bb4d-b9bc-43a2-b6e8-4d2a49f0a45c"},"vehicle_type_id":"4","last_reported":1727557646,"current_range_meters":38800,"station_id":"ce4bhgp2rcd13ifvqfe0","pricing_plan_id":"cebpf4jnsgd1na2vs0mg"},{"bike_id":"65b9b958-16f1-411c-a2c7-3c2353d4d07c","system_id":"levelo_inurba_marseille","lat":43.31766,"lon":5.39017,"is_reserved":false,"is_disabled":false,"rental_uris":{"android":"levelo://app?vid=65b9b958-16f1-411c-a2c7-3c2353d4d07c","ios":"levelo://app?vid=65b9b958-16f1-411c-a2c7-3c2353d4d07c"},"vehicle_type_id":"4","last_reported":1727557646,"current_range_meters":11200,"station_id":"ce4bhqp2rcd13ifvqhng","pricing_plan_id":"cebpf4jnsgd1na2vs0mg"},{"bike_id":"a5564a9a-3d9e-405c-b3bf-4c7bb6eae734","system_id":"levelo_inurba_marseille","lat":43.2861,"lon":5.37063,"is_reserved":false,"is_disabled":false,"rental_uris":{"android":"levelo://app?vid=a5564a9a-3d9e-405c-b3bf-4c7bb6eae734","ios":"levelo://app?vid=a5564a9a-3d9e-405c-b3bf-4c7bb6eae734"},"vehicle_type_id":"4","last_reported":1727557646,"current_range_meters":34000,"station_id":"ce4bht12rcd13ifvqi60","pricing_plan_id":"cebpf4jnsgd1na2vs0mg"},{"bike_id":"068708ae-427f-4495-a710-061be8d8cd5c","system_id":"levelo_inurba_marseille","lat":43.287,"lon":5.39976,"is_reserved":false,"is_disabled":false,"rental_uris":{"android":"levelo://app?vid=068708ae-427f-4495-a710-061be8d8cd5c","ios":"levelo://app?vid=068708ae-427f-4495-a710-061be8d8cd5c"},"vehicle_type_id":"4","last_reported":1727557646,"current_range_meters":21600,"station_id":"ce4bho92rcd13ifvqh3g","pricing_plan_id":"cebpf4jnsgd1na2vs0mg"},{"bike_id":"c0102e0f-02f3-4e3d-bcab-aa7e49227af1","system_id":"levelo_inurba_marseille","lat":43.25872,"lon":5.39898,"is_reserved":false,"is_disabled":false,"rental_uris":{"android":"levelo://app?vid=c0102e0f-02f3-4e3d-bcab-aa7e49227af1","ios":"levelo://app?vid=c0102e0f-02f3-4e3d-bcab-aa7e49227af1"},"vehicle_type_id":"4","last_reported":1727557646,"current_range_meters":38000,"station_id":"ce4bhl92rcd13ifvqghg","pricing_plan_id":"cebpf4jnsgd1na2vs0mg"},{"bike_id":"7bdb6542-34d4-409e-96e4-4aeb97032ede","system_id":"levelo_inurba_marseille","lat":43.29553,"lon":5.42292,"is_reserved":false,"is_disabled":false,"rental_uris":{"android":"levelo://app?vid=7bdb6542-34d4-409e-96e4-4aeb97032ede","ios":"levelo://app?vid=7bdb6542-34d4-409e-96e4-4aeb97032ede"},"vehicle_type_id":"4","last_reported":1727557646,"current_range_meters":8400,"station_id":"ce4bhph2rcd13ifvqhdg","pricing_plan_id":"cebpf4jnsgd1na2vs0mg"},{"bike_id":"d921017b-c266-4be5-b541-83eb8e88939b","system_id":"levelo_inurba_marseille","lat":43.27675,"lon":5.3887,"is_reserved":false,"is_disabled":false,"rental_uris":{"android":"levelo://app?vid=d921017b-c266-4be5-b541-83eb8e88939b","ios":"levelo://app?vid=d921017b-c266-4be5-b541-83eb8e88939b"},"vehicle_type_id":"4","last_reported":1727557646,"current_range_meters":5600,"station_id":"ce4bhi12rcd13ifvqfo0","pricing_plan_id":"cebpf4jnsgd1na2vs0mg"},{"bike_id":"02ad50ac-bc34-43ef-bf08-c04155c64408","system_id":"levelo_inurba_marseille","lat":43.24808,"lon":5.37455,"is_reserved":false,"is_disabled":false,"rental_uris":{"android":"levelo://app?vid=02ad50ac-bc34-43ef-bf08-c04155c64408","ios":"levelo://app?vid=02ad50ac-bc34-43ef-bf08-c04155c64408"},"vehicle_type_id":"4","last_reported":1727557646,"current_range_meters":36000,"station_id":"ce4bhgh2rcd13ifvqfb0","pricing_plan_id":"cebpf4jnsgd1na2vs0mg"},{"bike_id":"c529090c-5370-45e9-ba3f-f55585b5289b","system_id":"levelo_inurba_marseille","lat":43.25007,"lon":5.38923,"is_reserved":false,"is_disabled":false,"rental_uris":{"android":"levelo://app?vid=c529090c-5370-45e9-ba3f-f55585b5289b","ios":"levelo://app?vid=c529090c-5370-45e9-ba3f-f55585b5289b"},"vehicle_type_id":"4","last_reported":1727557646,"current_range_meters":30400,"station_id":"ce4bhgp2rcd13ifvqfd0","pricing_plan_id":"cebpf4jnsgd1na2vs0mg"},{"bike_id":"b4cc08c7-4234-44a7-9012-44f94b67b06d","system_id":"levelo_inurba_marseille","lat":43.29979,"lon":5.37175,"is_reserved":false,"is_disabled":false,"rental_uris":{"android":"levelo://app?vid=b4cc08c7-4234-44a7-9012-44f94b67b06d","ios":"levelo://app?vid=b4cc08c7-4234-44a7-9012-44f94b67b06d"},"vehicle_type_id":"4","last_reported":1727557646,"current_range_meters":37600,"station_id":"ce4bgr92rcd13ifvqc7g","pricing_plan_id":"cebpf4jnsgd1na2vs0mg"},{"bike_id":"c43bfb47-f661-42db-9c96-07abfa6154d1","system_id":"levelo_inurba_marseille","lat":43.28709,"lon":5.39984,"is_reserved":false,"is_disabled":false,"rental_uris":{"android":"levelo://app?vid=c43bfb47-f661-42db-9c96-07abfa6154d1","ios":"levelo://app?vid=c43bfb47-f661-42db-9c96-07abfa6154d1"},"vehicle_type_id":"4","last_reported":1727557646,"current_range_meters":14800,"station_id":"ce4bho92rcd13ifvqh3g","pricing_plan_id":"cebpf4jnsgd1na2vs0mg"},{"bike_id":"2f695ce6-9679-48c8-ad67-aa3e9ed05da3","system_id":"levelo_inurba_marseille","lat":43.30604,"lon":5.37227,"is_reserved":false,"is_disabled":false,"rental_uris":{"android":"levelo://app?vid=2f695ce6-9679-48c8-ad67-aa3e9ed05da3","ios":"levelo://app?vid=2f695ce6-9679-48c8-ad67-aa3e9ed05da3"},"vehicle_type_id":"4","last_reported":1727557646,"current_range_meters":38400,"station_id":"ce4bgqh2rcd13ifvqc4g","pricing_plan_id":"cebpf4jnsgd1na2vs0mg"},{"bike_id":"1ce7c25b-6bd2-4b64-b4ae-543ea784fc5d","system_id":"levelo_inurba_marseille","lat":43.337444,"lon":5.374475,"is_reserved":false,"is_disabled":false,"rental_uris":{"android":"levelo://app?vid=1ce7c25b-6bd2-4b64-b4ae-543ea784fc5d","ios":"levelo://app?vid=1ce7c25b-6bd2-4b64-b4ae-543ea784fc5d"},"vehicle_type_id":"4","last_reported":1727557646,"current_range_meters":35600,"station_id":"","pricing_plan_id":"cebpf4jnsgd1na2vs0mg"},{"bike_id":"a1c3dd20-86c0-4dad-a795-b2047bec3f5b","system_id":"levelo_inurba_marseille","lat":43.31782,"lon":5.38985,"is_reserved":false,"is_disabled":false,"rental_uris":{"android":"levelo://app?vid=a1c3dd20-86c0-4dad-a795-b2047bec3f5b","ios":"levelo://app?vid=a1c3dd20-86c0-4dad-a795-b2047bec3f5b"},"vehicle_type_id":"4","last_reported":1727557646,"current_range_meters":24800,"station_id":"ce4bhqp2rcd13ifvqhng","pricing_plan_id":"cebpf4jnsgd1na2vs0mg"},{"bike_id":"8a019057-df41-4cd9-8391-6e887f9eb193","system_id":"levelo_inurba_marseille","lat":43.29308,"lon":5.3718,"is_reserved":false,"is_disabled":false,"rental_uris":{"android":"levelo://app?vid=8a019057-df41-4cd9-8391-6e887f9eb193","ios":"levelo://app?vid=8a019057-df41-4cd9-8391-6e887f9eb193"},"vehicle_type_id":"4","last_reported":1727557646,"current_range_meters":8400,"station_id":"ce4bgh92rcd13ifvqb40","pricing_plan_id":"cebpf4jnsgd1na2vs0mg"},{"bike_id":"35a6ca74-a0b6-4f73-bcf2-e86397ec7a04","system_id":"levelo_inurba_marseille","lat":43.24811,"lon":5.37466,"is_reserved":false,"is_disabled":false,"rental_uris":{"android":"levelo://app?vid=35a6ca74-a0b6-4f73-bcf2-e86397ec7a04","ios":"levelo://app?vid=35a6ca74-a0b6-4f73-bcf2-e86397ec7a04"},"vehicle_type_id":"4","last_reported":1727557646,"current_range_meters":6000,"station_id":"ce4bhgh2rcd13ifvqfb0","pricing_plan_id":"cebpf4jnsgd1na2vs0mg"},{"bike_id":"0c6a3edd-0259-43fd-a8d1-3d4bb6023605","system_id":"levelo_inurba_marseille","lat":43.24388,"lon":5.37051,"is_reserved":false,"is_disabled":false,"rental_uris":{"android":"levelo://app?vid=0c6a3edd-0259-43fd-a8d1-3d4bb6023605","ios":"levelo://app?vid=0c6a3edd-0259-43fd-a8d1-3d4bb6023605"},"vehicle_type_id":"4","last_reported":1727557646,"current_range_meters":38800,"station_id":"ce4bhhh2rcd13ifvqfk0","pricing_plan_id":"cebpf4jnsgd1na2vs0mg"},{"bike_id":"8a035201-6951-4d72-b1c6-11fa2fef3d64","system_id":"levelo_inurba_marseille","lat":43.29518,"lon":5.39403,"is_reserved":false,"is_disabled":false,"rental_uris":{"android":"levelo://app?vid=8a035201-6951-4d72-b1c6-11fa2fef3d64","ios":"levelo://app?vid=8a035201-6951-4d72-b1c6-11fa2fef3d64"},"vehicle_type_id":"4","last_reported":1727557646,"current_range_meters":8000,"station_id":"ce4bh292rcd13ifvqdf0","pricing_plan_id":"cebpf4jnsgd1na2vs0mg"},{"bike_id":"624ac57d-1e14-4e7f-9aff-5973a50c57dc","system_id":"levelo_inurba_marseille","lat":43.29421,"lon":5.38627,"is_reserved":false,"is_disabled":false,"rental_uris":{"android":"levelo://app?vid=624ac57d-1e14-4e7f-9aff-5973a50c57dc","ios":"levelo://app?vid=624ac57d-1e14-4e7f-9aff-5973a50c57dc"},"vehicle_type_id":"4","last_reported":1727557646,"current_range_meters":3600,"station_id":"ce4bh2h2rcd13ifvqdh0","pricing_plan_id":"cebpf4jnsgd1na2vs0mg"},{"bike_id":"e915bfad-5e45-46a3-b7db-8953f572617c","system_id":"levelo_inurba_marseille","lat":43.26955,"lon":5.38627,"is_reserved":false,"is_disabled":false,"rental_uris":{"android":"levelo://app?vid=e915bfad-5e45-46a3-b7db-8953f572617c","ios":"levelo://app?vid=e915bfad-5e45-46a3-b7db-8953f572617c"},"vehicle_type_id":"4","last_reported":1727557646,"current_range_meters":31200,"station_id":"ce4bhh92rcd13ifvqfh0","pricing_plan_id":"cebpf4jnsgd1na2vs0mg"},{"bike_id":"e0e8ee0e-e8e5-480a-a56b-328e71d7897b","system_id":"levelo_inurba_marseille","lat":43.29414,"lon":5.38631,"is_reserved":false,"is_disabled":false,"rental_uris":{"android":"levelo://app?vid=e0e8ee0e-e8e5-480a-a56b-328e71d7897b","ios":"levelo://app?vid=e0e8ee0e-e8e5-480a-a56b-328e71d7897b"},"vehicle_type_id":"4","last_reported":1727557646,"current_range_meters":26000,"station_id":"ce4bh2h2rcd13ifvqdh0","pricing_plan_id":"cebpf4jnsgd1na2vs0mg"},{"bike_id":"ed2c929d-ccf1-4bc4-8bed-19cb9b4ec13a","system_id":"levelo_inurba_marseille","lat":43.29272,"lon":5.384507,"is_reserved":false,"is_disabled":false,"rental_uris":{"android":"levelo://app?vid=ed2c929d-ccf1-4bc4-8bed-19cb9b4ec13a","ios":"levelo://app?vid=ed2c929d-ccf1-4bc4-8bed-19cb9b4ec13a"},"vehicle_type_id":"4","last_reported":1727557646,"current_range_meters":6800,"station_id":"ce4bh692rcd13ifvqea0","pricing_plan_id":"cebpf4jnsgd1na2vs0mg"},{"bike_id":"6a52f468-9bf5-46c2-819d-2c732c18128e","system_id":"levelo_inurba_marseille","lat":43.23966,"lon":5.36619,"is_reserved":false,"is_disabled":false,"rental_uris":{"android":"levelo://app?vid=6a52f468-9bf5-46c2-819d-2c732c18128e","ios":"levelo://app?vid=6a52f468-9bf5-46c2-819d-2c732c18128e"},"vehicle_type_id":"4","last_reported":1727557646,"current_range_meters":38400,"station_id":"ce4bhi12rcd13ifvqfp0","pricing_plan_id":"cebpf4jnsgd1na2vs0mg"},{"bike_id":"362e401c-197a-4fde-bda8-a5728e81380c","system_id":"levelo_inurba_marseille","lat":43.30213,"lon":5.3948,"is_reserved":false,"is_disabled":false,"rental_uris":{"android":"levelo://app?vid=362e401c-197a-4fde-bda8-a5728e81380c","ios":"levelo://app?vid=362e401c-197a-4fde-bda8-a5728e81380c"},"vehicle_type_id":"4","last_reported":1727557646,"current_range_meters":31200,"station_id":"ce4bh0p2rcd13ifvqd70","pricing_plan_id":"cebpf4jnsgd1na2vs0mg"},{"bike_id":"5eb476b5-6595-49e9-8157-3ba9890ecfa8","system_id":"levelo_inurba_marseille","lat":43.3065,"lon":5.40085,"is_reserved":false,"is_disabled":false,"rental_uris":{"android":"levelo://app?vid=5eb476b5-6595-49e9-8157-3ba9890ecfa8","ios":"levelo://app?vid=5eb476b5-6595-49e9-8157-3ba9890ecfa8"},"vehicle_type_id":"4","last_reported":1727557646,"current_range_meters":27200,"station_id":"ce4bh112rcd13ifvqda0","pricing_plan_id":"cebpf4jnsgd1na2vs0mg"},{"bike_id":"72be6392-a3f1-4c72-9845-ba02653fbb3f","system_id":"levelo_inurba_marseille","lat":43.29265,"lon":5.38444,"is_reserved":false,"is_disabled":false,"rental_uris":{"android":"levelo://app?vid=72be6392-a3f1-4c72-9845-ba02653fbb3f","ios":"levelo://app?vid=72be6392-a3f1-4c72-9845-ba02653fbb3f"},"vehicle_type_id":"4","last_reported":1727557646,"current_range_meters":38800,"station_id":"ce4bh692rcd13ifvqea0","pricing_plan_id":"cebpf4jnsgd1na2vs0mg"},{"bike_id":"67b9eb05-c36e-4582-9b61-98d56d57348d","system_id":"levelo_inurba_marseille","lat":43.26058,"lon":5.39397,"is_reserved":false,"is_disabled":false,"rental_uris":{"android":"levelo://app?vid=67b9eb05-c36e-4582-9b61-98d56d57348d","ios":"levelo://app?vid=67b9eb05-c36e-4582-9b61-98d56d57348d"},"vehicle_type_id":"4","last_reported":1727557646,"current_range_meters":38800,"station_id":"ce4bhh92rcd13ifvqfj0","pricing_plan_id":"cebpf4jnsgd1na2vs0mg"},{"bike_id":"4d4842cd-4e24-4ddf-ada9-4c71cb2f461d","system_id":"levelo_inurba_marseille","lat":43.30957,"lon":5.39037,"is_reserved":false,"is_disabled":false,"rental_uris":{"android":"levelo://app?vid=4d4842cd-4e24-4ddf-ada9-4c71cb2f461d","ios":"levelo://app?vid=4d4842cd-4e24-4ddf-ada9-4c71cb2f461d"},"vehicle_type_id":"4","last_reported":1727557646,"current_range_meters":28400,"station_id":"ce4bgup2rcd13ifvqco0","pricing_plan_id":"cebpf4jnsgd1na2vs0mg"},{"bike_id":"6811c9ec-ea64-44b4-93d3-158194024def","system_id":"levelo_inurba_marseille","lat":43.30529,"lon":5.38432,"is_reserved":false,"is_disabled":false,"rental_uris":{"android":"levelo://app?vid=6811c9ec-ea64-44b4-93d3-158194024def","ios":"levelo://app?vid=6811c9ec-ea64-44b4-93d3-158194024def"},"vehicle_type_id":"4","last_reported":1727557646,"current_range_meters":38800,"station_id":"ce4bgg92rcd13ifvqb30","pricing_plan_id":"cebpf4jnsgd1na2vs0mg"},{"bike_id":"1a08eb27-5616-4615-8c7f-aaa33811054b","system_id":"levelo_inurba_marseille","lat":43.24806,"lon":5.37454,"is_reserved":false,"is_disabled":false,"rental_uris":{"android":"levelo://app?vid=1a08eb27-5616-4615-8c7f-aaa33811054b","ios":"levelo://app?vid=1a08eb27-5616-4615-8c7f-aaa33811054b"},"vehicle_type_id":"4","last_reported":1727557646,"current_range_meters":37600,"station_id":"ce4bhgh2rcd13ifvqfb0","pricing_plan_id":"cebpf4jnsgd1na2vs0mg"},{"bike_id":"9cab4b77-e73b-485b-9196-05681379298d","system_id":"levelo_inurba_marseille","lat":43.32296,"lon":5.38255,"is_reserved":false,"is_disabled":false,"rental_uris":{"android":"levelo://app?vid=9cab4b77-e73b-485b-9196-05681379298d","ios":"levelo://app?vid=9cab4b77-e73b-485b-9196-05681379298d"},"vehicle_type_id":"4","last_reported":1727557646,"current_range_meters":38800,"station_id":"ce4bhr12rcd13ifvqhqg","pricing_plan_id":"cebpf4jnsgd1na2vs0mg"},{"bike_id":"a79cd993-7ebd-4a8d-9fbf-95a06dc866e6","system_id":"levelo_inurba_marseille","lat":43.30598,"lon":5.39355,"is_reserved":false,"is_disabled":false,"rental_uris":{"android":"levelo://app?vid=a79cd993-7ebd-4a8d-9fbf-95a06dc866e6","ios":"levelo://app?vid=a79cd993-7ebd-4a8d-9fbf-95a06dc866e6"},"vehicle_type_id":"4","last_reported":1727557646,"current_range_meters":30800,"station_id":"ce4bh0p2rcd13ifvqd80","pricing_plan_id":"cebpf4jnsgd1na2vs0mg"},{"bike_id":"1e3ea4fa-a526-4c4e-914c-f7e1a9cbba7e","system_id":"levelo_inurba_marseille","lat":43.29026,"lon":5.38124,"is_reserved":false,"is_disabled":false,"rental_uris":{"android":"levelo://app?vid=1e3ea4fa-a526-4c4e-914c-f7e1a9cbba7e","ios":"levelo://app?vid=1e3ea4fa-a526-4c4e-914c-f7e1a9cbba7e"},"vehicle_type_id":"4","last_reported":1727557646,"current_range_meters":33600,"station_id":"ce4bh4p2rcd13ifvqe1g","pricing_plan_id":"cebpf4jnsgd1na2vs0mg"},{"bike_id":"8810465f-52a9-4dad-8df7-6c4e8029a838","system_id":"levelo_inurba_marseille","lat":43.29265,"lon":5.40905,"is_reserved":false,"is_disabled":false,"rental_uris":{"android":"levelo://app?vid=8810465f-52a9-4dad-8df7-6c4e8029a838","ios":"levelo://app?vid=8810465f-52a9-4dad-8df7-6c4e8029a838"},"vehicle_type_id":"4","last_reported":1727557646,"current_range_meters":37600,"station_id":"ce4bh192rcd13ifvqdc0","pricing_plan_id":"cebpf4jnsgd1na2vs0mg"},{"bike_id":"f1f7791f-b8e4-4313-899c-5b417e6e58e4","system_id":"levelo_inurba_marseille","lat":43.28941,"lon":5.36636,"is_reserved":false,"is_disabled":false,"rental_uris":{"android":"levelo://app?vid=f1f7791f-b8e4-4313-899c-5b417e6e58e4","ios":"levelo://app?vid=f1f7791f-b8e4-4313-899c-5b417e6e58e4"},"vehicle_type_id":"4","last_reported":1727557646,"current_range_meters":33200,"station_id":"ce4bhap2rcd13ifvqek0","pricing_plan_id":"cebpf4jnsgd1na2vs0mg"},{"bike_id":"13824a7d-bfbe-4296-a3b3-e12b298bc96f","system_id":"levelo_inurba_marseille","lat":43.2942,"lon":5.38628,"is_reserved":false,"is_disabled":false,"rental_uris":{"android":"levelo://app?vid=13824a7d-bfbe-4296-a3b3-e12b298bc96f","ios":"levelo://app?vid=13824a7d-bfbe-4296-a3b3-e12b298bc96f"},"vehicle_type_id":"4","last_reported":1727557646,"current_range_meters":38800,"station_id":"ce4bh2h2rcd13ifvqdh0","pricing_plan_id":"cebpf4jnsgd1na2vs0mg"},{"bike_id":"80174867-478e-4b18-98ab-2ea7779a0f88","system_id":"levelo_inurba_marseille","lat":43.28712,"lon":5.37377,"is_reserved":false,"is_disabled":false,"rental_uris":{"android":"levelo://app?vid=80174867-478e-4b18-98ab-2ea7779a0f88","ios":"levelo://app?vid=80174867-478e-4b18-98ab-2ea7779a0f88"},"vehicle_type_id":"4","last_reported":1727557646,"current_range_meters":38800,"station_id":"ce4bh3p2rcd13ifvqdq0","pricing_plan_id":"cebpf4jnsgd1na2vs0mg"},{"bike_id":"2f7d5de5-a19c-4acf-a8b7-3a20cf5d8085","system_id":"levelo_inurba_marseille","lat":43.29538,"lon":5.38546,"is_reserved":false,"is_disabled":false,"rental_uris":{"android":"levelo://app?vid=2f7d5de5-a19c-4acf-a8b7-3a20cf5d8085","ios":"levelo://app?vid=2f7d5de5-a19c-4acf-a8b7-3a20cf5d8085"},"vehicle_type_id":"4","last_reported":1727557646,"current_range_meters":26000,"station_id":"ce4bgih2rcd13ifvqba0","pricing_plan_id":"cebpf4jnsgd1na2vs0mg"},{"bike_id":"c461601d-3770-42d3-b850-f6196138e0e3","system_id":"levelo_inurba_marseille","lat":43.31326,"lon":5.39697,"is_reserved":false,"is_disabled":false,"rental_uris":{"android":"levelo://app?vid=c461601d-3770-42d3-b850-f6196138e0e3","ios":"levelo://app?vid=c461601d-3770-42d3-b850-f6196138e0e3"},"vehicle_type_id":"4","last_reported":1727557646,"current_range_meters":38000,"station_id":"ce4bgvp2rcd13ifvqcu0","pricing_plan_id":"cebpf4jnsgd1na2vs0mg"},{"bike_id":"741ae496-915d-4a18-91da-8cf3692d40b1","system_id":"levelo_inurba_marseille","lat":43.25507,"lon":5.37651,"is_reserved":false,"is_disabled":false,"rental_uris":{"android":"levelo://app?vid=741ae496-915d-4a18-91da-8cf3692d40b1","ios":"levelo://app?vid=741ae496-915d-4a18-91da-8cf3692d40b1"},"vehicle_type_id":"4","last_reported":1727557646,"current_range_meters":38800,"station_id":"ce4bhh12rcd13ifvqff0","pricing_plan_id":"cebpf4jnsgd1na2vs0mg"},{"bike_id":"962917fc-fe01-42bc-9559-199cc83e0a4e","system_id":"levelo_inurba_marseille","lat":43.29965,"lon":5.38498,"is_reserved":false,"is_disabled":false,"rental_uris":{"android":"levelo://app?vid=962917fc-fe01-42bc-9559-199cc83e0a4e","ios":"levelo://app?vid=962917fc-fe01-42bc-9559-199cc83e0a4e"},"vehicle_type_id":"4","last_reported":1727557646,"current_range_meters":8800,"station_id":"ce4bgj92rcd13ifvqbd0","pricing_plan_id":"cebpf4jnsgd1na2vs0mg"},{"bike_id":"23a4b7a3-0f1e-43e8-bcd3-bc856db6fda3","system_id":"levelo_inurba_marseille","lat":43.25502,"lon":5.37651,"is_reserved":false,"is_disabled":false,"rental_uris":{"android":"levelo://app?vid=23a4b7a3-0f1e-43e8-bcd3-bc856db6fda3","ios":"levelo://app?vid=23a4b7a3-0f1e-43e8-bcd3-bc856db6fda3"},"vehicle_type_id":"4","last_reported":1727557646,"current_range_meters":19600,"station_id":"ce4bhh12rcd13ifvqff0","pricing_plan_id":"cebpf4jnsgd1na2vs0mg"},{"bike_id":"cf2a99f0-171d-46e2-b5f9-b8e518581e33","system_id":"levelo_inurba_marseille","lat":43.23963,"lon":5.36625,"is_reserved":false,"is_disabled":false,"rental_uris":{"android":"levelo://app?vid=cf2a99f0-171d-46e2-b5f9-b8e518581e33","ios":"levelo://app?vid=cf2a99f0-171d-46e2-b5f9-b8e518581e33"},"vehicle_type_id":"4","last_reported":1727557646,"current_range_meters":36400,"station_id":"ce4bhi12rcd13ifvqfp0","pricing_plan_id":"cebpf4jnsgd1na2vs0mg"},{"bike_id":"e5f96fcd-0538-4d74-8ab8-d19e4df7cc95","system_id":"levelo_inurba_marseille","lat":43.31771,"lon":5.39004,"is_reserved":false,"is_disabled":false,"rental_uris":{"android":"levelo://app?vid=e5f96fcd-0538-4d74-8ab8-d19e4df7cc95","ios":"levelo://app?vid=e5f96fcd-0538-4d74-8ab8-d19e4df7cc95"},"vehicle_type_id":"4","last_reported":1727557646,"current_range_meters":14000,"station_id":"ce4bhqp2rcd13ifvqhng","pricing_plan_id":"cebpf4jnsgd1na2vs0mg"},{"bike_id":"e43e25b9-0704-4255-912a-831a6b3b077c","system_id":"levelo_inurba_marseille","lat":43.30533,"lon":5.38427,"is_reserved":false,"is_disabled":false,"rental_uris":{"android":"levelo://app?vid=e43e25b9-0704-4255-912a-831a6b3b077c","ios":"levelo://app?vid=e43e25b9-0704-4255-912a-831a6b3b077c"},"vehicle_type_id":"4","last_reported":1727557646,"current_range_meters":4400,"station_id":"ce4bgg92rcd13ifvqb30","pricing_plan_id":"cebpf4jnsgd1na2vs0mg"},{"bike_id":"e1e4a491-f30a-4aa2-a0ed-ba6d58ca431f","system_id":"levelo_inurba_marseille","lat":43.30787,"lon":5.39217,"is_reserved":false,"is_disabled":false,"rental_uris":{"android":"levelo://app?vid=e1e4a491-f30a-4aa2-a0ed-ba6d58ca431f","ios":"levelo://app?vid=e1e4a491-f30a-4aa2-a0ed-ba6d58ca431f"},"vehicle_type_id":"4","last_reported":1727557646,"current_range_meters":36000,"station_id":"ce4bgup2rcd13ifvqco0","pricing_plan_id":"cebpf4jnsgd1na2vs0mg"},{"bike_id":"a1585792-a705-409d-93a4-c31da8100088","system_id":"levelo_inurba_marseille","lat":43.23191,"lon":5.35552,"is_reserved":false,"is_disabled":false,"rental_uris":{"android":"levelo://app?vid=a1585792-a705-409d-93a4-c31da8100088","ios":"levelo://app?vid=a1585792-a705-409d-93a4-c31da8100088"},"vehicle_type_id":"4","last_reported":1727557646,"current_range_meters":13600,"station_id":"ce4bhu92rcd13ifvqi70","pricing_plan_id":"cebpf4jnsgd1na2vs0mg"},{"bike_id":"fdb61897-97d0-4689-adc4-02e79ee31d57","system_id":"levelo_inurba_marseille","lat":43.23959,"lon":5.36623,"is_reserved":false,"is_disabled":false,"rental_uris":{"android":"levelo://app?vid=fdb61897-97d0-4689-adc4-02e79ee31d57","ios":"levelo://app?vid=fdb61897-97d0-4689-adc4-02e79ee31d57"},"vehicle_type_id":"4","last_reported":1727557646,"current_range_meters":38400,"station_id":"ce4bhi12rcd13ifvqfp0","pricing_plan_id":"cebpf4jnsgd1na2vs0mg"},{"bike_id":"52f17877-110a-422d-89ae-fdeda162e6f3","system_id":"levelo_inurba_marseille","lat":43.23956,"lon":5.36628,"is_reserved":false,"is_disabled":false,"rental_uris":{"android":"levelo://app?vid=52f17877-110a-422d-89ae-fdeda162e6f3","ios":"levelo://app?vid=52f17877-110a-422d-89ae-fdeda162e6f3"},"vehicle_type_id":"4","last_reported":1727557646,"current_range_meters":9600,"station_id":"ce4bhi12rcd13ifvqfp0","pricing_plan_id":"cebpf4jnsgd1na2vs0mg"},{"bike_id":"7a8f28c6-ab6f-49c3-b59d-8e597cfc4655","system_id":"levelo_inurba_marseille","lat":43.33724,"lon":5.39178,"is_reserved":false,"is_disabled":false,"rental_uris":{"android":"levelo://app?vid=7a8f28c6-ab6f-49c3-b59d-8e597cfc4655","ios":"levelo://app?vid=7a8f28c6-ab6f-49c3-b59d-8e597cfc4655"},"vehicle_type_id":"4","last_reported":1727557646,"current_range_meters":22000,"station_id":"ce4bhr92rcd13ifvqhsg","pricing_plan_id":"cebpf4jnsgd1na2vs0mg"},{"bike_id":"b2bec1fb-96a6-4000-ae4a-6ded361744a3","system_id":"levelo_inurba_marseille","lat":43.31328,"lon":5.39689,"is_reserved":false,"is_disabled":false,"rental_uris":{"android":"levelo://app?vid=b2bec1fb-96a6-4000-ae4a-6ded361744a3","ios":"levelo://app?vid=b2bec1fb-96a6-4000-ae4a-6ded361744a3"},"vehicle_type_id":"4","last_reported":1727557646,"current_range_meters":32800,"station_id":"ce4bgvp2rcd13ifvqcu0","pricing_plan_id":"cebpf4jnsgd1na2vs0mg"},{"bike_id":"ab994941-8182-4cf4-af2e-1d33fc2c5393","system_id":"levelo_inurba_marseille","lat":43.2573,"lon":5.41111,"is_reserved":false,"is_disabled":false,"rental_uris":{"android":"levelo://app?vid=ab994941-8182-4cf4-af2e-1d33fc2c5393","ios":"levelo://app?vid=ab994941-8182-4cf4-af2e-1d33fc2c5393"},"vehicle_type_id":"4","last_reported":1727557646,"current_range_meters":6400,"station_id":"ce4bhkp2rcd13ifvqgd0","pricing_plan_id":"cebpf4jnsgd1na2vs0mg"},{"bike_id":"1347408c-e17f-4890-9dba-2621d2b63fef","system_id":"levelo_inurba_marseille","lat":43.28073,"lon":5.3965,"is_reserved":false,"is_disabled":false,"rental_uris":{"android":"levelo://app?vid=1347408c-e17f-4890-9dba-2621d2b63fef","ios":"levelo://app?vid=1347408c-e17f-4890-9dba-2621d2b63fef"},"vehicle_type_id":"4","last_reported":1727557646,"current_range_meters":27600,"station_id":"ce4bho12rcd13ifvqh2g","pricing_plan_id":"cebpf4jnsgd1na2vs0mg"},{"bike_id":"8706dbad-74a1-4401-bd4a-b4ae01455ac4","system_id":"levelo_inurba_marseille","lat":43.27626,"lon":5.36098,"is_reserved":false,"is_disabled":false,"rental_uris":{"android":"levelo://app?vid=8706dbad-74a1-4401-bd4a-b4ae01455ac4","ios":"levelo://app?vid=8706dbad-74a1-4401-bd4a-b4ae01455ac4"},"vehicle_type_id":"4","last_reported":1727557646,"current_range_meters":19600,"station_id":"ce4bgj92rcd13ifvqbe0","pricing_plan_id":"cebpf4jnsgd1na2vs0mg"},{"bike_id":"28869130-b6e9-41ac-beb3-91ad454ce9bf","system_id":"levelo_inurba_marseille","lat":43.30885,"lon":5.37199,"is_reserved":false,"is_disabled":false,"rental_uris":{"android":"levelo://app?vid=28869130-b6e9-41ac-beb3-91ad454ce9bf","ios":"levelo://app?vid=28869130-b6e9-41ac-beb3-91ad454ce9bf"},"vehicle_type_id":"4","last_reported":1727557646,"current_range_meters":4000,"station_id":"ce4bguh2rcd13ifvqckg","pricing_plan_id":"cebpf4jnsgd1na2vs0mg"},{"bike_id":"9e0e602a-711e-4e75-a4b3-f0d70db8f823","system_id":"levelo_inurba_marseille","lat":43.23961,"lon":5.36629,"is_reserved":false,"is_disabled":false,"rental_uris":{"android":"levelo://app?vid=9e0e602a-711e-4e75-a4b3-f0d70db8f823","ios":"levelo://app?vid=9e0e602a-711e-4e75-a4b3-f0d70db8f823"},"vehicle_type_id":"4","last_reported":1727557646,"current_range_meters":18000,"station_id":"ce4bhi12rcd13ifvqfp0","pricing_plan_id":"cebpf4jnsgd1na2vs0mg"},{"bike_id":"594923ab-6151-46ef-b1e9-625586026106","system_id":"levelo_inurba_marseille","lat":43.31325,"lon":5.39692,"is_reserved":false,"is_disabled":false,"rental_uris":{"android":"levelo://app?vid=594923ab-6151-46ef-b1e9-625586026106","ios":"levelo://app?vid=594923ab-6151-46ef-b1e9-625586026106"},"vehicle_type_id":"4","last_reported":1727557646,"current_range_meters":6800,"station_id":"ce4bgvp2rcd13ifvqcu0","pricing_plan_id":"cebpf4jnsgd1na2vs0mg"},{"bike_id":"5dccdce7-b1a1-4eb6-81a2-8dca1382289c","system_id":"levelo_inurba_marseille","lat":43.33039,"lon":5.390365,"is_reserved":false,"is_disabled":false,"rental_uris":{"android":"levelo://app?vid=5dccdce7-b1a1-4eb6-81a2-8dca1382289c","ios":"levelo://app?vid=5dccdce7-b1a1-4eb6-81a2-8dca1382289c"},"vehicle_type_id":"4","last_reported":1727557646,"current_range_meters":38800,"station_id":"ce4bhr92rcd13ifvqhrg","pricing_plan_id":"cebpf4jnsgd1na2vs0mg"},{"bike_id":"2d527b57-f1c3-402a-bdb7-1a17c2c3785a","system_id":"levelo_inurba_marseille","lat":43.306,"lon":5.39355,"is_reserved":false,"is_disabled":false,"rental_uris":{"android":"levelo://app?vid=2d527b57-f1c3-402a-bdb7-1a17c2c3785a","ios":"levelo://app?vid=2d527b57-f1c3-402a-bdb7-1a17c2c3785a"},"vehicle_type_id":"4","last_reported":1727557646,"current_range_meters":37600,"station_id":"ce4bh0p2rcd13ifvqd80","pricing_plan_id":"cebpf4jnsgd1na2vs0mg"},{"bike_id":"6ee0d8b9-2b21-4928-99a0-8d807ce0cd21","system_id":"levelo_inurba_marseille","lat":43.308411,"lon":5.373359,"is_reserved":false,"is_disabled":false,"rental_uris":{"android":"levelo://app?vid=6ee0d8b9-2b21-4928-99a0-8d807ce0cd21","ios":"levelo://app?vid=6ee0d8b9-2b21-4928-99a0-8d807ce0cd21"},"vehicle_type_id":"4","last_reported":1727557646,"current_range_meters":28800,"station_id":"ce4bguh2rcd13ifvqckg","pricing_plan_id":"cebpf4jnsgd1na2vs0mg"},{"bike_id":"15f157e8-3c85-404b-ad1b-5937eb033e14","system_id":"levelo_inurba_marseille","lat":43.29426,"lon":5.38615,"is_reserved":false,"is_disabled":false,"rental_uris":{"android":"levelo://app?vid=15f157e8-3c85-404b-ad1b-5937eb033e14","ios":"levelo://app?vid=15f157e8-3c85-404b-ad1b-5937eb033e14"},"vehicle_type_id":"4","last_reported":1727557646,"current_range_meters":8800,"station_id":"ce4bh2h2rcd13ifvqdh0","pricing_plan_id":"cebpf4jnsgd1na2vs0mg"},{"bike_id":"c0ec6a01-d163-4a51-aaae-770298e876cf","system_id":"levelo_inurba_marseille","lat":43.29267,"lon":5.38435,"is_reserved":false,"is_disabled":false,"rental_uris":{"android":"levelo://app?vid=c0ec6a01-d163-4a51-aaae-770298e876cf","ios":"levelo://app?vid=c0ec6a01-d163-4a51-aaae-770298e876cf"},"vehicle_type_id":"4","last_reported":1727557646,"current_range_meters":28800,"station_id":"ce4bh692rcd13ifvqea0","pricing_plan_id":"cebpf4jnsgd1na2vs0mg"},{"bike_id":"39e84053-5d04-4c4b-b0b5-4f28e30b6c2a","system_id":"levelo_inurba_marseille","lat":43.28667,"lon":5.38654,"is_reserved":false,"is_disabled":false,"rental_uris":{"android":"levelo://app?vid=39e84053-5d04-4c4b-b0b5-4f28e30b6c2a","ios":"levelo://app?vid=39e84053-5d04-4c4b-b0b5-4f28e30b6c2a"},"vehicle_type_id":"4","last_reported":1727557646,"current_range_meters":24000,"station_id":"ce4bh492rcd13ifvqdug","pricing_plan_id":"cebpf4jnsgd1na2vs0mg"},{"bike_id":"801dee94-6df9-4ac7-b8ff-19b18de3acb6","system_id":"levelo_inurba_marseille","lat":43.31996,"lon":5.38148,"is_reserved":false,"is_disabled":false,"rental_uris":{"android":"levelo://app?vid=801dee94-6df9-4ac7-b8ff-19b18de3acb6","ios":"levelo://app?vid=801dee94-6df9-4ac7-b8ff-19b18de3acb6"},"vehicle_type_id":"4","last_reported":1727557646,"current_range_meters":26000,"station_id":"ce4bhr12rcd13ifvqhpg","pricing_plan_id":"cebpf4jnsgd1na2vs0mg"},{"bike_id":"76702d69-028a-4093-a56a-5e5d34d277ec","system_id":"levelo_inurba_marseille","lat":43.29602,"lon":5.38091,"is_reserved":false,"is_disabled":false,"rental_uris":{"android":"levelo://app?vid=76702d69-028a-4093-a56a-5e5d34d277ec","ios":"levelo://app?vid=76702d69-028a-4093-a56a-5e5d34d277ec"},"vehicle_type_id":"4","last_reported":1727557646,"current_range_meters":17200,"station_id":"ce4bgl12rcd13ifvqbo0","pricing_plan_id":"cebpf4jnsgd1na2vs0mg"},{"bike_id":"848da01c-249f-40a1-a74f-e4a7991db9ba","system_id":"levelo_inurba_marseille","lat":43.27568,"lon":5.3841,"is_reserved":false,"is_disabled":false,"rental_uris":{"android":"levelo://app?vid=848da01c-249f-40a1-a74f-e4a7991db9ba","ios":"levelo://app?vid=848da01c-249f-40a1-a74f-e4a7991db9ba"},"vehicle_type_id":"4","last_reported":1727557646,"current_range_meters":8400,"station_id":"ce4bhh92rcd13ifvqfi0","pricing_plan_id":"cebpf4jnsgd1na2vs0mg"},{"bike_id":"f55b455c-120c-452e-bd93-dc96997230ea","system_id":"levelo_inurba_marseille","lat":43.28348,"lon":5.381,"is_reserved":false,"is_disabled":false,"rental_uris":{"android":"levelo://app?vid=f55b455c-120c-452e-bd93-dc96997230ea","ios":"levelo://app?vid=f55b455c-120c-452e-bd93-dc96997230ea"},"vehicle_type_id":"4","last_reported":1727557646,"current_range_meters":15200,"station_id":"ce4bh412rcd13ifvqdr0","pricing_plan_id":"cebpf4jnsgd1na2vs0mg"},{"bike_id":"258e025d-f605-4338-84a0-17f713af0b8d","system_id":"levelo_inurba_marseille","lat":43.24806,"lon":5.37452,"is_reserved":false,"is_disabled":false,"rental_uris":{"android":"levelo://app?vid=258e025d-f605-4338-84a0-17f713af0b8d","ios":"levelo://app?vid=258e025d-f605-4338-84a0-17f713af0b8d"},"vehicle_type_id":"4","last_reported":1727557646,"current_range_meters":38000,"station_id":"ce4bhgh2rcd13ifvqfb0","pricing_plan_id":"cebpf4jnsgd1na2vs0mg"},{"bike_id":"90f73edf-33c9-48aa-a208-1fdf5498db42","system_id":"levelo_inurba_marseille","lat":43.28706,"lon":5.39992,"is_reserved":false,"is_disabled":false,"rental_uris":{"android":"levelo://app?vid=90f73edf-33c9-48aa-a208-1fdf5498db42","ios":"levelo://app?vid=90f73edf-33c9-48aa-a208-1fdf5498db42"},"vehicle_type_id":"4","last_reported":1727557646,"current_range_meters":25200,"station_id":"ce4bho92rcd13ifvqh3g","pricing_plan_id":"cebpf4jnsgd1na2vs0mg"},{"bike_id":"48ac0a00-7daa-4c12-9a4d-5dab28220f2e","system_id":"levelo_inurba_marseille","lat":43.32373,"lon":5.38883,"is_reserved":false,"is_disabled":false,"rental_uris":{"android":"levelo://app?vid=48ac0a00-7daa-4c12-9a4d-5dab28220f2e","ios":"levelo://app?vid=48ac0a00-7daa-4c12-9a4d-5dab28220f2e"},"vehicle_type_id":"4","last_reported":1727557646,"current_range_meters":9600,"station_id":"ce4bhqp2rcd13ifvqhog","pricing_plan_id":"cebpf4jnsgd1na2vs0mg"},{"bike_id":"109b3c0c-8bf1-4c6c-995c-e118c5a0c15c","system_id":"levelo_inurba_marseille","lat":43.27563,"lon":5.38404,"is_reserved":false,"is_disabled":false,"rental_uris":{"android":"levelo://app?vid=109b3c0c-8bf1-4c6c-995c-e118c5a0c15c","ios":"levelo://app?vid=109b3c0c-8bf1-4c6c-995c-e118c5a0c15c"},"vehicle_type_id":"4","last_reported":1727557646,"current_range_meters":38800,"station_id":"ce4bhh92rcd13ifvqfi0","pricing_plan_id":"cebpf4jnsgd1na2vs0mg"},{"bike_id":"1f313afb-1cf8-4bb7-8831-2c9f193c2d0c","system_id":"levelo_inurba_marseille","lat":43.24807,"lon":5.37457,"is_reserved":false,"is_disabled":false,"rental_uris":{"android":"levelo://app?vid=1f313afb-1cf8-4bb7-8831-2c9f193c2d0c","ios":"levelo://app?vid=1f313afb-1cf8-4bb7-8831-2c9f193c2d0c"},"vehicle_type_id":"4","last_reported":1727557646,"current_range_meters":38800,"station_id":"ce4bhgh2rcd13ifvqfb0","pricing_plan_id":"cebpf4jnsgd1na2vs0mg"},{"bike_id":"a63d4449-4f5a-4f1c-9a3c-27c8d74bd2a3","system_id":"levelo_inurba_marseille","lat":43.2439,"lon":5.37066,"is_reserved":false,"is_disabled":false,"rental_uris":{"android":"levelo://app?vid=a63d4449-4f5a-4f1c-9a3c-27c8d74bd2a3","ios":"levelo://app?vid=a63d4449-4f5a-4f1c-9a3c-27c8d74bd2a3"},"vehicle_type_id":"4","last_reported":1727557646,"current_range_meters":14000,"station_id":"ce4bhhh2rcd13ifvqfk0","pricing_plan_id":"cebpf4jnsgd1na2vs0mg"},{"bike_id":"f053546e-9417-4cdc-8c24-aa8dc21c1501","system_id":"levelo_inurba_marseille","lat":43.284546,"lon":5.358875,"is_reserved":false,"is_disabled":false,"rental_uris":{"android":"levelo://app?vid=f053546e-9417-4cdc-8c24-aa8dc21c1501","ios":"levelo://app?vid=f053546e-9417-4cdc-8c24-aa8dc21c1501"},"vehicle_type_id":"4","last_reported":1727557646,"current_range_meters":20400,"station_id":"ce4bhah2rcd13ifvqei0","pricing_plan_id":"cebpf4jnsgd1na2vs0mg"},{"bike_id":"3e741017-2423-453a-bb3a-7aec8a140001","system_id":"levelo_inurba_marseille","lat":43.28978,"lon":5.37821,"is_reserved":false,"is_disabled":false,"rental_uris":{"android":"levelo://app?vid=3e741017-2423-453a-bb3a-7aec8a140001","ios":"levelo://app?vid=3e741017-2423-453a-bb3a-7aec8a140001"},"vehicle_type_id":"4","last_reported":1727557646,"current_range_meters":38800,"station_id":"ce4bh9p2rcd13ifvqed0","pricing_plan_id":"cebpf4jnsgd1na2vs0mg"},{"bike_id":"bc7dc6a9-589f-4649-9e06-6ce7434d3293","system_id":"levelo_inurba_marseille","lat":43.2866,"lon":5.36351,"is_reserved":false,"is_disabled":false,"rental_uris":{"android":"levelo://app?vid=bc7dc6a9-589f-4649-9e06-6ce7434d3293","ios":"levelo://app?vid=bc7dc6a9-589f-4649-9e06-6ce7434d3293"},"vehicle_type_id":"4","last_reported":1727557646,"current_range_meters":24000,"station_id":"ce4bhah2rcd13ifvqej0","pricing_plan_id":"cebpf4jnsgd1na2vs0mg"},{"bike_id":"f8cd1665-2182-42bb-993d-799437deb95c","system_id":"levelo_inurba_marseille","lat":43.23191,"lon":5.3556,"is_reserved":false,"is_disabled":false,"rental_uris":{"android":"levelo://app?vid=f8cd1665-2182-42bb-993d-799437deb95c","ios":"levelo://app?vid=f8cd1665-2182-42bb-993d-799437deb95c"},"vehicle_type_id":"4","last_reported":1727557646,"current_range_meters":6800,"station_id":"ce4bhu92rcd13ifvqi70","pricing_plan_id":"cebpf4jnsgd1na2vs0mg"},{"bike_id":"33bb8d4e-4b8b-488f-936f-0a69ed18a315","system_id":"levelo_inurba_marseille","lat":43.306433,"lon":5.400907,"is_reserved":false,"is_disabled":false,"rental_uris":{"android":"levelo://app?vid=33bb8d4e-4b8b-488f-936f-0a69ed18a315","ios":"levelo://app?vid=33bb8d4e-4b8b-488f-936f-0a69ed18a315"},"vehicle_type_id":"4","last_reported":1727557646,"current_range_meters":27200,"station_id":"ce4bh112rcd13ifvqda0","pricing_plan_id":"cebpf4jnsgd1na2vs0mg"},{"bike_id":"0769877c-c4e7-47ae-99ae-b7d49750ae44","system_id":"levelo_inurba_marseille","lat":43.28699,"lon":5.39977,"is_reserved":false,"is_disabled":false,"rental_uris":{"android":"levelo://app?vid=0769877c-c4e7-47ae-99ae-b7d49750ae44","ios":"levelo://app?vid=0769877c-c4e7-47ae-99ae-b7d49750ae44"},"vehicle_type_id":"4","last_reported":1727557646,"current_range_meters":12400,"station_id":"ce4bho92rcd13ifvqh3g","pricing_plan_id":"cebpf4jnsgd1na2vs0mg"},{"bike_id":"09821d9b-80c1-443f-9e66-63848c6692e3","system_id":"levelo_inurba_marseille","lat":43.30954,"lon":5.39039,"is_reserved":false,"is_disabled":false,"rental_uris":{"android":"levelo://app?vid=09821d9b-80c1-443f-9e66-63848c6692e3","ios":"levelo://app?vid=09821d9b-80c1-443f-9e66-63848c6692e3"},"vehicle_type_id":"4","last_reported":1727557646,"current_range_meters":10800,"station_id":"ce4bgup2rcd13ifvqco0","pricing_plan_id":"cebpf4jnsgd1na2vs0mg"},{"bike_id":"f0a3a5b7-f641-4e91-a09b-77fe27253960","system_id":"levelo_inurba_marseille","lat":43.26568,"lon":5.39005,"is_reserved":false,"is_disabled":false,"rental_uris":{"android":"levelo://app?vid=f0a3a5b7-f641-4e91-a09b-77fe27253960","ios":"levelo://app?vid=f0a3a5b7-f641-4e91-a09b-77fe27253960"},"vehicle_type_id":"4","last_reported":1727557646,"current_range_meters":24800,"station_id":"ce4bhe12rcd13ifvqf30","pricing_plan_id":"cebpf4jnsgd1na2vs0mg"},{"bike_id":"98c5367f-8c22-4856-aaa7-6126d738d39f","system_id":"levelo_inurba_marseille","lat":43.30953,"lon":5.39027,"is_reserved":false,"is_disabled":false,"rental_uris":{"android":"levelo://app?vid=98c5367f-8c22-4856-aaa7-6126d738d39f","ios":"levelo://app?vid=98c5367f-8c22-4856-aaa7-6126d738d39f"},"vehicle_type_id":"4","last_reported":1727557646,"current_range_meters":30800,"station_id":"ce4bgup2rcd13ifvqco0","pricing_plan_id":"cebpf4jnsgd1na2vs0mg"},{"bike_id":"f11bf2cf-83c8-4e6a-81f7-5bca57aab2e4","system_id":"levelo_inurba_marseille","lat":43.29073,"lon":5.37166,"is_reserved":false,"is_disabled":false,"rental_uris":{"android":"levelo://app?vid=f11bf2cf-83c8-4e6a-81f7-5bca57aab2e4","ios":"levelo://app?vid=f11bf2cf-83c8-4e6a-81f7-5bca57aab2e4"},"vehicle_type_id":"4","last_reported":1727557646,"current_range_meters":18800,"station_id":"ce4bh5p2rcd13ifvqe4g","pricing_plan_id":"cebpf4jnsgd1na2vs0mg"},{"bike_id":"229302db-2311-4028-9380-73695926aa17","system_id":"levelo_inurba_marseille","lat":43.29534,"lon":5.3854,"is_reserved":false,"is_disabled":false,"rental_uris":{"android":"levelo://app?vid=229302db-2311-4028-9380-73695926aa17","ios":"levelo://app?vid=229302db-2311-4028-9380-73695926aa17"},"vehicle_type_id":"4","last_reported":1727557646,"current_range_meters":37600,"station_id":"ce4bgih2rcd13ifvqba0","pricing_plan_id":"cebpf4jnsgd1na2vs0mg"},{"bike_id":"3b170ecf-4bbb-421f-886d-94818fba1de8","system_id":"levelo_inurba_marseille","lat":43.28481,"lon":5.40011,"is_reserved":false,"is_disabled":false,"rental_uris":{"android":"levelo://app?vid=3b170ecf-4bbb-421f-886d-94818fba1de8","ios":"levelo://app?vid=3b170ecf-4bbb-421f-886d-94818fba1de8"},"vehicle_type_id":"4","last_reported":1727557646,"current_range_meters":35600,"station_id":"ce4bh2h2rcd13ifvqdh0","pricing_plan_id":"cebpf4jnsgd1na2vs0mg"},{"bike_id":"3d8c04ca-d2d1-4a3b-b928-49302d184469","system_id":"levelo_inurba_marseille","lat":43.30958,"lon":5.39034,"is_reserved":false,"is_disabled":false,"rental_uris":{"android":"levelo://app?vid=3d8c04ca-d2d1-4a3b-b928-49302d184469","ios":"levelo://app?vid=3d8c04ca-d2d1-4a3b-b928-49302d184469"},"vehicle_type_id":"4","last_reported":1727557646,"current_range_meters":30800,"station_id":"ce4bgup2rcd13ifvqco0","pricing_plan_id":"cebpf4jnsgd1na2vs0mg"},{"bike_id":"a84742ce-84eb-4d21-873c-4e72b449188c","system_id":"levelo_inurba_marseille","lat":43.26196,"lon":5.37932,"is_reserved":false,"is_disabled":false,"rental_uris":{"android":"levelo://app?vid=a84742ce-84eb-4d21-873c-4e72b449188c","ios":"levelo://app?vid=a84742ce-84eb-4d21-873c-4e72b449188c"},"vehicle_type_id":"4","last_reported":1727557646,"current_range_meters":37600,"station_id":"ce4bhjp2rcd13ifvqg90","pricing_plan_id":"cebpf4jnsgd1na2vs0mg"},{"bike_id":"de704d9e-d5ce-4f43-a84a-56dc0f451b48","system_id":"levelo_inurba_marseille","lat":43.29423,"lon":5.38625,"is_reserved":false,"is_disabled":false,"rental_uris":{"android":"levelo://app?vid=de704d9e-d5ce-4f43-a84a-56dc0f451b48","ios":"levelo://app?vid=de704d9e-d5ce-4f43-a84a-56dc0f451b48"},"vehicle_type_id":"4","last_reported":1727557646,"current_range_meters":38400,"station_id":"ce4bh2h2rcd13ifvqdh0","pricing_plan_id":"cebpf4jnsgd1na2vs0mg"},{"bike_id":"66863660-0847-4816-a607-56cde984b4f5","system_id":"levelo_inurba_marseille","lat":43.296043,"lon":5.380923,"is_reserved":false,"is_disabled":false,"rental_uris":{"android":"levelo://app?vid=66863660-0847-4816-a607-56cde984b4f5","ios":"levelo://app?vid=66863660-0847-4816-a607-56cde984b4f5"},"vehicle_type_id":"4","last_reported":1727557646,"current_range_meters":9600,"station_id":"ce4bgl12rcd13ifvqbo0","pricing_plan_id":"cebpf4jnsgd1na2vs0mg"},{"bike_id":"d40ceebd-8d5f-44eb-b89c-f03636e27a7f","system_id":"levelo_inurba_marseille","lat":43.2953,"lon":5.38537,"is_reserved":false,"is_disabled":false,"rental_uris":{"android":"levelo://app?vid=d40ceebd-8d5f-44eb-b89c-f03636e27a7f","ios":"levelo://app?vid=d40ceebd-8d5f-44eb-b89c-f03636e27a7f"},"vehicle_type_id":"4","last_reported":1727557646,"current_range_meters":38800,"station_id":"ce4bgih2rcd13ifvqba0","pricing_plan_id":"cebpf4jnsgd1na2vs0mg"},{"bike_id":"de3ca0ce-601a-4c2d-9698-5635c756a39e","system_id":"levelo_inurba_marseille","lat":43.2827,"lon":5.35062,"is_reserved":false,"is_disabled":false,"rental_uris":{"android":"levelo://app?vid=de3ca0ce-601a-4c2d-9698-5635c756a39e","ios":"levelo://app?vid=de3ca0ce-601a-4c2d-9698-5635c756a39e"},"vehicle_type_id":"4","last_reported":1727557646,"current_range_meters":39200,"station_id":"ce4bhbp2rcd13ifvqerg","pricing_plan_id":"cebpf4jnsgd1na2vs0mg"},{"bike_id":"8f1adf28-1e5a-4a9e-b3d1-69d9e33a370b","system_id":"levelo_inurba_marseille","lat":43.29265,"lon":5.38439,"is_reserved":false,"is_disabled":false,"rental_uris":{"android":"levelo://app?vid=8f1adf28-1e5a-4a9e-b3d1-69d9e33a370b","ios":"levelo://app?vid=8f1adf28-1e5a-4a9e-b3d1-69d9e33a370b"},"vehicle_type_id":"4","last_reported":1727557646,"current_range_meters":37600,"station_id":"ce4bh692rcd13ifvqea0","pricing_plan_id":"cebpf4jnsgd1na2vs0mg"},{"bike_id":"5ecbc28a-05b5-4078-b0cc-a4c909caf3c4","system_id":"levelo_inurba_marseille","lat":43.28734,"lon":5.36077,"is_reserved":false,"is_disabled":false,"rental_uris":{"android":"levelo://app?vid=5ecbc28a-05b5-4078-b0cc-a4c909caf3c4","ios":"levelo://app?vid=5ecbc28a-05b5-4078-b0cc-a4c909caf3c4"},"vehicle_type_id":"4","last_reported":1727557646,"current_range_meters":38800,"station_id":"cki0cbj6b192h4jlfktg","pricing_plan_id":"cebpf4jnsgd1na2vs0mg"},{"bike_id":"d0e7f173-d120-4677-a4b7-80edf9ba2c5b","system_id":"levelo_inurba_marseille","lat":43.30604,"lon":5.37215,"is_reserved":false,"is_disabled":false,"rental_uris":{"android":"levelo://app?vid=d0e7f173-d120-4677-a4b7-80edf9ba2c5b","ios":"levelo://app?vid=d0e7f173-d120-4677-a4b7-80edf9ba2c5b"},"vehicle_type_id":"4","last_reported":1727557646,"current_range_meters":38800,"station_id":"ce4bgqh2rcd13ifvqc4g","pricing_plan_id":"cebpf4jnsgd1na2vs0mg"},{"bike_id":"e79338f6-bcde-4e59-beea-b3ed3bd8d43f","system_id":"levelo_inurba_marseille","lat":43.29574,"lon":5.37498,"is_reserved":false,"is_disabled":false,"rental_uris":{"android":"levelo://app?vid=e79338f6-bcde-4e59-beea-b3ed3bd8d43f","ios":"levelo://app?vid=e79338f6-bcde-4e59-beea-b3ed3bd8d43f"},"vehicle_type_id":"4","last_reported":1727557646,"current_range_meters":38000,"station_id":"ce4bgh92rcd13ifvqb50","pricing_plan_id":"cebpf4jnsgd1na2vs0mg"},{"bike_id":"7cfbd935-09f5-4a64-9e66-38667ba738a9","system_id":"levelo_inurba_marseille","lat":43.30541,"lon":5.38427,"is_reserved":false,"is_disabled":false,"rental_uris":{"android":"levelo://app?vid=7cfbd935-09f5-4a64-9e66-38667ba738a9","ios":"levelo://app?vid=7cfbd935-09f5-4a64-9e66-38667ba738a9"},"vehicle_type_id":"4","last_reported":1727557646,"current_range_meters":30000,"station_id":"ce4bgg92rcd13ifvqb30","pricing_plan_id":"cebpf4jnsgd1na2vs0mg"},{"bike_id":"c4a8f360-1206-4f4f-a92d-ac3dc185d9ac","system_id":"levelo_inurba_marseille","lat":43.30951,"lon":5.39033,"is_reserved":false,"is_disabled":false,"rental_uris":{"android":"levelo://app?vid=c4a8f360-1206-4f4f-a92d-ac3dc185d9ac","ios":"levelo://app?vid=c4a8f360-1206-4f4f-a92d-ac3dc185d9ac"},"vehicle_type_id":"4","last_reported":1727557646,"current_range_meters":27600,"station_id":"ce4bgup2rcd13ifvqco0","pricing_plan_id":"cebpf4jnsgd1na2vs0mg"},{"bike_id":"eb35b74a-e100-4849-baf8-86135e114bef","system_id":"levelo_inurba_marseille","lat":43.23157,"lon":5.437,"is_reserved":false,"is_disabled":false,"rental_uris":{"android":"levelo://app?vid=eb35b74a-e100-4849-baf8-86135e114bef","ios":"levelo://app?vid=eb35b74a-e100-4849-baf8-86135e114bef"},"vehicle_type_id":"4","last_reported":1727557646,"current_range_meters":35600,"station_id":"ce4bhmp2rcd13ifvqgog","pricing_plan_id":"cebpf4jnsgd1na2vs0mg"},{"bike_id":"5f100a7d-87ee-479e-9cb8-27f83060cd0d","system_id":"levelo_inurba_marseille","lat":43.29535,"lon":5.3855,"is_reserved":false,"is_disabled":false,"rental_uris":{"android":"levelo://app?vid=5f100a7d-87ee-479e-9cb8-27f83060cd0d","ios":"levelo://app?vid=5f100a7d-87ee-479e-9cb8-27f83060cd0d"},"vehicle_type_id":"4","last_reported":1727557646,"current_range_meters":38800,"station_id":"ce4bgih2rcd13ifvqba0","pricing_plan_id":"cebpf4jnsgd1na2vs0mg"},{"bike_id":"827fd4c0-7ca2-45f2-bd4b-b536ec5ebae6","system_id":"levelo_inurba_marseille","lat":43.299922,"lon":5.383628,"is_reserved":false,"is_disabled":false,"rental_uris":{"android":"levelo://app?vid=827fd4c0-7ca2-45f2-bd4b-b536ec5ebae6","ios":"levelo://app?vid=827fd4c0-7ca2-45f2-bd4b-b536ec5ebae6"},"vehicle_type_id":"4","last_reported":1727557646,"current_range_meters":38800,"station_id":"ce4bgj92rcd13ifvqbd0","pricing_plan_id":"cebpf4jnsgd1na2vs0mg"},{"bike_id":"e5043f39-22d0-4e86-91b1-40a84b7b455c","system_id":"levelo_inurba_marseille","lat":43.27889,"lon":5.37989,"is_reserved":false,"is_disabled":false,"rental_uris":{"android":"levelo://app?vid=e5043f39-22d0-4e86-91b1-40a84b7b455c","ios":"levelo://app?vid=e5043f39-22d0-4e86-91b1-40a84b7b455c"},"vehicle_type_id":"4","last_reported":1727557646,"current_range_meters":8000,"station_id":"ce4bhf92rcd13ifvqf50","pricing_plan_id":"cebpf4jnsgd1na2vs0mg"},{"bike_id":"2c5a97ac-60a9-441b-b0fa-526625f2f517","system_id":"levelo_inurba_marseille","lat":43.32334,"lon":5.40623,"is_reserved":false,"is_disabled":false,"rental_uris":{"android":"levelo://app?vid=2c5a97ac-60a9-441b-b0fa-526625f2f517","ios":"levelo://app?vid=2c5a97ac-60a9-441b-b0fa-526625f2f517"},"vehicle_type_id":"4","last_reported":1727557646,"current_range_meters":14000,"station_id":"ce4bhq92rcd13ifvqhjg","pricing_plan_id":"cebpf4jnsgd1na2vs0mg"},{"bike_id":"dcf4fb0d-6321-43c4-8b76-2fcbd0e60f9a","system_id":"levelo_inurba_marseille","lat":43.297843,"lon":5.393425,"is_reserved":false,"is_disabled":false,"rental_uris":{"android":"levelo://app?vid=dcf4fb0d-6321-43c4-8b76-2fcbd0e60f9a","ios":"levelo://app?vid=dcf4fb0d-6321-43c4-8b76-2fcbd0e60f9a"},"vehicle_type_id":"4","last_reported":1727557646,"current_range_meters":18800,"station_id":"chh1huq6cuj3fo74tm60","pricing_plan_id":"cebpf4jnsgd1na2vs0mg"},{"bike_id":"ad3b4911-3bbb-4c9c-b24f-18059df0e44f","system_id":"levelo_inurba_marseille","lat":43.29258,"lon":5.38435,"is_reserved":false,"is_disabled":false,"rental_uris":{"android":"levelo://app?vid=ad3b4911-3bbb-4c9c-b24f-18059df0e44f","ios":"levelo://app?vid=ad3b4911-3bbb-4c9c-b24f-18059df0e44f"},"vehicle_type_id":"4","last_reported":1727557646,"current_range_meters":27600,"station_id":"ce4bh692rcd13ifvqea0","pricing_plan_id":"cebpf4jnsgd1na2vs0mg"},{"bike_id":"8eb5911f-c95e-4f31-a6d6-b3cd459f46bc","system_id":"levelo_inurba_marseille","lat":43.3248,"lon":5.36554,"is_reserved":false,"is_disabled":false,"rental_uris":{"android":"levelo://app?vid=8eb5911f-c95e-4f31-a6d6-b3cd459f46bc","ios":"levelo://app?vid=8eb5911f-c95e-4f31-a6d6-b3cd459f46bc"},"vehicle_type_id":"4","last_reported":1727557646,"current_range_meters":30800,"station_id":"ce4bhs12rcd13ifvqhvg","pricing_plan_id":"cebpf4jnsgd1na2vs0mg"},{"bike_id":"12e93208-c1ce-41ff-aad9-0a3045a85909","system_id":"levelo_inurba_marseille","lat":43.29264,"lon":5.38438,"is_reserved":false,"is_disabled":false,"rental_uris":{"android":"levelo://app?vid=12e93208-c1ce-41ff-aad9-0a3045a85909","ios":"levelo://app?vid=12e93208-c1ce-41ff-aad9-0a3045a85909"},"vehicle_type_id":"4","last_reported":1727557646,"current_range_meters":8000,"station_id":"ce4bh692rcd13ifvqea0","pricing_plan_id":"cebpf4jnsgd1na2vs0mg"},{"bike_id":"942e28e3-5b42-4bee-8272-f073c6090652","system_id":"levelo_inurba_marseille","lat":43.28972,"lon":5.37822,"is_reserved":false,"is_disabled":false,"rental_uris":{"android":"levelo://app?vid=942e28e3-5b42-4bee-8272-f073c6090652","ios":"levelo://app?vid=942e28e3-5b42-4bee-8272-f073c6090652"},"vehicle_type_id":"4","last_reported":1727557646,"current_range_meters":19200,"station_id":"ce4bh9p2rcd13ifvqed0","pricing_plan_id":"cebpf4jnsgd1na2vs0mg"},{"bike_id":"f7f63f2c-2e97-4548-b04e-a5a0c6c8da59","system_id":"levelo_inurba_marseille","lat":43.29027,"lon":5.38641,"is_reserved":false,"is_disabled":false,"rental_uris":{"android":"levelo://app?vid=f7f63f2c-2e97-4548-b04e-a5a0c6c8da59","ios":"levelo://app?vid=f7f63f2c-2e97-4548-b04e-a5a0c6c8da59"},"vehicle_type_id":"4","last_reported":1727557646,"current_range_meters":16400,"station_id":"ce4bh4p2rcd13ifvqe0g","pricing_plan_id":"cebpf4jnsgd1na2vs0mg"},{"bike_id":"c0117ef1-a20d-4df0-8965-82062dfc7d03","system_id":"levelo_inurba_marseille","lat":43.28978,"lon":5.37827,"is_reserved":false,"is_disabled":false,"rental_uris":{"android":"levelo://app?vid=c0117ef1-a20d-4df0-8965-82062dfc7d03","ios":"levelo://app?vid=c0117ef1-a20d-4df0-8965-82062dfc7d03"},"vehicle_type_id":"4","last_reported":1727557646,"current_range_meters":38800,"station_id":"ce4bh9p2rcd13ifvqed0","pricing_plan_id":"cebpf4jnsgd1na2vs0mg"},{"bike_id":"5c2f38e6-c0e9-4e18-992e-ac7a76212032","system_id":"levelo_inurba_marseille","lat":43.29189,"lon":5.36051,"is_reserved":false,"is_disabled":false,"rental_uris":{"android":"levelo://app?vid=5c2f38e6-c0e9-4e18-992e-ac7a76212032","ios":"levelo://app?vid=5c2f38e6-c0e9-4e18-992e-ac7a76212032"},"vehicle_type_id":"4","last_reported":1727557646,"current_range_meters":8400,"station_id":"ce4bh292rcd13ifvqdf0","pricing_plan_id":"cebpf4jnsgd1na2vs0mg"},{"bike_id":"9efdf05c-571e-4c3a-a0bf-af0e0fbc032d","system_id":"levelo_inurba_marseille","lat":43.25092,"lon":5.39515,"is_reserved":false,"is_disabled":false,"rental_uris":{"android":"levelo://app?vid=9efdf05c-571e-4c3a-a0bf-af0e0fbc032d","ios":"levelo://app?vid=9efdf05c-571e-4c3a-a0bf-af0e0fbc032d"},"vehicle_type_id":"4","last_reported":1727557646,"current_range_meters":21600,"station_id":"ce4bhm12rcd13ifvqgkg","pricing_plan_id":"cebpf4jnsgd1na2vs0mg"},{"bike_id":"f429bdb6-7808-4367-8637-adab7a63bac2","system_id":"levelo_inurba_marseille","lat":43.29308,"lon":5.37174,"is_reserved":false,"is_disabled":false,"rental_uris":{"android":"levelo://app?vid=f429bdb6-7808-4367-8637-adab7a63bac2","ios":"levelo://app?vid=f429bdb6-7808-4367-8637-adab7a63bac2"},"vehicle_type_id":"4","last_reported":1727557646,"current_range_meters":23200,"station_id":"ce4bgh92rcd13ifvqb40","pricing_plan_id":"cebpf4jnsgd1na2vs0mg"},{"bike_id":"918724d6-1044-40a5-b9e0-81af8446ce6e","system_id":"levelo_inurba_marseille","lat":43.29303,"lon":5.37441,"is_reserved":false,"is_disabled":false,"rental_uris":{"android":"levelo://app?vid=918724d6-1044-40a5-b9e0-81af8446ce6e","ios":"levelo://app?vid=918724d6-1044-40a5-b9e0-81af8446ce6e"},"vehicle_type_id":"4","last_reported":1727557646,"current_range_meters":35200,"station_id":"ce4bgi12rcd13ifvqb70","pricing_plan_id":"cebpf4jnsgd1na2vs0mg"},{"bike_id":"8537bd26-c143-480b-ac7c-86d2b5338011","system_id":"levelo_inurba_marseille","lat":43.26214,"lon":5.37444,"is_reserved":false,"is_disabled":false,"rental_uris":{"android":"levelo://app?vid=8537bd26-c143-480b-ac7c-86d2b5338011","ios":"levelo://app?vid=8537bd26-c143-480b-ac7c-86d2b5338011"},"vehicle_type_id":"4","last_reported":1727557646,"current_range_meters":38800,"station_id":"ce4bhgp2rcd13ifvqfc0","pricing_plan_id":"cebpf4jnsgd1na2vs0mg"},{"bike_id":"199f764e-7942-4511-a407-33ff4a7dc457","system_id":"levelo_inurba_marseille","lat":43.26028,"lon":5.37557,"is_reserved":false,"is_disabled":false,"rental_uris":{"android":"levelo://app?vid=199f764e-7942-4511-a407-33ff4a7dc457","ios":"levelo://app?vid=199f764e-7942-4511-a407-33ff4a7dc457"},"vehicle_type_id":"4","last_reported":1727557646,"current_range_meters":38800,"station_id":"ce4bhgh2rcd13ifvqfa0","pricing_plan_id":"cebpf4jnsgd1na2vs0mg"},{"bike_id":"f2d53f9f-cb44-4208-8d63-be01361fe644","system_id":"levelo_inurba_marseille","lat":43.28412,"lon":5.37512,"is_reserved":false,"is_disabled":false,"rental_uris":{"android":"levelo://app?vid=f2d53f9f-cb44-4208-8d63-be01361fe644","ios":"levelo://app?vid=f2d53f9f-cb44-4208-8d63-be01361fe644"},"vehicle_type_id":"4","last_reported":1727557646,"current_range_meters":38400,"station_id":"ce4bh412rcd13ifvqds0","pricing_plan_id":"cebpf4jnsgd1na2vs0mg"},{"bike_id":"0701cf2a-674c-4c9d-af1e-6650acbaaf74","system_id":"levelo_inurba_marseille","lat":43.28382,"lon":5.37296,"is_reserved":false,"is_disabled":false,"rental_uris":{"android":"levelo://app?vid=0701cf2a-674c-4c9d-af1e-6650acbaaf74","ios":"levelo://app?vid=0701cf2a-674c-4c9d-af1e-6650acbaaf74"},"vehicle_type_id":"4","last_reported":1727557646,"current_range_meters":13600,"station_id":"","pricing_plan_id":"cebpf4jnsgd1na2vs0mg"},{"bike_id":"26d19603-8175-4b6f-aa29-c8a304bccb18","system_id":"levelo_inurba_marseille","lat":43.2418,"lon":5.39732,"is_reserved":false,"is_disabled":false,"rental_uris":{"android":"levelo://app?vid=26d19603-8175-4b6f-aa29-c8a304bccb18","ios":"levelo://app?vid=26d19603-8175-4b6f-aa29-c8a304bccb18"},"vehicle_type_id":"4","last_reported":1727557646,"current_range_meters":10000,"station_id":"ce4bhn12rcd13ifvqgpg","pricing_plan_id":"cebpf4jnsgd1na2vs0mg"},{"bike_id":"cc1e3afd-0763-4f82-aacf-ac2d0abff8b1","system_id":"levelo_inurba_marseille","lat":43.28002,"lon":5.40023,"is_reserved":false,"is_disabled":false,"rental_uris":{"android":"levelo://app?vid=cc1e3afd-0763-4f82-aacf-ac2d0abff8b1","ios":"levelo://app?vid=cc1e3afd-0763-4f82-aacf-ac2d0abff8b1"},"vehicle_type_id":"4","last_reported":1727557646,"current_range_meters":8800,"station_id":"ce4bho92rcd13ifvqh4g","pricing_plan_id":"cebpf4jnsgd1na2vs0mg"},{"bike_id":"dc67f79a-aaa2-47c1-8c2c-a1a3b6960c49","system_id":"levelo_inurba_marseille","lat":43.28107,"lon":5.37838,"is_reserved":false,"is_disabled":false,"rental_uris":{"android":"levelo://app?vid=dc67f79a-aaa2-47c1-8c2c-a1a3b6960c49","ios":"levelo://app?vid=dc67f79a-aaa2-47c1-8c2c-a1a3b6960c49"},"vehicle_type_id":"4","last_reported":1727557646,"current_range_meters":9200,"station_id":"ce4bha12rcd13ifvqee0","pricing_plan_id":"cebpf4jnsgd1na2vs0mg"},{"bike_id":"8dc67aea-8c43-4618-97ea-d8c40591f0a3","system_id":"levelo_inurba_marseille","lat":43.30888,"lon":5.39619,"is_reserved":false,"is_disabled":false,"rental_uris":{"android":"levelo://app?vid=8dc67aea-8c43-4618-97ea-d8c40591f0a3","ios":"levelo://app?vid=8dc67aea-8c43-4618-97ea-d8c40591f0a3"},"vehicle_type_id":"4","last_reported":1727557646,"current_range_meters":22800,"station_id":"ce4bh012rcd13ifvqcv0","pricing_plan_id":"cebpf4jnsgd1na2vs0mg"},{"bike_id":"afcb4206-48c4-4b3f-a92c-a3bd0805450b","system_id":"levelo_inurba_marseille","lat":43.24546,"lon":5.39524,"is_reserved":false,"is_disabled":false,"rental_uris":{"android":"levelo://app?vid=afcb4206-48c4-4b3f-a92c-a3bd0805450b","ios":"levelo://app?vid=afcb4206-48c4-4b3f-a92c-a3bd0805450b"},"vehicle_type_id":"4","last_reported":1727557646,"current_range_meters":30400,"station_id":"ce4bhlp2rcd13ifvqgjg","pricing_plan_id":"cebpf4jnsgd1na2vs0mg"},{"bike_id":"764e3965-4c0e-440a-810d-2d765023003f","system_id":"levelo_inurba_marseille","lat":43.29867,"lon":5.39735,"is_reserved":false,"is_disabled":false,"rental_uris":{"android":"levelo://app?vid=764e3965-4c0e-440a-810d-2d765023003f","ios":"levelo://app?vid=764e3965-4c0e-440a-810d-2d765023003f"},"vehicle_type_id":"4","last_reported":1727557646,"current_range_meters":19200,"station_id":"ce4bh0h2rcd13ifvqd50","pricing_plan_id":"cebpf4jnsgd1na2vs0mg"},{"bike_id":"4a3e896c-55be-4d15-adbd-1e7afff39a6d","system_id":"levelo_inurba_marseille","lat":43.29366,"lon":5.37827,"is_reserved":false,"is_disabled":false,"rental_uris":{"android":"levelo://app?vid=4a3e896c-55be-4d15-adbd-1e7afff39a6d","ios":"levelo://app?vid=4a3e896c-55be-4d15-adbd-1e7afff39a6d"},"vehicle_type_id":"4","last_reported":1727557646,"current_range_meters":38800,"station_id":"ce4bgjh2rcd13ifvqbf0","pricing_plan_id":"cebpf4jnsgd1na2vs0mg"},{"bike_id":"6cdca13d-24d1-4302-912a-54d18c748242","system_id":"levelo_inurba_marseille","lat":43.31083,"lon":5.40132,"is_reserved":false,"is_disabled":false,"rental_uris":{"android":"levelo://app?vid=6cdca13d-24d1-4302-912a-54d18c748242","ios":"levelo://app?vid=6cdca13d-24d1-4302-912a-54d18c748242"},"vehicle_type_id":"4","last_reported":1727557646,"current_range_meters":8000,"station_id":"","pricing_plan_id":"cebpf4jnsgd1na2vs0mg"},{"bike_id":"8db0e5cd-2187-4a1e-887b-1a2f8d3b39de","system_id":"levelo_inurba_marseille","lat":43.32289,"lon":5.38262,"is_reserved":false,"is_disabled":false,"rental_uris":{"android":"levelo://app?vid=8db0e5cd-2187-4a1e-887b-1a2f8d3b39de","ios":"levelo://app?vid=8db0e5cd-2187-4a1e-887b-1a2f8d3b39de"},"vehicle_type_id":"4","last_reported":1727557646,"current_range_meters":22800,"station_id":"ce4bhr12rcd13ifvqhqg","pricing_plan_id":"cebpf4jnsgd1na2vs0mg"},{"bike_id":"4b02d02f-e4f8-4503-af33-737662778152","system_id":"levelo_inurba_marseille","lat":43.279877,"lon":5.399961,"is_reserved":false,"is_disabled":false,"rental_uris":{"android":"levelo://app?vid=4b02d02f-e4f8-4503-af33-737662778152","ios":"levelo://app?vid=4b02d02f-e4f8-4503-af33-737662778152"},"vehicle_type_id":"4","last_reported":1727557646,"current_range_meters":38800,"station_id":"ce4bho92rcd13ifvqh4g","pricing_plan_id":"cebpf4jnsgd1na2vs0mg"},{"bike_id":"7a00023f-56c4-4783-b2a5-18ce5d78331a","system_id":"levelo_inurba_marseille","lat":43.25088,"lon":5.39529,"is_reserved":false,"is_disabled":false,"rental_uris":{"android":"levelo://app?vid=7a00023f-56c4-4783-b2a5-18ce5d78331a","ios":"levelo://app?vid=7a00023f-56c4-4783-b2a5-18ce5d78331a"},"vehicle_type_id":"4","last_reported":1727557646,"current_range_meters":5600,"station_id":"ce4bhm12rcd13ifvqgkg","pricing_plan_id":"cebpf4jnsgd1na2vs0mg"},{"bike_id":"6fdf6514-7fa9-451c-9ebf-fd8cdae6cc0a","system_id":"levelo_inurba_marseille","lat":43.27837,"lon":5.3921,"is_reserved":false,"is_disabled":false,"rental_uris":{"android":"levelo://app?vid=6fdf6514-7fa9-451c-9ebf-fd8cdae6cc0a","ios":"levelo://app?vid=6fdf6514-7fa9-451c-9ebf-fd8cdae6cc0a"},"vehicle_type_id":"4","last_reported":1727557646,"current_range_meters":14800,"station_id":"ce4bhjp2rcd13ifvqga0","pricing_plan_id":"cebpf4jnsgd1na2vs0mg"},{"bike_id":"4189ce78-ba10-4b9f-926a-8ccc721e2613","system_id":"levelo_inurba_marseille","lat":43.27996,"lon":5.40009,"is_reserved":false,"is_disabled":false,"rental_uris":{"android":"levelo://app?vid=4189ce78-ba10-4b9f-926a-8ccc721e2613","ios":"levelo://app?vid=4189ce78-ba10-4b9f-926a-8ccc721e2613"},"vehicle_type_id":"4","last_reported":1727557646,"current_range_meters":38800,"station_id":"ce4bho92rcd13ifvqh4g","pricing_plan_id":"cebpf4jnsgd1na2vs0mg"},{"bike_id":"d95cafd2-6ec0-4b24-8abf-5f45e8563d38","system_id":"levelo_inurba_marseille","lat":43.26034,"lon":5.3755,"is_reserved":false,"is_disabled":false,"rental_uris":{"android":"levelo://app?vid=d95cafd2-6ec0-4b24-8abf-5f45e8563d38","ios":"levelo://app?vid=d95cafd2-6ec0-4b24-8abf-5f45e8563d38"},"vehicle_type_id":"4","last_reported":1727557646,"current_range_meters":36000,"station_id":"ce4bhgh2rcd13ifvqfa0","pricing_plan_id":"cebpf4jnsgd1na2vs0mg"},{"bike_id":"41520f05-81cc-425c-88bc-6a31e8b96652","system_id":"levelo_inurba_marseille","lat":43.31323,"lon":5.39695,"is_reserved":false,"is_disabled":false,"rental_uris":{"android":"levelo://app?vid=41520f05-81cc-425c-88bc-6a31e8b96652","ios":"levelo://app?vid=41520f05-81cc-425c-88bc-6a31e8b96652"},"vehicle_type_id":"4","last_reported":1727557646,"current_range_meters":33200,"station_id":"ce4bgvp2rcd13ifvqcu0","pricing_plan_id":"cebpf4jnsgd1na2vs0mg"},{"bike_id":"86b89f8f-9b5e-4240-b590-327a9ab59701","system_id":"levelo_inurba_marseille","lat":43.29034,"lon":5.38654,"is_reserved":false,"is_disabled":false,"rental_uris":{"android":"levelo://app?vid=86b89f8f-9b5e-4240-b590-327a9ab59701","ios":"levelo://app?vid=86b89f8f-9b5e-4240-b590-327a9ab59701"},"vehicle_type_id":"4","last_reported":1727557646,"current_range_meters":38000,"station_id":"ce4bh4p2rcd13ifvqe0g","pricing_plan_id":"cebpf4jnsgd1na2vs0mg"},{"bike_id":"416a46c8-7c17-471e-86be-aeeb51c4db5e","system_id":"levelo_inurba_marseille","lat":43.29037,"lon":5.3997,"is_reserved":false,"is_disabled":false,"rental_uris":{"android":"levelo://app?vid=416a46c8-7c17-471e-86be-aeeb51c4db5e","ios":"levelo://app?vid=416a46c8-7c17-471e-86be-aeeb51c4db5e"},"vehicle_type_id":"4","last_reported":1727557646,"current_range_meters":8000,"station_id":"ce4bh392rcd13ifvqdm0","pricing_plan_id":"cebpf4jnsgd1na2vs0mg"},{"bike_id":"5220e7ba-5183-450c-986e-1a09b217d618","system_id":"levelo_inurba_marseille","lat":43.28268,"lon":5.35073,"is_reserved":false,"is_disabled":false,"rental_uris":{"android":"levelo://app?vid=5220e7ba-5183-450c-986e-1a09b217d618","ios":"levelo://app?vid=5220e7ba-5183-450c-986e-1a09b217d618"},"vehicle_type_id":"4","last_reported":1727557646,"current_range_meters":4400,"station_id":"ce4bhbp2rcd13ifvqerg","pricing_plan_id":"cebpf4jnsgd1na2vs0mg"},{"bike_id":"3407da71-e9f5-4375-9956-506983640a2f","system_id":"levelo_inurba_marseille","lat":43.28986,"lon":5.37593,"is_reserved":false,"is_disabled":false,"rental_uris":{"android":"levelo://app?vid=3407da71-e9f5-4375-9956-506983640a2f","ios":"levelo://app?vid=3407da71-e9f5-4375-9956-506983640a2f"},"vehicle_type_id":"4","last_reported":1727557646,"current_range_meters":27600,"station_id":"","pricing_plan_id":"cebpf4jnsgd1na2vs0mg"},{"bike_id":"e2ec1377-333c-4f48-91f4-d041b1187c20","system_id":"levelo_inurba_marseille","lat":43.29029,"lon":5.38642,"is_reserved":false,"is_disabled":false,"rental_uris":{"android":"levelo://app?vid=e2ec1377-333c-4f48-91f4-d041b1187c20","ios":"levelo://app?vid=e2ec1377-333c-4f48-91f4-d041b1187c20"},"vehicle_type_id":"4","last_reported":1727557646,"current_range_meters":16800,"station_id":"ce4bh4p2rcd13ifvqe0g","pricing_plan_id":"cebpf4jnsgd1na2vs0mg"},{"bike_id":"90229d46-e6dc-4cb2-8d31-13c4ced060e1","system_id":"levelo_inurba_marseille","lat":43.29633,"lon":5.40595,"is_reserved":false,"is_disabled":false,"rental_uris":{"android":"levelo://app?vid=90229d46-e6dc-4cb2-8d31-13c4ced060e1","ios":"levelo://app?vid=90229d46-e6dc-4cb2-8d31-13c4ced060e1"},"vehicle_type_id":"4","last_reported":1727557646,"current_range_meters":34000,"station_id":"ce4bh0h2rcd13ifvqd60","pricing_plan_id":"cebpf4jnsgd1na2vs0mg"},{"bike_id":"50706d55-3aa6-40fe-9c0c-e224fd895e38","system_id":"levelo_inurba_marseille","lat":43.31369,"lon":5.38496,"is_reserved":false,"is_disabled":false,"rental_uris":{"android":"levelo://app?vid=50706d55-3aa6-40fe-9c0c-e224fd895e38","ios":"levelo://app?vid=50706d55-3aa6-40fe-9c0c-e224fd895e38"},"vehicle_type_id":"4","last_reported":1727557646,"current_range_meters":30800,"station_id":"ce4bgt92rcd13ifvqcf0","pricing_plan_id":"cebpf4jnsgd1na2vs0mg"},{"bike_id":"26326c90-bb63-484c-9875-ccc10d641a81","system_id":"levelo_inurba_marseille","lat":43.31219,"lon":5.36838,"is_reserved":false,"is_disabled":false,"rental_uris":{"android":"levelo://app?vid=26326c90-bb63-484c-9875-ccc10d641a81","ios":"levelo://app?vid=26326c90-bb63-484c-9875-ccc10d641a81"},"vehicle_type_id":"4","last_reported":1727557646,"current_range_meters":32800,"station_id":"ce4bgl92rcd13ifvqbq0","pricing_plan_id":"cebpf4jnsgd1na2vs0mg"},{"bike_id":"7363d669-645a-4bd6-bbf6-8d817ca7e68e","system_id":"levelo_inurba_marseille","lat":43.30433,"lon":5.38892,"is_reserved":false,"is_disabled":false,"rental_uris":{"android":"levelo://app?vid=7363d669-645a-4bd6-bbf6-8d817ca7e68e","ios":"levelo://app?vid=7363d669-645a-4bd6-bbf6-8d817ca7e68e"},"vehicle_type_id":"4","last_reported":1727557646,"current_range_meters":25200,"station_id":"ce4bgk12rcd13ifvqbi0","pricing_plan_id":"cebpf4jnsgd1na2vs0mg"},{"bike_id":"b8c4b76b-f240-4087-9540-99944d8c3a18","system_id":"levelo_inurba_marseille","lat":43.29253,"lon":5.4091,"is_reserved":false,"is_disabled":false,"rental_uris":{"android":"levelo://app?vid=b8c4b76b-f240-4087-9540-99944d8c3a18","ios":"levelo://app?vid=b8c4b76b-f240-4087-9540-99944d8c3a18"},"vehicle_type_id":"4","last_reported":1727557646,"current_range_meters":32800,"station_id":"ce4bh192rcd13ifvqdc0","pricing_plan_id":"cebpf4jnsgd1na2vs0mg"},{"bike_id":"f836ea55-0299-445a-9849-3ba719dd13c1","system_id":"levelo_inurba_marseille","lat":43.24813,"lon":5.37459,"is_reserved":false,"is_disabled":false,"rental_uris":{"android":"levelo://app?vid=f836ea55-0299-445a-9849-3ba719dd13c1","ios":"levelo://app?vid=f836ea55-0299-445a-9849-3ba719dd13c1"},"vehicle_type_id":"4","last_reported":1727557646,"current_range_meters":28400,"station_id":"ce4bhgh2rcd13ifvqfb0","pricing_plan_id":"cebpf4jnsgd1na2vs0mg"},{"bike_id":"ad2828b2-2852-44f7-a21b-241451c370b5","system_id":"levelo_inurba_marseille","lat":43.33011,"lon":5.39061,"is_reserved":false,"is_disabled":false,"rental_uris":{"android":"levelo://app?vid=ad2828b2-2852-44f7-a21b-241451c370b5","ios":"levelo://app?vid=ad2828b2-2852-44f7-a21b-241451c370b5"},"vehicle_type_id":"4","last_reported":1727557646,"current_range_meters":39200,"station_id":"ce4bhr92rcd13ifvqhrg","pricing_plan_id":"cebpf4jnsgd1na2vs0mg"},{"bike_id":"28704e94-6d32-447e-bf92-213dabd0e2e8","system_id":"levelo_inurba_marseille","lat":43.23187,"lon":5.39982,"is_reserved":false,"is_disabled":false,"rental_uris":{"android":"levelo://app?vid=28704e94-6d32-447e-bf92-213dabd0e2e8","ios":"levelo://app?vid=28704e94-6d32-447e-bf92-213dabd0e2e8"},"vehicle_type_id":"4","last_reported":1727557646,"current_range_meters":17200,"station_id":"ce4bhn12rcd13ifvqgqg","pricing_plan_id":"cebpf4jnsgd1na2vs0mg"},{"bike_id":"b530e230-ce7e-42f6-a909-0a6704b2fe4a","system_id":"levelo_inurba_marseille","lat":43.27424,"lon":5.39418,"is_reserved":false,"is_disabled":false,"rental_uris":{"android":"levelo://app?vid=b530e230-ce7e-42f6-a909-0a6704b2fe4a","ios":"levelo://app?vid=b530e230-ce7e-42f6-a909-0a6704b2fe4a"},"vehicle_type_id":"4","last_reported":1727557646,"current_range_meters":38800,"station_id":"ce4bhdp2rcd13ifvqf20","pricing_plan_id":"cebpf4jnsgd1na2vs0mg"},{"bike_id":"275b0a25-1a9f-498c-9202-be550b06c3de","system_id":"levelo_inurba_marseille","lat":43.32294,"lon":5.3828,"is_reserved":false,"is_disabled":false,"rental_uris":{"android":"levelo://app?vid=275b0a25-1a9f-498c-9202-be550b06c3de","ios":"levelo://app?vid=275b0a25-1a9f-498c-9202-be550b06c3de"},"vehicle_type_id":"4","last_reported":1727557646,"current_range_meters":39200,"station_id":"ce4bhr12rcd13ifvqhqg","pricing_plan_id":"cebpf4jnsgd1na2vs0mg"},{"bike_id":"589811c5-7952-408c-99c6-27831d825ec0","system_id":"levelo_inurba_marseille","lat":43.26205,"lon":5.3793,"is_reserved":false,"is_disabled":false,"rental_uris":{"android":"levelo://app?vid=589811c5-7952-408c-99c6-27831d825ec0","ios":"levelo://app?vid=589811c5-7952-408c-99c6-27831d825ec0"},"vehicle_type_id":"4","last_reported":1727557646,"current_range_meters":37600,"station_id":"ce4bhjp2rcd13ifvqg90","pricing_plan_id":"cebpf4jnsgd1na2vs0mg"},{"bike_id":"cb9bad39-690b-4d5c-b4b7-1c96e9f87e0c","system_id":"levelo_inurba_marseille","lat":43.25083,"lon":5.39516,"is_reserved":false,"is_disabled":false,"rental_uris":{"android":"levelo://app?vid=cb9bad39-690b-4d5c-b4b7-1c96e9f87e0c","ios":"levelo://app?vid=cb9bad39-690b-4d5c-b4b7-1c96e9f87e0c"},"vehicle_type_id":"4","last_reported":1727557646,"current_range_meters":39200,"station_id":"ce4bhm12rcd13ifvqgkg","pricing_plan_id":"cebpf4jnsgd1na2vs0mg"},{"bike_id":"e0448498-1923-4013-96e2-5aec4fc93af7","system_id":"levelo_inurba_marseille","lat":43.24804,"lon":5.37454,"is_reserved":false,"is_disabled":false,"rental_uris":{"android":"levelo://app?vid=e0448498-1923-4013-96e2-5aec4fc93af7","ios":"levelo://app?vid=e0448498-1923-4013-96e2-5aec4fc93af7"},"vehicle_type_id":"4","last_reported":1727557646,"current_range_meters":37600,"station_id":"ce4bhgh2rcd13ifvqfb0","pricing_plan_id":"cebpf4jnsgd1na2vs0mg"},{"bike_id":"0c3f0369-7cdf-4cba-a0db-09435ab8c8da","system_id":"levelo_inurba_marseille","lat":43.23192,"lon":5.39999,"is_reserved":false,"is_disabled":false,"rental_uris":{"android":"levelo://app?vid=0c3f0369-7cdf-4cba-a0db-09435ab8c8da","ios":"levelo://app?vid=0c3f0369-7cdf-4cba-a0db-09435ab8c8da"},"vehicle_type_id":"4","last_reported":1727557646,"current_range_meters":28800,"station_id":"ce4bhn12rcd13ifvqgqg","pricing_plan_id":"cebpf4jnsgd1na2vs0mg"},{"bike_id":"67086ea4-1554-4a6b-b41f-670f22fa3e6e","system_id":"levelo_inurba_marseille","lat":43.31076,"lon":5.38356,"is_reserved":false,"is_disabled":false,"rental_uris":{"android":"levelo://app?vid=67086ea4-1554-4a6b-b41f-670f22fa3e6e","ios":"levelo://app?vid=67086ea4-1554-4a6b-b41f-670f22fa3e6e"},"vehicle_type_id":"4","last_reported":1727557646,"current_range_meters":20400,"station_id":"ce4bgv92rcd13ifvqcr0","pricing_plan_id":"cebpf4jnsgd1na2vs0mg"},{"bike_id":"77643dcd-0518-4c6a-8cec-2c2c74faa607","system_id":"levelo_inurba_marseille","lat":43.30889,"lon":5.39625,"is_reserved":false,"is_disabled":false,"rental_uris":{"android":"levelo://app?vid=77643dcd-0518-4c6a-8cec-2c2c74faa607","ios":"levelo://app?vid=77643dcd-0518-4c6a-8cec-2c2c74faa607"},"vehicle_type_id":"4","last_reported":1727557646,"current_range_meters":9600,"station_id":"ce4bh012rcd13ifvqcv0","pricing_plan_id":"cebpf4jnsgd1na2vs0mg"},{"bike_id":"c639a8a4-a800-40a8-b532-6dd8e17962be","system_id":"levelo_inurba_marseille","lat":43.29531,"lon":5.39394,"is_reserved":false,"is_disabled":false,"rental_uris":{"android":"levelo://app?vid=c639a8a4-a800-40a8-b532-6dd8e17962be","ios":"levelo://app?vid=c639a8a4-a800-40a8-b532-6dd8e17962be"},"vehicle_type_id":"4","last_reported":1727557646,"current_range_meters":6000,"station_id":"ce4bh292rcd13ifvqdf0","pricing_plan_id":"cebpf4jnsgd1na2vs0mg"},{"bike_id":"f5b41eb4-be31-4c55-a4e4-e7132075784f","system_id":"levelo_inurba_marseille","lat":43.29274,"lon":5.40127,"is_reserved":false,"is_disabled":false,"rental_uris":{"android":"levelo://app?vid=f5b41eb4-be31-4c55-a4e4-e7132075784f","ios":"levelo://app?vid=f5b41eb4-be31-4c55-a4e4-e7132075784f"},"vehicle_type_id":"4","last_reported":1727557646,"current_range_meters":38800,"station_id":"ce4bh312rcd13ifvqdk0","pricing_plan_id":"cebpf4jnsgd1na2vs0mg"},{"bike_id":"2ba60df9-b1a6-4107-b93b-9feb97ba85f8","system_id":"levelo_inurba_marseille","lat":43.25496,"lon":5.37647,"is_reserved":false,"is_disabled":false,"rental_uris":{"android":"levelo://app?vid=2ba60df9-b1a6-4107-b93b-9feb97ba85f8","ios":"levelo://app?vid=2ba60df9-b1a6-4107-b93b-9feb97ba85f8"},"vehicle_type_id":"4","last_reported":1727557646,"current_range_meters":38800,"station_id":"ce4bhh12rcd13ifvqff0","pricing_plan_id":"cebpf4jnsgd1na2vs0mg"},{"bike_id":"578ce527-fa82-4bc5-9233-45e69a86eb22","system_id":"levelo_inurba_marseille","lat":43.31997,"lon":5.38146,"is_reserved":false,"is_disabled":false,"rental_uris":{"android":"levelo://app?vid=578ce527-fa82-4bc5-9233-45e69a86eb22","ios":"levelo://app?vid=578ce527-fa82-4bc5-9233-45e69a86eb22"},"vehicle_type_id":"4","last_reported":1727557646,"current_range_meters":38800,"station_id":"ce4bhr12rcd13ifvqhpg","pricing_plan_id":"cebpf4jnsgd1na2vs0mg"},{"bike_id":"f4207c08-499b-4911-81a5-51ce1436d82a","system_id":"levelo_inurba_marseille","lat":43.27688,"lon":5.38891,"is_reserved":false,"is_disabled":false,"rental_uris":{"android":"levelo://app?vid=f4207c08-499b-4911-81a5-51ce1436d82a","ios":"levelo://app?vid=f4207c08-499b-4911-81a5-51ce1436d82a"},"vehicle_type_id":"4","last_reported":1727557646,"current_range_meters":11200,"station_id":"ce4bhi12rcd13ifvqfo0","pricing_plan_id":"cebpf4jnsgd1na2vs0mg"},{"bike_id":"d8e32f1c-4c32-4777-922d-4d90b15b71c7","system_id":"levelo_inurba_marseille","lat":43.30863,"lon":5.3685,"is_reserved":false,"is_disabled":false,"rental_uris":{"android":"levelo://app?vid=d8e32f1c-4c32-4777-922d-4d90b15b71c7","ios":"levelo://app?vid=d8e32f1c-4c32-4777-922d-4d90b15b71c7"},"vehicle_type_id":"4","last_reported":1727557646,"current_range_meters":8400,"station_id":"ce4bgn92rcd13ifvqbvg","pricing_plan_id":"cebpf4jnsgd1na2vs0mg"},{"bike_id":"b470945e-f45c-4291-ac95-d7061c9aab44","system_id":"levelo_inurba_marseille","lat":43.2737,"lon":5.41219,"is_reserved":false,"is_disabled":false,"rental_uris":{"android":"levelo://app?vid=b470945e-f45c-4291-ac95-d7061c9aab44","ios":"levelo://app?vid=b470945e-f45c-4291-ac95-d7061c9aab44"},"vehicle_type_id":"4","last_reported":1727557646,"current_range_meters":26800,"station_id":"","pricing_plan_id":"cebpf4jnsgd1na2vs0mg"},{"bike_id":"9d902e8b-725f-4e44-b2ba-48863c79d42a","system_id":"levelo_inurba_marseille","lat":43.28941,"lon":5.36632,"is_reserved":false,"is_disabled":false,"rental_uris":{"android":"levelo://app?vid=9d902e8b-725f-4e44-b2ba-48863c79d42a","ios":"levelo://app?vid=9d902e8b-725f-4e44-b2ba-48863c79d42a"},"vehicle_type_id":"4","last_reported":1727557646,"current_range_meters":26000,"station_id":"ce4bhap2rcd13ifvqek0","pricing_plan_id":"cebpf4jnsgd1na2vs0mg"},{"bike_id":"1984cd8c-9023-4af1-9890-9bcafab5337a","system_id":"levelo_inurba_marseille","lat":43.30946,"lon":5.39023,"is_reserved":false,"is_disabled":false,"rental_uris":{"android":"levelo://app?vid=1984cd8c-9023-4af1-9890-9bcafab5337a","ios":"levelo://app?vid=1984cd8c-9023-4af1-9890-9bcafab5337a"},"vehicle_type_id":"4","last_reported":1727557646,"current_range_meters":3600,"station_id":"ce4bgup2rcd13ifvqco0","pricing_plan_id":"cebpf4jnsgd1na2vs0mg"},{"bike_id":"e4361fa2-90d9-45ff-9d8a-e7b112f4e011","system_id":"levelo_inurba_marseille","lat":43.28513,"lon":5.39113,"is_reserved":false,"is_disabled":false,"rental_uris":{"android":"levelo://app?vid=e4361fa2-90d9-45ff-9d8a-e7b112f4e011","ios":"levelo://app?vid=e4361fa2-90d9-45ff-9d8a-e7b112f4e011"},"vehicle_type_id":"4","last_reported":1727557646,"current_range_meters":30800,"station_id":"ce4bh3p2rcd13ifvqdp0","pricing_plan_id":"cebpf4jnsgd1na2vs0mg"},{"bike_id":"65f828c7-d12b-47c9-87f8-27b2e7121317","system_id":"levelo_inurba_marseille","lat":43.249973,"lon":5.389302,"is_reserved":false,"is_disabled":false,"rental_uris":{"android":"levelo://app?vid=65f828c7-d12b-47c9-87f8-27b2e7121317","ios":"levelo://app?vid=65f828c7-d12b-47c9-87f8-27b2e7121317"},"vehicle_type_id":"4","last_reported":1727557646,"current_range_meters":12000,"station_id":"ce4bhgp2rcd13ifvqfd0","pricing_plan_id":"cebpf4jnsgd1na2vs0mg"},{"bike_id":"e857968e-f56b-4d87-9c77-58233f291fc5","system_id":"levelo_inurba_marseille","lat":43.28703,"lon":5.37388,"is_reserved":false,"is_disabled":false,"rental_uris":{"android":"levelo://app?vid=e857968e-f56b-4d87-9c77-58233f291fc5","ios":"levelo://app?vid=e857968e-f56b-4d87-9c77-58233f291fc5"},"vehicle_type_id":"4","last_reported":1727557646,"current_range_meters":5600,"station_id":"ce4bh3p2rcd13ifvqdq0","pricing_plan_id":"cebpf4jnsgd1na2vs0mg"},{"bike_id":"6eff8d2d-61fa-4715-9388-b30a052d3e98","system_id":"levelo_inurba_marseille","lat":43.337444,"lon":5.374475,"is_reserved":false,"is_disabled":false,"rental_uris":{"android":"levelo://app?vid=6eff8d2d-61fa-4715-9388-b30a052d3e98","ios":"levelo://app?vid=6eff8d2d-61fa-4715-9388-b30a052d3e98"},"vehicle_type_id":"4","last_reported":1727557646,"current_range_meters":31200,"station_id":"","pricing_plan_id":"cebpf4jnsgd1na2vs0mg"},{"bike_id":"3fbe2bcb-7d20-4523-aec1-1148610f9d0a","system_id":"levelo_inurba_marseille","lat":43.28469,"lon":5.35877,"is_reserved":false,"is_disabled":false,"rental_uris":{"android":"levelo://app?vid=3fbe2bcb-7d20-4523-aec1-1148610f9d0a","ios":"levelo://app?vid=3fbe2bcb-7d20-4523-aec1-1148610f9d0a"},"vehicle_type_id":"4","last_reported":1727557646,"current_range_meters":18000,"station_id":"ce4bhah2rcd13ifvqei0","pricing_plan_id":"cebpf4jnsgd1na2vs0mg"},{"bike_id":"0a16c92a-fb57-4a29-9d04-166bff8513a2","system_id":"levelo_inurba_marseille","lat":43.29533,"lon":5.39044,"is_reserved":false,"is_disabled":false,"rental_uris":{"android":"levelo://app?vid=0a16c92a-fb57-4a29-9d04-166bff8513a2","ios":"levelo://app?vid=0a16c92a-fb57-4a29-9d04-166bff8513a2"},"vehicle_type_id":"4","last_reported":1727557646,"current_range_meters":22800,"station_id":"ce4bh3p2rcd13ifvqdp0","pricing_plan_id":"cebpf4jnsgd1na2vs0mg"},{"bike_id":"686b1310-0ea9-459e-9370-03e550210a94","system_id":"levelo_inurba_marseille","lat":43.310693,"lon":5.38355,"is_reserved":false,"is_disabled":false,"rental_uris":{"android":"levelo://app?vid=686b1310-0ea9-459e-9370-03e550210a94","ios":"levelo://app?vid=686b1310-0ea9-459e-9370-03e550210a94"},"vehicle_type_id":"4","last_reported":1727557646,"current_range_meters":25200,"station_id":"ce4bgv92rcd13ifvqcr0","pricing_plan_id":"cebpf4jnsgd1na2vs0mg"},{"bike_id":"49103c36-092f-43a6-a665-96ac4218adb8","system_id":"levelo_inurba_marseille","lat":43.32295,"lon":5.38262,"is_reserved":false,"is_disabled":false,"rental_uris":{"android":"levelo://app?vid=49103c36-092f-43a6-a665-96ac4218adb8","ios":"levelo://app?vid=49103c36-092f-43a6-a665-96ac4218adb8"},"vehicle_type_id":"4","last_reported":1727557646,"current_range_meters":39200,"station_id":"ce4bhr12rcd13ifvqhqg","pricing_plan_id":"cebpf4jnsgd1na2vs0mg"},{"bike_id":"64d9af74-931d-4678-a8f3-1e8e13b457ef","system_id":"levelo_inurba_marseille","lat":43.29031,"lon":5.38647,"is_reserved":false,"is_disabled":false,"rental_uris":{"android":"levelo://app?vid=64d9af74-931d-4678-a8f3-1e8e13b457ef","ios":"levelo://app?vid=64d9af74-931d-4678-a8f3-1e8e13b457ef"},"vehicle_type_id":"4","last_reported":1727557646,"current_range_meters":38800,"station_id":"ce4bh4p2rcd13ifvqe0g","pricing_plan_id":"cebpf4jnsgd1na2vs0mg"},{"bike_id":"2a00fd59-4c54-4575-87c9-585c6b45dd35","system_id":"levelo_inurba_marseille","lat":43.28973,"lon":5.37821,"is_reserved":false,"is_disabled":false,"rental_uris":{"android":"levelo://app?vid=2a00fd59-4c54-4575-87c9-585c6b45dd35","ios":"levelo://app?vid=2a00fd59-4c54-4575-87c9-585c6b45dd35"},"vehicle_type_id":"4","last_reported":1727557646,"current_range_meters":6800,"station_id":"ce4bh9p2rcd13ifvqed0","pricing_plan_id":"cebpf4jnsgd1na2vs0mg"},{"bike_id":"05525aae-6c1b-4335-bec9-9ec70953a1c6","system_id":"levelo_inurba_marseille","lat":43.28563,"lon":5.39489,"is_reserved":false,"is_disabled":false,"rental_uris":{"android":"levelo://app?vid=05525aae-6c1b-4335-bec9-9ec70953a1c6","ios":"levelo://app?vid=05525aae-6c1b-4335-bec9-9ec70953a1c6"},"vehicle_type_id":"4","last_reported":1727557646,"current_range_meters":38800,"station_id":"ce4bh292rcd13ifvqdg0","pricing_plan_id":"cebpf4jnsgd1na2vs0mg"},{"bike_id":"4858ffcc-8bdf-4ec0-bbb2-653ec680d179","system_id":"levelo_inurba_marseille","lat":43.29531,"lon":5.38543,"is_reserved":false,"is_disabled":false,"rental_uris":{"android":"levelo://app?vid=4858ffcc-8bdf-4ec0-bbb2-653ec680d179","ios":"levelo://app?vid=4858ffcc-8bdf-4ec0-bbb2-653ec680d179"},"vehicle_type_id":"4","last_reported":1727557646,"current_range_meters":20800,"station_id":"ce4bgih2rcd13ifvqba0","pricing_plan_id":"cebpf4jnsgd1na2vs0mg"},{"bike_id":"d37671b5-4898-4d42-a37c-382bcc2f5299","system_id":"levelo_inurba_marseille","lat":43.29846,"lon":5.36276,"is_reserved":false,"is_disabled":false,"rental_uris":{"android":"levelo://app?vid=d37671b5-4898-4d42-a37c-382bcc2f5299","ios":"levelo://app?vid=d37671b5-4898-4d42-a37c-382bcc2f5299"},"vehicle_type_id":"4","last_reported":1727557646,"current_range_meters":16800,"station_id":"ce4bgpp2rcd13ifvqc3g","pricing_plan_id":"cebpf4jnsgd1na2vs0mg"},{"bike_id":"6f0f9c32-de70-4574-9b89-cca29ab0554e","system_id":"levelo_inurba_marseille","lat":43.337444,"lon":5.374475,"is_reserved":false,"is_disabled":false,"rental_uris":{"android":"levelo://app?vid=6f0f9c32-de70-4574-9b89-cca29ab0554e","ios":"levelo://app?vid=6f0f9c32-de70-4574-9b89-cca29ab0554e"},"vehicle_type_id":"4","last_reported":1727557646,"current_range_meters":28800,"station_id":"","pricing_plan_id":"cebpf4jnsgd1na2vs0mg"},{"bike_id":"351dd324-efb5-4643-8cf5-b78df2f3e82c","system_id":"levelo_inurba_marseille","lat":43.29862,"lon":5.39734,"is_reserved":false,"is_disabled":false,"rental_uris":{"android":"levelo://app?vid=351dd324-efb5-4643-8cf5-b78df2f3e82c","ios":"levelo://app?vid=351dd324-efb5-4643-8cf5-b78df2f3e82c"},"vehicle_type_id":"4","last_reported":1727557646,"current_range_meters":26000,"station_id":"ce4bh0h2rcd13ifvqd50","pricing_plan_id":"cebpf4jnsgd1na2vs0mg"},{"bike_id":"44839918-e841-4578-a34d-4d8014b09bc8","system_id":"levelo_inurba_marseille","lat":43.31225,"lon":5.36856,"is_reserved":false,"is_disabled":false,"rental_uris":{"android":"levelo://app?vid=44839918-e841-4578-a34d-4d8014b09bc8","ios":"levelo://app?vid=44839918-e841-4578-a34d-4d8014b09bc8"},"vehicle_type_id":"4","last_reported":1727557646,"current_range_meters":38800,"station_id":"ce4bgl92rcd13ifvqbq0","pricing_plan_id":"cebpf4jnsgd1na2vs0mg"},{"bike_id":"b9897cf6-b27e-4987-8a36-ce737823aa7b","system_id":"levelo_inurba_marseille","lat":43.32295,"lon":5.38261,"is_reserved":false,"is_disabled":false,"rental_uris":{"android":"levelo://app?vid=b9897cf6-b27e-4987-8a36-ce737823aa7b","ios":"levelo://app?vid=b9897cf6-b27e-4987-8a36-ce737823aa7b"},"vehicle_type_id":"4","last_reported":1727557646,"current_range_meters":38800,"station_id":"ce4bhr12rcd13ifvqhqg","pricing_plan_id":"cebpf4jnsgd1na2vs0mg"},{"bike_id":"0687a646-be72-47a3-8907-22e0afb02a46","system_id":"levelo_inurba_marseille","lat":43.23962,"lon":5.36629,"is_reserved":false,"is_disabled":false,"rental_uris":{"android":"levelo://app?vid=0687a646-be72-47a3-8907-22e0afb02a46","ios":"levelo://app?vid=0687a646-be72-47a3-8907-22e0afb02a46"},"vehicle_type_id":"4","last_reported":1727557646,"current_range_meters":34000,"station_id":"ce4bhi12rcd13ifvqfp0","pricing_plan_id":"cebpf4jnsgd1na2vs0mg"},{"bike_id":"7b761d25-68c3-443b-a550-60426f96ce4f","system_id":"levelo_inurba_marseille","lat":43.30643,"lon":5.40095,"is_reserved":false,"is_disabled":false,"rental_uris":{"android":"levelo://app?vid=7b761d25-68c3-443b-a550-60426f96ce4f","ios":"levelo://app?vid=7b761d25-68c3-443b-a550-60426f96ce4f"},"vehicle_type_id":"4","last_reported":1727557646,"current_range_meters":30400,"station_id":"ce4bh112rcd13ifvqda0","pricing_plan_id":"cebpf4jnsgd1na2vs0mg"},{"bike_id":"6b43a1b3-22e4-4bfe-ac70-60b9453d20c9","system_id":"levelo_inurba_marseille","lat":43.32336,"lon":5.40618,"is_reserved":false,"is_disabled":false,"rental_uris":{"android":"levelo://app?vid=6b43a1b3-22e4-4bfe-ac70-60b9453d20c9","ios":"levelo://app?vid=6b43a1b3-22e4-4bfe-ac70-60b9453d20c9"},"vehicle_type_id":"4","last_reported":1727557646,"current_range_meters":10800,"station_id":"ce4bhq92rcd13ifvqhjg","pricing_plan_id":"cebpf4jnsgd1na2vs0mg"},{"bike_id":"a056ca3e-bfa1-4f94-8d7b-b557439f640b","system_id":"levelo_inurba_marseille","lat":43.29305,"lon":5.37182,"is_reserved":false,"is_disabled":false,"rental_uris":{"android":"levelo://app?vid=a056ca3e-bfa1-4f94-8d7b-b557439f640b","ios":"levelo://app?vid=a056ca3e-bfa1-4f94-8d7b-b557439f640b"},"vehicle_type_id":"4","last_reported":1727557646,"current_range_meters":11600,"station_id":"ce4bgh92rcd13ifvqb40","pricing_plan_id":"cebpf4jnsgd1na2vs0mg"},{"bike_id":"90c05d40-f5db-4a12-95b3-f8d41ae2e51b","system_id":"levelo_inurba_marseille","lat":43.32377,"lon":5.3892,"is_reserved":false,"is_disabled":false,"rental_uris":{"android":"levelo://app?vid=90c05d40-f5db-4a12-95b3-f8d41ae2e51b","ios":"levelo://app?vid=90c05d40-f5db-4a12-95b3-f8d41ae2e51b"},"vehicle_type_id":"4","last_reported":1727557646,"current_range_meters":33200,"station_id":"ce4bhqp2rcd13ifvqhog","pricing_plan_id":"cebpf4jnsgd1na2vs0mg"},{"bike_id":"48a82ab2-2558-44a1-bd08-532a0984de4b","system_id":"levelo_inurba_marseille","lat":43.31325,"lon":5.39689,"is_reserved":false,"is_disabled":false,"rental_uris":{"android":"levelo://app?vid=48a82ab2-2558-44a1-bd08-532a0984de4b","ios":"levelo://app?vid=48a82ab2-2558-44a1-bd08-532a0984de4b"},"vehicle_type_id":"4","last_reported":1727557646,"current_range_meters":17600,"station_id":"ce4bgvp2rcd13ifvqcu0","pricing_plan_id":"cebpf4jnsgd1na2vs0mg"},{"bike_id":"1564f99c-0180-4a3a-a16e-cfa26d9b65ce","system_id":"levelo_inurba_marseille","lat":43.29887,"lon":5.38913,"is_reserved":false,"is_disabled":false,"rental_uris":{"android":"levelo://app?vid=1564f99c-0180-4a3a-a16e-cfa26d9b65ce","ios":"levelo://app?vid=1564f99c-0180-4a3a-a16e-cfa26d9b65ce"},"vehicle_type_id":"4","last_reported":1727557646,"current_range_meters":36400,"station_id":"ce4bh392rcd13ifvqdl0","pricing_plan_id":"cebpf4jnsgd1na2vs0mg"},{"bike_id":"3797acc7-3cf0-4191-9f1f-fda59d6f7639","system_id":"levelo_inurba_marseille","lat":43.29452,"lon":5.38656,"is_reserved":false,"is_disabled":false,"rental_uris":{"android":"levelo://app?vid=3797acc7-3cf0-4191-9f1f-fda59d6f7639","ios":"levelo://app?vid=3797acc7-3cf0-4191-9f1f-fda59d6f7639"},"vehicle_type_id":"4","last_reported":1727557646,"current_range_meters":16000,"station_id":"ce4bh2h2rcd13ifvqdh0","pricing_plan_id":"cebpf4jnsgd1na2vs0mg"},{"bike_id":"37d3ea42-2eed-4acd-8b22-33327918175f","system_id":"levelo_inurba_marseille","lat":43.2781,"lon":5.40702,"is_reserved":false,"is_disabled":false,"rental_uris":{"android":"levelo://app?vid=37d3ea42-2eed-4acd-8b22-33327918175f","ios":"levelo://app?vid=37d3ea42-2eed-4acd-8b22-33327918175f"},"vehicle_type_id":"4","last_reported":1727557646,"current_range_meters":38800,"station_id":"ce4bhnh2rcd13ifvqgtg","pricing_plan_id":"cebpf4jnsgd1na2vs0mg"},{"bike_id":"ee4b8fca-631f-4ede-a09e-e9ab5660ce8e","system_id":"levelo_inurba_marseille","lat":43.30888,"lon":5.39641,"is_reserved":false,"is_disabled":false,"rental_uris":{"android":"levelo://app?vid=ee4b8fca-631f-4ede-a09e-e9ab5660ce8e","ios":"levelo://app?vid=ee4b8fca-631f-4ede-a09e-e9ab5660ce8e"},"vehicle_type_id":"4","last_reported":1727557646,"current_range_meters":38800,"station_id":"ce4bh012rcd13ifvqcv0","pricing_plan_id":"cebpf4jnsgd1na2vs0mg"},{"bike_id":"3d29a932-25be-491a-a8ef-7d7495ac3df9","system_id":"levelo_inurba_marseille","lat":43.29636,"lon":5.40596,"is_reserved":false,"is_disabled":false,"rental_uris":{"android":"levelo://app?vid=3d29a932-25be-491a-a8ef-7d7495ac3df9","ios":"levelo://app?vid=3d29a932-25be-491a-a8ef-7d7495ac3df9"},"vehicle_type_id":"4","last_reported":1727557646,"current_range_meters":38800,"station_id":"ce4bh0h2rcd13ifvqd60","pricing_plan_id":"cebpf4jnsgd1na2vs0mg"},{"bike_id":"af909792-e527-4099-add2-079ba8056cd1","system_id":"levelo_inurba_marseille","lat":43.30954,"lon":5.39044,"is_reserved":false,"is_disabled":false,"rental_uris":{"android":"levelo://app?vid=af909792-e527-4099-add2-079ba8056cd1","ios":"levelo://app?vid=af909792-e527-4099-add2-079ba8056cd1"},"vehicle_type_id":"4","last_reported":1727557646,"current_range_meters":20400,"station_id":"ce4bgup2rcd13ifvqco0","pricing_plan_id":"cebpf4jnsgd1na2vs0mg"},{"bike_id":"bc2c241a-a5bc-4b91-8a1f-15557bc35b2c","system_id":"levelo_inurba_marseille","lat":43.31177,"lon":5.38718,"is_reserved":false,"is_disabled":false,"rental_uris":{"android":"levelo://app?vid=bc2c241a-a5bc-4b91-8a1f-15557bc35b2c","ios":"levelo://app?vid=bc2c241a-a5bc-4b91-8a1f-15557bc35b2c"},"vehicle_type_id":"4","last_reported":1727557646,"current_range_meters":15200,"station_id":"ce4bgv12rcd13ifvqcp0","pricing_plan_id":"cebpf4jnsgd1na2vs0mg"},{"bike_id":"8f8dbdbf-cd41-48d3-8068-7fe58722ae8d","system_id":"levelo_inurba_marseille","lat":43.25494,"lon":5.37652,"is_reserved":false,"is_disabled":false,"rental_uris":{"android":"levelo://app?vid=8f8dbdbf-cd41-48d3-8068-7fe58722ae8d","ios":"levelo://app?vid=8f8dbdbf-cd41-48d3-8068-7fe58722ae8d"},"vehicle_type_id":"4","last_reported":1727557646,"current_range_meters":38800,"station_id":"ce4bhh12rcd13ifvqff0","pricing_plan_id":"cebpf4jnsgd1na2vs0mg"},{"bike_id":"a5a150f6-b2ee-4d41-b02c-c5259f7e4d0b","system_id":"levelo_inurba_marseille","lat":43.2603,"lon":5.37551,"is_reserved":false,"is_disabled":false,"rental_uris":{"android":"levelo://app?vid=a5a150f6-b2ee-4d41-b02c-c5259f7e4d0b","ios":"levelo://app?vid=a5a150f6-b2ee-4d41-b02c-c5259f7e4d0b"},"vehicle_type_id":"4","last_reported":1727557646,"current_range_meters":38800,"station_id":"ce4bhgh2rcd13ifvqfa0","pricing_plan_id":"cebpf4jnsgd1na2vs0mg"},{"bike_id":"3357c55b-6f49-4ceb-ad5b-5378b86c00e0","system_id":"levelo_inurba_marseille","lat":43.2684,"lon":5.41107,"is_reserved":false,"is_disabled":false,"rental_uris":{"android":"levelo://app?vid=3357c55b-6f49-4ceb-ad5b-5378b86c00e0","ios":"levelo://app?vid=3357c55b-6f49-4ceb-ad5b-5378b86c00e0"},"vehicle_type_id":"4","last_reported":1727557646,"current_range_meters":20400,"station_id":"","pricing_plan_id":"cebpf4jnsgd1na2vs0mg"},{"bike_id":"0283569b-2ca2-4600-ae79-d242da60748b","system_id":"levelo_inurba_marseille","lat":43.25581,"lon":5.38234,"is_reserved":false,"is_disabled":false,"rental_uris":{"android":"levelo://app?vid=0283569b-2ca2-4600-ae79-d242da60748b","ios":"levelo://app?vid=0283569b-2ca2-4600-ae79-d242da60748b"},"vehicle_type_id":"4","last_reported":1727557646,"current_range_meters":5600,"station_id":"ce4bhih2rcd13ifvqfs0","pricing_plan_id":"cebpf4jnsgd1na2vs0mg"},{"bike_id":"0bd3aeea-82cb-4f0a-a1f2-0ce638de257d","system_id":"levelo_inurba_marseille","lat":43.27563,"lon":5.38421,"is_reserved":false,"is_disabled":false,"rental_uris":{"android":"levelo://app?vid=0bd3aeea-82cb-4f0a-a1f2-0ce638de257d","ios":"levelo://app?vid=0bd3aeea-82cb-4f0a-a1f2-0ce638de257d"},"vehicle_type_id":"4","last_reported":1727557646,"current_range_meters":33200,"station_id":"ce4bhh92rcd13ifvqfi0","pricing_plan_id":"cebpf4jnsgd1na2vs0mg"},{"bike_id":"67bc7233-8ceb-44ef-854a-9f21dd25b18b","system_id":"levelo_inurba_marseille","lat":43.28718,"lon":5.36084,"is_reserved":false,"is_disabled":false,"rental_uris":{"android":"levelo://app?vid=67bc7233-8ceb-44ef-854a-9f21dd25b18b","ios":"levelo://app?vid=67bc7233-8ceb-44ef-854a-9f21dd25b18b"},"vehicle_type_id":"4","last_reported":1727557646,"current_range_meters":37600,"station_id":"cki0cbj6b192h4jlfktg","pricing_plan_id":"cebpf4jnsgd1na2vs0mg"},