{"last_updated":1742890402,"ttl":60,"version":"2.2","data":{"bikes":[{"bike_id":"b765753e-a815-443b-a36c-053ca684f888","system_id":"levelo_inurba_marseille","lat":43.24654,"lon":5.38892,"is_reserved":false,"is_disabled":false,"rental_uris":{"android":"levelo://app?vid=b765753e-a815-443b-a36c-053ca684f888","ios":"levelo://app?vid=b765753e-a815-443b-a36c-053ca684f888"},"vehicle_type_id":"4","last_reported":1742890402,"current_range_meters":2800,"station_id":"ce4bhg12rcd13ifvqf60","pricing_plan_id":"cebpf4jnsgd1na2vs0mg"},{"bike_id":"279a7fff-aa15-466b-b430-cfcd66fc1592","system_id":"levelo_inurba_marseille","lat":43.28075,"lon":5.39664,"is_reserved":false,"is_disabled":false,"rental_uris":{"android":"levelo://app?vid=279a7fff-aa15-466b-b430-cfcd66fc1592","ios":"levelo://app?vid=279a7fff-aa15-466b-b430-cfcd66fc1592"},"vehicle_type_id":"4","last_reported":1742890402,"current_range_meters":2800,"station_id":"ce4bho12rcd13ifvqh2g","pricing_plan_id":"cebpf4jnsgd1na2vs0mg"},{"bike_id":"5521f4bf-5dc6-4e03-97d0-da89ae4f43d9","system_id":"levelo_inurba_marseille","lat":43.27619,"lon":5.36128,"is_reserved":false,"is_disabled":false,"rental_uris":{"android":"levelo://app?vid=5521f4bf-5dc6-4e03-97d0-da89ae4f43d9","ios":"levelo://app?vid=5521f4bf-5dc6-4e03-97d0-da89ae4f43d9"},"vehicle_type_id":"4","last_reported":1742890402,"current_range_meters":2800,"station_id":"ce4bgj92rcd13ifvqbe0","pricing_plan_id":"cebpf4jnsgd1na2vs0mg"},{"bike_id":"1b7c5e4e-130d-4e75-8db2-feee0d51fa46","system_id":"levelo_inurba_marseille","lat":43.24176,"lon":5.39716,"is_reserved":false,"is_disabled":false,"rental_uris":{"android":"levelo://app?vid=1b7c5e4e-130d-4e75-8db2-feee0d51fa46","ios":"levelo://app?vid=1b7c5e4e-130d-4e75-8db2-feee0d51fa46"},"vehicle_type_id":"4","last_reported":1742890402,"current_range_meters":3200,"station_id":"ce4bhn12rcd13ifvqgpg","pricing_plan_id":"cebpf4jnsgd1na2vs0mg"},{"bike_id":"5a3ae3d7-3da6-40a0-a6b1-47b5e975e886","system_id":"levelo_inurba_marseille","lat":43.30948,"lon":5.39029,"is_reserved":false,"is_disabled":false,"rental_uris":{"android":"levelo://app?vid=5a3ae3d7-3da6-40a0-a6b1-47b5e975e886","ios":"levelo://app?vid=5a3ae3d7-3da6-40a0-a6b1-47b5e975e886"},"vehicle_type_id":"4","last_reported":1742890402,"current_range_meters":3200,"station_id":"ce4bgup2rcd13ifvqco0","pricing_plan_id":"cebpf4jnsgd1na2vs0mg"},{"bike_id":"38c86b9d-9dd3-4ede-a2a3-f44b312eecca","system_id":"levelo_inurba_marseille","lat":43.31217,"lon":5.36854,"is_reserved":false,"is_disabled":false,"rental_uris":{"android":"levelo://app?vid=38c86b9d-9dd3-4ede-a2a3-f44b312eecca","ios":"levelo://app?vid=38c86b9d-9dd3-4ede-a2a3-f44b312eecca"},"vehicle_type_id":"4","last_reported":1742890402,"current_range_meters":3200,"station_id":"ce4bgl92rcd13ifvqbq0","pricing_plan_id":"cebpf4jnsgd1na2vs0mg"},{"bike_id":"732a627f-01b2-4ae6-a8e5-331bcbff3b4f","system_id":"levelo_inurba_marseille","lat":43.25113,"lon":5.40322,"is_reserved":false,"is_disabled":false,"rental_uris":{"android":"levelo://app?vid=732a627f-01b2-4ae6-a8e5-331bcbff3b4f","ios":"levelo://app?vid=732a627f-01b2-4ae6-a8e5-331bcbff3b4f"},"vehicle_type_id":"4","last_reported":1742890402,"current_range_meters":3200,"station_id":"","pricing_plan_id":"cebpf4jnsgd1na2vs0mg"},{"bike_id":"c36cefb3-0db7-45d8-b171-a7dea51fd330","system_id":"levelo_inurba_marseille","lat":43.25727,"lon":5.41103,"is_reserved":false,"is_disabled":false,"rental_uris":{"android":"levelo://app?vid=c36cefb3-0db7-45d8-b171-a7dea51fd330","ios":"levelo://app?vid=c36cefb3-0db7-45d8-b171-a7dea51fd330"},"vehicle_type_id":"4","last_reported":1742890402,"current_range_meters":3600,"station_id":"ce4bhkp2rcd13ifvqgd0","pricing_plan_id":"cebpf4jnsgd1na2vs0mg"},{"bike_id":"eebc2e49-b372-41a1-a4a9-32217f3dcd22","system_id":"levelo_inurba_marseille","lat":43.28983,"lon":5.37839,"is_reserved":false,"is_disabled":false,"rental_uris":{"android":"levelo://app?vid=eebc2e49-b372-41a1-a4a9-32217f3dcd22","ios":"levelo://app?vid=eebc2e49-b372-41a1-a4a9-32217f3dcd22"},"vehicle_type_id":"4","last_reported":1742890402,"current_range_meters":3600,"station_id":"ce4bh9p2rcd13ifvqed0","pricing_plan_id":"cebpf4jnsgd1na2vs0mg"},{"bike_id":"796d083e-492d-4e3b-96bb-918727b7401f","system_id":"levelo_inurba_marseille","lat":43.273043,"lon":5.390713,"is_reserved":false,"is_disabled":false,"rental_uris":{"android":"levelo://app?vid=796d083e-492d-4e3b-96bb-918727b7401f","ios":"levelo://app?vid=796d083e-492d-4e3b-96bb-918727b7401f"},"vehicle_type_id":"4","last_reported":1742890402,"current_range_meters":3600,"station_id":"ce4bhgp2rcd13ifvqfe0","pricing_plan_id":"cebpf4jnsgd1na2vs0mg"},{"bike_id":"d1f993ec-8e82-4e82-a38b-e848ded0cf74","system_id":"levelo_inurba_marseille","lat":43.25118,"lon":5.39512,"is_reserved":false,"is_disabled":false,"rental_uris":{"android":"levelo://app?vid=d1f993ec-8e82-4e82-a38b-e848ded0cf74","ios":"levelo://app?vid=d1f993ec-8e82-4e82-a38b-e848ded0cf74"},"vehicle_type_id":"4","last_reported":1742890402,"current_range_meters":3600,"station_id":"","pricing_plan_id":"cebpf4jnsgd1na2vs0mg"},{"bike_id":"634c433d-3db3-4fd8-8be9-8b653dae530e","system_id":"levelo_inurba_marseille","lat":43.28059,"lon":5.39012,"is_reserved":false,"is_disabled":true,"rental_uris":{"android":"levelo://app?vid=634c433d-3db3-4fd8-8be9-8b653dae530e","ios":"levelo://app?vid=634c433d-3db3-4fd8-8be9-8b653dae530e"},"vehicle_type_id":"4","last_reported":1742890402,"current_range_meters":3600,"station_id":"","pricing_plan_id":"cebpf4jnsgd1na2vs0mg"},{"bike_id":"76d51541-486a-4349-9655-bb4c29d42ba0","system_id":"levelo_inurba_marseille","lat":43.29569,"lon":5.37521,"is_reserved":false,"is_disabled":false,"rental_uris":{"android":"levelo://app?vid=76d51541-486a-4349-9655-bb4c29d42ba0","ios":"levelo://app?vid=76d51541-486a-4349-9655-bb4c29d42ba0"},"vehicle_type_id":"4","last_reported":1742890402,"current_range_meters":1200,"station_id":"ce4bgh92rcd13ifvqb50","pricing_plan_id":"cebpf4jnsgd1na2vs0mg"},{"bike_id":"7124aae9-70bc-420f-87fd-42a755068f3a","system_id":"levelo_inurba_marseille","lat":43.26695,"lon":5.38284,"is_reserved":false,"is_disabled":false,"rental_uris":{"android":"levelo://app?vid=7124aae9-70bc-420f-87fd-42a755068f3a","ios":"levelo://app?vid=7124aae9-70bc-420f-87fd-42a755068f3a"},"vehicle_type_id":"4","last_reported":1742890402,"current_range_meters":3600,"station_id":"ce4bhg92rcd13ifvqf90","pricing_plan_id":"cebpf4jnsgd1na2vs0mg"},{"bike_id":"f7e0df3d-f8dd-4aab-b001-f708f9ac4782","system_id":"levelo_inurba_marseille","lat":43.3031,"lon":5.376935,"is_reserved":false,"is_disabled":false,"rental_uris":{"android":"levelo://app?vid=f7e0df3d-f8dd-4aab-b001-f708f9ac4782","ios":"levelo://app?vid=f7e0df3d-f8dd-4aab-b001-f708f9ac4782"},"vehicle_type_id":"4","last_reported":1742890402,"current_range_meters":4000,"station_id":"ce4bguh2rcd13ifvqcj0","pricing_plan_id":"cebpf4jnsgd1na2vs0mg"},{"bike_id":"150e2b7b-a821-4808-84c8-183ab3f26503","system_id":"levelo_inurba_marseille","lat":43.296564,"lon":5.400081,"is_reserved":false,"is_disabled":false,"rental_uris":{"android":"levelo://app?vid=150e2b7b-a821-4808-84c8-183ab3f26503","ios":"levelo://app?vid=150e2b7b-a821-4808-84c8-183ab3f26503"},"vehicle_type_id":"4","last_reported":1742890402,"current_range_meters":4000,"station_id":"ce4bgkh2rcd13ifvqbk0","pricing_plan_id":"cebpf4jnsgd1na2vs0mg"},{"bike_id":"9d92fce6-6a50-4a78-8dce-d9e988b0afba","system_id":"levelo_inurba_marseille","lat":43.32543,"lon":5.41454,"is_reserved":false,"is_disabled":false,"rental_uris":{"android":"levelo://app?vid=9d92fce6-6a50-4a78-8dce-d9e988b0afba","ios":"levelo://app?vid=9d92fce6-6a50-4a78-8dce-d9e988b0afba"},"vehicle_type_id":"4","last_reported":1742890402,"current_range_meters":4000,"station_id":"ce4bhq12rcd13ifvqhhg","pricing_plan_id":"cebpf4jnsgd1na2vs0mg"},{"bike_id":"bebbaaa4-9324-461e-b685-01f74c9202e0","system_id":"levelo_inurba_marseille","lat":43.23956,"lon":5.36636,"is_reserved":false,"is_disabled":false,"rental_uris":{"android":"levelo://app?vid=bebbaaa4-9324-461e-b685-01f74c9202e0","ios":"levelo://app?vid=bebbaaa4-9324-461e-b685-01f74c9202e0"},"vehicle_type_id":"4","last_reported":1742890402,"current_range_meters":4000,"station_id":"ce4bhi12rcd13ifvqfp0","pricing_plan_id":"cebpf4jnsgd1na2vs0mg"},{"bike_id":"0814c752-717d-4d82-8dc2-7eb7f3b777fb","system_id":"levelo_inurba_marseille","lat":43.23177,"lon":5.43715,"is_reserved":false,"is_disabled":false,"rental_uris":{"android":"levelo://app?vid=0814c752-717d-4d82-8dc2-7eb7f3b777fb","ios":"levelo://app?vid=0814c752-717d-4d82-8dc2-7eb7f3b777fb"},"vehicle_type_id":"4","last_reported":1742890402,"current_range_meters":4000,"station_id":"ce4bhmp2rcd13ifvqgog","pricing_plan_id":"cebpf4jnsgd1na2vs0mg"},{"bike_id":"6f215761-e3c1-4670-9c14-c1e4afb855cb","system_id":"levelo_inurba_marseille","lat":43.2668,"lon":5.38266,"is_reserved":false,"is_disabled":false,"rental_uris":{"android":"levelo://app?vid=6f215761-e3c1-4670-9c14-c1e4afb855cb","ios":"levelo://app?vid=6f215761-e3c1-4670-9c14-c1e4afb855cb"},"vehicle_type_id":"4","last_reported":1742890402,"current_range_meters":800,"station_id":"ce4bhg92rcd13ifvqf90","pricing_plan_id":"cebpf4jnsgd1na2vs0mg"},{"bike_id":"696e9bc1-d3f1-427a-a1a4-034d4132f137","system_id":"levelo_inurba_marseille","lat":43.27673,"lon":5.38934,"is_reserved":false,"is_disabled":false,"rental_uris":{"android":"levelo://app?vid=696e9bc1-d3f1-427a-a1a4-034d4132f137","ios":"levelo://app?vid=696e9bc1-d3f1-427a-a1a4-034d4132f137"},"vehicle_type_id":"4","last_reported":1742890402,"current_range_meters":4000,"station_id":"ce4bhi12rcd13ifvqfo0","pricing_plan_id":"cebpf4jnsgd1na2vs0mg"},{"bike_id":"f7a445a3-6bcb-4711-98e1-33cb1800bee0","system_id":"levelo_inurba_marseille","lat":43.312185,"lon":5.368535,"is_reserved":false,"is_disabled":false,"rental_uris":{"android":"levelo://app?vid=f7a445a3-6bcb-4711-98e1-33cb1800bee0","ios":"levelo://app?vid=f7a445a3-6bcb-4711-98e1-33cb1800bee0"},"vehicle_type_id":"4","last_reported":1742890402,"current_range_meters":4400,"station_id":"ce4bgl92rcd13ifvqbq0","pricing_plan_id":"cebpf4jnsgd1na2vs0mg"},{"bike_id":"fe0493e6-c8d8-4f02-8b3f-763ef441a4da","system_id":"levelo_inurba_marseille","lat":43.30536,"lon":5.36554,"is_reserved":false,"is_disabled":false,"rental_uris":{"android":"levelo://app?vid=fe0493e6-c8d8-4f02-8b3f-763ef441a4da","ios":"levelo://app?vid=fe0493e6-c8d8-4f02-8b3f-763ef441a4da"},"vehicle_type_id":"4","last_reported":1742890402,"current_range_meters":4400,"station_id":"ce4bgs12rcd13ifvqcag","pricing_plan_id":"cebpf4jnsgd1na2vs0mg"},{"bike_id":"e8a8681a-90be-4ab3-80a0-95a4b8b4cbd9","system_id":"levelo_inurba_marseille","lat":43.31222,"lon":5.3685,"is_reserved":false,"is_disabled":false,"rental_uris":{"android":"levelo://app?vid=e8a8681a-90be-4ab3-80a0-95a4b8b4cbd9","ios":"levelo://app?vid=e8a8681a-90be-4ab3-80a0-95a4b8b4cbd9"},"vehicle_type_id":"4","last_reported":1742890402,"current_range_meters":4400,"station_id":"ce4bgl92rcd13ifvqbq0","pricing_plan_id":"cebpf4jnsgd1na2vs0mg"},{"bike_id":"86a65fab-1faf-4fc4-885c-2b086e92c069","system_id":"levelo_inurba_marseille","lat":43.24153,"lon":5.36413,"is_reserved":false,"is_disabled":false,"rental_uris":{"android":"levelo://app?vid=86a65fab-1faf-4fc4-885c-2b086e92c069","ios":"levelo://app?vid=86a65fab-1faf-4fc4-885c-2b086e92c069"},"vehicle_type_id":"4","last_reported":1742890402,"current_range_meters":4400,"station_id":"cpo36qri1sfpv3e86is0","pricing_plan_id":"cebpf4jnsgd1na2vs0mg"},{"bike_id":"1780f835-1cf6-415e-8cd2-ad683ba844e7","system_id":"levelo_inurba_marseille","lat":43.30279,"lon":5.37713,"is_reserved":false,"is_disabled":false,"rental_uris":{"android":"levelo://app?vid=1780f835-1cf6-415e-8cd2-ad683ba844e7","ios":"levelo://app?vid=1780f835-1cf6-415e-8cd2-ad683ba844e7"},"vehicle_type_id":"4","last_reported":1742890402,"current_range_meters":4800,"station_id":"ce4bguh2rcd13ifvqcj0","pricing_plan_id":"cebpf4jnsgd1na2vs0mg"},{"bike_id":"1f3fcced-d087-4db2-9c1d-8745101f6e3a","system_id":"levelo_inurba_marseille","lat":43.32497,"lon":5.36577,"is_reserved":false,"is_disabled":false,"rental_uris":{"android":"levelo://app?vid=1f3fcced-d087-4db2-9c1d-8745101f6e3a","ios":"levelo://app?vid=1f3fcced-d087-4db2-9c1d-8745101f6e3a"},"vehicle_type_id":"4","last_reported":1742890402,"current_range_meters":4400,"station_id":"ce4bhs12rcd13ifvqhvg","pricing_plan_id":"cebpf4jnsgd1na2vs0mg"},{"bike_id":"006cf968-a979-4d01-a30a-02ac181b4f3d","system_id":"levelo_inurba_marseille","lat":43.25106,"lon":5.40319,"is_reserved":false,"is_disabled":false,"rental_uris":{"android":"levelo://app?vid=006cf968-a979-4d01-a30a-02ac181b4f3d","ios":"levelo://app?vid=006cf968-a979-4d01-a30a-02ac181b4f3d"},"vehicle_type_id":"4","last_reported":1742890402,"current_range_meters":4400,"station_id":"ce4bhlh2rcd13ifvqgig","pricing_plan_id":"cebpf4jnsgd1na2vs0mg"},{"bike_id":"76f3d16e-d7a5-4684-96dc-ab38a67e3c56","system_id":"levelo_inurba_marseille","lat":43.27833,"lon":5.4072,"is_reserved":false,"is_disabled":false,"rental_uris":{"android":"levelo://app?vid=76f3d16e-d7a5-4684-96dc-ab38a67e3c56","ios":"levelo://app?vid=76f3d16e-d7a5-4684-96dc-ab38a67e3c56"},"vehicle_type_id":"4","last_reported":1742890402,"current_range_meters":4800,"station_id":"ce4bhnh2rcd13ifvqgtg","pricing_plan_id":"cebpf4jnsgd1na2vs0mg"},{"bike_id":"3e5bf0fa-864a-411e-8a19-905a073af9d2","system_id":"levelo_inurba_marseille","lat":43.26203,"lon":5.37923,"is_reserved":false,"is_disabled":false,"rental_uris":{"android":"levelo://app?vid=3e5bf0fa-864a-411e-8a19-905a073af9d2","ios":"levelo://app?vid=3e5bf0fa-864a-411e-8a19-905a073af9d2"},"vehicle_type_id":"4","last_reported":1742890402,"current_range_meters":4800,"station_id":"ce4bhjp2rcd13ifvqg90","pricing_plan_id":"cebpf4jnsgd1na2vs0mg"},{"bike_id":"91456e3b-facc-45cb-b00f-aea26e6eaf6c","system_id":"levelo_inurba_marseille","lat":43.2781,"lon":5.40734,"is_reserved":false,"is_disabled":true,"rental_uris":{"android":"levelo://app?vid=91456e3b-facc-45cb-b00f-aea26e6eaf6c","ios":"levelo://app?vid=91456e3b-facc-45cb-b00f-aea26e6eaf6c"},"vehicle_type_id":"4","last_reported":1742890402,"current_range_meters":4800,"station_id":"ce4bhnh2rcd13ifvqgtg","pricing_plan_id":"cebpf4jnsgd1na2vs0mg"},{"bike_id":"9099b1da-7fd7-401d-acb1-68ae757af661","system_id":"levelo_inurba_marseille","lat":43.23215,"lon":5.39981,"is_reserved":false,"is_disabled":false,"rental_uris":{"android":"levelo://app?vid=9099b1da-7fd7-401d-acb1-68ae757af661","ios":"levelo://app?vid=9099b1da-7fd7-401d-acb1-68ae757af661"},"vehicle_type_id":"4","last_reported":1742890402,"current_range_meters":4800,"station_id":"ce4bhn12rcd13ifvqgqg","pricing_plan_id":"cebpf4jnsgd1na2vs0mg"},{"bike_id":"11fbfb59-5148-4932-9bdb-f87f7e53a88d","system_id":"levelo_inurba_marseille","lat":43.28363,"lon":5.38652,"is_reserved":false,"is_disabled":false,"rental_uris":{"android":"levelo://app?vid=11fbfb59-5148-4932-9bdb-f87f7e53a88d","ios":"levelo://app?vid=11fbfb59-5148-4932-9bdb-f87f7e53a88d"},"vehicle_type_id":"4","last_reported":1742890402,"current_range_meters":4800,"station_id":"ce4bh492rcd13ifvqdvg","pricing_plan_id":"cebpf4jnsgd1na2vs0mg"},{"bike_id":"763cfa5b-c33b-448e-9f64-07102448a732","system_id":"levelo_inurba_marseille","lat":43.281574,"lon":5.426473,"is_reserved":false,"is_disabled":false,"rental_uris":{"android":"levelo://app?vid=763cfa5b-c33b-448e-9f64-07102448a732","ios":"levelo://app?vid=763cfa5b-c33b-448e-9f64-07102448a732"},"vehicle_type_id":"4","last_reported":1742890402,"current_range_meters":4800,"station_id":"","pricing_plan_id":"cebpf4jnsgd1na2vs0mg"},{"bike_id":"ec60c32b-5ee6-4a49-9920-594d37999be6","system_id":"levelo_inurba_marseille","lat":43.32539,"lon":5.41477,"is_reserved":false,"is_disabled":false,"rental_uris":{"android":"levelo://app?vid=ec60c32b-5ee6-4a49-9920-594d37999be6","ios":"levelo://app?vid=ec60c32b-5ee6-4a49-9920-594d37999be6"},"vehicle_type_id":"4","last_reported":1742890402,"current_range_meters":5600,"station_id":"ce4bhq12rcd13ifvqhhg","pricing_plan_id":"cebpf4jnsgd1na2vs0mg"},{"bike_id":"9fc87cb3-4f61-4e11-a37d-bb25cfffc8b7","system_id":"levelo_inurba_marseille","lat":43.24545,"lon":5.42892,"is_reserved":false,"is_disabled":false,"rental_uris":{"android":"levelo://app?vid=9fc87cb3-4f61-4e11-a37d-bb25cfffc8b7","ios":"levelo://app?vid=9fc87cb3-4f61-4e11-a37d-bb25cfffc8b7"},"vehicle_type_id":"4","last_reported":1742890402,"current_range_meters":5600,"station_id":"","pricing_plan_id":"cebpf4jnsgd1na2vs0mg"},{"bike_id":"e8956548-5a5b-4bc2-9e35-183b36a5f6f3","system_id":"levelo_inurba_marseille","lat":43.30138,"lon":5.37416,"is_reserved":false,"is_disabled":false,"rental_uris":{"android":"levelo://app?vid=e8956548-5a5b-4bc2-9e35-183b36a5f6f3","ios":"levelo://app?vid=e8956548-5a5b-4bc2-9e35-183b36a5f6f3"},"vehicle_type_id":"4","last_reported":1742890402,"current_range_meters":5600,"station_id":"ce4bgs92rcd13ifvqcc0","pricing_plan_id":"cebpf4jnsgd1na2vs0mg"},{"bike_id":"bb7d553e-f91c-478a-a14a-5f3ea0dc4964","system_id":"levelo_inurba_marseille","lat":43.24566,"lon":5.39521,"is_reserved":false,"is_disabled":false,"rental_uris":{"android":"levelo://app?vid=bb7d553e-f91c-478a-a14a-5f3ea0dc4964","ios":"levelo://app?vid=bb7d553e-f91c-478a-a14a-5f3ea0dc4964"},"vehicle_type_id":"4","last_reported":1742890402,"current_range_meters":5600,"station_id":"ce4bhlp2rcd13ifvqgjg","pricing_plan_id":"cebpf4jnsgd1na2vs0mg"},{"bike_id":"ba77c809-1111-412f-8eae-c3c885fbd6c5","system_id":"levelo_inurba_marseille","lat":43.24176,"lon":5.36398,"is_reserved":false,"is_disabled":false,"rental_uris":{"android":"levelo://app?vid=ba77c809-1111-412f-8eae-c3c885fbd6c5","ios":"levelo://app?vid=ba77c809-1111-412f-8eae-c3c885fbd6c5"},"vehicle_type_id":"4","last_reported":1742890402,"current_range_meters":5600,"station_id":"cpo36qri1sfpv3e86is0","pricing_plan_id":"cebpf4jnsgd1na2vs0mg"},{"bike_id":"c5bb87a9-bb5d-4434-a6b4-9bcea1b9ef74","system_id":"levelo_inurba_marseille","lat":43.26779,"lon":5.39417,"is_reserved":false,"is_disabled":false,"rental_uris":{"android":"levelo://app?vid=c5bb87a9-bb5d-4434-a6b4-9bcea1b9ef74","ios":"levelo://app?vid=c5bb87a9-bb5d-4434-a6b4-9bcea1b9ef74"},"vehicle_type_id":"4","last_reported":1742890402,"current_range_meters":5600,"station_id":"ce4bhh12rcd13ifvqfg0","pricing_plan_id":"cebpf4jnsgd1na2vs0mg"},{"bike_id":"80fe2e27-9cf9-489a-889a-09253e6918cf","system_id":"levelo_inurba_marseille","lat":43.30185,"lon":5.36632,"is_reserved":false,"is_disabled":false,"rental_uris":{"android":"levelo://app?vid=80fe2e27-9cf9-489a-889a-09253e6918cf","ios":"levelo://app?vid=80fe2e27-9cf9-489a-889a-09253e6918cf"},"vehicle_type_id":"4","last_reported":1742890402,"current_range_meters":5600,"station_id":"ce4bgrh2rcd13ifvqc8g","pricing_plan_id":"cebpf4jnsgd1na2vs0mg"},{"bike_id":"f554343e-9c05-4968-8a8f-41c44eb3be4f","system_id":"levelo_inurba_marseille","lat":43.27501,"lon":5.42466,"is_reserved":false,"is_disabled":false,"rental_uris":{"android":"levelo://app?vid=f554343e-9c05-4968-8a8f-41c44eb3be4f","ios":"levelo://app?vid=f554343e-9c05-4968-8a8f-41c44eb3be4f"},"vehicle_type_id":"4","last_reported":1742890402,"current_range_meters":5600,"station_id":"ce4bhn92rcd13ifvqgrg","pricing_plan_id":"cebpf4jnsgd1na2vs0mg"},{"bike_id":"5fdfd777-d0fd-4e90-95e0-838add0f5dc8","system_id":"levelo_inurba_marseille","lat":43.29039,"lon":5.39999,"is_reserved":false,"is_disabled":false,"rental_uris":{"android":"levelo://app?vid=5fdfd777-d0fd-4e90-95e0-838add0f5dc8","ios":"levelo://app?vid=5fdfd777-d0fd-4e90-95e0-838add0f5dc8"},"vehicle_type_id":"4","last_reported":1742890402,"current_range_meters":5600,"station_id":"ce4bh392rcd13ifvqdm0","pricing_plan_id":"cebpf4jnsgd1na2vs0mg"},{"bike_id":"e22b4409-ad89-44bc-9897-fb42e1599873","system_id":"levelo_inurba_marseille","lat":43.28913,"lon":5.36394,"is_reserved":false,"is_disabled":false,"rental_uris":{"android":"levelo://app?vid=e22b4409-ad89-44bc-9897-fb42e1599873","ios":"levelo://app?vid=e22b4409-ad89-44bc-9897-fb42e1599873"},"vehicle_type_id":"4","last_reported":1742890402,"current_range_meters":6000,"station_id":"ce4bhc92rcd13ifvqetg","pricing_plan_id":"cebpf4jnsgd1na2vs0mg"},{"bike_id":"de5755ca-6ae0-4794-bfea-0ec2c4f66031","system_id":"levelo_inurba_marseille","lat":43.24541,"lon":5.39526,"is_reserved":false,"is_disabled":false,"rental_uris":{"android":"levelo://app?vid=de5755ca-6ae0-4794-bfea-0ec2c4f66031","ios":"levelo://app?vid=de5755ca-6ae0-4794-bfea-0ec2c4f66031"},"vehicle_type_id":"4","last_reported":1742890402,"current_range_meters":6400,"station_id":"ce4bhlp2rcd13ifvqgjg","pricing_plan_id":"cebpf4jnsgd1na2vs0mg"},{"bike_id":"6da44af1-8b7c-4791-bcb1-30013b0638eb","system_id":"levelo_inurba_marseille","lat":43.2731,"lon":5.39115,"is_reserved":false,"is_disabled":true,"rental_uris":{"android":"levelo://app?vid=6da44af1-8b7c-4791-bcb1-30013b0638eb","ios":"levelo://app?vid=6da44af1-8b7c-4791-bcb1-30013b0638eb"},"vehicle_type_id":"4","last_reported":1742890402,"current_range_meters":6400,"station_id":"ce4bhgp2rcd13ifvqfe0","pricing_plan_id":"cebpf4jnsgd1na2vs0mg"},{"bike_id":"36e5befd-57e1-4963-8b1a-80b3fd80a3c8","system_id":"levelo_inurba_marseille","lat":43.28344,"lon":5.38115,"is_reserved":false,"is_disabled":false,"rental_uris":{"android":"levelo://app?vid=36e5befd-57e1-4963-8b1a-80b3fd80a3c8","ios":"levelo://app?vid=36e5befd-57e1-4963-8b1a-80b3fd80a3c8"},"vehicle_type_id":"4","last_reported":1742890402,"current_range_meters":6400,"station_id":"ce4bh412rcd13ifvqdr0","pricing_plan_id":"cebpf4jnsgd1na2vs0mg"},{"bike_id":"e5ca58cd-4fb3-46c9-8884-d446cccfbc30","system_id":"levelo_inurba_marseille","lat":43.25938,"lon":5.409,"is_reserved":false,"is_disabled":false,"rental_uris":{"android":"levelo://app?vid=e5ca58cd-4fb3-46c9-8884-d446cccfbc30","ios":"levelo://app?vid=e5ca58cd-4fb3-46c9-8884-d446cccfbc30"},"vehicle_type_id":"4","last_reported":1742890402,"current_range_meters":6400,"station_id":"ce4bhm92rcd13ifvqglg","pricing_plan_id":"cebpf4jnsgd1na2vs0mg"},{"bike_id":"0e67c3e2-7a0f-4fd0-a7ed-61af18b3e863","system_id":"levelo_inurba_marseille","lat":43.24095,"lon":5.37741,"is_reserved":false,"is_disabled":false,"rental_uris":{"android":"levelo://app?vid=0e67c3e2-7a0f-4fd0-a7ed-61af18b3e863","ios":"levelo://app?vid=0e67c3e2-7a0f-4fd0-a7ed-61af18b3e863"},"vehicle_type_id":"4","last_reported":1742890402,"current_range_meters":6400,"station_id":"ce4bhnp2rcd13ifvqgvg","pricing_plan_id":"cebpf4jnsgd1na2vs0mg"},{"bike_id":"e3c6d100-9b3b-44e1-abd1-7cf3538ee12c","system_id":"levelo_inurba_marseille","lat":43.23196,"lon":5.355531,"is_reserved":false,"is_disabled":false,"rental_uris":{"android":"levelo://app?vid=e3c6d100-9b3b-44e1-abd1-7cf3538ee12c","ios":"levelo://app?vid=e3c6d100-9b3b-44e1-abd1-7cf3538ee12c"},"vehicle_type_id":"4","last_reported":1742890402,"current_range_meters":6400,"station_id":"","pricing_plan_id":"cebpf4jnsgd1na2vs0mg"},{"bike_id":"f02a77b8-f810-41ff-bf5b-5ab742b469a7","system_id":"levelo_inurba_marseille","lat":43.23153,"lon":5.43699,"is_reserved":false,"is_disabled":false,"rental_uris":{"android":"levelo://app?vid=f02a77b8-f810-41ff-bf5b-5ab742b469a7","ios":"levelo://app?vid=f02a77b8-f810-41ff-bf5b-5ab742b469a7"},"vehicle_type_id":"4","last_reported":1742890402,"current_range_meters":6400,"station_id":"ce4bhmp2rcd13ifvqgog","pricing_plan_id":"cebpf4jnsgd1na2vs0mg"},{"bike_id":"4984db66-5241-446c-94cd-2a35586b6040","system_id":"levelo_inurba_marseille","lat":43.27825,"lon":5.40723,"is_reserved":false,"is_disabled":false,"rental_uris":{"android":"levelo://app?vid=4984db66-5241-446c-94cd-2a35586b6040","ios":"levelo://app?vid=4984db66-5241-446c-94cd-2a35586b6040"},"vehicle_type_id":"4","last_reported":1742890402,"current_range_meters":6400,"station_id":"","pricing_plan_id":"cebpf4jnsgd1na2vs0mg"},{"bike_id":"c77ba74c-34b4-4065-8232-671a3f8577ef","system_id":"levelo_inurba_marseille","lat":43.26249,"lon":5.37926,"is_reserved":false,"is_disabled":false,"rental_uris":{"android":"levelo://app?vid=c77ba74c-34b4-4065-8232-671a3f8577ef","ios":"levelo://app?vid=c77ba74c-34b4-4065-8232-671a3f8577ef"},"vehicle_type_id":"4","last_reported":1742890402,"current_range_meters":6400,"station_id":"","pricing_plan_id":"cebpf4jnsgd1na2vs0mg"},{"bike_id":"e005fd31-29fd-44f0-8633-c29282fecebe","system_id":"levelo_inurba_marseille","lat":43.29607,"lon":5.37729,"is_reserved":false,"is_disabled":false,"rental_uris":{"android":"levelo://app?vid=e005fd31-29fd-44f0-8633-c29282fecebe","ios":"levelo://app?vid=e005fd31-29fd-44f0-8633-c29282fecebe"},"vehicle_type_id":"4","last_reported":1742890402,"current_range_meters":6400,"station_id":"ce4bgi92rcd13ifvqb90","pricing_plan_id":"cebpf4jnsgd1na2vs0mg"},{"bike_id":"2998d874-e975-45c8-a11f-38d766a91cfc","system_id":"levelo_inurba_marseille","lat":43.31165,"lon":5.38712,"is_reserved":false,"is_disabled":true,"rental_uris":{"android":"levelo://app?vid=2998d874-e975-45c8-a11f-38d766a91cfc","ios":"levelo://app?vid=2998d874-e975-45c8-a11f-38d766a91cfc"},"vehicle_type_id":"4","last_reported":1742890402,"current_range_meters":6800,"station_id":"ce4bgv12rcd13ifvqcp0","pricing_plan_id":"cebpf4jnsgd1na2vs0mg"},{"bike_id":"d88ae71b-bc05-4cbf-b4ba-b40ffcf72176","system_id":"levelo_inurba_marseille","lat":43.29792,"lon":5.38062,"is_reserved":false,"is_disabled":false,"rental_uris":{"android":"levelo://app?vid=d88ae71b-bc05-4cbf-b4ba-b40ffcf72176","ios":"levelo://app?vid=d88ae71b-bc05-4cbf-b4ba-b40ffcf72176"},"vehicle_type_id":"4","last_reported":1742890402,"current_range_meters":6800,"station_id":"ce4bgip2rcd13ifvqbb0","pricing_plan_id":"cebpf4jnsgd1na2vs0mg"},{"bike_id":"ebf86de8-a3f7-4563-b9cd-62f5316ef4ec","system_id":"levelo_inurba_marseille","lat":43.30982,"lon":5.40153,"is_reserved":false,"is_disabled":true,"rental_uris":{"android":"levelo://app?vid=ebf86de8-a3f7-4563-b9cd-62f5316ef4ec","ios":"levelo://app?vid=ebf86de8-a3f7-4563-b9cd-62f5316ef4ec"},"vehicle_type_id":"4","last_reported":1742890402,"current_range_meters":6800,"station_id":"ce4bgvp2rcd13ifvqct0","pricing_plan_id":"cebpf4jnsgd1na2vs0mg"},{"bike_id":"446014a2-4b84-4246-9b3c-c26c89327d31","system_id":"levelo_inurba_marseille","lat":43.25813,"lon":5.39437,"is_reserved":false,"is_disabled":false,"rental_uris":{"android":"levelo://app?vid=446014a2-4b84-4246-9b3c-c26c89327d31","ios":"levelo://app?vid=446014a2-4b84-4246-9b3c-c26c89327d31"},"vehicle_type_id":"4","last_reported":1742890402,"current_range_meters":6400,"station_id":"ce4bhip2rcd13ifvqft0","pricing_plan_id":"cebpf4jnsgd1na2vs0mg"},{"bike_id":"a0a460eb-34d7-43d6-85ef-87b30455cbf0","system_id":"levelo_inurba_marseille","lat":43.23948,"lon":5.36626,"is_reserved":false,"is_disabled":false,"rental_uris":{"android":"levelo://app?vid=a0a460eb-34d7-43d6-85ef-87b30455cbf0","ios":"levelo://app?vid=a0a460eb-34d7-43d6-85ef-87b30455cbf0"},"vehicle_type_id":"4","last_reported":1742890402,"current_range_meters":6800,"station_id":"ce4bhi12rcd13ifvqfp0","pricing_plan_id":"cebpf4jnsgd1na2vs0mg"},{"bike_id":"8723922e-320e-4649-af0a-8190d390afa0","system_id":"levelo_inurba_marseille","lat":43.32104,"lon":5.3677,"is_reserved":false,"is_disabled":false,"rental_uris":{"android":"levelo://app?vid=8723922e-320e-4649-af0a-8190d390afa0","ios":"levelo://app?vid=8723922e-320e-4649-af0a-8190d390afa0"},"vehicle_type_id":"4","last_reported":1742890402,"current_range_meters":6800,"station_id":"ce4bhrh2rcd13ifvqhug","pricing_plan_id":"cebpf4jnsgd1na2vs0mg"},{"bike_id":"f1681b6a-7497-4c7b-a00f-0c281574068a","system_id":"levelo_inurba_marseille","lat":43.31013,"lon":5.37545,"is_reserved":false,"is_disabled":false,"rental_uris":{"android":"levelo://app?vid=f1681b6a-7497-4c7b-a00f-0c281574068a","ios":"levelo://app?vid=f1681b6a-7497-4c7b-a00f-0c281574068a"},"vehicle_type_id":"4","last_reported":1742890402,"current_range_meters":6800,"station_id":"","pricing_plan_id":"cebpf4jnsgd1na2vs0mg"},{"bike_id":"60f041d6-b146-4ab8-b44b-0cfaba0dfcf9","system_id":"levelo_inurba_marseille","lat":43.30526,"lon":5.36711,"is_reserved":false,"is_disabled":false,"rental_uris":{"android":"levelo://app?vid=60f041d6-b146-4ab8-b44b-0cfaba0dfcf9","ios":"levelo://app?vid=60f041d6-b146-4ab8-b44b-0cfaba0dfcf9"},"vehicle_type_id":"4","last_reported":1742890402,"current_range_meters":6800,"station_id":"ce4bgrp2rcd13ifvqc9g","pricing_plan_id":"cebpf4jnsgd1na2vs0mg"},{"bike_id":"e1abc1e5-133f-4d33-ba14-caf117fb651b","system_id":"levelo_inurba_marseille","lat":43.32536,"lon":5.41427,"is_reserved":false,"is_disabled":false,"rental_uris":{"android":"levelo://app?vid=e1abc1e5-133f-4d33-ba14-caf117fb651b","ios":"levelo://app?vid=e1abc1e5-133f-4d33-ba14-caf117fb651b"},"vehicle_type_id":"4","last_reported":1742890402,"current_range_meters":6800,"station_id":"ce4bhq12rcd13ifvqhhg","pricing_plan_id":"cebpf4jnsgd1na2vs0mg"},{"bike_id":"19c4d38c-721f-4a6d-8de0-ad162aee3dc3","system_id":"levelo_inurba_marseille","lat":43.29863,"lon":5.38907,"is_reserved":false,"is_disabled":true,"rental_uris":{"android":"levelo://app?vid=19c4d38c-721f-4a6d-8de0-ad162aee3dc3","ios":"levelo://app?vid=19c4d38c-721f-4a6d-8de0-ad162aee3dc3"},"vehicle_type_id":"4","last_reported":1742890402,"current_range_meters":7200,"station_id":"ce4bh392rcd13ifvqdl0","pricing_plan_id":"cebpf4jnsgd1na2vs0mg"},{"bike_id":"bf360268-c677-4569-afee-6f5956b55348","system_id":"levelo_inurba_marseille","lat":43.30279,"lon":5.37699,"is_reserved":false,"is_disabled":false,"rental_uris":{"android":"levelo://app?vid=bf360268-c677-4569-afee-6f5956b55348","ios":"levelo://app?vid=bf360268-c677-4569-afee-6f5956b55348"},"vehicle_type_id":"4","last_reported":1742890402,"current_range_meters":7200,"station_id":"ce4bguh2rcd13ifvqcj0","pricing_plan_id":"cebpf4jnsgd1na2vs0mg"},{"bike_id":"e5d47a28-b60d-44fd-868d-406ab1a1fffa","system_id":"levelo_inurba_marseille","lat":43.27503,"lon":5.42463,"is_reserved":false,"is_disabled":false,"rental_uris":{"android":"levelo://app?vid=e5d47a28-b60d-44fd-868d-406ab1a1fffa","ios":"levelo://app?vid=e5d47a28-b60d-44fd-868d-406ab1a1fffa"},"vehicle_type_id":"4","last_reported":1742890402,"current_range_meters":7200,"station_id":"ce4bhn92rcd13ifvqgrg","pricing_plan_id":"cebpf4jnsgd1na2vs0mg"},{"bike_id":"fa1d24b6-d543-481b-ab6c-ea72838e6580","system_id":"levelo_inurba_marseille","lat":43.26932,"lon":5.40256,"is_reserved":false,"is_disabled":false,"rental_uris":{"android":"levelo://app?vid=fa1d24b6-d543-481b-ab6c-ea72838e6580","ios":"levelo://app?vid=fa1d24b6-d543-481b-ab6c-ea72838e6580"},"vehicle_type_id":"4","last_reported":1742890402,"current_range_meters":7200,"station_id":"cjm6bp8fraef2m0cb0m0","pricing_plan_id":"cebpf4jnsgd1na2vs0mg"},{"bike_id":"21e3a6e5-11f0-467c-9e11-90aab4ee0f83","system_id":"levelo_inurba_marseille","lat":43.273813,"lon":5.362553,"is_reserved":false,"is_disabled":true,"rental_uris":{"android":"levelo://app?vid=21e3a6e5-11f0-467c-9e11-90aab4ee0f83","ios":"levelo://app?vid=21e3a6e5-11f0-467c-9e11-90aab4ee0f83"},"vehicle_type_id":"4","last_reported":1742890402,"current_range_meters":7200,"station_id":"ce4bhbh2rcd13ifvqeo0","pricing_plan_id":"cebpf4jnsgd1na2vs0mg"},{"bike_id":"c0f2612b-634c-4908-a605-d903f724111e","system_id":"levelo_inurba_marseille","lat":43.23148,"lon":5.43719,"is_reserved":false,"is_disabled":false,"rental_uris":{"android":"levelo://app?vid=c0f2612b-634c-4908-a605-d903f724111e","ios":"levelo://app?vid=c0f2612b-634c-4908-a605-d903f724111e"},"vehicle_type_id":"4","last_reported":1742890402,"current_range_meters":6800,"station_id":"ce4bhmp2rcd13ifvqgog","pricing_plan_id":"cebpf4jnsgd1na2vs0mg"},{"bike_id":"609161c9-059e-42ac-804c-c8b594a12e61","system_id":"levelo_inurba_marseille","lat":43.33726,"lon":5.3746,"is_reserved":false,"is_disabled":false,"rental_uris":{"android":"levelo://app?vid=609161c9-059e-42ac-804c-c8b594a12e61","ios":"levelo://app?vid=609161c9-059e-42ac-804c-c8b594a12e61"},"vehicle_type_id":"4","last_reported":1742890402,"current_range_meters":7200,"station_id":"","pricing_plan_id":"cebpf4jnsgd1na2vs0mg"},{"bike_id":"9c6d3ffa-1fc9-404c-9dc5-4837e1233b7c","system_id":"levelo_inurba_marseille","lat":43.31336,"lon":5.3672,"is_reserved":false,"is_disabled":false,"rental_uris":{"android":"levelo://app?vid=9c6d3ffa-1fc9-404c-9dc5-4837e1233b7c","ios":"levelo://app?vid=9c6d3ffa-1fc9-404c-9dc5-4837e1233b7c"},"vehicle_type_id":"4","last_reported":1742890402,"current_range_meters":7200,"station_id":"ce4bgr92rcd13ifvqc6g","pricing_plan_id":"cebpf4jnsgd1na2vs0mg"},{"bike_id":"bf9315d0-8503-43cc-be5d-2a0d8d6ed54e","system_id":"levelo_inurba_marseille","lat":43.25577,"lon":5.38239,"is_reserved":false,"is_disabled":false,"rental_uris":{"android":"levelo://app?vid=bf9315d0-8503-43cc-be5d-2a0d8d6ed54e","ios":"levelo://app?vid=bf9315d0-8503-43cc-be5d-2a0d8d6ed54e"},"vehicle_type_id":"4","last_reported":1742890402,"current_range_meters":7200,"station_id":"ce4bhih2rcd13ifvqfs0","pricing_plan_id":"cebpf4jnsgd1na2vs0mg"},{"bike_id":"76356a35-2bef-4e13-9025-27f32224e678","system_id":"levelo_inurba_marseille","lat":43.269523,"lon":5.386312,"is_reserved":false,"is_disabled":false,"rental_uris":{"android":"levelo://app?vid=76356a35-2bef-4e13-9025-27f32224e678","ios":"levelo://app?vid=76356a35-2bef-4e13-9025-27f32224e678"},"vehicle_type_id":"4","last_reported":1742890402,"current_range_meters":7200,"station_id":"ce4bhh92rcd13ifvqfh0","pricing_plan_id":"cebpf4jnsgd1na2vs0mg"},{"bike_id":"2462aff4-312c-46a9-ae18-d864ef42c20c","system_id":"levelo_inurba_marseille","lat":43.24192,"lon":5.36365,"is_reserved":false,"is_disabled":false,"rental_uris":{"android":"levelo://app?vid=2462aff4-312c-46a9-ae18-d864ef42c20c","ios":"levelo://app?vid=2462aff4-312c-46a9-ae18-d864ef42c20c"},"vehicle_type_id":"4","last_reported":1742890402,"current_range_meters":8000,"station_id":"cpo36qri1sfpv3e86is0","pricing_plan_id":"cebpf4jnsgd1na2vs0mg"},{"bike_id":"1b8779ee-15bd-411f-8230-66fb3b9d06b8","system_id":"levelo_inurba_marseille","lat":43.29897,"lon":5.43678,"is_reserved":false,"is_disabled":false,"rental_uris":{"android":"levelo://app?vid=1b8779ee-15bd-411f-8230-66fb3b9d06b8","ios":"levelo://app?vid=1b8779ee-15bd-411f-8230-66fb3b9d06b8"},"vehicle_type_id":"4","last_reported":1742890402,"current_range_meters":8000,"station_id":"","pricing_plan_id":"cebpf4jnsgd1na2vs0mg"},{"bike_id":"4ebb1774-2fe9-487f-b46c-09af6b7628ea","system_id":"levelo_inurba_marseille","lat":43.29604,"lon":5.37734,"is_reserved":false,"is_disabled":false,"rental_uris":{"android":"levelo://app?vid=4ebb1774-2fe9-487f-b46c-09af6b7628ea","ios":"levelo://app?vid=4ebb1774-2fe9-487f-b46c-09af6b7628ea"},"vehicle_type_id":"4","last_reported":1742890402,"current_range_meters":8000,"station_id":"ce4bgi92rcd13ifvqb90","pricing_plan_id":"cebpf4jnsgd1na2vs0mg"},{"bike_id":"e9fb805f-46c7-4ab4-986f-b736869e324d","system_id":"levelo_inurba_marseille","lat":43.30477,"lon":5.37913,"is_reserved":false,"is_disabled":false,"rental_uris":{"android":"levelo://app?vid=e9fb805f-46c7-4ab4-986f-b736869e324d","ios":"levelo://app?vid=e9fb805f-46c7-4ab4-986f-b736869e324d"},"vehicle_type_id":"4","last_reported":1742890402,"current_range_meters":8000,"station_id":"ce4bgup2rcd13ifvqcn0","pricing_plan_id":"cebpf4jnsgd1na2vs0mg"},{"bike_id":"f28c0c94-d4e7-41d2-bcc2-de39a5af2bd0","system_id":"levelo_inurba_marseille","lat":43.31367,"lon":5.36697,"is_reserved":false,"is_disabled":false,"rental_uris":{"android":"levelo://app?vid=f28c0c94-d4e7-41d2-bcc2-de39a5af2bd0","ios":"levelo://app?vid=f28c0c94-d4e7-41d2-bcc2-de39a5af2bd0"},"vehicle_type_id":"4","last_reported":1742890402,"current_range_meters":8000,"station_id":"ce4bgr92rcd13ifvqc6g","pricing_plan_id":"cebpf4jnsgd1na2vs0mg"},{"bike_id":"2307e763-747a-4c32-8236-db9f47a00252","system_id":"levelo_inurba_marseille","lat":43.30409,"lon":5.41267,"is_reserved":false,"is_disabled":false,"rental_uris":{"android":"levelo://app?vid=2307e763-747a-4c32-8236-db9f47a00252","ios":"levelo://app?vid=2307e763-747a-4c32-8236-db9f47a00252"},"vehicle_type_id":"4","last_reported":1742890402,"current_range_meters":8000,"station_id":"ce4bhop2rcd13ifvqh8g","pricing_plan_id":"cebpf4jnsgd1na2vs0mg"},{"bike_id":"21be2ddd-a33f-4821-9edb-0782de7ee7c9","system_id":"levelo_inurba_marseille","lat":43.23154,"lon":5.4372,"is_reserved":false,"is_disabled":false,"rental_uris":{"android":"levelo://app?vid=21be2ddd-a33f-4821-9edb-0782de7ee7c9","ios":"levelo://app?vid=21be2ddd-a33f-4821-9edb-0782de7ee7c9"},"vehicle_type_id":"4","last_reported":1742890402,"current_range_meters":8000,"station_id":"ce4bhmp2rcd13ifvqgog","pricing_plan_id":"cebpf4jnsgd1na2vs0mg"},{"bike_id":"2ff570d2-4d8e-48ed-9e8e-8a83ca9149b2","system_id":"levelo_inurba_marseille","lat":43.27077,"lon":5.42277,"is_reserved":false,"is_disabled":true,"rental_uris":{"android":"levelo://app?vid=2ff570d2-4d8e-48ed-9e8e-8a83ca9149b2","ios":"levelo://app?vid=2ff570d2-4d8e-48ed-9e8e-8a83ca9149b2"},"vehicle_type_id":"4","last_reported":1742890402,"current_range_meters":8000,"station_id":"ce4bhk92rcd13ifvqgb0","pricing_plan_id":"cebpf4jnsgd1na2vs0mg"},{"bike_id":"f8b353ba-e785-4fb9-b9e9-6d6782ca4aa8","system_id":"levelo_inurba_marseille","lat":43.34142,"lon":5.40899,"is_reserved":false,"is_disabled":false,"rental_uris":{"android":"levelo://app?vid=f8b353ba-e785-4fb9-b9e9-6d6782ca4aa8","ios":"levelo://app?vid=f8b353ba-e785-4fb9-b9e9-6d6782ca4aa8"},"vehicle_type_id":"4","last_reported":1742890402,"current_range_meters":8000,"station_id":"ce4bhqh2rcd13ifvqhlg","pricing_plan_id":"cebpf4jnsgd1na2vs0mg"},{"bike_id":"0153ba75-2626-4a5f-bec7-5089befab79a","system_id":"levelo_inurba_marseille","lat":43.2396,"lon":5.36634,"is_reserved":false,"is_disabled":false,"rental_uris":{"android":"levelo://app?vid=0153ba75-2626-4a5f-bec7-5089befab79a","ios":"levelo://app?vid=0153ba75-2626-4a5f-bec7-5089befab79a"},"vehicle_type_id":"4","last_reported":1742890402,"current_range_meters":8000,"station_id":"ce4bhi12rcd13ifvqfp0","pricing_plan_id":"cebpf4jnsgd1na2vs0mg"},{"bike_id":"cc6fe841-d03d-4c7b-b7e9-918c9091a165","system_id":"levelo_inurba_marseille","lat":43.30154,"lon":5.3741,"is_reserved":false,"is_disabled":true,"rental_uris":{"android":"levelo://app?vid=cc6fe841-d03d-4c7b-b7e9-918c9091a165","ios":"levelo://app?vid=cc6fe841-d03d-4c7b-b7e9-918c9091a165"},"vehicle_type_id":"4","last_reported":1742890402,"current_range_meters":8400,"station_id":"ce4bgs92rcd13ifvqcc0","pricing_plan_id":"cebpf4jnsgd1na2vs0mg"},{"bike_id":"51f9407c-efcf-4da4-b35e-2b147ed0bdee","system_id":"levelo_inurba_marseille","lat":43.29963,"lon":5.37166,"is_reserved":false,"is_disabled":false,"rental_uris":{"android":"levelo://app?vid=51f9407c-efcf-4da4-b35e-2b147ed0bdee","ios":"levelo://app?vid=51f9407c-efcf-4da4-b35e-2b147ed0bdee"},"vehicle_type_id":"4","last_reported":1742890402,"current_range_meters":8400,"station_id":"ce4bgr92rcd13ifvqc7g","pricing_plan_id":"cebpf4jnsgd1na2vs0mg"},{"bike_id":"406ac1f6-27b8-4bb4-ab80-a0057c367209","system_id":"levelo_inurba_marseille","lat":43.299652,"lon":5.384859,"is_reserved":false,"is_disabled":false,"rental_uris":{"android":"levelo://app?vid=406ac1f6-27b8-4bb4-ab80-a0057c367209","ios":"levelo://app?vid=406ac1f6-27b8-4bb4-ab80-a0057c367209"},"vehicle_type_id":"4","last_reported":1742890402,"current_range_meters":8400,"station_id":"ce4bgj92rcd13ifvqbd0","pricing_plan_id":"cebpf4jnsgd1na2vs0mg"},{"bike_id":"73d683db-dd00-4df7-b499-652da74ca5e8","system_id":"levelo_inurba_marseille","lat":43.310009,"lon":5.380096,"is_reserved":false,"is_disabled":false,"rental_uris":{"android":"levelo://app?vid=73d683db-dd00-4df7-b499-652da74ca5e8","ios":"levelo://app?vid=73d683db-dd00-4df7-b499-652da74ca5e8"},"vehicle_type_id":"4","last_reported":1742890402,"current_range_meters":8400,"station_id":"ce4bgrp2rcd13ifvqc9g","pricing_plan_id":"cebpf4jnsgd1na2vs0mg"},{"bike_id":"6103a9a7-00b0-42ea-a457-c428acbf1c97","system_id":"levelo_inurba_marseille","lat":43.2558,"lon":5.38235,"is_reserved":false,"is_disabled":false,"rental_uris":{"android":"levelo://app?vid=6103a9a7-00b0-42ea-a457-c428acbf1c97","ios":"levelo://app?vid=6103a9a7-00b0-42ea-a457-c428acbf1c97"},"vehicle_type_id":"4","last_reported":1742890402,"current_range_meters":3600,"station_id":"ce4bhih2rcd13ifvqfs0","pricing_plan_id":"cebpf4jnsgd1na2vs0mg"},{"bike_id":"89188c10-27c3-42d3-b9b0-83a48b55e982","system_id":"levelo_inurba_marseille","lat":43.29083,"lon":5.38152,"is_reserved":false,"is_disabled":false,"rental_uris":{"android":"levelo://app?vid=89188c10-27c3-42d3-b9b0-83a48b55e982","ios":"levelo://app?vid=89188c10-27c3-42d3-b9b0-83a48b55e982"},"vehicle_type_id":"4","last_reported":1742890402,"current_range_meters":8400,"station_id":"ce4bh512rcd13ifvqe2g","pricing_plan_id":"cebpf4jnsgd1na2vs0mg"},{"bike_id":"ec75a7cb-c3b0-4a82-83fd-b790d0544acc","system_id":"levelo_inurba_marseille","lat":43.26674,"lon":5.38269,"is_reserved":false,"is_disabled":false,"rental_uris":{"android":"levelo://app?vid=ec75a7cb-c3b0-4a82-83fd-b790d0544acc","ios":"levelo://app?vid=ec75a7cb-c3b0-4a82-83fd-b790d0544acc"},"vehicle_type_id":"4","last_reported":1742890402,"current_range_meters":8000,"station_id":"ce4bhg92rcd13ifvqf90","pricing_plan_id":"cebpf4jnsgd1na2vs0mg"},{"bike_id":"e7821985-bd6b-4983-9a36-d04864b7badf","system_id":"levelo_inurba_marseille","lat":43.26926,"lon":5.40256,"is_reserved":false,"is_disabled":false,"rental_uris":{"android":"levelo://app?vid=e7821985-bd6b-4983-9a36-d04864b7badf","ios":"levelo://app?vid=e7821985-bd6b-4983-9a36-d04864b7badf"},"vehicle_type_id":"4","last_reported":1742890402,"current_range_meters":8400,"station_id":"cjm6bp8fraef2m0cb0m0","pricing_plan_id":"cebpf4jnsgd1na2vs0mg"},{"bike_id":"5ae84439-dccb-49d6-b61f-ec5bf5aed221","system_id":"levelo_inurba_marseille","lat":43.26193,"lon":5.37926,"is_reserved":false,"is_disabled":false,"rental_uris":{"android":"levelo://app?vid=5ae84439-dccb-49d6-b61f-ec5bf5aed221","ios":"levelo://app?vid=5ae84439-dccb-49d6-b61f-ec5bf5aed221"},"vehicle_type_id":"4","last_reported":1742890402,"current_range_meters":8400,"station_id":"ce4bhjp2rcd13ifvqg90","pricing_plan_id":"cebpf4jnsgd1na2vs0mg"},{"bike_id":"5d4d6b8d-905f-4396-8812-b0df417454f7","system_id":"levelo_inurba_marseille","lat":43.299369,"lon":5.365383,"is_reserved":false,"is_disabled":false,"rental_uris":{"android":"levelo://app?vid=5d4d6b8d-905f-4396-8812-b0df417454f7","ios":"levelo://app?vid=5d4d6b8d-905f-4396-8812-b0df417454f7"},"vehicle_type_id":"4","last_reported":1742890402,"current_range_meters":8400,"station_id":"ce4bgm92rcd13ifvqbr0","pricing_plan_id":"cebpf4jnsgd1na2vs0mg"},{"bike_id":"fbfecbb6-5794-4d9a-9176-1810e4b4a7ef","system_id":"levelo_inurba_marseille","lat":43.230671,"lon":5.354942,"is_reserved":false,"is_disabled":false,"rental_uris":{"android":"levelo://app?vid=fbfecbb6-5794-4d9a-9176-1810e4b4a7ef","ios":"levelo://app?vid=fbfecbb6-5794-4d9a-9176-1810e4b4a7ef"},"vehicle_type_id":"4","last_reported":1742890402,"current_range_meters":8400,"station_id":"","pricing_plan_id":"cebpf4jnsgd1na2vs0mg"},{"bike_id":"0dfb0d89-73f2-49b8-91e9-15d856e46939","system_id":"levelo_inurba_marseille","lat":43.24187,"lon":5.39744,"is_reserved":false,"is_disabled":false,"rental_uris":{"android":"levelo://app?vid=0dfb0d89-73f2-49b8-91e9-15d856e46939","ios":"levelo://app?vid=0dfb0d89-73f2-49b8-91e9-15d856e46939"},"vehicle_type_id":"4","last_reported":1742890402,"current_range_meters":8400,"station_id":"ce4bhn12rcd13ifvqgpg","pricing_plan_id":"cebpf4jnsgd1na2vs0mg"},{"bike_id":"cc9070db-db26-4490-b1cb-5c34c990cbca","system_id":"levelo_inurba_marseille","lat":43.27504,"lon":5.42454,"is_reserved":false,"is_disabled":false,"rental_uris":{"android":"levelo://app?vid=cc9070db-db26-4490-b1cb-5c34c990cbca","ios":"levelo://app?vid=cc9070db-db26-4490-b1cb-5c34c990cbca"},"vehicle_type_id":"4","last_reported":1742890402,"current_range_meters":8400,"station_id":"ce4bhn92rcd13ifvqgrg","pricing_plan_id":"cebpf4jnsgd1na2vs0mg"},{"bike_id":"d6b9068b-bec0-4f76-9c03-273151aa3d54","system_id":"levelo_inurba_marseille","lat":43.2656,"lon":5.37287,"is_reserved":false,"is_disabled":false,"rental_uris":{"android":"levelo://app?vid=d6b9068b-bec0-4f76-9c03-273151aa3d54","ios":"levelo://app?vid=d6b9068b-bec0-4f76-9c03-273151aa3d54"},"vehicle_type_id":"4","last_reported":1742890402,"current_range_meters":8400,"station_id":"","pricing_plan_id":"cebpf4jnsgd1na2vs0mg"},{"bike_id":"f64a5f06-bff4-4284-a64d-ce271f664dc4","system_id":"levelo_inurba_marseille","lat":43.26184,"lon":5.40504,"is_reserved":false,"is_disabled":false,"rental_uris":{"android":"levelo://app?vid=f64a5f06-bff4-4284-a64d-ce271f664dc4","ios":"levelo://app?vid=f64a5f06-bff4-4284-a64d-ce271f664dc4"},"vehicle_type_id":"4","last_reported":1742890402,"current_range_meters":8400,"station_id":"","pricing_plan_id":"cebpf4jnsgd1na2vs0mg"},{"bike_id":"a0d4632a-7a87-4031-aeeb-061ca0feaca6","system_id":"levelo_inurba_marseille","lat":43.23957,"lon":5.36625,"is_reserved":false,"is_disabled":false,"rental_uris":{"android":"levelo://app?vid=a0d4632a-7a87-4031-aeeb-061ca0feaca6","ios":"levelo://app?vid=a0d4632a-7a87-4031-aeeb-061ca0feaca6"},"vehicle_type_id":"4","last_reported":1742890402,"current_range_meters":8800,"station_id":"","pricing_plan_id":"cebpf4jnsgd1na2vs0mg"},{"bike_id":"884c8513-9eb7-479d-a836-22c5da9b1af0","system_id":"levelo_inurba_marseille","lat":43.28155,"lon":5.42646,"is_reserved":false,"is_disabled":false,"rental_uris":{"android":"levelo://app?vid=884c8513-9eb7-479d-a836-22c5da9b1af0","ios":"levelo://app?vid=884c8513-9eb7-479d-a836-22c5da9b1af0"},"vehicle_type_id":"4","last_reported":1742890402,"current_range_meters":8800,"station_id":"ce4bhnh2rcd13ifvqgug","pricing_plan_id":"cebpf4jnsgd1na2vs0mg"},{"bike_id":"1c347bc9-c434-41ad-a152-e762dfde7bb4","system_id":"levelo_inurba_marseille","lat":43.27493,"lon":5.42456,"is_reserved":false,"is_disabled":false,"rental_uris":{"android":"levelo://app?vid=1c347bc9-c434-41ad-a152-e762dfde7bb4","ios":"levelo://app?vid=1c347bc9-c434-41ad-a152-e762dfde7bb4"},"vehicle_type_id":"4","last_reported":1742890402,"current_range_meters":8800,"station_id":"ce4bhn92rcd13ifvqgrg","pricing_plan_id":"cebpf4jnsgd1na2vs0mg"},{"bike_id":"fcad8fd0-282c-4346-87d8-986d60737136","system_id":"levelo_inurba_marseille","lat":43.284143,"lon":5.385088,"is_reserved":false,"is_disabled":false,"rental_uris":{"android":"levelo://app?vid=fcad8fd0-282c-4346-87d8-986d60737136","ios":"levelo://app?vid=fcad8fd0-282c-4346-87d8-986d60737136"},"vehicle_type_id":"4","last_reported":1742890402,"current_range_meters":8800,"station_id":"ce4bhgp2rcd13ifvqfe0","pricing_plan_id":"cebpf4jnsgd1na2vs0mg"},{"bike_id":"9eef2c13-4412-429d-a6b0-e32bea5d5b99","system_id":"levelo_inurba_marseille","lat":43.32467,"lon":5.36575,"is_reserved":false,"is_disabled":false,"rental_uris":{"android":"levelo://app?vid=9eef2c13-4412-429d-a6b0-e32bea5d5b99","ios":"levelo://app?vid=9eef2c13-4412-429d-a6b0-e32bea5d5b99"},"vehicle_type_id":"4","last_reported":1742890402,"current_range_meters":8800,"station_id":"ce4bhs12rcd13ifvqhvg","pricing_plan_id":"cebpf4jnsgd1na2vs0mg"},{"bike_id":"c9c19aa6-3fe4-401b-ab2c-9612f3df5e72","system_id":"levelo_inurba_marseille","lat":43.30955,"lon":5.39046,"is_reserved":false,"is_disabled":true,"rental_uris":{"android":"levelo://app?vid=c9c19aa6-3fe4-401b-ab2c-9612f3df5e72","ios":"levelo://app?vid=c9c19aa6-3fe4-401b-ab2c-9612f3df5e72"},"vehicle_type_id":"4","last_reported":1742890402,"current_range_meters":8800,"station_id":"ce4bgup2rcd13ifvqco0","pricing_plan_id":"cebpf4jnsgd1na2vs0mg"},{"bike_id":"7955c63a-7365-402f-bd5c-0f6460ac413a","system_id":"levelo_inurba_marseille","lat":43.25054,"lon":5.39497,"is_reserved":false,"is_disabled":false,"rental_uris":{"android":"levelo://app?vid=7955c63a-7365-402f-bd5c-0f6460ac413a","ios":"levelo://app?vid=7955c63a-7365-402f-bd5c-0f6460ac413a"},"vehicle_type_id":"4","last_reported":1742890402,"current_range_meters":8800,"station_id":"","pricing_plan_id":"cebpf4jnsgd1na2vs0mg"},{"bike_id":"3e089a20-86d8-4244-979c-5b7762bbd749","system_id":"levelo_inurba_marseille","lat":43.32365,"lon":5.38887,"is_reserved":false,"is_disabled":false,"rental_uris":{"android":"levelo://app?vid=3e089a20-86d8-4244-979c-5b7762bbd749","ios":"levelo://app?vid=3e089a20-86d8-4244-979c-5b7762bbd749"},"vehicle_type_id":"4","last_reported":1742890402,"current_range_meters":9200,"station_id":"ce4bhqp2rcd13ifvqhog","pricing_plan_id":"cebpf4jnsgd1na2vs0mg"},{"bike_id":"8284de5c-d227-47cd-b1ac-1bc2e0170d0f","system_id":"levelo_inurba_marseille","lat":43.27813,"lon":5.40712,"is_reserved":false,"is_disabled":true,"rental_uris":{"android":"levelo://app?vid=8284de5c-d227-47cd-b1ac-1bc2e0170d0f","ios":"levelo://app?vid=8284de5c-d227-47cd-b1ac-1bc2e0170d0f"},"vehicle_type_id":"4","last_reported":1742890402,"current_range_meters":9200,"station_id":"","pricing_plan_id":"cebpf4jnsgd1na2vs0mg"},{"bike_id":"42e12277-2404-40c1-a358-f3ca2810181d","system_id":"levelo_inurba_marseille","lat":43.29864,"lon":5.36293,"is_reserved":false,"is_disabled":false,"rental_uris":{"android":"levelo://app?vid=42e12277-2404-40c1-a358-f3ca2810181d","ios":"levelo://app?vid=42e12277-2404-40c1-a358-f3ca2810181d"},"vehicle_type_id":"4","last_reported":1742890402,"current_range_meters":9200,"station_id":"ce4bgpp2rcd13ifvqc3g","pricing_plan_id":"cebpf4jnsgd1na2vs0mg"},{"bike_id":"ef43d9bd-e531-4a59-b8a9-fdc80b41fa34","system_id":"levelo_inurba_marseille","lat":43.31269,"lon":5.40182,"is_reserved":false,"is_disabled":true,"rental_uris":{"android":"levelo://app?vid=ef43d9bd-e531-4a59-b8a9-fdc80b41fa34","ios":"levelo://app?vid=ef43d9bd-e531-4a59-b8a9-fdc80b41fa34"},"vehicle_type_id":"4","last_reported":1742890402,"current_range_meters":9200,"station_id":"ce4bh092rcd13ifvqd30","pricing_plan_id":"cebpf4jnsgd1na2vs0mg"},{"bike_id":"f373689c-dea5-4fa9-aa96-c0f5371d6170","system_id":"levelo_inurba_marseille","lat":43.26683,"lon":5.38273,"is_reserved":false,"is_disabled":false,"rental_uris":{"android":"levelo://app?vid=f373689c-dea5-4fa9-aa96-c0f5371d6170","ios":"levelo://app?vid=f373689c-dea5-4fa9-aa96-c0f5371d6170"},"vehicle_type_id":"4","last_reported":1742890402,"current_range_meters":9200,"station_id":"ce4bhg92rcd13ifvqf90","pricing_plan_id":"cebpf4jnsgd1na2vs0mg"},{"bike_id":"16d5e2d8-d120-493e-be6b-771903ae2ba3","system_id":"levelo_inurba_marseille","lat":43.292467,"lon":5.376367,"is_reserved":false,"is_disabled":false,"rental_uris":{"android":"levelo://app?vid=16d5e2d8-d120-493e-be6b-771903ae2ba3","ios":"levelo://app?vid=16d5e2d8-d120-493e-be6b-771903ae2ba3"},"vehicle_type_id":"4","last_reported":1742890402,"current_range_meters":9200,"station_id":"ce4bgi12rcd13ifvqb80","pricing_plan_id":"cebpf4jnsgd1na2vs0mg"},{"bike_id":"4fe82e65-425c-453e-9e10-5bbbfdd7a6b8","system_id":"levelo_inurba_marseille","lat":43.24166,"lon":5.39737,"is_reserved":false,"is_disabled":false,"rental_uris":{"android":"levelo://app?vid=4fe82e65-425c-453e-9e10-5bbbfdd7a6b8","ios":"levelo://app?vid=4fe82e65-425c-453e-9e10-5bbbfdd7a6b8"},"vehicle_type_id":"4","last_reported":1742890402,"current_range_meters":9200,"station_id":"ce4bhn12rcd13ifvqgpg","pricing_plan_id":"cebpf4jnsgd1na2vs0mg"},{"bike_id":"938c0f4e-65bf-479a-ba6e-fe7a68ff9b08","system_id":"levelo_inurba_marseille","lat":43.2651,"lon":5.37321,"is_reserved":false,"is_disabled":false,"rental_uris":{"android":"levelo://app?vid=938c0f4e-65bf-479a-ba6e-fe7a68ff9b08","ios":"levelo://app?vid=938c0f4e-65bf-479a-ba6e-fe7a68ff9b08"},"vehicle_type_id":"4","last_reported":1742890402,"current_range_meters":9200,"station_id":"","pricing_plan_id":"cebpf4jnsgd1na2vs0mg"},{"bike_id":"309adb57-d73c-4f02-b64f-48e633fd3189","system_id":"levelo_inurba_marseille","lat":43.27958,"lon":5.3874,"is_reserved":false,"is_disabled":false,"rental_uris":{"android":"levelo://app?vid=309adb57-d73c-4f02-b64f-48e633fd3189","ios":"levelo://app?vid=309adb57-d73c-4f02-b64f-48e633fd3189"},"vehicle_type_id":"4","last_reported":1742890402,"current_range_meters":9200,"station_id":"ce4bhg12rcd13ifvqf80","pricing_plan_id":"cebpf4jnsgd1na2vs0mg"},{"bike_id":"6d38bad6-c821-4d01-b786-0f55b3dbbd51","system_id":"levelo_inurba_marseille","lat":43.24171,"lon":5.39732,"is_reserved":false,"is_disabled":false,"rental_uris":{"android":"levelo://app?vid=6d38bad6-c821-4d01-b786-0f55b3dbbd51","ios":"levelo://app?vid=6d38bad6-c821-4d01-b786-0f55b3dbbd51"},"vehicle_type_id":"4","last_reported":1742890402,"current_range_meters":9200,"station_id":"ce4bhn12rcd13ifvqgpg","pricing_plan_id":"cebpf4jnsgd1na2vs0mg"},{"bike_id":"d2e6d255-fc34-489d-b02b-cc9e9382f212","system_id":"levelo_inurba_marseille","lat":43.31349,"lon":5.36735,"is_reserved":false,"is_disabled":false,"rental_uris":{"android":"levelo://app?vid=d2e6d255-fc34-489d-b02b-cc9e9382f212","ios":"levelo://app?vid=d2e6d255-fc34-489d-b02b-cc9e9382f212"},"vehicle_type_id":"4","last_reported":1742890402,"current_range_meters":9600,"station_id":"ce4bgr92rcd13ifvqc6g","pricing_plan_id":"cebpf4jnsgd1na2vs0mg"},{"bike_id":"4931c510-2513-4074-9649-f04ffa6fb08d","system_id":"levelo_inurba_marseille","lat":43.27494,"lon":5.42453,"is_reserved":false,"is_disabled":false,"rental_uris":{"android":"levelo://app?vid=4931c510-2513-4074-9649-f04ffa6fb08d","ios":"levelo://app?vid=4931c510-2513-4074-9649-f04ffa6fb08d"},"vehicle_type_id":"4","last_reported":1742890402,"current_range_meters":9600,"station_id":"ce4bhn92rcd13ifvqgrg","pricing_plan_id":"cebpf4jnsgd1na2vs0mg"},{"bike_id":"07273ad5-0d14-41f9-aa20-8a351943b18a","system_id":"levelo_inurba_marseille","lat":43.28163,"lon":5.42685,"is_reserved":false,"is_disabled":false,"rental_uris":{"android":"levelo://app?vid=07273ad5-0d14-41f9-aa20-8a351943b18a","ios":"levelo://app?vid=07273ad5-0d14-41f9-aa20-8a351943b18a"},"vehicle_type_id":"4","last_reported":1742890402,"current_range_meters":9600,"station_id":"","pricing_plan_id":"cebpf4jnsgd1na2vs0mg"},{"bike_id":"d0ce6a4c-8c1a-4117-b620-bb8816808dbc","system_id":"levelo_inurba_marseille","lat":43.23958,"lon":5.36636,"is_reserved":false,"is_disabled":false,"rental_uris":{"android":"levelo://app?vid=d0ce6a4c-8c1a-4117-b620-bb8816808dbc","ios":"levelo://app?vid=d0ce6a4c-8c1a-4117-b620-bb8816808dbc"},"vehicle_type_id":"4","last_reported":1742890402,"current_range_meters":9600,"station_id":"ce4bhi12rcd13ifvqfp0","pricing_plan_id":"cebpf4jnsgd1na2vs0mg"},{"bike_id":"c353c957-fbb8-408a-9097-46c8d6b68074","system_id":"levelo_inurba_marseille","lat":43.24184,"lon":5.39713,"is_reserved":false,"is_disabled":false,"rental_uris":{"android":"levelo://app?vid=c353c957-fbb8-408a-9097-46c8d6b68074","ios":"levelo://app?vid=c353c957-fbb8-408a-9097-46c8d6b68074"},"vehicle_type_id":"4","last_reported":1742890402,"current_range_meters":9600,"station_id":"ce4bhn12rcd13ifvqgpg","pricing_plan_id":"cebpf4jnsgd1na2vs0mg"},{"bike_id":"8871fee1-c30f-4721-bb9f-022f22051a94","system_id":"levelo_inurba_marseille","lat":43.23847,"lon":5.39766,"is_reserved":false,"is_disabled":false,"rental_uris":{"android":"levelo://app?vid=8871fee1-c30f-4721-bb9f-022f22051a94","ios":"levelo://app?vid=8871fee1-c30f-4721-bb9f-022f22051a94"},"vehicle_type_id":"4","last_reported":1742890402,"current_range_meters":10000,"station_id":"","pricing_plan_id":"cebpf4jnsgd1na2vs0mg"},{"bike_id":"2a99ecb7-4bf0-4c00-89bb-11ff019b8a6d","system_id":"levelo_inurba_marseille","lat":43.22957,"lon":5.35358,"is_reserved":false,"is_disabled":false,"rental_uris":{"android":"levelo://app?vid=2a99ecb7-4bf0-4c00-89bb-11ff019b8a6d","ios":"levelo://app?vid=2a99ecb7-4bf0-4c00-89bb-11ff019b8a6d"},"vehicle_type_id":"4","last_reported":1742890402,"current_range_meters":10000,"station_id":"cpo3532slgdg3j2ikp40","pricing_plan_id":"cebpf4jnsgd1na2vs0mg"},{"bike_id":"1887fe37-51a0-4284-bd26-ea9ec274ce5e","system_id":"levelo_inurba_marseille","lat":43.25716,"lon":5.41112,"is_reserved":false,"is_disabled":false,"rental_uris":{"android":"levelo://app?vid=1887fe37-51a0-4284-bd26-ea9ec274ce5e","ios":"levelo://app?vid=1887fe37-51a0-4284-bd26-ea9ec274ce5e"},"vehicle_type_id":"4","last_reported":1742890402,"current_range_meters":10000,"station_id":"","pricing_plan_id":"cebpf4jnsgd1na2vs0mg"},{"bike_id":"e1e35c11-11be-4d6b-9a98-3de91e1bd819","system_id":"levelo_inurba_marseille","lat":43.32403,"lon":5.3659,"is_reserved":false,"is_disabled":false,"rental_uris":{"android":"levelo://app?vid=e1e35c11-11be-4d6b-9a98-3de91e1bd819","ios":"levelo://app?vid=e1e35c11-11be-4d6b-9a98-3de91e1bd819"},"vehicle_type_id":"4","last_reported":1742890402,"current_range_meters":10000,"station_id":"ce4bhs12rcd13ifvqhvg","pricing_plan_id":"cebpf4jnsgd1na2vs0mg"},{"bike_id":"324ac744-0939-44b0-9d31-93160d66cb65","system_id":"levelo_inurba_marseille","lat":43.30544,"lon":5.36549,"is_reserved":false,"is_disabled":false,"rental_uris":{"android":"levelo://app?vid=324ac744-0939-44b0-9d31-93160d66cb65","ios":"levelo://app?vid=324ac744-0939-44b0-9d31-93160d66cb65"},"vehicle_type_id":"4","last_reported":1742890402,"current_range_meters":10000,"station_id":"ce4bgs12rcd13ifvqcag","pricing_plan_id":"cebpf4jnsgd1na2vs0mg"},{"bike_id":"16d1a1e8-6833-46ef-8ac2-dd05daf383fb","system_id":"levelo_inurba_marseille","lat":43.27123,"lon":5.41693,"is_reserved":false,"is_disabled":false,"rental_uris":{"android":"levelo://app?vid=16d1a1e8-6833-46ef-8ac2-dd05daf383fb","ios":"levelo://app?vid=16d1a1e8-6833-46ef-8ac2-dd05daf383fb"},"vehicle_type_id":"4","last_reported":1742890402,"current_range_meters":10000,"station_id":"","pricing_plan_id":"cebpf4jnsgd1na2vs0mg"},{"bike_id":"b6fd1ec3-47b2-486f-8b84-f71e2b87ecef","system_id":"levelo_inurba_marseille","lat":43.31084,"lon":5.4244,"is_reserved":false,"is_disabled":true,"rental_uris":{"android":"levelo://app?vid=b6fd1ec3-47b2-486f-8b84-f71e2b87ecef","ios":"levelo://app?vid=b6fd1ec3-47b2-486f-8b84-f71e2b87ecef"},"vehicle_type_id":"4","last_reported":1742890402,"current_range_meters":10000,"station_id":"ce4bhp92rcd13ifvqhag","pricing_plan_id":"cebpf4jnsgd1na2vs0mg"},{"bike_id":"a7ba97f8-94fd-49ae-9006-ab2c383704cb","system_id":"levelo_inurba_marseille","lat":43.29273,"lon":5.36856,"is_reserved":false,"is_disabled":false,"rental_uris":{"android":"levelo://app?vid=a7ba97f8-94fd-49ae-9006-ab2c383704cb","ios":"levelo://app?vid=a7ba97f8-94fd-49ae-9006-ab2c383704cb"},"vehicle_type_id":"4","last_reported":1742890402,"current_range_meters":10000,"station_id":"ce4bgs92rcd13ifvqcc0","pricing_plan_id":"cebpf4jnsgd1na2vs0mg"},{"bike_id":"6bb6f1fc-5b4f-4f3d-97c1-f093e7e9a8ef","system_id":"levelo_inurba_marseille","lat":43.23062,"lon":5.35515,"is_reserved":false,"is_disabled":false,"rental_uris":{"android":"levelo://app?vid=6bb6f1fc-5b4f-4f3d-97c1-f093e7e9a8ef","ios":"levelo://app?vid=6bb6f1fc-5b4f-4f3d-97c1-f093e7e9a8ef"},"vehicle_type_id":"4","last_reported":1742890402,"current_range_meters":10000,"station_id":"cpo3342slgdg3j2ifvpg","pricing_plan_id":"cebpf4jnsgd1na2vs0mg"},{"bike_id":"6457a7c3-e47d-4e22-a706-55621349603c","system_id":"levelo_inurba_marseille","lat":43.26099,"lon":5.39423,"is_reserved":false,"is_disabled":false,"rental_uris":{"android":"levelo://app?vid=6457a7c3-e47d-4e22-a706-55621349603c","ios":"levelo://app?vid=6457a7c3-e47d-4e22-a706-55621349603c"},"vehicle_type_id":"4","last_reported":1742890402,"current_range_meters":10000,"station_id":"","pricing_plan_id":"cebpf4jnsgd1na2vs0mg"},{"bike_id":"37b165fc-d9f9-497b-a2df-abcccfe9569e","system_id":"levelo_inurba_marseille","lat":43.29277,"lon":5.36847,"is_reserved":false,"is_disabled":false,"rental_uris":{"android":"levelo://app?vid=37b165fc-d9f9-497b-a2df-abcccfe9569e","ios":"levelo://app?vid=37b165fc-d9f9-497b-a2df-abcccfe9569e"},"vehicle_type_id":"4","last_reported":1742890402,"current_range_meters":10000,"station_id":"ce4bhbp2rcd13ifvqesg","pricing_plan_id":"cebpf4jnsgd1na2vs0mg"},{"bike_id":"e3f76d45-4904-44a7-aac2-e04832e991bb","system_id":"levelo_inurba_marseille","lat":43.29966,"lon":5.41328,"is_reserved":false,"is_disabled":true,"rental_uris":{"android":"levelo://app?vid=e3f76d45-4904-44a7-aac2-e04832e991bb","ios":"levelo://app?vid=e3f76d45-4904-44a7-aac2-e04832e991bb"},"vehicle_type_id":"4","last_reported":1742890402,"current_range_meters":10800,"station_id":"ce4bhp12rcd13ifvqh9g","pricing_plan_id":"cebpf4jnsgd1na2vs0mg"},{"bike_id":"3d3e5904-e6d1-4e13-864c-260025e736e6","system_id":"levelo_inurba_marseille","lat":43.290988,"lon":5.381276,"is_reserved":false,"is_disabled":false,"rental_uris":{"android":"levelo://app?vid=3d3e5904-e6d1-4e13-864c-260025e736e6","ios":"levelo://app?vid=3d3e5904-e6d1-4e13-864c-260025e736e6"},"vehicle_type_id":"4","last_reported":1742890402,"current_range_meters":10000,"station_id":"ce4bh512rcd13ifvqe2g","pricing_plan_id":"cebpf4jnsgd1na2vs0mg"},{"bike_id":"df2b523a-d800-449b-8f64-59a4fecd7853","system_id":"levelo_inurba_marseille","lat":43.27494,"lon":5.42463,"is_reserved":false,"is_disabled":false,"rental_uris":{"android":"levelo://app?vid=df2b523a-d800-449b-8f64-59a4fecd7853","ios":"levelo://app?vid=df2b523a-d800-449b-8f64-59a4fecd7853"},"vehicle_type_id":"4","last_reported":1742890402,"current_range_meters":10800,"station_id":"ce4bhn92rcd13ifvqgrg","pricing_plan_id":"cebpf4jnsgd1na2vs0mg"},{"bike_id":"2f3e2a92-1301-4a27-8eaa-7b0ea525530e","system_id":"levelo_inurba_marseille","lat":43.317121,"lon":5.437029,"is_reserved":false,"is_disabled":false,"rental_uris":{"android":"levelo://app?vid=2f3e2a92-1301-4a27-8eaa-7b0ea525530e","ios":"levelo://app?vid=2f3e2a92-1301-4a27-8eaa-7b0ea525530e"},"vehicle_type_id":"4","last_reported":1742890402,"current_range_meters":10800,"station_id":"","pricing_plan_id":"cebpf4jnsgd1na2vs0mg"},{"bike_id":"8262efbd-7df5-4f8c-a2d3-ebf3516addb4","system_id":"levelo_inurba_marseille","lat":43.28148,"lon":5.42652,"is_reserved":false,"is_disabled":false,"rental_uris":{"android":"levelo://app?vid=8262efbd-7df5-4f8c-a2d3-ebf3516addb4","ios":"levelo://app?vid=8262efbd-7df5-4f8c-a2d3-ebf3516addb4"},"vehicle_type_id":"4","last_reported":1742890402,"current_range_meters":10800,"station_id":"ce4bhnh2rcd13ifvqgug","pricing_plan_id":"cebpf4jnsgd1na2vs0mg"},{"bike_id":"fbc7ddf0-b77f-4285-92a1-af712eccc382","system_id":"levelo_inurba_marseille","lat":43.2694,"lon":5.38669,"is_reserved":false,"is_disabled":false,"rental_uris":{"android":"levelo://app?vid=fbc7ddf0-b77f-4285-92a1-af712eccc382","ios":"levelo://app?vid=fbc7ddf0-b77f-4285-92a1-af712eccc382"},"vehicle_type_id":"4","last_reported":1742890402,"current_range_meters":10800,"station_id":"ce4bhh92rcd13ifvqfh0","pricing_plan_id":"cebpf4jnsgd1na2vs0mg"},{"bike_id":"8f208df7-81e0-45c5-bd98-a49c85a38fa2","system_id":"levelo_inurba_marseille","lat":43.30321,"lon":5.36908,"is_reserved":false,"is_disabled":false,"rental_uris":{"android":"levelo://app?vid=8f208df7-81e0-45c5-bd98-a49c85a38fa2","ios":"levelo://app?vid=8f208df7-81e0-45c5-bd98-a49c85a38fa2"},"vehicle_type_id":"4","last_reported":1742890402,"current_range_meters":10800,"station_id":"ce4bgqh2rcd13ifvqc5g","pricing_plan_id":"cebpf4jnsgd1na2vs0mg"},{"bike_id":"e8eec122-897f-4919-9ee8-6b5e49b87083","system_id":"levelo_inurba_marseille","lat":43.25902,"lon":5.4091,"is_reserved":false,"is_disabled":false,"rental_uris":{"android":"levelo://app?vid=e8eec122-897f-4919-9ee8-6b5e49b87083","ios":"levelo://app?vid=e8eec122-897f-4919-9ee8-6b5e49b87083"},"vehicle_type_id":"4","last_reported":1742890402,"current_range_meters":10800,"station_id":"ce4bhm92rcd13ifvqglg","pricing_plan_id":"cebpf4jnsgd1na2vs0mg"},{"bike_id":"0ab4b5e7-0b73-47f0-969d-209a112d9f93","system_id":"levelo_inurba_marseille","lat":43.29604,"lon":5.37757,"is_reserved":false,"is_disabled":false,"rental_uris":{"android":"levelo://app?vid=0ab4b5e7-0b73-47f0-969d-209a112d9f93","ios":"levelo://app?vid=0ab4b5e7-0b73-47f0-969d-209a112d9f93"},"vehicle_type_id":"4","last_reported":1742890402,"current_range_meters":10800,"station_id":"ce4bgi92rcd13ifvqb90","pricing_plan_id":"cebpf4jnsgd1na2vs0mg"},{"bike_id":"0ff5c1b1-7832-4431-921a-f9e33b47c9ed","system_id":"levelo_inurba_marseille","lat":43.26958,"lon":5.38629,"is_reserved":false,"is_disabled":false,"rental_uris":{"android":"levelo://app?vid=0ff5c1b1-7832-4431-921a-f9e33b47c9ed","ios":"levelo://app?vid=0ff5c1b1-7832-4431-921a-f9e33b47c9ed"},"vehicle_type_id":"4","last_reported":1742890402,"current_range_meters":10800,"station_id":"ce4bhh92rcd13ifvqfh0","pricing_plan_id":"cebpf4jnsgd1na2vs0mg"},{"bike_id":"4226bed0-f6c8-4d76-9640-06bc22a9916d","system_id":"levelo_inurba_marseille","lat":43.30188,"lon":5.36633,"is_reserved":false,"is_disabled":false,"rental_uris":{"android":"levelo://app?vid=4226bed0-f6c8-4d76-9640-06bc22a9916d","ios":"levelo://app?vid=4226bed0-f6c8-4d76-9640-06bc22a9916d"},"vehicle_type_id":"4","last_reported":1742890402,"current_range_meters":10800,"station_id":"ce4bgrh2rcd13ifvqc8g","pricing_plan_id":"cebpf4jnsgd1na2vs0mg"},{"bike_id":"6adb5407-e228-44f4-a1da-80d9852b3164","system_id":"levelo_inurba_marseille","lat":43.25029,"lon":5.38939,"is_reserved":false,"is_disabled":false,"rental_uris":{"android":"levelo://app?vid=6adb5407-e228-44f4-a1da-80d9852b3164","ios":"levelo://app?vid=6adb5407-e228-44f4-a1da-80d9852b3164"},"vehicle_type_id":"4","last_reported":1742890402,"current_range_meters":10800,"station_id":"ce4bhgp2rcd13ifvqfd0","pricing_plan_id":"cebpf4jnsgd1na2vs0mg"},{"bike_id":"89e75ed9-7f20-48f7-ad37-e0033e47c633","system_id":"levelo_inurba_marseille","lat":43.24649,"lon":5.38887,"is_reserved":false,"is_disabled":false,"rental_uris":{"android":"levelo://app?vid=89e75ed9-7f20-48f7-ad37-e0033e47c633","ios":"levelo://app?vid=89e75ed9-7f20-48f7-ad37-e0033e47c633"},"vehicle_type_id":"4","last_reported":1742890402,"current_range_meters":10800,"station_id":"ce4bhg12rcd13ifvqf60","pricing_plan_id":"cebpf4jnsgd1na2vs0mg"},{"bike_id":"42d44f07-cdbd-4ac8-9475-fcd9ac4ec25e","system_id":"levelo_inurba_marseille","lat":43.295837,"lon":5.367406,"is_reserved":false,"is_disabled":false,"rental_uris":{"android":"levelo://app?vid=42d44f07-cdbd-4ac8-9475-fcd9ac4ec25e","ios":"levelo://app?vid=42d44f07-cdbd-4ac8-9475-fcd9ac4ec25e"},"vehicle_type_id":"4","last_reported":1742890402,"current_range_meters":10800,"station_id":"ce4bgjh2rcd13ifvqbg0","pricing_plan_id":"cebpf4jnsgd1na2vs0mg"},{"bike_id":"2b549c69-708d-48b5-ae72-82419590c6fa","system_id":"levelo_inurba_marseille","lat":43.30132,"lon":5.38092,"is_reserved":false,"is_disabled":false,"rental_uris":{"android":"levelo://app?vid=2b549c69-708d-48b5-ae72-82419590c6fa","ios":"levelo://app?vid=2b549c69-708d-48b5-ae72-82419590c6fa"},"vehicle_type_id":"4","last_reported":1742890402,"current_range_meters":11200,"station_id":"ce4bgjp2rcd13ifvqbh0","pricing_plan_id":"cebpf4jnsgd1na2vs0mg"},{"bike_id":"e63df07c-22d4-4f89-9f5e-6f332e38081d","system_id":"levelo_inurba_marseille","lat":43.3016,"lon":5.37416,"is_reserved":false,"is_disabled":false,"rental_uris":{"android":"levelo://app?vid=e63df07c-22d4-4f89-9f5e-6f332e38081d","ios":"levelo://app?vid=e63df07c-22d4-4f89-9f5e-6f332e38081d"},"vehicle_type_id":"4","last_reported":1742890402,"current_range_meters":11200,"station_id":"ce4bgs92rcd13ifvqcc0","pricing_plan_id":"cebpf4jnsgd1na2vs0mg"},{"bike_id":"8f92c15e-8631-43bf-b18f-1725d7b37177","system_id":"levelo_inurba_marseille","lat":43.310723,"lon":5.383513,"is_reserved":false,"is_disabled":false,"rental_uris":{"android":"levelo://app?vid=8f92c15e-8631-43bf-b18f-1725d7b37177","ios":"levelo://app?vid=8f92c15e-8631-43bf-b18f-1725d7b37177"},"vehicle_type_id":"4","last_reported":1742890402,"current_range_meters":11200,"station_id":"ce4bh492rcd13ifvqdug","pricing_plan_id":"cebpf4jnsgd1na2vs0mg"},{"bike_id":"74406c35-ee35-437d-be26-2d7711378046","system_id":"levelo_inurba_marseille","lat":43.32354,"lon":5.36775,"is_reserved":false,"is_disabled":false,"rental_uris":{"android":"levelo://app?vid=74406c35-ee35-437d-be26-2d7711378046","ios":"levelo://app?vid=74406c35-ee35-437d-be26-2d7711378046"},"vehicle_type_id":"4","last_reported":1742890402,"current_range_meters":11200,"station_id":"ce4bhsh2rcd13ifvqi2g","pricing_plan_id":"cebpf4jnsgd1na2vs0mg"},{"bike_id":"d7c9b119-99cc-4acd-80c4-6ecaf67a26b1","system_id":"levelo_inurba_marseille","lat":43.23079,"lon":5.35495,"is_reserved":false,"is_disabled":false,"rental_uris":{"android":"levelo://app?vid=d7c9b119-99cc-4acd-80c4-6ecaf67a26b1","ios":"levelo://app?vid=d7c9b119-99cc-4acd-80c4-6ecaf67a26b1"},"vehicle_type_id":"4","last_reported":1742890402,"current_range_meters":11200,"station_id":"cpo3342slgdg3j2ifvpg","pricing_plan_id":"cebpf4jnsgd1na2vs0mg"},{"bike_id":"3b0a7a40-2561-42ac-804d-cb85064eaca6","system_id":"levelo_inurba_marseille","lat":43.27489,"lon":5.42465,"is_reserved":false,"is_disabled":false,"rental_uris":{"android":"levelo://app?vid=3b0a7a40-2561-42ac-804d-cb85064eaca6","ios":"levelo://app?vid=3b0a7a40-2561-42ac-804d-cb85064eaca6"},"vehicle_type_id":"4","last_reported":1742890402,"current_range_meters":11200,"station_id":"ce4bhn92rcd13ifvqgrg","pricing_plan_id":"cebpf4jnsgd1na2vs0mg"},{"bike_id":"16425bab-e3d0-42ef-9237-8019cc2f40cd","system_id":"levelo_inurba_marseille","lat":43.265516,"lon":5.372878,"is_reserved":false,"is_disabled":false,"rental_uris":{"android":"levelo://app?vid=16425bab-e3d0-42ef-9237-8019cc2f40cd","ios":"levelo://app?vid=16425bab-e3d0-42ef-9237-8019cc2f40cd"},"vehicle_type_id":"4","last_reported":1742890402,"current_range_meters":11200,"station_id":"ce4bhg12rcd13ifvqf70","pricing_plan_id":"cebpf4jnsgd1na2vs0mg"},{"bike_id":"bb58f931-d39b-4674-bcbc-5096c1d815e7","system_id":"levelo_inurba_marseille","lat":43.2419,"lon":5.39725,"is_reserved":false,"is_disabled":false,"rental_uris":{"android":"levelo://app?vid=bb58f931-d39b-4674-bcbc-5096c1d815e7","ios":"levelo://app?vid=bb58f931-d39b-4674-bcbc-5096c1d815e7"},"vehicle_type_id":"4","last_reported":1742890402,"current_range_meters":11200,"station_id":"","pricing_plan_id":"cebpf4jnsgd1na2vs0mg"},{"bike_id":"a18b9908-c5c1-4166-83b3-f3713038b07f","system_id":"levelo_inurba_marseille","lat":43.24175,"lon":5.39736,"is_reserved":false,"is_disabled":false,"rental_uris":{"android":"levelo://app?vid=a18b9908-c5c1-4166-83b3-f3713038b07f","ios":"levelo://app?vid=a18b9908-c5c1-4166-83b3-f3713038b07f"},"vehicle_type_id":"4","last_reported":1742890402,"current_range_meters":11600,"station_id":"ce4bhn12rcd13ifvqgpg","pricing_plan_id":"cebpf4jnsgd1na2vs0mg"},{"bike_id":"c399abc1-27d9-4f60-9f80-a530bde7065a","system_id":"levelo_inurba_marseille","lat":43.26205,"lon":5.37441,"is_reserved":false,"is_disabled":false,"rental_uris":{"android":"levelo://app?vid=c399abc1-27d9-4f60-9f80-a530bde7065a","ios":"levelo://app?vid=c399abc1-27d9-4f60-9f80-a530bde7065a"},"vehicle_type_id":"4","last_reported":1742890402,"current_range_meters":11600,"station_id":"ce4bhgp2rcd13ifvqfc0","pricing_plan_id":"cebpf4jnsgd1na2vs0mg"},{"bike_id":"008c8db6-be2b-43ce-8a53-8af51fd8b577","system_id":"levelo_inurba_marseille","lat":43.24183,"lon":5.39722,"is_reserved":false,"is_disabled":false,"rental_uris":{"android":"levelo://app?vid=008c8db6-be2b-43ce-8a53-8af51fd8b577","ios":"levelo://app?vid=008c8db6-be2b-43ce-8a53-8af51fd8b577"},"vehicle_type_id":"4","last_reported":1742890402,"current_range_meters":11600,"station_id":"","pricing_plan_id":"cebpf4jnsgd1na2vs0mg"},{"bike_id":"9d6cee4b-2c8a-4e85-af80-220eb7a86ba4","system_id":"levelo_inurba_marseille","lat":43.26172,"lon":5.37935,"is_reserved":false,"is_disabled":false,"rental_uris":{"android":"levelo://app?vid=9d6cee4b-2c8a-4e85-af80-220eb7a86ba4","ios":"levelo://app?vid=9d6cee4b-2c8a-4e85-af80-220eb7a86ba4"},"vehicle_type_id":"4","last_reported":1742890402,"current_range_meters":11600,"station_id":"ce4bhjp2rcd13ifvqg90","pricing_plan_id":"cebpf4jnsgd1na2vs0mg"},{"bike_id":"31853493-08cd-48ca-8af6-a1f588cefafe","system_id":"levelo_inurba_marseille","lat":43.2584,"lon":5.39449,"is_reserved":false,"is_disabled":false,"rental_uris":{"android":"levelo://app?vid=31853493-08cd-48ca-8af6-a1f588cefafe","ios":"levelo://app?vid=31853493-08cd-48ca-8af6-a1f588cefafe"},"vehicle_type_id":"4","last_reported":1742890402,"current_range_meters":11600,"station_id":"ce4bhip2rcd13ifvqft0","pricing_plan_id":"cebpf4jnsgd1na2vs0mg"},{"bike_id":"670214b8-0c1a-44c6-9ec1-e4e7883cf534","system_id":"levelo_inurba_marseille","lat":43.30522,"lon":5.3654,"is_reserved":false,"is_disabled":false,"rental_uris":{"android":"levelo://app?vid=670214b8-0c1a-44c6-9ec1-e4e7883cf534","ios":"levelo://app?vid=670214b8-0c1a-44c6-9ec1-e4e7883cf534"},"vehicle_type_id":"4","last_reported":1742890402,"current_range_meters":12000,"station_id":"","pricing_plan_id":"cebpf4jnsgd1na2vs0mg"},{"bike_id":"dea1f70c-3a59-4563-bb09-a9d3b04a8744","system_id":"levelo_inurba_marseille","lat":43.2587,"lon":5.38913,"is_reserved":false,"is_disabled":false,"rental_uris":{"android":"levelo://app?vid=dea1f70c-3a59-4563-bb09-a9d3b04a8744","ios":"levelo://app?vid=dea1f70c-3a59-4563-bb09-a9d3b04a8744"},"vehicle_type_id":"4","last_reported":1742890402,"current_range_meters":12000,"station_id":"","pricing_plan_id":"cebpf4jnsgd1na2vs0mg"},{"bike_id":"6633349b-54ae-41b8-88d5-61ec5d012302","system_id":"levelo_inurba_marseille","lat":43.32107,"lon":5.36807,"is_reserved":false,"is_disabled":false,"rental_uris":{"android":"levelo://app?vid=6633349b-54ae-41b8-88d5-61ec5d012302","ios":"levelo://app?vid=6633349b-54ae-41b8-88d5-61ec5d012302"},"vehicle_type_id":"4","last_reported":1742890402,"current_range_meters":12000,"station_id":"ce4bhrh2rcd13ifvqhug","pricing_plan_id":"cebpf4jnsgd1na2vs0mg"},{"bike_id":"04357187-31a2-4621-9b88-fc476381d72a","system_id":"levelo_inurba_marseille","lat":43.25828,"lon":5.3944,"is_reserved":false,"is_disabled":false,"rental_uris":{"android":"levelo://app?vid=04357187-31a2-4621-9b88-fc476381d72a","ios":"levelo://app?vid=04357187-31a2-4621-9b88-fc476381d72a"},"vehicle_type_id":"4","last_reported":1742890402,"current_range_meters":12000,"station_id":"ce4bhip2rcd13ifvqft0","pricing_plan_id":"cebpf4jnsgd1na2vs0mg"},{"bike_id":"46774e41-cc26-42e2-8ed3-a8ea17d2f850","system_id":"levelo_inurba_marseille","lat":43.31367,"lon":5.36704,"is_reserved":false,"is_disabled":false,"rental_uris":{"android":"levelo://app?vid=46774e41-cc26-42e2-8ed3-a8ea17d2f850","ios":"levelo://app?vid=46774e41-cc26-42e2-8ed3-a8ea17d2f850"},"vehicle_type_id":"4","last_reported":1742890402,"current_range_meters":12000,"station_id":"ce4bgr92rcd13ifvqc6g","pricing_plan_id":"cebpf4jnsgd1na2vs0mg"},{"bike_id":"50e3359a-15f1-4f66-bbc8-eed7afb5cb08","system_id":"levelo_inurba_marseille","lat":43.25933,"lon":5.40899,"is_reserved":false,"is_disabled":false,"rental_uris":{"android":"levelo://app?vid=50e3359a-15f1-4f66-bbc8-eed7afb5cb08","ios":"levelo://app?vid=50e3359a-15f1-4f66-bbc8-eed7afb5cb08"},"vehicle_type_id":"4","last_reported":1742890402,"current_range_meters":12000,"station_id":"ce4bhm92rcd13ifvqglg","pricing_plan_id":"cebpf4jnsgd1na2vs0mg"},{"bike_id":"40a08607-0fd1-489d-bd04-4f1e5700edcd","system_id":"levelo_inurba_marseille","lat":43.30954,"lon":5.39026,"is_reserved":false,"is_disabled":false,"rental_uris":{"android":"levelo://app?vid=40a08607-0fd1-489d-bd04-4f1e5700edcd","ios":"levelo://app?vid=40a08607-0fd1-489d-bd04-4f1e5700edcd"},"vehicle_type_id":"4","last_reported":1742890402,"current_range_meters":12000,"station_id":"ce4bgup2rcd13ifvqco0","pricing_plan_id":"cebpf4jnsgd1na2vs0mg"},{"bike_id":"f1c0b357-aaf4-49ea-ba54-47d989634115","system_id":"levelo_inurba_marseille","lat":43.3246,"lon":5.36564,"is_reserved":false,"is_disabled":false,"rental_uris":{"android":"levelo://app?vid=f1c0b357-aaf4-49ea-ba54-47d989634115","ios":"levelo://app?vid=f1c0b357-aaf4-49ea-ba54-47d989634115"},"vehicle_type_id":"4","last_reported":1742890402,"current_range_meters":12000,"station_id":"ce4bhs12rcd13ifvqhvg","pricing_plan_id":"cebpf4jnsgd1na2vs0mg"},{"bike_id":"8583bcae-e817-4db7-ab92-448c595780ea","system_id":"levelo_inurba_marseille","lat":43.3301,"lon":5.39045,"is_reserved":false,"is_disabled":false,"rental_uris":{"android":"levelo://app?vid=8583bcae-e817-4db7-ab92-448c595780ea","ios":"levelo://app?vid=8583bcae-e817-4db7-ab92-448c595780ea"},"vehicle_type_id":"4","last_reported":1742890402,"current_range_meters":12000,"station_id":"","pricing_plan_id":"cebpf4jnsgd1na2vs0mg"},{"bike_id":"844d3370-21e5-4de2-9d45-2b091e1157d6","system_id":"levelo_inurba_marseille","lat":43.23974,"lon":5.36638,"is_reserved":false,"is_disabled":false,"rental_uris":{"android":"levelo://app?vid=844d3370-21e5-4de2-9d45-2b091e1157d6","ios":"levelo://app?vid=844d3370-21e5-4de2-9d45-2b091e1157d6"},"vehicle_type_id":"4","last_reported":1742890402,"current_range_meters":12400,"station_id":"ce4bhi12rcd13ifvqfp0","pricing_plan_id":"cebpf4jnsgd1na2vs0mg"},{"bike_id":"b599ec8c-9116-4cb3-980c-d0a7d1e83114","system_id":"levelo_inurba_marseille","lat":43.32442,"lon":5.36615,"is_reserved":false,"is_disabled":false,"rental_uris":{"android":"levelo://app?vid=b599ec8c-9116-4cb3-980c-d0a7d1e83114","ios":"levelo://app?vid=b599ec8c-9116-4cb3-980c-d0a7d1e83114"},"vehicle_type_id":"4","last_reported":1742890402,"current_range_meters":12400,"station_id":"ce4bhs12rcd13ifvqhvg","pricing_plan_id":"cebpf4jnsgd1na2vs0mg"},{"bike_id":"1b51ed5c-219d-410c-850f-6002a21a732c","system_id":"levelo_inurba_marseille","lat":43.30458,"lon":5.37911,"is_reserved":false,"is_disabled":false,"rental_uris":{"android":"levelo://app?vid=1b51ed5c-219d-410c-850f-6002a21a732c","ios":"levelo://app?vid=1b51ed5c-219d-410c-850f-6002a21a732c"},"vehicle_type_id":"4","last_reported":1742890402,"current_range_meters":12400,"station_id":"ce4bgup2rcd13ifvqcn0","pricing_plan_id":"cebpf4jnsgd1na2vs0mg"},{"bike_id":"b168f11b-0bd9-4a50-9617-19edcc6902a8","system_id":"levelo_inurba_marseille","lat":43.29795,"lon":5.38083,"is_reserved":false,"is_disabled":false,"rental_uris":{"android":"levelo://app?vid=b168f11b-0bd9-4a50-9617-19edcc6902a8","ios":"levelo://app?vid=b168f11b-0bd9-4a50-9617-19edcc6902a8"},"vehicle_type_id":"4","last_reported":1742890402,"current_range_meters":12000,"station_id":"ce4bgip2rcd13ifvqbb0","pricing_plan_id":"cebpf4jnsgd1na2vs0mg"},{"bike_id":"ca4db0f6-7db4-4133-a424-35102c4c0a66","system_id":"levelo_inurba_marseille","lat":43.24105,"lon":5.37749,"is_reserved":false,"is_disabled":false,"rental_uris":{"android":"levelo://app?vid=ca4db0f6-7db4-4133-a424-35102c4c0a66","ios":"levelo://app?vid=ca4db0f6-7db4-4133-a424-35102c4c0a66"},"vehicle_type_id":"4","last_reported":1742890402,"current_range_meters":12400,"station_id":"ce4bhnp2rcd13ifvqgvg","pricing_plan_id":"cebpf4jnsgd1na2vs0mg"},{"bike_id":"5c5d93e7-777b-4d12-9fc7-02e95bbb65d3","system_id":"levelo_inurba_marseille","lat":43.34136,"lon":5.4091,"is_reserved":false,"is_disabled":false,"rental_uris":{"android":"levelo://app?vid=5c5d93e7-777b-4d12-9fc7-02e95bbb65d3","ios":"levelo://app?vid=5c5d93e7-777b-4d12-9fc7-02e95bbb65d3"},"vehicle_type_id":"4","last_reported":1742890402,"current_range_meters":12000,"station_id":"ce4bhqh2rcd13ifvqhlg","pricing_plan_id":"cebpf4jnsgd1na2vs0mg"},{"bike_id":"01e18a58-61c0-4135-8f06-6020e1d348ce","system_id":"levelo_inurba_marseille","lat":43.28336,"lon":5.38111,"is_reserved":false,"is_disabled":false,"rental_uris":{"android":"levelo://app?vid=01e18a58-61c0-4135-8f06-6020e1d348ce","ios":"levelo://app?vid=01e18a58-61c0-4135-8f06-6020e1d348ce"},"vehicle_type_id":"4","last_reported":1742890402,"current_range_meters":12400,"station_id":"ce4bh412rcd13ifvqdr0","pricing_plan_id":"cebpf4jnsgd1na2vs0mg"},{"bike_id":"87bc971d-7f2a-4f5b-9231-d1a713fc5fde","system_id":"levelo_inurba_marseille","lat":43.31991,"lon":5.38151,"is_reserved":false,"is_disabled":false,"rental_uris":{"android":"levelo://app?vid=87bc971d-7f2a-4f5b-9231-d1a713fc5fde","ios":"levelo://app?vid=87bc971d-7f2a-4f5b-9231-d1a713fc5fde"},"vehicle_type_id":"4","last_reported":1742890402,"current_range_meters":12400,"station_id":"ce4bhr12rcd13ifvqhpg","pricing_plan_id":"cebpf4jnsgd1na2vs0mg"},{"bike_id":"14a7fa2c-fac1-4321-b2bc-58f9d1899727","system_id":"levelo_inurba_marseille","lat":43.31362,"lon":5.36783,"is_reserved":false,"is_disabled":false,"rental_uris":{"android":"levelo://app?vid=14a7fa2c-fac1-4321-b2bc-58f9d1899727","ios":"levelo://app?vid=14a7fa2c-fac1-4321-b2bc-58f9d1899727"},"vehicle_type_id":"4","last_reported":1742890402,"current_range_meters":12400,"station_id":"","pricing_plan_id":"cebpf4jnsgd1na2vs0mg"},{"bike_id":"fbc5a2aa-c348-4053-a813-9fe76586c035","system_id":"levelo_inurba_marseille","lat":43.24069,"lon":5.378,"is_reserved":false,"is_disabled":false,"rental_uris":{"android":"levelo://app?vid=fbc5a2aa-c348-4053-a813-9fe76586c035","ios":"levelo://app?vid=fbc5a2aa-c348-4053-a813-9fe76586c035"},"vehicle_type_id":"4","last_reported":1742890402,"current_range_meters":12800,"station_id":"ce4bhnp2rcd13ifvqgvg","pricing_plan_id":"cebpf4jnsgd1na2vs0mg"},{"bike_id":"1d3b7ffd-6d73-465a-9ef1-0a4fb7a2b9ce","system_id":"levelo_inurba_marseille","lat":43.265686,"lon":5.390074,"is_reserved":false,"is_disabled":false,"rental_uris":{"android":"levelo://app?vid=1d3b7ffd-6d73-465a-9ef1-0a4fb7a2b9ce","ios":"levelo://app?vid=1d3b7ffd-6d73-465a-9ef1-0a4fb7a2b9ce"},"vehicle_type_id":"4","last_reported":1742890402,"current_range_meters":12800,"station_id":"ce4bgrp2rcd13ifvqc9g","pricing_plan_id":"cebpf4jnsgd1na2vs0mg"},{"bike_id":"46292841-acf4-43f2-a4cf-ef4cf736cd97","system_id":"levelo_inurba_marseille","lat":43.30955,"lon":5.39061,"is_reserved":false,"is_disabled":false,"rental_uris":{"android":"levelo://app?vid=46292841-acf4-43f2-a4cf-ef4cf736cd97","ios":"levelo://app?vid=46292841-acf4-43f2-a4cf-ef4cf736cd97"},"vehicle_type_id":"4","last_reported":1742890402,"current_range_meters":12800,"station_id":"ce4bgup2rcd13ifvqco0","pricing_plan_id":"cebpf4jnsgd1na2vs0mg"},{"bike_id":"7036b117-8f19-49f9-9d96-28656aebee81","system_id":"levelo_inurba_marseille","lat":43.32477,"lon":5.36561,"is_reserved":false,"is_disabled":false,"rental_uris":{"android":"levelo://app?vid=7036b117-8f19-49f9-9d96-28656aebee81","ios":"levelo://app?vid=7036b117-8f19-49f9-9d96-28656aebee81"},"vehicle_type_id":"4","last_reported":1742890402,"current_range_meters":12800,"station_id":"ce4bhs12rcd13ifvqhvg","pricing_plan_id":"cebpf4jnsgd1na2vs0mg"},{"bike_id":"98d38a64-15b2-410c-b614-5635d097b9ba","system_id":"levelo_inurba_marseille","lat":43.30313,"lon":5.39203,"is_reserved":false,"is_disabled":true,"rental_uris":{"android":"levelo://app?vid=98d38a64-15b2-410c-b614-5635d097b9ba","ios":"levelo://app?vid=98d38a64-15b2-410c-b614-5635d097b9ba"},"vehicle_type_id":"4","last_reported":1742890402,"current_range_meters":12800,"station_id":"ce4bgkh2rcd13ifvqbk0","pricing_plan_id":"cebpf4jnsgd1na2vs0mg"},{"bike_id":"962f1b1c-b2b9-4bee-ba35-4104485ae3ea","system_id":"levelo_inurba_marseille","lat":43.26935,"lon":5.40255,"is_reserved":false,"is_disabled":false,"rental_uris":{"android":"levelo://app?vid=962f1b1c-b2b9-4bee-ba35-4104485ae3ea","ios":"levelo://app?vid=962f1b1c-b2b9-4bee-ba35-4104485ae3ea"},"vehicle_type_id":"4","last_reported":1742890402,"current_range_meters":12800,"station_id":"cjm6bp8fraef2m0cb0m0","pricing_plan_id":"cebpf4jnsgd1na2vs0mg"},{"bike_id":"b2ed1161-55f6-4d23-bc38-81a756301d28","system_id":"levelo_inurba_marseille","lat":43.29276,"lon":5.374393,"is_reserved":false,"is_disabled":false,"rental_uris":{"android":"levelo://app?vid=b2ed1161-55f6-4d23-bc38-81a756301d28","ios":"levelo://app?vid=b2ed1161-55f6-4d23-bc38-81a756301d28"},"vehicle_type_id":"4","last_reported":1742890402,"current_range_meters":12800,"station_id":"ce4bgi12rcd13ifvqb70","pricing_plan_id":"cebpf4jnsgd1na2vs0mg"},{"bike_id":"6c387c80-44bc-4229-9af1-520cdec44612","system_id":"levelo_inurba_marseille","lat":43.31338,"lon":5.36703,"is_reserved":false,"is_disabled":false,"rental_uris":{"android":"levelo://app?vid=6c387c80-44bc-4229-9af1-520cdec44612","ios":"levelo://app?vid=6c387c80-44bc-4229-9af1-520cdec44612"},"vehicle_type_id":"4","last_reported":1742890402,"current_range_meters":12800,"station_id":"","pricing_plan_id":"cebpf4jnsgd1na2vs0mg"},{"bike_id":"86b8800a-2e07-4204-ab58-563fa37d76f3","system_id":"levelo_inurba_marseille","lat":43.29542,"lon":5.3752,"is_reserved":false,"is_disabled":false,"rental_uris":{"android":"levelo://app?vid=86b8800a-2e07-4204-ab58-563fa37d76f3","ios":"levelo://app?vid=86b8800a-2e07-4204-ab58-563fa37d76f3"},"vehicle_type_id":"4","last_reported":1742890402,"current_range_meters":12000,"station_id":"ce4bgkp2rcd13ifvqbmg","pricing_plan_id":"cebpf4jnsgd1na2vs0mg"},{"bike_id":"38351309-2dec-417c-a558-74c8bc991036","system_id":"levelo_inurba_marseille","lat":43.3083,"lon":5.40615,"is_reserved":false,"is_disabled":true,"rental_uris":{"android":"levelo://app?vid=38351309-2dec-417c-a558-74c8bc991036","ios":"levelo://app?vid=38351309-2dec-417c-a558-74c8bc991036"},"vehicle_type_id":"4","last_reported":1742890402,"current_range_meters":13600,"station_id":"","pricing_plan_id":"cebpf4jnsgd1na2vs0mg"},{"bike_id":"4a3cef67-7854-486a-96a1-875577c9d100","system_id":"levelo_inurba_marseille","lat":43.280941,"lon":5.396703,"is_reserved":false,"is_disabled":true,"rental_uris":{"android":"levelo://app?vid=4a3cef67-7854-486a-96a1-875577c9d100","ios":"levelo://app?vid=4a3cef67-7854-486a-96a1-875577c9d100"},"vehicle_type_id":"4","last_reported":1742890402,"current_range_meters":13600,"station_id":"ce4bho12rcd13ifvqh2g","pricing_plan_id":"cebpf4jnsgd1na2vs0mg"},{"bike_id":"b052d2e2-e875-4904-a7e7-4c54f441a36b","system_id":"levelo_inurba_marseille","lat":43.31218,"lon":5.36843,"is_reserved":false,"is_disabled":false,"rental_uris":{"android":"levelo://app?vid=b052d2e2-e875-4904-a7e7-4c54f441a36b","ios":"levelo://app?vid=b052d2e2-e875-4904-a7e7-4c54f441a36b"},"vehicle_type_id":"4","last_reported":1742890402,"current_range_meters":13600,"station_id":"ce4bgl92rcd13ifvqbq0","pricing_plan_id":"cebpf4jnsgd1na2vs0mg"},{"bike_id":"348aafb6-710f-4f70-a308-412fbd7b5b6c","system_id":"levelo_inurba_marseille","lat":43.31333,"lon":5.36718,"is_reserved":false,"is_disabled":false,"rental_uris":{"android":"levelo://app?vid=348aafb6-710f-4f70-a308-412fbd7b5b6c","ios":"levelo://app?vid=348aafb6-710f-4f70-a308-412fbd7b5b6c"},"vehicle_type_id":"4","last_reported":1742890402,"current_range_meters":13600,"station_id":"ce4bgr92rcd13ifvqc6g","pricing_plan_id":"cebpf4jnsgd1na2vs0mg"},{"bike_id":"566a8886-e010-4357-b81b-ec36ecb02c50","system_id":"levelo_inurba_marseille","lat":43.29625,"lon":5.37752,"is_reserved":false,"is_disabled":false,"rental_uris":{"android":"levelo://app?vid=566a8886-e010-4357-b81b-ec36ecb02c50","ios":"levelo://app?vid=566a8886-e010-4357-b81b-ec36ecb02c50"},"vehicle_type_id":"4","last_reported":1742890402,"current_range_meters":13600,"station_id":"ce4bgi92rcd13ifvqb90","pricing_plan_id":"cebpf4jnsgd1na2vs0mg"},{"bike_id":"f28a28aa-72bf-4178-ad8f-4eaeef70955b","system_id":"levelo_inurba_marseille","lat":43.27497,"lon":5.42452,"is_reserved":false,"is_disabled":false,"rental_uris":{"android":"levelo://app?vid=f28a28aa-72bf-4178-ad8f-4eaeef70955b","ios":"levelo://app?vid=f28a28aa-72bf-4178-ad8f-4eaeef70955b"},"vehicle_type_id":"4","last_reported":1742890402,"current_range_meters":14000,"station_id":"ce4bhn92rcd13ifvqgrg","pricing_plan_id":"cebpf4jnsgd1na2vs0mg"},{"bike_id":"00ca086f-9b34-4f16-b49e-e78185d95d86","system_id":"levelo_inurba_marseille","lat":43.25943,"lon":5.40899,"is_reserved":false,"is_disabled":false,"rental_uris":{"android":"levelo://app?vid=00ca086f-9b34-4f16-b49e-e78185d95d86","ios":"levelo://app?vid=00ca086f-9b34-4f16-b49e-e78185d95d86"},"vehicle_type_id":"4","last_reported":1742890402,"current_range_meters":14000,"station_id":"ce4bhm92rcd13ifvqglg","pricing_plan_id":"cebpf4jnsgd1na2vs0mg"},{"bike_id":"8cf9ed55-750b-403d-bd21-a5827ca04aab","system_id":"levelo_inurba_marseille","lat":43.279907,"lon":5.399977,"is_reserved":false,"is_disabled":false,"rental_uris":{"android":"levelo://app?vid=8cf9ed55-750b-403d-bd21-a5827ca04aab","ios":"levelo://app?vid=8cf9ed55-750b-403d-bd21-a5827ca04aab"},"vehicle_type_id":"4","last_reported":1742890402,"current_range_meters":14000,"station_id":"","pricing_plan_id":"cebpf4jnsgd1na2vs0mg"},{"bike_id":"9133fdea-af27-4285-a8b7-55205ae7757b","system_id":"levelo_inurba_marseille","lat":43.26032,"lon":5.3755,"is_reserved":false,"is_disabled":false,"rental_uris":{"android":"levelo://app?vid=9133fdea-af27-4285-a8b7-55205ae7757b","ios":"levelo://app?vid=9133fdea-af27-4285-a8b7-55205ae7757b"},"vehicle_type_id":"4","last_reported":1742890402,"current_range_meters":14000,"station_id":"ce4bhgh2rcd13ifvqfa0","pricing_plan_id":"cebpf4jnsgd1na2vs0mg"},{"bike_id":"32da8814-a7b5-4ece-930c-22fa04b7c80b","system_id":"levelo_inurba_marseille","lat":43.30897,"lon":5.36847,"is_reserved":false,"is_disabled":false,"rental_uris":{"android":"levelo://app?vid=32da8814-a7b5-4ece-930c-22fa04b7c80b","ios":"levelo://app?vid=32da8814-a7b5-4ece-930c-22fa04b7c80b"},"vehicle_type_id":"4","last_reported":1742890402,"current_range_meters":14000,"station_id":"ce4bgn92rcd13ifvqbvg","pricing_plan_id":"cebpf4jnsgd1na2vs0mg"},{"bike_id":"96f5fe69-579d-486e-98d9-d0d736a08287","system_id":"levelo_inurba_marseille","lat":43.34144,"lon":5.40902,"is_reserved":false,"is_disabled":false,"rental_uris":{"android":"levelo://app?vid=96f5fe69-579d-486e-98d9-d0d736a08287","ios":"levelo://app?vid=96f5fe69-579d-486e-98d9-d0d736a08287"},"vehicle_type_id":"4","last_reported":1742890402,"current_range_meters":13600,"station_id":"ce4bhqh2rcd13ifvqhlg","pricing_plan_id":"cebpf4jnsgd1na2vs0mg"},{"bike_id":"79664a4a-5126-480e-aac5-9e18e06e32ce","system_id":"levelo_inurba_marseille","lat":43.30901,"lon":5.36853,"is_reserved":false,"is_disabled":false,"rental_uris":{"android":"levelo://app?vid=79664a4a-5126-480e-aac5-9e18e06e32ce","ios":"levelo://app?vid=79664a4a-5126-480e-aac5-9e18e06e32ce"},"vehicle_type_id":"4","last_reported":1742890402,"current_range_meters":14000,"station_id":"ce4bgn92rcd13ifvqbvg","pricing_plan_id":"cebpf4jnsgd1na2vs0mg"},{"bike_id":"f30dcc4e-e3e8-4967-a3c8-dd76f52b2506","system_id":"levelo_inurba_marseille","lat":43.29631,"lon":5.377138,"is_reserved":false,"is_disabled":false,"rental_uris":{"android":"levelo://app?vid=f30dcc4e-e3e8-4967-a3c8-dd76f52b2506","ios":"levelo://app?vid=f30dcc4e-e3e8-4967-a3c8-dd76f52b2506"},"vehicle_type_id":"4","last_reported":1742890402,"current_range_meters":14000,"station_id":"ce4bgi92rcd13ifvqb90","pricing_plan_id":"cebpf4jnsgd1na2vs0mg"},{"bike_id":"19ba041b-c7bb-491b-a917-058fe073750b","system_id":"levelo_inurba_marseille","lat":43.30564,"lon":5.36539,"is_reserved":false,"is_disabled":false,"rental_uris":{"android":"levelo://app?vid=19ba041b-c7bb-491b-a917-058fe073750b","ios":"levelo://app?vid=19ba041b-c7bb-491b-a917-058fe073750b"},"vehicle_type_id":"4","last_reported":1742890402,"current_range_meters":14000,"station_id":"ce4bgs12rcd13ifvqcag","pricing_plan_id":"cebpf4jnsgd1na2vs0mg"},{"bike_id":"a7c20d7c-6aa4-4172-aecd-22f75df8f4f5","system_id":"levelo_inurba_marseille","lat":43.24996,"lon":5.38912,"is_reserved":false,"is_disabled":false,"rental_uris":{"android":"levelo://app?vid=a7c20d7c-6aa4-4172-aecd-22f75df8f4f5","ios":"levelo://app?vid=a7c20d7c-6aa4-4172-aecd-22f75df8f4f5"},"vehicle_type_id":"4","last_reported":1742890402,"current_range_meters":14000,"station_id":"ce4bhgp2rcd13ifvqfd0","pricing_plan_id":"cebpf4jnsgd1na2vs0mg"},{"bike_id":"669a03dd-86fc-4194-9d1f-57d32977ea07","system_id":"levelo_inurba_marseille","lat":43.25094,"lon":5.39508,"is_reserved":false,"is_disabled":false,"rental_uris":{"android":"levelo://app?vid=669a03dd-86fc-4194-9d1f-57d32977ea07","ios":"levelo://app?vid=669a03dd-86fc-4194-9d1f-57d32977ea07"},"vehicle_type_id":"4","last_reported":1742890402,"current_range_meters":14400,"station_id":"ce4bhm12rcd13ifvqgkg","pricing_plan_id":"cebpf4jnsgd1na2vs0mg"},{"bike_id":"a664c280-0f85-4300-8ddf-2ac4585f71ba","system_id":"levelo_inurba_marseille","lat":43.25927,"lon":5.40908,"is_reserved":false,"is_disabled":false,"rental_uris":{"android":"levelo://app?vid=a664c280-0f85-4300-8ddf-2ac4585f71ba","ios":"levelo://app?vid=a664c280-0f85-4300-8ddf-2ac4585f71ba"},"vehicle_type_id":"4","last_reported":1742890402,"current_range_meters":14400,"station_id":"ce4bhm92rcd13ifvqglg","pricing_plan_id":"cebpf4jnsgd1na2vs0mg"},{"bike_id":"fa6884ab-1000-4cc8-a687-2a9e14dbad58","system_id":"levelo_inurba_marseille","lat":43.28931,"lon":5.36638,"is_reserved":false,"is_disabled":false,"rental_uris":{"android":"levelo://app?vid=fa6884ab-1000-4cc8-a687-2a9e14dbad58","ios":"levelo://app?vid=fa6884ab-1000-4cc8-a687-2a9e14dbad58"},"vehicle_type_id":"4","last_reported":1742890402,"current_range_meters":14400,"station_id":"ce4bhap2rcd13ifvqek0","pricing_plan_id":"cebpf4jnsgd1na2vs0mg"},{"bike_id":"1697d1ce-8d8b-44cc-8fbe-26493ede4c93","system_id":"levelo_inurba_marseille","lat":43.25933,"lon":5.4091,"is_reserved":false,"is_disabled":false,"rental_uris":{"android":"levelo://app?vid=1697d1ce-8d8b-44cc-8fbe-26493ede4c93","ios":"levelo://app?vid=1697d1ce-8d8b-44cc-8fbe-26493ede4c93"},"vehicle_type_id":"4","last_reported":1742890402,"current_range_meters":14400,"station_id":"ce4bhm92rcd13ifvqglg","pricing_plan_id":"cebpf4jnsgd1na2vs0mg"},{"bike_id":"fc3eec86-5c89-461a-b54f-15ec4ee366fd","system_id":"levelo_inurba_marseille","lat":43.26572,"lon":5.39035,"is_reserved":false,"is_disabled":true,"rental_uris":{"android":"levelo://app?vid=fc3eec86-5c89-461a-b54f-15ec4ee366fd","ios":"levelo://app?vid=fc3eec86-5c89-461a-b54f-15ec4ee366fd"},"vehicle_type_id":"4","last_reported":1742890402,"current_range_meters":14400,"station_id":"ce4bhe12rcd13ifvqf30","pricing_plan_id":"cebpf4jnsgd1na2vs0mg"},{"bike_id":"b76da33c-1e69-45f5-a130-9e3e15c3cded","system_id":"levelo_inurba_marseille","lat":43.30188,"lon":5.36619,"is_reserved":false,"is_disabled":false,"rental_uris":{"android":"levelo://app?vid=b76da33c-1e69-45f5-a130-9e3e15c3cded","ios":"levelo://app?vid=b76da33c-1e69-45f5-a130-9e3e15c3cded"},"vehicle_type_id":"4","last_reported":1742890402,"current_range_meters":14400,"station_id":"ce4bgrh2rcd13ifvqc8g","pricing_plan_id":"cebpf4jnsgd1na2vs0mg"},{"bike_id":"c7e4f9b6-ef9d-4c18-93a6-9d7c570d7304","system_id":"levelo_inurba_marseille","lat":43.25932,"lon":5.40909,"is_reserved":false,"is_disabled":false,"rental_uris":{"android":"levelo://app?vid=c7e4f9b6-ef9d-4c18-93a6-9d7c570d7304","ios":"levelo://app?vid=c7e4f9b6-ef9d-4c18-93a6-9d7c570d7304"},"vehicle_type_id":"4","last_reported":1742890402,"current_range_meters":14800,"station_id":"ce4bhm92rcd13ifvqglg","pricing_plan_id":"cebpf4jnsgd1na2vs0mg"},{"bike_id":"15a506cd-0078-45dc-9589-c33b68015d27","system_id":"levelo_inurba_marseille","lat":43.313457,"lon":5.367096,"is_reserved":false,"is_disabled":false,"rental_uris":{"android":"levelo://app?vid=15a506cd-0078-45dc-9589-c33b68015d27","ios":"levelo://app?vid=15a506cd-0078-45dc-9589-c33b68015d27"},"vehicle_type_id":"4","last_reported":1742890402,"current_range_meters":14800,"station_id":"ce4bgr92rcd13ifvqc6g","pricing_plan_id":"cebpf4jnsgd1na2vs0mg"},{"bike_id":"a81cdb96-c37a-4012-98fe-c3a7d84d6dd8","system_id":"levelo_inurba_marseille","lat":43.30916,"lon":5.3686,"is_reserved":false,"is_disabled":false,"rental_uris":{"android":"levelo://app?vid=a81cdb96-c37a-4012-98fe-c3a7d84d6dd8","ios":"levelo://app?vid=a81cdb96-c37a-4012-98fe-c3a7d84d6dd8"},"vehicle_type_id":"4","last_reported":1742890402,"current_range_meters":14800,"station_id":"ce4bgn92rcd13ifvqbvg","pricing_plan_id":"cebpf4jnsgd1na2vs0mg"},{"bike_id":"fd8a75d3-0882-41af-8e38-82df19569887","system_id":"levelo_inurba_marseille","lat":43.31017,"lon":5.37873,"is_reserved":false,"is_disabled":false,"rental_uris":{"android":"levelo://app?vid=fd8a75d3-0882-41af-8e38-82df19569887","ios":"levelo://app?vid=fd8a75d3-0882-41af-8e38-82df19569887"},"vehicle_type_id":"4","last_reported":1742890402,"current_range_meters":14800,"station_id":"","pricing_plan_id":"cebpf4jnsgd1na2vs0mg"},{"bike_id":"4bf82290-6c34-4724-be7a-fccc387df49e","system_id":"levelo_inurba_marseille","lat":43.31486,"lon":5.373,"is_reserved":false,"is_disabled":false,"rental_uris":{"android":"levelo://app?vid=4bf82290-6c34-4724-be7a-fccc387df49e","ios":"levelo://app?vid=4bf82290-6c34-4724-be7a-fccc387df49e"},"vehicle_type_id":"4","last_reported":1742890402,"current_range_meters":14800,"station_id":"ce4bgt12rcd13ifvqcd0","pricing_plan_id":"cebpf4jnsgd1na2vs0mg"},{"bike_id":"aceb2cde-1c6f-4e33-af95-0b75ef1e3882","system_id":"levelo_inurba_marseille","lat":43.29297,"lon":5.3746,"is_reserved":false,"is_disabled":false,"rental_uris":{"android":"levelo://app?vid=aceb2cde-1c6f-4e33-af95-0b75ef1e3882","ios":"levelo://app?vid=aceb2cde-1c6f-4e33-af95-0b75ef1e3882"},"vehicle_type_id":"4","last_reported":1742890402,"current_range_meters":14800,"station_id":"ce4bgi12rcd13ifvqb70","pricing_plan_id":"cebpf4jnsgd1na2vs0mg"},{"bike_id":"df1efd5f-be49-4301-af80-2a80146ee489","system_id":"levelo_inurba_marseille","lat":43.2749,"lon":5.42482,"is_reserved":false,"is_disabled":true,"rental_uris":{"android":"levelo://app?vid=df1efd5f-be49-4301-af80-2a80146ee489","ios":"levelo://app?vid=df1efd5f-be49-4301-af80-2a80146ee489"},"vehicle_type_id":"4","last_reported":1742890402,"current_range_meters":15200,"station_id":"ce4bhn92rcd13ifvqgrg","pricing_plan_id":"cebpf4jnsgd1na2vs0mg"},{"bike_id":"5491d231-7d82-481f-895c-e3476269e939","system_id":"levelo_inurba_marseille","lat":43.3108,"lon":5.42433,"is_reserved":false,"is_disabled":false,"rental_uris":{"android":"levelo://app?vid=5491d231-7d82-481f-895c-e3476269e939","ios":"levelo://app?vid=5491d231-7d82-481f-895c-e3476269e939"},"vehicle_type_id":"4","last_reported":1742890402,"current_range_meters":15200,"station_id":"ce4bhp92rcd13ifvqhag","pricing_plan_id":"cebpf4jnsgd1na2vs0mg"},{"bike_id":"da43d894-069e-486e-a738-14255c3635ad","system_id":"levelo_inurba_marseille","lat":43.26066,"lon":5.39416,"is_reserved":false,"is_disabled":false,"rental_uris":{"android":"levelo://app?vid=da43d894-069e-486e-a738-14255c3635ad","ios":"levelo://app?vid=da43d894-069e-486e-a738-14255c3635ad"},"vehicle_type_id":"4","last_reported":1742890402,"current_range_meters":15200,"station_id":"","pricing_plan_id":"cebpf4jnsgd1na2vs0mg"},{"bike_id":"682f6eaa-4c29-4c3b-a483-b3baee9bd977","system_id":"levelo_inurba_marseille","lat":43.2593,"lon":5.4091,"is_reserved":false,"is_disabled":true,"rental_uris":{"android":"levelo://app?vid=682f6eaa-4c29-4c3b-a483-b3baee9bd977","ios":"levelo://app?vid=682f6eaa-4c29-4c3b-a483-b3baee9bd977"},"vehicle_type_id":"4","last_reported":1742890402,"current_range_meters":15200,"station_id":"ce4bhm92rcd13ifvqglg","pricing_plan_id":"cebpf4jnsgd1na2vs0mg"},{"bike_id":"20c2e422-476e-46f6-8082-d27ad9ad987c","system_id":"levelo_inurba_marseille","lat":43.26688,"lon":5.3828,"is_reserved":false,"is_disabled":false,"rental_uris":{"android":"levelo://app?vid=20c2e422-476e-46f6-8082-d27ad9ad987c","ios":"levelo://app?vid=20c2e422-476e-46f6-8082-d27ad9ad987c"},"vehicle_type_id":"4","last_reported":1742890402,"current_range_meters":15200,"station_id":"ce4bhg92rcd13ifvqf90","pricing_plan_id":"cebpf4jnsgd1na2vs0mg"},{"bike_id":"e7844ca5-b70d-4f5f-a38a-039ddece2ac1","system_id":"levelo_inurba_marseille","lat":43.30336,"lon":5.36896,"is_reserved":false,"is_disabled":false,"rental_uris":{"android":"levelo://app?vid=e7844ca5-b70d-4f5f-a38a-039ddece2ac1","ios":"levelo://app?vid=e7844ca5-b70d-4f5f-a38a-039ddece2ac1"},"vehicle_type_id":"4","last_reported":1742890402,"current_range_meters":15200,"station_id":"ce4bgqh2rcd13ifvqc5g","pricing_plan_id":"cebpf4jnsgd1na2vs0mg"},{"bike_id":"0716785e-a06b-46f5-91e1-2a9a78e1595d","system_id":"levelo_inurba_marseille","lat":43.26947,"lon":5.3863,"is_reserved":false,"is_disabled":false,"rental_uris":{"android":"levelo://app?vid=0716785e-a06b-46f5-91e1-2a9a78e1595d","ios":"levelo://app?vid=0716785e-a06b-46f5-91e1-2a9a78e1595d"},"vehicle_type_id":"4","last_reported":1742890402,"current_range_meters":15200,"station_id":"ce4bhh92rcd13ifvqfh0","pricing_plan_id":"cebpf4jnsgd1na2vs0mg"},{"bike_id":"f27a066d-098a-4f38-98f0-ce8cad730371","system_id":"levelo_inurba_marseille","lat":43.24194,"lon":5.39722,"is_reserved":false,"is_disabled":false,"rental_uris":{"android":"levelo://app?vid=f27a066d-098a-4f38-98f0-ce8cad730371","ios":"levelo://app?vid=f27a066d-098a-4f38-98f0-ce8cad730371"},"vehicle_type_id":"4","last_reported":1742890402,"current_range_meters":15200,"station_id":"ce4bhn12rcd13ifvqgpg","pricing_plan_id":"cebpf4jnsgd1na2vs0mg"},