{"last_updated":1724357380,"ttl":30,"version":"2.2","data":{"bikes":[{"bike_id":"002bda7e-8b8d-4517-af2d-b75f75e58d67","system_id":"levelo_inurba_marseille","lat":43.313391,"lon":5.36706,"is_reserved":false,"is_disabled":false,"rental_uris":{"android":"levelo://app?vid=002bda7e-8b8d-4517-af2d-b75f75e58d67","ios":"levelo://app?vid=002bda7e-8b8d-4517-af2d-b75f75e58d67"},"vehicle_type_id":"4","last_reported":1724357381,"current_range_meters":20800,"station_id":"ce4bgr92rcd13ifvqc6g","pricing_plan_id":"cebpf4jnsgd1na2vs0mg"},{"bike_id":"a18fff10-9a28-491b-b3fa-0eb15af5de92","system_id":"levelo_inurba_marseille","lat":43.31214,"lon":5.36855,"is_reserved":false,"is_disabled":false,"rental_uris":{"android":"levelo://app?vid=a18fff10-9a28-491b-b3fa-0eb15af5de92","ios":"levelo://app?vid=a18fff10-9a28-491b-b3fa-0eb15af5de92"},"vehicle_type_id":"4","last_reported":1724357381,"current_range_meters":10000,"station_id":"ce4bgl92rcd13ifvqbq0","pricing_plan_id":"cebpf4jnsgd1na2vs0mg"},{"bike_id":"a975c558-49f8-492a-9cb3-980371e8bf55","system_id":"levelo_inurba_marseille","lat":43.309108,"lon":5.368402,"is_reserved":false,"is_disabled":false,"rental_uris":{"android":"levelo://app?vid=a975c558-49f8-492a-9cb3-980371e8bf55","ios":"levelo://app?vid=a975c558-49f8-492a-9cb3-980371e8bf55"},"vehicle_type_id":"4","last_reported":1724357381,"current_range_meters":0,"station_id":"ce4bgn92rcd13ifvqbvg","pricing_plan_id":"cebpf4jnsgd1na2vs0mg"},{"bike_id":"2ba9944d-0013-4449-9694-a9bab8a207ca","system_id":"levelo_inurba_marseille","lat":43.314811,"lon":5.373103,"is_reserved":false,"is_disabled":false,"rental_uris":{"android":"levelo://app?vid=2ba9944d-0013-4449-9694-a9bab8a207ca","ios":"levelo://app?vid=2ba9944d-0013-4449-9694-a9bab8a207ca"},"vehicle_type_id":"4","last_reported":1724357381,"current_range_meters":28800,"station_id":"ce4bgt12rcd13ifvqcd0","pricing_plan_id":"cebpf4jnsgd1na2vs0mg"},{"bike_id":"7832d299-b3b9-4ad2-b5f9-3226a41efe6d","system_id":"levelo_inurba_marseille","lat":43.314811,"lon":5.373103,"is_reserved":false,"is_disabled":false,"rental_uris":{"android":"levelo://app?vid=7832d299-b3b9-4ad2-b5f9-3226a41efe6d","ios":"levelo://app?vid=7832d299-b3b9-4ad2-b5f9-3226a41efe6d"},"vehicle_type_id":"4","last_reported":1724357381,"current_range_meters":9600,"station_id":"ce4bgt12rcd13ifvqcd0","pricing_plan_id":"cebpf4jnsgd1na2vs0mg"},{"bike_id":"61ec6cda-57e7-45a5-b2cd-7030155bbe9c","system_id":"levelo_inurba_marseille","lat":43.309039,"lon":5.371797,"is_reserved":false,"is_disabled":false,"rental_uris":{"android":"levelo://app?vid=61ec6cda-57e7-45a5-b2cd-7030155bbe9c","ios":"levelo://app?vid=61ec6cda-57e7-45a5-b2cd-7030155bbe9c"},"vehicle_type_id":"4","last_reported":1724357381,"current_range_meters":21200,"station_id":"ce4bguh2rcd13ifvqckg","pricing_plan_id":"cebpf4jnsgd1na2vs0mg"},{"bike_id":"aca0831f-c485-4cb2-8ded-0b46ea44cd16","system_id":"levelo_inurba_marseille","lat":43.309039,"lon":5.371797,"is_reserved":false,"is_disabled":false,"rental_uris":{"android":"levelo://app?vid=aca0831f-c485-4cb2-8ded-0b46ea44cd16","ios":"levelo://app?vid=aca0831f-c485-4cb2-8ded-0b46ea44cd16"},"vehicle_type_id":"4","last_reported":1724357381,"current_range_meters":29600,"station_id":"ce4bguh2rcd13ifvqckg","pricing_plan_id":"cebpf4jnsgd1na2vs0mg"},{"bike_id":"907b1499-90cc-49d1-86cb-1dcefb194d0d","system_id":"levelo_inurba_marseille","lat":43.308827,"lon":5.372003,"is_reserved":false,"is_disabled":false,"rental_uris":{"android":"levelo://app?vid=907b1499-90cc-49d1-86cb-1dcefb194d0d","ios":"levelo://app?vid=907b1499-90cc-49d1-86cb-1dcefb194d0d"},"vehicle_type_id":"4","last_reported":1724357381,"current_range_meters":30800,"station_id":"ce4bguh2rcd13ifvqckg","pricing_plan_id":"cebpf4jnsgd1na2vs0mg"},{"bike_id":"e790dc06-7de3-49e5-a7b6-268ea3d2343f","system_id":"levelo_inurba_marseille","lat":43.305714,"lon":5.365633,"is_reserved":false,"is_disabled":false,"rental_uris":{"android":"levelo://app?vid=e790dc06-7de3-49e5-a7b6-268ea3d2343f","ios":"levelo://app?vid=e790dc06-7de3-49e5-a7b6-268ea3d2343f"},"vehicle_type_id":"4","last_reported":1724357381,"current_range_meters":29200,"station_id":"ce4bgs12rcd13ifvqcag","pricing_plan_id":"cebpf4jnsgd1na2vs0mg"},{"bike_id":"c09082dc-868e-4442-8548-67ae619424ce","system_id":"levelo_inurba_marseille","lat":43.305712,"lon":5.365641,"is_reserved":false,"is_disabled":false,"rental_uris":{"android":"levelo://app?vid=c09082dc-868e-4442-8548-67ae619424ce","ios":"levelo://app?vid=c09082dc-868e-4442-8548-67ae619424ce"},"vehicle_type_id":"4","last_reported":1724357381,"current_range_meters":12000,"station_id":"ce4bgs12rcd13ifvqcag","pricing_plan_id":"cebpf4jnsgd1na2vs0mg"},{"bike_id":"2f3d41b7-cf13-4919-a008-90ebf49e7afe","system_id":"levelo_inurba_marseille","lat":43.305368,"lon":5.367343,"is_reserved":false,"is_disabled":false,"rental_uris":{"android":"levelo://app?vid=2f3d41b7-cf13-4919-a008-90ebf49e7afe","ios":"levelo://app?vid=2f3d41b7-cf13-4919-a008-90ebf49e7afe"},"vehicle_type_id":"4","last_reported":1724357381,"current_range_meters":27600,"station_id":"ce4bgrp2rcd13ifvqc9g","pricing_plan_id":"cebpf4jnsgd1na2vs0mg"},{"bike_id":"e145d466-e2e3-4c1a-b174-4748cc213711","system_id":"levelo_inurba_marseille","lat":43.305714,"lon":5.365633,"is_reserved":false,"is_disabled":false,"rental_uris":{"android":"levelo://app?vid=e145d466-e2e3-4c1a-b174-4748cc213711","ios":"levelo://app?vid=e145d466-e2e3-4c1a-b174-4748cc213711"},"vehicle_type_id":"4","last_reported":1724357381,"current_range_meters":23200,"station_id":"ce4bgs12rcd13ifvqcag","pricing_plan_id":"cebpf4jnsgd1na2vs0mg"},{"bike_id":"08562684-37de-4c01-8f97-cbf3ba655cb2","system_id":"levelo_inurba_marseille","lat":43.311125,"lon":5.377624,"is_reserved":false,"is_disabled":false,"rental_uris":{"android":"levelo://app?vid=08562684-37de-4c01-8f97-cbf3ba655cb2","ios":"levelo://app?vid=08562684-37de-4c01-8f97-cbf3ba655cb2"},"vehicle_type_id":"4","last_reported":1724357381,"current_range_meters":18000,"station_id":"ce4bgt92rcd13ifvqcg0","pricing_plan_id":"cebpf4jnsgd1na2vs0mg"},{"bike_id":"57e3c0b3-1345-43ec-b9d2-f3e276157c24","system_id":"levelo_inurba_marseille","lat":43.311183,"lon":5.377698,"is_reserved":false,"is_disabled":false,"rental_uris":{"android":"levelo://app?vid=57e3c0b3-1345-43ec-b9d2-f3e276157c24","ios":"levelo://app?vid=57e3c0b3-1345-43ec-b9d2-f3e276157c24"},"vehicle_type_id":"4","last_reported":1724357381,"current_range_meters":0,"station_id":"ce4bgt92rcd13ifvqcg0","pricing_plan_id":"cebpf4jnsgd1na2vs0mg"},{"bike_id":"756693be-2fce-46d4-8ec6-477ad762f233","system_id":"levelo_inurba_marseille","lat":43.311126,"lon":5.377721,"is_reserved":false,"is_disabled":false,"rental_uris":{"android":"levelo://app?vid=756693be-2fce-46d4-8ec6-477ad762f233","ios":"levelo://app?vid=756693be-2fce-46d4-8ec6-477ad762f233"},"vehicle_type_id":"4","last_reported":1724357381,"current_range_meters":0,"station_id":"ce4bgt92rcd13ifvqcg0","pricing_plan_id":"cebpf4jnsgd1na2vs0mg"},{"bike_id":"539b314a-816c-401b-bd35-4e3fc91ec66c","system_id":"levelo_inurba_marseille","lat":43.307945,"lon":5.376487,"is_reserved":false,"is_disabled":false,"rental_uris":{"android":"levelo://app?vid=539b314a-816c-401b-bd35-4e3fc91ec66c","ios":"levelo://app?vid=539b314a-816c-401b-bd35-4e3fc91ec66c"},"vehicle_type_id":"4","last_reported":1724357381,"current_range_meters":11600,"station_id":"ce4bgv92rcd13ifvqcq0","pricing_plan_id":"cebpf4jnsgd1na2vs0mg"},{"bike_id":"b0379d6b-5ee6-4e2a-a50b-c4b782d973d6","system_id":"levelo_inurba_marseille","lat":43.307945,"lon":5.376487,"is_reserved":false,"is_disabled":false,"rental_uris":{"android":"levelo://app?vid=b0379d6b-5ee6-4e2a-a50b-c4b782d973d6","ios":"levelo://app?vid=b0379d6b-5ee6-4e2a-a50b-c4b782d973d6"},"vehicle_type_id":"4","last_reported":1724357381,"current_range_meters":26000,"station_id":"ce4bgv92rcd13ifvqcq0","pricing_plan_id":"cebpf4jnsgd1na2vs0mg"},{"bike_id":"8e443546-092c-4be4-a3c2-a9fffcc7f376","system_id":"levelo_inurba_marseille","lat":43.307945,"lon":5.376487,"is_reserved":false,"is_disabled":false,"rental_uris":{"android":"levelo://app?vid=8e443546-092c-4be4-a3c2-a9fffcc7f376","ios":"levelo://app?vid=8e443546-092c-4be4-a3c2-a9fffcc7f376"},"vehicle_type_id":"4","last_reported":1724357381,"current_range_meters":9600,"station_id":"ce4bgv92rcd13ifvqcq0","pricing_plan_id":"cebpf4jnsgd1na2vs0mg"},{"bike_id":"db6c25d8-c2a9-4f80-b6cf-cba8182d6b29","system_id":"levelo_inurba_marseille","lat":43.307945,"lon":5.376487,"is_reserved":false,"is_disabled":false,"rental_uris":{"android":"levelo://app?vid=db6c25d8-c2a9-4f80-b6cf-cba8182d6b29","ios":"levelo://app?vid=db6c25d8-c2a9-4f80-b6cf-cba8182d6b29"},"vehicle_type_id":"4","last_reported":1724357381,"current_range_meters":1200,"station_id":"ce4bgv92rcd13ifvqcq0","pricing_plan_id":"cebpf4jnsgd1na2vs0mg"},{"bike_id":"57be9a2b-49cb-4cc6-966c-880f255f8a19","system_id":"levelo_inurba_marseille","lat":43.307747,"lon":5.376537,"is_reserved":false,"is_disabled":false,"rental_uris":{"android":"levelo://app?vid=57be9a2b-49cb-4cc6-966c-880f255f8a19","ios":"levelo://app?vid=57be9a2b-49cb-4cc6-966c-880f255f8a19"},"vehicle_type_id":"4","last_reported":1724357381,"current_range_meters":0,"station_id":"ce4bgv92rcd13ifvqcq0","pricing_plan_id":"cebpf4jnsgd1na2vs0mg"},{"bike_id":"8f5be03f-e6c9-4e92-b5b7-ce060d3a5201","system_id":"levelo_inurba_marseille","lat":43.317075,"lon":5.377367,"is_reserved":false,"is_disabled":false,"rental_uris":{"android":"levelo://app?vid=8f5be03f-e6c9-4e92-b5b7-ce060d3a5201","ios":"levelo://app?vid=8f5be03f-e6c9-4e92-b5b7-ce060d3a5201"},"vehicle_type_id":"4","last_reported":1724357381,"current_range_meters":20000,"station_id":"ce4bgth2rcd13ifvqch0","pricing_plan_id":"cebpf4jnsgd1na2vs0mg"},{"bike_id":"42250ff1-7809-4c19-bebd-30f8db27af85","system_id":"levelo_inurba_marseille","lat":43.30304,"lon":5.368987,"is_reserved":false,"is_disabled":false,"rental_uris":{"android":"levelo://app?vid=42250ff1-7809-4c19-bebd-30f8db27af85","ios":"levelo://app?vid=42250ff1-7809-4c19-bebd-30f8db27af85"},"vehicle_type_id":"4","last_reported":1724357381,"current_range_meters":22000,"station_id":"ce4bgqh2rcd13ifvqc5g","pricing_plan_id":"cebpf4jnsgd1na2vs0mg"},{"bike_id":"9c6f8d7d-d137-4d31-b79d-0eafbe7ada69","system_id":"levelo_inurba_marseille","lat":43.303046,"lon":5.368981,"is_reserved":false,"is_disabled":false,"rental_uris":{"android":"levelo://app?vid=9c6f8d7d-d137-4d31-b79d-0eafbe7ada69","ios":"levelo://app?vid=9c6f8d7d-d137-4d31-b79d-0eafbe7ada69"},"vehicle_type_id":"4","last_reported":1724357381,"current_range_meters":20800,"station_id":"ce4bgqh2rcd13ifvqc5g","pricing_plan_id":"cebpf4jnsgd1na2vs0mg"},{"bike_id":"e953c591-3cea-469b-9aee-9207eb8da58d","system_id":"levelo_inurba_marseille","lat":43.305137,"lon":5.37622,"is_reserved":false,"is_disabled":false,"rental_uris":{"android":"levelo://app?vid=e953c591-3cea-469b-9aee-9207eb8da58d","ios":"levelo://app?vid=e953c591-3cea-469b-9aee-9207eb8da58d"},"vehicle_type_id":"4","last_reported":1724357381,"current_range_meters":0,"station_id":"","pricing_plan_id":"cebpf4jnsgd1na2vs0mg"},{"bike_id":"04e56b23-d609-4abf-93ae-587444fa725f","system_id":"levelo_inurba_marseille","lat":43.308012,"lon":5.381511,"is_reserved":false,"is_disabled":false,"rental_uris":{"android":"levelo://app?vid=04e56b23-d609-4abf-93ae-587444fa725f","ios":"levelo://app?vid=04e56b23-d609-4abf-93ae-587444fa725f"},"vehicle_type_id":"4","last_reported":1724357381,"current_range_meters":22000,"station_id":"ce4bgt12rcd13ifvqce0","pricing_plan_id":"cebpf4jnsgd1na2vs0mg"},{"bike_id":"37044abe-49f8-4e6a-ae35-e33cc4724939","system_id":"levelo_inurba_marseille","lat":43.301544,"lon":5.366006,"is_reserved":false,"is_disabled":false,"rental_uris":{"android":"levelo://app?vid=37044abe-49f8-4e6a-ae35-e33cc4724939","ios":"levelo://app?vid=37044abe-49f8-4e6a-ae35-e33cc4724939"},"vehicle_type_id":"4","last_reported":1724357381,"current_range_meters":800,"station_id":"ce4bgrh2rcd13ifvqc8g","pricing_plan_id":"cebpf4jnsgd1na2vs0mg"},{"bike_id":"e2d7f70e-4bc7-4c7d-8d8f-879bb7a3c8f0","system_id":"levelo_inurba_marseille","lat":43.308012,"lon":5.381511,"is_reserved":false,"is_disabled":false,"rental_uris":{"android":"levelo://app?vid=e2d7f70e-4bc7-4c7d-8d8f-879bb7a3c8f0","ios":"levelo://app?vid=e2d7f70e-4bc7-4c7d-8d8f-879bb7a3c8f0"},"vehicle_type_id":"4","last_reported":1724357381,"current_range_meters":28800,"station_id":"ce4bgt12rcd13ifvqce0","pricing_plan_id":"cebpf4jnsgd1na2vs0mg"},{"bike_id":"c9c1b5b7-7d80-4af8-9812-4292b68861f7","system_id":"levelo_inurba_marseille","lat":43.308012,"lon":5.381511,"is_reserved":false,"is_disabled":false,"rental_uris":{"android":"levelo://app?vid=c9c1b5b7-7d80-4af8-9812-4292b68861f7","ios":"levelo://app?vid=c9c1b5b7-7d80-4af8-9812-4292b68861f7"},"vehicle_type_id":"4","last_reported":1724357381,"current_range_meters":0,"station_id":"ce4bgt12rcd13ifvqce0","pricing_plan_id":"cebpf4jnsgd1na2vs0mg"},{"bike_id":"9b5733e6-c01b-4ddf-b184-f0364a153a92","system_id":"levelo_inurba_marseille","lat":43.308012,"lon":5.381511,"is_reserved":false,"is_disabled":false,"rental_uris":{"android":"levelo://app?vid=9b5733e6-c01b-4ddf-b184-f0364a153a92","ios":"levelo://app?vid=9b5733e6-c01b-4ddf-b184-f0364a153a92"},"vehicle_type_id":"4","last_reported":1724357381,"current_range_meters":0,"station_id":"ce4bgt12rcd13ifvqce0","pricing_plan_id":"cebpf4jnsgd1na2vs0mg"},{"bike_id":"28fbae94-07d3-423b-8a29-3416303ad9d0","system_id":"levelo_inurba_marseille","lat":43.308012,"lon":5.381511,"is_reserved":false,"is_disabled":false,"rental_uris":{"android":"levelo://app?vid=28fbae94-07d3-423b-8a29-3416303ad9d0","ios":"levelo://app?vid=28fbae94-07d3-423b-8a29-3416303ad9d0"},"vehicle_type_id":"4","last_reported":1724357381,"current_range_meters":5600,"station_id":"ce4bgt12rcd13ifvqce0","pricing_plan_id":"cebpf4jnsgd1na2vs0mg"},{"bike_id":"7d911122-dcd9-439f-b97b-a681506e1a8f","system_id":"levelo_inurba_marseille","lat":43.308012,"lon":5.381511,"is_reserved":false,"is_disabled":false,"rental_uris":{"android":"levelo://app?vid=7d911122-dcd9-439f-b97b-a681506e1a8f","ios":"levelo://app?vid=7d911122-dcd9-439f-b97b-a681506e1a8f"},"vehicle_type_id":"4","last_reported":1724357381,"current_range_meters":12000,"station_id":"ce4bgt12rcd13ifvqce0","pricing_plan_id":"cebpf4jnsgd1na2vs0mg"},{"bike_id":"c060d168-e6a1-4702-8030-e834c877b188","system_id":"levelo_inurba_marseille","lat":43.308012,"lon":5.381511,"is_reserved":false,"is_disabled":false,"rental_uris":{"android":"levelo://app?vid=c060d168-e6a1-4702-8030-e834c877b188","ios":"levelo://app?vid=c060d168-e6a1-4702-8030-e834c877b188"},"vehicle_type_id":"4","last_reported":1724357381,"current_range_meters":20800,"station_id":"ce4bgt12rcd13ifvqce0","pricing_plan_id":"cebpf4jnsgd1na2vs0mg"},{"bike_id":"ce0c8ce1-851f-482e-941d-e0f23a91fdce","system_id":"levelo_inurba_marseille","lat":43.308012,"lon":5.381511,"is_reserved":false,"is_disabled":false,"rental_uris":{"android":"levelo://app?vid=ce0c8ce1-851f-482e-941d-e0f23a91fdce","ios":"levelo://app?vid=ce0c8ce1-851f-482e-941d-e0f23a91fdce"},"vehicle_type_id":"4","last_reported":1724357381,"current_range_meters":1200,"station_id":"ce4bgt12rcd13ifvqce0","pricing_plan_id":"cebpf4jnsgd1na2vs0mg"},{"bike_id":"f82be2ee-489d-4d1b-a3a9-3af3515205b3","system_id":"levelo_inurba_marseille","lat":43.308012,"lon":5.381511,"is_reserved":false,"is_disabled":false,"rental_uris":{"android":"levelo://app?vid=f82be2ee-489d-4d1b-a3a9-3af3515205b3","ios":"levelo://app?vid=f82be2ee-489d-4d1b-a3a9-3af3515205b3"},"vehicle_type_id":"4","last_reported":1724357381,"current_range_meters":28000,"station_id":"ce4bgt12rcd13ifvqce0","pricing_plan_id":"cebpf4jnsgd1na2vs0mg"},{"bike_id":"d32b5415-20ae-45e9-b40c-7543b60f7f22","system_id":"levelo_inurba_marseille","lat":43.304606,"lon":5.379026,"is_reserved":false,"is_disabled":false,"rental_uris":{"android":"levelo://app?vid=d32b5415-20ae-45e9-b40c-7543b60f7f22","ios":"levelo://app?vid=d32b5415-20ae-45e9-b40c-7543b60f7f22"},"vehicle_type_id":"4","last_reported":1724357381,"current_range_meters":8400,"station_id":"ce4bgup2rcd13ifvqcn0","pricing_plan_id":"cebpf4jnsgd1na2vs0mg"},{"bike_id":"46622a63-ff92-4478-aa98-862104e9b392","system_id":"levelo_inurba_marseille","lat":43.304606,"lon":5.379026,"is_reserved":false,"is_disabled":false,"rental_uris":{"android":"levelo://app?vid=46622a63-ff92-4478-aa98-862104e9b392","ios":"levelo://app?vid=46622a63-ff92-4478-aa98-862104e9b392"},"vehicle_type_id":"4","last_reported":1724357381,"current_range_meters":20800,"station_id":"ce4bgup2rcd13ifvqcn0","pricing_plan_id":"cebpf4jnsgd1na2vs0mg"},{"bike_id":"a936edeb-7ef9-42e0-b24e-44d4c0f5282a","system_id":"levelo_inurba_marseille","lat":43.304606,"lon":5.379026,"is_reserved":false,"is_disabled":false,"rental_uris":{"android":"levelo://app?vid=a936edeb-7ef9-42e0-b24e-44d4c0f5282a","ios":"levelo://app?vid=a936edeb-7ef9-42e0-b24e-44d4c0f5282a"},"vehicle_type_id":"4","last_reported":1724357381,"current_range_meters":4000,"station_id":"ce4bgup2rcd13ifvqcn0","pricing_plan_id":"cebpf4jnsgd1na2vs0mg"},{"bike_id":"c08ef1bb-ec34-4bc1-876b-ceb3bbeb5444","system_id":"levelo_inurba_marseille","lat":43.304606,"lon":5.379026,"is_reserved":false,"is_disabled":false,"rental_uris":{"android":"levelo://app?vid=c08ef1bb-ec34-4bc1-876b-ceb3bbeb5444","ios":"levelo://app?vid=c08ef1bb-ec34-4bc1-876b-ceb3bbeb5444"},"vehicle_type_id":"4","last_reported":1724357381,"current_range_meters":0,"station_id":"ce4bgup2rcd13ifvqcn0","pricing_plan_id":"cebpf4jnsgd1na2vs0mg"},{"bike_id":"70ff4cdd-d826-4804-872a-a5017461622a","system_id":"levelo_inurba_marseille","lat":43.324771,"lon":5.36557,"is_reserved":false,"is_disabled":false,"rental_uris":{"android":"levelo://app?vid=70ff4cdd-d826-4804-872a-a5017461622a","ios":"levelo://app?vid=70ff4cdd-d826-4804-872a-a5017461622a"},"vehicle_type_id":"4","last_reported":1724357381,"current_range_meters":15600,"station_id":"ce4bhs12rcd13ifvqhvg","pricing_plan_id":"cebpf4jnsgd1na2vs0mg"},{"bike_id":"0883ab04-555e-444e-92af-5dff344268e0","system_id":"levelo_inurba_marseille","lat":43.324771,"lon":5.36557,"is_reserved":false,"is_disabled":false,"rental_uris":{"android":"levelo://app?vid=0883ab04-555e-444e-92af-5dff344268e0","ios":"levelo://app?vid=0883ab04-555e-444e-92af-5dff344268e0"},"vehicle_type_id":"4","last_reported":1724357381,"current_range_meters":5600,"station_id":"ce4bhs12rcd13ifvqhvg","pricing_plan_id":"cebpf4jnsgd1na2vs0mg"},{"bike_id":"84943cc3-0b05-49c6-a9f7-d2be13d40587","system_id":"levelo_inurba_marseille","lat":43.324771,"lon":5.36557,"is_reserved":false,"is_disabled":false,"rental_uris":{"android":"levelo://app?vid=84943cc3-0b05-49c6-a9f7-d2be13d40587","ios":"levelo://app?vid=84943cc3-0b05-49c6-a9f7-d2be13d40587"},"vehicle_type_id":"4","last_reported":1724357381,"current_range_meters":0,"station_id":"ce4bhs12rcd13ifvqhvg","pricing_plan_id":"cebpf4jnsgd1na2vs0mg"},{"bike_id":"43aa6904-8cf2-4c96-9c86-b139b32f7bd7","system_id":"levelo_inurba_marseille","lat":43.324771,"lon":5.36557,"is_reserved":false,"is_disabled":false,"rental_uris":{"android":"levelo://app?vid=43aa6904-8cf2-4c96-9c86-b139b32f7bd7","ios":"levelo://app?vid=43aa6904-8cf2-4c96-9c86-b139b32f7bd7"},"vehicle_type_id":"4","last_reported":1724357381,"current_range_meters":19600,"station_id":"ce4bhs12rcd13ifvqhvg","pricing_plan_id":"cebpf4jnsgd1na2vs0mg"},{"bike_id":"4b068ad2-1221-4476-9487-2b7eb5619d8a","system_id":"levelo_inurba_marseille","lat":43.31366,"lon":5.38364,"is_reserved":false,"is_disabled":false,"rental_uris":{"android":"levelo://app?vid=4b068ad2-1221-4476-9487-2b7eb5619d8a","ios":"levelo://app?vid=4b068ad2-1221-4476-9487-2b7eb5619d8a"},"vehicle_type_id":"4","last_reported":1724357381,"current_range_meters":13200,"station_id":"","pricing_plan_id":"cebpf4jnsgd1na2vs0mg"},{"bike_id":"8d70d188-b360-414d-ac63-0c1b02683a4e","system_id":"levelo_inurba_marseille","lat":43.310804,"lon":5.38359,"is_reserved":false,"is_disabled":false,"rental_uris":{"android":"levelo://app?vid=8d70d188-b360-414d-ac63-0c1b02683a4e","ios":"levelo://app?vid=8d70d188-b360-414d-ac63-0c1b02683a4e"},"vehicle_type_id":"4","last_reported":1724357381,"current_range_meters":0,"station_id":"ce4bgv92rcd13ifvqcr0","pricing_plan_id":"cebpf4jnsgd1na2vs0mg"},{"bike_id":"196d72c5-1f2d-407a-8df1-187248d64cda","system_id":"levelo_inurba_marseille","lat":43.31076,"lon":5.38355,"is_reserved":false,"is_disabled":false,"rental_uris":{"android":"levelo://app?vid=196d72c5-1f2d-407a-8df1-187248d64cda","ios":"levelo://app?vid=196d72c5-1f2d-407a-8df1-187248d64cda"},"vehicle_type_id":"4","last_reported":1724357381,"current_range_meters":30800,"station_id":"ce4bgv92rcd13ifvqcr0","pricing_plan_id":"cebpf4jnsgd1na2vs0mg"},{"bike_id":"02c8af9e-2700-4922-a82a-2e4a597c22ee","system_id":"levelo_inurba_marseille","lat":43.31077,"lon":5.38357,"is_reserved":false,"is_disabled":false,"rental_uris":{"android":"levelo://app?vid=02c8af9e-2700-4922-a82a-2e4a597c22ee","ios":"levelo://app?vid=02c8af9e-2700-4922-a82a-2e4a597c22ee"},"vehicle_type_id":"4","last_reported":1724357381,"current_range_meters":5200,"station_id":"ce4bgv92rcd13ifvqcr0","pricing_plan_id":"cebpf4jnsgd1na2vs0mg"},{"bike_id":"512195fa-9aae-4d13-bd33-53fb1fa36d47","system_id":"levelo_inurba_marseille","lat":43.310804,"lon":5.38359,"is_reserved":false,"is_disabled":false,"rental_uris":{"android":"levelo://app?vid=512195fa-9aae-4d13-bd33-53fb1fa36d47","ios":"levelo://app?vid=512195fa-9aae-4d13-bd33-53fb1fa36d47"},"vehicle_type_id":"4","last_reported":1724357381,"current_range_meters":5600,"station_id":"ce4bgv92rcd13ifvqcr0","pricing_plan_id":"cebpf4jnsgd1na2vs0mg"},{"bike_id":"a1492776-99cb-4cb7-822a-812bc732a7b5","system_id":"levelo_inurba_marseille","lat":43.310804,"lon":5.38359,"is_reserved":false,"is_disabled":false,"rental_uris":{"android":"levelo://app?vid=a1492776-99cb-4cb7-822a-812bc732a7b5","ios":"levelo://app?vid=a1492776-99cb-4cb7-822a-812bc732a7b5"},"vehicle_type_id":"4","last_reported":1724357381,"current_range_meters":28000,"station_id":"ce4bgv92rcd13ifvqcr0","pricing_plan_id":"cebpf4jnsgd1na2vs0mg"},{"bike_id":"1762bfdb-398f-4ce9-9e82-6e8201caecf4","system_id":"levelo_inurba_marseille","lat":43.310804,"lon":5.38359,"is_reserved":false,"is_disabled":false,"rental_uris":{"android":"levelo://app?vid=1762bfdb-398f-4ce9-9e82-6e8201caecf4","ios":"levelo://app?vid=1762bfdb-398f-4ce9-9e82-6e8201caecf4"},"vehicle_type_id":"4","last_reported":1724357381,"current_range_meters":7200,"station_id":"ce4bgv92rcd13ifvqcr0","pricing_plan_id":"cebpf4jnsgd1na2vs0mg"},{"bike_id":"2e3c0b02-2c6a-4d4a-b8f7-f560f840772f","system_id":"levelo_inurba_marseille","lat":43.310804,"lon":5.38359,"is_reserved":false,"is_disabled":false,"rental_uris":{"android":"levelo://app?vid=2e3c0b02-2c6a-4d4a-b8f7-f560f840772f","ios":"levelo://app?vid=2e3c0b02-2c6a-4d4a-b8f7-f560f840772f"},"vehicle_type_id":"4","last_reported":1724357381,"current_range_meters":28400,"station_id":"ce4bgv92rcd13ifvqcr0","pricing_plan_id":"cebpf4jnsgd1na2vs0mg"},{"bike_id":"11263624-49d9-4e4b-8330-a3bd6fd9aa9b","system_id":"levelo_inurba_marseille","lat":43.310804,"lon":5.38359,"is_reserved":false,"is_disabled":false,"rental_uris":{"android":"levelo://app?vid=11263624-49d9-4e4b-8330-a3bd6fd9aa9b","ios":"levelo://app?vid=11263624-49d9-4e4b-8330-a3bd6fd9aa9b"},"vehicle_type_id":"4","last_reported":1724357381,"current_range_meters":24000,"station_id":"ce4bgv92rcd13ifvqcr0","pricing_plan_id":"cebpf4jnsgd1na2vs0mg"},{"bike_id":"f321e9ee-7733-412d-b09b-f6a7d6fabfd3","system_id":"levelo_inurba_marseille","lat":43.310804,"lon":5.38359,"is_reserved":false,"is_disabled":false,"rental_uris":{"android":"levelo://app?vid=f321e9ee-7733-412d-b09b-f6a7d6fabfd3","ios":"levelo://app?vid=f321e9ee-7733-412d-b09b-f6a7d6fabfd3"},"vehicle_type_id":"4","last_reported":1724357381,"current_range_meters":26800,"station_id":"ce4bgv92rcd13ifvqcr0","pricing_plan_id":"cebpf4jnsgd1na2vs0mg"},{"bike_id":"0d102416-9cb7-4338-a249-61475f7c4657","system_id":"levelo_inurba_marseille","lat":43.301429,"lon":5.37413,"is_reserved":false,"is_disabled":false,"rental_uris":{"android":"levelo://app?vid=0d102416-9cb7-4338-a249-61475f7c4657","ios":"levelo://app?vid=0d102416-9cb7-4338-a249-61475f7c4657"},"vehicle_type_id":"4","last_reported":1724357381,"current_range_meters":24000,"station_id":"ce4bgs92rcd13ifvqcc0","pricing_plan_id":"cebpf4jnsgd1na2vs0mg"},{"bike_id":"dcde4260-5021-4467-a72e-de696946a0bf","system_id":"levelo_inurba_marseille","lat":43.319943,"lon":5.38151,"is_reserved":false,"is_disabled":false,"rental_uris":{"android":"levelo://app?vid=dcde4260-5021-4467-a72e-de696946a0bf","ios":"levelo://app?vid=dcde4260-5021-4467-a72e-de696946a0bf"},"vehicle_type_id":"4","last_reported":1724357381,"current_range_meters":30800,"station_id":"ce4bhr12rcd13ifvqhpg","pricing_plan_id":"cebpf4jnsgd1na2vs0mg"},{"bike_id":"b52d43b4-5b1e-4c42-a19b-f68dca8c3ef6","system_id":"levelo_inurba_marseille","lat":43.319933,"lon":5.38152,"is_reserved":false,"is_disabled":false,"rental_uris":{"android":"levelo://app?vid=b52d43b4-5b1e-4c42-a19b-f68dca8c3ef6","ios":"levelo://app?vid=b52d43b4-5b1e-4c42-a19b-f68dca8c3ef6"},"vehicle_type_id":"4","last_reported":1724357381,"current_range_meters":4800,"station_id":"ce4bhr12rcd13ifvqhpg","pricing_plan_id":"cebpf4jnsgd1na2vs0mg"},{"bike_id":"74e7bc1e-5b4c-4ae5-90cd-f98efc54a0c7","system_id":"levelo_inurba_marseille","lat":43.319935,"lon":5.381699,"is_reserved":false,"is_disabled":false,"rental_uris":{"android":"levelo://app?vid=74e7bc1e-5b4c-4ae5-90cd-f98efc54a0c7","ios":"levelo://app?vid=74e7bc1e-5b4c-4ae5-90cd-f98efc54a0c7"},"vehicle_type_id":"4","last_reported":1724357381,"current_range_meters":22000,"station_id":"ce4bhr12rcd13ifvqhpg","pricing_plan_id":"cebpf4jnsgd1na2vs0mg"},{"bike_id":"2ac95d50-435a-4aad-8db7-8c0ede83754b","system_id":"levelo_inurba_marseille","lat":43.313571,"lon":5.384829,"is_reserved":false,"is_disabled":false,"rental_uris":{"android":"levelo://app?vid=2ac95d50-435a-4aad-8db7-8c0ede83754b","ios":"levelo://app?vid=2ac95d50-435a-4aad-8db7-8c0ede83754b"},"vehicle_type_id":"4","last_reported":1724357381,"current_range_meters":18400,"station_id":"ce4bgt92rcd13ifvqcf0","pricing_plan_id":"cebpf4jnsgd1na2vs0mg"},{"bike_id":"9776b18a-699f-4b2a-a2be-3f249dca9845","system_id":"levelo_inurba_marseille","lat":43.31359,"lon":5.38491,"is_reserved":false,"is_disabled":false,"rental_uris":{"android":"levelo://app?vid=9776b18a-699f-4b2a-a2be-3f249dca9845","ios":"levelo://app?vid=9776b18a-699f-4b2a-a2be-3f249dca9845"},"vehicle_type_id":"4","last_reported":1724357381,"current_range_meters":800,"station_id":"ce4bgt92rcd13ifvqcf0","pricing_plan_id":"cebpf4jnsgd1na2vs0mg"},{"bike_id":"62442e62-dd29-47a6-a058-9af41ed4d490","system_id":"levelo_inurba_marseille","lat":43.313571,"lon":5.384829,"is_reserved":false,"is_disabled":false,"rental_uris":{"android":"levelo://app?vid=62442e62-dd29-47a6-a058-9af41ed4d490","ios":"levelo://app?vid=62442e62-dd29-47a6-a058-9af41ed4d490"},"vehicle_type_id":"4","last_reported":1724357381,"current_range_meters":7200,"station_id":"ce4bgt92rcd13ifvqcf0","pricing_plan_id":"cebpf4jnsgd1na2vs0mg"},{"bike_id":"3471ac68-6164-4d72-b1d9-f6e79dfedada","system_id":"levelo_inurba_marseille","lat":43.31361,"lon":5.38494,"is_reserved":false,"is_disabled":false,"rental_uris":{"android":"levelo://app?vid=3471ac68-6164-4d72-b1d9-f6e79dfedada","ios":"levelo://app?vid=3471ac68-6164-4d72-b1d9-f6e79dfedada"},"vehicle_type_id":"4","last_reported":1724357381,"current_range_meters":6000,"station_id":"ce4bgt92rcd13ifvqcf0","pricing_plan_id":"cebpf4jnsgd1na2vs0mg"},{"bike_id":"5538071f-02b3-4883-9adb-27c9d1ba288d","system_id":"levelo_inurba_marseille","lat":43.313571,"lon":5.384829,"is_reserved":false,"is_disabled":false,"rental_uris":{"android":"levelo://app?vid=5538071f-02b3-4883-9adb-27c9d1ba288d","ios":"levelo://app?vid=5538071f-02b3-4883-9adb-27c9d1ba288d"},"vehicle_type_id":"4","last_reported":1724357381,"current_range_meters":10000,"station_id":"ce4bgt92rcd13ifvqcf0","pricing_plan_id":"cebpf4jnsgd1na2vs0mg"},{"bike_id":"b157f9ed-d84a-4d34-955f-effd6920412f","system_id":"levelo_inurba_marseille","lat":43.313571,"lon":5.384829,"is_reserved":false,"is_disabled":false,"rental_uris":{"android":"levelo://app?vid=b157f9ed-d84a-4d34-955f-effd6920412f","ios":"levelo://app?vid=b157f9ed-d84a-4d34-955f-effd6920412f"},"vehicle_type_id":"4","last_reported":1724357381,"current_range_meters":24400,"station_id":"ce4bgt92rcd13ifvqcf0","pricing_plan_id":"cebpf4jnsgd1na2vs0mg"},{"bike_id":"17c71f2d-6c3a-41ae-875c-23c56817bccc","system_id":"levelo_inurba_marseille","lat":43.313571,"lon":5.384829,"is_reserved":false,"is_disabled":false,"rental_uris":{"android":"levelo://app?vid=17c71f2d-6c3a-41ae-875c-23c56817bccc","ios":"levelo://app?vid=17c71f2d-6c3a-41ae-875c-23c56817bccc"},"vehicle_type_id":"4","last_reported":1724357381,"current_range_meters":28800,"station_id":"ce4bgt92rcd13ifvqcf0","pricing_plan_id":"cebpf4jnsgd1na2vs0mg"},{"bike_id":"5bf2fc06-2f13-45a0-970c-316e0bd6f3e1","system_id":"levelo_inurba_marseille","lat":43.313571,"lon":5.384829,"is_reserved":false,"is_disabled":false,"rental_uris":{"android":"levelo://app?vid=5bf2fc06-2f13-45a0-970c-316e0bd6f3e1","ios":"levelo://app?vid=5bf2fc06-2f13-45a0-970c-316e0bd6f3e1"},"vehicle_type_id":"4","last_reported":1724357381,"current_range_meters":0,"station_id":"ce4bgt92rcd13ifvqcf0","pricing_plan_id":"cebpf4jnsgd1na2vs0mg"},{"bike_id":"fc59e4a4-bead-451a-a35d-8886379137bc","system_id":"levelo_inurba_marseille","lat":43.300029,"lon":5.372341,"is_reserved":false,"is_disabled":false,"rental_uris":{"android":"levelo://app?vid=fc59e4a4-bead-451a-a35d-8886379137bc","ios":"levelo://app?vid=fc59e4a4-bead-451a-a35d-8886379137bc"},"vehicle_type_id":"4","last_reported":1724357381,"current_range_meters":18400,"station_id":"","pricing_plan_id":"cebpf4jnsgd1na2vs0mg"},{"bike_id":"21412720-a06a-4ba5-b1ba-fba48255876b","system_id":"levelo_inurba_marseille","lat":43.299724,"lon":5.371829,"is_reserved":false,"is_disabled":false,"rental_uris":{"android":"levelo://app?vid=21412720-a06a-4ba5-b1ba-fba48255876b","ios":"levelo://app?vid=21412720-a06a-4ba5-b1ba-fba48255876b"},"vehicle_type_id":"4","last_reported":1724357381,"current_range_meters":5600,"station_id":"ce4bgr92rcd13ifvqc7g","pricing_plan_id":"cebpf4jnsgd1na2vs0mg"},{"bike_id":"d11e50e6-7efb-4425-a63d-06d07049b44c","system_id":"levelo_inurba_marseille","lat":43.305402,"lon":5.384254,"is_reserved":false,"is_disabled":false,"rental_uris":{"android":"levelo://app?vid=d11e50e6-7efb-4425-a63d-06d07049b44c","ios":"levelo://app?vid=d11e50e6-7efb-4425-a63d-06d07049b44c"},"vehicle_type_id":"4","last_reported":1724357381,"current_range_meters":16000,"station_id":"ce4bgg92rcd13ifvqb30","pricing_plan_id":"cebpf4jnsgd1na2vs0mg"},{"bike_id":"7cecead6-be69-474e-ad77-3fd87b57ae1f","system_id":"levelo_inurba_marseille","lat":43.305364,"lon":5.384119,"is_reserved":false,"is_disabled":false,"rental_uris":{"android":"levelo://app?vid=7cecead6-be69-474e-ad77-3fd87b57ae1f","ios":"levelo://app?vid=7cecead6-be69-474e-ad77-3fd87b57ae1f"},"vehicle_type_id":"4","last_reported":1724357381,"current_range_meters":10000,"station_id":"ce4bgg92rcd13ifvqb30","pricing_plan_id":"cebpf4jnsgd1na2vs0mg"},{"bike_id":"bdf00c50-2390-4fb9-a2ab-360bb76d0d4b","system_id":"levelo_inurba_marseille","lat":43.30537,"lon":5.38429,"is_reserved":false,"is_disabled":false,"rental_uris":{"android":"levelo://app?vid=bdf00c50-2390-4fb9-a2ab-360bb76d0d4b","ios":"levelo://app?vid=bdf00c50-2390-4fb9-a2ab-360bb76d0d4b"},"vehicle_type_id":"4","last_reported":1724357381,"current_range_meters":5600,"station_id":"ce4bgg92rcd13ifvqb30","pricing_plan_id":"cebpf4jnsgd1na2vs0mg"},{"bike_id":"068b4587-e25f-4b72-acc0-a861b6a7b59e","system_id":"levelo_inurba_marseille","lat":43.30531,"lon":5.38431,"is_reserved":false,"is_disabled":false,"rental_uris":{"android":"levelo://app?vid=068b4587-e25f-4b72-acc0-a861b6a7b59e","ios":"levelo://app?vid=068b4587-e25f-4b72-acc0-a861b6a7b59e"},"vehicle_type_id":"4","last_reported":1724357381,"current_range_meters":2400,"station_id":"ce4bgg92rcd13ifvqb30","pricing_plan_id":"cebpf4jnsgd1na2vs0mg"},{"bike_id":"08481ab3-caac-4255-9c97-c8728c876017","system_id":"levelo_inurba_marseille","lat":43.305393,"lon":5.38439,"is_reserved":false,"is_disabled":false,"rental_uris":{"android":"levelo://app?vid=08481ab3-caac-4255-9c97-c8728c876017","ios":"levelo://app?vid=08481ab3-caac-4255-9c97-c8728c876017"},"vehicle_type_id":"4","last_reported":1724357381,"current_range_meters":13200,"station_id":"ce4bgg92rcd13ifvqb30","pricing_plan_id":"cebpf4jnsgd1na2vs0mg"},{"bike_id":"a3494500-bfb6-44ee-a98a-029eac9103b1","system_id":"levelo_inurba_marseille","lat":43.298433,"lon":5.362774,"is_reserved":false,"is_disabled":false,"rental_uris":{"android":"levelo://app?vid=a3494500-bfb6-44ee-a98a-029eac9103b1","ios":"levelo://app?vid=a3494500-bfb6-44ee-a98a-029eac9103b1"},"vehicle_type_id":"4","last_reported":1724357381,"current_range_meters":2000,"station_id":"ce4bgpp2rcd13ifvqc3g","pricing_plan_id":"cebpf4jnsgd1na2vs0mg"},{"bike_id":"49f10408-7b39-4d31-98c2-46d75be44a69","system_id":"levelo_inurba_marseille","lat":43.29918,"lon":5.37473,"is_reserved":false,"is_disabled":false,"rental_uris":{"android":"levelo://app?vid=49f10408-7b39-4d31-98c2-46d75be44a69","ios":"levelo://app?vid=49f10408-7b39-4d31-98c2-46d75be44a69"},"vehicle_type_id":"4","last_reported":1724357381,"current_range_meters":0,"station_id":"ce4bgjh2rcd13ifvqbg0","pricing_plan_id":"cebpf4jnsgd1na2vs0mg"},{"bike_id":"e60b6b36-7621-4dbf-8267-3bd64753a1b9","system_id":"levelo_inurba_marseille","lat":43.31178,"lon":5.38711,"is_reserved":false,"is_disabled":false,"rental_uris":{"android":"levelo://app?vid=e60b6b36-7621-4dbf-8267-3bd64753a1b9","ios":"levelo://app?vid=e60b6b36-7621-4dbf-8267-3bd64753a1b9"},"vehicle_type_id":"4","last_reported":1724357381,"current_range_meters":29600,"station_id":"ce4bgv12rcd13ifvqcp0","pricing_plan_id":"cebpf4jnsgd1na2vs0mg"},{"bike_id":"6c6d89c3-7c92-4930-a7d6-c7d9904acc33","system_id":"levelo_inurba_marseille","lat":43.311722,"lon":5.387247,"is_reserved":false,"is_disabled":false,"rental_uris":{"android":"levelo://app?vid=6c6d89c3-7c92-4930-a7d6-c7d9904acc33","ios":"levelo://app?vid=6c6d89c3-7c92-4930-a7d6-c7d9904acc33"},"vehicle_type_id":"4","last_reported":1724357381,"current_range_meters":5600,"station_id":"ce4bgv12rcd13ifvqcp0","pricing_plan_id":"cebpf4jnsgd1na2vs0mg"},{"bike_id":"38e7ec0e-d2d5-4e73-b766-1766273448ca","system_id":"levelo_inurba_marseille","lat":43.311722,"lon":5.387247,"is_reserved":false,"is_disabled":false,"rental_uris":{"android":"levelo://app?vid=38e7ec0e-d2d5-4e73-b766-1766273448ca","ios":"levelo://app?vid=38e7ec0e-d2d5-4e73-b766-1766273448ca"},"vehicle_type_id":"4","last_reported":1724357381,"current_range_meters":19200,"station_id":"ce4bgv12rcd13ifvqcp0","pricing_plan_id":"cebpf4jnsgd1na2vs0mg"},{"bike_id":"bd1b9959-cd2f-4ba5-a2ff-69f5ba24ade4","system_id":"levelo_inurba_marseille","lat":43.311722,"lon":5.387247,"is_reserved":false,"is_disabled":false,"rental_uris":{"android":"levelo://app?vid=bd1b9959-cd2f-4ba5-a2ff-69f5ba24ade4","ios":"levelo://app?vid=bd1b9959-cd2f-4ba5-a2ff-69f5ba24ade4"},"vehicle_type_id":"4","last_reported":1724357381,"current_range_meters":2400,"station_id":"ce4bgv12rcd13ifvqcp0","pricing_plan_id":"cebpf4jnsgd1na2vs0mg"},{"bike_id":"cc570552-03a2-486b-a4b7-aeb5211fe443","system_id":"levelo_inurba_marseille","lat":43.311722,"lon":5.387247,"is_reserved":false,"is_disabled":false,"rental_uris":{"android":"levelo://app?vid=cc570552-03a2-486b-a4b7-aeb5211fe443","ios":"levelo://app?vid=cc570552-03a2-486b-a4b7-aeb5211fe443"},"vehicle_type_id":"4","last_reported":1724357381,"current_range_meters":13600,"station_id":"ce4bgv12rcd13ifvqcp0","pricing_plan_id":"cebpf4jnsgd1na2vs0mg"},{"bike_id":"56f819dd-3ae2-49c1-aa3b-d07cbae11582","system_id":"levelo_inurba_marseille","lat":43.311722,"lon":5.387247,"is_reserved":false,"is_disabled":false,"rental_uris":{"android":"levelo://app?vid=56f819dd-3ae2-49c1-aa3b-d07cbae11582","ios":"levelo://app?vid=56f819dd-3ae2-49c1-aa3b-d07cbae11582"},"vehicle_type_id":"4","last_reported":1724357381,"current_range_meters":10400,"station_id":"ce4bgv12rcd13ifvqcp0","pricing_plan_id":"cebpf4jnsgd1na2vs0mg"},{"bike_id":"95e1b534-1abf-41c1-9964-18624b4b806d","system_id":"levelo_inurba_marseille","lat":43.311722,"lon":5.387247,"is_reserved":false,"is_disabled":false,"rental_uris":{"android":"levelo://app?vid=95e1b534-1abf-41c1-9964-18624b4b806d","ios":"levelo://app?vid=95e1b534-1abf-41c1-9964-18624b4b806d"},"vehicle_type_id":"4","last_reported":1724357381,"current_range_meters":6800,"station_id":"ce4bgv12rcd13ifvqcp0","pricing_plan_id":"cebpf4jnsgd1na2vs0mg"},{"bike_id":"e7769589-9e38-4c6a-8eeb-fed74a1718df","system_id":"levelo_inurba_marseille","lat":43.311722,"lon":5.387247,"is_reserved":false,"is_disabled":false,"rental_uris":{"android":"levelo://app?vid=e7769589-9e38-4c6a-8eeb-fed74a1718df","ios":"levelo://app?vid=e7769589-9e38-4c6a-8eeb-fed74a1718df"},"vehicle_type_id":"4","last_reported":1724357381,"current_range_meters":6000,"station_id":"ce4bgv12rcd13ifvqcp0","pricing_plan_id":"cebpf4jnsgd1na2vs0mg"},{"bike_id":"97b9cdbc-9fc7-4b8a-90e0-da19535d5e93","system_id":"levelo_inurba_marseille","lat":43.311722,"lon":5.387247,"is_reserved":false,"is_disabled":false,"rental_uris":{"android":"levelo://app?vid=97b9cdbc-9fc7-4b8a-90e0-da19535d5e93","ios":"levelo://app?vid=97b9cdbc-9fc7-4b8a-90e0-da19535d5e93"},"vehicle_type_id":"4","last_reported":1724357381,"current_range_meters":8000,"station_id":"ce4bgv12rcd13ifvqcp0","pricing_plan_id":"cebpf4jnsgd1na2vs0mg"},{"bike_id":"ea6603c3-6d98-46d1-8343-d609dfea8ebd","system_id":"levelo_inurba_marseille","lat":43.311722,"lon":5.387247,"is_reserved":false,"is_disabled":false,"rental_uris":{"android":"levelo://app?vid=ea6603c3-6d98-46d1-8343-d609dfea8ebd","ios":"levelo://app?vid=ea6603c3-6d98-46d1-8343-d609dfea8ebd"},"vehicle_type_id":"4","last_reported":1724357381,"current_range_meters":8400,"station_id":"ce4bgv12rcd13ifvqcp0","pricing_plan_id":"cebpf4jnsgd1na2vs0mg"},{"bike_id":"d2a4da6d-9724-403b-b118-bc1055ebb6dc","system_id":"levelo_inurba_marseille","lat":43.311722,"lon":5.387247,"is_reserved":false,"is_disabled":false,"rental_uris":{"android":"levelo://app?vid=d2a4da6d-9724-403b-b118-bc1055ebb6dc","ios":"levelo://app?vid=d2a4da6d-9724-403b-b118-bc1055ebb6dc"},"vehicle_type_id":"4","last_reported":1724357381,"current_range_meters":3200,"station_id":"ce4bgv12rcd13ifvqcp0","pricing_plan_id":"cebpf4jnsgd1na2vs0mg"},{"bike_id":"7ca11d8c-6f7e-4d92-aa2f-f31a50b8bb85","system_id":"levelo_inurba_marseille","lat":43.311722,"lon":5.387247,"is_reserved":false,"is_disabled":false,"rental_uris":{"android":"levelo://app?vid=7ca11d8c-6f7e-4d92-aa2f-f31a50b8bb85","ios":"levelo://app?vid=7ca11d8c-6f7e-4d92-aa2f-f31a50b8bb85"},"vehicle_type_id":"4","last_reported":1724357381,"current_range_meters":4400,"station_id":"ce4bgv12rcd13ifvqcp0","pricing_plan_id":"cebpf4jnsgd1na2vs0mg"},{"bike_id":"b8f96aca-5a29-44f6-8498-911326f53948","system_id":"levelo_inurba_marseille","lat":43.311722,"lon":5.387247,"is_reserved":false,"is_disabled":false,"rental_uris":{"android":"levelo://app?vid=b8f96aca-5a29-44f6-8498-911326f53948","ios":"levelo://app?vid=b8f96aca-5a29-44f6-8498-911326f53948"},"vehicle_type_id":"4","last_reported":1724357381,"current_range_meters":9600,"station_id":"ce4bgv12rcd13ifvqcp0","pricing_plan_id":"cebpf4jnsgd1na2vs0mg"},{"bike_id":"34e3636a-1706-4adb-87cb-a91d7ffca3ea","system_id":"levelo_inurba_marseille","lat":43.311722,"lon":5.387247,"is_reserved":false,"is_disabled":false,"rental_uris":{"android":"levelo://app?vid=34e3636a-1706-4adb-87cb-a91d7ffca3ea","ios":"levelo://app?vid=34e3636a-1706-4adb-87cb-a91d7ffca3ea"},"vehicle_type_id":"4","last_reported":1724357381,"current_range_meters":24400,"station_id":"ce4bgv12rcd13ifvqcp0","pricing_plan_id":"cebpf4jnsgd1na2vs0mg"},{"bike_id":"5036e393-431f-45d2-9507-4847b4d5ae95","system_id":"levelo_inurba_marseille","lat":43.311722,"lon":5.387247,"is_reserved":false,"is_disabled":false,"rental_uris":{"android":"levelo://app?vid=5036e393-431f-45d2-9507-4847b4d5ae95","ios":"levelo://app?vid=5036e393-431f-45d2-9507-4847b4d5ae95"},"vehicle_type_id":"4","last_reported":1724357381,"current_range_meters":6000,"station_id":"ce4bgv12rcd13ifvqcp0","pricing_plan_id":"cebpf4jnsgd1na2vs0mg"},{"bike_id":"330510ba-12e9-4783-be8e-cc320ae26fc7","system_id":"levelo_inurba_marseille","lat":43.311722,"lon":5.387247,"is_reserved":false,"is_disabled":false,"rental_uris":{"android":"levelo://app?vid=330510ba-12e9-4783-be8e-cc320ae26fc7","ios":"levelo://app?vid=330510ba-12e9-4783-be8e-cc320ae26fc7"},"vehicle_type_id":"4","last_reported":1724357381,"current_range_meters":0,"station_id":"ce4bgv12rcd13ifvqcp0","pricing_plan_id":"cebpf4jnsgd1na2vs0mg"},{"bike_id":"24867831-14aa-4ee3-bfed-680a8e8b9bf6","system_id":"levelo_inurba_marseille","lat":43.311722,"lon":5.387247,"is_reserved":false,"is_disabled":false,"rental_uris":{"android":"levelo://app?vid=24867831-14aa-4ee3-bfed-680a8e8b9bf6","ios":"levelo://app?vid=24867831-14aa-4ee3-bfed-680a8e8b9bf6"},"vehicle_type_id":"4","last_reported":1724357381,"current_range_meters":9200,"station_id":"ce4bgv12rcd13ifvqcp0","pricing_plan_id":"cebpf4jnsgd1na2vs0mg"},{"bike_id":"62c786d1-1425-4826-96dc-f88b493bc81c","system_id":"levelo_inurba_marseille","lat":43.29811,"lon":5.36163,"is_reserved":false,"is_disabled":false,"rental_uris":{"android":"levelo://app?vid=62c786d1-1425-4826-96dc-f88b493bc81c","ios":"levelo://app?vid=62c786d1-1425-4826-96dc-f88b493bc81c"},"vehicle_type_id":"4","last_reported":1724357381,"current_range_meters":1200,"station_id":"","pricing_plan_id":"cebpf4jnsgd1na2vs0mg"},{"bike_id":"5ae48041-194b-442f-a816-98cf01951dd3","system_id":"levelo_inurba_marseille","lat":43.301417,"lon":5.3809,"is_reserved":false,"is_disabled":false,"rental_uris":{"android":"levelo://app?vid=5ae48041-194b-442f-a816-98cf01951dd3","ios":"levelo://app?vid=5ae48041-194b-442f-a816-98cf01951dd3"},"vehicle_type_id":"4","last_reported":1724357381,"current_range_meters":0,"station_id":"ce4bgjp2rcd13ifvqbh0","pricing_plan_id":"cebpf4jnsgd1na2vs0mg"},{"bike_id":"ac733c28-a65e-405b-8634-49023e11535a","system_id":"levelo_inurba_marseille","lat":43.2978,"lon":5.37108,"is_reserved":false,"is_disabled":false,"rental_uris":{"android":"levelo://app?vid=ac733c28-a65e-405b-8634-49023e11535a","ios":"levelo://app?vid=ac733c28-a65e-405b-8634-49023e11535a"},"vehicle_type_id":"4","last_reported":1724357381,"current_range_meters":6400,"station_id":"","pricing_plan_id":"cebpf4jnsgd1na2vs0mg"},{"bike_id":"444538af-63b7-4944-b2dc-218254ffe036","system_id":"levelo_inurba_marseille","lat":43.32287,"lon":5.38267,"is_reserved":false,"is_disabled":false,"rental_uris":{"android":"levelo://app?vid=444538af-63b7-4944-b2dc-218254ffe036","ios":"levelo://app?vid=444538af-63b7-4944-b2dc-218254ffe036"},"vehicle_type_id":"4","last_reported":1724357381,"current_range_meters":0,"station_id":"ce4bhr12rcd13ifvqhqg","pricing_plan_id":"cebpf4jnsgd1na2vs0mg"},{"bike_id":"016b0bd6-ebcc-4861-b398-c7d7148455fd","system_id":"levelo_inurba_marseille","lat":43.322872,"lon":5.382756,"is_reserved":false,"is_disabled":false,"rental_uris":{"android":"levelo://app?vid=016b0bd6-ebcc-4861-b398-c7d7148455fd","ios":"levelo://app?vid=016b0bd6-ebcc-4861-b398-c7d7148455fd"},"vehicle_type_id":"4","last_reported":1724357381,"current_range_meters":31600,"station_id":"ce4bhr12rcd13ifvqhqg","pricing_plan_id":"cebpf4jnsgd1na2vs0mg"},{"bike_id":"352d072c-c4dd-46ba-b620-470ed7481a71","system_id":"levelo_inurba_marseille","lat":43.322872,"lon":5.382756,"is_reserved":false,"is_disabled":false,"rental_uris":{"android":"levelo://app?vid=352d072c-c4dd-46ba-b620-470ed7481a71","ios":"levelo://app?vid=352d072c-c4dd-46ba-b620-470ed7481a71"},"vehicle_type_id":"4","last_reported":1724357381,"current_range_meters":8000,"station_id":"ce4bhr12rcd13ifvqhqg","pricing_plan_id":"cebpf4jnsgd1na2vs0mg"},{"bike_id":"4388b6c4-6c26-4e61-8d74-95af9915e57f","system_id":"levelo_inurba_marseille","lat":43.322872,"lon":5.382756,"is_reserved":false,"is_disabled":false,"rental_uris":{"android":"levelo://app?vid=4388b6c4-6c26-4e61-8d74-95af9915e57f","ios":"levelo://app?vid=4388b6c4-6c26-4e61-8d74-95af9915e57f"},"vehicle_type_id":"4","last_reported":1724357381,"current_range_meters":20400,"station_id":"ce4bhr12rcd13ifvqhqg","pricing_plan_id":"cebpf4jnsgd1na2vs0mg"},{"bike_id":"e9693125-1d17-4e74-a868-24fc1014dc89","system_id":"levelo_inurba_marseille","lat":43.322872,"lon":5.382756,"is_reserved":false,"is_disabled":false,"rental_uris":{"android":"levelo://app?vid=e9693125-1d17-4e74-a868-24fc1014dc89","ios":"levelo://app?vid=e9693125-1d17-4e74-a868-24fc1014dc89"},"vehicle_type_id":"4","last_reported":1724357381,"current_range_meters":11200,"station_id":"ce4bhr12rcd13ifvqhqg","pricing_plan_id":"cebpf4jnsgd1na2vs0mg"},{"bike_id":"a61aa05d-32b1-452c-9bb4-8f18c805dd8f","system_id":"levelo_inurba_marseille","lat":43.322872,"lon":5.382756,"is_reserved":false,"is_disabled":false,"rental_uris":{"android":"levelo://app?vid=a61aa05d-32b1-452c-9bb4-8f18c805dd8f","ios":"levelo://app?vid=a61aa05d-32b1-452c-9bb4-8f18c805dd8f"},"vehicle_type_id":"4","last_reported":1724357381,"current_range_meters":26000,"station_id":"ce4bhr12rcd13ifvqhqg","pricing_plan_id":"cebpf4jnsgd1na2vs0mg"},{"bike_id":"752ce4ad-c466-411d-885b-d064df18546f","system_id":"levelo_inurba_marseille","lat":43.322872,"lon":5.382756,"is_reserved":false,"is_disabled":false,"rental_uris":{"android":"levelo://app?vid=752ce4ad-c466-411d-885b-d064df18546f","ios":"levelo://app?vid=752ce4ad-c466-411d-885b-d064df18546f"},"vehicle_type_id":"4","last_reported":1724357381,"current_range_meters":20000,"station_id":"ce4bhr12rcd13ifvqhqg","pricing_plan_id":"cebpf4jnsgd1na2vs0mg"},{"bike_id":"765edfa6-e6dd-40c7-9166-85ea272dcc1c","system_id":"levelo_inurba_marseille","lat":43.32292,"lon":5.38277,"is_reserved":false,"is_disabled":false,"rental_uris":{"android":"levelo://app?vid=765edfa6-e6dd-40c7-9166-85ea272dcc1c","ios":"levelo://app?vid=765edfa6-e6dd-40c7-9166-85ea272dcc1c"},"vehicle_type_id":"4","last_reported":1724357381,"current_range_meters":0,"station_id":"ce4bhr12rcd13ifvqhqg","pricing_plan_id":"cebpf4jnsgd1na2vs0mg"},{"bike_id":"9f864eb1-62c4-498d-9749-4ac6a3e0b261","system_id":"levelo_inurba_marseille","lat":43.302908,"lon":5.384948,"is_reserved":false,"is_disabled":false,"rental_uris":{"android":"levelo://app?vid=9f864eb1-62c4-498d-9749-4ac6a3e0b261","ios":"levelo://app?vid=9f864eb1-62c4-498d-9749-4ac6a3e0b261"},"vehicle_type_id":"4","last_reported":1724357381,"current_range_meters":0,"station_id":"","pricing_plan_id":"cebpf4jnsgd1na2vs0mg"},{"bike_id":"d407505d-0d86-4035-802a-62d7de0e7c3b","system_id":"levelo_inurba_marseille","lat":43.2968,"lon":5.37291,"is_reserved":false,"is_disabled":false,"rental_uris":{"android":"levelo://app?vid=d407505d-0d86-4035-802a-62d7de0e7c3b","ios":"levelo://app?vid=d407505d-0d86-4035-802a-62d7de0e7c3b"},"vehicle_type_id":"4","last_reported":1724357381,"current_range_meters":15200,"station_id":"ce4bgk12rcd13ifvqbj0","pricing_plan_id":"cebpf4jnsgd1na2vs0mg"},{"bike_id":"9785aa0b-408c-4beb-b093-15f6d09242a5","system_id":"levelo_inurba_marseille","lat":43.2968,"lon":5.37291,"is_reserved":false,"is_disabled":false,"rental_uris":{"android":"levelo://app?vid=9785aa0b-408c-4beb-b093-15f6d09242a5","ios":"levelo://app?vid=9785aa0b-408c-4beb-b093-15f6d09242a5"},"vehicle_type_id":"4","last_reported":1724357381,"current_range_meters":31200,"station_id":"ce4bgk12rcd13ifvqbj0","pricing_plan_id":"cebpf4jnsgd1na2vs0mg"},{"bike_id":"ef419795-a11e-4dbb-878b-d31d517ed8a2","system_id":"levelo_inurba_marseille","lat":43.311722,"lon":5.387247,"is_reserved":false,"is_disabled":false,"rental_uris":{"android":"levelo://app?vid=ef419795-a11e-4dbb-878b-d31d517ed8a2","ios":"levelo://app?vid=ef419795-a11e-4dbb-878b-d31d517ed8a2"},"vehicle_type_id":"4","last_reported":1724357381,"current_range_meters":16000,"station_id":"ce4bgv12rcd13ifvqcp0","pricing_plan_id":"cebpf4jnsgd1na2vs0mg"},{"bike_id":"ea0b8dd3-1bd9-4448-9d0a-d55b9615dcb2","system_id":"levelo_inurba_marseille","lat":43.298037,"lon":5.381066,"is_reserved":false,"is_disabled":false,"rental_uris":{"android":"levelo://app?vid=ea0b8dd3-1bd9-4448-9d0a-d55b9615dcb2","ios":"levelo://app?vid=ea0b8dd3-1bd9-4448-9d0a-d55b9615dcb2"},"vehicle_type_id":"4","last_reported":1724357381,"current_range_meters":18800,"station_id":"ce4bgip2rcd13ifvqbb0","pricing_plan_id":"cebpf4jnsgd1na2vs0mg"},{"bike_id":"7da20e64-94e3-43a9-927d-43149955cc6b","system_id":"levelo_inurba_marseille","lat":43.29573,"lon":5.367355,"is_reserved":false,"is_disabled":false,"rental_uris":{"android":"levelo://app?vid=7da20e64-94e3-43a9-927d-43149955cc6b","ios":"levelo://app?vid=7da20e64-94e3-43a9-927d-43149955cc6b"},"vehicle_type_id":"4","last_reported":1724357381,"current_range_meters":28800,"station_id":"ce4bgph2rcd13ifvqc2g","pricing_plan_id":"cebpf4jnsgd1na2vs0mg"},{"bike_id":"5673b3f0-e772-41c0-80b9-8642d43cb0d8","system_id":"levelo_inurba_marseille","lat":43.296921,"lon":5.376579,"is_reserved":false,"is_disabled":false,"rental_uris":{"android":"levelo://app?vid=5673b3f0-e772-41c0-80b9-8642d43cb0d8","ios":"levelo://app?vid=5673b3f0-e772-41c0-80b9-8642d43cb0d8"},"vehicle_type_id":"4","last_reported":1724357381,"current_range_meters":21200,"station_id":"ce4bgkh2rcd13ifvqbl0","pricing_plan_id":"cebpf4jnsgd1na2vs0mg"},{"bike_id":"c25113c5-8d0c-4059-ab32-860721c5fb54","system_id":"levelo_inurba_marseille","lat":43.296935,"lon":5.376544,"is_reserved":false,"is_disabled":false,"rental_uris":{"android":"levelo://app?vid=c25113c5-8d0c-4059-ab32-860721c5fb54","ios":"levelo://app?vid=c25113c5-8d0c-4059-ab32-860721c5fb54"},"vehicle_type_id":"4","last_reported":1724357381,"current_range_meters":4400,"station_id":"ce4bgkh2rcd13ifvqbl0","pricing_plan_id":"cebpf4jnsgd1na2vs0mg"},{"bike_id":"24513580-c487-4637-9587-ee7a1bb78688","system_id":"levelo_inurba_marseille","lat":43.296935,"lon":5.376544,"is_reserved":false,"is_disabled":false,"rental_uris":{"android":"levelo://app?vid=24513580-c487-4637-9587-ee7a1bb78688","ios":"levelo://app?vid=24513580-c487-4637-9587-ee7a1bb78688"},"vehicle_type_id":"4","last_reported":1724357381,"current_range_meters":4800,"station_id":"ce4bgkh2rcd13ifvqbl0","pricing_plan_id":"cebpf4jnsgd1na2vs0mg"},{"bike_id":"43613979-40c4-4d9f-976a-ba1c3a3dcb77","system_id":"levelo_inurba_marseille","lat":43.309589,"lon":5.390258,"is_reserved":false,"is_disabled":false,"rental_uris":{"android":"levelo://app?vid=43613979-40c4-4d9f-976a-ba1c3a3dcb77","ios":"levelo://app?vid=43613979-40c4-4d9f-976a-ba1c3a3dcb77"},"vehicle_type_id":"4","last_reported":1724357381,"current_range_meters":5200,"station_id":"ce4bgup2rcd13ifvqco0","pricing_plan_id":"cebpf4jnsgd1na2vs0mg"},{"bike_id":"8e5d93e4-c1bb-4e54-90ef-8dd5cc29bc27","system_id":"levelo_inurba_marseille","lat":43.309589,"lon":5.390258,"is_reserved":false,"is_disabled":false,"rental_uris":{"android":"levelo://app?vid=8e5d93e4-c1bb-4e54-90ef-8dd5cc29bc27","ios":"levelo://app?vid=8e5d93e4-c1bb-4e54-90ef-8dd5cc29bc27"},"vehicle_type_id":"4","last_reported":1724357381,"current_range_meters":12400,"station_id":"ce4bgup2rcd13ifvqco0","pricing_plan_id":"cebpf4jnsgd1na2vs0mg"},{"bike_id":"505d3c0a-4c55-43cf-abdc-a80bb4b2190b","system_id":"levelo_inurba_marseille","lat":43.309589,"lon":5.390258,"is_reserved":false,"is_disabled":false,"rental_uris":{"android":"levelo://app?vid=505d3c0a-4c55-43cf-abdc-a80bb4b2190b","ios":"levelo://app?vid=505d3c0a-4c55-43cf-abdc-a80bb4b2190b"},"vehicle_type_id":"4","last_reported":1724357381,"current_range_meters":14800,"station_id":"ce4bgup2rcd13ifvqco0","pricing_plan_id":"cebpf4jnsgd1na2vs0mg"},{"bike_id":"2e651b13-1e0e-4efd-90f5-1169e8112bb7","system_id":"levelo_inurba_marseille","lat":43.299028,"lon":5.381509,"is_reserved":false,"is_disabled":false,"rental_uris":{"android":"levelo://app?vid=2e651b13-1e0e-4efd-90f5-1169e8112bb7","ios":"levelo://app?vid=2e651b13-1e0e-4efd-90f5-1169e8112bb7"},"vehicle_type_id":"4","last_reported":1724357381,"current_range_meters":8000,"station_id":"ce4bgj12rcd13ifvqbc0","pricing_plan_id":"cebpf4jnsgd1na2vs0mg"},{"bike_id":"bed355a1-0120-4734-b566-ce238acf626d","system_id":"levelo_inurba_marseille","lat":43.309589,"lon":5.390258,"is_reserved":false,"is_disabled":false,"rental_uris":{"android":"levelo://app?vid=bed355a1-0120-4734-b566-ce238acf626d","ios":"levelo://app?vid=bed355a1-0120-4734-b566-ce238acf626d"},"vehicle_type_id":"4","last_reported":1724357381,"current_range_meters":23200,"station_id":"ce4bgup2rcd13ifvqco0","pricing_plan_id":"cebpf4jnsgd1na2vs0mg"},{"bike_id":"0903b05e-ae0b-4971-bcbb-c0bd8b590270","system_id":"levelo_inurba_marseille","lat":43.309589,"lon":5.390258,"is_reserved":false,"is_disabled":false,"rental_uris":{"android":"levelo://app?vid=0903b05e-ae0b-4971-bcbb-c0bd8b590270","ios":"levelo://app?vid=0903b05e-ae0b-4971-bcbb-c0bd8b590270"},"vehicle_type_id":"4","last_reported":1724357381,"current_range_meters":4400,"station_id":"ce4bgup2rcd13ifvqco0","pricing_plan_id":"cebpf4jnsgd1na2vs0mg"},{"bike_id":"8dd6345e-b9d2-49a1-812e-6d7b96971d2c","system_id":"levelo_inurba_marseille","lat":43.309589,"lon":5.390258,"is_reserved":false,"is_disabled":false,"rental_uris":{"android":"levelo://app?vid=8dd6345e-b9d2-49a1-812e-6d7b96971d2c","ios":"levelo://app?vid=8dd6345e-b9d2-49a1-812e-6d7b96971d2c"},"vehicle_type_id":"4","last_reported":1724357381,"current_range_meters":29200,"station_id":"ce4bgup2rcd13ifvqco0","pricing_plan_id":"cebpf4jnsgd1na2vs0mg"},{"bike_id":"8e9e6646-7baf-4971-a966-f0e6364a145f","system_id":"levelo_inurba_marseille","lat":43.309589,"lon":5.390258,"is_reserved":false,"is_disabled":false,"rental_uris":{"android":"levelo://app?vid=8e9e6646-7baf-4971-a966-f0e6364a145f","ios":"levelo://app?vid=8e9e6646-7baf-4971-a966-f0e6364a145f"},"vehicle_type_id":"4","last_reported":1724357381,"current_range_meters":800,"station_id":"ce4bgup2rcd13ifvqco0","pricing_plan_id":"cebpf4jnsgd1na2vs0mg"},{"bike_id":"dd566537-77fe-4dea-b472-7639d6ec6060","system_id":"levelo_inurba_marseille","lat":43.309589,"lon":5.390258,"is_reserved":false,"is_disabled":false,"rental_uris":{"android":"levelo://app?vid=dd566537-77fe-4dea-b472-7639d6ec6060","ios":"levelo://app?vid=dd566537-77fe-4dea-b472-7639d6ec6060"},"vehicle_type_id":"4","last_reported":1724357381,"current_range_meters":18000,"station_id":"ce4bgup2rcd13ifvqco0","pricing_plan_id":"cebpf4jnsgd1na2vs0mg"},{"bike_id":"96ffa262-3133-4bdd-add3-2bdf40728b73","system_id":"levelo_inurba_marseille","lat":43.309589,"lon":5.390258,"is_reserved":false,"is_disabled":false,"rental_uris":{"android":"levelo://app?vid=96ffa262-3133-4bdd-add3-2bdf40728b73","ios":"levelo://app?vid=96ffa262-3133-4bdd-add3-2bdf40728b73"},"vehicle_type_id":"4","last_reported":1724357381,"current_range_meters":10800,"station_id":"ce4bgup2rcd13ifvqco0","pricing_plan_id":"cebpf4jnsgd1na2vs0mg"},{"bike_id":"54e78041-6ac0-4e2e-8c43-f5ccc43efeb3","system_id":"levelo_inurba_marseille","lat":43.309589,"lon":5.390258,"is_reserved":false,"is_disabled":false,"rental_uris":{"android":"levelo://app?vid=54e78041-6ac0-4e2e-8c43-f5ccc43efeb3","ios":"levelo://app?vid=54e78041-6ac0-4e2e-8c43-f5ccc43efeb3"},"vehicle_type_id":"4","last_reported":1724357381,"current_range_meters":3600,"station_id":"ce4bgup2rcd13ifvqco0","pricing_plan_id":"cebpf4jnsgd1na2vs0mg"},{"bike_id":"6bb9c928-39f5-4726-92c1-30dfd4d4f328","system_id":"levelo_inurba_marseille","lat":43.309589,"lon":5.390258,"is_reserved":false,"is_disabled":false,"rental_uris":{"android":"levelo://app?vid=6bb9c928-39f5-4726-92c1-30dfd4d4f328","ios":"levelo://app?vid=6bb9c928-39f5-4726-92c1-30dfd4d4f328"},"vehicle_type_id":"4","last_reported":1724357381,"current_range_meters":1200,"station_id":"ce4bgup2rcd13ifvqco0","pricing_plan_id":"cebpf4jnsgd1na2vs0mg"},{"bike_id":"a3a1dab6-3c9e-49f5-9503-76d353309d9b","system_id":"levelo_inurba_marseille","lat":43.309589,"lon":5.390258,"is_reserved":false,"is_disabled":false,"rental_uris":{"android":"levelo://app?vid=a3a1dab6-3c9e-49f5-9503-76d353309d9b","ios":"levelo://app?vid=a3a1dab6-3c9e-49f5-9503-76d353309d9b"},"vehicle_type_id":"4","last_reported":1724357381,"current_range_meters":10000,"station_id":"ce4bgup2rcd13ifvqco0","pricing_plan_id":"cebpf4jnsgd1na2vs0mg"},{"bike_id":"c1a4ee2c-d764-40ba-af49-47055e3d0d1e","system_id":"levelo_inurba_marseille","lat":43.297077,"lon":5.377183,"is_reserved":false,"is_disabled":false,"rental_uris":{"android":"levelo://app?vid=c1a4ee2c-d764-40ba-af49-47055e3d0d1e","ios":"levelo://app?vid=c1a4ee2c-d764-40ba-af49-47055e3d0d1e"},"vehicle_type_id":"4","last_reported":1724357381,"current_range_meters":0,"station_id":"ce4bgkh2rcd13ifvqbl0","pricing_plan_id":"cebpf4jnsgd1na2vs0mg"},{"bike_id":"cf0d6898-fd0c-4da0-96ee-b26d66aa9940","system_id":"levelo_inurba_marseille","lat":43.309589,"lon":5.390258,"is_reserved":false,"is_disabled":false,"rental_uris":{"android":"levelo://app?vid=cf0d6898-fd0c-4da0-96ee-b26d66aa9940","ios":"levelo://app?vid=cf0d6898-fd0c-4da0-96ee-b26d66aa9940"},"vehicle_type_id":"4","last_reported":1724357381,"current_range_meters":16800,"station_id":"ce4bgup2rcd13ifvqco0","pricing_plan_id":"cebpf4jnsgd1na2vs0mg"},{"bike_id":"04193ea6-d48b-49db-a1bc-55402a168a46","system_id":"levelo_inurba_marseille","lat":43.309589,"lon":5.390258,"is_reserved":false,"is_disabled":false,"rental_uris":{"android":"levelo://app?vid=04193ea6-d48b-49db-a1bc-55402a168a46","ios":"levelo://app?vid=04193ea6-d48b-49db-a1bc-55402a168a46"},"vehicle_type_id":"4","last_reported":1724357381,"current_range_meters":10000,"station_id":"ce4bgup2rcd13ifvqco0","pricing_plan_id":"cebpf4jnsgd1na2vs0mg"},{"bike_id":"46f88875-3c52-413d-95eb-a9b2c1c1989d","system_id":"levelo_inurba_marseille","lat":43.309589,"lon":5.390258,"is_reserved":false,"is_disabled":false,"rental_uris":{"android":"levelo://app?vid=46f88875-3c52-413d-95eb-a9b2c1c1989d","ios":"levelo://app?vid=46f88875-3c52-413d-95eb-a9b2c1c1989d"},"vehicle_type_id":"4","last_reported":1724357381,"current_range_meters":7600,"station_id":"ce4bgup2rcd13ifvqco0","pricing_plan_id":"cebpf4jnsgd1na2vs0mg"},{"bike_id":"9e869f51-d8d3-4b99-b0bc-c3349cf5ff74","system_id":"levelo_inurba_marseille","lat":43.309589,"lon":5.390258,"is_reserved":false,"is_disabled":false,"rental_uris":{"android":"levelo://app?vid=9e869f51-d8d3-4b99-b0bc-c3349cf5ff74","ios":"levelo://app?vid=9e869f51-d8d3-4b99-b0bc-c3349cf5ff74"},"vehicle_type_id":"4","last_reported":1724357381,"current_range_meters":11200,"station_id":"ce4bgup2rcd13ifvqco0","pricing_plan_id":"cebpf4jnsgd1na2vs0mg"},{"bike_id":"148bb720-0aad-4ec8-acce-34c404b75ab9","system_id":"levelo_inurba_marseille","lat":43.309589,"lon":5.390258,"is_reserved":false,"is_disabled":false,"rental_uris":{"android":"levelo://app?vid=148bb720-0aad-4ec8-acce-34c404b75ab9","ios":"levelo://app?vid=148bb720-0aad-4ec8-acce-34c404b75ab9"},"vehicle_type_id":"4","last_reported":1724357381,"current_range_meters":0,"station_id":"ce4bgup2rcd13ifvqco0","pricing_plan_id":"cebpf4jnsgd1na2vs0mg"},{"bike_id":"938ac8fa-9141-4a10-b4f9-244aa72e8312","system_id":"levelo_inurba_marseille","lat":43.317557,"lon":5.390173,"is_reserved":false,"is_disabled":false,"rental_uris":{"android":"levelo://app?vid=938ac8fa-9141-4a10-b4f9-244aa72e8312","ios":"levelo://app?vid=938ac8fa-9141-4a10-b4f9-244aa72e8312"},"vehicle_type_id":"4","last_reported":1724357381,"current_range_meters":19600,"station_id":"ce4bhqp2rcd13ifvqhng","pricing_plan_id":"cebpf4jnsgd1na2vs0mg"},{"bike_id":"4ccd092f-d89b-4f4c-884d-b099e3a0ec56","system_id":"levelo_inurba_marseille","lat":43.317557,"lon":5.390173,"is_reserved":false,"is_disabled":false,"rental_uris":{"android":"levelo://app?vid=4ccd092f-d89b-4f4c-884d-b099e3a0ec56","ios":"levelo://app?vid=4ccd092f-d89b-4f4c-884d-b099e3a0ec56"},"vehicle_type_id":"4","last_reported":1724357381,"current_range_meters":6800,"station_id":"ce4bhqp2rcd13ifvqhng","pricing_plan_id":"cebpf4jnsgd1na2vs0mg"},{"bike_id":"6372290c-aa63-4c5b-add2-47747b7db2b3","system_id":"levelo_inurba_marseille","lat":43.298042,"lon":5.38085,"is_reserved":false,"is_disabled":false,"rental_uris":{"android":"levelo://app?vid=6372290c-aa63-4c5b-add2-47747b7db2b3","ios":"levelo://app?vid=6372290c-aa63-4c5b-add2-47747b7db2b3"},"vehicle_type_id":"4","last_reported":1724357381,"current_range_meters":5600,"station_id":"ce4bgip2rcd13ifvqbb0","pricing_plan_id":"cebpf4jnsgd1na2vs0mg"},{"bike_id":"d3698dbd-e7a2-47e0-9b64-fe0a83903e62","system_id":"levelo_inurba_marseille","lat":43.29532,"lon":5.36145,"is_reserved":false,"is_disabled":false,"rental_uris":{"android":"levelo://app?vid=d3698dbd-e7a2-47e0-9b64-fe0a83903e62","ios":"levelo://app?vid=d3698dbd-e7a2-47e0-9b64-fe0a83903e62"},"vehicle_type_id":"4","last_reported":1724357381,"current_range_meters":27600,"station_id":"","pricing_plan_id":"cebpf4jnsgd1na2vs0mg"},{"bike_id":"a48aea2f-0e3f-4ca1-80cb-cf314d3bb63f","system_id":"levelo_inurba_marseille","lat":43.29582,"lon":5.37507,"is_reserved":false,"is_disabled":false,"rental_uris":{"android":"levelo://app?vid=a48aea2f-0e3f-4ca1-80cb-cf314d3bb63f","ios":"levelo://app?vid=a48aea2f-0e3f-4ca1-80cb-cf314d3bb63f"},"vehicle_type_id":"4","last_reported":1724357381,"current_range_meters":3600,"station_id":"ce4bgh92rcd13ifvqb50","pricing_plan_id":"cebpf4jnsgd1na2vs0mg"},{"bike_id":"988ff06a-020b-4b8b-b216-14011649dc24","system_id":"levelo_inurba_marseille","lat":43.29569,"lon":5.37501,"is_reserved":false,"is_disabled":false,"rental_uris":{"android":"levelo://app?vid=988ff06a-020b-4b8b-b216-14011649dc24","ios":"levelo://app?vid=988ff06a-020b-4b8b-b216-14011649dc24"},"vehicle_type_id":"4","last_reported":1724357381,"current_range_meters":28000,"station_id":"ce4bgh92rcd13ifvqb50","pricing_plan_id":"cebpf4jnsgd1na2vs0mg"},{"bike_id":"8c970681-d2fe-46f4-81e9-df049f592db0","system_id":"levelo_inurba_marseille","lat":43.304278,"lon":5.388868,"is_reserved":false,"is_disabled":false,"rental_uris":{"android":"levelo://app?vid=8c970681-d2fe-46f4-81e9-df049f592db0","ios":"levelo://app?vid=8c970681-d2fe-46f4-81e9-df049f592db0"},"vehicle_type_id":"4","last_reported":1724357381,"current_range_meters":800,"station_id":"ce4bgk12rcd13ifvqbi0","pricing_plan_id":"cebpf4jnsgd1na2vs0mg"},{"bike_id":"1a887e95-44cf-4438-9a24-f5af0ffa24bd","system_id":"levelo_inurba_marseille","lat":43.298037,"lon":5.381066,"is_reserved":false,"is_disabled":false,"rental_uris":{"android":"levelo://app?vid=1a887e95-44cf-4438-9a24-f5af0ffa24bd","ios":"levelo://app?vid=1a887e95-44cf-4438-9a24-f5af0ffa24bd"},"vehicle_type_id":"4","last_reported":1724357381,"current_range_meters":12400,"station_id":"ce4bgip2rcd13ifvqbb0","pricing_plan_id":"cebpf4jnsgd1na2vs0mg"},{"bike_id":"fb723215-eade-4892-9ab0-262ee2f1b2f4","system_id":"levelo_inurba_marseille","lat":43.304278,"lon":5.388868,"is_reserved":false,"is_disabled":false,"rental_uris":{"android":"levelo://app?vid=fb723215-eade-4892-9ab0-262ee2f1b2f4","ios":"levelo://app?vid=fb723215-eade-4892-9ab0-262ee2f1b2f4"},"vehicle_type_id":"4","last_reported":1724357381,"current_range_meters":19600,"station_id":"ce4bgk12rcd13ifvqbi0","pricing_plan_id":"cebpf4jnsgd1na2vs0mg"},{"bike_id":"6d6d9c65-c58d-42cd-9375-f657be8ed12d","system_id":"levelo_inurba_marseille","lat":43.298037,"lon":5.381066,"is_reserved":false,"is_disabled":false,"rental_uris":{"android":"levelo://app?vid=6d6d9c65-c58d-42cd-9375-f657be8ed12d","ios":"levelo://app?vid=6d6d9c65-c58d-42cd-9375-f657be8ed12d"},"vehicle_type_id":"4","last_reported":1724357381,"current_range_meters":17600,"station_id":"ce4bgip2rcd13ifvqbb0","pricing_plan_id":"cebpf4jnsgd1na2vs0mg"},{"bike_id":"a6bbf1d0-f765-44c3-b434-42867106aefb","system_id":"levelo_inurba_marseille","lat":43.304278,"lon":5.388868,"is_reserved":false,"is_disabled":false,"rental_uris":{"android":"levelo://app?vid=a6bbf1d0-f765-44c3-b434-42867106aefb","ios":"levelo://app?vid=a6bbf1d0-f765-44c3-b434-42867106aefb"},"vehicle_type_id":"4","last_reported":1724357381,"current_range_meters":27200,"station_id":"ce4bgk12rcd13ifvqbi0","pricing_plan_id":"cebpf4jnsgd1na2vs0mg"},{"bike_id":"9452effd-8866-499a-a1d4-55566a88a444","system_id":"levelo_inurba_marseille","lat":43.2962,"lon":5.37725,"is_reserved":false,"is_disabled":false,"rental_uris":{"android":"levelo://app?vid=9452effd-8866-499a-a1d4-55566a88a444","ios":"levelo://app?vid=9452effd-8866-499a-a1d4-55566a88a444"},"vehicle_type_id":"4","last_reported":1724357381,"current_range_meters":30400,"station_id":"ce4bgi92rcd13ifvqb90","pricing_plan_id":"cebpf4jnsgd1na2vs0mg"},{"bike_id":"f81eed0f-46fa-4e0b-ad31-4364f954697d","system_id":"levelo_inurba_marseille","lat":43.29758,"lon":5.38099,"is_reserved":false,"is_disabled":false,"rental_uris":{"android":"levelo://app?vid=f81eed0f-46fa-4e0b-ad31-4364f954697d","ios":"levelo://app?vid=f81eed0f-46fa-4e0b-ad31-4364f954697d"},"vehicle_type_id":"4","last_reported":1724357381,"current_range_meters":24400,"station_id":"","pricing_plan_id":"cebpf4jnsgd1na2vs0mg"},{"bike_id":"dad1b048-15dd-43be-b439-583bc5c14c2e","system_id":"levelo_inurba_marseille","lat":43.29774,"lon":5.38155,"is_reserved":false,"is_disabled":false,"rental_uris":{"android":"levelo://app?vid=dad1b048-15dd-43be-b439-583bc5c14c2e","ios":"levelo://app?vid=dad1b048-15dd-43be-b439-583bc5c14c2e"},"vehicle_type_id":"4","last_reported":1724357381,"current_range_meters":16800,"station_id":"","pricing_plan_id":"cebpf4jnsgd1na2vs0mg"},{"bike_id":"9f2c95d2-ee0e-42f4-82e7-99507a1e08c8","system_id":"levelo_inurba_marseille","lat":43.29975,"lon":5.38495,"is_reserved":false,"is_disabled":false,"rental_uris":{"android":"levelo://app?vid=9f2c95d2-ee0e-42f4-82e7-99507a1e08c8","ios":"levelo://app?vid=9f2c95d2-ee0e-42f4-82e7-99507a1e08c8"},"vehicle_type_id":"4","last_reported":1724357381,"current_range_meters":31200,"station_id":"ce4bgj92rcd13ifvqbd0","pricing_plan_id":"cebpf4jnsgd1na2vs0mg"},{"bike_id":"c24c5fd6-033f-4872-8c34-56278dda18f6","system_id":"levelo_inurba_marseille","lat":43.295279,"lon":5.375048,"is_reserved":false,"is_disabled":false,"rental_uris":{"android":"levelo://app?vid=c24c5fd6-033f-4872-8c34-56278dda18f6","ios":"levelo://app?vid=c24c5fd6-033f-4872-8c34-56278dda18f6"},"vehicle_type_id":"4","last_reported":1724357381,"current_range_meters":22800,"station_id":"ce4bgkp2rcd13ifvqbmg","pricing_plan_id":"cebpf4jnsgd1na2vs0mg"},{"bike_id":"61cdad1d-6fc0-43b1-bcb8-5bed8af4a789","system_id":"levelo_inurba_marseille","lat":43.299717,"lon":5.384845,"is_reserved":false,"is_disabled":false,"rental_uris":{"android":"levelo://app?vid=61cdad1d-6fc0-43b1-bcb8-5bed8af4a789","ios":"levelo://app?vid=61cdad1d-6fc0-43b1-bcb8-5bed8af4a789"},"vehicle_type_id":"4","last_reported":1724357381,"current_range_meters":6800,"station_id":"ce4bgj92rcd13ifvqbd0","pricing_plan_id":"cebpf4jnsgd1na2vs0mg"},{"bike_id":"f3cf12fc-6c64-4890-8b9d-04d8968f9b8d","system_id":"levelo_inurba_marseille","lat":43.29973,"lon":5.385,"is_reserved":false,"is_disabled":false,"rental_uris":{"android":"levelo://app?vid=f3cf12fc-6c64-4890-8b9d-04d8968f9b8d","ios":"levelo://app?vid=f3cf12fc-6c64-4890-8b9d-04d8968f9b8d"},"vehicle_type_id":"4","last_reported":1724357381,"current_range_meters":31200,"station_id":"ce4bgj92rcd13ifvqbd0","pricing_plan_id":"cebpf4jnsgd1na2vs0mg"},{"bike_id":"a747e7ee-c893-416b-88ea-9573789c7b59","system_id":"levelo_inurba_marseille","lat":43.29967,"lon":5.38501,"is_reserved":false,"is_disabled":false,"rental_uris":{"android":"levelo://app?vid=a747e7ee-c893-416b-88ea-9573789c7b59","ios":"levelo://app?vid=a747e7ee-c893-416b-88ea-9573789c7b59"},"vehicle_type_id":"4","last_reported":1724357381,"current_range_meters":9200,"station_id":"ce4bgj92rcd13ifvqbd0","pricing_plan_id":"cebpf4jnsgd1na2vs0mg"},{"bike_id":"b8080ea9-80a1-4a7e-91fe-2d09c774bf03","system_id":"levelo_inurba_marseille","lat":43.299717,"lon":5.384845,"is_reserved":false,"is_disabled":false,"rental_uris":{"android":"levelo://app?vid=b8080ea9-80a1-4a7e-91fe-2d09c774bf03","ios":"levelo://app?vid=b8080ea9-80a1-4a7e-91fe-2d09c774bf03"},"vehicle_type_id":"4","last_reported":1724357381,"current_range_meters":24800,"station_id":"ce4bgj92rcd13ifvqbd0","pricing_plan_id":"cebpf4jnsgd1na2vs0mg"},{"bike_id":"0cbc7404-87b9-44fb-bc3a-277ad03de664","system_id":"levelo_inurba_marseille","lat":43.299724,"lon":5.384848,"is_reserved":false,"is_disabled":false,"rental_uris":{"android":"levelo://app?vid=0cbc7404-87b9-44fb-bc3a-277ad03de664","ios":"levelo://app?vid=0cbc7404-87b9-44fb-bc3a-277ad03de664"},"vehicle_type_id":"4","last_reported":1724357381,"current_range_meters":0,"station_id":"ce4bgj92rcd13ifvqbd0","pricing_plan_id":"cebpf4jnsgd1na2vs0mg"},{"bike_id":"1718cc3e-435c-463b-828f-9b59b0d9f593","system_id":"levelo_inurba_marseille","lat":43.295279,"lon":5.375048,"is_reserved":false,"is_disabled":false,"rental_uris":{"android":"levelo://app?vid=1718cc3e-435c-463b-828f-9b59b0d9f593","ios":"levelo://app?vid=1718cc3e-435c-463b-828f-9b59b0d9f593"},"vehicle_type_id":"4","last_reported":1724357381,"current_range_meters":1600,"station_id":"ce4bgkp2rcd13ifvqbmg","pricing_plan_id":"cebpf4jnsgd1na2vs0mg"},{"bike_id":"69ad00fd-a678-4fd9-b537-6d554cabd478","system_id":"levelo_inurba_marseille","lat":43.299724,"lon":5.384848,"is_reserved":false,"is_disabled":false,"rental_uris":{"android":"levelo://app?vid=69ad00fd-a678-4fd9-b537-6d554cabd478","ios":"levelo://app?vid=69ad00fd-a678-4fd9-b537-6d554cabd478"},"vehicle_type_id":"4","last_reported":1724357381,"current_range_meters":26400,"station_id":"ce4bgj92rcd13ifvqbd0","pricing_plan_id":"cebpf4jnsgd1na2vs0mg"},{"bike_id":"75f731e6-f653-43cf-a4ee-b24a803a67da","system_id":"levelo_inurba_marseille","lat":43.298677,"lon":5.383747,"is_reserved":false,"is_disabled":false,"rental_uris":{"android":"levelo://app?vid=75f731e6-f653-43cf-a4ee-b24a803a67da","ios":"levelo://app?vid=75f731e6-f653-43cf-a4ee-b24a803a67da"},"vehicle_type_id":"4","last_reported":1724357381,"current_range_meters":10000,"station_id":"","pricing_plan_id":"cebpf4jnsgd1na2vs0mg"},{"bike_id":"95aeb311-5a3b-4ecf-996d-cd1d9bbe1882","system_id":"levelo_inurba_marseille","lat":43.301396,"lon":5.387812,"is_reserved":false,"is_disabled":false,"rental_uris":{"android":"levelo://app?vid=95aeb311-5a3b-4ecf-996d-cd1d9bbe1882","ios":"levelo://app?vid=95aeb311-5a3b-4ecf-996d-cd1d9bbe1882"},"vehicle_type_id":"4","last_reported":1724357381,"current_range_meters":31200,"station_id":"ce4bghh2rcd13ifvqb60","pricing_plan_id":"cebpf4jnsgd1na2vs0mg"},{"bike_id":"dded616a-5a87-4d7f-9d8c-89e1acd7ed95","system_id":"levelo_inurba_marseille","lat":43.298987,"lon":5.384817,"is_reserved":false,"is_disabled":false,"rental_uris":{"android":"levelo://app?vid=dded616a-5a87-4d7f-9d8c-89e1acd7ed95","ios":"levelo://app?vid=dded616a-5a87-4d7f-9d8c-89e1acd7ed95"},"vehicle_type_id":"4","last_reported":1724357381,"current_range_meters":0,"station_id":"","pricing_plan_id":"cebpf4jnsgd1na2vs0mg"},{"bike_id":"9d1684e7-152f-4db8-a069-9d18bc71382d","system_id":"levelo_inurba_marseille","lat":43.2989,"lon":5.38472,"is_reserved":false,"is_disabled":false,"rental_uris":{"android":"levelo://app?vid=9d1684e7-152f-4db8-a069-9d18bc71382d","ios":"levelo://app?vid=9d1684e7-152f-4db8-a069-9d18bc71382d"},"vehicle_type_id":"4","last_reported":1724357381,"current_range_meters":0,"station_id":"","pricing_plan_id":"cebpf4jnsgd1na2vs0mg"},{"bike_id":"73af92e6-b47e-44a0-b0c3-22de6a9a3013","system_id":"levelo_inurba_marseille","lat":43.304274,"lon":5.388873,"is_reserved":false,"is_disabled":false,"rental_uris":{"android":"levelo://app?vid=73af92e6-b47e-44a0-b0c3-22de6a9a3013","ios":"levelo://app?vid=73af92e6-b47e-44a0-b0c3-22de6a9a3013"},"vehicle_type_id":"4","last_reported":1724357381,"current_range_meters":26400,"station_id":"ce4bgk12rcd13ifvqbi0","pricing_plan_id":"cebpf4jnsgd1na2vs0mg"},{"bike_id":"d740eb9e-432a-4a1b-b02e-c9c8624fc6be","system_id":"levelo_inurba_marseille","lat":43.301396,"lon":5.387812,"is_reserved":false,"is_disabled":false,"rental_uris":{"android":"levelo://app?vid=d740eb9e-432a-4a1b-b02e-c9c8624fc6be","ios":"levelo://app?vid=d740eb9e-432a-4a1b-b02e-c9c8624fc6be"},"vehicle_type_id":"4","last_reported":1724357381,"current_range_meters":10800,"station_id":"ce4bghh2rcd13ifvqb60","pricing_plan_id":"cebpf4jnsgd1na2vs0mg"},{"bike_id":"4c0de92f-f2b0-4799-8b44-7a68f24dbcaf","system_id":"levelo_inurba_marseille","lat":43.301396,"lon":5.387812,"is_reserved":false,"is_disabled":false,"rental_uris":{"android":"levelo://app?vid=4c0de92f-f2b0-4799-8b44-7a68f24dbcaf","ios":"levelo://app?vid=4c0de92f-f2b0-4799-8b44-7a68f24dbcaf"},"vehicle_type_id":"4","last_reported":1724357381,"current_range_meters":3200,"station_id":"ce4bghh2rcd13ifvqb60","pricing_plan_id":"cebpf4jnsgd1na2vs0mg"},{"bike_id":"8dcc7b88-b68d-47de-a072-99441a8ecbd6","system_id":"levelo_inurba_marseille","lat":43.29339,"lon":5.37109,"is_reserved":false,"is_disabled":false,"rental_uris":{"android":"levelo://app?vid=8dcc7b88-b68d-47de-a072-99441a8ecbd6","ios":"levelo://app?vid=8dcc7b88-b68d-47de-a072-99441a8ecbd6"},"vehicle_type_id":"4","last_reported":1724357381,"current_range_meters":10000,"station_id":"","pricing_plan_id":"cebpf4jnsgd1na2vs0mg"},{"bike_id":"cbcd6540-a1cc-4877-bae6-e8929fee93a3","system_id":"levelo_inurba_marseille","lat":43.29601,"lon":5.381084,"is_reserved":false,"is_disabled":false,"rental_uris":{"android":"levelo://app?vid=cbcd6540-a1cc-4877-bae6-e8929fee93a3","ios":"levelo://app?vid=cbcd6540-a1cc-4877-bae6-e8929fee93a3"},"vehicle_type_id":"4","last_reported":1724357381,"current_range_meters":30400,"station_id":"ce4bgl12rcd13ifvqbo0","pricing_plan_id":"cebpf4jnsgd1na2vs0mg"},{"bike_id":"df8191e1-da3a-427a-babe-b91a759e6991","system_id":"levelo_inurba_marseille","lat":43.29597,"lon":5.38098,"is_reserved":false,"is_disabled":false,"rental_uris":{"android":"levelo://app?vid=df8191e1-da3a-427a-babe-b91a759e6991","ios":"levelo://app?vid=df8191e1-da3a-427a-babe-b91a759e6991"},"vehicle_type_id":"4","last_reported":1724357381,"current_range_meters":31200,"station_id":"ce4bgl12rcd13ifvqbo0","pricing_plan_id":"cebpf4jnsgd1na2vs0mg"},{"bike_id":"8af94b67-be06-4906-ae2b-d74ebe2c9978","system_id":"levelo_inurba_marseille","lat":43.29595,"lon":5.38102,"is_reserved":false,"is_disabled":false,"rental_uris":{"android":"levelo://app?vid=8af94b67-be06-4906-ae2b-d74ebe2c9978","ios":"levelo://app?vid=8af94b67-be06-4906-ae2b-d74ebe2c9978"},"vehicle_type_id":"4","last_reported":1724357381,"current_range_meters":14400,"station_id":"ce4bgl12rcd13ifvqbo0","pricing_plan_id":"cebpf4jnsgd1na2vs0mg"},{"bike_id":"677ddcd4-eb00-416f-bf54-f0022156ff64","system_id":"levelo_inurba_marseille","lat":43.29592,"lon":5.381045,"is_reserved":false,"is_disabled":false,"rental_uris":{"android":"levelo://app?vid=677ddcd4-eb00-416f-bf54-f0022156ff64","ios":"levelo://app?vid=677ddcd4-eb00-416f-bf54-f0022156ff64"},"vehicle_type_id":"4","last_reported":1724357381,"current_range_meters":4800,"station_id":"ce4bgl12rcd13ifvqbo0","pricing_plan_id":"cebpf4jnsgd1na2vs0mg"},{"bike_id":"bcd7b5b2-38b4-4ed6-b0ca-441527321308","system_id":"levelo_inurba_marseille","lat":43.29602,"lon":5.381084,"is_reserved":false,"is_disabled":false,"rental_uris":{"android":"levelo://app?vid=bcd7b5b2-38b4-4ed6-b0ca-441527321308","ios":"levelo://app?vid=bcd7b5b2-38b4-4ed6-b0ca-441527321308"},"vehicle_type_id":"4","last_reported":1724357381,"current_range_meters":27600,"station_id":"ce4bgl12rcd13ifvqbo0","pricing_plan_id":"cebpf4jnsgd1na2vs0mg"},{"bike_id":"ed6b2a7d-3ace-4ffa-ab4a-b5bcc8c715f0","system_id":"levelo_inurba_marseille","lat":43.29317,"lon":5.37174,"is_reserved":false,"is_disabled":false,"rental_uris":{"android":"levelo://app?vid=ed6b2a7d-3ace-4ffa-ab4a-b5bcc8c715f0","ios":"levelo://app?vid=ed6b2a7d-3ace-4ffa-ab4a-b5bcc8c715f0"},"vehicle_type_id":"4","last_reported":1724357381,"current_range_meters":11200,"station_id":"ce4bgh92rcd13ifvqb40","pricing_plan_id":"cebpf4jnsgd1na2vs0mg"},{"bike_id":"497c4a26-685f-457a-861b-2f61eb4fae35","system_id":"levelo_inurba_marseille","lat":43.29316,"lon":5.37174,"is_reserved":false,"is_disabled":false,"rental_uris":{"android":"levelo://app?vid=497c4a26-685f-457a-861b-2f61eb4fae35","ios":"levelo://app?vid=497c4a26-685f-457a-861b-2f61eb4fae35"},"vehicle_type_id":"4","last_reported":1724357381,"current_range_meters":31200,"station_id":"ce4bgh92rcd13ifvqb40","pricing_plan_id":"cebpf4jnsgd1na2vs0mg"},{"bike_id":"f0e831b5-5a09-48d8-a916-559d8589d268","system_id":"levelo_inurba_marseille","lat":43.29315,"lon":5.3718,"is_reserved":false,"is_disabled":false,"rental_uris":{"android":"levelo://app?vid=f0e831b5-5a09-48d8-a916-559d8589d268","ios":"levelo://app?vid=f0e831b5-5a09-48d8-a916-559d8589d268"},"vehicle_type_id":"4","last_reported":1724357381,"current_range_meters":31200,"station_id":"ce4bgh92rcd13ifvqb40","pricing_plan_id":"cebpf4jnsgd1na2vs0mg"},{"bike_id":"34cedda0-b4c2-4f0f-97ca-71fe11bb1719","system_id":"levelo_inurba_marseille","lat":43.293249,"lon":5.371578,"is_reserved":false,"is_disabled":false,"rental_uris":{"android":"levelo://app?vid=34cedda0-b4c2-4f0f-97ca-71fe11bb1719","ios":"levelo://app?vid=34cedda0-b4c2-4f0f-97ca-71fe11bb1719"},"vehicle_type_id":"4","last_reported":1724357381,"current_range_meters":31200,"station_id":"ce4bgh92rcd13ifvqb40","pricing_plan_id":"cebpf4jnsgd1na2vs0mg"},{"bike_id":"292c45e4-7ade-4925-84ef-239985108230","system_id":"levelo_inurba_marseille","lat":43.292749,"lon":5.368402,"is_reserved":false,"is_disabled":false,"rental_uris":{"android":"levelo://app?vid=292c45e4-7ade-4925-84ef-239985108230","ios":"levelo://app?vid=292c45e4-7ade-4925-84ef-239985108230"},"vehicle_type_id":"4","last_reported":1724357381,"current_range_meters":20000,"station_id":"ce4bhbp2rcd13ifvqesg","pricing_plan_id":"cebpf4jnsgd1na2vs0mg"},{"bike_id":"7c2b94ba-e48f-414b-99e2-c0fa7891bdd1","system_id":"levelo_inurba_marseille","lat":43.29822,"lon":5.38663,"is_reserved":false,"is_disabled":false,"rental_uris":{"android":"levelo://app?vid=7c2b94ba-e48f-414b-99e2-c0fa7891bdd1","ios":"levelo://app?vid=7c2b94ba-e48f-414b-99e2-c0fa7891bdd1"},"vehicle_type_id":"4","last_reported":1724357381,"current_range_meters":16800,"station_id":"ce4bh2h2rcd13ifvqdh0","pricing_plan_id":"cebpf4jnsgd1na2vs0mg"},{"bike_id":"3516f839-2bb2-437c-a0b8-b7693a0d2492","system_id":"levelo_inurba_marseille","lat":43.293079,"lon":5.37468,"is_reserved":false,"is_disabled":false,"rental_uris":{"android":"levelo://app?vid=3516f839-2bb2-437c-a0b8-b7693a0d2492","ios":"levelo://app?vid=3516f839-2bb2-437c-a0b8-b7693a0d2492"},"vehicle_type_id":"4","last_reported":1724357381,"current_range_meters":15200,"station_id":"ce4bgi12rcd13ifvqb70","pricing_plan_id":"cebpf4jnsgd1na2vs0mg"},{"bike_id":"1357cc45-4bce-48be-8ba9-1402b4ce6303","system_id":"levelo_inurba_marseille","lat":43.29304,"lon":5.37458,"is_reserved":false,"is_disabled":false,"rental_uris":{"android":"levelo://app?vid=1357cc45-4bce-48be-8ba9-1402b4ce6303","ios":"levelo://app?vid=1357cc45-4bce-48be-8ba9-1402b4ce6303"},"vehicle_type_id":"4","last_reported":1724357381,"current_range_meters":21200,"station_id":"ce4bgi12rcd13ifvqb70","pricing_plan_id":"cebpf4jnsgd1na2vs0mg"},{"bike_id":"bbc7a341-fbc2-4f79-8035-07ac66543086","system_id":"levelo_inurba_marseille","lat":43.29303,"lon":5.37466,"is_reserved":false,"is_disabled":false,"rental_uris":{"android":"levelo://app?vid=bbc7a341-fbc2-4f79-8035-07ac66543086","ios":"levelo://app?vid=bbc7a341-fbc2-4f79-8035-07ac66543086"},"vehicle_type_id":"4","last_reported":1724357381,"current_range_meters":18400,"station_id":"ce4bgi12rcd13ifvqb70","pricing_plan_id":"cebpf4jnsgd1na2vs0mg"},{"bike_id":"1b8123f2-0807-477e-af6f-da5807e37834","system_id":"levelo_inurba_marseille","lat":43.29302,"lon":5.37465,"is_reserved":false,"is_disabled":false,"rental_uris":{"android":"levelo://app?vid=1b8123f2-0807-477e-af6f-da5807e37834","ios":"levelo://app?vid=1b8123f2-0807-477e-af6f-da5807e37834"},"vehicle_type_id":"4","last_reported":1724357381,"current_range_meters":4400,"station_id":"ce4bgi12rcd13ifvqb70","pricing_plan_id":"cebpf4jnsgd1na2vs0mg"},{"bike_id":"b71cac3a-bcb7-4316-ba1c-098d57992a70","system_id":"levelo_inurba_marseille","lat":43.305994,"lon":5.393687,"is_reserved":false,"is_disabled":false,"rental_uris":{"android":"levelo://app?vid=b71cac3a-bcb7-4316-ba1c-098d57992a70","ios":"levelo://app?vid=b71cac3a-bcb7-4316-ba1c-098d57992a70"},"vehicle_type_id":"4","last_reported":1724357381,"current_range_meters":28000,"station_id":"ce4bh0p2rcd13ifvqd80","pricing_plan_id":"cebpf4jnsgd1na2vs0mg"},{"bike_id":"1ac1ff48-d206-4708-9345-eb9840fced51","system_id":"levelo_inurba_marseille","lat":43.293,"lon":5.37469,"is_reserved":false,"is_disabled":false,"rental_uris":{"android":"levelo://app?vid=1ac1ff48-d206-4708-9345-eb9840fced51","ios":"levelo://app?vid=1ac1ff48-d206-4708-9345-eb9840fced51"},"vehicle_type_id":"4","last_reported":1724357381,"current_range_meters":3200,"station_id":"ce4bgi12rcd13ifvqb70","pricing_plan_id":"cebpf4jnsgd1na2vs0mg"},{"bike_id":"e5f840d6-f75e-4309-9d6f-000d49b14261","system_id":"levelo_inurba_marseille","lat":43.29298,"lon":5.37466,"is_reserved":false,"is_disabled":false,"rental_uris":{"android":"levelo://app?vid=e5f840d6-f75e-4309-9d6f-000d49b14261","ios":"levelo://app?vid=e5f840d6-f75e-4309-9d6f-000d49b14261"},"vehicle_type_id":"4","last_reported":1724357381,"current_range_meters":12400,"station_id":"ce4bgi12rcd13ifvqb70","pricing_plan_id":"cebpf4jnsgd1na2vs0mg"},{"bike_id":"daa53868-f5bc-444d-bf07-1891a2224c01","system_id":"levelo_inurba_marseille","lat":43.305994,"lon":5.393687,"is_reserved":false,"is_disabled":false,"rental_uris":{"android":"levelo://app?vid=daa53868-f5bc-444d-bf07-1891a2224c01","ios":"levelo://app?vid=daa53868-f5bc-444d-bf07-1891a2224c01"},"vehicle_type_id":"4","last_reported":1724357381,"current_range_meters":2400,"station_id":"ce4bh0p2rcd13ifvqd80","pricing_plan_id":"cebpf4jnsgd1na2vs0mg"},{"bike_id":"7ecd79e7-d000-4d22-960b-a147f920497e","system_id":"levelo_inurba_marseille","lat":43.29296,"lon":5.37463,"is_reserved":false,"is_disabled":false,"rental_uris":{"android":"levelo://app?vid=7ecd79e7-d000-4d22-960b-a147f920497e","ios":"levelo://app?vid=7ecd79e7-d000-4d22-960b-a147f920497e"},"vehicle_type_id":"4","last_reported":1724357381,"current_range_meters":31200,"station_id":"ce4bgi12rcd13ifvqb70","pricing_plan_id":"cebpf4jnsgd1na2vs0mg"},{"bike_id":"26c13bd6-6206-45ee-88ab-550eab5f9f78","system_id":"levelo_inurba_marseille","lat":43.29295,"lon":5.3746,"is_reserved":false,"is_disabled":false,"rental_uris":{"android":"levelo://app?vid=26c13bd6-6206-45ee-88ab-550eab5f9f78","ios":"levelo://app?vid=26c13bd6-6206-45ee-88ab-550eab5f9f78"},"vehicle_type_id":"4","last_reported":1724357381,"current_range_meters":2800,"station_id":"ce4bgi12rcd13ifvqb70","pricing_plan_id":"cebpf4jnsgd1na2vs0mg"},{"bike_id":"1cad004f-0010-4f91-a5a8-0ffca1cb68d2","system_id":"levelo_inurba_marseille","lat":43.29294,"lon":5.37464,"is_reserved":false,"is_disabled":false,"rental_uris":{"android":"levelo://app?vid=1cad004f-0010-4f91-a5a8-0ffca1cb68d2","ios":"levelo://app?vid=1cad004f-0010-4f91-a5a8-0ffca1cb68d2"},"vehicle_type_id":"4","last_reported":1724357381,"current_range_meters":800,"station_id":"ce4bgi12rcd13ifvqb70","pricing_plan_id":"cebpf4jnsgd1na2vs0mg"},{"bike_id":"b281cce2-a1df-47ca-827e-fb177a34b01f","system_id":"levelo_inurba_marseille","lat":43.296263,"lon":5.377094,"is_reserved":false,"is_disabled":false,"rental_uris":{"android":"levelo://app?vid=b281cce2-a1df-47ca-827e-fb177a34b01f","ios":"levelo://app?vid=b281cce2-a1df-47ca-827e-fb177a34b01f"},"vehicle_type_id":"4","last_reported":1724357381,"current_range_meters":3200,"station_id":"ce4bgi92rcd13ifvqb90","pricing_plan_id":"cebpf4jnsgd1na2vs0mg"},{"bike_id":"111a3a8e-abdd-411a-a803-515fc8db69c1","system_id":"levelo_inurba_marseille","lat":43.293009,"lon":5.374584,"is_reserved":false,"is_disabled":false,"rental_uris":{"android":"levelo://app?vid=111a3a8e-abdd-411a-a803-515fc8db69c1","ios":"levelo://app?vid=111a3a8e-abdd-411a-a803-515fc8db69c1"},"vehicle_type_id":"4","last_reported":1724357381,"current_range_meters":26000,"station_id":"ce4bgi12rcd13ifvqb70","pricing_plan_id":"cebpf4jnsgd1na2vs0mg"},{"bike_id":"0ebba6cd-4803-4ec2-814d-6274c2f62764","system_id":"levelo_inurba_marseille","lat":43.293009,"lon":5.374584,"is_reserved":false,"is_disabled":false,"rental_uris":{"android":"levelo://app?vid=0ebba6cd-4803-4ec2-814d-6274c2f62764","ios":"levelo://app?vid=0ebba6cd-4803-4ec2-814d-6274c2f62764"},"vehicle_type_id":"4","last_reported":1724357381,"current_range_meters":23600,"station_id":"ce4bgi12rcd13ifvqb70","pricing_plan_id":"cebpf4jnsgd1na2vs0mg"},{"bike_id":"d40e4f96-cd76-4a82-a20b-2f886d17e68e","system_id":"levelo_inurba_marseille","lat":43.305994,"lon":5.393687,"is_reserved":false,"is_disabled":false,"rental_uris":{"android":"levelo://app?vid=d40e4f96-cd76-4a82-a20b-2f886d17e68e","ios":"levelo://app?vid=d40e4f96-cd76-4a82-a20b-2f886d17e68e"},"vehicle_type_id":"4","last_reported":1724357381,"current_range_meters":10800,"station_id":"ce4bh0p2rcd13ifvqd80","pricing_plan_id":"cebpf4jnsgd1na2vs0mg"},{"bike_id":"38149ae6-6cf2-4c55-93ef-57f7943a65bb","system_id":"levelo_inurba_marseille","lat":43.303002,"lon":5.392142,"is_reserved":false,"is_disabled":false,"rental_uris":{"android":"levelo://app?vid=38149ae6-6cf2-4c55-93ef-57f7943a65bb","ios":"levelo://app?vid=38149ae6-6cf2-4c55-93ef-57f7943a65bb"},"vehicle_type_id":"4","last_reported":1724357381,"current_range_meters":0,"station_id":"ce4bgkh2rcd13ifvqbk0","pricing_plan_id":"cebpf4jnsgd1na2vs0mg"},{"bike_id":"ea49e49a-fac3-47d2-89bd-b9f4e8c2836a","system_id":"levelo_inurba_marseille","lat":43.302992,"lon":5.392136,"is_reserved":false,"is_disabled":false,"rental_uris":{"android":"levelo://app?vid=ea49e49a-fac3-47d2-89bd-b9f4e8c2836a","ios":"levelo://app?vid=ea49e49a-fac3-47d2-89bd-b9f4e8c2836a"},"vehicle_type_id":"4","last_reported":1724357381,"current_range_meters":25600,"station_id":"ce4bgkh2rcd13ifvqbk0","pricing_plan_id":"cebpf4jnsgd1na2vs0mg"},{"bike_id":"40381279-2949-4dfb-98d1-91df8c3e9eb5","system_id":"levelo_inurba_marseille","lat":43.302992,"lon":5.392136,"is_reserved":false,"is_disabled":false,"rental_uris":{"android":"levelo://app?vid=40381279-2949-4dfb-98d1-91df8c3e9eb5","ios":"levelo://app?vid=40381279-2949-4dfb-98d1-91df8c3e9eb5"},"vehicle_type_id":"4","last_reported":1724357381,"current_range_meters":0,"station_id":"ce4bgkh2rcd13ifvqbk0","pricing_plan_id":"cebpf4jnsgd1na2vs0mg"},{"bike_id":"e7f6e948-ebd7-4b73-a79c-94a324dc06a2","system_id":"levelo_inurba_marseille","lat":43.2936,"lon":5.37835,"is_reserved":false,"is_disabled":false,"rental_uris":{"android":"levelo://app?vid=e7f6e948-ebd7-4b73-a79c-94a324dc06a2","ios":"levelo://app?vid=e7f6e948-ebd7-4b73-a79c-94a324dc06a2"},"vehicle_type_id":"4","last_reported":1724357381,"current_range_meters":14400,"station_id":"ce4bgjh2rcd13ifvqbf0","pricing_plan_id":"cebpf4jnsgd1na2vs0mg"},{"bike_id":"0c28b7e0-ff04-4030-b72f-4021423c99dc","system_id":"levelo_inurba_marseille","lat":43.29615,"lon":5.38448,"is_reserved":false,"is_disabled":false,"rental_uris":{"android":"levelo://app?vid=0c28b7e0-ff04-4030-b72f-4021423c99dc","ios":"levelo://app?vid=0c28b7e0-ff04-4030-b72f-4021423c99dc"},"vehicle_type_id":"4","last_reported":1724357381,"current_range_meters":11600,"station_id":"","pricing_plan_id":"cebpf4jnsgd1na2vs0mg"},{"bike_id":"b401d716-883c-4e4e-a1be-87dde0d0e423","system_id":"levelo_inurba_marseille","lat":43.30085,"lon":5.390856,"is_reserved":false,"is_disabled":false,"rental_uris":{"android":"levelo://app?vid=b401d716-883c-4e4e-a1be-87dde0d0e423","ios":"levelo://app?vid=b401d716-883c-4e4e-a1be-87dde0d0e423"},"vehicle_type_id":"4","last_reported":1724357381,"current_range_meters":30400,"station_id":"ce4bh192rcd13ifvqdb0","pricing_plan_id":"cebpf4jnsgd1na2vs0mg"},{"bike_id":"a86d2237-11d5-4ad7-a372-e750f7864310","system_id":"levelo_inurba_marseille","lat":43.30085,"lon":5.390856,"is_reserved":false,"is_disabled":false,"rental_uris":{"android":"levelo://app?vid=a86d2237-11d5-4ad7-a372-e750f7864310","ios":"levelo://app?vid=a86d2237-11d5-4ad7-a372-e750f7864310"},"vehicle_type_id":"4","last_reported":1724357381,"current_range_meters":14400,"station_id":"ce4bh192rcd13ifvqdb0","pricing_plan_id":"cebpf4jnsgd1na2vs0mg"},{"bike_id":"4230e4e7-4780-44aa-a97d-3cf3583259e8","system_id":"levelo_inurba_marseille","lat":43.292311,"lon":5.360731,"is_reserved":false,"is_disabled":false,"rental_uris":{"android":"levelo://app?vid=4230e4e7-4780-44aa-a97d-3cf3583259e8","ios":"levelo://app?vid=4230e4e7-4780-44aa-a97d-3cf3583259e8"},"vehicle_type_id":"4","last_reported":1724357381,"current_range_meters":0,"station_id":"ce4bhbh2rcd13ifvqeqg","pricing_plan_id":"cebpf4jnsgd1na2vs0mg"},{"bike_id":"357cbcc1-2c67-4dea-b6f7-fa84cfa0135a","system_id":"levelo_inurba_marseille","lat":43.30085,"lon":5.390856,"is_reserved":false,"is_disabled":false,"rental_uris":{"android":"levelo://app?vid=357cbcc1-2c67-4dea-b6f7-fa84cfa0135a","ios":"levelo://app?vid=357cbcc1-2c67-4dea-b6f7-fa84cfa0135a"},"vehicle_type_id":"4","last_reported":1724357381,"current_range_meters":31200,"station_id":"ce4bh192rcd13ifvqdb0","pricing_plan_id":"cebpf4jnsgd1na2vs0mg"},{"bike_id":"9dc939ba-d16c-4b4f-8f6d-f52ea7c0abba","system_id":"levelo_inurba_marseille","lat":43.30085,"lon":5.390856,"is_reserved":false,"is_disabled":false,"rental_uris":{"android":"levelo://app?vid=9dc939ba-d16c-4b4f-8f6d-f52ea7c0abba","ios":"levelo://app?vid=9dc939ba-d16c-4b4f-8f6d-f52ea7c0abba"},"vehicle_type_id":"4","last_reported":1724357381,"current_range_meters":31200,"station_id":"ce4bh192rcd13ifvqdb0","pricing_plan_id":"cebpf4jnsgd1na2vs0mg"},{"bike_id":"b5cc7c1a-2831-4671-98ac-d5e855f4750b","system_id":"levelo_inurba_marseille","lat":43.30085,"lon":5.390856,"is_reserved":false,"is_disabled":false,"rental_uris":{"android":"levelo://app?vid=b5cc7c1a-2831-4671-98ac-d5e855f4750b","ios":"levelo://app?vid=b5cc7c1a-2831-4671-98ac-d5e855f4750b"},"vehicle_type_id":"4","last_reported":1724357381,"current_range_meters":29200,"station_id":"ce4bh192rcd13ifvqdb0","pricing_plan_id":"cebpf4jnsgd1na2vs0mg"},{"bike_id":"ff1ae93e-c889-4f27-82da-c7bd07011419","system_id":"levelo_inurba_marseille","lat":43.298764,"lon":5.388973,"is_reserved":false,"is_disabled":false,"rental_uris":{"android":"levelo://app?vid=ff1ae93e-c889-4f27-82da-c7bd07011419","ios":"levelo://app?vid=ff1ae93e-c889-4f27-82da-c7bd07011419"},"vehicle_type_id":"4","last_reported":1724357381,"current_range_meters":16400,"station_id":"ce4bh392rcd13ifvqdl0","pricing_plan_id":"cebpf4jnsgd1na2vs0mg"},{"bike_id":"348132cc-a878-4132-947a-3fb718526e42","system_id":"levelo_inurba_marseille","lat":43.298764,"lon":5.388973,"is_reserved":false,"is_disabled":false,"rental_uris":{"android":"levelo://app?vid=348132cc-a878-4132-947a-3fb718526e42","ios":"levelo://app?vid=348132cc-a878-4132-947a-3fb718526e42"},"vehicle_type_id":"4","last_reported":1724357381,"current_range_meters":18800,"station_id":"ce4bh392rcd13ifvqdl0","pricing_plan_id":"cebpf4jnsgd1na2vs0mg"},{"bike_id":"a3ac9c25-116c-41ba-8131-0be99917e2ed","system_id":"levelo_inurba_marseille","lat":43.298764,"lon":5.388973,"is_reserved":false,"is_disabled":false,"rental_uris":{"android":"levelo://app?vid=a3ac9c25-116c-41ba-8131-0be99917e2ed","ios":"levelo://app?vid=a3ac9c25-116c-41ba-8131-0be99917e2ed"},"vehicle_type_id":"4","last_reported":1724357381,"current_range_meters":28400,"station_id":"ce4bh392rcd13ifvqdl0","pricing_plan_id":"cebpf4jnsgd1na2vs0mg"},{"bike_id":"b7791f44-c5f0-4757-97c6-d82e34425eaa","system_id":"levelo_inurba_marseille","lat":43.29872,"lon":5.388977,"is_reserved":false,"is_disabled":false,"rental_uris":{"android":"levelo://app?vid=b7791f44-c5f0-4757-97c6-d82e34425eaa","ios":"levelo://app?vid=b7791f44-c5f0-4757-97c6-d82e34425eaa"},"vehicle_type_id":"4","last_reported":1724357381,"current_range_meters":11200,"station_id":"ce4bh392rcd13ifvqdl0","pricing_plan_id":"cebpf4jnsgd1na2vs0mg"},{"bike_id":"112bcdca-2a60-4155-adb3-7e850e2d9f92","system_id":"levelo_inurba_marseille","lat":43.291675,"lon":5.371583,"is_reserved":false,"is_disabled":false,"rental_uris":{"android":"levelo://app?vid=112bcdca-2a60-4155-adb3-7e850e2d9f92","ios":"levelo://app?vid=112bcdca-2a60-4155-adb3-7e850e2d9f92"},"vehicle_type_id":"4","last_reported":1724357381,"current_range_meters":8800,"station_id":"ce4bha92rcd13ifvqeh0","pricing_plan_id":"cebpf4jnsgd1na2vs0mg"},{"bike_id":"e929a442-5dca-4aa2-999b-1b3e15fdfb62","system_id":"levelo_inurba_marseille","lat":43.298764,"lon":5.388973,"is_reserved":false,"is_disabled":false,"rental_uris":{"android":"levelo://app?vid=e929a442-5dca-4aa2-999b-1b3e15fdfb62","ios":"levelo://app?vid=e929a442-5dca-4aa2-999b-1b3e15fdfb62"},"vehicle_type_id":"4","last_reported":1724357381,"current_range_meters":5200,"station_id":"ce4bh392rcd13ifvqdl0","pricing_plan_id":"cebpf4jnsgd1na2vs0mg"},{"bike_id":"3c656a3a-773f-4dbb-bb86-c53d72cb59f2","system_id":"levelo_inurba_marseille","lat":43.313291,"lon":5.396838,"is_reserved":false,"is_disabled":false,"rental_uris":{"android":"levelo://app?vid=3c656a3a-773f-4dbb-bb86-c53d72cb59f2","ios":"levelo://app?vid=3c656a3a-773f-4dbb-bb86-c53d72cb59f2"},"vehicle_type_id":"4","last_reported":1724357381,"current_range_meters":5200,"station_id":"ce4bgvp2rcd13ifvqcu0","pricing_plan_id":"cebpf4jnsgd1na2vs0mg"},{"bike_id":"cc5b1971-3e57-45bf-b895-4f5342b7db28","system_id":"levelo_inurba_marseille","lat":43.31321,"lon":5.39691,"is_reserved":false,"is_disabled":false,"rental_uris":{"android":"levelo://app?vid=cc5b1971-3e57-45bf-b895-4f5342b7db28","ios":"levelo://app?vid=cc5b1971-3e57-45bf-b895-4f5342b7db28"},"vehicle_type_id":"4","last_reported":1724357381,"current_range_meters":14400,"station_id":"ce4bgvp2rcd13ifvqcu0","pricing_plan_id":"cebpf4jnsgd1na2vs0mg"},{"bike_id":"ee810663-eafe-4319-86c2-e904bda77d72","system_id":"levelo_inurba_marseille","lat":43.313291,"lon":5.396838,"is_reserved":false,"is_disabled":false,"rental_uris":{"android":"levelo://app?vid=ee810663-eafe-4319-86c2-e904bda77d72","ios":"levelo://app?vid=ee810663-eafe-4319-86c2-e904bda77d72"},"vehicle_type_id":"4","last_reported":1724357381,"current_range_meters":7200,"station_id":"ce4bgvp2rcd13ifvqcu0","pricing_plan_id":"cebpf4jnsgd1na2vs0mg"},{"bike_id":"9824b258-024a-4a37-b691-80d826e8dc86","system_id":"levelo_inurba_marseille","lat":43.292005,"lon":5.357875,"is_reserved":false,"is_disabled":false,"rental_uris":{"android":"levelo://app?vid=9824b258-024a-4a37-b691-80d826e8dc86","ios":"levelo://app?vid=9824b258-024a-4a37-b691-80d826e8dc86"},"vehicle_type_id":"4","last_reported":1724357381,"current_range_meters":26800,"station_id":"ce4bhb12rcd13ifvqel0","pricing_plan_id":"cebpf4jnsgd1na2vs0mg"},{"bike_id":"7c6a18a7-8e73-4cef-a743-a06fad2f6b91","system_id":"levelo_inurba_marseille","lat":43.313291,"lon":5.396838,"is_reserved":false,"is_disabled":false,"rental_uris":{"android":"levelo://app?vid=7c6a18a7-8e73-4cef-a743-a06fad2f6b91","ios":"levelo://app?vid=7c6a18a7-8e73-4cef-a743-a06fad2f6b91"},"vehicle_type_id":"4","last_reported":1724357381,"current_range_meters":0,"station_id":"ce4bgvp2rcd13ifvqcu0","pricing_plan_id":"cebpf4jnsgd1na2vs0mg"},{"bike_id":"41a184d9-7950-45c8-a726-5e766ce9b06d","system_id":"levelo_inurba_marseille","lat":43.313291,"lon":5.396838,"is_reserved":false,"is_disabled":false,"rental_uris":{"android":"levelo://app?vid=41a184d9-7950-45c8-a726-5e766ce9b06d","ios":"levelo://app?vid=41a184d9-7950-45c8-a726-5e766ce9b06d"},"vehicle_type_id":"4","last_reported":1724357381,"current_range_meters":0,"station_id":"ce4bgvp2rcd13ifvqcu0","pricing_plan_id":"cebpf4jnsgd1na2vs0mg"},{"bike_id":"702e4a48-6c33-4b19-b023-fd6248236ca8","system_id":"levelo_inurba_marseille","lat":43.29529,"lon":5.385581,"is_reserved":false,"is_disabled":false,"rental_uris":{"android":"levelo://app?vid=702e4a48-6c33-4b19-b023-fd6248236ca8","ios":"levelo://app?vid=702e4a48-6c33-4b19-b023-fd6248236ca8"},"vehicle_type_id":"4","last_reported":1724357381,"current_range_meters":31200,"station_id":"ce4bgih2rcd13ifvqba0","pricing_plan_id":"cebpf4jnsgd1na2vs0mg"},{"bike_id":"c821ce75-705a-4e8e-a42a-95802774c5b3","system_id":"levelo_inurba_marseille","lat":43.30887,"lon":5.39661,"is_reserved":false,"is_disabled":false,"rental_uris":{"android":"levelo://app?vid=c821ce75-705a-4e8e-a42a-95802774c5b3","ios":"levelo://app?vid=c821ce75-705a-4e8e-a42a-95802774c5b3"},"vehicle_type_id":"4","last_reported":1724357381,"current_range_meters":0,"station_id":"ce4bh012rcd13ifvqcv0","pricing_plan_id":"cebpf4jnsgd1na2vs0mg"},{"bike_id":"053b052b-1f82-4595-ac86-fc2c6cc619a9","system_id":"levelo_inurba_marseille","lat":43.29533,"lon":5.38542,"is_reserved":false,"is_disabled":false,"rental_uris":{"android":"levelo://app?vid=053b052b-1f82-4595-ac86-fc2c6cc619a9","ios":"levelo://app?vid=053b052b-1f82-4595-ac86-fc2c6cc619a9"},"vehicle_type_id":"4","last_reported":1724357381,"current_range_meters":24000,"station_id":"ce4bgih2rcd13ifvqba0","pricing_plan_id":"cebpf4jnsgd1na2vs0mg"},{"bike_id":"a71b0116-ce22-4a7b-9d31-539ad0d39719","system_id":"levelo_inurba_marseille","lat":43.29529,"lon":5.385581,"is_reserved":false,"is_disabled":false,"rental_uris":{"android":"levelo://app?vid=a71b0116-ce22-4a7b-9d31-539ad0d39719","ios":"levelo://app?vid=a71b0116-ce22-4a7b-9d31-539ad0d39719"},"vehicle_type_id":"4","last_reported":1724357381,"current_range_meters":21200,"station_id":"ce4bgih2rcd13ifvqba0","pricing_plan_id":"cebpf4jnsgd1na2vs0mg"},{"bike_id":"6e204757-de3e-499f-bf96-24449cc27e9e","system_id":"levelo_inurba_marseille","lat":43.29531,"lon":5.38544,"is_reserved":false,"is_disabled":false,"rental_uris":{"android":"levelo://app?vid=6e204757-de3e-499f-bf96-24449cc27e9e","ios":"levelo://app?vid=6e204757-de3e-499f-bf96-24449cc27e9e"},"vehicle_type_id":"4","last_reported":1724357381,"current_range_meters":8800,"station_id":"ce4bgih2rcd13ifvqba0","pricing_plan_id":"cebpf4jnsgd1na2vs0mg"},{"bike_id":"4d27dd7a-8dd3-4df1-9c3c-c49f894eff62","system_id":"levelo_inurba_marseille","lat":43.29529,"lon":5.385581,"is_reserved":false,"is_disabled":false,"rental_uris":{"android":"levelo://app?vid=4d27dd7a-8dd3-4df1-9c3c-c49f894eff62","ios":"levelo://app?vid=4d27dd7a-8dd3-4df1-9c3c-c49f894eff62"},"vehicle_type_id":"4","last_reported":1724357381,"current_range_meters":19200,"station_id":"ce4bgih2rcd13ifvqba0","pricing_plan_id":"cebpf4jnsgd1na2vs0mg"},{"bike_id":"36e8100e-75f3-467c-b7f4-d99303772711","system_id":"levelo_inurba_marseille","lat":43.29532,"lon":5.38547,"is_reserved":false,"is_disabled":false,"rental_uris":{"android":"levelo://app?vid=36e8100e-75f3-467c-b7f4-d99303772711","ios":"levelo://app?vid=36e8100e-75f3-467c-b7f4-d99303772711"},"vehicle_type_id":"4","last_reported":1724357381,"current_range_meters":18800,"station_id":"ce4bgih2rcd13ifvqba0","pricing_plan_id":"cebpf4jnsgd1na2vs0mg"},{"bike_id":"8b5dbd72-a8b7-4f53-985f-ee1024989982","system_id":"levelo_inurba_marseille","lat":43.29533,"lon":5.38549,"is_reserved":false,"is_disabled":false,"rental_uris":{"android":"levelo://app?vid=8b5dbd72-a8b7-4f53-985f-ee1024989982","ios":"levelo://app?vid=8b5dbd72-a8b7-4f53-985f-ee1024989982"},"vehicle_type_id":"4","last_reported":1724357381,"current_range_meters":23600,"station_id":"ce4bgih2rcd13ifvqba0","pricing_plan_id":"cebpf4jnsgd1na2vs0mg"},{"bike_id":"295557f7-8e1b-4dba-adb5-7295c66de37a","system_id":"levelo_inurba_marseille","lat":43.29525,"lon":5.38535,"is_reserved":false,"is_disabled":false,"rental_uris":{"android":"levelo://app?vid=295557f7-8e1b-4dba-adb5-7295c66de37a","ios":"levelo://app?vid=295557f7-8e1b-4dba-adb5-7295c66de37a"},"vehicle_type_id":"4","last_reported":1724357381,"current_range_meters":2000,"station_id":"ce4bgih2rcd13ifvqba0","pricing_plan_id":"cebpf4jnsgd1na2vs0mg"},{"bike_id":"a1a16842-24f5-43aa-a03e-343da69d3c9a","system_id":"levelo_inurba_marseille","lat":43.29529,"lon":5.385581,"is_reserved":false,"is_disabled":false,"rental_uris":{"android":"levelo://app?vid=a1a16842-24f5-43aa-a03e-343da69d3c9a","ios":"levelo://app?vid=a1a16842-24f5-43aa-a03e-343da69d3c9a"},"vehicle_type_id":"4","last_reported":1724357381,"current_range_meters":14000,"station_id":"ce4bgih2rcd13ifvqba0","pricing_plan_id":"cebpf4jnsgd1na2vs0mg"},