{"last_updated":1738775269,"ttl":60,"version":"2.2","data":{"bikes":[{"bike_id":"395468c3-e950-49d0-891a-1f8bb60b4335","system_id":"levelo_inurba_marseille","lat":43.29034,"lon":5.38654,"is_reserved":false,"is_disabled":false,"rental_uris":{"android":"levelo://app?vid=395468c3-e950-49d0-891a-1f8bb60b4335","ios":"levelo://app?vid=395468c3-e950-49d0-891a-1f8bb60b4335"},"vehicle_type_id":"4","last_reported":1738775270,"current_range_meters":37600,"station_id":"ce4bh4p2rcd13ifvqe0g","pricing_plan_id":"cebpf4jnsgd1na2vs0mg"},{"bike_id":"083fcc09-f963-46ec-a4ea-9d563d3af997","system_id":"levelo_inurba_marseille","lat":43.26202,"lon":5.37929,"is_reserved":false,"is_disabled":false,"rental_uris":{"android":"levelo://app?vid=083fcc09-f963-46ec-a4ea-9d563d3af997","ios":"levelo://app?vid=083fcc09-f963-46ec-a4ea-9d563d3af997"},"vehicle_type_id":"4","last_reported":1738775270,"current_range_meters":14800,"station_id":"ce4bhjp2rcd13ifvqg90","pricing_plan_id":"cebpf4jnsgd1na2vs0mg"},{"bike_id":"0d32ebb8-7019-4347-8cf0-8c89b4bf211d","system_id":"levelo_inurba_marseille","lat":43.28615,"lon":5.35102,"is_reserved":false,"is_disabled":false,"rental_uris":{"android":"levelo://app?vid=0d32ebb8-7019-4347-8cf0-8c89b4bf211d","ios":"levelo://app?vid=0d32ebb8-7019-4347-8cf0-8c89b4bf211d"},"vehicle_type_id":"4","last_reported":1738775270,"current_range_meters":33200,"station_id":"ce4bhch2rcd13ifvqeug","pricing_plan_id":"cebpf4jnsgd1na2vs0mg"},{"bike_id":"695c8903-2a1f-4f36-ae79-da101aaac2a2","system_id":"levelo_inurba_marseille","lat":43.23182,"lon":5.39984,"is_reserved":false,"is_disabled":false,"rental_uris":{"android":"levelo://app?vid=695c8903-2a1f-4f36-ae79-da101aaac2a2","ios":"levelo://app?vid=695c8903-2a1f-4f36-ae79-da101aaac2a2"},"vehicle_type_id":"4","last_reported":1738775270,"current_range_meters":19600,"station_id":"ce4bhn12rcd13ifvqgqg","pricing_plan_id":"cebpf4jnsgd1na2vs0mg"},{"bike_id":"ed60c362-16e0-46f1-8a30-27f959e15c1d","system_id":"levelo_inurba_marseille","lat":43.29038,"lon":5.37572,"is_reserved":false,"is_disabled":false,"rental_uris":{"android":"levelo://app?vid=ed60c362-16e0-46f1-8a30-27f959e15c1d","ios":"levelo://app?vid=ed60c362-16e0-46f1-8a30-27f959e15c1d"},"vehicle_type_id":"4","last_reported":1738775270,"current_range_meters":30000,"station_id":"ce4bh692rcd13ifvqe90","pricing_plan_id":"cebpf4jnsgd1na2vs0mg"},{"bike_id":"3b3750dc-9cdb-41a8-a721-f3277ba575c5","system_id":"levelo_inurba_marseille","lat":43.29695,"lon":5.37277,"is_reserved":false,"is_disabled":false,"rental_uris":{"android":"levelo://app?vid=3b3750dc-9cdb-41a8-a721-f3277ba575c5","ios":"levelo://app?vid=3b3750dc-9cdb-41a8-a721-f3277ba575c5"},"vehicle_type_id":"4","last_reported":1738775270,"current_range_meters":38800,"station_id":"ce4bgk12rcd13ifvqbj0","pricing_plan_id":"cebpf4jnsgd1na2vs0mg"},{"bike_id":"6cd2828f-b377-4788-b376-5bf1dc44948b","system_id":"levelo_inurba_marseille","lat":43.29528,"lon":5.39049,"is_reserved":false,"is_disabled":false,"rental_uris":{"android":"levelo://app?vid=6cd2828f-b377-4788-b376-5bf1dc44948b","ios":"levelo://app?vid=6cd2828f-b377-4788-b376-5bf1dc44948b"},"vehicle_type_id":"4","last_reported":1738775270,"current_range_meters":16400,"station_id":"ce4bh3p2rcd13ifvqdp0","pricing_plan_id":"cebpf4jnsgd1na2vs0mg"},{"bike_id":"27788668-d35d-4e3b-b85e-35c52733c3a9","system_id":"levelo_inurba_marseille","lat":43.24392,"lon":5.37059,"is_reserved":false,"is_disabled":false,"rental_uris":{"android":"levelo://app?vid=27788668-d35d-4e3b-b85e-35c52733c3a9","ios":"levelo://app?vid=27788668-d35d-4e3b-b85e-35c52733c3a9"},"vehicle_type_id":"4","last_reported":1738775270,"current_range_meters":6000,"station_id":"ce4bhhh2rcd13ifvqfk0","pricing_plan_id":"cebpf4jnsgd1na2vs0mg"},{"bike_id":"96559f85-f0b0-4a89-9803-99a731c200eb","system_id":"levelo_inurba_marseille","lat":43.31383,"lon":5.38491,"is_reserved":false,"is_disabled":false,"rental_uris":{"android":"levelo://app?vid=96559f85-f0b0-4a89-9803-99a731c200eb","ios":"levelo://app?vid=96559f85-f0b0-4a89-9803-99a731c200eb"},"vehicle_type_id":"4","last_reported":1738775270,"current_range_meters":36800,"station_id":"ce4bgt92rcd13ifvqcf0","pricing_plan_id":"cebpf4jnsgd1na2vs0mg"},{"bike_id":"af7d62a3-9dd4-4a14-8ce3-460ca17c81d5","system_id":"levelo_inurba_marseille","lat":43.33049,"lon":5.39031,"is_reserved":false,"is_disabled":false,"rental_uris":{"android":"levelo://app?vid=af7d62a3-9dd4-4a14-8ce3-460ca17c81d5","ios":"levelo://app?vid=af7d62a3-9dd4-4a14-8ce3-460ca17c81d5"},"vehicle_type_id":"4","last_reported":1738775270,"current_range_meters":28800,"station_id":"ce4bhr92rcd13ifvqhrg","pricing_plan_id":"cebpf4jnsgd1na2vs0mg"},{"bike_id":"de543d1a-4f6d-4e18-951c-6a8712332357","system_id":"levelo_inurba_marseille","lat":43.28344,"lon":5.38108,"is_reserved":false,"is_disabled":false,"rental_uris":{"android":"levelo://app?vid=de543d1a-4f6d-4e18-951c-6a8712332357","ios":"levelo://app?vid=de543d1a-4f6d-4e18-951c-6a8712332357"},"vehicle_type_id":"4","last_reported":1738775270,"current_range_meters":28400,"station_id":"ce4bh412rcd13ifvqdr0","pricing_plan_id":"cebpf4jnsgd1na2vs0mg"},{"bike_id":"7eaacd34-10f9-4246-8aa1-4a22e07a7c06","system_id":"levelo_inurba_marseille","lat":43.31636,"lon":5.374009,"is_reserved":false,"is_disabled":false,"rental_uris":{"android":"levelo://app?vid=7eaacd34-10f9-4246-8aa1-4a22e07a7c06","ios":"levelo://app?vid=7eaacd34-10f9-4246-8aa1-4a22e07a7c06"},"vehicle_type_id":"4","last_reported":1738775270,"current_range_meters":26000,"station_id":"","pricing_plan_id":"cebpf4jnsgd1na2vs0mg"},{"bike_id":"b85d0f36-4ceb-47ae-b932-72d8372ef081","system_id":"levelo_inurba_marseille","lat":43.23191,"lon":5.39976,"is_reserved":false,"is_disabled":false,"rental_uris":{"android":"levelo://app?vid=b85d0f36-4ceb-47ae-b932-72d8372ef081","ios":"levelo://app?vid=b85d0f36-4ceb-47ae-b932-72d8372ef081"},"vehicle_type_id":"4","last_reported":1738775270,"current_range_meters":38800,"station_id":"ce4bhn12rcd13ifvqgqg","pricing_plan_id":"cebpf4jnsgd1na2vs0mg"},{"bike_id":"695c8159-ac4a-408d-a3d5-26e203af1693","system_id":"levelo_inurba_marseille","lat":43.33023,"lon":5.39045,"is_reserved":false,"is_disabled":false,"rental_uris":{"android":"levelo://app?vid=695c8159-ac4a-408d-a3d5-26e203af1693","ios":"levelo://app?vid=695c8159-ac4a-408d-a3d5-26e203af1693"},"vehicle_type_id":"4","last_reported":1738775270,"current_range_meters":37600,"station_id":"ce4bhr92rcd13ifvqhrg","pricing_plan_id":"cebpf4jnsgd1na2vs0mg"},{"bike_id":"19d18ebc-bdeb-4658-80b9-40828934c23b","system_id":"levelo_inurba_marseille","lat":43.26782,"lon":5.39423,"is_reserved":false,"is_disabled":false,"rental_uris":{"android":"levelo://app?vid=19d18ebc-bdeb-4658-80b9-40828934c23b","ios":"levelo://app?vid=19d18ebc-bdeb-4658-80b9-40828934c23b"},"vehicle_type_id":"4","last_reported":1738775270,"current_range_meters":38800,"station_id":"ce4bhh12rcd13ifvqfg0","pricing_plan_id":"cebpf4jnsgd1na2vs0mg"},{"bike_id":"bd42563d-6ded-4a27-8446-f13fff32889d","system_id":"levelo_inurba_marseille","lat":43.31765,"lon":5.39007,"is_reserved":false,"is_disabled":false,"rental_uris":{"android":"levelo://app?vid=bd42563d-6ded-4a27-8446-f13fff32889d","ios":"levelo://app?vid=bd42563d-6ded-4a27-8446-f13fff32889d"},"vehicle_type_id":"4","last_reported":1738775270,"current_range_meters":39200,"station_id":"ce4bhqp2rcd13ifvqhng","pricing_plan_id":"cebpf4jnsgd1na2vs0mg"},{"bike_id":"8c943a3c-6ad9-45a5-b1bd-3e8ddcb2bcdc","system_id":"levelo_inurba_marseille","lat":43.29222,"lon":5.36032,"is_reserved":false,"is_disabled":true,"rental_uris":{"android":"levelo://app?vid=8c943a3c-6ad9-45a5-b1bd-3e8ddcb2bcdc","ios":"levelo://app?vid=8c943a3c-6ad9-45a5-b1bd-3e8ddcb2bcdc"},"vehicle_type_id":"4","last_reported":1738775270,"current_range_meters":1600,"station_id":"ce4bhbh2rcd13ifvqeqg","pricing_plan_id":"cebpf4jnsgd1na2vs0mg"},{"bike_id":"74343d3f-c242-4af6-b162-c0ff2afe6cb1","system_id":"levelo_inurba_marseille","lat":43.28461,"lon":5.35894,"is_reserved":false,"is_disabled":false,"rental_uris":{"android":"levelo://app?vid=74343d3f-c242-4af6-b162-c0ff2afe6cb1","ios":"levelo://app?vid=74343d3f-c242-4af6-b162-c0ff2afe6cb1"},"vehicle_type_id":"4","last_reported":1738775270,"current_range_meters":5600,"station_id":"ce4bhah2rcd13ifvqei0","pricing_plan_id":"cebpf4jnsgd1na2vs0mg"},{"bike_id":"85506d97-0f87-4df9-ad07-8dd2dedad0b3","system_id":"levelo_inurba_marseille","lat":43.27207,"lon":5.39183,"is_reserved":false,"is_disabled":true,"rental_uris":{"android":"levelo://app?vid=85506d97-0f87-4df9-ad07-8dd2dedad0b3","ios":"levelo://app?vid=85506d97-0f87-4df9-ad07-8dd2dedad0b3"},"vehicle_type_id":"4","last_reported":1738775270,"current_range_meters":36800,"station_id":"ce4bhhp2rcd13ifvqfm0","pricing_plan_id":"cebpf4jnsgd1na2vs0mg"},{"bike_id":"a1a7079b-68b5-45ca-9af8-b6bc9f7cd559","system_id":"levelo_inurba_marseille","lat":43.2293,"lon":5.35372,"is_reserved":false,"is_disabled":false,"rental_uris":{"android":"levelo://app?vid=a1a7079b-68b5-45ca-9af8-b6bc9f7cd559","ios":"levelo://app?vid=a1a7079b-68b5-45ca-9af8-b6bc9f7cd559"},"vehicle_type_id":"4","last_reported":1738775270,"current_range_meters":38800,"station_id":"cpo3532slgdg3j2ikp40","pricing_plan_id":"cebpf4jnsgd1na2vs0mg"},{"bike_id":"dfcf3dac-d3bc-437e-9f49-66cee044fa9f","system_id":"levelo_inurba_marseille","lat":43.27322,"lon":5.39074,"is_reserved":false,"is_disabled":false,"rental_uris":{"android":"levelo://app?vid=dfcf3dac-d3bc-437e-9f49-66cee044fa9f","ios":"levelo://app?vid=dfcf3dac-d3bc-437e-9f49-66cee044fa9f"},"vehicle_type_id":"4","last_reported":1738775270,"current_range_meters":14400,"station_id":"ce4bhgp2rcd13ifvqfe0","pricing_plan_id":"cebpf4jnsgd1na2vs0mg"},{"bike_id":"29805978-3f90-4e1f-a2f8-4f8391d994c3","system_id":"levelo_inurba_marseille","lat":43.24171,"lon":5.39708,"is_reserved":false,"is_disabled":false,"rental_uris":{"android":"levelo://app?vid=29805978-3f90-4e1f-a2f8-4f8391d994c3","ios":"levelo://app?vid=29805978-3f90-4e1f-a2f8-4f8391d994c3"},"vehicle_type_id":"4","last_reported":1738775270,"current_range_meters":17200,"station_id":"ce4bhn12rcd13ifvqgpg","pricing_plan_id":"cebpf4jnsgd1na2vs0mg"},{"bike_id":"9bed730f-1adf-4444-a5ac-fa2d282ef048","system_id":"levelo_inurba_marseille","lat":43.30795,"lon":5.435203,"is_reserved":false,"is_disabled":false,"rental_uris":{"android":"levelo://app?vid=9bed730f-1adf-4444-a5ac-fa2d282ef048","ios":"levelo://app?vid=9bed730f-1adf-4444-a5ac-fa2d282ef048"},"vehicle_type_id":"4","last_reported":1738775270,"current_range_meters":5600,"station_id":"ce4bhph2rcd13ifvqheg","pricing_plan_id":"cebpf4jnsgd1na2vs0mg"},{"bike_id":"c7a0391b-d44b-4591-aedf-ffae0dacdacb","system_id":"levelo_inurba_marseille","lat":43.29684,"lon":5.37295,"is_reserved":false,"is_disabled":false,"rental_uris":{"android":"levelo://app?vid=c7a0391b-d44b-4591-aedf-ffae0dacdacb","ios":"levelo://app?vid=c7a0391b-d44b-4591-aedf-ffae0dacdacb"},"vehicle_type_id":"4","last_reported":1738775270,"current_range_meters":36800,"station_id":"ce4bgk12rcd13ifvqbj0","pricing_plan_id":"cebpf4jnsgd1na2vs0mg"},{"bike_id":"f423adf0-93aa-4c47-9d8a-b1e2e7e85005","system_id":"levelo_inurba_marseille","lat":43.28421,"lon":5.34989,"is_reserved":false,"is_disabled":true,"rental_uris":{"android":"levelo://app?vid=f423adf0-93aa-4c47-9d8a-b1e2e7e85005","ios":"levelo://app?vid=f423adf0-93aa-4c47-9d8a-b1e2e7e85005"},"vehicle_type_id":"4","last_reported":1738775270,"current_range_meters":10000,"station_id":"ce4bhbh2rcd13ifvqepg","pricing_plan_id":"cebpf4jnsgd1na2vs0mg"},{"bike_id":"457d6f37-0946-4a2e-bbbc-f757ee23464b","system_id":"levelo_inurba_marseille","lat":43.31073,"lon":5.38351,"is_reserved":false,"is_disabled":false,"rental_uris":{"android":"levelo://app?vid=457d6f37-0946-4a2e-bbbc-f757ee23464b","ios":"levelo://app?vid=457d6f37-0946-4a2e-bbbc-f757ee23464b"},"vehicle_type_id":"4","last_reported":1738775270,"current_range_meters":12800,"station_id":"ce4bgv92rcd13ifvqcr0","pricing_plan_id":"cebpf4jnsgd1na2vs0mg"},{"bike_id":"311e07d4-2104-4029-a1a7-49227c96d33e","system_id":"levelo_inurba_marseille","lat":43.31762,"lon":5.39016,"is_reserved":false,"is_disabled":false,"rental_uris":{"android":"levelo://app?vid=311e07d4-2104-4029-a1a7-49227c96d33e","ios":"levelo://app?vid=311e07d4-2104-4029-a1a7-49227c96d33e"},"vehicle_type_id":"4","last_reported":1738775270,"current_range_meters":37600,"station_id":"ce4bhqp2rcd13ifvqhng","pricing_plan_id":"cebpf4jnsgd1na2vs0mg"},{"bike_id":"f7024f0f-fe0a-49f6-9100-74d0a3ed39e9","system_id":"levelo_inurba_marseille","lat":43.30303,"lon":5.39204,"is_reserved":false,"is_disabled":false,"rental_uris":{"android":"levelo://app?vid=f7024f0f-fe0a-49f6-9100-74d0a3ed39e9","ios":"levelo://app?vid=f7024f0f-fe0a-49f6-9100-74d0a3ed39e9"},"vehicle_type_id":"4","last_reported":1738775270,"current_range_meters":17200,"station_id":"ce4bgkh2rcd13ifvqbk0","pricing_plan_id":"cebpf4jnsgd1na2vs0mg"},{"bike_id":"22d7d5c8-23b1-4a29-9d97-2595194d451f","system_id":"levelo_inurba_marseille","lat":43.28107,"lon":5.37836,"is_reserved":false,"is_disabled":false,"rental_uris":{"android":"levelo://app?vid=22d7d5c8-23b1-4a29-9d97-2595194d451f","ios":"levelo://app?vid=22d7d5c8-23b1-4a29-9d97-2595194d451f"},"vehicle_type_id":"4","last_reported":1738775270,"current_range_meters":28000,"station_id":"ce4bha12rcd13ifvqee0","pricing_plan_id":"cebpf4jnsgd1na2vs0mg"},{"bike_id":"6bba36c7-75a6-4b1b-96cb-c03d219a6faa","system_id":"levelo_inurba_marseille","lat":43.33026,"lon":5.39061,"is_reserved":false,"is_disabled":false,"rental_uris":{"android":"levelo://app?vid=6bba36c7-75a6-4b1b-96cb-c03d219a6faa","ios":"levelo://app?vid=6bba36c7-75a6-4b1b-96cb-c03d219a6faa"},"vehicle_type_id":"4","last_reported":1738775270,"current_range_meters":36800,"station_id":"ce4bhr92rcd13ifvqhrg","pricing_plan_id":"cebpf4jnsgd1na2vs0mg"},{"bike_id":"5010ca19-df83-42ac-9a06-ec42d2768688","system_id":"levelo_inurba_marseille","lat":43.26068,"lon":5.39397,"is_reserved":false,"is_disabled":false,"rental_uris":{"android":"levelo://app?vid=5010ca19-df83-42ac-9a06-ec42d2768688","ios":"levelo://app?vid=5010ca19-df83-42ac-9a06-ec42d2768688"},"vehicle_type_id":"4","last_reported":1738775270,"current_range_meters":4000,"station_id":"ce4bhh92rcd13ifvqfj0","pricing_plan_id":"cebpf4jnsgd1na2vs0mg"},{"bike_id":"f307f8ea-df8b-425d-97d7-c4f570c0ee32","system_id":"levelo_inurba_marseille","lat":43.239735,"lon":5.366221,"is_reserved":false,"is_disabled":false,"rental_uris":{"android":"levelo://app?vid=f307f8ea-df8b-425d-97d7-c4f570c0ee32","ios":"levelo://app?vid=f307f8ea-df8b-425d-97d7-c4f570c0ee32"},"vehicle_type_id":"4","last_reported":1738775270,"current_range_meters":20400,"station_id":"ce4bhi12rcd13ifvqfp0","pricing_plan_id":"cebpf4jnsgd1na2vs0mg"},{"bike_id":"7a87dee5-d36c-42e8-a03c-4badbb443213","system_id":"levelo_inurba_marseille","lat":43.26801,"lon":5.39418,"is_reserved":false,"is_disabled":false,"rental_uris":{"android":"levelo://app?vid=7a87dee5-d36c-42e8-a03c-4badbb443213","ios":"levelo://app?vid=7a87dee5-d36c-42e8-a03c-4badbb443213"},"vehicle_type_id":"4","last_reported":1738775270,"current_range_meters":38800,"station_id":"ce4bhh12rcd13ifvqfg0","pricing_plan_id":"cebpf4jnsgd1na2vs0mg"},{"bike_id":"c90bee22-93e6-4769-a402-7c2dd626c38f","system_id":"levelo_inurba_marseille","lat":43.27617,"lon":5.36114,"is_reserved":false,"is_disabled":false,"rental_uris":{"android":"levelo://app?vid=c90bee22-93e6-4769-a402-7c2dd626c38f","ios":"levelo://app?vid=c90bee22-93e6-4769-a402-7c2dd626c38f"},"vehicle_type_id":"4","last_reported":1738775270,"current_range_meters":36800,"station_id":"ce4bgj92rcd13ifvqbe0","pricing_plan_id":"cebpf4jnsgd1na2vs0mg"},{"bike_id":"c8a2cd98-0273-42fe-b5f3-27b1dd32fa2f","system_id":"levelo_inurba_marseille","lat":43.27943,"lon":5.41048,"is_reserved":false,"is_disabled":false,"rental_uris":{"android":"levelo://app?vid=c8a2cd98-0273-42fe-b5f3-27b1dd32fa2f","ios":"levelo://app?vid=c8a2cd98-0273-42fe-b5f3-27b1dd32fa2f"},"vehicle_type_id":"4","last_reported":1738775270,"current_range_meters":26000,"station_id":"ce4bhnp2rcd13ifvqh0g","pricing_plan_id":"cebpf4jnsgd1na2vs0mg"},{"bike_id":"865da38e-7662-4cd0-8259-ddab14436918","system_id":"levelo_inurba_marseille","lat":43.28431,"lon":5.39184,"is_reserved":false,"is_disabled":false,"rental_uris":{"android":"levelo://app?vid=865da38e-7662-4cd0-8259-ddab14436918","ios":"levelo://app?vid=865da38e-7662-4cd0-8259-ddab14436918"},"vehicle_type_id":"4","last_reported":1738775270,"current_range_meters":38800,"station_id":"ce4bhoh2rcd13ifvqh5g","pricing_plan_id":"cebpf4jnsgd1na2vs0mg"},{"bike_id":"23ac430b-9b2c-4644-aa5d-16bcfe64e4cc","system_id":"levelo_inurba_marseille","lat":43.31481,"lon":5.37309,"is_reserved":false,"is_disabled":false,"rental_uris":{"android":"levelo://app?vid=23ac430b-9b2c-4644-aa5d-16bcfe64e4cc","ios":"levelo://app?vid=23ac430b-9b2c-4644-aa5d-16bcfe64e4cc"},"vehicle_type_id":"4","last_reported":1738775270,"current_range_meters":36800,"station_id":"ce4bgt12rcd13ifvqcd0","pricing_plan_id":"cebpf4jnsgd1na2vs0mg"},{"bike_id":"18d09656-3c78-4944-b8dc-3a3bb900a5ee","system_id":"levelo_inurba_marseille","lat":43.30299,"lon":5.39205,"is_reserved":false,"is_disabled":false,"rental_uris":{"android":"levelo://app?vid=18d09656-3c78-4944-b8dc-3a3bb900a5ee","ios":"levelo://app?vid=18d09656-3c78-4944-b8dc-3a3bb900a5ee"},"vehicle_type_id":"4","last_reported":1738775270,"current_range_meters":38800,"station_id":"ce4bgkh2rcd13ifvqbk0","pricing_plan_id":"cebpf4jnsgd1na2vs0mg"},{"bike_id":"585829b3-6401-45a0-8835-1ef0bbd3a57c","system_id":"levelo_inurba_marseille","lat":43.28156,"lon":5.4264,"is_reserved":false,"is_disabled":false,"rental_uris":{"android":"levelo://app?vid=585829b3-6401-45a0-8835-1ef0bbd3a57c","ios":"levelo://app?vid=585829b3-6401-45a0-8835-1ef0bbd3a57c"},"vehicle_type_id":"4","last_reported":1738775270,"current_range_meters":27600,"station_id":"ce4bhnh2rcd13ifvqgug","pricing_plan_id":"cebpf4jnsgd1na2vs0mg"},{"bike_id":"91916b0c-94d0-4d7f-98a2-f866d141c828","system_id":"levelo_inurba_marseille","lat":43.29977,"lon":5.37188,"is_reserved":false,"is_disabled":false,"rental_uris":{"android":"levelo://app?vid=91916b0c-94d0-4d7f-98a2-f866d141c828","ios":"levelo://app?vid=91916b0c-94d0-4d7f-98a2-f866d141c828"},"vehicle_type_id":"4","last_reported":1738775270,"current_range_meters":38800,"station_id":"ce4bgr92rcd13ifvqc7g","pricing_plan_id":"cebpf4jnsgd1na2vs0mg"},{"bike_id":"2cd60774-c2f8-4e8f-9236-a6b0c03a1062","system_id":"levelo_inurba_marseille","lat":43.28085,"lon":5.39654,"is_reserved":false,"is_disabled":false,"rental_uris":{"android":"levelo://app?vid=2cd60774-c2f8-4e8f-9236-a6b0c03a1062","ios":"levelo://app?vid=2cd60774-c2f8-4e8f-9236-a6b0c03a1062"},"vehicle_type_id":"4","last_reported":1738775270,"current_range_meters":12800,"station_id":"ce4bho12rcd13ifvqh2g","pricing_plan_id":"cebpf4jnsgd1na2vs0mg"},{"bike_id":"58ab78f5-67e4-4251-b69d-a8899c0ee627","system_id":"levelo_inurba_marseille","lat":43.27943,"lon":5.41057,"is_reserved":false,"is_disabled":false,"rental_uris":{"android":"levelo://app?vid=58ab78f5-67e4-4251-b69d-a8899c0ee627","ios":"levelo://app?vid=58ab78f5-67e4-4251-b69d-a8899c0ee627"},"vehicle_type_id":"4","last_reported":1738775270,"current_range_meters":24400,"station_id":"ce4bhnp2rcd13ifvqh0g","pricing_plan_id":"cebpf4jnsgd1na2vs0mg"},{"bike_id":"e040da88-b421-4173-9ede-61ba1a6ca5b4","system_id":"levelo_inurba_marseille","lat":43.2418,"lon":5.39727,"is_reserved":false,"is_disabled":false,"rental_uris":{"android":"levelo://app?vid=e040da88-b421-4173-9ede-61ba1a6ca5b4","ios":"levelo://app?vid=e040da88-b421-4173-9ede-61ba1a6ca5b4"},"vehicle_type_id":"4","last_reported":1738775270,"current_range_meters":16800,"station_id":"ce4bhn12rcd13ifvqgpg","pricing_plan_id":"cebpf4jnsgd1na2vs0mg"},{"bike_id":"6712f04b-f35d-4e3a-a70d-c89aec85d9b2","system_id":"levelo_inurba_marseille","lat":43.22934,"lon":5.35381,"is_reserved":false,"is_disabled":false,"rental_uris":{"android":"levelo://app?vid=6712f04b-f35d-4e3a-a70d-c89aec85d9b2","ios":"levelo://app?vid=6712f04b-f35d-4e3a-a70d-c89aec85d9b2"},"vehicle_type_id":"4","last_reported":1738775270,"current_range_meters":38800,"station_id":"cpo3532slgdg3j2ikp40","pricing_plan_id":"cebpf4jnsgd1na2vs0mg"},{"bike_id":"9470dd73-7393-47ca-8f05-fd76cdac2879","system_id":"levelo_inurba_marseille","lat":43.24072,"lon":5.37768,"is_reserved":false,"is_disabled":false,"rental_uris":{"android":"levelo://app?vid=9470dd73-7393-47ca-8f05-fd76cdac2879","ios":"levelo://app?vid=9470dd73-7393-47ca-8f05-fd76cdac2879"},"vehicle_type_id":"4","last_reported":1738775270,"current_range_meters":25200,"station_id":"ce4bhnp2rcd13ifvqgvg","pricing_plan_id":"cebpf4jnsgd1na2vs0mg"},{"bike_id":"cb2e142b-8956-4e08-816f-7dc7ab66ecae","system_id":"levelo_inurba_marseille","lat":43.31712,"lon":5.37753,"is_reserved":false,"is_disabled":false,"rental_uris":{"android":"levelo://app?vid=cb2e142b-8956-4e08-816f-7dc7ab66ecae","ios":"levelo://app?vid=cb2e142b-8956-4e08-816f-7dc7ab66ecae"},"vehicle_type_id":"4","last_reported":1738775270,"current_range_meters":36800,"station_id":"ce4bgth2rcd13ifvqch0","pricing_plan_id":"cebpf4jnsgd1na2vs0mg"},{"bike_id":"557561e0-8b52-474d-b522-015aa5f48afe","system_id":"levelo_inurba_marseille","lat":43.29171,"lon":5.37161,"is_reserved":false,"is_disabled":false,"rental_uris":{"android":"levelo://app?vid=557561e0-8b52-474d-b522-015aa5f48afe","ios":"levelo://app?vid=557561e0-8b52-474d-b522-015aa5f48afe"},"vehicle_type_id":"4","last_reported":1738775270,"current_range_meters":38000,"station_id":"ce4bha92rcd13ifvqeh0","pricing_plan_id":"cebpf4jnsgd1na2vs0mg"},{"bike_id":"0a340a50-c9b3-4c87-88da-a62208ff40c7","system_id":"levelo_inurba_marseille","lat":43.305509,"lon":5.366983,"is_reserved":false,"is_disabled":false,"rental_uris":{"android":"levelo://app?vid=0a340a50-c9b3-4c87-88da-a62208ff40c7","ios":"levelo://app?vid=0a340a50-c9b3-4c87-88da-a62208ff40c7"},"vehicle_type_id":"4","last_reported":1738775270,"current_range_meters":37600,"station_id":"ce4bgrp2rcd13ifvqc9g","pricing_plan_id":"cebpf4jnsgd1na2vs0mg"},{"bike_id":"a1acc459-654e-43fd-b1f4-526c9ae00f50","system_id":"levelo_inurba_marseille","lat":43.27999,"lon":5.40014,"is_reserved":false,"is_disabled":false,"rental_uris":{"android":"levelo://app?vid=a1acc459-654e-43fd-b1f4-526c9ae00f50","ios":"levelo://app?vid=a1acc459-654e-43fd-b1f4-526c9ae00f50"},"vehicle_type_id":"4","last_reported":1738775270,"current_range_meters":9200,"station_id":"ce4bho92rcd13ifvqh4g","pricing_plan_id":"cebpf4jnsgd1na2vs0mg"},{"bike_id":"bdf70224-63a9-4409-8dea-7caf726ef405","system_id":"levelo_inurba_marseille","lat":43.30481,"lon":5.36675,"is_reserved":false,"is_disabled":false,"rental_uris":{"android":"levelo://app?vid=bdf70224-63a9-4409-8dea-7caf726ef405","ios":"levelo://app?vid=bdf70224-63a9-4409-8dea-7caf726ef405"},"vehicle_type_id":"4","last_reported":1738775270,"current_range_meters":27200,"station_id":"","pricing_plan_id":"cebpf4jnsgd1na2vs0mg"},{"bike_id":"a6b2428a-7d23-4892-a3bf-86cc25978b7a","system_id":"levelo_inurba_marseille","lat":43.25478,"lon":5.37629,"is_reserved":false,"is_disabled":true,"rental_uris":{"android":"levelo://app?vid=a6b2428a-7d23-4892-a3bf-86cc25978b7a","ios":"levelo://app?vid=a6b2428a-7d23-4892-a3bf-86cc25978b7a"},"vehicle_type_id":"4","last_reported":1738775270,"current_range_meters":25600,"station_id":"ce4bhh12rcd13ifvqff0","pricing_plan_id":"cebpf4jnsgd1na2vs0mg"},{"bike_id":"8f55a9a2-e3bf-4734-b1cd-752d8460ce0f","system_id":"levelo_inurba_marseille","lat":43.29518,"lon":5.39397,"is_reserved":false,"is_disabled":true,"rental_uris":{"android":"levelo://app?vid=8f55a9a2-e3bf-4734-b1cd-752d8460ce0f","ios":"levelo://app?vid=8f55a9a2-e3bf-4734-b1cd-752d8460ce0f"},"vehicle_type_id":"4","last_reported":1738775270,"current_range_meters":1600,"station_id":"ce4bh292rcd13ifvqdf0","pricing_plan_id":"cebpf4jnsgd1na2vs0mg"},{"bike_id":"9a449e8f-6f61-46f1-8791-42754d534c2c","system_id":"levelo_inurba_marseille","lat":43.26942,"lon":5.40251,"is_reserved":false,"is_disabled":false,"rental_uris":{"android":"levelo://app?vid=9a449e8f-6f61-46f1-8791-42754d534c2c","ios":"levelo://app?vid=9a449e8f-6f61-46f1-8791-42754d534c2c"},"vehicle_type_id":"4","last_reported":1738775270,"current_range_meters":22400,"station_id":"cjm6bp8fraef2m0cb0m0","pricing_plan_id":"cebpf4jnsgd1na2vs0mg"},{"bike_id":"c85a26e1-f53e-4ec1-b1ea-8b32d23f1f4d","system_id":"levelo_inurba_marseille","lat":43.23091,"lon":5.3547,"is_reserved":false,"is_disabled":false,"rental_uris":{"android":"levelo://app?vid=c85a26e1-f53e-4ec1-b1ea-8b32d23f1f4d","ios":"levelo://app?vid=c85a26e1-f53e-4ec1-b1ea-8b32d23f1f4d"},"vehicle_type_id":"4","last_reported":1738775270,"current_range_meters":22000,"station_id":"cpo3342slgdg3j2ifvpg","pricing_plan_id":"cebpf4jnsgd1na2vs0mg"},{"bike_id":"d1c25281-6598-43de-bc45-bec5e8d07204","system_id":"levelo_inurba_marseille","lat":43.26939,"lon":5.40257,"is_reserved":false,"is_disabled":false,"rental_uris":{"android":"levelo://app?vid=d1c25281-6598-43de-bc45-bec5e8d07204","ios":"levelo://app?vid=d1c25281-6598-43de-bc45-bec5e8d07204"},"vehicle_type_id":"4","last_reported":1738775270,"current_range_meters":30400,"station_id":"cjm6bp8fraef2m0cb0m0","pricing_plan_id":"cebpf4jnsgd1na2vs0mg"},{"bike_id":"cb9ef5e1-1376-4cdb-9148-8e2bc77f91aa","system_id":"levelo_inurba_marseille","lat":43.30207,"lon":5.39456,"is_reserved":false,"is_disabled":false,"rental_uris":{"android":"levelo://app?vid=cb9ef5e1-1376-4cdb-9148-8e2bc77f91aa","ios":"levelo://app?vid=cb9ef5e1-1376-4cdb-9148-8e2bc77f91aa"},"vehicle_type_id":"4","last_reported":1738775270,"current_range_meters":28400,"station_id":"ce4bh0p2rcd13ifvqd70","pricing_plan_id":"cebpf4jnsgd1na2vs0mg"},{"bike_id":"67f7594f-7da2-4de4-b1d6-a36e1f115737","system_id":"levelo_inurba_marseille","lat":43.29864,"lon":5.39712,"is_reserved":false,"is_disabled":false,"rental_uris":{"android":"levelo://app?vid=67f7594f-7da2-4de4-b1d6-a36e1f115737","ios":"levelo://app?vid=67f7594f-7da2-4de4-b1d6-a36e1f115737"},"vehicle_type_id":"4","last_reported":1738775270,"current_range_meters":16000,"station_id":"ce4bh0h2rcd13ifvqd50","pricing_plan_id":"cebpf4jnsgd1na2vs0mg"},{"bike_id":"d3a5ac14-9085-4b0c-a869-c130411ef173","system_id":"levelo_inurba_marseille","lat":43.29872,"lon":5.39734,"is_reserved":false,"is_disabled":false,"rental_uris":{"android":"levelo://app?vid=d3a5ac14-9085-4b0c-a869-c130411ef173","ios":"levelo://app?vid=d3a5ac14-9085-4b0c-a869-c130411ef173"},"vehicle_type_id":"4","last_reported":1738775270,"current_range_meters":24800,"station_id":"ce4bh0h2rcd13ifvqd50","pricing_plan_id":"cebpf4jnsgd1na2vs0mg"},{"bike_id":"9c207c45-ddb2-4217-8d34-079a5658cd14","system_id":"levelo_inurba_marseille","lat":43.32292,"lon":5.3826,"is_reserved":false,"is_disabled":false,"rental_uris":{"android":"levelo://app?vid=9c207c45-ddb2-4217-8d34-079a5658cd14","ios":"levelo://app?vid=9c207c45-ddb2-4217-8d34-079a5658cd14"},"vehicle_type_id":"4","last_reported":1738775270,"current_range_meters":38000,"station_id":"ce4bhr12rcd13ifvqhqg","pricing_plan_id":"cebpf4jnsgd1na2vs0mg"},{"bike_id":"9b943d7c-6298-4c71-b91b-50a6d7a5595d","system_id":"levelo_inurba_marseille","lat":43.31067,"lon":5.38346,"is_reserved":false,"is_disabled":false,"rental_uris":{"android":"levelo://app?vid=9b943d7c-6298-4c71-b91b-50a6d7a5595d","ios":"levelo://app?vid=9b943d7c-6298-4c71-b91b-50a6d7a5595d"},"vehicle_type_id":"4","last_reported":1738775270,"current_range_meters":38800,"station_id":"ce4bgv92rcd13ifvqcr0","pricing_plan_id":"cebpf4jnsgd1na2vs0mg"},{"bike_id":"b4550370-2ab6-46d0-8d1d-404d616cb433","system_id":"levelo_inurba_marseille","lat":43.27991,"lon":5.40031,"is_reserved":false,"is_disabled":false,"rental_uris":{"android":"levelo://app?vid=b4550370-2ab6-46d0-8d1d-404d616cb433","ios":"levelo://app?vid=b4550370-2ab6-46d0-8d1d-404d616cb433"},"vehicle_type_id":"4","last_reported":1738775270,"current_range_meters":6000,"station_id":"ce4bho92rcd13ifvqh4g","pricing_plan_id":"cebpf4jnsgd1na2vs0mg"},{"bike_id":"f6ce2024-15c5-4347-ae76-f323ed39d021","system_id":"levelo_inurba_marseille","lat":43.3176,"lon":5.39018,"is_reserved":false,"is_disabled":false,"rental_uris":{"android":"levelo://app?vid=f6ce2024-15c5-4347-ae76-f323ed39d021","ios":"levelo://app?vid=f6ce2024-15c5-4347-ae76-f323ed39d021"},"vehicle_type_id":"4","last_reported":1738775270,"current_range_meters":12400,"station_id":"ce4bhqp2rcd13ifvqhng","pricing_plan_id":"cebpf4jnsgd1na2vs0mg"},{"bike_id":"c84925c6-7b56-4517-80c8-644508af336c","system_id":"levelo_inurba_marseille","lat":43.23197,"lon":5.35553,"is_reserved":false,"is_disabled":false,"rental_uris":{"android":"levelo://app?vid=c84925c6-7b56-4517-80c8-644508af336c","ios":"levelo://app?vid=c84925c6-7b56-4517-80c8-644508af336c"},"vehicle_type_id":"4","last_reported":1738775270,"current_range_meters":30400,"station_id":"ce4bhu92rcd13ifvqi70","pricing_plan_id":"cebpf4jnsgd1na2vs0mg"},{"bike_id":"82133489-1f9b-4d45-a0d8-db9b66e338f6","system_id":"levelo_inurba_marseille","lat":43.29513,"lon":5.39405,"is_reserved":false,"is_disabled":false,"rental_uris":{"android":"levelo://app?vid=82133489-1f9b-4d45-a0d8-db9b66e338f6","ios":"levelo://app?vid=82133489-1f9b-4d45-a0d8-db9b66e338f6"},"vehicle_type_id":"4","last_reported":1738775270,"current_range_meters":31200,"station_id":"ce4bh292rcd13ifvqdf0","pricing_plan_id":"cebpf4jnsgd1na2vs0mg"},{"bike_id":"c27d8cef-128f-467e-8ca2-b33835376bb2","system_id":"levelo_inurba_marseille","lat":43.30656,"lon":5.401,"is_reserved":false,"is_disabled":false,"rental_uris":{"android":"levelo://app?vid=c27d8cef-128f-467e-8ca2-b33835376bb2","ios":"levelo://app?vid=c27d8cef-128f-467e-8ca2-b33835376bb2"},"vehicle_type_id":"4","last_reported":1738775270,"current_range_meters":33600,"station_id":"ce4bh112rcd13ifvqda0","pricing_plan_id":"cebpf4jnsgd1na2vs0mg"},{"bike_id":"21b0ef3e-118c-45f1-b8bb-0eb10ed6fd4d","system_id":"levelo_inurba_marseille","lat":43.24801,"lon":5.37461,"is_reserved":false,"is_disabled":false,"rental_uris":{"android":"levelo://app?vid=21b0ef3e-118c-45f1-b8bb-0eb10ed6fd4d","ios":"levelo://app?vid=21b0ef3e-118c-45f1-b8bb-0eb10ed6fd4d"},"vehicle_type_id":"4","last_reported":1738775270,"current_range_meters":6000,"station_id":"ce4bhgh2rcd13ifvqfb0","pricing_plan_id":"cebpf4jnsgd1na2vs0mg"},{"bike_id":"e0a2176f-a6ec-4973-b0aa-0e0ef86a4b12","system_id":"levelo_inurba_marseille","lat":43.2926,"lon":5.40914,"is_reserved":false,"is_disabled":false,"rental_uris":{"android":"levelo://app?vid=e0a2176f-a6ec-4973-b0aa-0e0ef86a4b12","ios":"levelo://app?vid=e0a2176f-a6ec-4973-b0aa-0e0ef86a4b12"},"vehicle_type_id":"4","last_reported":1738775270,"current_range_meters":38000,"station_id":"ce4bh192rcd13ifvqdc0","pricing_plan_id":"cebpf4jnsgd1na2vs0mg"},{"bike_id":"24014241-5b95-4a31-94b3-518cf14b5577","system_id":"levelo_inurba_marseille","lat":43.30789,"lon":5.37647,"is_reserved":false,"is_disabled":true,"rental_uris":{"android":"levelo://app?vid=24014241-5b95-4a31-94b3-518cf14b5577","ios":"levelo://app?vid=24014241-5b95-4a31-94b3-518cf14b5577"},"vehicle_type_id":"4","last_reported":1738775270,"current_range_meters":8800,"station_id":"ce4bgv92rcd13ifvqcq0","pricing_plan_id":"cebpf4jnsgd1na2vs0mg"},{"bike_id":"a9d2cdd8-e8cc-40c9-87d7-d5a1d12197b1","system_id":"levelo_inurba_marseille","lat":43.27493,"lon":5.42456,"is_reserved":false,"is_disabled":true,"rental_uris":{"android":"levelo://app?vid=a9d2cdd8-e8cc-40c9-87d7-d5a1d12197b1","ios":"levelo://app?vid=a9d2cdd8-e8cc-40c9-87d7-d5a1d12197b1"},"vehicle_type_id":"4","last_reported":1738775270,"current_range_meters":0,"station_id":"ce4bhn92rcd13ifvqgrg","pricing_plan_id":"cebpf4jnsgd1na2vs0mg"},{"bike_id":"45eda426-b16f-43da-8d90-62836959b31f","system_id":"levelo_inurba_marseille","lat":43.30211,"lon":5.39458,"is_reserved":false,"is_disabled":false,"rental_uris":{"android":"levelo://app?vid=45eda426-b16f-43da-8d90-62836959b31f","ios":"levelo://app?vid=45eda426-b16f-43da-8d90-62836959b31f"},"vehicle_type_id":"4","last_reported":1738775270,"current_range_meters":35600,"station_id":"ce4bh0p2rcd13ifvqd70","pricing_plan_id":"cebpf4jnsgd1na2vs0mg"},{"bike_id":"0229f263-257b-42ed-9f7e-654079bbcad8","system_id":"levelo_inurba_marseille","lat":43.28613,"lon":5.3706,"is_reserved":false,"is_disabled":false,"rental_uris":{"android":"levelo://app?vid=0229f263-257b-42ed-9f7e-654079bbcad8","ios":"levelo://app?vid=0229f263-257b-42ed-9f7e-654079bbcad8"},"vehicle_type_id":"4","last_reported":1738775270,"current_range_meters":17200,"station_id":"ce4bht12rcd13ifvqi60","pricing_plan_id":"cebpf4jnsgd1na2vs0mg"},{"bike_id":"35b0fbe6-22db-46fb-a54a-76af362a8729","system_id":"levelo_inurba_marseille","lat":43.29967,"lon":5.41331,"is_reserved":false,"is_disabled":false,"rental_uris":{"android":"levelo://app?vid=35b0fbe6-22db-46fb-a54a-76af362a8729","ios":"levelo://app?vid=35b0fbe6-22db-46fb-a54a-76af362a8729"},"vehicle_type_id":"4","last_reported":1738775270,"current_range_meters":36800,"station_id":"ce4bhp12rcd13ifvqh9g","pricing_plan_id":"cebpf4jnsgd1na2vs0mg"},{"bike_id":"ba9bc9f9-fdbd-4f15-9e81-b1286bf56bad","system_id":"levelo_inurba_marseille","lat":43.32109,"lon":5.3678,"is_reserved":false,"is_disabled":true,"rental_uris":{"android":"levelo://app?vid=ba9bc9f9-fdbd-4f15-9e81-b1286bf56bad","ios":"levelo://app?vid=ba9bc9f9-fdbd-4f15-9e81-b1286bf56bad"},"vehicle_type_id":"4","last_reported":1738775270,"current_range_meters":0,"station_id":"ce4bhrh2rcd13ifvqhug","pricing_plan_id":"cebpf4jnsgd1na2vs0mg"},{"bike_id":"6ede7794-877e-4541-bab0-1a57f872208b","system_id":"levelo_inurba_marseille","lat":43.27425,"lon":5.394177,"is_reserved":false,"is_disabled":false,"rental_uris":{"android":"levelo://app?vid=6ede7794-877e-4541-bab0-1a57f872208b","ios":"levelo://app?vid=6ede7794-877e-4541-bab0-1a57f872208b"},"vehicle_type_id":"4","last_reported":1738775270,"current_range_meters":38800,"station_id":"ce4bhdp2rcd13ifvqf20","pricing_plan_id":"cebpf4jnsgd1na2vs0mg"},{"bike_id":"033a10c3-9687-454f-9369-8b820ef164cf","system_id":"levelo_inurba_marseille","lat":43.30377,"lon":5.40318,"is_reserved":false,"is_disabled":false,"rental_uris":{"android":"levelo://app?vid=033a10c3-9687-454f-9369-8b820ef164cf","ios":"levelo://app?vid=033a10c3-9687-454f-9369-8b820ef164cf"},"vehicle_type_id":"4","last_reported":1738775270,"current_range_meters":38800,"station_id":"ce4bh012rcd13ifvqd10","pricing_plan_id":"cebpf4jnsgd1na2vs0mg"},{"bike_id":"0978639a-eb0c-46af-b1a6-4d618119b587","system_id":"levelo_inurba_marseille","lat":43.27209,"lon":5.39181,"is_reserved":false,"is_disabled":false,"rental_uris":{"android":"levelo://app?vid=0978639a-eb0c-46af-b1a6-4d618119b587","ios":"levelo://app?vid=0978639a-eb0c-46af-b1a6-4d618119b587"},"vehicle_type_id":"4","last_reported":1738775270,"current_range_meters":24400,"station_id":"ce4bhhp2rcd13ifvqfm0","pricing_plan_id":"cebpf4jnsgd1na2vs0mg"},{"bike_id":"2f9a6647-bfb0-4c5f-b2d5-6b23d0794b76","system_id":"levelo_inurba_marseille","lat":43.25572,"lon":5.38236,"is_reserved":false,"is_disabled":true,"rental_uris":{"android":"levelo://app?vid=2f9a6647-bfb0-4c5f-b2d5-6b23d0794b76","ios":"levelo://app?vid=2f9a6647-bfb0-4c5f-b2d5-6b23d0794b76"},"vehicle_type_id":"4","last_reported":1738775270,"current_range_meters":37600,"station_id":"ce4bhih2rcd13ifvqfs0","pricing_plan_id":"cebpf4jnsgd1na2vs0mg"},{"bike_id":"30b09ebf-0a9e-40bb-a676-5f2202922d16","system_id":"levelo_inurba_marseille","lat":43.29306,"lon":5.37467,"is_reserved":false,"is_disabled":false,"rental_uris":{"android":"levelo://app?vid=30b09ebf-0a9e-40bb-a676-5f2202922d16","ios":"levelo://app?vid=30b09ebf-0a9e-40bb-a676-5f2202922d16"},"vehicle_type_id":"4","last_reported":1738775270,"current_range_meters":33600,"station_id":"ce4bgi12rcd13ifvqb70","pricing_plan_id":"cebpf4jnsgd1na2vs0mg"},{"bike_id":"a6726a6a-bb29-4da0-a7d8-4af8b604af4e","system_id":"levelo_inurba_marseille","lat":43.2694,"lon":5.40253,"is_reserved":false,"is_disabled":false,"rental_uris":{"android":"levelo://app?vid=a6726a6a-bb29-4da0-a7d8-4af8b604af4e","ios":"levelo://app?vid=a6726a6a-bb29-4da0-a7d8-4af8b604af4e"},"vehicle_type_id":"4","last_reported":1738775270,"current_range_meters":12400,"station_id":"cjm6bp8fraef2m0cb0m0","pricing_plan_id":"cebpf4jnsgd1na2vs0mg"},{"bike_id":"786af5a6-7181-4746-8e7c-5055a97f6274","system_id":"levelo_inurba_marseille","lat":43.2816,"lon":5.42639,"is_reserved":false,"is_disabled":true,"rental_uris":{"android":"levelo://app?vid=786af5a6-7181-4746-8e7c-5055a97f6274","ios":"levelo://app?vid=786af5a6-7181-4746-8e7c-5055a97f6274"},"vehicle_type_id":"4","last_reported":1738775270,"current_range_meters":32000,"station_id":"ce4bhnh2rcd13ifvqgug","pricing_plan_id":"cebpf4jnsgd1na2vs0mg"},{"bike_id":"93fbdf65-f816-41db-aa80-fd0a58c14346","system_id":"levelo_inurba_marseille","lat":43.27419,"lon":5.39412,"is_reserved":false,"is_disabled":true,"rental_uris":{"android":"levelo://app?vid=93fbdf65-f816-41db-aa80-fd0a58c14346","ios":"levelo://app?vid=93fbdf65-f816-41db-aa80-fd0a58c14346"},"vehicle_type_id":"4","last_reported":1738775270,"current_range_meters":0,"station_id":"ce4bhdp2rcd13ifvqf20","pricing_plan_id":"cebpf4jnsgd1na2vs0mg"},{"bike_id":"50b15991-9296-4df6-b1a6-725aba7e366c","system_id":"levelo_inurba_marseille","lat":43.2588,"lon":5.39888,"is_reserved":false,"is_disabled":true,"rental_uris":{"android":"levelo://app?vid=50b15991-9296-4df6-b1a6-725aba7e366c","ios":"levelo://app?vid=50b15991-9296-4df6-b1a6-725aba7e366c"},"vehicle_type_id":"4","last_reported":1738775270,"current_range_meters":1200,"station_id":"ce4bhl92rcd13ifvqghg","pricing_plan_id":"cebpf4jnsgd1na2vs0mg"},{"bike_id":"da4184ae-45e5-4997-8a3f-d0a7996a0181","system_id":"levelo_inurba_marseille","lat":43.30534,"lon":5.36546,"is_reserved":false,"is_disabled":false,"rental_uris":{"android":"levelo://app?vid=da4184ae-45e5-4997-8a3f-d0a7996a0181","ios":"levelo://app?vid=da4184ae-45e5-4997-8a3f-d0a7996a0181"},"vehicle_type_id":"4","last_reported":1738775270,"current_range_meters":37600,"station_id":"ce4bgs12rcd13ifvqcag","pricing_plan_id":"cebpf4jnsgd1na2vs0mg"},{"bike_id":"43dbcacd-347c-4beb-a600-5c3d96b4b244","system_id":"levelo_inurba_marseille","lat":43.2319,"lon":5.39979,"is_reserved":false,"is_disabled":false,"rental_uris":{"android":"levelo://app?vid=43dbcacd-347c-4beb-a600-5c3d96b4b244","ios":"levelo://app?vid=43dbcacd-347c-4beb-a600-5c3d96b4b244"},"vehicle_type_id":"4","last_reported":1738775270,"current_range_meters":35200,"station_id":"ce4bhn12rcd13ifvqgqg","pricing_plan_id":"cebpf4jnsgd1na2vs0mg"},{"bike_id":"209cba90-c7a6-4f4b-be2b-550153199cc2","system_id":"levelo_inurba_marseille","lat":43.30426,"lon":5.39751,"is_reserved":false,"is_disabled":false,"rental_uris":{"android":"levelo://app?vid=209cba90-c7a6-4f4b-be2b-550153199cc2","ios":"levelo://app?vid=209cba90-c7a6-4f4b-be2b-550153199cc2"},"vehicle_type_id":"4","last_reported":1738775270,"current_range_meters":38800,"station_id":"ce4bh092rcd13ifvqd20","pricing_plan_id":"cebpf4jnsgd1na2vs0mg"},{"bike_id":"9b7355dc-7165-40f0-8cd2-81f22484ab5d","system_id":"levelo_inurba_marseille","lat":43.23966,"lon":5.36615,"is_reserved":false,"is_disabled":false,"rental_uris":{"android":"levelo://app?vid=9b7355dc-7165-40f0-8cd2-81f22484ab5d","ios":"levelo://app?vid=9b7355dc-7165-40f0-8cd2-81f22484ab5d"},"vehicle_type_id":"4","last_reported":1738775270,"current_range_meters":36000,"station_id":"ce4bhi12rcd13ifvqfp0","pricing_plan_id":"cebpf4jnsgd1na2vs0mg"},{"bike_id":"7a0dded7-5e6f-4210-833a-2b4bf80dc6d4","system_id":"levelo_inurba_marseille","lat":43.30428,"lon":5.39757,"is_reserved":false,"is_disabled":false,"rental_uris":{"android":"levelo://app?vid=7a0dded7-5e6f-4210-833a-2b4bf80dc6d4","ios":"levelo://app?vid=7a0dded7-5e6f-4210-833a-2b4bf80dc6d4"},"vehicle_type_id":"4","last_reported":1738775270,"current_range_meters":38400,"station_id":"ce4bh092rcd13ifvqd20","pricing_plan_id":"cebpf4jnsgd1na2vs0mg"},{"bike_id":"931c3b97-cce1-4ebe-a291-6c50a6f2810e","system_id":"levelo_inurba_marseille","lat":43.31802,"lon":5.37414,"is_reserved":false,"is_disabled":false,"rental_uris":{"android":"levelo://app?vid=931c3b97-cce1-4ebe-a291-6c50a6f2810e","ios":"levelo://app?vid=931c3b97-cce1-4ebe-a291-6c50a6f2810e"},"vehicle_type_id":"4","last_reported":1738775270,"current_range_meters":6000,"station_id":"","pricing_plan_id":"cebpf4jnsgd1na2vs0mg"},{"bike_id":"90512157-794a-431f-8fa8-9f2283d7f0ab","system_id":"levelo_inurba_marseille","lat":43.31082,"lon":5.42428,"is_reserved":false,"is_disabled":false,"rental_uris":{"android":"levelo://app?vid=90512157-794a-431f-8fa8-9f2283d7f0ab","ios":"levelo://app?vid=90512157-794a-431f-8fa8-9f2283d7f0ab"},"vehicle_type_id":"4","last_reported":1738775270,"current_range_meters":22400,"station_id":"ce4bhp92rcd13ifvqhag","pricing_plan_id":"cebpf4jnsgd1na2vs0mg"},{"bike_id":"d1d51ec2-e1ab-4b92-9a4b-f935b04ef436","system_id":"levelo_inurba_marseille","lat":43.25018,"lon":5.38919,"is_reserved":false,"is_disabled":false,"rental_uris":{"android":"levelo://app?vid=d1d51ec2-e1ab-4b92-9a4b-f935b04ef436","ios":"levelo://app?vid=d1d51ec2-e1ab-4b92-9a4b-f935b04ef436"},"vehicle_type_id":"4","last_reported":1738775270,"current_range_meters":17600,"station_id":"ce4bhgp2rcd13ifvqfd0","pricing_plan_id":"cebpf4jnsgd1na2vs0mg"},{"bike_id":"69c0b2ed-ce03-45c3-b729-98fc80f6a2dd","system_id":"levelo_inurba_marseille","lat":43.25724,"lon":5.411,"is_reserved":false,"is_disabled":false,"rental_uris":{"android":"levelo://app?vid=69c0b2ed-ce03-45c3-b729-98fc80f6a2dd","ios":"levelo://app?vid=69c0b2ed-ce03-45c3-b729-98fc80f6a2dd"},"vehicle_type_id":"4","last_reported":1738775270,"current_range_meters":33600,"station_id":"ce4bhkp2rcd13ifvqgd0","pricing_plan_id":"cebpf4jnsgd1na2vs0mg"},{"bike_id":"5e7872bf-6d44-4209-9e94-a728a908b09f","system_id":"levelo_inurba_marseille","lat":43.31331,"lon":5.39698,"is_reserved":false,"is_disabled":false,"rental_uris":{"android":"levelo://app?vid=5e7872bf-6d44-4209-9e94-a728a908b09f","ios":"levelo://app?vid=5e7872bf-6d44-4209-9e94-a728a908b09f"},"vehicle_type_id":"4","last_reported":1738775270,"current_range_meters":18000,"station_id":"ce4bgvp2rcd13ifvqcu0","pricing_plan_id":"cebpf4jnsgd1na2vs0mg"},{"bike_id":"fd55fcc0-19f0-4f6d-9522-68754a1c6ad4","system_id":"levelo_inurba_marseille","lat":43.29583,"lon":5.36747,"is_reserved":false,"is_disabled":false,"rental_uris":{"android":"levelo://app?vid=fd55fcc0-19f0-4f6d-9522-68754a1c6ad4","ios":"levelo://app?vid=fd55fcc0-19f0-4f6d-9522-68754a1c6ad4"},"vehicle_type_id":"4","last_reported":1738775270,"current_range_meters":14800,"station_id":"ce4bgph2rcd13ifvqc2g","pricing_plan_id":"cebpf4jnsgd1na2vs0mg"},{"bike_id":"6100990f-c4b7-4419-ab12-3d9c2a9f7c81","system_id":"levelo_inurba_marseille","lat":43.28273,"lon":5.35066,"is_reserved":false,"is_disabled":false,"rental_uris":{"android":"levelo://app?vid=6100990f-c4b7-4419-ab12-3d9c2a9f7c81","ios":"levelo://app?vid=6100990f-c4b7-4419-ab12-3d9c2a9f7c81"},"vehicle_type_id":"4","last_reported":1738775270,"current_range_meters":37600,"station_id":"ce4bhbp2rcd13ifvqerg","pricing_plan_id":"cebpf4jnsgd1na2vs0mg"},{"bike_id":"f307dfc9-492f-427c-886b-0aebd0c4a217","system_id":"levelo_inurba_marseille","lat":43.2416,"lon":5.36415,"is_reserved":false,"is_disabled":false,"rental_uris":{"android":"levelo://app?vid=f307dfc9-492f-427c-886b-0aebd0c4a217","ios":"levelo://app?vid=f307dfc9-492f-427c-886b-0aebd0c4a217"},"vehicle_type_id":"4","last_reported":1738775270,"current_range_meters":38000,"station_id":"cpo36qri1sfpv3e86is0","pricing_plan_id":"cebpf4jnsgd1na2vs0mg"},{"bike_id":"5d53f9ea-d789-449f-8c2d-5410ac186cf7","system_id":"levelo_inurba_marseille","lat":43.28719,"lon":5.40004,"is_reserved":false,"is_disabled":false,"rental_uris":{"android":"levelo://app?vid=5d53f9ea-d789-449f-8c2d-5410ac186cf7","ios":"levelo://app?vid=5d53f9ea-d789-449f-8c2d-5410ac186cf7"},"vehicle_type_id":"4","last_reported":1738775270,"current_range_meters":38800,"station_id":"ce4bho92rcd13ifvqh3g","pricing_plan_id":"cebpf4jnsgd1na2vs0mg"},{"bike_id":"2b81159b-9997-4b68-bd02-00893c72da6c","system_id":"levelo_inurba_marseille","lat":43.29522,"lon":5.390445,"is_reserved":false,"is_disabled":false,"rental_uris":{"android":"levelo://app?vid=2b81159b-9997-4b68-bd02-00893c72da6c","ios":"levelo://app?vid=2b81159b-9997-4b68-bd02-00893c72da6c"},"vehicle_type_id":"4","last_reported":1738775270,"current_range_meters":38400,"station_id":"ce4bh3p2rcd13ifvqdp0","pricing_plan_id":"cebpf4jnsgd1na2vs0mg"},{"bike_id":"f046ced8-2f62-49e0-91a8-2c413ad2e3a7","system_id":"levelo_inurba_marseille","lat":43.28442,"lon":5.3919,"is_reserved":false,"is_disabled":false,"rental_uris":{"android":"levelo://app?vid=f046ced8-2f62-49e0-91a8-2c413ad2e3a7","ios":"levelo://app?vid=f046ced8-2f62-49e0-91a8-2c413ad2e3a7"},"vehicle_type_id":"4","last_reported":1738775270,"current_range_meters":38000,"station_id":"ce4bhoh2rcd13ifvqh5g","pricing_plan_id":"cebpf4jnsgd1na2vs0mg"},{"bike_id":"8cf932de-a0df-42fb-9b68-4a19184a84c5","system_id":"levelo_inurba_marseille","lat":43.29554,"lon":5.42296,"is_reserved":false,"is_disabled":false,"rental_uris":{"android":"levelo://app?vid=8cf932de-a0df-42fb-9b68-4a19184a84c5","ios":"levelo://app?vid=8cf932de-a0df-42fb-9b68-4a19184a84c5"},"vehicle_type_id":"4","last_reported":1738775270,"current_range_meters":16400,"station_id":"ce4bhph2rcd13ifvqhdg","pricing_plan_id":"cebpf4jnsgd1na2vs0mg"},{"bike_id":"3c32498e-766f-4ed2-ad17-ff268cf412d1","system_id":"levelo_inurba_marseille","lat":43.307989,"lon":5.381527,"is_reserved":false,"is_disabled":false,"rental_uris":{"android":"levelo://app?vid=3c32498e-766f-4ed2-ad17-ff268cf412d1","ios":"levelo://app?vid=3c32498e-766f-4ed2-ad17-ff268cf412d1"},"vehicle_type_id":"4","last_reported":1738775270,"current_range_meters":10800,"station_id":"ce4bgt12rcd13ifvqce0","pricing_plan_id":"cebpf4jnsgd1na2vs0mg"},{"bike_id":"f58c15a0-e5ae-4a21-8fd3-7ef1f30a69a2","system_id":"levelo_inurba_marseille","lat":43.2781,"lon":5.40713,"is_reserved":false,"is_disabled":false,"rental_uris":{"android":"levelo://app?vid=f58c15a0-e5ae-4a21-8fd3-7ef1f30a69a2","ios":"levelo://app?vid=f58c15a0-e5ae-4a21-8fd3-7ef1f30a69a2"},"vehicle_type_id":"4","last_reported":1738775270,"current_range_meters":22800,"station_id":"ce4bhnh2rcd13ifvqgtg","pricing_plan_id":"cebpf4jnsgd1na2vs0mg"},{"bike_id":"c7f6df88-fbca-4485-8097-b0d9551aacea","system_id":"levelo_inurba_marseille","lat":43.28418,"lon":5.34993,"is_reserved":false,"is_disabled":false,"rental_uris":{"android":"levelo://app?vid=c7f6df88-fbca-4485-8097-b0d9551aacea","ios":"levelo://app?vid=c7f6df88-fbca-4485-8097-b0d9551aacea"},"vehicle_type_id":"4","last_reported":1738775270,"current_range_meters":16000,"station_id":"ce4bhbh2rcd13ifvqepg","pricing_plan_id":"cebpf4jnsgd1na2vs0mg"},{"bike_id":"bc4186b3-1073-492b-ab95-0326a7b12d0e","system_id":"levelo_inurba_marseille","lat":43.2843,"lon":5.34981,"is_reserved":false,"is_disabled":false,"rental_uris":{"android":"levelo://app?vid=bc4186b3-1073-492b-ab95-0326a7b12d0e","ios":"levelo://app?vid=bc4186b3-1073-492b-ab95-0326a7b12d0e"},"vehicle_type_id":"4","last_reported":1738775270,"current_range_meters":36000,"station_id":"ce4bhbh2rcd13ifvqepg","pricing_plan_id":"cebpf4jnsgd1na2vs0mg"},{"bike_id":"70fbe035-321d-404d-abb5-90c57c24fee3","system_id":"levelo_inurba_marseille","lat":43.29899,"lon":5.3813,"is_reserved":false,"is_disabled":true,"rental_uris":{"android":"levelo://app?vid=70fbe035-321d-404d-abb5-90c57c24fee3","ios":"levelo://app?vid=70fbe035-321d-404d-abb5-90c57c24fee3"},"vehicle_type_id":"4","last_reported":1738775270,"current_range_meters":3600,"station_id":"ce4bgj12rcd13ifvqbc0","pricing_plan_id":"cebpf4jnsgd1na2vs0mg"},{"bike_id":"a2ab0b19-3027-47d7-bc6c-65355baffd49","system_id":"levelo_inurba_marseille","lat":43.27376,"lon":5.36257,"is_reserved":false,"is_disabled":false,"rental_uris":{"android":"levelo://app?vid=a2ab0b19-3027-47d7-bc6c-65355baffd49","ios":"levelo://app?vid=a2ab0b19-3027-47d7-bc6c-65355baffd49"},"vehicle_type_id":"4","last_reported":1738775270,"current_range_meters":27200,"station_id":"ce4bhbh2rcd13ifvqeo0","pricing_plan_id":"cebpf4jnsgd1na2vs0mg"},{"bike_id":"ca548841-038a-498c-a964-8af9b79f0f47","system_id":"levelo_inurba_marseille","lat":43.28036,"lon":5.36965,"is_reserved":false,"is_disabled":false,"rental_uris":{"android":"levelo://app?vid=ca548841-038a-498c-a964-8af9b79f0f47","ios":"levelo://app?vid=ca548841-038a-498c-a964-8af9b79f0f47"},"vehicle_type_id":"4","last_reported":1738775270,"current_range_meters":38800,"station_id":"ce4bha12rcd13ifvqef0","pricing_plan_id":"cebpf4jnsgd1na2vs0mg"},{"bike_id":"9379fcac-a159-46c3-881c-f7cc8d84cffe","system_id":"levelo_inurba_marseille","lat":43.29844,"lon":5.36276,"is_reserved":false,"is_disabled":false,"rental_uris":{"android":"levelo://app?vid=9379fcac-a159-46c3-881c-f7cc8d84cffe","ios":"levelo://app?vid=9379fcac-a159-46c3-881c-f7cc8d84cffe"},"vehicle_type_id":"4","last_reported":1738775270,"current_range_meters":38800,"station_id":"ce4bgpp2rcd13ifvqc3g","pricing_plan_id":"cebpf4jnsgd1na2vs0mg"},{"bike_id":"2b52254f-933d-4903-ac07-21eb27a1e798","system_id":"levelo_inurba_marseille","lat":43.27195,"lon":5.41006,"is_reserved":false,"is_disabled":false,"rental_uris":{"android":"levelo://app?vid=2b52254f-933d-4903-ac07-21eb27a1e798","ios":"levelo://app?vid=2b52254f-933d-4903-ac07-21eb27a1e798"},"vehicle_type_id":"4","last_reported":1738775270,"current_range_meters":38800,"station_id":"ce4bhl12rcd13ifvqgf0","pricing_plan_id":"cebpf4jnsgd1na2vs0mg"},{"bike_id":"0adefe63-456a-40d5-b026-7f375a06e832","system_id":"levelo_inurba_marseille","lat":43.28967,"lon":5.37839,"is_reserved":false,"is_disabled":false,"rental_uris":{"android":"levelo://app?vid=0adefe63-456a-40d5-b026-7f375a06e832","ios":"levelo://app?vid=0adefe63-456a-40d5-b026-7f375a06e832"},"vehicle_type_id":"4","last_reported":1738775270,"current_range_meters":20400,"station_id":"ce4bh9p2rcd13ifvqed0","pricing_plan_id":"cebpf4jnsgd1na2vs0mg"},{"bike_id":"d5085458-1377-4d23-af37-222a5e9fad38","system_id":"levelo_inurba_marseille","lat":43.29978,"lon":5.37183,"is_reserved":false,"is_disabled":false,"rental_uris":{"android":"levelo://app?vid=d5085458-1377-4d23-af37-222a5e9fad38","ios":"levelo://app?vid=d5085458-1377-4d23-af37-222a5e9fad38"},"vehicle_type_id":"4","last_reported":1738775270,"current_range_meters":38800,"station_id":"ce4bgr92rcd13ifvqc7g","pricing_plan_id":"cebpf4jnsgd1na2vs0mg"},{"bike_id":"d9c9c7a1-08d0-4528-8bf3-54e33152b52c","system_id":"levelo_inurba_marseille","lat":43.32108,"lon":5.36769,"is_reserved":false,"is_disabled":false,"rental_uris":{"android":"levelo://app?vid=d9c9c7a1-08d0-4528-8bf3-54e33152b52c","ios":"levelo://app?vid=d9c9c7a1-08d0-4528-8bf3-54e33152b52c"},"vehicle_type_id":"4","last_reported":1738775270,"current_range_meters":20800,"station_id":"ce4bhrh2rcd13ifvqhug","pricing_plan_id":"cebpf4jnsgd1na2vs0mg"},{"bike_id":"191b74e5-620a-4746-b7c6-b4eeb5415fa5","system_id":"levelo_inurba_marseille","lat":43.31757,"lon":5.3902,"is_reserved":false,"is_disabled":false,"rental_uris":{"android":"levelo://app?vid=191b74e5-620a-4746-b7c6-b4eeb5415fa5","ios":"levelo://app?vid=191b74e5-620a-4746-b7c6-b4eeb5415fa5"},"vehicle_type_id":"4","last_reported":1738775270,"current_range_meters":28800,"station_id":"ce4bhqp2rcd13ifvqhng","pricing_plan_id":"cebpf4jnsgd1na2vs0mg"},{"bike_id":"61c83f02-b8b4-497c-a822-a07e72cb75d7","system_id":"levelo_inurba_marseille","lat":43.23131,"lon":5.43651,"is_reserved":false,"is_disabled":true,"rental_uris":{"android":"levelo://app?vid=61c83f02-b8b4-497c-a822-a07e72cb75d7","ios":"levelo://app?vid=61c83f02-b8b4-497c-a822-a07e72cb75d7"},"vehicle_type_id":"4","last_reported":1738775270,"current_range_meters":0,"station_id":"ce4bhmp2rcd13ifvqgog","pricing_plan_id":"cebpf4jnsgd1na2vs0mg"},{"bike_id":"b0835b4d-5d4e-4b83-8d65-c34141a6bbbb","system_id":"levelo_inurba_marseille","lat":43.29036,"lon":5.35931,"is_reserved":false,"is_disabled":false,"rental_uris":{"android":"levelo://app?vid=b0835b4d-5d4e-4b83-8d65-c34141a6bbbb","ios":"levelo://app?vid=b0835b4d-5d4e-4b83-8d65-c34141a6bbbb"},"vehicle_type_id":"4","last_reported":1738775270,"current_range_meters":25600,"station_id":"ce4bha92rcd13ifvqeg0","pricing_plan_id":"cebpf4jnsgd1na2vs0mg"},{"bike_id":"e3cd3bcf-0b13-4ef7-bed8-c095be21902d","system_id":"levelo_inurba_marseille","lat":43.25119,"lon":5.4032,"is_reserved":false,"is_disabled":false,"rental_uris":{"android":"levelo://app?vid=e3cd3bcf-0b13-4ef7-bed8-c095be21902d","ios":"levelo://app?vid=e3cd3bcf-0b13-4ef7-bed8-c095be21902d"},"vehicle_type_id":"4","last_reported":1738775270,"current_range_meters":4000,"station_id":"ce4bhlh2rcd13ifvqgig","pricing_plan_id":"cebpf4jnsgd1na2vs0mg"},{"bike_id":"ba5acf31-657f-4aa2-9228-baab4a59e1f9","system_id":"levelo_inurba_marseille","lat":43.3022,"lon":5.39469,"is_reserved":false,"is_disabled":false,"rental_uris":{"android":"levelo://app?vid=ba5acf31-657f-4aa2-9228-baab4a59e1f9","ios":"levelo://app?vid=ba5acf31-657f-4aa2-9228-baab4a59e1f9"},"vehicle_type_id":"4","last_reported":1738775270,"current_range_meters":38000,"station_id":"ce4bh0p2rcd13ifvqd70","pricing_plan_id":"cebpf4jnsgd1na2vs0mg"},{"bike_id":"afb24665-29eb-4b84-b727-dcf974a337f4","system_id":"levelo_inurba_marseille","lat":43.29232,"lon":5.360577,"is_reserved":false,"is_disabled":false,"rental_uris":{"android":"levelo://app?vid=afb24665-29eb-4b84-b727-dcf974a337f4","ios":"levelo://app?vid=afb24665-29eb-4b84-b727-dcf974a337f4"},"vehicle_type_id":"4","last_reported":1738775270,"current_range_meters":38000,"station_id":"ce4bhbh2rcd13ifvqeqg","pricing_plan_id":"cebpf4jnsgd1na2vs0mg"},{"bike_id":"3f131040-04cf-4cf7-b8fc-c819f101b125","system_id":"levelo_inurba_marseille","lat":43.26558,"lon":5.37287,"is_reserved":false,"is_disabled":true,"rental_uris":{"android":"levelo://app?vid=3f131040-04cf-4cf7-b8fc-c819f101b125","ios":"levelo://app?vid=3f131040-04cf-4cf7-b8fc-c819f101b125"},"vehicle_type_id":"4","last_reported":1738775270,"current_range_meters":1200,"station_id":"ce4bhg12rcd13ifvqf70","pricing_plan_id":"cebpf4jnsgd1na2vs0mg"},{"bike_id":"09f862ca-83a2-4801-b7f5-d63f02260ed6","system_id":"levelo_inurba_marseille","lat":43.29883,"lon":5.37624,"is_reserved":false,"is_disabled":false,"rental_uris":{"android":"levelo://app?vid=09f862ca-83a2-4801-b7f5-d63f02260ed6","ios":"levelo://app?vid=09f862ca-83a2-4801-b7f5-d63f02260ed6"},"vehicle_type_id":"4","last_reported":1738775270,"current_range_meters":36000,"station_id":"","pricing_plan_id":"cebpf4jnsgd1na2vs0mg"},{"bike_id":"8dcb5648-f815-40ee-a1ef-63cb7b60c563","system_id":"levelo_inurba_marseille","lat":43.32009,"lon":5.3814,"is_reserved":false,"is_disabled":false,"rental_uris":{"android":"levelo://app?vid=8dcb5648-f815-40ee-a1ef-63cb7b60c563","ios":"levelo://app?vid=8dcb5648-f815-40ee-a1ef-63cb7b60c563"},"vehicle_type_id":"4","last_reported":1738775270,"current_range_meters":32000,"station_id":"ce4bhr12rcd13ifvqhpg","pricing_plan_id":"cebpf4jnsgd1na2vs0mg"},{"bike_id":"a9ee38d0-21e8-4d99-8e3f-cc643e32473e","system_id":"levelo_inurba_marseille","lat":43.27794,"lon":5.40731,"is_reserved":false,"is_disabled":false,"rental_uris":{"android":"levelo://app?vid=a9ee38d0-21e8-4d99-8e3f-cc643e32473e","ios":"levelo://app?vid=a9ee38d0-21e8-4d99-8e3f-cc643e32473e"},"vehicle_type_id":"4","last_reported":1738775270,"current_range_meters":37600,"station_id":"ce4bhnh2rcd13ifvqgtg","pricing_plan_id":"cebpf4jnsgd1na2vs0mg"},{"bike_id":"9ec4e6d1-3a61-40e9-ac10-4d2a453dffcf","system_id":"levelo_inurba_marseille","lat":43.24074,"lon":5.37765,"is_reserved":false,"is_disabled":false,"rental_uris":{"android":"levelo://app?vid=9ec4e6d1-3a61-40e9-ac10-4d2a453dffcf","ios":"levelo://app?vid=9ec4e6d1-3a61-40e9-ac10-4d2a453dffcf"},"vehicle_type_id":"4","last_reported":1738775270,"current_range_meters":28000,"station_id":"ce4bhnp2rcd13ifvqgvg","pricing_plan_id":"cebpf4jnsgd1na2vs0mg"},{"bike_id":"e4b78b82-df41-4f6c-a331-dabe2942d120","system_id":"levelo_inurba_marseille","lat":43.28946,"lon":5.36373,"is_reserved":false,"is_disabled":false,"rental_uris":{"android":"levelo://app?vid=e4b78b82-df41-4f6c-a331-dabe2942d120","ios":"levelo://app?vid=e4b78b82-df41-4f6c-a331-dabe2942d120"},"vehicle_type_id":"4","last_reported":1738775270,"current_range_meters":20400,"station_id":"ce4bhc92rcd13ifvqetg","pricing_plan_id":"cebpf4jnsgd1na2vs0mg"},{"bike_id":"66c91f0e-d404-4399-99c9-77276ceb134d","system_id":"levelo_inurba_marseille","lat":43.30545,"lon":5.36534,"is_reserved":false,"is_disabled":true,"rental_uris":{"android":"levelo://app?vid=66c91f0e-d404-4399-99c9-77276ceb134d","ios":"levelo://app?vid=66c91f0e-d404-4399-99c9-77276ceb134d"},"vehicle_type_id":"4","last_reported":1738775270,"current_range_meters":38400,"station_id":"ce4bgs12rcd13ifvqcag","pricing_plan_id":"cebpf4jnsgd1na2vs0mg"},{"bike_id":"3d1d38d7-e37e-41a9-9885-0f5e96cdb53e","system_id":"levelo_inurba_marseille","lat":43.28466,"lon":5.35887,"is_reserved":false,"is_disabled":false,"rental_uris":{"android":"levelo://app?vid=3d1d38d7-e37e-41a9-9885-0f5e96cdb53e","ios":"levelo://app?vid=3d1d38d7-e37e-41a9-9885-0f5e96cdb53e"},"vehicle_type_id":"4","last_reported":1738775270,"current_range_meters":16800,"station_id":"ce4bhah2rcd13ifvqei0","pricing_plan_id":"cebpf4jnsgd1na2vs0mg"},{"bike_id":"ede1b66a-e9f6-448e-afce-7fab50d2df55","system_id":"levelo_inurba_marseille","lat":43.24664,"lon":5.38148,"is_reserved":false,"is_disabled":false,"rental_uris":{"android":"levelo://app?vid=ede1b66a-e9f6-448e-afce-7fab50d2df55","ios":"levelo://app?vid=ede1b66a-e9f6-448e-afce-7fab50d2df55"},"vehicle_type_id":"4","last_reported":1738775270,"current_range_meters":38800,"station_id":"ce4bhih2rcd13ifvqfr0","pricing_plan_id":"cebpf4jnsgd1na2vs0mg"},{"bike_id":"a2ba7768-e6f8-4ccb-9b3a-ceb62a2b692a","system_id":"levelo_inurba_marseille","lat":43.28604,"lon":5.35102,"is_reserved":false,"is_disabled":false,"rental_uris":{"android":"levelo://app?vid=a2ba7768-e6f8-4ccb-9b3a-ceb62a2b692a","ios":"levelo://app?vid=a2ba7768-e6f8-4ccb-9b3a-ceb62a2b692a"},"vehicle_type_id":"4","last_reported":1738775270,"current_range_meters":38000,"station_id":"ce4bhch2rcd13ifvqeug","pricing_plan_id":"cebpf4jnsgd1na2vs0mg"},{"bike_id":"cda49a6e-5dd9-496a-a0d5-ed3b3044cadd","system_id":"levelo_inurba_marseille","lat":43.32043,"lon":5.41539,"is_reserved":false,"is_disabled":false,"rental_uris":{"android":"levelo://app?vid=cda49a6e-5dd9-496a-a0d5-ed3b3044cadd","ios":"levelo://app?vid=cda49a6e-5dd9-496a-a0d5-ed3b3044cadd"},"vehicle_type_id":"4","last_reported":1738775270,"current_range_meters":29600,"station_id":"ce4bhq92rcd13ifvqhkg","pricing_plan_id":"cebpf4jnsgd1na2vs0mg"},{"bike_id":"ddb48a2e-0e7a-4db9-bb08-d15c6b7ecf4a","system_id":"levelo_inurba_marseille","lat":43.27623,"lon":5.36115,"is_reserved":false,"is_disabled":true,"rental_uris":{"android":"levelo://app?vid=ddb48a2e-0e7a-4db9-bb08-d15c6b7ecf4a","ios":"levelo://app?vid=ddb48a2e-0e7a-4db9-bb08-d15c6b7ecf4a"},"vehicle_type_id":"4","last_reported":1738775270,"current_range_meters":0,"station_id":"ce4bgj92rcd13ifvqbe0","pricing_plan_id":"cebpf4jnsgd1na2vs0mg"},{"bike_id":"a2767f7e-ee00-4dfb-ad97-97f290d77020","system_id":"levelo_inurba_marseille","lat":43.27367,"lon":5.36246,"is_reserved":false,"is_disabled":false,"rental_uris":{"android":"levelo://app?vid=a2767f7e-ee00-4dfb-ad97-97f290d77020","ios":"levelo://app?vid=a2767f7e-ee00-4dfb-ad97-97f290d77020"},"vehicle_type_id":"4","last_reported":1738775270,"current_range_meters":38400,"station_id":"ce4bhbh2rcd13ifvqeo0","pricing_plan_id":"cebpf4jnsgd1na2vs0mg"},{"bike_id":"e7d31327-323a-443c-bb67-39186722e63f","system_id":"levelo_inurba_marseille","lat":43.33752,"lon":5.3743,"is_reserved":false,"is_disabled":false,"rental_uris":{"android":"levelo://app?vid=e7d31327-323a-443c-bb67-39186722e63f","ios":"levelo://app?vid=e7d31327-323a-443c-bb67-39186722e63f"},"vehicle_type_id":"4","last_reported":1738775270,"current_range_meters":14800,"station_id":"","pricing_plan_id":"cebpf4jnsgd1na2vs0mg"},{"bike_id":"10c9ffdb-efbb-4775-960b-304f60830923","system_id":"levelo_inurba_marseille","lat":43.25746,"lon":5.39422,"is_reserved":false,"is_disabled":false,"rental_uris":{"android":"levelo://app?vid=10c9ffdb-efbb-4775-960b-304f60830923","ios":"levelo://app?vid=10c9ffdb-efbb-4775-960b-304f60830923"},"vehicle_type_id":"4","last_reported":1738775270,"current_range_meters":8800,"station_id":"ce4bhip2rcd13ifvqft0","pricing_plan_id":"cebpf4jnsgd1na2vs0mg"},{"bike_id":"fbe3d96d-7f67-4a55-abf8-9c8cb85f4aa3","system_id":"levelo_inurba_marseille","lat":43.28275,"lon":5.3507,"is_reserved":false,"is_disabled":false,"rental_uris":{"android":"levelo://app?vid=fbe3d96d-7f67-4a55-abf8-9c8cb85f4aa3","ios":"levelo://app?vid=fbe3d96d-7f67-4a55-abf8-9c8cb85f4aa3"},"vehicle_type_id":"4","last_reported":1738775270,"current_range_meters":38000,"station_id":"ce4bhbp2rcd13ifvqerg","pricing_plan_id":"cebpf4jnsgd1na2vs0mg"},{"bike_id":"b9bfb74a-176a-4cd6-8e59-4fc84d6fb701","system_id":"levelo_inurba_marseille","lat":43.28622,"lon":5.35106,"is_reserved":false,"is_disabled":false,"rental_uris":{"android":"levelo://app?vid=b9bfb74a-176a-4cd6-8e59-4fc84d6fb701","ios":"levelo://app?vid=b9bfb74a-176a-4cd6-8e59-4fc84d6fb701"},"vehicle_type_id":"4","last_reported":1738775270,"current_range_meters":19200,"station_id":"ce4bhch2rcd13ifvqeug","pricing_plan_id":"cebpf4jnsgd1na2vs0mg"},{"bike_id":"93cab8cc-c77b-4201-82ee-38a96f1e3bc5","system_id":"levelo_inurba_marseille","lat":43.27943,"lon":5.41047,"is_reserved":false,"is_disabled":false,"rental_uris":{"android":"levelo://app?vid=93cab8cc-c77b-4201-82ee-38a96f1e3bc5","ios":"levelo://app?vid=93cab8cc-c77b-4201-82ee-38a96f1e3bc5"},"vehicle_type_id":"4","last_reported":1738775270,"current_range_meters":8000,"station_id":"ce4bhnp2rcd13ifvqh0g","pricing_plan_id":"cebpf4jnsgd1na2vs0mg"},{"bike_id":"71baa344-0029-4b66-8e07-3bc7fa2fe9d5","system_id":"levelo_inurba_marseille","lat":43.30436,"lon":5.38894,"is_reserved":false,"is_disabled":false,"rental_uris":{"android":"levelo://app?vid=71baa344-0029-4b66-8e07-3bc7fa2fe9d5","ios":"levelo://app?vid=71baa344-0029-4b66-8e07-3bc7fa2fe9d5"},"vehicle_type_id":"4","last_reported":1738775270,"current_range_meters":19200,"station_id":"ce4bgk12rcd13ifvqbi0","pricing_plan_id":"cebpf4jnsgd1na2vs0mg"},{"bike_id":"258f9419-b9bf-47ce-b44f-cba55c3791e7","system_id":"levelo_inurba_marseille","lat":43.29888,"lon":5.39731,"is_reserved":false,"is_disabled":false,"rental_uris":{"android":"levelo://app?vid=258f9419-b9bf-47ce-b44f-cba55c3791e7","ios":"levelo://app?vid=258f9419-b9bf-47ce-b44f-cba55c3791e7"},"vehicle_type_id":"4","last_reported":1738775270,"current_range_meters":19200,"station_id":"ce4bh0h2rcd13ifvqd50","pricing_plan_id":"cebpf4jnsgd1na2vs0mg"},{"bike_id":"cd07e062-2af1-406e-bcb9-5f1ec4730937","system_id":"levelo_inurba_marseille","lat":43.23062,"lon":5.35494,"is_reserved":false,"is_disabled":false,"rental_uris":{"android":"levelo://app?vid=cd07e062-2af1-406e-bcb9-5f1ec4730937","ios":"levelo://app?vid=cd07e062-2af1-406e-bcb9-5f1ec4730937"},"vehicle_type_id":"4","last_reported":1738775270,"current_range_meters":38400,"station_id":"cpo3342slgdg3j2ifvpg","pricing_plan_id":"cebpf4jnsgd1na2vs0mg"},{"bike_id":"c3644d12-8427-4602-9945-9ef42c46feca","system_id":"levelo_inurba_marseille","lat":43.24172,"lon":5.36398,"is_reserved":false,"is_disabled":false,"rental_uris":{"android":"levelo://app?vid=c3644d12-8427-4602-9945-9ef42c46feca","ios":"levelo://app?vid=c3644d12-8427-4602-9945-9ef42c46feca"},"vehicle_type_id":"4","last_reported":1738775270,"current_range_meters":38400,"station_id":"cpo36qri1sfpv3e86is0","pricing_plan_id":"cebpf4jnsgd1na2vs0mg"},{"bike_id":"6b38d43d-337c-4149-9167-ccfdd61c33a4","system_id":"levelo_inurba_marseille","lat":43.29218,"lon":5.36082,"is_reserved":false,"is_disabled":false,"rental_uris":{"android":"levelo://app?vid=6b38d43d-337c-4149-9167-ccfdd61c33a4","ios":"levelo://app?vid=6b38d43d-337c-4149-9167-ccfdd61c33a4"},"vehicle_type_id":"4","last_reported":1738775270,"current_range_meters":36000,"station_id":"ce4bhbh2rcd13ifvqeqg","pricing_plan_id":"cebpf4jnsgd1na2vs0mg"},{"bike_id":"97bbb8e7-d0bc-479c-a07b-ea9fd1157cee","system_id":"levelo_inurba_marseille","lat":43.28938,"lon":5.3665,"is_reserved":false,"is_disabled":false,"rental_uris":{"android":"levelo://app?vid=97bbb8e7-d0bc-479c-a07b-ea9fd1157cee","ios":"levelo://app?vid=97bbb8e7-d0bc-479c-a07b-ea9fd1157cee"},"vehicle_type_id":"4","last_reported":1738775270,"current_range_meters":11600,"station_id":"ce4bhap2rcd13ifvqek0","pricing_plan_id":"cebpf4jnsgd1na2vs0mg"},{"bike_id":"1e7bde43-ab8f-4755-b59a-acd0a53ae759","system_id":"levelo_inurba_marseille","lat":43.31714,"lon":5.42424,"is_reserved":false,"is_disabled":true,"rental_uris":{"android":"levelo://app?vid=1e7bde43-ab8f-4755-b59a-acd0a53ae759","ios":"levelo://app?vid=1e7bde43-ab8f-4755-b59a-acd0a53ae759"},"vehicle_type_id":"4","last_reported":1738775270,"current_range_meters":0,"station_id":"ce4bhp92rcd13ifvqhbg","pricing_plan_id":"cebpf4jnsgd1na2vs0mg"},{"bike_id":"f36acf0c-60c9-4d09-a31b-265f77ce21ae","system_id":"levelo_inurba_marseille","lat":43.3266,"lon":5.40991,"is_reserved":false,"is_disabled":false,"rental_uris":{"android":"levelo://app?vid=f36acf0c-60c9-4d09-a31b-265f77ce21ae","ios":"levelo://app?vid=f36acf0c-60c9-4d09-a31b-265f77ce21ae"},"vehicle_type_id":"4","last_reported":1738775270,"current_range_meters":27200,"station_id":"ce4bhpp2rcd13ifvqhgg","pricing_plan_id":"cebpf4jnsgd1na2vs0mg"},{"bike_id":"51d0991b-a36d-4070-ab20-02bb6d1d0ac7","system_id":"levelo_inurba_marseille","lat":43.31358,"lon":5.38498,"is_reserved":false,"is_disabled":false,"rental_uris":{"android":"levelo://app?vid=51d0991b-a36d-4070-ab20-02bb6d1d0ac7","ios":"levelo://app?vid=51d0991b-a36d-4070-ab20-02bb6d1d0ac7"},"vehicle_type_id":"4","last_reported":1738775270,"current_range_meters":36800,"station_id":"ce4bgt92rcd13ifvqcf0","pricing_plan_id":"cebpf4jnsgd1na2vs0mg"},{"bike_id":"bd944b22-bdc4-45a8-9a31-0c38734abd7e","system_id":"levelo_inurba_marseille","lat":43.28941,"lon":5.36398,"is_reserved":false,"is_disabled":false,"rental_uris":{"android":"levelo://app?vid=bd944b22-bdc4-45a8-9a31-0c38734abd7e","ios":"levelo://app?vid=bd944b22-bdc4-45a8-9a31-0c38734abd7e"},"vehicle_type_id":"4","last_reported":1738775270,"current_range_meters":5600,"station_id":"ce4bhc92rcd13ifvqetg","pricing_plan_id":"cebpf4jnsgd1na2vs0mg"},{"bike_id":"693aada9-e6ba-426f-9e3c-422116f71ca4","system_id":"levelo_inurba_marseille","lat":43.28845,"lon":5.3585,"is_reserved":false,"is_disabled":false,"rental_uris":{"android":"levelo://app?vid=693aada9-e6ba-426f-9e3c-422116f71ca4","ios":"levelo://app?vid=693aada9-e6ba-426f-9e3c-422116f71ca4"},"vehicle_type_id":"4","last_reported":1738775270,"current_range_meters":8400,"station_id":"ce4bhb12rcd13ifvqem0","pricing_plan_id":"cebpf4jnsgd1na2vs0mg"},{"bike_id":"78a4c83f-4d73-437d-9527-15d2cb2bd443","system_id":"levelo_inurba_marseille","lat":43.28152,"lon":5.42633,"is_reserved":false,"is_disabled":false,"rental_uris":{"android":"levelo://app?vid=78a4c83f-4d73-437d-9527-15d2cb2bd443","ios":"levelo://app?vid=78a4c83f-4d73-437d-9527-15d2cb2bd443"},"vehicle_type_id":"4","last_reported":1738775270,"current_range_meters":20800,"station_id":"ce4bhnh2rcd13ifvqgug","pricing_plan_id":"cebpf4jnsgd1na2vs0mg"},{"bike_id":"45a7daa2-2a2e-4454-90c3-1009aaecc5bd","system_id":"levelo_inurba_marseille","lat":43.23195,"lon":5.35565,"is_reserved":false,"is_disabled":true,"rental_uris":{"android":"levelo://app?vid=45a7daa2-2a2e-4454-90c3-1009aaecc5bd","ios":"levelo://app?vid=45a7daa2-2a2e-4454-90c3-1009aaecc5bd"},"vehicle_type_id":"4","last_reported":1738775270,"current_range_meters":1200,"station_id":"ce4bhu92rcd13ifvqi70","pricing_plan_id":"cebpf4jnsgd1na2vs0mg"},{"bike_id":"aece1634-918f-4f68-8bc7-9a7b7abafc1f","system_id":"levelo_inurba_marseille","lat":43.2815,"lon":5.42632,"is_reserved":false,"is_disabled":true,"rental_uris":{"android":"levelo://app?vid=aece1634-918f-4f68-8bc7-9a7b7abafc1f","ios":"levelo://app?vid=aece1634-918f-4f68-8bc7-9a7b7abafc1f"},"vehicle_type_id":"4","last_reported":1738775270,"current_range_meters":29600,"station_id":"ce4bhnh2rcd13ifvqgug","pricing_plan_id":"cebpf4jnsgd1na2vs0mg"},{"bike_id":"72e458a9-2a04-4d7d-a6ed-4033588f5b60","system_id":"levelo_inurba_marseille","lat":43.3235,"lon":5.38907,"is_reserved":false,"is_disabled":false,"rental_uris":{"android":"levelo://app?vid=72e458a9-2a04-4d7d-a6ed-4033588f5b60","ios":"levelo://app?vid=72e458a9-2a04-4d7d-a6ed-4033588f5b60"},"vehicle_type_id":"4","last_reported":1738775270,"current_range_meters":24800,"station_id":"ce4bhqp2rcd13ifvqhog","pricing_plan_id":"cebpf4jnsgd1na2vs0mg"},{"bike_id":"e4fbacd2-2c44-4b78-b9fc-d346dc2a77d1","system_id":"levelo_inurba_marseille","lat":43.32367,"lon":5.38893,"is_reserved":false,"is_disabled":false,"rental_uris":{"android":"levelo://app?vid=e4fbacd2-2c44-4b78-b9fc-d346dc2a77d1","ios":"levelo://app?vid=e4fbacd2-2c44-4b78-b9fc-d346dc2a77d1"},"vehicle_type_id":"4","last_reported":1738775270,"current_range_meters":38000,"station_id":"ce4bhqp2rcd13ifvqhog","pricing_plan_id":"cebpf4jnsgd1na2vs0mg"},{"bike_id":"3b1d5f28-8e2f-4cd2-84ee-32e60c8bc1d4","system_id":"levelo_inurba_marseille","lat":43.27955,"lon":5.38723,"is_reserved":false,"is_disabled":true,"rental_uris":{"android":"levelo://app?vid=3b1d5f28-8e2f-4cd2-84ee-32e60c8bc1d4","ios":"levelo://app?vid=3b1d5f28-8e2f-4cd2-84ee-32e60c8bc1d4"},"vehicle_type_id":"4","last_reported":1738775270,"current_range_meters":0,"station_id":"ce4bhg12rcd13ifvqf80","pricing_plan_id":"cebpf4jnsgd1na2vs0mg"},{"bike_id":"a17b902b-bafc-49d0-9389-2ce74253b3a1","system_id":"levelo_inurba_marseille","lat":43.27182,"lon":5.40998,"is_reserved":false,"is_disabled":true,"rental_uris":{"android":"levelo://app?vid=a17b902b-bafc-49d0-9389-2ce74253b3a1","ios":"levelo://app?vid=a17b902b-bafc-49d0-9389-2ce74253b3a1"},"vehicle_type_id":"4","last_reported":1738775270,"current_range_meters":22800,"station_id":"ce4bhl12rcd13ifvqgf0","pricing_plan_id":"cebpf4jnsgd1na2vs0mg"},{"bike_id":"82928581-7cae-4db3-9a68-a5b9ec34a9ee","system_id":"levelo_inurba_marseille","lat":43.31887,"lon":5.43353,"is_reserved":false,"is_disabled":true,"rental_uris":{"android":"levelo://app?vid=82928581-7cae-4db3-9a68-a5b9ec34a9ee","ios":"levelo://app?vid=82928581-7cae-4db3-9a68-a5b9ec34a9ee"},"vehicle_type_id":"4","last_reported":1738775270,"current_range_meters":0,"station_id":"","pricing_plan_id":"cebpf4jnsgd1na2vs0mg"},{"bike_id":"9d71d304-2002-4ef9-bd23-de48bc17ac77","system_id":"levelo_inurba_marseille","lat":43.2405,"lon":5.37744,"is_reserved":false,"is_disabled":true,"rental_uris":{"android":"levelo://app?vid=9d71d304-2002-4ef9-bd23-de48bc17ac77","ios":"levelo://app?vid=9d71d304-2002-4ef9-bd23-de48bc17ac77"},"vehicle_type_id":"4","last_reported":1738775270,"current_range_meters":1200,"station_id":"ce4bhnp2rcd13ifvqgvg","pricing_plan_id":"cebpf4jnsgd1na2vs0mg"},{"bike_id":"09bfd0b5-ea9d-40d2-b9e3-c178be46bfd6","system_id":"levelo_inurba_marseille","lat":43.27212,"lon":5.39182,"is_reserved":false,"is_disabled":true,"rental_uris":{"android":"levelo://app?vid=09bfd0b5-ea9d-40d2-b9e3-c178be46bfd6","ios":"levelo://app?vid=09bfd0b5-ea9d-40d2-b9e3-c178be46bfd6"},"vehicle_type_id":"4","last_reported":1738775270,"current_range_meters":1200,"station_id":"ce4bhhp2rcd13ifvqfm0","pricing_plan_id":"cebpf4jnsgd1na2vs0mg"},{"bike_id":"2c59aef0-e038-4b09-9936-6d5111ab39d7","system_id":"levelo_inurba_marseille","lat":43.29587,"lon":5.36751,"is_reserved":false,"is_disabled":false,"rental_uris":{"android":"levelo://app?vid=2c59aef0-e038-4b09-9936-6d5111ab39d7","ios":"levelo://app?vid=2c59aef0-e038-4b09-9936-6d5111ab39d7"},"vehicle_type_id":"4","last_reported":1738775270,"current_range_meters":21600,"station_id":"ce4bgph2rcd13ifvqc2g","pricing_plan_id":"cebpf4jnsgd1na2vs0mg"},{"bike_id":"85d197af-7492-45d8-a8f0-3b3d28b89974","system_id":"levelo_inurba_marseille","lat":43.29182,"lon":5.3581,"is_reserved":false,"is_disabled":false,"rental_uris":{"android":"levelo://app?vid=85d197af-7492-45d8-a8f0-3b3d28b89974","ios":"levelo://app?vid=85d197af-7492-45d8-a8f0-3b3d28b89974"},"vehicle_type_id":"4","last_reported":1738775270,"current_range_meters":21600,"station_id":"ce4bhb12rcd13ifvqel0","pricing_plan_id":"cebpf4jnsgd1na2vs0mg"},{"bike_id":"853c5528-321f-4078-9263-1a387120e184","system_id":"levelo_inurba_marseille","lat":43.28616,"lon":5.37074,"is_reserved":false,"is_disabled":false,"rental_uris":{"android":"levelo://app?vid=853c5528-321f-4078-9263-1a387120e184","ios":"levelo://app?vid=853c5528-321f-4078-9263-1a387120e184"},"vehicle_type_id":"4","last_reported":1738775270,"current_range_meters":39200,"station_id":"ce4bht12rcd13ifvqi60","pricing_plan_id":"cebpf4jnsgd1na2vs0mg"},{"bike_id":"1864b1fa-26c5-4233-9b5f-5ec655f8aa1e","system_id":"levelo_inurba_marseille","lat":43.29035,"lon":5.38644,"is_reserved":false,"is_disabled":false,"rental_uris":{"android":"levelo://app?vid=1864b1fa-26c5-4233-9b5f-5ec655f8aa1e","ios":"levelo://app?vid=1864b1fa-26c5-4233-9b5f-5ec655f8aa1e"},"vehicle_type_id":"4","last_reported":1738775270,"current_range_meters":25600,"station_id":"ce4bh4p2rcd13ifvqe0g","pricing_plan_id":"cebpf4jnsgd1na2vs0mg"},{"bike_id":"2118c82d-0143-415d-aaf1-22408e5c55b9","system_id":"levelo_inurba_marseille","lat":43.2843,"lon":5.39182,"is_reserved":false,"is_disabled":false,"rental_uris":{"android":"levelo://app?vid=2118c82d-0143-415d-aaf1-22408e5c55b9","ios":"levelo://app?vid=2118c82d-0143-415d-aaf1-22408e5c55b9"},"vehicle_type_id":"4","last_reported":1738775270,"current_range_meters":37600,"station_id":"ce4bhoh2rcd13ifvqh5g","pricing_plan_id":"cebpf4jnsgd1na2vs0mg"},{"bike_id":"0a1d80a5-8567-473e-862c-e2d2e710157a","system_id":"levelo_inurba_marseille","lat":43.28423,"lon":5.34984,"is_reserved":false,"is_disabled":false,"rental_uris":{"android":"levelo://app?vid=0a1d80a5-8567-473e-862c-e2d2e710157a","ios":"levelo://app?vid=0a1d80a5-8567-473e-862c-e2d2e710157a"},"vehicle_type_id":"4","last_reported":1738775270,"current_range_meters":33600,"station_id":"ce4bhbh2rcd13ifvqepg","pricing_plan_id":"cebpf4jnsgd1na2vs0mg"},{"bike_id":"99564e06-144c-4120-8262-8feb82471b05","system_id":"levelo_inurba_marseille","lat":43.28618,"lon":5.35094,"is_reserved":false,"is_disabled":false,"rental_uris":{"android":"levelo://app?vid=99564e06-144c-4120-8262-8feb82471b05","ios":"levelo://app?vid=99564e06-144c-4120-8262-8feb82471b05"},"vehicle_type_id":"4","last_reported":1738775270,"current_range_meters":27600,"station_id":"ce4bhch2rcd13ifvqeug","pricing_plan_id":"cebpf4jnsgd1na2vs0mg"},{"bike_id":"efc75f68-c0e7-4c38-a126-0f2ae1afe39d","system_id":"levelo_inurba_marseille","lat":43.27181,"lon":5.40989,"is_reserved":false,"is_disabled":false,"rental_uris":{"android":"levelo://app?vid=efc75f68-c0e7-4c38-a126-0f2ae1afe39d","ios":"levelo://app?vid=efc75f68-c0e7-4c38-a126-0f2ae1afe39d"},"vehicle_type_id":"4","last_reported":1738775270,"current_range_meters":27200,"station_id":"ce4bhl12rcd13ifvqgf0","pricing_plan_id":"cebpf4jnsgd1na2vs0mg"},{"bike_id":"8669a9e1-1b88-4d6d-8b57-4393650357d4","system_id":"levelo_inurba_marseille","lat":43.273621,"lon":5.362487,"is_reserved":false,"is_disabled":false,"rental_uris":{"android":"levelo://app?vid=8669a9e1-1b88-4d6d-8b57-4393650357d4","ios":"levelo://app?vid=8669a9e1-1b88-4d6d-8b57-4393650357d4"},"vehicle_type_id":"4","last_reported":1738775270,"current_range_meters":4000,"station_id":"ce4bhbh2rcd13ifvqeo0","pricing_plan_id":"cebpf4jnsgd1na2vs0mg"},{"bike_id":"3ce9be42-ab76-43a9-bf8b-31b97f0d14a1","system_id":"levelo_inurba_marseille","lat":43.28467,"lon":5.3588,"is_reserved":false,"is_disabled":false,"rental_uris":{"android":"levelo://app?vid=3ce9be42-ab76-43a9-bf8b-31b97f0d14a1","ios":"levelo://app?vid=3ce9be42-ab76-43a9-bf8b-31b97f0d14a1"},"vehicle_type_id":"4","last_reported":1738775270,"current_range_meters":29600,"station_id":"ce4bhah2rcd13ifvqei0","pricing_plan_id":"cebpf4jnsgd1na2vs0mg"},{"bike_id":"25d556ce-3f32-408f-bbd6-29b976ef448a","system_id":"levelo_inurba_marseille","lat":43.23192,"lon":5.39963,"is_reserved":false,"is_disabled":false,"rental_uris":{"android":"levelo://app?vid=25d556ce-3f32-408f-bbd6-29b976ef448a","ios":"levelo://app?vid=25d556ce-3f32-408f-bbd6-29b976ef448a"},"vehicle_type_id":"4","last_reported":1738775270,"current_range_meters":12000,"station_id":"ce4bhn12rcd13ifvqgqg","pricing_plan_id":"cebpf4jnsgd1na2vs0mg"},{"bike_id":"edba70a9-b1f8-4bb5-bd02-f5669cf894f4","system_id":"levelo_inurba_marseille","lat":43.29029,"lon":5.38653,"is_reserved":false,"is_disabled":false,"rental_uris":{"android":"levelo://app?vid=edba70a9-b1f8-4bb5-bd02-f5669cf894f4","ios":"levelo://app?vid=edba70a9-b1f8-4bb5-bd02-f5669cf894f4"},"vehicle_type_id":"4","last_reported":1738775270,"current_range_meters":38800,"station_id":"ce4bh4p2rcd13ifvqe0g","pricing_plan_id":"cebpf4jnsgd1na2vs0mg"},{"bike_id":"97e3f16d-c680-499c-b7df-c4ab9d43861c","system_id":"levelo_inurba_marseille","lat":43.23188,"lon":5.39984,"is_reserved":false,"is_disabled":false,"rental_uris":{"android":"levelo://app?vid=97e3f16d-c680-499c-b7df-c4ab9d43861c","ios":"levelo://app?vid=97e3f16d-c680-499c-b7df-c4ab9d43861c"},"vehicle_type_id":"4","last_reported":1738775270,"current_range_meters":22800,"station_id":"ce4bhn12rcd13ifvqgqg","pricing_plan_id":"cebpf4jnsgd1na2vs0mg"},{"bike_id":"7b244cde-f0c6-4285-9ae7-c7626feacc3c","system_id":"levelo_inurba_marseille","lat":43.26804,"lon":5.40269,"is_reserved":false,"is_disabled":false,"rental_uris":{"android":"levelo://app?vid=7b244cde-f0c6-4285-9ae7-c7626feacc3c","ios":"levelo://app?vid=7b244cde-f0c6-4285-9ae7-c7626feacc3c"},"vehicle_type_id":"4","last_reported":1738775270,"current_range_meters":38800,"station_id":"ce501612rcd8frsf0b60","pricing_plan_id":"cebpf4jnsgd1na2vs0mg"},{"bike_id":"f6af68bf-9b41-4c44-b343-9ccc746c69ca","system_id":"levelo_inurba_marseille","lat":43.24169,"lon":5.39716,"is_reserved":false,"is_disabled":false,"rental_uris":{"android":"levelo://app?vid=f6af68bf-9b41-4c44-b343-9ccc746c69ca","ios":"levelo://app?vid=f6af68bf-9b41-4c44-b343-9ccc746c69ca"},"vehicle_type_id":"4","last_reported":1738775270,"current_range_meters":3600,"station_id":"ce4bhn12rcd13ifvqgpg","pricing_plan_id":"cebpf4jnsgd1na2vs0mg"},{"bike_id":"1fb8f6bd-b62d-4511-96dd-a147d6b5e2ae","system_id":"levelo_inurba_marseille","lat":43.28081,"lon":5.3965,"is_reserved":false,"is_disabled":false,"rental_uris":{"android":"levelo://app?vid=1fb8f6bd-b62d-4511-96dd-a147d6b5e2ae","ios":"levelo://app?vid=1fb8f6bd-b62d-4511-96dd-a147d6b5e2ae"},"vehicle_type_id":"4","last_reported":1738775270,"current_range_meters":38800,"station_id":"ce4bho12rcd13ifvqh2g","pricing_plan_id":"cebpf4jnsgd1na2vs0mg"},{"bike_id":"023f65ff-462a-4a08-ba76-5409dc2ce057","system_id":"levelo_inurba_marseille","lat":43.24984,"lon":5.38802,"is_reserved":false,"is_disabled":false,"rental_uris":{"android":"levelo://app?vid=023f65ff-462a-4a08-ba76-5409dc2ce057","ios":"levelo://app?vid=023f65ff-462a-4a08-ba76-5409dc2ce057"},"vehicle_type_id":"4","last_reported":1738775270,"current_range_meters":11200,"station_id":"ce4bhnp2rcd13ifvqgvg","pricing_plan_id":"cebpf4jnsgd1na2vs0mg"},{"bike_id":"6cdf22e8-4d98-4f8a-a5ae-6f835259610b","system_id":"levelo_inurba_marseille","lat":43.26192,"lon":5.37941,"is_reserved":false,"is_disabled":false,"rental_uris":{"android":"levelo://app?vid=6cdf22e8-4d98-4f8a-a5ae-6f835259610b","ios":"levelo://app?vid=6cdf22e8-4d98-4f8a-a5ae-6f835259610b"},"vehicle_type_id":"4","last_reported":1738775270,"current_range_meters":29600,"station_id":"ce4bhjp2rcd13ifvqg90","pricing_plan_id":"cebpf4jnsgd1na2vs0mg"},{"bike_id":"df59984e-57d9-40f8-a1a0-cc9652e17ccd","system_id":"levelo_inurba_marseille","lat":43.26563,"lon":5.39008,"is_reserved":false,"is_disabled":false,"rental_uris":{"android":"levelo://app?vid=df59984e-57d9-40f8-a1a0-cc9652e17ccd","ios":"levelo://app?vid=df59984e-57d9-40f8-a1a0-cc9652e17ccd"},"vehicle_type_id":"4","last_reported":1738775270,"current_range_meters":11600,"station_id":"ce4bhe12rcd13ifvqf30","pricing_plan_id":"cebpf4jnsgd1na2vs0mg"},{"bike_id":"61ceb31b-03f6-4213-9b34-0374ee45b479","system_id":"levelo_inurba_marseille","lat":43.32128,"lon":5.36799,"is_reserved":false,"is_disabled":false,"rental_uris":{"android":"levelo://app?vid=61ceb31b-03f6-4213-9b34-0374ee45b479","ios":"levelo://app?vid=61ceb31b-03f6-4213-9b34-0374ee45b479"},"vehicle_type_id":"4","last_reported":1738775270,"current_range_meters":20000,"station_id":"ce4bhrh2rcd13ifvqhug","pricing_plan_id":"cebpf4jnsgd1na2vs0mg"},{"bike_id":"1489c8c8-a04b-479f-95b4-a81e60a2c685","system_id":"levelo_inurba_marseille","lat":43.31184,"lon":5.38716,"is_reserved":false,"is_disabled":false,"rental_uris":{"android":"levelo://app?vid=1489c8c8-a04b-479f-95b4-a81e60a2c685","ios":"levelo://app?vid=1489c8c8-a04b-479f-95b4-a81e60a2c685"},"vehicle_type_id":"4","last_reported":1738775270,"current_range_meters":36800,"station_id":"ce4bgv12rcd13ifvqcp0","pricing_plan_id":"cebpf4jnsgd1na2vs0mg"},{"bike_id":"5bcce1d3-b97f-43a2-9f8d-3cbe970191fe","system_id":"levelo_inurba_marseille","lat":43.29202,"lon":5.35807,"is_reserved":false,"is_disabled":false,"rental_uris":{"android":"levelo://app?vid=5bcce1d3-b97f-43a2-9f8d-3cbe970191fe","ios":"levelo://app?vid=5bcce1d3-b97f-43a2-9f8d-3cbe970191fe"},"vehicle_type_id":"4","last_reported":1738775270,"current_range_meters":27200,"station_id":"ce4bhb12rcd13ifvqel0","pricing_plan_id":"cebpf4jnsgd1na2vs0mg"},{"bike_id":"23660265-ca9e-41f2-9c87-3e19e70597b2","system_id":"levelo_inurba_marseille","lat":43.31685,"lon":5.4048,"is_reserved":false,"is_disabled":false,"rental_uris":{"android":"levelo://app?vid=23660265-ca9e-41f2-9c87-3e19e70597b2","ios":"levelo://app?vid=23660265-ca9e-41f2-9c87-3e19e70597b2"},"vehicle_type_id":"4","last_reported":1738775270,"current_range_meters":6000,"station_id":"ce4bh012rcd13ifvqd00","pricing_plan_id":"cebpf4jnsgd1na2vs0mg"},{"bike_id":"e2d32c04-4169-4914-b84b-8d66073e4c04","system_id":"levelo_inurba_marseille","lat":43.293,"lon":5.37466,"is_reserved":false,"is_disabled":false,"rental_uris":{"android":"levelo://app?vid=e2d32c04-4169-4914-b84b-8d66073e4c04","ios":"levelo://app?vid=e2d32c04-4169-4914-b84b-8d66073e4c04"},"vehicle_type_id":"4","last_reported":1738775270,"current_range_meters":34800,"station_id":"ce4bgi12rcd13ifvqb70","pricing_plan_id":"cebpf4jnsgd1na2vs0mg"},{"bike_id":"cd603e46-cb29-4f84-93f3-9fe98a5e8786","system_id":"levelo_inurba_marseille","lat":43.24652,"lon":5.38895,"is_reserved":false,"is_disabled":false,"rental_uris":{"android":"levelo://app?vid=cd603e46-cb29-4f84-93f3-9fe98a5e8786","ios":"levelo://app?vid=cd603e46-cb29-4f84-93f3-9fe98a5e8786"},"vehicle_type_id":"4","last_reported":1738775270,"current_range_meters":36400,"station_id":"ce4bhg12rcd13ifvqf60","pricing_plan_id":"cebpf4jnsgd1na2vs0mg"},{"bike_id":"f7e7d6ba-fad8-4acd-a5c2-d14fdba3a01a","system_id":"levelo_inurba_marseille","lat":43.3043,"lon":5.38904,"is_reserved":false,"is_disabled":false,"rental_uris":{"android":"levelo://app?vid=f7e7d6ba-fad8-4acd-a5c2-d14fdba3a01a","ios":"levelo://app?vid=f7e7d6ba-fad8-4acd-a5c2-d14fdba3a01a"},"vehicle_type_id":"4","last_reported":1738775270,"current_range_meters":27200,"station_id":"ce4bgk12rcd13ifvqbi0","pricing_plan_id":"cebpf4jnsgd1na2vs0mg"},{"bike_id":"c03c30f3-385e-410a-9444-8d2ab5b29a82","system_id":"levelo_inurba_marseille","lat":43.2407,"lon":5.3776,"is_reserved":false,"is_disabled":false,"rental_uris":{"android":"levelo://app?vid=c03c30f3-385e-410a-9444-8d2ab5b29a82","ios":"levelo://app?vid=c03c30f3-385e-410a-9444-8d2ab5b29a82"},"vehicle_type_id":"4","last_reported":1738775270,"current_range_meters":10800,"station_id":"ce4bhnp2rcd13ifvqgvg","pricing_plan_id":"cebpf4jnsgd1na2vs0mg"},{"bike_id":"ec58a886-eddf-413c-9588-048d119536b0","system_id":"levelo_inurba_marseille","lat":43.279893,"lon":5.400147,"is_reserved":false,"is_disabled":true,"rental_uris":{"android":"levelo://app?vid=ec58a886-eddf-413c-9588-048d119536b0","ios":"levelo://app?vid=ec58a886-eddf-413c-9588-048d119536b0"},"vehicle_type_id":"4","last_reported":1738775270,"current_range_meters":7200,"station_id":"ce4bho92rcd13ifvqh4g","pricing_plan_id":"cebpf4jnsgd1na2vs0mg"},{"bike_id":"8226fb24-e480-428d-a4fc-0075407812e2","system_id":"levelo_inurba_marseille","lat":43.30206,"lon":5.36602,"is_reserved":false,"is_disabled":true,"rental_uris":{"android":"levelo://app?vid=8226fb24-e480-428d-a4fc-0075407812e2","ios":"levelo://app?vid=8226fb24-e480-428d-a4fc-0075407812e2"},"vehicle_type_id":"4","last_reported":1738775270,"current_range_meters":3200,"station_id":"ce4bgrh2rcd13ifvqc8g","pricing_plan_id":"cebpf4jnsgd1na2vs0mg"},{"bike_id":"915c02a9-43eb-435e-93bf-81a431a741d0","system_id":"levelo_inurba_marseille","lat":43.30755,"lon":5.36846,"is_reserved":false,"is_disabled":false,"rental_uris":{"android":"levelo://app?vid=915c02a9-43eb-435e-93bf-81a431a741d0","ios":"levelo://app?vid=915c02a9-43eb-435e-93bf-81a431a741d0"},"vehicle_type_id":"4","last_reported":1738775270,"current_range_meters":34800,"station_id":"","pricing_plan_id":"cebpf4jnsgd1na2vs0mg"},{"bike_id":"adafab0d-cf29-449d-8e94-892971f3f877","system_id":"levelo_inurba_marseille","lat":43.29265,"lon":5.3844,"is_reserved":false,"is_disabled":false,"rental_uris":{"android":"levelo://app?vid=adafab0d-cf29-449d-8e94-892971f3f877","ios":"levelo://app?vid=adafab0d-cf29-449d-8e94-892971f3f877"},"vehicle_type_id":"4","last_reported":1738775270,"current_range_meters":21600,"station_id":"ce4bh692rcd13ifvqea0","pricing_plan_id":"cebpf4jnsgd1na2vs0mg"},{"bike_id":"9596cacb-8f48-4b08-8219-0a76cb2ddb16","system_id":"levelo_inurba_marseille","lat":43.25831,"lon":5.39418,"is_reserved":false,"is_disabled":false,"rental_uris":{"android":"levelo://app?vid=9596cacb-8f48-4b08-8219-0a76cb2ddb16","ios":"levelo://app?vid=9596cacb-8f48-4b08-8219-0a76cb2ddb16"},"vehicle_type_id":"4","last_reported":1738775270,"current_range_meters":38800,"station_id":"ce4bhip2rcd13ifvqft0","pricing_plan_id":"cebpf4jnsgd1na2vs0mg"},{"bike_id":"f959e12c-7756-429d-ac8f-f51977963103","system_id":"levelo_inurba_marseille","lat":43.3211,"lon":5.368,"is_reserved":false,"is_disabled":false,"rental_uris":{"android":"levelo://app?vid=f959e12c-7756-429d-ac8f-f51977963103","ios":"levelo://app?vid=f959e12c-7756-429d-ac8f-f51977963103"},"vehicle_type_id":"4","last_reported":1738775270,"current_range_meters":25600,"station_id":"ce4bhrh2rcd13ifvqhug","pricing_plan_id":"cebpf4jnsgd1na2vs0mg"},{"bike_id":"691db9e3-4219-4d87-a399-2a33ed3587de","system_id":"levelo_inurba_marseille","lat":43.30132,"lon":5.3741,"is_reserved":false,"is_disabled":true,"rental_uris":{"android":"levelo://app?vid=691db9e3-4219-4d87-a399-2a33ed3587de","ios":"levelo://app?vid=691db9e3-4219-4d87-a399-2a33ed3587de"},"vehicle_type_id":"4","last_reported":1738775270,"current_range_meters":1600,"station_id":"ce4bgs92rcd13ifvqcc0","pricing_plan_id":"cebpf4jnsgd1na2vs0mg"},{"bike_id":"ba929682-8fe6-4366-8390-b2fc9d77712a","system_id":"levelo_inurba_marseille","lat":43.28611,"lon":5.37066,"is_reserved":false,"is_disabled":false,"rental_uris":{"android":"levelo://app?vid=ba929682-8fe6-4366-8390-b2fc9d77712a","ios":"levelo://app?vid=ba929682-8fe6-4366-8390-b2fc9d77712a"},"vehicle_type_id":"4","last_reported":1738775270,"current_range_meters":3600,"station_id":"ce4bht12rcd13ifvqi60","pricing_plan_id":"cebpf4jnsgd1na2vs0mg"},{"bike_id":"7b39ed00-86df-4303-bda1-bfc0fee1e7e2","system_id":"levelo_inurba_marseille","lat":43.32458,"lon":5.45554,"is_reserved":false,"is_disabled":false,"rental_uris":{"android":"levelo://app?vid=7b39ed00-86df-4303-bda1-bfc0fee1e7e2","ios":"levelo://app?vid=7b39ed00-86df-4303-bda1-bfc0fee1e7e2"},"vehicle_type_id":"4","last_reported":1738775270,"current_range_meters":19200,"station_id":"","pricing_plan_id":"cebpf4jnsgd1na2vs0mg"},{"bike_id":"6b96fecf-757d-40de-8dd6-b21f4a7b3b71","system_id":"levelo_inurba_marseille","lat":43.282793,"lon":5.350713,"is_reserved":false,"is_disabled":false,"rental_uris":{"android":"levelo://app?vid=6b96fecf-757d-40de-8dd6-b21f4a7b3b71","ios":"levelo://app?vid=6b96fecf-757d-40de-8dd6-b21f4a7b3b71"},"vehicle_type_id":"4","last_reported":1738775270,"current_range_meters":38800,"station_id":"ce4bhbp2rcd13ifvqerg","pricing_plan_id":"cebpf4jnsgd1na2vs0mg"},{"bike_id":"9736f717-5d6f-4dd2-a7f1-bb087b3e9e13","system_id":"levelo_inurba_marseille","lat":43.28145,"lon":5.42621,"is_reserved":false,"is_disabled":true,"rental_uris":{"android":"levelo://app?vid=9736f717-5d6f-4dd2-a7f1-bb087b3e9e13","ios":"levelo://app?vid=9736f717-5d6f-4dd2-a7f1-bb087b3e9e13"},"vehicle_type_id":"4","last_reported":1738775270,"current_range_meters":38800,"station_id":"ce4bhnh2rcd13ifvqgug","pricing_plan_id":"cebpf4jnsgd1na2vs0mg"},{"bike_id":"c0de8ee1-d04b-4efc-9054-176f69ff97fb","system_id":"levelo_inurba_marseille","lat":43.273798,"lon":5.36261,"is_reserved":false,"is_disabled":false,"rental_uris":{"android":"levelo://app?vid=c0de8ee1-d04b-4efc-9054-176f69ff97fb","ios":"levelo://app?vid=c0de8ee1-d04b-4efc-9054-176f69ff97fb"},"vehicle_type_id":"4","last_reported":1738775270,"current_range_meters":6800,"station_id":"ce4bhbh2rcd13ifvqeo0","pricing_plan_id":"cebpf4jnsgd1na2vs0mg"},{"bike_id":"3f3f5c20-2ddd-4ea5-96df-9d3954a21063","system_id":"levelo_inurba_marseille","lat":43.30231,"lon":5.39457,"is_reserved":false,"is_disabled":false,"rental_uris":{"android":"levelo://app?vid=3f3f5c20-2ddd-4ea5-96df-9d3954a21063","ios":"levelo://app?vid=3f3f5c20-2ddd-4ea5-96df-9d3954a21063"},"vehicle_type_id":"4","last_reported":1738775270,"current_range_meters":25600,"station_id":"ce4bh0p2rcd13ifvqd70","pricing_plan_id":"cebpf4jnsgd1na2vs0mg"},{"bike_id":"c7efea0b-41ab-47c4-93f0-43a53000a63b","system_id":"levelo_inurba_marseille","lat":43.23069,"lon":5.35491,"is_reserved":false,"is_disabled":false,"rental_uris":{"android":"levelo://app?vid=c7efea0b-41ab-47c4-93f0-43a53000a63b","ios":"levelo://app?vid=c7efea0b-41ab-47c4-93f0-43a53000a63b"},"vehicle_type_id":"4","last_reported":1738775270,"current_range_meters":30800,"station_id":"cpo3342slgdg3j2ifvpg","pricing_plan_id":"cebpf4jnsgd1na2vs0mg"},{"bike_id":"f2a615b2-62fc-4507-8dee-66b47847f708","system_id":"levelo_inurba_marseille","lat":43.32658,"lon":5.40987,"is_reserved":false,"is_disabled":false,"rental_uris":{"android":"levelo://app?vid=f2a615b2-62fc-4507-8dee-66b47847f708","ios":"levelo://app?vid=f2a615b2-62fc-4507-8dee-66b47847f708"},"vehicle_type_id":"4","last_reported":1738775270,"current_range_meters":29600,"station_id":"ce4bhpp2rcd13ifvqhgg","pricing_plan_id":"cebpf4jnsgd1na2vs0mg"},{"bike_id":"10ef2b4e-bf70-4341-809a-c57f629cf9a5","system_id":"levelo_inurba_marseille","lat":43.28432,"lon":5.39209,"is_reserved":false,"is_disabled":false,"rental_uris":{"android":"levelo://app?vid=10ef2b4e-bf70-4341-809a-c57f629cf9a5","ios":"levelo://app?vid=10ef2b4e-bf70-4341-809a-c57f629cf9a5"},"vehicle_type_id":"4","last_reported":1738775270,"current_range_meters":37600,"station_id":"ce4bhoh2rcd13ifvqh5g","pricing_plan_id":"cebpf4jnsgd1na2vs0mg"},{"bike_id":"b7e8d40d-3991-4033-9e1e-3ffda7ff11b8","system_id":"levelo_inurba_marseille","lat":43.23965,"lon":5.36632,"is_reserved":false,"is_disabled":true,"rental_uris":{"android":"levelo://app?vid=b7e8d40d-3991-4033-9e1e-3ffda7ff11b8","ios":"levelo://app?vid=b7e8d40d-3991-4033-9e1e-3ffda7ff11b8"},"vehicle_type_id":"4","last_reported":1738775270,"current_range_meters":0,"station_id":"ce4bhi12rcd13ifvqfp0","pricing_plan_id":"cebpf4jnsgd1na2vs0mg"},{"bike_id":"98c47c52-2e5f-4619-9321-958ca022c265","system_id":"levelo_inurba_marseille","lat":43.26792,"lon":5.39413,"is_reserved":false,"is_disabled":false,"rental_uris":{"android":"levelo://app?vid=98c47c52-2e5f-4619-9321-958ca022c265","ios":"levelo://app?vid=98c47c52-2e5f-4619-9321-958ca022c265"},"vehicle_type_id":"4","last_reported":1738775270,"current_range_meters":19200,"station_id":"ce4bhh12rcd13ifvqfg0","pricing_plan_id":"cebpf4jnsgd1na2vs0mg"},{"bike_id":"08167544-ace1-401f-833e-f9d63a1f447c","system_id":"levelo_inurba_marseille","lat":43.29183,"lon":5.35825,"is_reserved":false,"is_disabled":false,"rental_uris":{"android":"levelo://app?vid=08167544-ace1-401f-833e-f9d63a1f447c","ios":"levelo://app?vid=08167544-ace1-401f-833e-f9d63a1f447c"},"vehicle_type_id":"4","last_reported":1738775270,"current_range_meters":22400,"station_id":"ce4bhb12rcd13ifvqel0","pricing_plan_id":"cebpf4jnsgd1na2vs0mg"},{"bike_id":"fa6e2df9-5ecb-4a83-bf4d-d62189e02171","system_id":"levelo_inurba_marseille","lat":43.2605,"lon":5.37558,"is_reserved":false,"is_disabled":false,"rental_uris":{"android":"levelo://app?vid=fa6e2df9-5ecb-4a83-bf4d-d62189e02171","ios":"levelo://app?vid=fa6e2df9-5ecb-4a83-bf4d-d62189e02171"},"vehicle_type_id":"4","last_reported":1738775270,"current_range_meters":38800,"station_id":"ce4bhgh2rcd13ifvqfa0","pricing_plan_id":"cebpf4jnsgd1na2vs0mg"},{"bike_id":"2c8a8af3-1f8b-4972-9823-01cc65beee13","system_id":"levelo_inurba_marseille","lat":43.29205,"lon":5.35817,"is_reserved":false,"is_disabled":false,"rental_uris":{"android":"levelo://app?vid=2c8a8af3-1f8b-4972-9823-01cc65beee13","ios":"levelo://app?vid=2c8a8af3-1f8b-4972-9823-01cc65beee13"},"vehicle_type_id":"4","last_reported":1738775270,"current_range_meters":38800,"station_id":"ce4bhb12rcd13ifvqel0","pricing_plan_id":"cebpf4jnsgd1na2vs0mg"},{"bike_id":"fc582206-7b97-4fd2-955d-6b3f74b57cb6","system_id":"levelo_inurba_marseille","lat":43.29228,"lon":5.36067,"is_reserved":false,"is_disabled":false,"rental_uris":{"android":"levelo://app?vid=fc582206-7b97-4fd2-955d-6b3f74b57cb6","ios":"levelo://app?vid=fc582206-7b97-4fd2-955d-6b3f74b57cb6"},"vehicle_type_id":"4","last_reported":1738775270,"current_range_meters":38800,"station_id":"ce4bhbh2rcd13ifvqeqg","pricing_plan_id":"cebpf4jnsgd1na2vs0mg"},{"bike_id":"4257c8d8-3c81-4949-abd6-3319049196bc","system_id":"levelo_inurba_marseille","lat":43.23952,"lon":5.36635,"is_reserved":false,"is_disabled":false,"rental_uris":{"android":"levelo://app?vid=4257c8d8-3c81-4949-abd6-3319049196bc","ios":"levelo://app?vid=4257c8d8-3c81-4949-abd6-3319049196bc"},"vehicle_type_id":"4","last_reported":1738775270,"current_range_meters":26000,"station_id":"ce4bhi12rcd13ifvqfp0","pricing_plan_id":"cebpf4jnsgd1na2vs0mg"},{"bike_id":"1b40651f-31c9-4a6a-a5bb-5a91c847bdd8","system_id":"levelo_inurba_marseille","lat":43.28406,"lon":5.3498,"is_reserved":false,"is_disabled":false,"rental_uris":{"android":"levelo://app?vid=1b40651f-31c9-4a6a-a5bb-5a91c847bdd8","ios":"levelo://app?vid=1b40651f-31c9-4a6a-a5bb-5a91c847bdd8"},"vehicle_type_id":"4","last_reported":1738775270,"current_range_meters":28800,"station_id":"ce4bhbh2rcd13ifvqepg","pricing_plan_id":"cebpf4jnsgd1na2vs0mg"},{"bike_id":"e4242f7b-a487-4826-8c42-c2d8bb0d8e02","system_id":"levelo_inurba_marseille","lat":43.29524,"lon":5.39382,"is_reserved":false,"is_disabled":false,"rental_uris":{"android":"levelo://app?vid=e4242f7b-a487-4826-8c42-c2d8bb0d8e02","ios":"levelo://app?vid=e4242f7b-a487-4826-8c42-c2d8bb0d8e02"},"vehicle_type_id":"4","last_reported":1738775270,"current_range_meters":38800,"station_id":"ce4bh292rcd13ifvqdf0","pricing_plan_id":"cebpf4jnsgd1na2vs0mg"},{"bike_id":"129c84b3-6bb3-4777-a67c-62da6fff5874","system_id":"levelo_inurba_marseille","lat":43.29531,"lon":5.39024,"is_reserved":false,"is_disabled":true,"rental_uris":{"android":"levelo://app?vid=129c84b3-6bb3-4777-a67c-62da6fff5874","ios":"levelo://app?vid=129c84b3-6bb3-4777-a67c-62da6fff5874"},"vehicle_type_id":"4","last_reported":1738775270,"current_range_meters":7200,"station_id":"ce4bh3p2rcd13ifvqdp0","pricing_plan_id":"cebpf4jnsgd1na2vs0mg"},{"bike_id":"36daa93d-9e79-46e5-bfc1-4804c1d7a0a5","system_id":"levelo_inurba_marseille","lat":43.2861,"lon":5.35099,"is_reserved":false,"is_disabled":false,"rental_uris":{"android":"levelo://app?vid=36daa93d-9e79-46e5-bfc1-4804c1d7a0a5","ios":"levelo://app?vid=36daa93d-9e79-46e5-bfc1-4804c1d7a0a5"},"vehicle_type_id":"4","last_reported":1738775270,"current_range_meters":22800,"station_id":"ce4bhch2rcd13ifvqeug","pricing_plan_id":"cebpf4jnsgd1na2vs0mg"},{"bike_id":"0510d0f2-6efa-4189-a84f-03fe2ef809de","system_id":"levelo_inurba_marseille","lat":43.29925,"lon":5.37511,"is_reserved":false,"is_disabled":false,"rental_uris":{"android":"levelo://app?vid=0510d0f2-6efa-4189-a84f-03fe2ef809de","ios":"levelo://app?vid=0510d0f2-6efa-4189-a84f-03fe2ef809de"},"vehicle_type_id":"4","last_reported":1738775270,"current_range_meters":10000,"station_id":"ce4bgjh2rcd13ifvqbg0","pricing_plan_id":"cebpf4jnsgd1na2vs0mg"},{"bike_id":"dd20680a-b404-4663-a7f7-3b5e2f8d7645","system_id":"levelo_inurba_marseille","lat":43.30539,"lon":5.36538,"is_reserved":false,"is_disabled":false,"rental_uris":{"android":"levelo://app?vid=dd20680a-b404-4663-a7f7-3b5e2f8d7645","ios":"levelo://app?vid=dd20680a-b404-4663-a7f7-3b5e2f8d7645"},"vehicle_type_id":"4","last_reported":1738775270,"current_range_meters":36000,"station_id":"ce4bgs12rcd13ifvqcag","pricing_plan_id":"cebpf4jnsgd1na2vs0mg"},{"bike_id":"e3e81395-3c09-402e-ba5e-03801649def9","system_id":"levelo_inurba_marseille","lat":43.32652,"lon":5.40989,"is_reserved":false,"is_disabled":false,"rental_uris":{"android":"levelo://app?vid=e3e81395-3c09-402e-ba5e-03801649def9","ios":"levelo://app?vid=e3e81395-3c09-402e-ba5e-03801649def9"},"vehicle_type_id":"4","last_reported":1738775270,"current_range_meters":22400,"station_id":"ce4bhpp2rcd13ifvqhgg","pricing_plan_id":"cebpf4jnsgd1na2vs0mg"},{"bike_id":"1bd22e16-2a31-4ac0-9633-76be1e3c94b7","system_id":"levelo_inurba_marseille","lat":43.28043,"lon":5.36941,"is_reserved":false,"is_disabled":false,"rental_uris":{"android":"levelo://app?vid=1bd22e16-2a31-4ac0-9633-76be1e3c94b7","ios":"levelo://app?vid=1bd22e16-2a31-4ac0-9633-76be1e3c94b7"},"vehicle_type_id":"4","last_reported":1738775270,"current_range_meters":24000,"station_id":"ce4bha12rcd13ifvqef0","pricing_plan_id":"cebpf4jnsgd1na2vs0mg"},{"bike_id":"3ffd9542-8dcb-4de4-92a3-758bd9377f98","system_id":"levelo_inurba_marseille","lat":43.27818,"lon":5.40712,"is_reserved":false,"is_disabled":true,"rental_uris":{"android":"levelo://app?vid=3ffd9542-8dcb-4de4-92a3-758bd9377f98","ios":"levelo://app?vid=3ffd9542-8dcb-4de4-92a3-758bd9377f98"},"vehicle_type_id":"4","last_reported":1738775270,"current_range_meters":30800,"station_id":"ce4bhnh2rcd13ifvqgtg","pricing_plan_id":"cebpf4jnsgd1na2vs0mg"},{"bike_id":"c70877b8-eddc-4d03-ac72-4a89616f3e89","system_id":"levelo_inurba_marseille","lat":43.29527,"lon":5.39046,"is_reserved":false,"is_disabled":false,"rental_uris":{"android":"levelo://app?vid=c70877b8-eddc-4d03-ac72-4a89616f3e89","ios":"levelo://app?vid=c70877b8-eddc-4d03-ac72-4a89616f3e89"},"vehicle_type_id":"4","last_reported":1738775270,"current_range_meters":24800,"station_id":"ce4bh3p2rcd13ifvqdp0","pricing_plan_id":"cebpf4jnsgd1na2vs0mg"},{"bike_id":"95714922-2268-4556-818e-e9864dd31b50","system_id":"levelo_inurba_marseille","lat":43.24074,"lon":5.37764,"is_reserved":false,"is_disabled":false,"rental_uris":{"android":"levelo://app?vid=95714922-2268-4556-818e-e9864dd31b50","ios":"levelo://app?vid=95714922-2268-4556-818e-e9864dd31b50"},"vehicle_type_id":"4","last_reported":1738775270,"current_range_meters":7200,"station_id":"ce4bhnp2rcd13ifvqgvg","pricing_plan_id":"cebpf4jnsgd1na2vs0mg"},{"bike_id":"e13b421f-93d9-47cb-81ea-7906bc578b15","system_id":"levelo_inurba_marseille","lat":43.28459,"lon":5.359,"is_reserved":false,"is_disabled":false,"rental_uris":{"android":"levelo://app?vid=e13b421f-93d9-47cb-81ea-7906bc578b15","ios":"levelo://app?vid=e13b421f-93d9-47cb-81ea-7906bc578b15"},"vehicle_type_id":"4","last_reported":1738775270,"current_range_meters":22000,"station_id":"ce4bhah2rcd13ifvqei0","pricing_plan_id":"cebpf4jnsgd1na2vs0mg"},{"bike_id":"4977a7d7-c059-4d32-9c44-3d4e27362a46","system_id":"levelo_inurba_marseille","lat":43.24547,"lon":5.39521,"is_reserved":false,"is_disabled":false,"rental_uris":{"android":"levelo://app?vid=4977a7d7-c059-4d32-9c44-3d4e27362a46","ios":"levelo://app?vid=4977a7d7-c059-4d32-9c44-3d4e27362a46"},"vehicle_type_id":"4","last_reported":1738775270,"current_range_meters":38000,"station_id":"ce4bhlp2rcd13ifvqgjg","pricing_plan_id":"cebpf4jnsgd1na2vs0mg"},