{"last_updated":1773916142,"ttl":60,"version":"2.2","data":{"bikes":[{"bike_id":"ac1d6473-4d01-48bd-822d-53c6743e087c","system_id":"levelo_inurba_marseille","lat":43.31272,"lon":5.40162,"is_reserved":false,"is_disabled":false,"rental_uris":{"android":"levelo://app?vid=ac1d6473-4d01-48bd-822d-53c6743e087c","ios":"levelo://app?vid=ac1d6473-4d01-48bd-822d-53c6743e087c"},"vehicle_type_id":"4","last_reported":1773916143,"current_range_meters":2800,"station_id":"ce4bh092rcd13ifvqd30","pricing_plan_id":"cebpf4jnsgd1na2vs0mg"},{"bike_id":"7ac6a13a-26e2-4b6c-bedc-5f35ba13c658","system_id":"levelo_inurba_marseille","lat":43.28895,"lon":5.39387,"is_reserved":false,"is_disabled":false,"rental_uris":{"android":"levelo://app?vid=7ac6a13a-26e2-4b6c-bedc-5f35ba13c658","ios":"levelo://app?vid=7ac6a13a-26e2-4b6c-bedc-5f35ba13c658"},"vehicle_type_id":"4","last_reported":1773916143,"current_range_meters":2800,"station_id":"","pricing_plan_id":"cebpf4jnsgd1na2vs0mg"},{"bike_id":"4ad80934-374e-4334-9451-9d7e564aa9e6","system_id":"levelo_inurba_marseille","lat":43.3133,"lon":5.36706,"is_reserved":false,"is_disabled":false,"rental_uris":{"android":"levelo://app?vid=4ad80934-374e-4334-9451-9d7e564aa9e6","ios":"levelo://app?vid=4ad80934-374e-4334-9451-9d7e564aa9e6"},"vehicle_type_id":"4","last_reported":1773916143,"current_range_meters":2800,"station_id":"ce4bgr92rcd13ifvqc6g","pricing_plan_id":"cebpf4jnsgd1na2vs0mg"},{"bike_id":"a549a2bf-089f-4f4a-9c0e-34a203fd9800","system_id":"levelo_inurba_marseille","lat":43.3019,"lon":5.36607,"is_reserved":false,"is_disabled":false,"rental_uris":{"android":"levelo://app?vid=a549a2bf-089f-4f4a-9c0e-34a203fd9800","ios":"levelo://app?vid=a549a2bf-089f-4f4a-9c0e-34a203fd9800"},"vehicle_type_id":"4","last_reported":1773916143,"current_range_meters":2800,"station_id":"ce4bgrh2rcd13ifvqc8g","pricing_plan_id":"cebpf4jnsgd1na2vs0mg"},{"bike_id":"f45d7712-3fd6-4c81-b832-9bf9f4621523","system_id":"levelo_inurba_marseille","lat":43.29629,"lon":5.37926,"is_reserved":false,"is_disabled":false,"rental_uris":{"android":"levelo://app?vid=f45d7712-3fd6-4c81-b832-9bf9f4621523","ios":"levelo://app?vid=f45d7712-3fd6-4c81-b832-9bf9f4621523"},"vehicle_type_id":"4","last_reported":1773916143,"current_range_meters":2800,"station_id":"","pricing_plan_id":"cebpf4jnsgd1na2vs0mg"},{"bike_id":"e563383a-8a89-4304-b11f-18268886193e","system_id":"levelo_inurba_marseille","lat":43.25583,"lon":5.38216,"is_reserved":false,"is_disabled":false,"rental_uris":{"android":"levelo://app?vid=e563383a-8a89-4304-b11f-18268886193e","ios":"levelo://app?vid=e563383a-8a89-4304-b11f-18268886193e"},"vehicle_type_id":"4","last_reported":1773916143,"current_range_meters":2800,"station_id":"ce4bhih2rcd13ifvqfs0","pricing_plan_id":"cebpf4jnsgd1na2vs0mg"},{"bike_id":"f089da0e-dd7b-4f4d-a744-4a432022c7ea","system_id":"levelo_inurba_marseille","lat":43.32054,"lon":5.41508,"is_reserved":false,"is_disabled":false,"rental_uris":{"android":"levelo://app?vid=f089da0e-dd7b-4f4d-a744-4a432022c7ea","ios":"levelo://app?vid=f089da0e-dd7b-4f4d-a744-4a432022c7ea"},"vehicle_type_id":"4","last_reported":1773916143,"current_range_meters":2800,"station_id":"ce4bhq92rcd13ifvqhkg","pricing_plan_id":"cebpf4jnsgd1na2vs0mg"},{"bike_id":"032692c2-e8ca-40e7-9c05-3713e043006b","system_id":"levelo_inurba_marseille","lat":43.23907,"lon":5.37457,"is_reserved":false,"is_disabled":false,"rental_uris":{"android":"levelo://app?vid=032692c2-e8ca-40e7-9c05-3713e043006b","ios":"levelo://app?vid=032692c2-e8ca-40e7-9c05-3713e043006b"},"vehicle_type_id":"4","last_reported":1773916143,"current_range_meters":2800,"station_id":"st_d6sm7csbq4hs73f8fpjg","pricing_plan_id":"cebpf4jnsgd1na2vs0mg"},{"bike_id":"b479353b-fe14-4392-b2d7-5de9d2a8735a","system_id":"levelo_inurba_marseille","lat":43.32249,"lon":5.43821,"is_reserved":false,"is_disabled":false,"rental_uris":{"android":"levelo://app?vid=b479353b-fe14-4392-b2d7-5de9d2a8735a","ios":"levelo://app?vid=b479353b-fe14-4392-b2d7-5de9d2a8735a"},"vehicle_type_id":"4","last_reported":1773916143,"current_range_meters":2800,"station_id":"","pricing_plan_id":"cebpf4jnsgd1na2vs0mg"},{"bike_id":"f7315d1e-73c8-4876-9e17-aedad5ed61d7","system_id":"levelo_inurba_marseille","lat":43.31119,"lon":5.38653,"is_reserved":false,"is_disabled":false,"rental_uris":{"android":"levelo://app?vid=f7315d1e-73c8-4876-9e17-aedad5ed61d7","ios":"levelo://app?vid=f7315d1e-73c8-4876-9e17-aedad5ed61d7"},"vehicle_type_id":"4","last_reported":1773916143,"current_range_meters":2800,"station_id":"","pricing_plan_id":"cebpf4jnsgd1na2vs0mg"},{"bike_id":"3074a626-89ae-4cdb-bbd7-3a72f4e7d7dc","system_id":"levelo_inurba_marseille","lat":43.29791,"lon":5.37102,"is_reserved":false,"is_disabled":false,"rental_uris":{"android":"levelo://app?vid=3074a626-89ae-4cdb-bbd7-3a72f4e7d7dc","ios":"levelo://app?vid=3074a626-89ae-4cdb-bbd7-3a72f4e7d7dc"},"vehicle_type_id":"4","last_reported":1773916143,"current_range_meters":2800,"station_id":"ce4bgop2rcd13ifvqc1g","pricing_plan_id":"cebpf4jnsgd1na2vs0mg"},{"bike_id":"50e0584e-4dc0-49b6-950a-79953725031f","system_id":"levelo_inurba_marseille","lat":43.23081,"lon":5.35489,"is_reserved":false,"is_disabled":false,"rental_uris":{"android":"levelo://app?vid=50e0584e-4dc0-49b6-950a-79953725031f","ios":"levelo://app?vid=50e0584e-4dc0-49b6-950a-79953725031f"},"vehicle_type_id":"4","last_reported":1773916143,"current_range_meters":2800,"station_id":"cpo3342slgdg3j2ifvpg","pricing_plan_id":"cebpf4jnsgd1na2vs0mg"},{"bike_id":"2706db3b-3f01-4b6b-a1e9-42e6bda22571","system_id":"levelo_inurba_marseille","lat":43.2617,"lon":5.37281,"is_reserved":false,"is_disabled":false,"rental_uris":{"android":"levelo://app?vid=2706db3b-3f01-4b6b-a1e9-42e6bda22571","ios":"levelo://app?vid=2706db3b-3f01-4b6b-a1e9-42e6bda22571"},"vehicle_type_id":"4","last_reported":1773916143,"current_range_meters":2800,"station_id":"","pricing_plan_id":"cebpf4jnsgd1na2vs0mg"},{"bike_id":"b8233da9-3d92-4507-90ab-bbd6636ab5c3","system_id":"levelo_inurba_marseille","lat":43.30185,"lon":5.39066,"is_reserved":false,"is_disabled":false,"rental_uris":{"android":"levelo://app?vid=b8233da9-3d92-4507-90ab-bbd6636ab5c3","ios":"levelo://app?vid=b8233da9-3d92-4507-90ab-bbd6636ab5c3"},"vehicle_type_id":"4","last_reported":1773916143,"current_range_meters":2800,"station_id":"","pricing_plan_id":"cebpf4jnsgd1na2vs0mg"},{"bike_id":"fa57e2c2-02dc-4297-a1b7-15b9fff0e3cc","system_id":"levelo_inurba_marseille","lat":43.238944,"lon":5.37459,"is_reserved":false,"is_disabled":false,"rental_uris":{"android":"levelo://app?vid=fa57e2c2-02dc-4297-a1b7-15b9fff0e3cc","ios":"levelo://app?vid=fa57e2c2-02dc-4297-a1b7-15b9fff0e3cc"},"vehicle_type_id":"4","last_reported":1773916143,"current_range_meters":3200,"station_id":"st_d6sm7csbq4hs73f8fpjg","pricing_plan_id":"cebpf4jnsgd1na2vs0mg"},{"bike_id":"c3b8d42e-c6cb-428b-9a9c-4adf659dc89a","system_id":"levelo_inurba_marseille","lat":43.26216,"lon":5.37458,"is_reserved":false,"is_disabled":false,"rental_uris":{"android":"levelo://app?vid=c3b8d42e-c6cb-428b-9a9c-4adf659dc89a","ios":"levelo://app?vid=c3b8d42e-c6cb-428b-9a9c-4adf659dc89a"},"vehicle_type_id":"4","last_reported":1773916143,"current_range_meters":3200,"station_id":"ce4bhgp2rcd13ifvqfc0","pricing_plan_id":"cebpf4jnsgd1na2vs0mg"},{"bike_id":"8333cc0b-bbb7-43e4-95b4-81793ae3f2e6","system_id":"levelo_inurba_marseille","lat":43.30955,"lon":5.39071,"is_reserved":false,"is_disabled":false,"rental_uris":{"android":"levelo://app?vid=8333cc0b-bbb7-43e4-95b4-81793ae3f2e6","ios":"levelo://app?vid=8333cc0b-bbb7-43e4-95b4-81793ae3f2e6"},"vehicle_type_id":"4","last_reported":1773916143,"current_range_meters":3200,"station_id":"ce4bgup2rcd13ifvqco0","pricing_plan_id":"cebpf4jnsgd1na2vs0mg"},{"bike_id":"8a854e0a-3b9f-471d-80f2-bfadb0595e6b","system_id":"levelo_inurba_marseille","lat":43.31354,"lon":5.38431,"is_reserved":false,"is_disabled":false,"rental_uris":{"android":"levelo://app?vid=8a854e0a-3b9f-471d-80f2-bfadb0595e6b","ios":"levelo://app?vid=8a854e0a-3b9f-471d-80f2-bfadb0595e6b"},"vehicle_type_id":"4","last_reported":1773916143,"current_range_meters":3200,"station_id":"ce4bgt92rcd13ifvqcf0","pricing_plan_id":"cebpf4jnsgd1na2vs0mg"},{"bike_id":"62d98d5f-1b24-43c0-ace6-838e955fc118","system_id":"levelo_inurba_marseille","lat":43.24467,"lon":5.42535,"is_reserved":false,"is_disabled":false,"rental_uris":{"android":"levelo://app?vid=62d98d5f-1b24-43c0-ace6-838e955fc118","ios":"levelo://app?vid=62d98d5f-1b24-43c0-ace6-838e955fc118"},"vehicle_type_id":"4","last_reported":1773916143,"current_range_meters":3200,"station_id":"st_d4a3vfp97mjs738cd8kg","pricing_plan_id":"cebpf4jnsgd1na2vs0mg"},{"bike_id":"211e13a4-8553-4cba-bc36-2b4ecae54d77","system_id":"levelo_inurba_marseille","lat":43.2408,"lon":5.37736,"is_reserved":false,"is_disabled":false,"rental_uris":{"android":"levelo://app?vid=211e13a4-8553-4cba-bc36-2b4ecae54d77","ios":"levelo://app?vid=211e13a4-8553-4cba-bc36-2b4ecae54d77"},"vehicle_type_id":"4","last_reported":1773916143,"current_range_meters":3200,"station_id":"ce4bhnp2rcd13ifvqgvg","pricing_plan_id":"cebpf4jnsgd1na2vs0mg"},{"bike_id":"b1678298-3f5b-4e9b-bb34-63fa7c9d9c9c","system_id":"levelo_inurba_marseille","lat":43.2848,"lon":5.48389,"is_reserved":false,"is_disabled":false,"rental_uris":{"android":"levelo://app?vid=b1678298-3f5b-4e9b-bb34-63fa7c9d9c9c","ios":"levelo://app?vid=b1678298-3f5b-4e9b-bb34-63fa7c9d9c9c"},"vehicle_type_id":"4","last_reported":1773916143,"current_range_meters":3200,"station_id":"","pricing_plan_id":"cebpf4jnsgd1na2vs0mg"},{"bike_id":"962b5809-08d5-4f64-9a05-d98be451d928","system_id":"levelo_inurba_marseille","lat":43.26253,"lon":5.374,"is_reserved":false,"is_disabled":false,"rental_uris":{"android":"levelo://app?vid=962b5809-08d5-4f64-9a05-d98be451d928","ios":"levelo://app?vid=962b5809-08d5-4f64-9a05-d98be451d928"},"vehicle_type_id":"4","last_reported":1773916143,"current_range_meters":3200,"station_id":"ce4bhgp2rcd13ifvqfc0","pricing_plan_id":"cebpf4jnsgd1na2vs0mg"},{"bike_id":"641fadc8-18c8-4da9-af42-22c7c4e3360c","system_id":"levelo_inurba_marseille","lat":43.24802,"lon":5.37449,"is_reserved":false,"is_disabled":false,"rental_uris":{"android":"levelo://app?vid=641fadc8-18c8-4da9-af42-22c7c4e3360c","ios":"levelo://app?vid=641fadc8-18c8-4da9-af42-22c7c4e3360c"},"vehicle_type_id":"4","last_reported":1773916143,"current_range_meters":3200,"station_id":"ce4bhgh2rcd13ifvqfb0","pricing_plan_id":"cebpf4jnsgd1na2vs0mg"},{"bike_id":"402ba65f-5b43-4f83-9e49-315b0ef6d822","system_id":"levelo_inurba_marseille","lat":43.26551,"lon":5.37271,"is_reserved":false,"is_disabled":false,"rental_uris":{"android":"levelo://app?vid=402ba65f-5b43-4f83-9e49-315b0ef6d822","ios":"levelo://app?vid=402ba65f-5b43-4f83-9e49-315b0ef6d822"},"vehicle_type_id":"4","last_reported":1773916143,"current_range_meters":3200,"station_id":"ce4bhg12rcd13ifvqf70","pricing_plan_id":"cebpf4jnsgd1na2vs0mg"},{"bike_id":"1dcf282b-2eda-4ce4-bf5d-7fde5ab11233","system_id":"levelo_inurba_marseille","lat":43.28535,"lon":5.44122,"is_reserved":false,"is_disabled":false,"rental_uris":{"android":"levelo://app?vid=1dcf282b-2eda-4ce4-bf5d-7fde5ab11233","ios":"levelo://app?vid=1dcf282b-2eda-4ce4-bf5d-7fde5ab11233"},"vehicle_type_id":"4","last_reported":1773916143,"current_range_meters":3200,"station_id":"st_d3j3df2ikq2c7380ej80","pricing_plan_id":"cebpf4jnsgd1na2vs0mg"},{"bike_id":"7c245f6b-63fb-4c36-8493-afb8fd5288f8","system_id":"levelo_inurba_marseille","lat":43.31217,"lon":5.39121,"is_reserved":false,"is_disabled":false,"rental_uris":{"android":"levelo://app?vid=7c245f6b-63fb-4c36-8493-afb8fd5288f8","ios":"levelo://app?vid=7c245f6b-63fb-4c36-8493-afb8fd5288f8"},"vehicle_type_id":"4","last_reported":1773916143,"current_range_meters":3200,"station_id":"","pricing_plan_id":"cebpf4jnsgd1na2vs0mg"},{"bike_id":"c3ab4da0-3549-4d2a-b466-22aeb33f748c","system_id":"levelo_inurba_marseille","lat":43.29696,"lon":5.36615,"is_reserved":false,"is_disabled":false,"rental_uris":{"android":"levelo://app?vid=c3ab4da0-3549-4d2a-b466-22aeb33f748c","ios":"levelo://app?vid=c3ab4da0-3549-4d2a-b466-22aeb33f748c"},"vehicle_type_id":"4","last_reported":1773916143,"current_range_meters":3200,"station_id":"ce4bgn12rcd13ifvqbt0","pricing_plan_id":"cebpf4jnsgd1na2vs0mg"},{"bike_id":"5032ee4c-643b-4fa7-8a5c-8d5e764831f6","system_id":"levelo_inurba_marseille","lat":43.21739,"lon":5.34604,"is_reserved":false,"is_disabled":false,"rental_uris":{"android":"levelo://app?vid=5032ee4c-643b-4fa7-8a5c-8d5e764831f6","ios":"levelo://app?vid=5032ee4c-643b-4fa7-8a5c-8d5e764831f6"},"vehicle_type_id":"4","last_reported":1773916143,"current_range_meters":3600,"station_id":"st_cvj6r9ubvosntc0bgbag","pricing_plan_id":"cebpf4jnsgd1na2vs0mg"},{"bike_id":"cbc8599d-0f53-4276-b29f-85b323d36cb9","system_id":"levelo_inurba_marseille","lat":43.25503,"lon":5.3766,"is_reserved":false,"is_disabled":false,"rental_uris":{"android":"levelo://app?vid=cbc8599d-0f53-4276-b29f-85b323d36cb9","ios":"levelo://app?vid=cbc8599d-0f53-4276-b29f-85b323d36cb9"},"vehicle_type_id":"4","last_reported":1773916143,"current_range_meters":3600,"station_id":"ce4bhh12rcd13ifvqff0","pricing_plan_id":"cebpf4jnsgd1na2vs0mg"},{"bike_id":"9f7f5c20-c318-4d59-8af6-80423a23c892","system_id":"levelo_inurba_marseille","lat":43.312,"lon":5.36855,"is_reserved":false,"is_disabled":true,"rental_uris":{"android":"levelo://app?vid=9f7f5c20-c318-4d59-8af6-80423a23c892","ios":"levelo://app?vid=9f7f5c20-c318-4d59-8af6-80423a23c892"},"vehicle_type_id":"4","last_reported":1773916143,"current_range_meters":3600,"station_id":"ce4bgl92rcd13ifvqbq0","pricing_plan_id":"cebpf4jnsgd1na2vs0mg"},{"bike_id":"8719a8bd-211a-46f5-92a2-b56ee4431850","system_id":"levelo_inurba_marseille","lat":43.26684,"lon":5.38243,"is_reserved":false,"is_disabled":false,"rental_uris":{"android":"levelo://app?vid=8719a8bd-211a-46f5-92a2-b56ee4431850","ios":"levelo://app?vid=8719a8bd-211a-46f5-92a2-b56ee4431850"},"vehicle_type_id":"4","last_reported":1773916143,"current_range_meters":3600,"station_id":"ce4bhg92rcd13ifvqf90","pricing_plan_id":"cebpf4jnsgd1na2vs0mg"},{"bike_id":"5f48b784-ccd6-4c4d-ba2a-b915cab8937a","system_id":"levelo_inurba_marseille","lat":43.24061,"lon":5.37725,"is_reserved":false,"is_disabled":false,"rental_uris":{"android":"levelo://app?vid=5f48b784-ccd6-4c4d-ba2a-b915cab8937a","ios":"levelo://app?vid=5f48b784-ccd6-4c4d-ba2a-b915cab8937a"},"vehicle_type_id":"4","last_reported":1773916143,"current_range_meters":3600,"station_id":"ce4bhnp2rcd13ifvqgvg","pricing_plan_id":"cebpf4jnsgd1na2vs0mg"},{"bike_id":"34bebab3-8022-40b0-bec9-8bd8a3ab32f0","system_id":"levelo_inurba_marseille","lat":43.28724,"lon":5.36087,"is_reserved":false,"is_disabled":false,"rental_uris":{"android":"levelo://app?vid=34bebab3-8022-40b0-bec9-8bd8a3ab32f0","ios":"levelo://app?vid=34bebab3-8022-40b0-bec9-8bd8a3ab32f0"},"vehicle_type_id":"4","last_reported":1773916143,"current_range_meters":3600,"station_id":"cki0cbj6b192h4jlfktg","pricing_plan_id":"cebpf4jnsgd1na2vs0mg"},{"bike_id":"8ffa06ae-b4c3-4139-b95e-aafe549f6920","system_id":"levelo_inurba_marseille","lat":43.24078,"lon":5.37748,"is_reserved":false,"is_disabled":false,"rental_uris":{"android":"levelo://app?vid=8ffa06ae-b4c3-4139-b95e-aafe549f6920","ios":"levelo://app?vid=8ffa06ae-b4c3-4139-b95e-aafe549f6920"},"vehicle_type_id":"4","last_reported":1773916143,"current_range_meters":3600,"station_id":"ce4bhnp2rcd13ifvqgvg","pricing_plan_id":"cebpf4jnsgd1na2vs0mg"},{"bike_id":"eaa9d3c5-f89d-4396-8235-4030217e81cb","system_id":"levelo_inurba_marseille","lat":43.25455,"lon":5.37672,"is_reserved":false,"is_disabled":false,"rental_uris":{"android":"levelo://app?vid=eaa9d3c5-f89d-4396-8235-4030217e81cb","ios":"levelo://app?vid=eaa9d3c5-f89d-4396-8235-4030217e81cb"},"vehicle_type_id":"4","last_reported":1773916143,"current_range_meters":3600,"station_id":"ce4bhh12rcd13ifvqff0","pricing_plan_id":"cebpf4jnsgd1na2vs0mg"},{"bike_id":"3064287c-8ed3-41e8-93b5-31fa274eed05","system_id":"levelo_inurba_marseille","lat":43.2953,"lon":5.401,"is_reserved":false,"is_disabled":true,"rental_uris":{"android":"levelo://app?vid=3064287c-8ed3-41e8-93b5-31fa274eed05","ios":"levelo://app?vid=3064287c-8ed3-41e8-93b5-31fa274eed05"},"vehicle_type_id":"4","last_reported":1773916143,"current_range_meters":3600,"station_id":"","pricing_plan_id":"cebpf4jnsgd1na2vs0mg"},{"bike_id":"6d14a1ee-3ac3-454c-99d2-786ef3c0f13c","system_id":"levelo_inurba_marseille","lat":43.28266,"lon":5.35062,"is_reserved":false,"is_disabled":false,"rental_uris":{"android":"levelo://app?vid=6d14a1ee-3ac3-454c-99d2-786ef3c0f13c","ios":"levelo://app?vid=6d14a1ee-3ac3-454c-99d2-786ef3c0f13c"},"vehicle_type_id":"4","last_reported":1773916143,"current_range_meters":3600,"station_id":"ce4bhbp2rcd13ifvqerg","pricing_plan_id":"cebpf4jnsgd1na2vs0mg"},{"bike_id":"a39c2269-c1be-4679-b7ec-7b13e4b25bad","system_id":"levelo_inurba_marseille","lat":43.32477,"lon":5.38751,"is_reserved":false,"is_disabled":true,"rental_uris":{"android":"levelo://app?vid=a39c2269-c1be-4679-b7ec-7b13e4b25bad","ios":"levelo://app?vid=a39c2269-c1be-4679-b7ec-7b13e4b25bad"},"vehicle_type_id":"4","last_reported":1773916143,"current_range_meters":3600,"station_id":"","pricing_plan_id":"cebpf4jnsgd1na2vs0mg"},{"bike_id":"e396bb9d-aab8-48a9-8e5e-026c7c109c86","system_id":"levelo_inurba_marseille","lat":43.30954,"lon":5.39049,"is_reserved":false,"is_disabled":false,"rental_uris":{"android":"levelo://app?vid=e396bb9d-aab8-48a9-8e5e-026c7c109c86","ios":"levelo://app?vid=e396bb9d-aab8-48a9-8e5e-026c7c109c86"},"vehicle_type_id":"4","last_reported":1773916143,"current_range_meters":3600,"station_id":"ce4bgup2rcd13ifvqco0","pricing_plan_id":"cebpf4jnsgd1na2vs0mg"},{"bike_id":"779b8a3c-1846-46b5-9cab-bf0ec2b1118f","system_id":"levelo_inurba_marseille","lat":43.28494,"lon":5.48425,"is_reserved":false,"is_disabled":false,"rental_uris":{"android":"levelo://app?vid=779b8a3c-1846-46b5-9cab-bf0ec2b1118f","ios":"levelo://app?vid=779b8a3c-1846-46b5-9cab-bf0ec2b1118f"},"vehicle_type_id":"4","last_reported":1773916143,"current_range_meters":3600,"station_id":"st_d3svhcjqgbts73a3dn0g","pricing_plan_id":"cebpf4jnsgd1na2vs0mg"},{"bike_id":"9ef9fd3b-08e1-41bf-bbd1-087477917b48","system_id":"levelo_inurba_marseille","lat":43.3127,"lon":5.36933,"is_reserved":false,"is_disabled":false,"rental_uris":{"android":"levelo://app?vid=9ef9fd3b-08e1-41bf-bbd1-087477917b48","ios":"levelo://app?vid=9ef9fd3b-08e1-41bf-bbd1-087477917b48"},"vehicle_type_id":"4","last_reported":1773916143,"current_range_meters":4000,"station_id":"ce4bgl92rcd13ifvqbq0","pricing_plan_id":"cebpf4jnsgd1na2vs0mg"},{"bike_id":"ccf4cbaf-a48e-4a3a-bd43-50421be7ff22","system_id":"levelo_inurba_marseille","lat":43.273315,"lon":5.390669,"is_reserved":false,"is_disabled":true,"rental_uris":{"android":"levelo://app?vid=ccf4cbaf-a48e-4a3a-bd43-50421be7ff22","ios":"levelo://app?vid=ccf4cbaf-a48e-4a3a-bd43-50421be7ff22"},"vehicle_type_id":"4","last_reported":1773916143,"current_range_meters":4000,"station_id":"ce4bhgp2rcd13ifvqfe0","pricing_plan_id":"cebpf4jnsgd1na2vs0mg"},{"bike_id":"1b1c91ee-b819-425b-84ab-0a4ba95f3d7d","system_id":"levelo_inurba_marseille","lat":43.3056,"lon":5.36701,"is_reserved":false,"is_disabled":false,"rental_uris":{"android":"levelo://app?vid=1b1c91ee-b819-425b-84ab-0a4ba95f3d7d","ios":"levelo://app?vid=1b1c91ee-b819-425b-84ab-0a4ba95f3d7d"},"vehicle_type_id":"4","last_reported":1773916143,"current_range_meters":4000,"station_id":"ce4bgrp2rcd13ifvqc9g","pricing_plan_id":"cebpf4jnsgd1na2vs0mg"},{"bike_id":"f992aeeb-d813-4a07-b667-bac32cecf243","system_id":"levelo_inurba_marseille","lat":43.28153,"lon":5.42632,"is_reserved":false,"is_disabled":false,"rental_uris":{"android":"levelo://app?vid=f992aeeb-d813-4a07-b667-bac32cecf243","ios":"levelo://app?vid=f992aeeb-d813-4a07-b667-bac32cecf243"},"vehicle_type_id":"4","last_reported":1773916143,"current_range_meters":4000,"station_id":"ce4bhnh2rcd13ifvqgug","pricing_plan_id":"cebpf4jnsgd1na2vs0mg"},{"bike_id":"a9d31829-7e0d-482f-af05-97ddd320ae16","system_id":"levelo_inurba_marseille","lat":43.29821,"lon":5.42681,"is_reserved":false,"is_disabled":true,"rental_uris":{"android":"levelo://app?vid=a9d31829-7e0d-482f-af05-97ddd320ae16","ios":"levelo://app?vid=a9d31829-7e0d-482f-af05-97ddd320ae16"},"vehicle_type_id":"4","last_reported":1773916143,"current_range_meters":4000,"station_id":"","pricing_plan_id":"cebpf4jnsgd1na2vs0mg"},{"bike_id":"0e267261-1216-4822-b26d-f33039eb1f26","system_id":"levelo_inurba_marseille","lat":43.30288,"lon":5.37687,"is_reserved":false,"is_disabled":false,"rental_uris":{"android":"levelo://app?vid=0e267261-1216-4822-b26d-f33039eb1f26","ios":"levelo://app?vid=0e267261-1216-4822-b26d-f33039eb1f26"},"vehicle_type_id":"4","last_reported":1773916143,"current_range_meters":4000,"station_id":"ce4bguh2rcd13ifvqcj0","pricing_plan_id":"cebpf4jnsgd1na2vs0mg"},{"bike_id":"fe5c801f-68be-46bc-a966-92199c3574ea","system_id":"levelo_inurba_marseille","lat":43.28156,"lon":5.42628,"is_reserved":false,"is_disabled":false,"rental_uris":{"android":"levelo://app?vid=fe5c801f-68be-46bc-a966-92199c3574ea","ios":"levelo://app?vid=fe5c801f-68be-46bc-a966-92199c3574ea"},"vehicle_type_id":"4","last_reported":1773916143,"current_range_meters":4000,"station_id":"ce4bhnh2rcd13ifvqgug","pricing_plan_id":"cebpf4jnsgd1na2vs0mg"},{"bike_id":"e107cb22-a13d-4c03-93ce-8114e06b9a0f","system_id":"levelo_inurba_marseille","lat":43.28489,"lon":5.48403,"is_reserved":false,"is_disabled":false,"rental_uris":{"android":"levelo://app?vid=e107cb22-a13d-4c03-93ce-8114e06b9a0f","ios":"levelo://app?vid=e107cb22-a13d-4c03-93ce-8114e06b9a0f"},"vehicle_type_id":"4","last_reported":1773916143,"current_range_meters":4000,"station_id":"","pricing_plan_id":"cebpf4jnsgd1na2vs0mg"},{"bike_id":"c9cfc67c-4e42-4833-b4ab-11ad690d27f6","system_id":"levelo_inurba_marseille","lat":43.33019,"lon":5.39048,"is_reserved":false,"is_disabled":false,"rental_uris":{"android":"levelo://app?vid=c9cfc67c-4e42-4833-b4ab-11ad690d27f6","ios":"levelo://app?vid=c9cfc67c-4e42-4833-b4ab-11ad690d27f6"},"vehicle_type_id":"4","last_reported":1773916143,"current_range_meters":4000,"station_id":"ce4bhr92rcd13ifvqhrg","pricing_plan_id":"cebpf4jnsgd1na2vs0mg"},{"bike_id":"2e2b2a2e-280a-4592-b815-9ff100deb32d","system_id":"levelo_inurba_marseille","lat":43.24166,"lon":5.39708,"is_reserved":false,"is_disabled":false,"rental_uris":{"android":"levelo://app?vid=2e2b2a2e-280a-4592-b815-9ff100deb32d","ios":"levelo://app?vid=2e2b2a2e-280a-4592-b815-9ff100deb32d"},"vehicle_type_id":"4","last_reported":1773916143,"current_range_meters":4000,"station_id":"ce4bhn12rcd13ifvqgpg","pricing_plan_id":"cebpf4jnsgd1na2vs0mg"},{"bike_id":"2d1ddef4-1d7d-416a-8b76-d16fee5f9401","system_id":"levelo_inurba_marseille","lat":43.29966,"lon":5.38496,"is_reserved":false,"is_disabled":false,"rental_uris":{"android":"levelo://app?vid=2d1ddef4-1d7d-416a-8b76-d16fee5f9401","ios":"levelo://app?vid=2d1ddef4-1d7d-416a-8b76-d16fee5f9401"},"vehicle_type_id":"4","last_reported":1773916143,"current_range_meters":4000,"station_id":"ce4bgj92rcd13ifvqbd0","pricing_plan_id":"cebpf4jnsgd1na2vs0mg"},{"bike_id":"768a8c01-41df-42a9-9687-055ac84fde99","system_id":"levelo_inurba_marseille","lat":43.24659,"lon":5.38897,"is_reserved":false,"is_disabled":false,"rental_uris":{"android":"levelo://app?vid=768a8c01-41df-42a9-9687-055ac84fde99","ios":"levelo://app?vid=768a8c01-41df-42a9-9687-055ac84fde99"},"vehicle_type_id":"4","last_reported":1773916143,"current_range_meters":4000,"station_id":"ce4bhg12rcd13ifvqf60","pricing_plan_id":"cebpf4jnsgd1na2vs0mg"},{"bike_id":"5bd8abc7-3678-4a26-92ef-cd8e416f7a05","system_id":"levelo_inurba_marseille","lat":43.30549,"lon":5.36713,"is_reserved":false,"is_disabled":false,"rental_uris":{"android":"levelo://app?vid=5bd8abc7-3678-4a26-92ef-cd8e416f7a05","ios":"levelo://app?vid=5bd8abc7-3678-4a26-92ef-cd8e416f7a05"},"vehicle_type_id":"4","last_reported":1773916143,"current_range_meters":4400,"station_id":"ce4bgrp2rcd13ifvqc9g","pricing_plan_id":"cebpf4jnsgd1na2vs0mg"},{"bike_id":"d99f0ee1-b587-46b2-8fb0-cc9739826889","system_id":"levelo_inurba_marseille","lat":43.291,"lon":5.38137,"is_reserved":false,"is_disabled":false,"rental_uris":{"android":"levelo://app?vid=d99f0ee1-b587-46b2-8fb0-cc9739826889","ios":"levelo://app?vid=d99f0ee1-b587-46b2-8fb0-cc9739826889"},"vehicle_type_id":"4","last_reported":1773916143,"current_range_meters":4400,"station_id":"ce4bh512rcd13ifvqe2g","pricing_plan_id":"cebpf4jnsgd1na2vs0mg"},{"bike_id":"c08a6de1-8ca4-4fb0-8603-5833f7d0ff17","system_id":"levelo_inurba_marseille","lat":43.2648,"lon":5.37323,"is_reserved":false,"is_disabled":false,"rental_uris":{"android":"levelo://app?vid=c08a6de1-8ca4-4fb0-8603-5833f7d0ff17","ios":"levelo://app?vid=c08a6de1-8ca4-4fb0-8603-5833f7d0ff17"},"vehicle_type_id":"4","last_reported":1773916143,"current_range_meters":4400,"station_id":"","pricing_plan_id":"cebpf4jnsgd1na2vs0mg"},{"bike_id":"7b0efb77-a36d-4b09-9823-01304a2aa5c9","system_id":"levelo_inurba_marseille","lat":43.298,"lon":5.37101,"is_reserved":false,"is_disabled":true,"rental_uris":{"android":"levelo://app?vid=7b0efb77-a36d-4b09-9823-01304a2aa5c9","ios":"levelo://app?vid=7b0efb77-a36d-4b09-9823-01304a2aa5c9"},"vehicle_type_id":"4","last_reported":1773916143,"current_range_meters":4400,"station_id":"","pricing_plan_id":"cebpf4jnsgd1na2vs0mg"},{"bike_id":"ad261fab-7885-4780-a277-e4835ccf8740","system_id":"levelo_inurba_marseille","lat":43.291229,"lon":5.386764,"is_reserved":false,"is_disabled":false,"rental_uris":{"android":"levelo://app?vid=ad261fab-7885-4780-a277-e4835ccf8740","ios":"levelo://app?vid=ad261fab-7885-4780-a277-e4835ccf8740"},"vehicle_type_id":"4","last_reported":1773916143,"current_range_meters":4400,"station_id":"cjm6bp8fraef2m0cb0m0","pricing_plan_id":"cebpf4jnsgd1na2vs0mg"},{"bike_id":"8994edd4-23d4-4cca-917d-016f34c00e0e","system_id":"levelo_inurba_marseille","lat":43.2974,"lon":5.37689,"is_reserved":false,"is_disabled":false,"rental_uris":{"android":"levelo://app?vid=8994edd4-23d4-4cca-917d-016f34c00e0e","ios":"levelo://app?vid=8994edd4-23d4-4cca-917d-016f34c00e0e"},"vehicle_type_id":"4","last_reported":1773916143,"current_range_meters":4400,"station_id":"ce4bgkh2rcd13ifvqbl0","pricing_plan_id":"cebpf4jnsgd1na2vs0mg"},{"bike_id":"ec353870-38d4-45b2-8733-694b6044316c","system_id":"levelo_inurba_marseille","lat":43.31043,"lon":5.36562,"is_reserved":false,"is_disabled":false,"rental_uris":{"android":"levelo://app?vid=ec353870-38d4-45b2-8733-694b6044316c","ios":"levelo://app?vid=ec353870-38d4-45b2-8733-694b6044316c"},"vehicle_type_id":"4","last_reported":1773916143,"current_range_meters":4400,"station_id":"","pricing_plan_id":"cebpf4jnsgd1na2vs0mg"},{"bike_id":"4c81a676-e67e-4a1e-a2c6-84b6dffa258f","system_id":"levelo_inurba_marseille","lat":43.31318,"lon":5.36715,"is_reserved":false,"is_disabled":false,"rental_uris":{"android":"levelo://app?vid=4c81a676-e67e-4a1e-a2c6-84b6dffa258f","ios":"levelo://app?vid=4c81a676-e67e-4a1e-a2c6-84b6dffa258f"},"vehicle_type_id":"4","last_reported":1773916143,"current_range_meters":4800,"station_id":"ce4bgr92rcd13ifvqc6g","pricing_plan_id":"cebpf4jnsgd1na2vs0mg"},{"bike_id":"2cd6d2c4-9839-4b08-8d75-805c4c2214dc","system_id":"levelo_inurba_marseille","lat":43.23047,"lon":5.35497,"is_reserved":false,"is_disabled":false,"rental_uris":{"android":"levelo://app?vid=2cd6d2c4-9839-4b08-8d75-805c4c2214dc","ios":"levelo://app?vid=2cd6d2c4-9839-4b08-8d75-805c4c2214dc"},"vehicle_type_id":"4","last_reported":1773916143,"current_range_meters":4800,"station_id":"cpo3342slgdg3j2ifvpg","pricing_plan_id":"cebpf4jnsgd1na2vs0mg"},{"bike_id":"c0ce446a-9085-4968-895d-00725cc652ae","system_id":"levelo_inurba_marseille","lat":43.29545,"lon":5.42291,"is_reserved":false,"is_disabled":false,"rental_uris":{"android":"levelo://app?vid=c0ce446a-9085-4968-895d-00725cc652ae","ios":"levelo://app?vid=c0ce446a-9085-4968-895d-00725cc652ae"},"vehicle_type_id":"4","last_reported":1773916143,"current_range_meters":4800,"station_id":"ce4bhph2rcd13ifvqhdg","pricing_plan_id":"cebpf4jnsgd1na2vs0mg"},{"bike_id":"0fc52acb-5126-4c6d-b775-4f4f53dc4b62","system_id":"levelo_inurba_marseille","lat":43.29033,"lon":5.35917,"is_reserved":false,"is_disabled":false,"rental_uris":{"android":"levelo://app?vid=0fc52acb-5126-4c6d-b775-4f4f53dc4b62","ios":"levelo://app?vid=0fc52acb-5126-4c6d-b775-4f4f53dc4b62"},"vehicle_type_id":"4","last_reported":1773916143,"current_range_meters":4800,"station_id":"ce4bha92rcd13ifvqeg0","pricing_plan_id":"cebpf4jnsgd1na2vs0mg"},{"bike_id":"d0b1f448-6af4-4ef1-a755-e03baf4488aa","system_id":"levelo_inurba_marseille","lat":43.29253,"lon":5.3574,"is_reserved":false,"is_disabled":false,"rental_uris":{"android":"levelo://app?vid=d0b1f448-6af4-4ef1-a755-e03baf4488aa","ios":"levelo://app?vid=d0b1f448-6af4-4ef1-a755-e03baf4488aa"},"vehicle_type_id":"4","last_reported":1773916143,"current_range_meters":4800,"station_id":"","pricing_plan_id":"cebpf4jnsgd1na2vs0mg"},{"bike_id":"fad8e96d-acb2-4874-9608-7180f6b034b8","system_id":"levelo_inurba_marseille","lat":43.29159,"lon":5.40819,"is_reserved":false,"is_disabled":false,"rental_uris":{"android":"levelo://app?vid=fad8e96d-acb2-4874-9608-7180f6b034b8","ios":"levelo://app?vid=fad8e96d-acb2-4874-9608-7180f6b034b8"},"vehicle_type_id":"4","last_reported":1773916143,"current_range_meters":4800,"station_id":"","pricing_plan_id":"cebpf4jnsgd1na2vs0mg"},{"bike_id":"447b11a1-21b5-4523-80dc-ebe593853403","system_id":"levelo_inurba_marseille","lat":43.29364,"lon":5.42678,"is_reserved":false,"is_disabled":false,"rental_uris":{"android":"levelo://app?vid=447b11a1-21b5-4523-80dc-ebe593853403","ios":"levelo://app?vid=447b11a1-21b5-4523-80dc-ebe593853403"},"vehicle_type_id":"4","last_reported":1773916143,"current_range_meters":4800,"station_id":"","pricing_plan_id":"cebpf4jnsgd1na2vs0mg"},{"bike_id":"74807e9c-7061-43ed-a53a-8f5de62805e4","system_id":"levelo_inurba_marseille","lat":43.26365,"lon":5.41086,"is_reserved":false,"is_disabled":false,"rental_uris":{"android":"levelo://app?vid=74807e9c-7061-43ed-a53a-8f5de62805e4","ios":"levelo://app?vid=74807e9c-7061-43ed-a53a-8f5de62805e4"},"vehicle_type_id":"4","last_reported":1773916143,"current_range_meters":5600,"station_id":"st_d4e5ca6na9uc73bfl5fg","pricing_plan_id":"cebpf4jnsgd1na2vs0mg"},{"bike_id":"023876ac-2218-4ff6-98a1-8a684c19ae77","system_id":"levelo_inurba_marseille","lat":43.240797,"lon":5.377532,"is_reserved":false,"is_disabled":false,"rental_uris":{"android":"levelo://app?vid=023876ac-2218-4ff6-98a1-8a684c19ae77","ios":"levelo://app?vid=023876ac-2218-4ff6-98a1-8a684c19ae77"},"vehicle_type_id":"4","last_reported":1773916143,"current_range_meters":5600,"station_id":"ce4bhnp2rcd13ifvqgvg","pricing_plan_id":"cebpf4jnsgd1na2vs0mg"},{"bike_id":"a5a29d95-44c6-4090-b085-479c03e41700","system_id":"levelo_inurba_marseille","lat":43.29724,"lon":5.36597,"is_reserved":false,"is_disabled":false,"rental_uris":{"android":"levelo://app?vid=a5a29d95-44c6-4090-b085-479c03e41700","ios":"levelo://app?vid=a5a29d95-44c6-4090-b085-479c03e41700"},"vehicle_type_id":"4","last_reported":1773916143,"current_range_meters":5600,"station_id":"ce4bgn12rcd13ifvqbt0","pricing_plan_id":"cebpf4jnsgd1na2vs0mg"},{"bike_id":"20efb3b1-4cf9-43ed-8def-69982177d42a","system_id":"levelo_inurba_marseille","lat":43.30173,"lon":5.38086,"is_reserved":false,"is_disabled":false,"rental_uris":{"android":"levelo://app?vid=20efb3b1-4cf9-43ed-8def-69982177d42a","ios":"levelo://app?vid=20efb3b1-4cf9-43ed-8def-69982177d42a"},"vehicle_type_id":"4","last_reported":1773916143,"current_range_meters":5600,"station_id":"ce4bgjp2rcd13ifvqbh0","pricing_plan_id":"cebpf4jnsgd1na2vs0mg"},{"bike_id":"3cf72943-cc22-4ded-a2d4-95065532e33e","system_id":"levelo_inurba_marseille","lat":43.31169,"lon":5.38722,"is_reserved":false,"is_disabled":false,"rental_uris":{"android":"levelo://app?vid=3cf72943-cc22-4ded-a2d4-95065532e33e","ios":"levelo://app?vid=3cf72943-cc22-4ded-a2d4-95065532e33e"},"vehicle_type_id":"4","last_reported":1773916143,"current_range_meters":5600,"station_id":"ce4bgv12rcd13ifvqcp0","pricing_plan_id":"cebpf4jnsgd1na2vs0mg"},{"bike_id":"24d974e5-bba3-4c89-b8a7-c466f3f80f92","system_id":"levelo_inurba_marseille","lat":43.30552,"lon":5.36697,"is_reserved":false,"is_disabled":false,"rental_uris":{"android":"levelo://app?vid=24d974e5-bba3-4c89-b8a7-c466f3f80f92","ios":"levelo://app?vid=24d974e5-bba3-4c89-b8a7-c466f3f80f92"},"vehicle_type_id":"4","last_reported":1773916143,"current_range_meters":5600,"station_id":"ce4bgrp2rcd13ifvqc9g","pricing_plan_id":"cebpf4jnsgd1na2vs0mg"},{"bike_id":"f84b01ca-a305-48c8-abb1-5fe4887deffc","system_id":"levelo_inurba_marseille","lat":43.2316,"lon":5.43697,"is_reserved":false,"is_disabled":false,"rental_uris":{"android":"levelo://app?vid=f84b01ca-a305-48c8-abb1-5fe4887deffc","ios":"levelo://app?vid=f84b01ca-a305-48c8-abb1-5fe4887deffc"},"vehicle_type_id":"4","last_reported":1773916143,"current_range_meters":5600,"station_id":"ce4bhmp2rcd13ifvqgog","pricing_plan_id":"cebpf4jnsgd1na2vs0mg"},{"bike_id":"88db41f5-96f3-4155-a4d0-ecc56f594edb","system_id":"levelo_inurba_marseille","lat":43.22942,"lon":5.35378,"is_reserved":false,"is_disabled":false,"rental_uris":{"android":"levelo://app?vid=88db41f5-96f3-4155-a4d0-ecc56f594edb","ios":"levelo://app?vid=88db41f5-96f3-4155-a4d0-ecc56f594edb"},"vehicle_type_id":"4","last_reported":1773916143,"current_range_meters":5600,"station_id":"cpo3532slgdg3j2ikp40","pricing_plan_id":"cebpf4jnsgd1na2vs0mg"},{"bike_id":"13f6c61f-0c49-477e-b39c-21231e01f55c","system_id":"levelo_inurba_marseille","lat":43.25337,"lon":5.42181,"is_reserved":false,"is_disabled":false,"rental_uris":{"android":"levelo://app?vid=13f6c61f-0c49-477e-b39c-21231e01f55c","ios":"levelo://app?vid=13f6c61f-0c49-477e-b39c-21231e01f55c"},"vehicle_type_id":"4","last_reported":1773916143,"current_range_meters":5600,"station_id":"st_d2m65c5bi1j21697t3ng","pricing_plan_id":"cebpf4jnsgd1na2vs0mg"},{"bike_id":"dc4f41b5-84ea-47ee-92fe-d27b793bc9bd","system_id":"levelo_inurba_marseille","lat":43.29724,"lon":5.36604,"is_reserved":false,"is_disabled":false,"rental_uris":{"android":"levelo://app?vid=dc4f41b5-84ea-47ee-92fe-d27b793bc9bd","ios":"levelo://app?vid=dc4f41b5-84ea-47ee-92fe-d27b793bc9bd"},"vehicle_type_id":"4","last_reported":1773916143,"current_range_meters":6000,"station_id":"ce4bgn12rcd13ifvqbt0","pricing_plan_id":"cebpf4jnsgd1na2vs0mg"},{"bike_id":"3903529a-97cf-43f8-9c3a-f35f9c9bbdf2","system_id":"levelo_inurba_marseille","lat":43.31363,"lon":5.36754,"is_reserved":false,"is_disabled":true,"rental_uris":{"android":"levelo://app?vid=3903529a-97cf-43f8-9c3a-f35f9c9bbdf2","ios":"levelo://app?vid=3903529a-97cf-43f8-9c3a-f35f9c9bbdf2"},"vehicle_type_id":"4","last_reported":1773916143,"current_range_meters":6000,"station_id":"ce4bgr92rcd13ifvqc6g","pricing_plan_id":"cebpf4jnsgd1na2vs0mg"},{"bike_id":"eabf8e41-a27c-4d5b-84c1-d95bcff48f69","system_id":"levelo_inurba_marseille","lat":43.260314,"lon":5.375445,"is_reserved":false,"is_disabled":false,"rental_uris":{"android":"levelo://app?vid=eabf8e41-a27c-4d5b-84c1-d95bcff48f69","ios":"levelo://app?vid=eabf8e41-a27c-4d5b-84c1-d95bcff48f69"},"vehicle_type_id":"4","last_reported":1773916143,"current_range_meters":6000,"station_id":"ce4bhgh2rcd13ifvqfa0","pricing_plan_id":"cebpf4jnsgd1na2vs0mg"},{"bike_id":"1c51670a-46e5-4a0c-9d9c-3c2806d077a8","system_id":"levelo_inurba_marseille","lat":43.29017,"lon":5.38132,"is_reserved":false,"is_disabled":true,"rental_uris":{"android":"levelo://app?vid=1c51670a-46e5-4a0c-9d9c-3c2806d077a8","ios":"levelo://app?vid=1c51670a-46e5-4a0c-9d9c-3c2806d077a8"},"vehicle_type_id":"4","last_reported":1773916143,"current_range_meters":6000,"station_id":"ce4bh4p2rcd13ifvqe1g","pricing_plan_id":"cebpf4jnsgd1na2vs0mg"},{"bike_id":"13ad50bf-7f2f-4ad1-a82f-209db682ff58","system_id":"levelo_inurba_marseille","lat":43.26569,"lon":5.39017,"is_reserved":false,"is_disabled":true,"rental_uris":{"android":"levelo://app?vid=13ad50bf-7f2f-4ad1-a82f-209db682ff58","ios":"levelo://app?vid=13ad50bf-7f2f-4ad1-a82f-209db682ff58"},"vehicle_type_id":"4","last_reported":1773916143,"current_range_meters":6000,"station_id":"ce4bhe12rcd13ifvqf30","pricing_plan_id":"cebpf4jnsgd1na2vs0mg"},{"bike_id":"95d31319-d36d-403e-adf6-0b51cdaa5b1b","system_id":"levelo_inurba_marseille","lat":43.31427,"lon":5.39271,"is_reserved":false,"is_disabled":true,"rental_uris":{"android":"levelo://app?vid=95d31319-d36d-403e-adf6-0b51cdaa5b1b","ios":"levelo://app?vid=95d31319-d36d-403e-adf6-0b51cdaa5b1b"},"vehicle_type_id":"4","last_reported":1773916143,"current_range_meters":6000,"station_id":"","pricing_plan_id":"cebpf4jnsgd1na2vs0mg"},{"bike_id":"8fc815a0-27f7-46c6-94ce-1771649a634a","system_id":"levelo_inurba_marseille","lat":43.29268,"lon":5.36831,"is_reserved":false,"is_disabled":false,"rental_uris":{"android":"levelo://app?vid=8fc815a0-27f7-46c6-94ce-1771649a634a","ios":"levelo://app?vid=8fc815a0-27f7-46c6-94ce-1771649a634a"},"vehicle_type_id":"4","last_reported":1773916143,"current_range_meters":6000,"station_id":"ce4bhbp2rcd13ifvqesg","pricing_plan_id":"cebpf4jnsgd1na2vs0mg"},{"bike_id":"d41e53a8-a9da-425f-853d-d62853a2a056","system_id":"levelo_inurba_marseille","lat":43.29004,"lon":5.35601,"is_reserved":false,"is_disabled":false,"rental_uris":{"android":"levelo://app?vid=d41e53a8-a9da-425f-853d-d62853a2a056","ios":"levelo://app?vid=d41e53a8-a9da-425f-853d-d62853a2a056"},"vehicle_type_id":"4","last_reported":1773916143,"current_range_meters":6000,"station_id":"ce4bhb92rcd13ifvqen0","pricing_plan_id":"cebpf4jnsgd1na2vs0mg"},{"bike_id":"344338ed-4ec5-4c6a-bf8e-883a9ea9d521","system_id":"levelo_inurba_marseille","lat":43.2973,"lon":5.37688,"is_reserved":false,"is_disabled":false,"rental_uris":{"android":"levelo://app?vid=344338ed-4ec5-4c6a-bf8e-883a9ea9d521","ios":"levelo://app?vid=344338ed-4ec5-4c6a-bf8e-883a9ea9d521"},"vehicle_type_id":"4","last_reported":1773916143,"current_range_meters":6000,"station_id":"ce4bgkh2rcd13ifvqbl0","pricing_plan_id":"cebpf4jnsgd1na2vs0mg"},{"bike_id":"dad8e642-31cf-42cb-9956-38b0d6be95d6","system_id":"levelo_inurba_marseille","lat":43.33557,"lon":5.37459,"is_reserved":false,"is_disabled":false,"rental_uris":{"android":"levelo://app?vid=dad8e642-31cf-42cb-9956-38b0d6be95d6","ios":"levelo://app?vid=dad8e642-31cf-42cb-9956-38b0d6be95d6"},"vehicle_type_id":"4","last_reported":1773916143,"current_range_meters":6000,"station_id":"st_d46tts09ee8s73dlu43g","pricing_plan_id":"cebpf4jnsgd1na2vs0mg"},{"bike_id":"1f3c68e2-a055-4fc4-af09-305943663681","system_id":"levelo_inurba_marseille","lat":43.30531,"lon":5.36543,"is_reserved":false,"is_disabled":false,"rental_uris":{"android":"levelo://app?vid=1f3c68e2-a055-4fc4-af09-305943663681","ios":"levelo://app?vid=1f3c68e2-a055-4fc4-af09-305943663681"},"vehicle_type_id":"4","last_reported":1773916143,"current_range_meters":6000,"station_id":"ce4bgs12rcd13ifvqcag","pricing_plan_id":"cebpf4jnsgd1na2vs0mg"},{"bike_id":"d532de73-31b0-408e-96ce-6676e6435a22","system_id":"levelo_inurba_marseille","lat":43.21191,"lon":5.35065,"is_reserved":false,"is_disabled":false,"rental_uris":{"android":"levelo://app?vid=d532de73-31b0-408e-96ce-6676e6435a22","ios":"levelo://app?vid=d532de73-31b0-408e-96ce-6676e6435a22"},"vehicle_type_id":"4","last_reported":1773916143,"current_range_meters":6400,"station_id":"st_cvj6sg6p6f1abm77japg","pricing_plan_id":"cebpf4jnsgd1na2vs0mg"},{"bike_id":"4af9043b-1d8f-4dab-92d9-3aa02d4827c6","system_id":"levelo_inurba_marseille","lat":43.28621,"lon":5.35111,"is_reserved":false,"is_disabled":false,"rental_uris":{"android":"levelo://app?vid=4af9043b-1d8f-4dab-92d9-3aa02d4827c6","ios":"levelo://app?vid=4af9043b-1d8f-4dab-92d9-3aa02d4827c6"},"vehicle_type_id":"4","last_reported":1773916143,"current_range_meters":6400,"station_id":"ce4bhch2rcd13ifvqeug","pricing_plan_id":"cebpf4jnsgd1na2vs0mg"},{"bike_id":"1fdbd032-af28-4158-a02e-01bb107fd2a7","system_id":"levelo_inurba_marseille","lat":43.337444,"lon":5.374475,"is_reserved":false,"is_disabled":false,"rental_uris":{"android":"levelo://app?vid=1fdbd032-af28-4158-a02e-01bb107fd2a7","ios":"levelo://app?vid=1fdbd032-af28-4158-a02e-01bb107fd2a7"},"vehicle_type_id":"4","last_reported":1773916143,"current_range_meters":6400,"station_id":"","pricing_plan_id":"cebpf4jnsgd1na2vs0mg"},{"bike_id":"506661fa-d7d4-473c-8038-c16d45410fe8","system_id":"levelo_inurba_marseille","lat":43.28879,"lon":5.42537,"is_reserved":false,"is_disabled":false,"rental_uris":{"android":"levelo://app?vid=506661fa-d7d4-473c-8038-c16d45410fe8","ios":"levelo://app?vid=506661fa-d7d4-473c-8038-c16d45410fe8"},"vehicle_type_id":"4","last_reported":1773916143,"current_range_meters":6400,"station_id":"","pricing_plan_id":"cebpf4jnsgd1na2vs0mg"},{"bike_id":"0ee4ce16-829f-49ee-9a2a-4b4670dfbc6f","system_id":"levelo_inurba_marseille","lat":43.28465,"lon":5.48388,"is_reserved":false,"is_disabled":false,"rental_uris":{"android":"levelo://app?vid=0ee4ce16-829f-49ee-9a2a-4b4670dfbc6f","ios":"levelo://app?vid=0ee4ce16-829f-49ee-9a2a-4b4670dfbc6f"},"vehicle_type_id":"4","last_reported":1773916143,"current_range_meters":6400,"station_id":"st_d3svhcjqgbts73a3dn0g","pricing_plan_id":"cebpf4jnsgd1na2vs0mg"},{"bike_id":"caf5e45c-f3f2-43eb-99a6-b11ec33451e8","system_id":"levelo_inurba_marseille","lat":43.23979,"lon":5.36628,"is_reserved":false,"is_disabled":false,"rental_uris":{"android":"levelo://app?vid=caf5e45c-f3f2-43eb-99a6-b11ec33451e8","ios":"levelo://app?vid=caf5e45c-f3f2-43eb-99a6-b11ec33451e8"},"vehicle_type_id":"4","last_reported":1773916143,"current_range_meters":6400,"station_id":"ce4bhi12rcd13ifvqfp0","pricing_plan_id":"cebpf4jnsgd1na2vs0mg"},{"bike_id":"65a698aa-a37b-4bbb-aa82-353bd30ec60f","system_id":"levelo_inurba_marseille","lat":43.26929,"lon":5.40275,"is_reserved":false,"is_disabled":false,"rental_uris":{"android":"levelo://app?vid=65a698aa-a37b-4bbb-aa82-353bd30ec60f","ios":"levelo://app?vid=65a698aa-a37b-4bbb-aa82-353bd30ec60f"},"vehicle_type_id":"4","last_reported":1773916143,"current_range_meters":6400,"station_id":"cjm6bp8fraef2m0cb0m0","pricing_plan_id":"cebpf4jnsgd1na2vs0mg"},{"bike_id":"07d60567-2528-4e84-9148-74d1d4501456","system_id":"levelo_inurba_marseille","lat":43.32023,"lon":5.41533,"is_reserved":false,"is_disabled":false,"rental_uris":{"android":"levelo://app?vid=07d60567-2528-4e84-9148-74d1d4501456","ios":"levelo://app?vid=07d60567-2528-4e84-9148-74d1d4501456"},"vehicle_type_id":"4","last_reported":1773916143,"current_range_meters":6400,"station_id":"ce4bhq92rcd13ifvqhkg","pricing_plan_id":"cebpf4jnsgd1na2vs0mg"},{"bike_id":"8ba05a32-429f-4cca-b0db-243fd3786856","system_id":"levelo_inurba_marseille","lat":43.28953,"lon":5.36613,"is_reserved":false,"is_disabled":false,"rental_uris":{"android":"levelo://app?vid=8ba05a32-429f-4cca-b0db-243fd3786856","ios":"levelo://app?vid=8ba05a32-429f-4cca-b0db-243fd3786856"},"vehicle_type_id":"4","last_reported":1773916143,"current_range_meters":6400,"station_id":"ce4bhap2rcd13ifvqek0","pricing_plan_id":"cebpf4jnsgd1na2vs0mg"},{"bike_id":"73e44213-1cd8-4593-a09e-a9c4a914a5d2","system_id":"levelo_inurba_marseille","lat":43.28471,"lon":5.48386,"is_reserved":false,"is_disabled":false,"rental_uris":{"android":"levelo://app?vid=73e44213-1cd8-4593-a09e-a9c4a914a5d2","ios":"levelo://app?vid=73e44213-1cd8-4593-a09e-a9c4a914a5d2"},"vehicle_type_id":"4","last_reported":1773916143,"current_range_meters":6400,"station_id":"","pricing_plan_id":"cebpf4jnsgd1na2vs0mg"},{"bike_id":"dd8390c9-eed9-4b5d-95df-1b40250bc11f","system_id":"levelo_inurba_marseille","lat":43.21619,"lon":5.34558,"is_reserved":false,"is_disabled":false,"rental_uris":{"android":"levelo://app?vid=dd8390c9-eed9-4b5d-95df-1b40250bc11f","ios":"levelo://app?vid=dd8390c9-eed9-4b5d-95df-1b40250bc11f"},"vehicle_type_id":"4","last_reported":1773916143,"current_range_meters":6400,"station_id":"","pricing_plan_id":"cebpf4jnsgd1na2vs0mg"},{"bike_id":"e48e6d48-d180-4130-952c-74c2f53a8488","system_id":"levelo_inurba_marseille","lat":43.28806,"lon":5.36476,"is_reserved":false,"is_disabled":false,"rental_uris":{"android":"levelo://app?vid=e48e6d48-d180-4130-952c-74c2f53a8488","ios":"levelo://app?vid=e48e6d48-d180-4130-952c-74c2f53a8488"},"vehicle_type_id":"4","last_reported":1773916143,"current_range_meters":6800,"station_id":"","pricing_plan_id":"cebpf4jnsgd1na2vs0mg"},{"bike_id":"a918d57a-c48c-4085-ac42-61882623bc55","system_id":"levelo_inurba_marseille","lat":43.24462,"lon":5.42536,"is_reserved":false,"is_disabled":false,"rental_uris":{"android":"levelo://app?vid=a918d57a-c48c-4085-ac42-61882623bc55","ios":"levelo://app?vid=a918d57a-c48c-4085-ac42-61882623bc55"},"vehicle_type_id":"4","last_reported":1773916143,"current_range_meters":6800,"station_id":"st_d4a3vfp97mjs738cd8kg","pricing_plan_id":"cebpf4jnsgd1na2vs0mg"},{"bike_id":"69eb8448-c0e0-496f-831c-8ada77fd31e2","system_id":"levelo_inurba_marseille","lat":43.2306,"lon":5.35487,"is_reserved":false,"is_disabled":false,"rental_uris":{"android":"levelo://app?vid=69eb8448-c0e0-496f-831c-8ada77fd31e2","ios":"levelo://app?vid=69eb8448-c0e0-496f-831c-8ada77fd31e2"},"vehicle_type_id":"4","last_reported":1773916143,"current_range_meters":6800,"station_id":"cpo3342slgdg3j2ifvpg","pricing_plan_id":"cebpf4jnsgd1na2vs0mg"},{"bike_id":"719e9861-af82-4022-a2ea-bd7d6f00ff5f","system_id":"levelo_inurba_marseille","lat":43.2875,"lon":5.42517,"is_reserved":false,"is_disabled":true,"rental_uris":{"android":"levelo://app?vid=719e9861-af82-4022-a2ea-bd7d6f00ff5f","ios":"levelo://app?vid=719e9861-af82-4022-a2ea-bd7d6f00ff5f"},"vehicle_type_id":"4","last_reported":1773916143,"current_range_meters":6800,"station_id":"","pricing_plan_id":"cebpf4jnsgd1na2vs0mg"},{"bike_id":"9e5b0758-5866-4bc4-b8fc-45f7c1c3dd6a","system_id":"levelo_inurba_marseille","lat":43.24808,"lon":5.3746,"is_reserved":false,"is_disabled":false,"rental_uris":{"android":"levelo://app?vid=9e5b0758-5866-4bc4-b8fc-45f7c1c3dd6a","ios":"levelo://app?vid=9e5b0758-5866-4bc4-b8fc-45f7c1c3dd6a"},"vehicle_type_id":"4","last_reported":1773916143,"current_range_meters":6800,"station_id":"ce4bhgh2rcd13ifvqfb0","pricing_plan_id":"cebpf4jnsgd1na2vs0mg"},{"bike_id":"f9cbb5c0-15f3-4ddf-b4f4-fe1b0d0a2d4c","system_id":"levelo_inurba_marseille","lat":43.31184,"lon":5.38725,"is_reserved":false,"is_disabled":false,"rental_uris":{"android":"levelo://app?vid=f9cbb5c0-15f3-4ddf-b4f4-fe1b0d0a2d4c","ios":"levelo://app?vid=f9cbb5c0-15f3-4ddf-b4f4-fe1b0d0a2d4c"},"vehicle_type_id":"4","last_reported":1773916143,"current_range_meters":6800,"station_id":"ce4bgv12rcd13ifvqcp0","pricing_plan_id":"cebpf4jnsgd1na2vs0mg"},{"bike_id":"c630e9fc-07eb-44fb-b665-baf3e779b83f","system_id":"levelo_inurba_marseille","lat":43.28558,"lon":5.44106,"is_reserved":false,"is_disabled":false,"rental_uris":{"android":"levelo://app?vid=c630e9fc-07eb-44fb-b665-baf3e779b83f","ios":"levelo://app?vid=c630e9fc-07eb-44fb-b665-baf3e779b83f"},"vehicle_type_id":"4","last_reported":1773916143,"current_range_meters":6800,"station_id":"st_d3j3df2ikq2c7380ej80","pricing_plan_id":"cebpf4jnsgd1na2vs0mg"},{"bike_id":"09c6bd8c-631e-428d-95ab-99a2c53a3ed5","system_id":"levelo_inurba_marseille","lat":43.27496,"lon":5.41606,"is_reserved":false,"is_disabled":false,"rental_uris":{"android":"levelo://app?vid=09c6bd8c-631e-428d-95ab-99a2c53a3ed5","ios":"levelo://app?vid=09c6bd8c-631e-428d-95ab-99a2c53a3ed5"},"vehicle_type_id":"4","last_reported":1773916143,"current_range_meters":6800,"station_id":"st_d6im8g6chgec73a5pndg","pricing_plan_id":"cebpf4jnsgd1na2vs0mg"},{"bike_id":"8101e18b-77e8-465f-aedf-9e3a128ab51b","system_id":"levelo_inurba_marseille","lat":43.2707,"lon":5.42272,"is_reserved":false,"is_disabled":false,"rental_uris":{"android":"levelo://app?vid=8101e18b-77e8-465f-aedf-9e3a128ab51b","ios":"levelo://app?vid=8101e18b-77e8-465f-aedf-9e3a128ab51b"},"vehicle_type_id":"4","last_reported":1773916143,"current_range_meters":6800,"station_id":"ce4bhk92rcd13ifvqgb0","pricing_plan_id":"cebpf4jnsgd1na2vs0mg"},{"bike_id":"28025302-46d2-4169-9ce9-8e064c7a81fd","system_id":"levelo_inurba_marseille","lat":43.26373,"lon":5.41065,"is_reserved":false,"is_disabled":true,"rental_uris":{"android":"levelo://app?vid=28025302-46d2-4169-9ce9-8e064c7a81fd","ios":"levelo://app?vid=28025302-46d2-4169-9ce9-8e064c7a81fd"},"vehicle_type_id":"4","last_reported":1773916143,"current_range_meters":6800,"station_id":"","pricing_plan_id":"cebpf4jnsgd1na2vs0mg"},{"bike_id":"78c86868-a79f-4f2a-bb9a-961b0f22d36b","system_id":"levelo_inurba_marseille","lat":43.30005,"lon":5.3861,"is_reserved":false,"is_disabled":false,"rental_uris":{"android":"levelo://app?vid=78c86868-a79f-4f2a-bb9a-961b0f22d36b","ios":"levelo://app?vid=78c86868-a79f-4f2a-bb9a-961b0f22d36b"},"vehicle_type_id":"4","last_reported":1773916143,"current_range_meters":6800,"station_id":"","pricing_plan_id":"cebpf4jnsgd1na2vs0mg"},{"bike_id":"0f0f3f3e-0b16-46b6-a723-9cf6c82a3bfc","system_id":"levelo_inurba_marseille","lat":43.27532,"lon":5.41582,"is_reserved":false,"is_disabled":false,"rental_uris":{"android":"levelo://app?vid=0f0f3f3e-0b16-46b6-a723-9cf6c82a3bfc","ios":"levelo://app?vid=0f0f3f3e-0b16-46b6-a723-9cf6c82a3bfc"},"vehicle_type_id":"4","last_reported":1773916143,"current_range_meters":6800,"station_id":"st_d6im8g6chgec73a5pndg","pricing_plan_id":"cebpf4jnsgd1na2vs0mg"},{"bike_id":"e0805bea-0bf9-4836-99e3-9dd0fe5c6206","system_id":"levelo_inurba_marseille","lat":43.25734,"lon":5.41098,"is_reserved":false,"is_disabled":false,"rental_uris":{"android":"levelo://app?vid=e0805bea-0bf9-4836-99e3-9dd0fe5c6206","ios":"levelo://app?vid=e0805bea-0bf9-4836-99e3-9dd0fe5c6206"},"vehicle_type_id":"4","last_reported":1773916143,"current_range_meters":6800,"station_id":"ce4bhkp2rcd13ifvqgd0","pricing_plan_id":"cebpf4jnsgd1na2vs0mg"},{"bike_id":"0f42f4a8-e174-4f86-98bf-0bc52380dee9","system_id":"levelo_inurba_marseille","lat":43.2619,"lon":5.37455,"is_reserved":false,"is_disabled":false,"rental_uris":{"android":"levelo://app?vid=0f42f4a8-e174-4f86-98bf-0bc52380dee9","ios":"levelo://app?vid=0f42f4a8-e174-4f86-98bf-0bc52380dee9"},"vehicle_type_id":"4","last_reported":1773916143,"current_range_meters":6800,"station_id":"","pricing_plan_id":"cebpf4jnsgd1na2vs0mg"},{"bike_id":"0c506fac-9822-4d55-93b9-ec283cf22639","system_id":"levelo_inurba_marseille","lat":43.26834,"lon":5.4045,"is_reserved":false,"is_disabled":false,"rental_uris":{"android":"levelo://app?vid=0c506fac-9822-4d55-93b9-ec283cf22639","ios":"levelo://app?vid=0c506fac-9822-4d55-93b9-ec283cf22639"},"vehicle_type_id":"4","last_reported":1773916143,"current_range_meters":6800,"station_id":"","pricing_plan_id":"cebpf4jnsgd1na2vs0mg"},{"bike_id":"15f9bd73-909c-4a2b-ba3f-5b0c85825528","system_id":"levelo_inurba_marseille","lat":43.30152,"lon":5.38089,"is_reserved":false,"is_disabled":false,"rental_uris":{"android":"levelo://app?vid=15f9bd73-909c-4a2b-ba3f-5b0c85825528","ios":"levelo://app?vid=15f9bd73-909c-4a2b-ba3f-5b0c85825528"},"vehicle_type_id":"4","last_reported":1773916143,"current_range_meters":7200,"station_id":"ce4bgjp2rcd13ifvqbh0","pricing_plan_id":"cebpf4jnsgd1na2vs0mg"},{"bike_id":"2f0354fc-31aa-4398-9c3e-f0f50b7b2184","system_id":"levelo_inurba_marseille","lat":43.24213,"lon":5.39728,"is_reserved":false,"is_disabled":false,"rental_uris":{"android":"levelo://app?vid=2f0354fc-31aa-4398-9c3e-f0f50b7b2184","ios":"levelo://app?vid=2f0354fc-31aa-4398-9c3e-f0f50b7b2184"},"vehicle_type_id":"4","last_reported":1773916143,"current_range_meters":7200,"station_id":"ce4bhn12rcd13ifvqgpg","pricing_plan_id":"cebpf4jnsgd1na2vs0mg"},{"bike_id":"f7e79517-161a-451a-8a95-bb710b1b4d21","system_id":"levelo_inurba_marseille","lat":43.2985,"lon":5.37899,"is_reserved":false,"is_disabled":false,"rental_uris":{"android":"levelo://app?vid=f7e79517-161a-451a-8a95-bb710b1b4d21","ios":"levelo://app?vid=f7e79517-161a-451a-8a95-bb710b1b4d21"},"vehicle_type_id":"4","last_reported":1773916143,"current_range_meters":7200,"station_id":"","pricing_plan_id":"cebpf4jnsgd1na2vs0mg"},{"bike_id":"8416a38b-1876-43fb-889a-b56394972d6d","system_id":"levelo_inurba_marseille","lat":43.26205,"lon":5.3745,"is_reserved":false,"is_disabled":false,"rental_uris":{"android":"levelo://app?vid=8416a38b-1876-43fb-889a-b56394972d6d","ios":"levelo://app?vid=8416a38b-1876-43fb-889a-b56394972d6d"},"vehicle_type_id":"4","last_reported":1773916143,"current_range_meters":7200,"station_id":"ce4bhgp2rcd13ifvqfc0","pricing_plan_id":"cebpf4jnsgd1na2vs0mg"},{"bike_id":"8c29270d-5d11-446e-a3f0-f5c56ae9c816","system_id":"levelo_inurba_marseille","lat":43.276,"lon":5.43325,"is_reserved":false,"is_disabled":false,"rental_uris":{"android":"levelo://app?vid=8c29270d-5d11-446e-a3f0-f5c56ae9c816","ios":"levelo://app?vid=8c29270d-5d11-446e-a3f0-f5c56ae9c816"},"vehicle_type_id":"4","last_reported":1773916143,"current_range_meters":7200,"station_id":"","pricing_plan_id":"cebpf4jnsgd1na2vs0mg"},{"bike_id":"ef4d97a8-b27e-4ee9-b1dd-4c9b85711d4a","system_id":"levelo_inurba_marseille","lat":43.24398,"lon":5.37065,"is_reserved":false,"is_disabled":false,"rental_uris":{"android":"levelo://app?vid=ef4d97a8-b27e-4ee9-b1dd-4c9b85711d4a","ios":"levelo://app?vid=ef4d97a8-b27e-4ee9-b1dd-4c9b85711d4a"},"vehicle_type_id":"4","last_reported":1773916143,"current_range_meters":7200,"station_id":"ce4bhhh2rcd13ifvqfk0","pricing_plan_id":"cebpf4jnsgd1na2vs0mg"},{"bike_id":"f37d48c6-67cd-4b47-aa2a-06d746f64f02","system_id":"levelo_inurba_marseille","lat":43.23869,"lon":5.37389,"is_reserved":false,"is_disabled":false,"rental_uris":{"android":"levelo://app?vid=f37d48c6-67cd-4b47-aa2a-06d746f64f02","ios":"levelo://app?vid=f37d48c6-67cd-4b47-aa2a-06d746f64f02"},"vehicle_type_id":"4","last_reported":1773916143,"current_range_meters":7200,"station_id":"","pricing_plan_id":"cebpf4jnsgd1na2vs0mg"},{"bike_id":"1b59590e-e328-4e92-856f-c235b636532c","system_id":"levelo_inurba_marseille","lat":43.3033,"lon":5.36881,"is_reserved":false,"is_disabled":false,"rental_uris":{"android":"levelo://app?vid=1b59590e-e328-4e92-856f-c235b636532c","ios":"levelo://app?vid=1b59590e-e328-4e92-856f-c235b636532c"},"vehicle_type_id":"4","last_reported":1773916143,"current_range_meters":7200,"station_id":"ce4bgqh2rcd13ifvqc5g","pricing_plan_id":"cebpf4jnsgd1na2vs0mg"},{"bike_id":"a78d199e-428a-48f2-8df0-3f442b13abd8","system_id":"levelo_inurba_marseille","lat":43.28943,"lon":5.3642,"is_reserved":false,"is_disabled":false,"rental_uris":{"android":"levelo://app?vid=a78d199e-428a-48f2-8df0-3f442b13abd8","ios":"levelo://app?vid=a78d199e-428a-48f2-8df0-3f442b13abd8"},"vehicle_type_id":"4","last_reported":1773916143,"current_range_meters":7200,"station_id":"ce4bhc92rcd13ifvqetg","pricing_plan_id":"cebpf4jnsgd1na2vs0mg"},{"bike_id":"6b34691b-634c-45bb-ae86-7dac68151343","system_id":"levelo_inurba_marseille","lat":43.26681,"lon":5.38237,"is_reserved":false,"is_disabled":false,"rental_uris":{"android":"levelo://app?vid=6b34691b-634c-45bb-ae86-7dac68151343","ios":"levelo://app?vid=6b34691b-634c-45bb-ae86-7dac68151343"},"vehicle_type_id":"4","last_reported":1773916143,"current_range_meters":7200,"station_id":"ce4bhg92rcd13ifvqf90","pricing_plan_id":"cebpf4jnsgd1na2vs0mg"},{"bike_id":"bb6e085c-850c-41bd-94ff-d8239f9c9e15","system_id":"levelo_inurba_marseille","lat":43.23149,"lon":5.43731,"is_reserved":false,"is_disabled":false,"rental_uris":{"android":"levelo://app?vid=bb6e085c-850c-41bd-94ff-d8239f9c9e15","ios":"levelo://app?vid=bb6e085c-850c-41bd-94ff-d8239f9c9e15"},"vehicle_type_id":"4","last_reported":1773916143,"current_range_meters":7200,"station_id":"ce4bhmp2rcd13ifvqgog","pricing_plan_id":"cebpf4jnsgd1na2vs0mg"},{"bike_id":"a7bb5d96-ee51-47cb-86cd-3509fdd747ea","system_id":"levelo_inurba_marseille","lat":43.23795,"lon":5.36634,"is_reserved":false,"is_disabled":false,"rental_uris":{"android":"levelo://app?vid=a7bb5d96-ee51-47cb-86cd-3509fdd747ea","ios":"levelo://app?vid=a7bb5d96-ee51-47cb-86cd-3509fdd747ea"},"vehicle_type_id":"4","last_reported":1773916143,"current_range_meters":7200,"station_id":"st_d3nk18o9ro0c73en2l3g","pricing_plan_id":"cebpf4jnsgd1na2vs0mg"},{"bike_id":"fa8725db-9407-4cb4-9c72-5633d2917751","system_id":"levelo_inurba_marseille","lat":43.24076,"lon":5.37746,"is_reserved":false,"is_disabled":false,"rental_uris":{"android":"levelo://app?vid=fa8725db-9407-4cb4-9c72-5633d2917751","ios":"levelo://app?vid=fa8725db-9407-4cb4-9c72-5633d2917751"},"vehicle_type_id":"4","last_reported":1773916143,"current_range_meters":8000,"station_id":"ce4bhnp2rcd13ifvqgvg","pricing_plan_id":"cebpf4jnsgd1na2vs0mg"},{"bike_id":"f8002e32-7d40-48f8-99b3-a631b985eba5","system_id":"levelo_inurba_marseille","lat":43.337566,"lon":5.374557,"is_reserved":false,"is_disabled":false,"rental_uris":{"android":"levelo://app?vid=f8002e32-7d40-48f8-99b3-a631b985eba5","ios":"levelo://app?vid=f8002e32-7d40-48f8-99b3-a631b985eba5"},"vehicle_type_id":"4","last_reported":1773916143,"current_range_meters":8000,"station_id":"","pricing_plan_id":"cebpf4jnsgd1na2vs0mg"},{"bike_id":"24dc1ce5-2db6-421b-869a-69d6f082b300","system_id":"levelo_inurba_marseille","lat":43.29804,"lon":5.36192,"is_reserved":false,"is_disabled":false,"rental_uris":{"android":"levelo://app?vid=24dc1ce5-2db6-421b-869a-69d6f082b300","ios":"levelo://app?vid=24dc1ce5-2db6-421b-869a-69d6f082b300"},"vehicle_type_id":"4","last_reported":1773916143,"current_range_meters":8000,"station_id":"","pricing_plan_id":"cebpf4jnsgd1na2vs0mg"},{"bike_id":"04b3c352-6662-4d85-9cdb-e58baf38ee9f","system_id":"levelo_inurba_marseille","lat":43.33551,"lon":5.37459,"is_reserved":false,"is_disabled":false,"rental_uris":{"android":"levelo://app?vid=04b3c352-6662-4d85-9cdb-e58baf38ee9f","ios":"levelo://app?vid=04b3c352-6662-4d85-9cdb-e58baf38ee9f"},"vehicle_type_id":"4","last_reported":1773916143,"current_range_meters":8000,"station_id":"st_d46tts09ee8s73dlu43g","pricing_plan_id":"cebpf4jnsgd1na2vs0mg"},{"bike_id":"bd60a6ec-18d4-4476-ab1b-f354043c4b72","system_id":"levelo_inurba_marseille","lat":43.29811,"lon":5.42659,"is_reserved":false,"is_disabled":false,"rental_uris":{"android":"levelo://app?vid=bd60a6ec-18d4-4476-ab1b-f354043c4b72","ios":"levelo://app?vid=bd60a6ec-18d4-4476-ab1b-f354043c4b72"},"vehicle_type_id":"4","last_reported":1773916143,"current_range_meters":8000,"station_id":"","pricing_plan_id":"cebpf4jnsgd1na2vs0mg"},{"bike_id":"081a0881-89b6-4aec-8d87-38fd39de8439","system_id":"levelo_inurba_marseille","lat":43.28561,"lon":5.44093,"is_reserved":false,"is_disabled":false,"rental_uris":{"android":"levelo://app?vid=081a0881-89b6-4aec-8d87-38fd39de8439","ios":"levelo://app?vid=081a0881-89b6-4aec-8d87-38fd39de8439"},"vehicle_type_id":"4","last_reported":1773916143,"current_range_meters":8000,"station_id":"st_d3j3df2ikq2c7380ej80","pricing_plan_id":"cebpf4jnsgd1na2vs0mg"},{"bike_id":"e9fe7d04-bf5f-4df4-bad1-de71643c35a7","system_id":"levelo_inurba_marseille","lat":43.22937,"lon":5.35378,"is_reserved":false,"is_disabled":false,"rental_uris":{"android":"levelo://app?vid=e9fe7d04-bf5f-4df4-bad1-de71643c35a7","ios":"levelo://app?vid=e9fe7d04-bf5f-4df4-bad1-de71643c35a7"},"vehicle_type_id":"4","last_reported":1773916143,"current_range_meters":8000,"station_id":"cpo3532slgdg3j2ikp40","pricing_plan_id":"cebpf4jnsgd1na2vs0mg"},{"bike_id":"6b218720-7d53-4c1e-b1c9-5dbfa513b086","system_id":"levelo_inurba_marseille","lat":43.23965,"lon":5.36583,"is_reserved":false,"is_disabled":false,"rental_uris":{"android":"levelo://app?vid=6b218720-7d53-4c1e-b1c9-5dbfa513b086","ios":"levelo://app?vid=6b218720-7d53-4c1e-b1c9-5dbfa513b086"},"vehicle_type_id":"4","last_reported":1773916143,"current_range_meters":8000,"station_id":"ce4bhi12rcd13ifvqfp0","pricing_plan_id":"cebpf4jnsgd1na2vs0mg"},{"bike_id":"0effcb86-530f-422c-9f0e-4d242751570e","system_id":"levelo_inurba_marseille","lat":43.30543,"lon":5.3669,"is_reserved":false,"is_disabled":false,"rental_uris":{"android":"levelo://app?vid=0effcb86-530f-422c-9f0e-4d242751570e","ios":"levelo://app?vid=0effcb86-530f-422c-9f0e-4d242751570e"},"vehicle_type_id":"4","last_reported":1773916143,"current_range_meters":8000,"station_id":"ce4bgrp2rcd13ifvqc9g","pricing_plan_id":"cebpf4jnsgd1na2vs0mg"},{"bike_id":"a7589a93-7e92-46e3-9adb-33c382fc7b2d","system_id":"levelo_inurba_marseille","lat":43.23971,"lon":5.36613,"is_reserved":false,"is_disabled":false,"rental_uris":{"android":"levelo://app?vid=a7589a93-7e92-46e3-9adb-33c382fc7b2d","ios":"levelo://app?vid=a7589a93-7e92-46e3-9adb-33c382fc7b2d"},"vehicle_type_id":"4","last_reported":1773916143,"current_range_meters":8000,"station_id":"ce4bhi12rcd13ifvqfp0","pricing_plan_id":"cebpf4jnsgd1na2vs0mg"},{"bike_id":"0f988d7c-199c-45b5-ba6e-7ba5bd7d524c","system_id":"levelo_inurba_marseille","lat":43.30786,"lon":5.37634,"is_reserved":false,"is_disabled":false,"rental_uris":{"android":"levelo://app?vid=0f988d7c-199c-45b5-ba6e-7ba5bd7d524c","ios":"levelo://app?vid=0f988d7c-199c-45b5-ba6e-7ba5bd7d524c"},"vehicle_type_id":"4","last_reported":1773916143,"current_range_meters":8000,"station_id":"ce4bgv92rcd13ifvqcq0","pricing_plan_id":"cebpf4jnsgd1na2vs0mg"},{"bike_id":"e18b6542-77b8-4370-b130-fb6c310e76b9","system_id":"levelo_inurba_marseille","lat":43.2842,"lon":5.34966,"is_reserved":false,"is_disabled":false,"rental_uris":{"android":"levelo://app?vid=e18b6542-77b8-4370-b130-fb6c310e76b9","ios":"levelo://app?vid=e18b6542-77b8-4370-b130-fb6c310e76b9"},"vehicle_type_id":"4","last_reported":1773916143,"current_range_meters":8000,"station_id":"ce4bhbh2rcd13ifvqepg","pricing_plan_id":"cebpf4jnsgd1na2vs0mg"},{"bike_id":"d7cc9cd7-46ef-4981-92c7-f3a42c45e97c","system_id":"levelo_inurba_marseille","lat":43.25949,"lon":5.40867,"is_reserved":false,"is_disabled":false,"rental_uris":{"android":"levelo://app?vid=d7cc9cd7-46ef-4981-92c7-f3a42c45e97c","ios":"levelo://app?vid=d7cc9cd7-46ef-4981-92c7-f3a42c45e97c"},"vehicle_type_id":"4","last_reported":1773916143,"current_range_meters":8000,"station_id":"ce4bhm92rcd13ifvqglg","pricing_plan_id":"cebpf4jnsgd1na2vs0mg"},{"bike_id":"a11c8cfa-453a-4892-a974-6a22bafa8290","system_id":"levelo_inurba_marseille","lat":43.23195,"lon":5.35546,"is_reserved":false,"is_disabled":false,"rental_uris":{"android":"levelo://app?vid=a11c8cfa-453a-4892-a974-6a22bafa8290","ios":"levelo://app?vid=a11c8cfa-453a-4892-a974-6a22bafa8290"},"vehicle_type_id":"4","last_reported":1773916143,"current_range_meters":8400,"station_id":"ce4bhu92rcd13ifvqi70","pricing_plan_id":"cebpf4jnsgd1na2vs0mg"},{"bike_id":"13ece891-29b9-4ae9-a4c4-ae3da55ec954","system_id":"levelo_inurba_marseille","lat":43.23196,"lon":5.35544,"is_reserved":false,"is_disabled":false,"rental_uris":{"android":"levelo://app?vid=13ece891-29b9-4ae9-a4c4-ae3da55ec954","ios":"levelo://app?vid=13ece891-29b9-4ae9-a4c4-ae3da55ec954"},"vehicle_type_id":"4","last_reported":1773916143,"current_range_meters":8400,"station_id":"ce4bhu92rcd13ifvqi70","pricing_plan_id":"cebpf4jnsgd1na2vs0mg"},{"bike_id":"864f588c-6c9a-47f2-bf8a-559a5ddb02ea","system_id":"levelo_inurba_marseille","lat":43.32103,"lon":5.36777,"is_reserved":false,"is_disabled":false,"rental_uris":{"android":"levelo://app?vid=864f588c-6c9a-47f2-bf8a-559a5ddb02ea","ios":"levelo://app?vid=864f588c-6c9a-47f2-bf8a-559a5ddb02ea"},"vehicle_type_id":"4","last_reported":1773916143,"current_range_meters":8400,"station_id":"ce4bhrh2rcd13ifvqhug","pricing_plan_id":"cebpf4jnsgd1na2vs0mg"},{"bike_id":"7603f9a5-a91f-4dd4-884d-ad1569e71bd2","system_id":"levelo_inurba_marseille","lat":43.31031,"lon":5.37179,"is_reserved":false,"is_disabled":false,"rental_uris":{"android":"levelo://app?vid=7603f9a5-a91f-4dd4-884d-ad1569e71bd2","ios":"levelo://app?vid=7603f9a5-a91f-4dd4-884d-ad1569e71bd2"},"vehicle_type_id":"4","last_reported":1773916143,"current_range_meters":8400,"station_id":"st_d4kl2rp97mjs73e7tdfg","pricing_plan_id":"cebpf4jnsgd1na2vs0mg"},{"bike_id":"246116f5-3d79-44ba-8658-b8f1bbaeb3d6","system_id":"levelo_inurba_marseille","lat":43.299807,"lon":5.371855,"is_reserved":false,"is_disabled":true,"rental_uris":{"android":"levelo://app?vid=246116f5-3d79-44ba-8658-b8f1bbaeb3d6","ios":"levelo://app?vid=246116f5-3d79-44ba-8658-b8f1bbaeb3d6"},"vehicle_type_id":"4","last_reported":1773916143,"current_range_meters":8400,"station_id":"ce4bgr92rcd13ifvqc7g","pricing_plan_id":"cebpf4jnsgd1na2vs0mg"},{"bike_id":"347a0133-45d3-4213-ae48-606f4453bbf3","system_id":"levelo_inurba_marseille","lat":43.23058,"lon":5.35493,"is_reserved":false,"is_disabled":false,"rental_uris":{"android":"levelo://app?vid=347a0133-45d3-4213-ae48-606f4453bbf3","ios":"levelo://app?vid=347a0133-45d3-4213-ae48-606f4453bbf3"},"vehicle_type_id":"4","last_reported":1773916143,"current_range_meters":8400,"station_id":"cpo3342slgdg3j2ifvpg","pricing_plan_id":"cebpf4jnsgd1na2vs0mg"},{"bike_id":"48d56448-be59-46a7-88f4-1b7e52e63b27","system_id":"levelo_inurba_marseille","lat":43.31037,"lon":5.37172,"is_reserved":false,"is_disabled":false,"rental_uris":{"android":"levelo://app?vid=48d56448-be59-46a7-88f4-1b7e52e63b27","ios":"levelo://app?vid=48d56448-be59-46a7-88f4-1b7e52e63b27"},"vehicle_type_id":"4","last_reported":1773916143,"current_range_meters":8400,"station_id":"st_d4kl2rp97mjs73e7tdfg","pricing_plan_id":"cebpf4jnsgd1na2vs0mg"},{"bike_id":"08fc3c5d-1001-4b26-87a3-2f0e44438f4d","system_id":"levelo_inurba_marseille","lat":43.24683,"lon":5.38157,"is_reserved":false,"is_disabled":false,"rental_uris":{"android":"levelo://app?vid=08fc3c5d-1001-4b26-87a3-2f0e44438f4d","ios":"levelo://app?vid=08fc3c5d-1001-4b26-87a3-2f0e44438f4d"},"vehicle_type_id":"4","last_reported":1773916143,"current_range_meters":8400,"station_id":"ce4bhih2rcd13ifvqfr0","pricing_plan_id":"cebpf4jnsgd1na2vs0mg"},{"bike_id":"567c9daf-1f5d-4f82-92be-3f75190f631a","system_id":"levelo_inurba_marseille","lat":43.28979,"lon":5.37835,"is_reserved":false,"is_disabled":false,"rental_uris":{"android":"levelo://app?vid=567c9daf-1f5d-4f82-92be-3f75190f631a","ios":"levelo://app?vid=567c9daf-1f5d-4f82-92be-3f75190f631a"},"vehicle_type_id":"4","last_reported":1773916143,"current_range_meters":8400,"station_id":"ce4bh9p2rcd13ifvqed0","pricing_plan_id":"cebpf4jnsgd1na2vs0mg"},{"bike_id":"01327159-dc60-4c7d-91d8-87905456ae8f","system_id":"levelo_inurba_marseille","lat":43.26369,"lon":5.41081,"is_reserved":false,"is_disabled":false,"rental_uris":{"android":"levelo://app?vid=01327159-dc60-4c7d-91d8-87905456ae8f","ios":"levelo://app?vid=01327159-dc60-4c7d-91d8-87905456ae8f"},"vehicle_type_id":"4","last_reported":1773916143,"current_range_meters":8400,"station_id":"st_d4e5ca6na9uc73bfl5fg","pricing_plan_id":"cebpf4jnsgd1na2vs0mg"},{"bike_id":"1b4239d0-da8e-4730-aa6a-f53636713429","system_id":"levelo_inurba_marseille","lat":43.30941,"lon":5.40127,"is_reserved":false,"is_disabled":false,"rental_uris":{"android":"levelo://app?vid=1b4239d0-da8e-4730-aa6a-f53636713429","ios":"levelo://app?vid=1b4239d0-da8e-4730-aa6a-f53636713429"},"vehicle_type_id":"4","last_reported":1773916143,"current_range_meters":8400,"station_id":"ce4bgvp2rcd13ifvqct0","pricing_plan_id":"cebpf4jnsgd1na2vs0mg"},{"bike_id":"dd10efc5-28b9-436a-be78-8011941e89fc","system_id":"levelo_inurba_marseille","lat":43.28484,"lon":5.48397,"is_reserved":false,"is_disabled":false,"rental_uris":{"android":"levelo://app?vid=dd10efc5-28b9-436a-be78-8011941e89fc","ios":"levelo://app?vid=dd10efc5-28b9-436a-be78-8011941e89fc"},"vehicle_type_id":"4","last_reported":1773916143,"current_range_meters":8400,"station_id":"st_d3svhcjqgbts73a3dn0g","pricing_plan_id":"cebpf4jnsgd1na2vs0mg"},{"bike_id":"6c1bba4a-dad8-40c3-a3c8-46d0efdfcbbe","system_id":"levelo_inurba_marseille","lat":43.23894,"lon":5.3747,"is_reserved":false,"is_disabled":false,"rental_uris":{"android":"levelo://app?vid=6c1bba4a-dad8-40c3-a3c8-46d0efdfcbbe","ios":"levelo://app?vid=6c1bba4a-dad8-40c3-a3c8-46d0efdfcbbe"},"vehicle_type_id":"4","last_reported":1773916143,"current_range_meters":8400,"station_id":"st_d6sm7csbq4hs73f8fpjg","pricing_plan_id":"cebpf4jnsgd1na2vs0mg"},{"bike_id":"c4b1b273-2256-4b3b-bfb4-afbeec495dd8","system_id":"levelo_inurba_marseille","lat":43.28836,"lon":5.39317,"is_reserved":false,"is_disabled":false,"rental_uris":{"android":"levelo://app?vid=c4b1b273-2256-4b3b-bfb4-afbeec495dd8","ios":"levelo://app?vid=c4b1b273-2256-4b3b-bfb4-afbeec495dd8"},"vehicle_type_id":"4","last_reported":1773916143,"current_range_meters":8400,"station_id":"ce4bh2p2rcd13ifvqdi0","pricing_plan_id":"cebpf4jnsgd1na2vs0mg"},{"bike_id":"47b958a5-a9e9-4494-8472-abb0f760256b","system_id":"levelo_inurba_marseille","lat":43.23784,"lon":5.36633,"is_reserved":false,"is_disabled":false,"rental_uris":{"android":"levelo://app?vid=47b958a5-a9e9-4494-8472-abb0f760256b","ios":"levelo://app?vid=47b958a5-a9e9-4494-8472-abb0f760256b"},"vehicle_type_id":"4","last_reported":1773916143,"current_range_meters":8400,"station_id":"st_d3nk18o9ro0c73en2l3g","pricing_plan_id":"cebpf4jnsgd1na2vs0mg"},{"bike_id":"90183753-1953-46c9-b31f-f8e71d370711","system_id":"levelo_inurba_marseille","lat":43.26815,"lon":5.39381,"is_reserved":false,"is_disabled":false,"rental_uris":{"android":"levelo://app?vid=90183753-1953-46c9-b31f-f8e71d370711","ios":"levelo://app?vid=90183753-1953-46c9-b31f-f8e71d370711"},"vehicle_type_id":"4","last_reported":1773916143,"current_range_meters":8400,"station_id":"ce4bhh12rcd13ifvqfg0","pricing_plan_id":"cebpf4jnsgd1na2vs0mg"},{"bike_id":"d51fe815-5335-4e1f-8e42-efe91c7e85aa","system_id":"levelo_inurba_marseille","lat":43.22943,"lon":5.3538,"is_reserved":false,"is_disabled":false,"rental_uris":{"android":"levelo://app?vid=d51fe815-5335-4e1f-8e42-efe91c7e85aa","ios":"levelo://app?vid=d51fe815-5335-4e1f-8e42-efe91c7e85aa"},"vehicle_type_id":"4","last_reported":1773916143,"current_range_meters":8400,"station_id":"cpo3532slgdg3j2ikp40","pricing_plan_id":"cebpf4jnsgd1na2vs0mg"},{"bike_id":"e84409cd-ab11-47ab-92ac-0bad50daf5c3","system_id":"levelo_inurba_marseille","lat":43.31896,"lon":5.36804,"is_reserved":false,"is_disabled":false,"rental_uris":{"android":"levelo://app?vid=e84409cd-ab11-47ab-92ac-0bad50daf5c3","ios":"levelo://app?vid=e84409cd-ab11-47ab-92ac-0bad50daf5c3"},"vehicle_type_id":"4","last_reported":1773916143,"current_range_meters":8400,"station_id":"st_d6o2h0d0559c73evc1b0","pricing_plan_id":"cebpf4jnsgd1na2vs0mg"},{"bike_id":"b7e87515-c3ea-478e-bf01-a70f86b2f092","system_id":"levelo_inurba_marseille","lat":43.24154,"lon":5.36422,"is_reserved":false,"is_disabled":false,"rental_uris":{"android":"levelo://app?vid=b7e87515-c3ea-478e-bf01-a70f86b2f092","ios":"levelo://app?vid=b7e87515-c3ea-478e-bf01-a70f86b2f092"},"vehicle_type_id":"4","last_reported":1773916143,"current_range_meters":8400,"station_id":"cpo36qri1sfpv3e86is0","pricing_plan_id":"cebpf4jnsgd1na2vs0mg"},{"bike_id":"591637eb-a256-445f-b11a-47e07652d095","system_id":"levelo_inurba_marseille","lat":43.281537,"lon":5.426416,"is_reserved":false,"is_disabled":false,"rental_uris":{"android":"levelo://app?vid=591637eb-a256-445f-b11a-47e07652d095","ios":"levelo://app?vid=591637eb-a256-445f-b11a-47e07652d095"},"vehicle_type_id":"4","last_reported":1773916143,"current_range_meters":8400,"station_id":"ce4bhnh2rcd13ifvqgug","pricing_plan_id":"cebpf4jnsgd1na2vs0mg"},{"bike_id":"1da057a6-7f5f-4ac2-969c-cb81ad5a7b1a","system_id":"levelo_inurba_marseille","lat":43.33163,"lon":5.37692,"is_reserved":false,"is_disabled":false,"rental_uris":{"android":"levelo://app?vid=1da057a6-7f5f-4ac2-969c-cb81ad5a7b1a","ios":"levelo://app?vid=1da057a6-7f5f-4ac2-969c-cb81ad5a7b1a"},"vehicle_type_id":"4","last_reported":1773916143,"current_range_meters":8400,"station_id":"st_d46cu089ee8s73dldbu0","pricing_plan_id":"cebpf4jnsgd1na2vs0mg"},{"bike_id":"1a35434d-c9e2-448e-ab11-b763a506a6ff","system_id":"levelo_inurba_marseille","lat":43.29928,"lon":5.38091,"is_reserved":false,"is_disabled":true,"rental_uris":{"android":"levelo://app?vid=1a35434d-c9e2-448e-ab11-b763a506a6ff","ios":"levelo://app?vid=1a35434d-c9e2-448e-ab11-b763a506a6ff"},"vehicle_type_id":"4","last_reported":1773916143,"current_range_meters":8400,"station_id":"","pricing_plan_id":"cebpf4jnsgd1na2vs0mg"},{"bike_id":"bea21c33-d04a-4338-9da1-264162e1bcd6","system_id":"levelo_inurba_marseille","lat":43.26355,"lon":5.41066,"is_reserved":false,"is_disabled":false,"rental_uris":{"android":"levelo://app?vid=bea21c33-d04a-4338-9da1-264162e1bcd6","ios":"levelo://app?vid=bea21c33-d04a-4338-9da1-264162e1bcd6"},"vehicle_type_id":"4","last_reported":1773916143,"current_range_meters":8400,"station_id":"st_d4e5ca6na9uc73bfl5fg","pricing_plan_id":"cebpf4jnsgd1na2vs0mg"},{"bike_id":"f4d7f0a6-b9b0-423f-a545-843196d2ca63","system_id":"levelo_inurba_marseille","lat":43.25081,"lon":5.39537,"is_reserved":false,"is_disabled":false,"rental_uris":{"android":"levelo://app?vid=f4d7f0a6-b9b0-423f-a545-843196d2ca63","ios":"levelo://app?vid=f4d7f0a6-b9b0-423f-a545-843196d2ca63"},"vehicle_type_id":"4","last_reported":1773916143,"current_range_meters":8400,"station_id":"ce4bhm12rcd13ifvqgkg","pricing_plan_id":"cebpf4jnsgd1na2vs0mg"},{"bike_id":"850e36ee-1e12-4ced-9f07-3ad6148fbad0","system_id":"levelo_inurba_marseille","lat":43.2638,"lon":5.41077,"is_reserved":false,"is_disabled":false,"rental_uris":{"android":"levelo://app?vid=850e36ee-1e12-4ced-9f07-3ad6148fbad0","ios":"levelo://app?vid=850e36ee-1e12-4ced-9f07-3ad6148fbad0"},"vehicle_type_id":"4","last_reported":1773916143,"current_range_meters":8800,"station_id":"st_d4e5ca6na9uc73bfl5fg","pricing_plan_id":"cebpf4jnsgd1na2vs0mg"},{"bike_id":"ea683fbd-1de1-4103-a9a8-98323e8b6ccc","system_id":"levelo_inurba_marseille","lat":43.23884,"lon":5.37483,"is_reserved":false,"is_disabled":false,"rental_uris":{"android":"levelo://app?vid=ea683fbd-1de1-4103-a9a8-98323e8b6ccc","ios":"levelo://app?vid=ea683fbd-1de1-4103-a9a8-98323e8b6ccc"},"vehicle_type_id":"4","last_reported":1773916143,"current_range_meters":8800,"station_id":"st_d6sm7csbq4hs73f8fpjg","pricing_plan_id":"cebpf4jnsgd1na2vs0mg"},{"bike_id":"b0aae7c9-1bd6-4f1c-a33d-9d6ff662c2a9","system_id":"levelo_inurba_marseille","lat":43.24849,"lon":5.37419,"is_reserved":false,"is_disabled":false,"rental_uris":{"android":"levelo://app?vid=b0aae7c9-1bd6-4f1c-a33d-9d6ff662c2a9","ios":"levelo://app?vid=b0aae7c9-1bd6-4f1c-a33d-9d6ff662c2a9"},"vehicle_type_id":"4","last_reported":1773916143,"current_range_meters":8800,"station_id":"","pricing_plan_id":"cebpf4jnsgd1na2vs0mg"},{"bike_id":"addd9e53-bfde-4c2f-8c89-4a891b6a7add","system_id":"levelo_inurba_marseille","lat":43.3134,"lon":5.37883,"is_reserved":false,"is_disabled":false,"rental_uris":{"android":"levelo://app?vid=addd9e53-bfde-4c2f-8c89-4a891b6a7add","ios":"levelo://app?vid=addd9e53-bfde-4c2f-8c89-4a891b6a7add"},"vehicle_type_id":"4","last_reported":1773916143,"current_range_meters":8800,"station_id":"","pricing_plan_id":"cebpf4jnsgd1na2vs0mg"},{"bike_id":"52f6a6b9-7af9-4956-b458-baf5061e66bf","system_id":"levelo_inurba_marseille","lat":43.23337,"lon":5.44472,"is_reserved":false,"is_disabled":false,"rental_uris":{"android":"levelo://app?vid=52f6a6b9-7af9-4956-b458-baf5061e66bf","ios":"levelo://app?vid=52f6a6b9-7af9-4956-b458-baf5061e66bf"},"vehicle_type_id":"4","last_reported":1773916143,"current_range_meters":8800,"station_id":"","pricing_plan_id":"cebpf4jnsgd1na2vs0mg"},{"bike_id":"a28c166b-a5fe-420e-81da-77e5be97a8e5","system_id":"levelo_inurba_marseille","lat":43.29094,"lon":5.38147,"is_reserved":false,"is_disabled":false,"rental_uris":{"android":"levelo://app?vid=a28c166b-a5fe-420e-81da-77e5be97a8e5","ios":"levelo://app?vid=a28c166b-a5fe-420e-81da-77e5be97a8e5"},"vehicle_type_id":"4","last_reported":1773916143,"current_range_meters":8800,"station_id":"ce4bh512rcd13ifvqe2g","pricing_plan_id":"cebpf4jnsgd1na2vs0mg"},{"bike_id":"00dc1094-ab95-4b56-9796-2c944d98c0e7","system_id":"levelo_inurba_marseille","lat":43.31287,"lon":5.4017,"is_reserved":false,"is_disabled":false,"rental_uris":{"android":"levelo://app?vid=00dc1094-ab95-4b56-9796-2c944d98c0e7","ios":"levelo://app?vid=00dc1094-ab95-4b56-9796-2c944d98c0e7"},"vehicle_type_id":"4","last_reported":1773916143,"current_range_meters":8800,"station_id":"ce4bh092rcd13ifvqd30","pricing_plan_id":"cebpf4jnsgd1na2vs0mg"},{"bike_id":"85e34bd4-543e-4066-99b9-8180bc7744ae","system_id":"levelo_inurba_marseille","lat":43.29933,"lon":5.36499,"is_reserved":false,"is_disabled":false,"rental_uris":{"android":"levelo://app?vid=85e34bd4-543e-4066-99b9-8180bc7744ae","ios":"levelo://app?vid=85e34bd4-543e-4066-99b9-8180bc7744ae"},"vehicle_type_id":"4","last_reported":1773916143,"current_range_meters":8800,"station_id":"ce4bgm92rcd13ifvqbr0","pricing_plan_id":"cebpf4jnsgd1na2vs0mg"},{"bike_id":"5e3b9aba-3ee8-46cc-a740-4538cc2c4c08","system_id":"levelo_inurba_marseille","lat":43.28987,"lon":5.3786,"is_reserved":false,"is_disabled":false,"rental_uris":{"android":"levelo://app?vid=5e3b9aba-3ee8-46cc-a740-4538cc2c4c08","ios":"levelo://app?vid=5e3b9aba-3ee8-46cc-a740-4538cc2c4c08"},"vehicle_type_id":"4","last_reported":1773916143,"current_range_meters":8800,"station_id":"ce4bh9p2rcd13ifvqed0","pricing_plan_id":"cebpf4jnsgd1na2vs0mg"},{"bike_id":"be523ae7-f0fc-4e2a-970b-30a3029fa717","system_id":"levelo_inurba_marseille","lat":43.28486,"lon":5.48392,"is_reserved":false,"is_disabled":false,"rental_uris":{"android":"levelo://app?vid=be523ae7-f0fc-4e2a-970b-30a3029fa717","ios":"levelo://app?vid=be523ae7-f0fc-4e2a-970b-30a3029fa717"},"vehicle_type_id":"4","last_reported":1773916143,"current_range_meters":8800,"station_id":"","pricing_plan_id":"cebpf4jnsgd1na2vs0mg"},{"bike_id":"15750178-4f9b-426f-bafa-493e04eb7e36","system_id":"levelo_inurba_marseille","lat":43.30818,"lon":5.40641,"is_reserved":false,"is_disabled":false,"rental_uris":{"android":"levelo://app?vid=15750178-4f9b-426f-bafa-493e04eb7e36","ios":"levelo://app?vid=15750178-4f9b-426f-bafa-493e04eb7e36"},"vehicle_type_id":"4","last_reported":1773916143,"current_range_meters":8800,"station_id":"","pricing_plan_id":"cebpf4jnsgd1na2vs0mg"},{"bike_id":"6e312198-c530-414e-8f88-168b10974032","system_id":"levelo_inurba_marseille","lat":43.22568,"lon":5.41628,"is_reserved":false,"is_disabled":false,"rental_uris":{"android":"levelo://app?vid=6e312198-c530-414e-8f88-168b10974032","ios":"levelo://app?vid=6e312198-c530-414e-8f88-168b10974032"},"vehicle_type_id":"4","last_reported":1773916143,"current_range_meters":8800,"station_id":"st_d2o4gvlbi1j2169b742g","pricing_plan_id":"cebpf4jnsgd1na2vs0mg"},{"bike_id":"3bcd3f37-7909-4e8a-be03-a9562a2c0e45","system_id":"levelo_inurba_marseille","lat":43.28489,"lon":5.48381,"is_reserved":false,"is_disabled":false,"rental_uris":{"android":"levelo://app?vid=3bcd3f37-7909-4e8a-be03-a9562a2c0e45","ios":"levelo://app?vid=3bcd3f37-7909-4e8a-be03-a9562a2c0e45"},"vehicle_type_id":"4","last_reported":1773916143,"current_range_meters":9200,"station_id":"","pricing_plan_id":"cebpf4jnsgd1na2vs0mg"},{"bike_id":"85cf966e-8410-4382-ad1a-bf9f9335b2f6","system_id":"levelo_inurba_marseille","lat":43.3059,"lon":5.4325,"is_reserved":false,"is_disabled":false,"rental_uris":{"android":"levelo://app?vid=85cf966e-8410-4382-ad1a-bf9f9335b2f6","ios":"levelo://app?vid=85cf966e-8410-4382-ad1a-bf9f9335b2f6"},"vehicle_type_id":"4","last_reported":1773916143,"current_range_meters":9200,"station_id":"","pricing_plan_id":"cebpf4jnsgd1na2vs0mg"},{"bike_id":"bc199616-bc2f-448b-a8f1-aa0277275d69","system_id":"levelo_inurba_marseille","lat":43.24077,"lon":5.37757,"is_reserved":false,"is_disabled":false,"rental_uris":{"android":"levelo://app?vid=bc199616-bc2f-448b-a8f1-aa0277275d69","ios":"levelo://app?vid=bc199616-bc2f-448b-a8f1-aa0277275d69"},"vehicle_type_id":"4","last_reported":1773916143,"current_range_meters":9200,"station_id":"ce4bhnp2rcd13ifvqgvg","pricing_plan_id":"cebpf4jnsgd1na2vs0mg"},{"bike_id":"b790cc6c-beda-4dcd-96dd-e541806c10fa","system_id":"levelo_inurba_marseille","lat":43.2752,"lon":5.41598,"is_reserved":false,"is_disabled":false,"rental_uris":{"android":"levelo://app?vid=b790cc6c-beda-4dcd-96dd-e541806c10fa","ios":"levelo://app?vid=b790cc6c-beda-4dcd-96dd-e541806c10fa"},"vehicle_type_id":"4","last_reported":1773916143,"current_range_meters":9200,"station_id":"st_d6im8g6chgec73a5pndg","pricing_plan_id":"cebpf4jnsgd1na2vs0mg"},{"bike_id":"81504fcd-b1a8-4689-8b51-229e0fdebee1","system_id":"levelo_inurba_marseille","lat":43.27719,"lon":5.39908,"is_reserved":false,"is_disabled":false,"rental_uris":{"android":"levelo://app?vid=81504fcd-b1a8-4689-8b51-229e0fdebee1","ios":"levelo://app?vid=81504fcd-b1a8-4689-8b51-229e0fdebee1"},"vehicle_type_id":"4","last_reported":1773916143,"current_range_meters":9200,"station_id":"","pricing_plan_id":"cebpf4jnsgd1na2vs0mg"},{"bike_id":"69067704-4b9d-4067-8ddd-5b71f4ef1a8a","system_id":"levelo_inurba_marseille","lat":43.25919,"lon":5.40902,"is_reserved":false,"is_disabled":true,"rental_uris":{"android":"levelo://app?vid=69067704-4b9d-4067-8ddd-5b71f4ef1a8a","ios":"levelo://app?vid=69067704-4b9d-4067-8ddd-5b71f4ef1a8a"},"vehicle_type_id":"4","last_reported":1773916143,"current_range_meters":9200,"station_id":"ce4bhm92rcd13ifvqglg","pricing_plan_id":"cebpf4jnsgd1na2vs0mg"},{"bike_id":"91754ca3-cd5e-47a5-b17b-b94faa181426","system_id":"levelo_inurba_marseille","lat":43.32106,"lon":5.36753,"is_reserved":false,"is_disabled":false,"rental_uris":{"android":"levelo://app?vid=91754ca3-cd5e-47a5-b17b-b94faa181426","ios":"levelo://app?vid=91754ca3-cd5e-47a5-b17b-b94faa181426"},"vehicle_type_id":"4","last_reported":1773916143,"current_range_meters":9200,"station_id":"ce4bhrh2rcd13ifvqhug","pricing_plan_id":"cebpf4jnsgd1na2vs0mg"},{"bike_id":"5b633a99-6e6c-40eb-b51a-c5e14db697a0","system_id":"levelo_inurba_marseille","lat":43.27065,"lon":5.42268,"is_reserved":false,"is_disabled":false,"rental_uris":{"android":"levelo://app?vid=5b633a99-6e6c-40eb-b51a-c5e14db697a0","ios":"levelo://app?vid=5b633a99-6e6c-40eb-b51a-c5e14db697a0"},"vehicle_type_id":"4","last_reported":1773916143,"current_range_meters":9200,"station_id":"ce4bhk92rcd13ifvqgb0","pricing_plan_id":"cebpf4jnsgd1na2vs0mg"},{"bike_id":"2c929730-8b8d-4228-907b-8f183d065f9c","system_id":"levelo_inurba_marseille","lat":43.24085,"lon":5.37755,"is_reserved":false,"is_disabled":false,"rental_uris":{"android":"levelo://app?vid=2c929730-8b8d-4228-907b-8f183d065f9c","ios":"levelo://app?vid=2c929730-8b8d-4228-907b-8f183d065f9c"},"vehicle_type_id":"4","last_reported":1773916143,"current_range_meters":9200,"station_id":"ce4bhnp2rcd13ifvqgvg","pricing_plan_id":"cebpf4jnsgd1na2vs0mg"},{"bike_id":"57d1ada9-1a9f-44a6-9752-b843732a3f40","system_id":"levelo_inurba_marseille","lat":43.29969,"lon":5.37158,"is_reserved":false,"is_disabled":false,"rental_uris":{"android":"levelo://app?vid=57d1ada9-1a9f-44a6-9752-b843732a3f40","ios":"levelo://app?vid=57d1ada9-1a9f-44a6-9752-b843732a3f40"},"vehicle_type_id":"4","last_reported":1773916143,"current_range_meters":9200,"station_id":"ce4bgr92rcd13ifvqc7g","pricing_plan_id":"cebpf4jnsgd1na2vs0mg"},{"bike_id":"b50e93c9-47b0-4fff-b4c5-42460e683cce","system_id":"levelo_inurba_marseille","lat":43.31366,"lon":5.36733,"is_reserved":false,"is_disabled":false,"rental_uris":{"android":"levelo://app?vid=b50e93c9-47b0-4fff-b4c5-42460e683cce","ios":"levelo://app?vid=b50e93c9-47b0-4fff-b4c5-42460e683cce"},"vehicle_type_id":"4","last_reported":1773916143,"current_range_meters":9200,"station_id":"ce4bgr92rcd13ifvqc6g","pricing_plan_id":"cebpf4jnsgd1na2vs0mg"},{"bike_id":"bf6a2167-7677-4dc4-a81c-f593ae047d82","system_id":"levelo_inurba_marseille","lat":43.26557,"lon":5.37284,"is_reserved":false,"is_disabled":false,"rental_uris":{"android":"levelo://app?vid=bf6a2167-7677-4dc4-a81c-f593ae047d82","ios":"levelo://app?vid=bf6a2167-7677-4dc4-a81c-f593ae047d82"},"vehicle_type_id":"4","last_reported":1773916143,"current_range_meters":9200,"station_id":"ce4bhg12rcd13ifvqf70","pricing_plan_id":"cebpf4jnsgd1na2vs0mg"},{"bike_id":"94c2774e-0e80-49a5-a48d-27354f95f394","system_id":"levelo_inurba_marseille","lat":43.22939,"lon":5.35369,"is_reserved":false,"is_disabled":false,"rental_uris":{"android":"levelo://app?vid=94c2774e-0e80-49a5-a48d-27354f95f394","ios":"levelo://app?vid=94c2774e-0e80-49a5-a48d-27354f95f394"},"vehicle_type_id":"4","last_reported":1773916143,"current_range_meters":9200,"station_id":"cpo3532slgdg3j2ikp40","pricing_plan_id":"cebpf4jnsgd1na2vs0mg"},{"bike_id":"de1198f2-86f7-4e4b-8f15-1d4752933303","system_id":"levelo_inurba_marseille","lat":43.23807,"lon":5.36624,"is_reserved":false,"is_disabled":false,"rental_uris":{"android":"levelo://app?vid=de1198f2-86f7-4e4b-8f15-1d4752933303","ios":"levelo://app?vid=de1198f2-86f7-4e4b-8f15-1d4752933303"},"vehicle_type_id":"4","last_reported":1773916143,"current_range_meters":9200,"station_id":"st_d3nk18o9ro0c73en2l3g","pricing_plan_id":"cebpf4jnsgd1na2vs0mg"},{"bike_id":"61a6b6ec-bb80-4353-abf6-797a81a98d5d","system_id":"levelo_inurba_marseille","lat":43.28939,"lon":5.36641,"is_reserved":false,"is_disabled":false,"rental_uris":{"android":"levelo://app?vid=61a6b6ec-bb80-4353-abf6-797a81a98d5d","ios":"levelo://app?vid=61a6b6ec-bb80-4353-abf6-797a81a98d5d"},"vehicle_type_id":"4","last_reported":1773916143,"current_range_meters":9200,"station_id":"ce4bhap2rcd13ifvqek0","pricing_plan_id":"cebpf4jnsgd1na2vs0mg"},{"bike_id":"cab4b8b2-5aca-4bf0-93dd-08eb5981443b","system_id":"levelo_inurba_marseille","lat":43.2925,"lon":5.38438,"is_reserved":false,"is_disabled":false,"rental_uris":{"android":"levelo://app?vid=cab4b8b2-5aca-4bf0-93dd-08eb5981443b","ios":"levelo://app?vid=cab4b8b2-5aca-4bf0-93dd-08eb5981443b"},"vehicle_type_id":"4","last_reported":1773916143,"current_range_meters":9200,"station_id":"ce4bh692rcd13ifvqea0","pricing_plan_id":"cebpf4jnsgd1na2vs0mg"},{"bike_id":"c7a4d59a-fd75-41b3-9562-8323b4a4a4f7","system_id":"levelo_inurba_marseille","lat":43.28411,"lon":5.34973,"is_reserved":false,"is_disabled":false,"rental_uris":{"android":"levelo://app?vid=c7a4d59a-fd75-41b3-9562-8323b4a4a4f7","ios":"levelo://app?vid=c7a4d59a-fd75-41b3-9562-8323b4a4a4f7"},"vehicle_type_id":"4","last_reported":1773916143,"current_range_meters":9200,"station_id":"ce4bhbh2rcd13ifvqepg","pricing_plan_id":"cebpf4jnsgd1na2vs0mg"},{"bike_id":"78bb54cf-5275-4554-9f53-8437367c33f2","system_id":"levelo_inurba_marseille","lat":43.23214,"lon":5.35548,"is_reserved":false,"is_disabled":false,"rental_uris":{"android":"levelo://app?vid=78bb54cf-5275-4554-9f53-8437367c33f2","ios":"levelo://app?vid=78bb54cf-5275-4554-9f53-8437367c33f2"},"vehicle_type_id":"4","last_reported":1773916143,"current_range_meters":9200,"station_id":"ce4bhu92rcd13ifvqi70","pricing_plan_id":"cebpf4jnsgd1na2vs0mg"},{"bike_id":"2858b502-13ad-4133-aab5-28b9a7f9d95d","system_id":"levelo_inurba_marseille","lat":43.30903,"lon":5.36879,"is_reserved":false,"is_disabled":false,"rental_uris":{"android":"levelo://app?vid=2858b502-13ad-4133-aab5-28b9a7f9d95d","ios":"levelo://app?vid=2858b502-13ad-4133-aab5-28b9a7f9d95d"},"vehicle_type_id":"4","last_reported":1773916143,"current_range_meters":9200,"station_id":"ce4bgn92rcd13ifvqbvg","pricing_plan_id":"cebpf4jnsgd1na2vs0mg"},{"bike_id":"8b2012a5-39b2-4650-94a2-ded5935d4071","system_id":"levelo_inurba_marseille","lat":43.25909,"lon":5.40889,"is_reserved":false,"is_disabled":false,"rental_uris":{"android":"levelo://app?vid=8b2012a5-39b2-4650-94a2-ded5935d4071","ios":"levelo://app?vid=8b2012a5-39b2-4650-94a2-ded5935d4071"},"vehicle_type_id":"4","last_reported":1773916143,"current_range_meters":9200,"station_id":"ce4bhm92rcd13ifvqglg","pricing_plan_id":"cebpf4jnsgd1na2vs0mg"},{"bike_id":"42547aef-8f4a-49d0-8ace-65a1c9334fdc","system_id":"levelo_inurba_marseille","lat":43.29574,"lon":5.37517,"is_reserved":false,"is_disabled":false,"rental_uris":{"android":"levelo://app?vid=42547aef-8f4a-49d0-8ace-65a1c9334fdc","ios":"levelo://app?vid=42547aef-8f4a-49d0-8ace-65a1c9334fdc"},"vehicle_type_id":"4","last_reported":1773916143,"current_range_meters":9200,"station_id":"ce4bgh92rcd13ifvqb50","pricing_plan_id":"cebpf4jnsgd1na2vs0mg"},{"bike_id":"91472141-3427-4a3c-8d44-aa322d033af6","system_id":"levelo_inurba_marseille","lat":43.2903,"lon":5.38282,"is_reserved":false,"is_disabled":false,"rental_uris":{"android":"levelo://app?vid=91472141-3427-4a3c-8d44-aa322d033af6","ios":"levelo://app?vid=91472141-3427-4a3c-8d44-aa322d033af6"},"vehicle_type_id":"4","last_reported":1773916143,"current_range_meters":9200,"station_id":"","pricing_plan_id":"cebpf4jnsgd1na2vs0mg"},{"bike_id":"d6cd2a94-9158-4a55-a222-af7166a74225","system_id":"levelo_inurba_marseille","lat":43.27373,"lon":5.3626,"is_reserved":false,"is_disabled":false,"rental_uris":{"android":"levelo://app?vid=d6cd2a94-9158-4a55-a222-af7166a74225","ios":"levelo://app?vid=d6cd2a94-9158-4a55-a222-af7166a74225"},"vehicle_type_id":"4","last_reported":1773916143,"current_range_meters":9600,"station_id":"ce4bhbh2rcd13ifvqeo0","pricing_plan_id":"cebpf4jnsgd1na2vs0mg"},{"bike_id":"00188490-1df4-4952-b59e-9725a7d7228c","system_id":"levelo_inurba_marseille","lat":43.31367,"lon":5.38492,"is_reserved":false,"is_disabled":false,"rental_uris":{"android":"levelo://app?vid=00188490-1df4-4952-b59e-9725a7d7228c","ios":"levelo://app?vid=00188490-1df4-4952-b59e-9725a7d7228c"},"vehicle_type_id":"4","last_reported":1773916143,"current_range_meters":9600,"station_id":"ce4bgt92rcd13ifvqcf0","pricing_plan_id":"cebpf4jnsgd1na2vs0mg"},{"bike_id":"3072c2b7-499e-4858-9501-6070c7badbaf","system_id":"levelo_inurba_marseille","lat":43.23977,"lon":5.36641,"is_reserved":false,"is_disabled":false,"rental_uris":{"android":"levelo://app?vid=3072c2b7-499e-4858-9501-6070c7badbaf","ios":"levelo://app?vid=3072c2b7-499e-4858-9501-6070c7badbaf"},"vehicle_type_id":"4","last_reported":1773916143,"current_range_meters":9600,"station_id":"ce4bhi12rcd13ifvqfp0","pricing_plan_id":"cebpf4jnsgd1na2vs0mg"},{"bike_id":"711f76ce-25f1-4559-bf93-7594992a36be","system_id":"levelo_inurba_marseille","lat":43.2842,"lon":5.34975,"is_reserved":false,"is_disabled":false,"rental_uris":{"android":"levelo://app?vid=711f76ce-25f1-4559-bf93-7594992a36be","ios":"levelo://app?vid=711f76ce-25f1-4559-bf93-7594992a36be"},"vehicle_type_id":"4","last_reported":1773916143,"current_range_meters":9600,"station_id":"ce4bhbh2rcd13ifvqepg","pricing_plan_id":"cebpf4jnsgd1na2vs0mg"},{"bike_id":"6018d565-5c8a-4bab-ba5d-0061fbbaec08","system_id":"levelo_inurba_marseille","lat":43.2296,"lon":5.35365,"is_reserved":false,"is_disabled":false,"rental_uris":{"android":"levelo://app?vid=6018d565-5c8a-4bab-ba5d-0061fbbaec08","ios":"levelo://app?vid=6018d565-5c8a-4bab-ba5d-0061fbbaec08"},"vehicle_type_id":"4","last_reported":1773916143,"current_range_meters":9600,"station_id":"cpo3532slgdg3j2ikp40","pricing_plan_id":"cebpf4jnsgd1na2vs0mg"},{"bike_id":"ccd6fb2b-99ac-4a3b-9a5a-60e63afb212a","system_id":"levelo_inurba_marseille","lat":43.30293,"lon":5.37712,"is_reserved":false,"is_disabled":false,"rental_uris":{"android":"levelo://app?vid=ccd6fb2b-99ac-4a3b-9a5a-60e63afb212a","ios":"levelo://app?vid=ccd6fb2b-99ac-4a3b-9a5a-60e63afb212a"},"vehicle_type_id":"4","last_reported":1773916143,"current_range_meters":9600,"station_id":"ce4bguh2rcd13ifvqcj0","pricing_plan_id":"cebpf4jnsgd1na2vs0mg"},{"bike_id":"0264288d-82fa-4432-8751-6c08c0e54bb7","system_id":"levelo_inurba_marseille","lat":43.30289,"lon":5.42464,"is_reserved":false,"is_disabled":false,"rental_uris":{"android":"levelo://app?vid=0264288d-82fa-4432-8751-6c08c0e54bb7","ios":"levelo://app?vid=0264288d-82fa-4432-8751-6c08c0e54bb7"},"vehicle_type_id":"4","last_reported":1773916143,"current_range_meters":9600,"station_id":"","pricing_plan_id":"cebpf4jnsgd1na2vs0mg"},{"bike_id":"70bc3c79-c3e5-47f5-9f17-0b27723a6d70","system_id":"levelo_inurba_marseille","lat":43.24068,"lon":5.37741,"is_reserved":false,"is_disabled":false,"rental_uris":{"android":"levelo://app?vid=70bc3c79-c3e5-47f5-9f17-0b27723a6d70","ios":"levelo://app?vid=70bc3c79-c3e5-47f5-9f17-0b27723a6d70"},"vehicle_type_id":"4","last_reported":1773916143,"current_range_meters":9600,"station_id":"ce4bhnp2rcd13ifvqgvg","pricing_plan_id":"cebpf4jnsgd1na2vs0mg"},{"bike_id":"3f134281-09a1-4419-b1c2-1b4cde1bc770","system_id":"levelo_inurba_marseille","lat":43.27084,"lon":5.39196,"is_reserved":false,"is_disabled":false,"rental_uris":{"android":"levelo://app?vid=3f134281-09a1-4419-b1c2-1b4cde1bc770","ios":"levelo://app?vid=3f134281-09a1-4419-b1c2-1b4cde1bc770"},"vehicle_type_id":"4","last_reported":1773916143,"current_range_meters":9600,"station_id":"","pricing_plan_id":"cebpf4jnsgd1na2vs0mg"},{"bike_id":"f15a43b5-dd47-45ae-ae7d-e4490cd6b23e","system_id":"levelo_inurba_marseille","lat":43.30908,"lon":5.36854,"is_reserved":false,"is_disabled":false,"rental_uris":{"android":"levelo://app?vid=f15a43b5-dd47-45ae-ae7d-e4490cd6b23e","ios":"levelo://app?vid=f15a43b5-dd47-45ae-ae7d-e4490cd6b23e"},"vehicle_type_id":"4","last_reported":1773916143,"current_range_meters":9600,"station_id":"ce4bgn92rcd13ifvqbvg","pricing_plan_id":"cebpf4jnsgd1na2vs0mg"},{"bike_id":"b78efe34-9c51-4bda-ac14-0652399b0549","system_id":"levelo_inurba_marseille","lat":43.26809,"lon":5.40243,"is_reserved":false,"is_disabled":false,"rental_uris":{"android":"levelo://app?vid=b78efe34-9c51-4bda-ac14-0652399b0549","ios":"levelo://app?vid=b78efe34-9c51-4bda-ac14-0652399b0549"},"vehicle_type_id":"4","last_reported":1773916143,"current_range_meters":9600,"station_id":"ce501612rcd8frsf0b60","pricing_plan_id":"cebpf4jnsgd1na2vs0mg"},{"bike_id":"73eb9938-ef34-4e78-991f-1cb2107e2274","system_id":"levelo_inurba_marseille","lat":43.27217,"lon":5.39185,"is_reserved":false,"is_disabled":false,"rental_uris":{"android":"levelo://app?vid=73eb9938-ef34-4e78-991f-1cb2107e2274","ios":"levelo://app?vid=73eb9938-ef34-4e78-991f-1cb2107e2274"},"vehicle_type_id":"4","last_reported":1773916143,"current_range_meters":9600,"station_id":"ce4bhhp2rcd13ifvqfm0","pricing_plan_id":"cebpf4jnsgd1na2vs0mg"},{"bike_id":"dd74091b-705a-4531-bc39-afff2195d9a1","system_id":"levelo_inurba_marseille","lat":43.24814,"lon":5.37445,"is_reserved":false,"is_disabled":false,"rental_uris":{"android":"levelo://app?vid=dd74091b-705a-4531-bc39-afff2195d9a1","ios":"levelo://app?vid=dd74091b-705a-4531-bc39-afff2195d9a1"},"vehicle_type_id":"4","last_reported":1773916143,"current_range_meters":9600,"station_id":"ce4bhgh2rcd13ifvqfb0","pricing_plan_id":"cebpf4jnsgd1na2vs0mg"},{"bike_id":"63156f0c-ece8-4a1c-8328-d5a4afa67128","system_id":"levelo_inurba_marseille","lat":43.28635,"lon":5.48007,"is_reserved":false,"is_disabled":false,"rental_uris":{"android":"levelo://app?vid=63156f0c-ece8-4a1c-8328-d5a4afa67128","ios":"levelo://app?vid=63156f0c-ece8-4a1c-8328-d5a4afa67128"},"vehicle_type_id":"4","last_reported":1773916143,"current_range_meters":9600,"station_id":"","pricing_plan_id":"cebpf4jnsgd1na2vs0mg"},{"bike_id":"2429eeb3-6aff-485f-be62-016fca8ba451","system_id":"levelo_inurba_marseille","lat":43.33623,"lon":5.41031,"is_reserved":false,"is_disabled":false,"rental_uris":{"android":"levelo://app?vid=2429eeb3-6aff-485f-be62-016fca8ba451","ios":"levelo://app?vid=2429eeb3-6aff-485f-be62-016fca8ba451"},"vehicle_type_id":"4","last_reported":1773916143,"current_range_meters":9600,"station_id":"ce4bhqh2rcd13ifvqhmg","pricing_plan_id":"cebpf4jnsgd1na2vs0mg"},{"bike_id":"8705ccb2-2eb1-4d20-a27e-e722681e08de","system_id":"levelo_inurba_marseille","lat":43.29024,"lon":5.35881,"is_reserved":false,"is_disabled":false,"rental_uris":{"android":"levelo://app?vid=8705ccb2-2eb1-4d20-a27e-e722681e08de","ios":"levelo://app?vid=8705ccb2-2eb1-4d20-a27e-e722681e08de"},"vehicle_type_id":"4","last_reported":1773916143,"current_range_meters":9600,"station_id":"ce4bha92rcd13ifvqeg0","pricing_plan_id":"cebpf4jnsgd1na2vs0mg"},{"bike_id":"bd67607b-9fd2-4715-9c4a-5f8f06790731","system_id":"levelo_inurba_marseille","lat":43.29658,"lon":5.40202,"is_reserved":false,"is_disabled":false,"rental_uris":{"android":"levelo://app?vid=bd67607b-9fd2-4715-9c4a-5f8f06790731","ios":"levelo://app?vid=bd67607b-9fd2-4715-9c4a-5f8f06790731"},"vehicle_type_id":"4","last_reported":1773916143,"current_range_meters":9600,"station_id":"","pricing_plan_id":"cebpf4jnsgd1na2vs0mg"},{"bike_id":"afe95e0a-e521-41d1-af1f-9c239eba3b01","system_id":"levelo_inurba_marseille","lat":43.240778,"lon":5.377552,"is_reserved":false,"is_disabled":false,"rental_uris":{"android":"levelo://app?vid=afe95e0a-e521-41d1-af1f-9c239eba3b01","ios":"levelo://app?vid=afe95e0a-e521-41d1-af1f-9c239eba3b01"},"vehicle_type_id":"4","last_reported":1773916143,"current_range_meters":9600,"station_id":"ce4bhnp2rcd13ifvqgvg","pricing_plan_id":"cebpf4jnsgd1na2vs0mg"},{"bike_id":"9d7d6495-9f08-4a8f-9cb2-f434fe09cc90","system_id":"levelo_inurba_marseille","lat":43.29801,"lon":5.42731,"is_reserved":false,"is_disabled":false,"rental_uris":{"android":"levelo://app?vid=9d7d6495-9f08-4a8f-9cb2-f434fe09cc90","ios":"levelo://app?vid=9d7d6495-9f08-4a8f-9cb2-f434fe09cc90"},"vehicle_type_id":"4","last_reported":1773916143,"current_range_meters":9600,"station_id":"","pricing_plan_id":"cebpf4jnsgd1na2vs0mg"},{"bike_id":"e08d225b-8f4a-4ce0-895d-d9f7f842408c","system_id":"levelo_inurba_marseille","lat":43.24166,"lon":5.36395,"is_reserved":false,"is_disabled":false,"rental_uris":{"android":"levelo://app?vid=e08d225b-8f4a-4ce0-895d-d9f7f842408c","ios":"levelo://app?vid=e08d225b-8f4a-4ce0-895d-d9f7f842408c"},"vehicle_type_id":"4","last_reported":1773916143,"current_range_meters":9600,"station_id":"cpo36qri1sfpv3e86is0","pricing_plan_id":"cebpf4jnsgd1na2vs0mg"},{"bike_id":"e5eba928-e3a4-441b-9540-937747ee47b9","system_id":"levelo_inurba_marseille","lat":43.22545,"lon":5.41619,"is_reserved":false,"is_disabled":false,"rental_uris":{"android":"levelo://app?vid=e5eba928-e3a4-441b-9540-937747ee47b9","ios":"levelo://app?vid=e5eba928-e3a4-441b-9540-937747ee47b9"},"vehicle_type_id":"4","last_reported":1773916143,"current_range_meters":9600,"station_id":"st_d2o4gvlbi1j2169b742g","pricing_plan_id":"cebpf4jnsgd1na2vs0mg"},{"bike_id":"4276c873-a1a7-4e01-9353-4e4aa8b2eafd","system_id":"levelo_inurba_marseille","lat":43.23165,"lon":5.43731,"is_reserved":false,"is_disabled":false,"rental_uris":{"android":"levelo://app?vid=4276c873-a1a7-4e01-9353-4e4aa8b2eafd","ios":"levelo://app?vid=4276c873-a1a7-4e01-9353-4e4aa8b2eafd"},"vehicle_type_id":"4","last_reported":1773916143,"current_range_meters":9600,"station_id":"ce4bhmp2rcd13ifvqgog","pricing_plan_id":"cebpf4jnsgd1na2vs0mg"},{"bike_id":"910782e5-6393-4e90-9766-736d8c09f613","system_id":"levelo_inurba_marseille","lat":43.30982,"lon":5.39069,"is_reserved":false,"is_disabled":false,"rental_uris":{"android":"levelo://app?vid=910782e5-6393-4e90-9766-736d8c09f613","ios":"levelo://app?vid=910782e5-6393-4e90-9766-736d8c09f613"},"vehicle_type_id":"4","last_reported":1773916143,"current_range_meters":9600,"station_id":"ce4bgup2rcd13ifvqco0","pricing_plan_id":"cebpf4jnsgd1na2vs0mg"},{"bike_id":"78ef72c9-6f66-4bf1-a8f0-404183378bc7","system_id":"levelo_inurba_marseille","lat":43.27992,"lon":5.40007,"is_reserved":false,"is_disabled":true,"rental_uris":{"android":"levelo://app?vid=78ef72c9-6f66-4bf1-a8f0-404183378bc7","ios":"levelo://app?vid=78ef72c9-6f66-4bf1-a8f0-404183378bc7"},"vehicle_type_id":"4","last_reported":1773916143,"current_range_meters":9600,"station_id":"ce4bho92rcd13ifvqh4g","pricing_plan_id":"cebpf4jnsgd1na2vs0mg"},{"bike_id":"f76be1bf-b839-4363-b725-31a2cfaf3f32","system_id":"levelo_inurba_marseille","lat":43.23794,"lon":5.36648,"is_reserved":false,"is_disabled":false,"rental_uris":{"android":"levelo://app?vid=f76be1bf-b839-4363-b725-31a2cfaf3f32","ios":"levelo://app?vid=f76be1bf-b839-4363-b725-31a2cfaf3f32"},"vehicle_type_id":"4","last_reported":1773916143,"current_range_meters":9600,"station_id":"st_d3nk18o9ro0c73en2l3g","pricing_plan_id":"cebpf4jnsgd1na2vs0mg"},{"bike_id":"b9c5971d-d098-464a-aac6-a450396de308","system_id":"levelo_inurba_marseille","lat":43.27684,"lon":5.38904,"is_reserved":false,"is_disabled":false,"rental_uris":{"android":"levelo://app?vid=b9c5971d-d098-464a-aac6-a450396de308","ios":"levelo://app?vid=b9c5971d-d098-464a-aac6-a450396de308"},"vehicle_type_id":"4","last_reported":1773916143,"current_range_meters":9600,"station_id":"ce4bhi12rcd13ifvqfo0","pricing_plan_id":"cebpf4jnsgd1na2vs0mg"},