{"last_updated":1736928738,"ttl":60,"version":"2.2","data":{"bikes":[{"bike_id":"69412742-6a28-469c-a0e8-64e31c0b0ae8","system_id":"levelo_inurba_marseille","lat":43.25923,"lon":5.40921,"is_reserved":false,"is_disabled":false,"rental_uris":{"android":"levelo://app?vid=69412742-6a28-469c-a0e8-64e31c0b0ae8","ios":"levelo://app?vid=69412742-6a28-469c-a0e8-64e31c0b0ae8"},"vehicle_type_id":"4","last_reported":1736928738,"current_range_meters":27600,"station_id":"ce4bhm92rcd13ifvqglg","pricing_plan_id":"cebpf4jnsgd1na2vs0mg"},{"bike_id":"19300b66-27e4-4514-b32b-a6c21571da0e","system_id":"levelo_inurba_marseille","lat":43.29251,"lon":5.40909,"is_reserved":false,"is_disabled":false,"rental_uris":{"android":"levelo://app?vid=19300b66-27e4-4514-b32b-a6c21571da0e","ios":"levelo://app?vid=19300b66-27e4-4514-b32b-a6c21571da0e"},"vehicle_type_id":"4","last_reported":1736928738,"current_range_meters":18800,"station_id":"ce4bh192rcd13ifvqdc0","pricing_plan_id":"cebpf4jnsgd1na2vs0mg"},{"bike_id":"1e0fe81e-e280-4593-80e7-d7d9caed8bb4","system_id":"levelo_inurba_marseille","lat":43.29789,"lon":5.38087,"is_reserved":false,"is_disabled":true,"rental_uris":{"android":"levelo://app?vid=1e0fe81e-e280-4593-80e7-d7d9caed8bb4","ios":"levelo://app?vid=1e0fe81e-e280-4593-80e7-d7d9caed8bb4"},"vehicle_type_id":"4","last_reported":1736928738,"current_range_meters":38800,"station_id":"ce4bgip2rcd13ifvqbb0","pricing_plan_id":"cebpf4jnsgd1na2vs0mg"},{"bike_id":"3bfa0ac1-21fc-4cf0-8611-33fa510f902d","system_id":"levelo_inurba_marseille","lat":43.24162,"lon":5.36395,"is_reserved":false,"is_disabled":false,"rental_uris":{"android":"levelo://app?vid=3bfa0ac1-21fc-4cf0-8611-33fa510f902d","ios":"levelo://app?vid=3bfa0ac1-21fc-4cf0-8611-33fa510f902d"},"vehicle_type_id":"4","last_reported":1736928738,"current_range_meters":9600,"station_id":"cpo36qri1sfpv3e86is0","pricing_plan_id":"cebpf4jnsgd1na2vs0mg"},{"bike_id":"459eda55-c02d-48e5-b482-24c6e37a8793","system_id":"levelo_inurba_marseille","lat":43.28435,"lon":5.39197,"is_reserved":false,"is_disabled":true,"rental_uris":{"android":"levelo://app?vid=459eda55-c02d-48e5-b482-24c6e37a8793","ios":"levelo://app?vid=459eda55-c02d-48e5-b482-24c6e37a8793"},"vehicle_type_id":"4","last_reported":1736928738,"current_range_meters":11600,"station_id":"ce4bhoh2rcd13ifvqh5g","pricing_plan_id":"cebpf4jnsgd1na2vs0mg"},{"bike_id":"89fcc9a4-94e9-40fd-96bc-65298ed41a65","system_id":"levelo_inurba_marseille","lat":43.32501,"lon":5.39491,"is_reserved":false,"is_disabled":false,"rental_uris":{"android":"levelo://app?vid=89fcc9a4-94e9-40fd-96bc-65298ed41a65","ios":"levelo://app?vid=89fcc9a4-94e9-40fd-96bc-65298ed41a65"},"vehicle_type_id":"4","last_reported":1736928738,"current_range_meters":34800,"station_id":"","pricing_plan_id":"cebpf4jnsgd1na2vs0mg"},{"bike_id":"883443fd-0ae0-40fa-aab3-ba69747df35e","system_id":"levelo_inurba_marseille","lat":43.30954,"lon":5.39041,"is_reserved":false,"is_disabled":false,"rental_uris":{"android":"levelo://app?vid=883443fd-0ae0-40fa-aab3-ba69747df35e","ios":"levelo://app?vid=883443fd-0ae0-40fa-aab3-ba69747df35e"},"vehicle_type_id":"4","last_reported":1736928738,"current_range_meters":38800,"station_id":"ce4bgup2rcd13ifvqco0","pricing_plan_id":"cebpf4jnsgd1na2vs0mg"},{"bike_id":"0227f306-de46-4015-9577-af9068a07e4a","system_id":"levelo_inurba_marseille","lat":43.30878,"lon":5.37199,"is_reserved":false,"is_disabled":false,"rental_uris":{"android":"levelo://app?vid=0227f306-de46-4015-9577-af9068a07e4a","ios":"levelo://app?vid=0227f306-de46-4015-9577-af9068a07e4a"},"vehicle_type_id":"4","last_reported":1736928738,"current_range_meters":30000,"station_id":"ce4bguh2rcd13ifvqckg","pricing_plan_id":"cebpf4jnsgd1na2vs0mg"},{"bike_id":"18c46f9e-50be-4476-8f59-d70277001501","system_id":"levelo_inurba_marseille","lat":43.29038,"lon":5.39944,"is_reserved":false,"is_disabled":false,"rental_uris":{"android":"levelo://app?vid=18c46f9e-50be-4476-8f59-d70277001501","ios":"levelo://app?vid=18c46f9e-50be-4476-8f59-d70277001501"},"vehicle_type_id":"4","last_reported":1736928738,"current_range_meters":36000,"station_id":"ce4bh392rcd13ifvqdm0","pricing_plan_id":"cebpf4jnsgd1na2vs0mg"},{"bike_id":"5bb5758f-37be-496e-ac0a-3712e6b43125","system_id":"levelo_inurba_marseille","lat":43.26185,"lon":5.37926,"is_reserved":false,"is_disabled":false,"rental_uris":{"android":"levelo://app?vid=5bb5758f-37be-496e-ac0a-3712e6b43125","ios":"levelo://app?vid=5bb5758f-37be-496e-ac0a-3712e6b43125"},"vehicle_type_id":"4","last_reported":1736928738,"current_range_meters":38800,"station_id":"ce4bhjp2rcd13ifvqg90","pricing_plan_id":"cebpf4jnsgd1na2vs0mg"},{"bike_id":"4fa358ca-b741-467a-a03f-b8033021b471","system_id":"levelo_inurba_marseille","lat":43.33743,"lon":5.37436,"is_reserved":false,"is_disabled":false,"rental_uris":{"android":"levelo://app?vid=4fa358ca-b741-467a-a03f-b8033021b471","ios":"levelo://app?vid=4fa358ca-b741-467a-a03f-b8033021b471"},"vehicle_type_id":"4","last_reported":1736928738,"current_range_meters":38800,"station_id":"","pricing_plan_id":"cebpf4jnsgd1na2vs0mg"},{"bike_id":"6c72276d-8e89-4c2f-8150-2735b7561b95","system_id":"levelo_inurba_marseille","lat":43.27484,"lon":5.42467,"is_reserved":false,"is_disabled":true,"rental_uris":{"android":"levelo://app?vid=6c72276d-8e89-4c2f-8150-2735b7561b95","ios":"levelo://app?vid=6c72276d-8e89-4c2f-8150-2735b7561b95"},"vehicle_type_id":"4","last_reported":1736928738,"current_range_meters":0,"station_id":"ce4bhn92rcd13ifvqgrg","pricing_plan_id":"cebpf4jnsgd1na2vs0mg"},{"bike_id":"1f6b6453-6f1e-4c34-b198-1cfca3cfc897","system_id":"levelo_inurba_marseille","lat":43.30461,"lon":5.37909,"is_reserved":false,"is_disabled":false,"rental_uris":{"android":"levelo://app?vid=1f6b6453-6f1e-4c34-b198-1cfca3cfc897","ios":"levelo://app?vid=1f6b6453-6f1e-4c34-b198-1cfca3cfc897"},"vehicle_type_id":"4","last_reported":1736928738,"current_range_meters":28000,"station_id":"ce4bgup2rcd13ifvqcn0","pricing_plan_id":"cebpf4jnsgd1na2vs0mg"},{"bike_id":"6cf1ef65-b448-4034-8c81-a102abe157e0","system_id":"levelo_inurba_marseille","lat":43.29727,"lon":5.37702,"is_reserved":false,"is_disabled":false,"rental_uris":{"android":"levelo://app?vid=6cf1ef65-b448-4034-8c81-a102abe157e0","ios":"levelo://app?vid=6cf1ef65-b448-4034-8c81-a102abe157e0"},"vehicle_type_id":"4","last_reported":1736928738,"current_range_meters":17200,"station_id":"ce4bgkh2rcd13ifvqbl0","pricing_plan_id":"cebpf4jnsgd1na2vs0mg"},{"bike_id":"424f756c-50eb-4f0c-b591-25a8e3420df9","system_id":"levelo_inurba_marseille","lat":43.26937,"lon":5.38641,"is_reserved":false,"is_disabled":false,"rental_uris":{"android":"levelo://app?vid=424f756c-50eb-4f0c-b591-25a8e3420df9","ios":"levelo://app?vid=424f756c-50eb-4f0c-b591-25a8e3420df9"},"vehicle_type_id":"4","last_reported":1736928738,"current_range_meters":18800,"station_id":"ce4bhh92rcd13ifvqfh0","pricing_plan_id":"cebpf4jnsgd1na2vs0mg"},{"bike_id":"de24f0eb-d07d-4b52-b35d-5a84aaa3df22","system_id":"levelo_inurba_marseille","lat":43.29211,"lon":5.36062,"is_reserved":false,"is_disabled":true,"rental_uris":{"android":"levelo://app?vid=de24f0eb-d07d-4b52-b35d-5a84aaa3df22","ios":"levelo://app?vid=de24f0eb-d07d-4b52-b35d-5a84aaa3df22"},"vehicle_type_id":"4","last_reported":1736928738,"current_range_meters":8400,"station_id":"ce4bhbh2rcd13ifvqeqg","pricing_plan_id":"cebpf4jnsgd1na2vs0mg"},{"bike_id":"1a312e54-fa1a-42c6-a5f7-081d918975cb","system_id":"levelo_inurba_marseille","lat":43.29713,"lon":5.37696,"is_reserved":false,"is_disabled":false,"rental_uris":{"android":"levelo://app?vid=1a312e54-fa1a-42c6-a5f7-081d918975cb","ios":"levelo://app?vid=1a312e54-fa1a-42c6-a5f7-081d918975cb"},"vehicle_type_id":"4","last_reported":1736928738,"current_range_meters":38400,"station_id":"ce4bgkh2rcd13ifvqbl0","pricing_plan_id":"cebpf4jnsgd1na2vs0mg"},{"bike_id":"b336eecc-71fb-4827-b601-9992e4d0e91e","system_id":"levelo_inurba_marseille","lat":43.30301,"lon":5.36892,"is_reserved":false,"is_disabled":false,"rental_uris":{"android":"levelo://app?vid=b336eecc-71fb-4827-b601-9992e4d0e91e","ios":"levelo://app?vid=b336eecc-71fb-4827-b601-9992e4d0e91e"},"vehicle_type_id":"4","last_reported":1736928738,"current_range_meters":12400,"station_id":"ce4bgqh2rcd13ifvqc5g","pricing_plan_id":"cebpf4jnsgd1na2vs0mg"},{"bike_id":"1546f697-d82b-4e5d-a850-a9023302096e","system_id":"levelo_inurba_marseille","lat":43.25006,"lon":5.38943,"is_reserved":false,"is_disabled":false,"rental_uris":{"android":"levelo://app?vid=1546f697-d82b-4e5d-a850-a9023302096e","ios":"levelo://app?vid=1546f697-d82b-4e5d-a850-a9023302096e"},"vehicle_type_id":"4","last_reported":1736928738,"current_range_meters":38800,"station_id":"ce4bhgp2rcd13ifvqfd0","pricing_plan_id":"cebpf4jnsgd1na2vs0mg"},{"bike_id":"3a154d79-06d4-4814-bd52-2ebbe8926e69","system_id":"levelo_inurba_marseille","lat":43.29781,"lon":5.39356,"is_reserved":false,"is_disabled":true,"rental_uris":{"android":"levelo://app?vid=3a154d79-06d4-4814-bd52-2ebbe8926e69","ios":"levelo://app?vid=3a154d79-06d4-4814-bd52-2ebbe8926e69"},"vehicle_type_id":"4","last_reported":1736928738,"current_range_meters":34000,"station_id":"chh1huq6cuj3fo74tm60","pricing_plan_id":"cebpf4jnsgd1na2vs0mg"},{"bike_id":"a05bd889-5f47-4435-a653-f868055678ed","system_id":"levelo_inurba_marseille","lat":43.24994,"lon":5.38919,"is_reserved":false,"is_disabled":false,"rental_uris":{"android":"levelo://app?vid=a05bd889-5f47-4435-a653-f868055678ed","ios":"levelo://app?vid=a05bd889-5f47-4435-a653-f868055678ed"},"vehicle_type_id":"4","last_reported":1736928738,"current_range_meters":28000,"station_id":"ce4bhgp2rcd13ifvqfd0","pricing_plan_id":"cebpf4jnsgd1na2vs0mg"},{"bike_id":"5dc3dd3e-37d2-4dd0-b33d-d2f8ed1e3625","system_id":"levelo_inurba_marseille","lat":43.259255,"lon":5.409083,"is_reserved":false,"is_disabled":false,"rental_uris":{"android":"levelo://app?vid=5dc3dd3e-37d2-4dd0-b33d-d2f8ed1e3625","ios":"levelo://app?vid=5dc3dd3e-37d2-4dd0-b33d-d2f8ed1e3625"},"vehicle_type_id":"4","last_reported":1736928738,"current_range_meters":8400,"station_id":"ce4bhm92rcd13ifvqglg","pricing_plan_id":"cebpf4jnsgd1na2vs0mg"},{"bike_id":"f782effa-383e-4f2e-b501-262b4bc3a36b","system_id":"levelo_inurba_marseille","lat":43.26944,"lon":5.38634,"is_reserved":false,"is_disabled":false,"rental_uris":{"android":"levelo://app?vid=f782effa-383e-4f2e-b501-262b4bc3a36b","ios":"levelo://app?vid=f782effa-383e-4f2e-b501-262b4bc3a36b"},"vehicle_type_id":"4","last_reported":1736928738,"current_range_meters":4800,"station_id":"ce4bhh92rcd13ifvqfh0","pricing_plan_id":"cebpf4jnsgd1na2vs0mg"},{"bike_id":"4aa6cb5d-9445-4e0a-a278-56c47a3e25e0","system_id":"levelo_inurba_marseille","lat":43.27489,"lon":5.42453,"is_reserved":false,"is_disabled":false,"rental_uris":{"android":"levelo://app?vid=4aa6cb5d-9445-4e0a-a278-56c47a3e25e0","ios":"levelo://app?vid=4aa6cb5d-9445-4e0a-a278-56c47a3e25e0"},"vehicle_type_id":"4","last_reported":1736928738,"current_range_meters":8800,"station_id":"ce4bhn92rcd13ifvqgrg","pricing_plan_id":"cebpf4jnsgd1na2vs0mg"},{"bike_id":"8724c44b-7b2f-45e5-94d4-51af5c7f440d","system_id":"levelo_inurba_marseille","lat":43.25721,"lon":5.411,"is_reserved":false,"is_disabled":false,"rental_uris":{"android":"levelo://app?vid=8724c44b-7b2f-45e5-94d4-51af5c7f440d","ios":"levelo://app?vid=8724c44b-7b2f-45e5-94d4-51af5c7f440d"},"vehicle_type_id":"4","last_reported":1736928738,"current_range_meters":21600,"station_id":"ce4bhkp2rcd13ifvqgd0","pricing_plan_id":"cebpf4jnsgd1na2vs0mg"},{"bike_id":"ae5947c9-e1d7-47d4-aa65-2a6be661e306","system_id":"levelo_inurba_marseille","lat":43.25935,"lon":5.40913,"is_reserved":false,"is_disabled":false,"rental_uris":{"android":"levelo://app?vid=ae5947c9-e1d7-47d4-aa65-2a6be661e306","ios":"levelo://app?vid=ae5947c9-e1d7-47d4-aa65-2a6be661e306"},"vehicle_type_id":"4","last_reported":1736928738,"current_range_meters":30800,"station_id":"ce4bhm92rcd13ifvqglg","pricing_plan_id":"cebpf4jnsgd1na2vs0mg"},{"bike_id":"f967ea00-b8c0-4496-9bc6-6ae713525aac","system_id":"levelo_inurba_marseille","lat":43.24994,"lon":5.38931,"is_reserved":false,"is_disabled":false,"rental_uris":{"android":"levelo://app?vid=f967ea00-b8c0-4496-9bc6-6ae713525aac","ios":"levelo://app?vid=f967ea00-b8c0-4496-9bc6-6ae713525aac"},"vehicle_type_id":"4","last_reported":1736928738,"current_range_meters":28000,"station_id":"ce4bhgp2rcd13ifvqfd0","pricing_plan_id":"cebpf4jnsgd1na2vs0mg"},{"bike_id":"a7944b54-8c6a-4c3a-83b2-7d2789fe92ae","system_id":"levelo_inurba_marseille","lat":43.30941,"lon":5.39037,"is_reserved":false,"is_disabled":false,"rental_uris":{"android":"levelo://app?vid=a7944b54-8c6a-4c3a-83b2-7d2789fe92ae","ios":"levelo://app?vid=a7944b54-8c6a-4c3a-83b2-7d2789fe92ae"},"vehicle_type_id":"4","last_reported":1736928738,"current_range_meters":15200,"station_id":"ce4bgup2rcd13ifvqco0","pricing_plan_id":"cebpf4jnsgd1na2vs0mg"},{"bike_id":"f1bb8ff1-b6aa-4582-90a3-7785eb42492f","system_id":"levelo_inurba_marseille","lat":43.28144,"lon":5.4265,"is_reserved":false,"is_disabled":false,"rental_uris":{"android":"levelo://app?vid=f1bb8ff1-b6aa-4582-90a3-7785eb42492f","ios":"levelo://app?vid=f1bb8ff1-b6aa-4582-90a3-7785eb42492f"},"vehicle_type_id":"4","last_reported":1736928738,"current_range_meters":24800,"station_id":"ce4bhnh2rcd13ifvqgug","pricing_plan_id":"cebpf4jnsgd1na2vs0mg"},{"bike_id":"0c90630a-baf0-4efc-bde5-a5fe1d414fb5","system_id":"levelo_inurba_marseille","lat":43.30312,"lon":5.36896,"is_reserved":false,"is_disabled":false,"rental_uris":{"android":"levelo://app?vid=0c90630a-baf0-4efc-bde5-a5fe1d414fb5","ios":"levelo://app?vid=0c90630a-baf0-4efc-bde5-a5fe1d414fb5"},"vehicle_type_id":"4","last_reported":1736928738,"current_range_meters":38800,"station_id":"ce4bgqh2rcd13ifvqc5g","pricing_plan_id":"cebpf4jnsgd1na2vs0mg"},{"bike_id":"dfa713cf-69f8-4168-8f5b-c3157347b85b","system_id":"levelo_inurba_marseille","lat":43.28141,"lon":5.42657,"is_reserved":false,"is_disabled":false,"rental_uris":{"android":"levelo://app?vid=dfa713cf-69f8-4168-8f5b-c3157347b85b","ios":"levelo://app?vid=dfa713cf-69f8-4168-8f5b-c3157347b85b"},"vehicle_type_id":"4","last_reported":1736928738,"current_range_meters":9600,"station_id":"ce4bhnh2rcd13ifvqgug","pricing_plan_id":"cebpf4jnsgd1na2vs0mg"},{"bike_id":"08956fb4-5437-4f39-a6d0-97d91183d02a","system_id":"levelo_inurba_marseille","lat":43.25938,"lon":5.409,"is_reserved":false,"is_disabled":false,"rental_uris":{"android":"levelo://app?vid=08956fb4-5437-4f39-a6d0-97d91183d02a","ios":"levelo://app?vid=08956fb4-5437-4f39-a6d0-97d91183d02a"},"vehicle_type_id":"4","last_reported":1736928738,"current_range_meters":34800,"station_id":"ce4bhm92rcd13ifvqglg","pricing_plan_id":"cebpf4jnsgd1na2vs0mg"},{"bike_id":"b5b35795-e161-424f-b97b-0ae8d9b8c970","system_id":"levelo_inurba_marseille","lat":43.29554,"lon":5.42277,"is_reserved":false,"is_disabled":false,"rental_uris":{"android":"levelo://app?vid=b5b35795-e161-424f-b97b-0ae8d9b8c970","ios":"levelo://app?vid=b5b35795-e161-424f-b97b-0ae8d9b8c970"},"vehicle_type_id":"4","last_reported":1736928738,"current_range_meters":36800,"station_id":"ce4bhph2rcd13ifvqhdg","pricing_plan_id":"cebpf4jnsgd1na2vs0mg"},{"bike_id":"a402044d-1041-4786-a63f-9d18af3bc82f","system_id":"levelo_inurba_marseille","lat":43.24185,"lon":5.36376,"is_reserved":false,"is_disabled":false,"rental_uris":{"android":"levelo://app?vid=a402044d-1041-4786-a63f-9d18af3bc82f","ios":"levelo://app?vid=a402044d-1041-4786-a63f-9d18af3bc82f"},"vehicle_type_id":"4","last_reported":1736928738,"current_range_meters":36800,"station_id":"cpo36qri1sfpv3e86is0","pricing_plan_id":"cebpf4jnsgd1na2vs0mg"},{"bike_id":"14f19800-e66e-4ddf-982a-615ebbb5bf9e","system_id":"levelo_inurba_marseille","lat":43.32559,"lon":5.41479,"is_reserved":false,"is_disabled":false,"rental_uris":{"android":"levelo://app?vid=14f19800-e66e-4ddf-982a-615ebbb5bf9e","ios":"levelo://app?vid=14f19800-e66e-4ddf-982a-615ebbb5bf9e"},"vehicle_type_id":"4","last_reported":1736928738,"current_range_meters":22400,"station_id":"ce4bhq12rcd13ifvqhhg","pricing_plan_id":"cebpf4jnsgd1na2vs0mg"},{"bike_id":"637a11cf-a2c7-4c9e-87c0-6e627bafd370","system_id":"levelo_inurba_marseille","lat":43.29009,"lon":5.35614,"is_reserved":false,"is_disabled":false,"rental_uris":{"android":"levelo://app?vid=637a11cf-a2c7-4c9e-87c0-6e627bafd370","ios":"levelo://app?vid=637a11cf-a2c7-4c9e-87c0-6e627bafd370"},"vehicle_type_id":"4","last_reported":1736928738,"current_range_meters":25200,"station_id":"ce4bhb92rcd13ifvqen0","pricing_plan_id":"cebpf4jnsgd1na2vs0mg"},{"bike_id":"902edfe6-251a-49fc-8548-2023567b8c62","system_id":"levelo_inurba_marseille","lat":43.30316,"lon":5.36896,"is_reserved":false,"is_disabled":false,"rental_uris":{"android":"levelo://app?vid=902edfe6-251a-49fc-8548-2023567b8c62","ios":"levelo://app?vid=902edfe6-251a-49fc-8548-2023567b8c62"},"vehicle_type_id":"4","last_reported":1736928738,"current_range_meters":12800,"station_id":"ce4bgqh2rcd13ifvqc5g","pricing_plan_id":"cebpf4jnsgd1na2vs0mg"},{"bike_id":"c59d8e01-448a-45bd-b30c-07d72b8d6b71","system_id":"levelo_inurba_marseille","lat":43.3027,"lon":5.37716,"is_reserved":false,"is_disabled":false,"rental_uris":{"android":"levelo://app?vid=c59d8e01-448a-45bd-b30c-07d72b8d6b71","ios":"levelo://app?vid=c59d8e01-448a-45bd-b30c-07d72b8d6b71"},"vehicle_type_id":"4","last_reported":1736928738,"current_range_meters":32000,"station_id":"ce4bguh2rcd13ifvqcj0","pricing_plan_id":"cebpf4jnsgd1na2vs0mg"},{"bike_id":"c8e997c0-8580-4d0f-8d9f-0766596381e1","system_id":"levelo_inurba_marseille","lat":43.33918,"lon":5.37558,"is_reserved":false,"is_disabled":true,"rental_uris":{"android":"levelo://app?vid=c8e997c0-8580-4d0f-8d9f-0766596381e1","ios":"levelo://app?vid=c8e997c0-8580-4d0f-8d9f-0766596381e1"},"vehicle_type_id":"4","last_reported":1736928738,"current_range_meters":0,"station_id":"","pricing_plan_id":"cebpf4jnsgd1na2vs0mg"},{"bike_id":"a5685a4f-525f-4b28-b53e-c9f713b41963","system_id":"levelo_inurba_marseille","lat":43.26192,"lon":5.37938,"is_reserved":false,"is_disabled":false,"rental_uris":{"android":"levelo://app?vid=a5685a4f-525f-4b28-b53e-c9f713b41963","ios":"levelo://app?vid=a5685a4f-525f-4b28-b53e-c9f713b41963"},"vehicle_type_id":"4","last_reported":1736928738,"current_range_meters":38400,"station_id":"ce4bhjp2rcd13ifvqg90","pricing_plan_id":"cebpf4jnsgd1na2vs0mg"},{"bike_id":"4169e82d-8fff-4286-9ba9-9adbdc49fda2","system_id":"levelo_inurba_marseille","lat":43.32042,"lon":5.41539,"is_reserved":false,"is_disabled":false,"rental_uris":{"android":"levelo://app?vid=4169e82d-8fff-4286-9ba9-9adbdc49fda2","ios":"levelo://app?vid=4169e82d-8fff-4286-9ba9-9adbdc49fda2"},"vehicle_type_id":"4","last_reported":1736928738,"current_range_meters":34000,"station_id":"ce4bhq92rcd13ifvqhkg","pricing_plan_id":"cebpf4jnsgd1na2vs0mg"},{"bike_id":"74f9b094-c6d4-4e6c-a72f-fba11a45f8f1","system_id":"levelo_inurba_marseille","lat":43.31085,"lon":5.42448,"is_reserved":false,"is_disabled":false,"rental_uris":{"android":"levelo://app?vid=74f9b094-c6d4-4e6c-a72f-fba11a45f8f1","ios":"levelo://app?vid=74f9b094-c6d4-4e6c-a72f-fba11a45f8f1"},"vehicle_type_id":"4","last_reported":1736928738,"current_range_meters":37600,"station_id":"ce4bhp92rcd13ifvqhag","pricing_plan_id":"cebpf4jnsgd1na2vs0mg"},{"bike_id":"cc63a642-f26c-43ca-8db6-148e92ca90e2","system_id":"levelo_inurba_marseille","lat":43.27419,"lon":5.39418,"is_reserved":false,"is_disabled":false,"rental_uris":{"android":"levelo://app?vid=cc63a642-f26c-43ca-8db6-148e92ca90e2","ios":"levelo://app?vid=cc63a642-f26c-43ca-8db6-148e92ca90e2"},"vehicle_type_id":"4","last_reported":1736928738,"current_range_meters":39200,"station_id":"ce4bhdp2rcd13ifvqf20","pricing_plan_id":"cebpf4jnsgd1na2vs0mg"},{"bike_id":"bd6fe96d-e94c-4a01-a63c-a94ddcdacba4","system_id":"levelo_inurba_marseille","lat":43.30942,"lon":5.39036,"is_reserved":false,"is_disabled":false,"rental_uris":{"android":"levelo://app?vid=bd6fe96d-e94c-4a01-a63c-a94ddcdacba4","ios":"levelo://app?vid=bd6fe96d-e94c-4a01-a63c-a94ddcdacba4"},"vehicle_type_id":"4","last_reported":1736928738,"current_range_meters":26000,"station_id":"ce4bgup2rcd13ifvqco0","pricing_plan_id":"cebpf4jnsgd1na2vs0mg"},{"bike_id":"e4507b39-2b7b-4462-817d-d6a893ef1155","system_id":"levelo_inurba_marseille","lat":43.29902,"lon":5.37491,"is_reserved":false,"is_disabled":false,"rental_uris":{"android":"levelo://app?vid=e4507b39-2b7b-4462-817d-d6a893ef1155","ios":"levelo://app?vid=e4507b39-2b7b-4462-817d-d6a893ef1155"},"vehicle_type_id":"4","last_reported":1736928738,"current_range_meters":38800,"station_id":"ce4bgjh2rcd13ifvqbg0","pricing_plan_id":"cebpf4jnsgd1na2vs0mg"},{"bike_id":"49780bcb-42bd-43a4-ac67-97ab73136957","system_id":"levelo_inurba_marseille","lat":43.32544,"lon":5.41426,"is_reserved":false,"is_disabled":false,"rental_uris":{"android":"levelo://app?vid=49780bcb-42bd-43a4-ac67-97ab73136957","ios":"levelo://app?vid=49780bcb-42bd-43a4-ac67-97ab73136957"},"vehicle_type_id":"4","last_reported":1736928738,"current_range_meters":38800,"station_id":"ce4bhq12rcd13ifvqhhg","pricing_plan_id":"cebpf4jnsgd1na2vs0mg"},{"bike_id":"e81ef256-d7a3-4c28-9bcc-58b1fdfe2d9d","system_id":"levelo_inurba_marseille","lat":43.25097,"lon":5.40341,"is_reserved":false,"is_disabled":false,"rental_uris":{"android":"levelo://app?vid=e81ef256-d7a3-4c28-9bcc-58b1fdfe2d9d","ios":"levelo://app?vid=e81ef256-d7a3-4c28-9bcc-58b1fdfe2d9d"},"vehicle_type_id":"4","last_reported":1736928738,"current_range_meters":38400,"station_id":"ce4bhlh2rcd13ifvqgig","pricing_plan_id":"cebpf4jnsgd1na2vs0mg"},{"bike_id":"db27b2af-171c-4aa7-b50e-e2ab13f4af0b","system_id":"levelo_inurba_marseille","lat":43.30531,"lon":5.36522,"is_reserved":false,"is_disabled":false,"rental_uris":{"android":"levelo://app?vid=db27b2af-171c-4aa7-b50e-e2ab13f4af0b","ios":"levelo://app?vid=db27b2af-171c-4aa7-b50e-e2ab13f4af0b"},"vehicle_type_id":"4","last_reported":1736928738,"current_range_meters":12800,"station_id":"ce4bgs12rcd13ifvqcag","pricing_plan_id":"cebpf4jnsgd1na2vs0mg"},{"bike_id":"b3a658df-91f2-4704-b189-b11aeee17bbf","system_id":"levelo_inurba_marseille","lat":43.24798,"lon":5.37457,"is_reserved":false,"is_disabled":false,"rental_uris":{"android":"levelo://app?vid=b3a658df-91f2-4704-b189-b11aeee17bbf","ios":"levelo://app?vid=b3a658df-91f2-4704-b189-b11aeee17bbf"},"vehicle_type_id":"4","last_reported":1736928738,"current_range_meters":38000,"station_id":"ce4bhgh2rcd13ifvqfb0","pricing_plan_id":"cebpf4jnsgd1na2vs0mg"},{"bike_id":"ed626f63-b68e-4689-918c-7d8199b25721","system_id":"levelo_inurba_marseille","lat":43.3013,"lon":5.39881,"is_reserved":false,"is_disabled":true,"rental_uris":{"android":"levelo://app?vid=ed626f63-b68e-4689-918c-7d8199b25721","ios":"levelo://app?vid=ed626f63-b68e-4689-918c-7d8199b25721"},"vehicle_type_id":"4","last_reported":1736928738,"current_range_meters":2800,"station_id":"ce4bh0h2rcd13ifvqd40","pricing_plan_id":"cebpf4jnsgd1na2vs0mg"},{"bike_id":"f8800adc-29e9-47fc-86f1-25a46dbbb4db","system_id":"levelo_inurba_marseille","lat":43.30534,"lon":5.36558,"is_reserved":false,"is_disabled":false,"rental_uris":{"android":"levelo://app?vid=f8800adc-29e9-47fc-86f1-25a46dbbb4db","ios":"levelo://app?vid=f8800adc-29e9-47fc-86f1-25a46dbbb4db"},"vehicle_type_id":"4","last_reported":1736928738,"current_range_meters":11200,"station_id":"ce4bgs12rcd13ifvqcag","pricing_plan_id":"cebpf4jnsgd1na2vs0mg"},{"bike_id":"192943ff-6579-4067-8b54-834fbf6d8760","system_id":"levelo_inurba_marseille","lat":43.27616,"lon":5.36114,"is_reserved":false,"is_disabled":false,"rental_uris":{"android":"levelo://app?vid=192943ff-6579-4067-8b54-834fbf6d8760","ios":"levelo://app?vid=192943ff-6579-4067-8b54-834fbf6d8760"},"vehicle_type_id":"4","last_reported":1736928738,"current_range_meters":38400,"station_id":"ce4bgj92rcd13ifvqbe0","pricing_plan_id":"cebpf4jnsgd1na2vs0mg"},{"bike_id":"fea1b24d-bbfb-474a-b028-8645483cd7e6","system_id":"levelo_inurba_marseille","lat":43.27363,"lon":5.36214,"is_reserved":false,"is_disabled":false,"rental_uris":{"android":"levelo://app?vid=fea1b24d-bbfb-474a-b028-8645483cd7e6","ios":"levelo://app?vid=fea1b24d-bbfb-474a-b028-8645483cd7e6"},"vehicle_type_id":"4","last_reported":1736928738,"current_range_meters":38000,"station_id":"ce4bhbh2rcd13ifvqeo0","pricing_plan_id":"cebpf4jnsgd1na2vs0mg"},{"bike_id":"98c9b57f-b727-44d5-ab39-539e4817921c","system_id":"levelo_inurba_marseille","lat":43.26668,"lon":5.38273,"is_reserved":false,"is_disabled":false,"rental_uris":{"android":"levelo://app?vid=98c9b57f-b727-44d5-ab39-539e4817921c","ios":"levelo://app?vid=98c9b57f-b727-44d5-ab39-539e4817921c"},"vehicle_type_id":"4","last_reported":1736928738,"current_range_meters":37600,"station_id":"ce4bhg92rcd13ifvqf90","pricing_plan_id":"cebpf4jnsgd1na2vs0mg"},{"bike_id":"eef6dc4b-7f43-4457-a154-1fbfcc0fa2e2","system_id":"levelo_inurba_marseille","lat":43.27073,"lon":5.42284,"is_reserved":false,"is_disabled":false,"rental_uris":{"android":"levelo://app?vid=eef6dc4b-7f43-4457-a154-1fbfcc0fa2e2","ios":"levelo://app?vid=eef6dc4b-7f43-4457-a154-1fbfcc0fa2e2"},"vehicle_type_id":"4","last_reported":1736928738,"current_range_meters":4800,"station_id":"ce4bhk92rcd13ifvqgb0","pricing_plan_id":"cebpf4jnsgd1na2vs0mg"},{"bike_id":"0ada6c01-b17d-4394-a9d3-60e5c6157127","system_id":"levelo_inurba_marseille","lat":43.31993,"lon":5.38146,"is_reserved":false,"is_disabled":false,"rental_uris":{"android":"levelo://app?vid=0ada6c01-b17d-4394-a9d3-60e5c6157127","ios":"levelo://app?vid=0ada6c01-b17d-4394-a9d3-60e5c6157127"},"vehicle_type_id":"4","last_reported":1736928738,"current_range_meters":38800,"station_id":"ce4bhr12rcd13ifvqhpg","pricing_plan_id":"cebpf4jnsgd1na2vs0mg"},{"bike_id":"90ef335c-c78d-4871-8cab-954334cad3cb","system_id":"levelo_inurba_marseille","lat":43.29603,"lon":5.38107,"is_reserved":false,"is_disabled":false,"rental_uris":{"android":"levelo://app?vid=90ef335c-c78d-4871-8cab-954334cad3cb","ios":"levelo://app?vid=90ef335c-c78d-4871-8cab-954334cad3cb"},"vehicle_type_id":"4","last_reported":1736928738,"current_range_meters":22000,"station_id":"ce4bgl12rcd13ifvqbo0","pricing_plan_id":"cebpf4jnsgd1na2vs0mg"},{"bike_id":"33599c56-d6e6-4e5d-9218-3b601dbbda24","system_id":"levelo_inurba_marseille","lat":43.30293,"lon":5.39195,"is_reserved":false,"is_disabled":true,"rental_uris":{"android":"levelo://app?vid=33599c56-d6e6-4e5d-9218-3b601dbbda24","ios":"levelo://app?vid=33599c56-d6e6-4e5d-9218-3b601dbbda24"},"vehicle_type_id":"4","last_reported":1736928738,"current_range_meters":6800,"station_id":"ce4bgkh2rcd13ifvqbk0","pricing_plan_id":"cebpf4jnsgd1na2vs0mg"},{"bike_id":"3917aeaa-db29-426e-98f3-4f173f075939","system_id":"levelo_inurba_marseille","lat":43.23177,"lon":5.39992,"is_reserved":false,"is_disabled":false,"rental_uris":{"android":"levelo://app?vid=3917aeaa-db29-426e-98f3-4f173f075939","ios":"levelo://app?vid=3917aeaa-db29-426e-98f3-4f173f075939"},"vehicle_type_id":"4","last_reported":1736928738,"current_range_meters":24400,"station_id":"ce4bhn12rcd13ifvqgqg","pricing_plan_id":"cebpf4jnsgd1na2vs0mg"},{"bike_id":"4267cc24-d607-4392-83a8-56d37a3bc695","system_id":"levelo_inurba_marseille","lat":43.24069,"lon":5.37757,"is_reserved":false,"is_disabled":false,"rental_uris":{"android":"levelo://app?vid=4267cc24-d607-4392-83a8-56d37a3bc695","ios":"levelo://app?vid=4267cc24-d607-4392-83a8-56d37a3bc695"},"vehicle_type_id":"4","last_reported":1736928738,"current_range_meters":38800,"station_id":"ce4bhnp2rcd13ifvqgvg","pricing_plan_id":"cebpf4jnsgd1na2vs0mg"},{"bike_id":"86e9e1d2-31b0-4662-b213-b435febe56ef","system_id":"levelo_inurba_marseille","lat":43.29805,"lon":5.38097,"is_reserved":false,"is_disabled":false,"rental_uris":{"android":"levelo://app?vid=86e9e1d2-31b0-4662-b213-b435febe56ef","ios":"levelo://app?vid=86e9e1d2-31b0-4662-b213-b435febe56ef"},"vehicle_type_id":"4","last_reported":1736928738,"current_range_meters":27200,"station_id":"ce4bgip2rcd13ifvqbb0","pricing_plan_id":"cebpf4jnsgd1na2vs0mg"},{"bike_id":"28402812-2437-4cb5-805b-4b740e765b45","system_id":"levelo_inurba_marseille","lat":43.30544,"lon":5.36564,"is_reserved":false,"is_disabled":false,"rental_uris":{"android":"levelo://app?vid=28402812-2437-4cb5-805b-4b740e765b45","ios":"levelo://app?vid=28402812-2437-4cb5-805b-4b740e765b45"},"vehicle_type_id":"4","last_reported":1736928738,"current_range_meters":31200,"station_id":"ce4bgs12rcd13ifvqcag","pricing_plan_id":"cebpf4jnsgd1na2vs0mg"},{"bike_id":"a1a925c1-025a-4e52-b724-c9c5776b8317","system_id":"levelo_inurba_marseille","lat":43.2511,"lon":5.40305,"is_reserved":false,"is_disabled":false,"rental_uris":{"android":"levelo://app?vid=a1a925c1-025a-4e52-b724-c9c5776b8317","ios":"levelo://app?vid=a1a925c1-025a-4e52-b724-c9c5776b8317"},"vehicle_type_id":"4","last_reported":1736928738,"current_range_meters":38800,"station_id":"ce4bhlh2rcd13ifvqgig","pricing_plan_id":"cebpf4jnsgd1na2vs0mg"},{"bike_id":"2f7f8f97-233b-49c1-a73b-02bd22f3a824","system_id":"levelo_inurba_marseille","lat":43.26679,"lon":5.3824,"is_reserved":false,"is_disabled":false,"rental_uris":{"android":"levelo://app?vid=2f7f8f97-233b-49c1-a73b-02bd22f3a824","ios":"levelo://app?vid=2f7f8f97-233b-49c1-a73b-02bd22f3a824"},"vehicle_type_id":"4","last_reported":1736928738,"current_range_meters":38800,"station_id":"ce4bhg92rcd13ifvqf90","pricing_plan_id":"cebpf4jnsgd1na2vs0mg"},{"bike_id":"d37067bc-448b-4946-8300-5c477cf04cf2","system_id":"levelo_inurba_marseille","lat":43.30127,"lon":5.39897,"is_reserved":false,"is_disabled":true,"rental_uris":{"android":"levelo://app?vid=d37067bc-448b-4946-8300-5c477cf04cf2","ios":"levelo://app?vid=d37067bc-448b-4946-8300-5c477cf04cf2"},"vehicle_type_id":"4","last_reported":1736928738,"current_range_meters":27200,"station_id":"ce4bh0h2rcd13ifvqd40","pricing_plan_id":"cebpf4jnsgd1na2vs0mg"},{"bike_id":"235d6373-a984-4fe1-8bb0-2588cc897671","system_id":"levelo_inurba_marseille","lat":43.31354,"lon":5.36714,"is_reserved":false,"is_disabled":false,"rental_uris":{"android":"levelo://app?vid=235d6373-a984-4fe1-8bb0-2588cc897671","ios":"levelo://app?vid=235d6373-a984-4fe1-8bb0-2588cc897671"},"vehicle_type_id":"4","last_reported":1736928738,"current_range_meters":27600,"station_id":"ce4bgr92rcd13ifvqc6g","pricing_plan_id":"cebpf4jnsgd1na2vs0mg"},{"bike_id":"2c839bfc-228b-4afd-9c45-0e54b8f36672","system_id":"levelo_inurba_marseille","lat":43.24647,"lon":5.38897,"is_reserved":false,"is_disabled":true,"rental_uris":{"android":"levelo://app?vid=2c839bfc-228b-4afd-9c45-0e54b8f36672","ios":"levelo://app?vid=2c839bfc-228b-4afd-9c45-0e54b8f36672"},"vehicle_type_id":"4","last_reported":1736928738,"current_range_meters":35200,"station_id":"ce4bhg12rcd13ifvqf60","pricing_plan_id":"cebpf4jnsgd1na2vs0mg"},{"bike_id":"b257aff7-44c1-45f6-b20c-4d4a8eed9e57","system_id":"levelo_inurba_marseille","lat":43.2781,"lon":5.40702,"is_reserved":false,"is_disabled":false,"rental_uris":{"android":"levelo://app?vid=b257aff7-44c1-45f6-b20c-4d4a8eed9e57","ios":"levelo://app?vid=b257aff7-44c1-45f6-b20c-4d4a8eed9e57"},"vehicle_type_id":"4","last_reported":1736928738,"current_range_meters":38800,"station_id":"ce4bhnh2rcd13ifvqgtg","pricing_plan_id":"cebpf4jnsgd1na2vs0mg"},{"bike_id":"82c90df6-2541-443b-a5b8-e57d6800c026","system_id":"levelo_inurba_marseille","lat":43.30934,"lon":5.40153,"is_reserved":false,"is_disabled":false,"rental_uris":{"android":"levelo://app?vid=82c90df6-2541-443b-a5b8-e57d6800c026","ios":"levelo://app?vid=82c90df6-2541-443b-a5b8-e57d6800c026"},"vehicle_type_id":"4","last_reported":1736928738,"current_range_meters":38800,"station_id":"ce4bgvp2rcd13ifvqct0","pricing_plan_id":"cebpf4jnsgd1na2vs0mg"},{"bike_id":"755e5c0a-8de7-4ee5-9d4e-5ec609711170","system_id":"levelo_inurba_marseille","lat":43.29588,"lon":5.38118,"is_reserved":false,"is_disabled":true,"rental_uris":{"android":"levelo://app?vid=755e5c0a-8de7-4ee5-9d4e-5ec609711170","ios":"levelo://app?vid=755e5c0a-8de7-4ee5-9d4e-5ec609711170"},"vehicle_type_id":"4","last_reported":1736928738,"current_range_meters":28000,"station_id":"ce4bgl12rcd13ifvqbo0","pricing_plan_id":"cebpf4jnsgd1na2vs0mg"},{"bike_id":"2abeadd0-d3ba-496b-a893-ac13f6e45654","system_id":"levelo_inurba_marseille","lat":43.29031,"lon":5.37568,"is_reserved":false,"is_disabled":false,"rental_uris":{"android":"levelo://app?vid=2abeadd0-d3ba-496b-a893-ac13f6e45654","ios":"levelo://app?vid=2abeadd0-d3ba-496b-a893-ac13f6e45654"},"vehicle_type_id":"4","last_reported":1736928738,"current_range_meters":32800,"station_id":"ce4bh692rcd13ifvqe90","pricing_plan_id":"cebpf4jnsgd1na2vs0mg"},{"bike_id":"fa0f0594-5d1d-46eb-8344-bf961f94b942","system_id":"levelo_inurba_marseille","lat":43.30525,"lon":5.36534,"is_reserved":false,"is_disabled":false,"rental_uris":{"android":"levelo://app?vid=fa0f0594-5d1d-46eb-8344-bf961f94b942","ios":"levelo://app?vid=fa0f0594-5d1d-46eb-8344-bf961f94b942"},"vehicle_type_id":"4","last_reported":1736928738,"current_range_meters":18000,"station_id":"ce4bgs12rcd13ifvqcag","pricing_plan_id":"cebpf4jnsgd1na2vs0mg"},{"bike_id":"a15980ac-c225-4e68-8982-6cc8c4cbfd79","system_id":"levelo_inurba_marseille","lat":43.231851,"lon":5.35557,"is_reserved":false,"is_disabled":false,"rental_uris":{"android":"levelo://app?vid=a15980ac-c225-4e68-8982-6cc8c4cbfd79","ios":"levelo://app?vid=a15980ac-c225-4e68-8982-6cc8c4cbfd79"},"vehicle_type_id":"4","last_reported":1736928738,"current_range_meters":38400,"station_id":"ce4bhu92rcd13ifvqi70","pricing_plan_id":"cebpf4jnsgd1na2vs0mg"},{"bike_id":"c1e4c3f1-3e89-4762-b660-b562a1538ef0","system_id":"levelo_inurba_marseille","lat":43.25181,"lon":5.40265,"is_reserved":false,"is_disabled":false,"rental_uris":{"android":"levelo://app?vid=c1e4c3f1-3e89-4762-b660-b562a1538ef0","ios":"levelo://app?vid=c1e4c3f1-3e89-4762-b660-b562a1538ef0"},"vehicle_type_id":"4","last_reported":1736928738,"current_range_meters":38800,"station_id":"ce4bhlh2rcd13ifvqgig","pricing_plan_id":"cebpf4jnsgd1na2vs0mg"},{"bike_id":"90f9e942-4208-4cf9-8bd5-53cc21dd8c3e","system_id":"levelo_inurba_marseille","lat":43.30273,"lon":5.37715,"is_reserved":false,"is_disabled":false,"rental_uris":{"android":"levelo://app?vid=90f9e942-4208-4cf9-8bd5-53cc21dd8c3e","ios":"levelo://app?vid=90f9e942-4208-4cf9-8bd5-53cc21dd8c3e"},"vehicle_type_id":"4","last_reported":1736928738,"current_range_meters":30800,"station_id":"ce4bguh2rcd13ifvqcj0","pricing_plan_id":"cebpf4jnsgd1na2vs0mg"},{"bike_id":"b961f592-5d1f-4315-a41b-7c71b5c3ec5e","system_id":"levelo_inurba_marseille","lat":43.29037,"lon":5.39978,"is_reserved":false,"is_disabled":true,"rental_uris":{"android":"levelo://app?vid=b961f592-5d1f-4315-a41b-7c71b5c3ec5e","ios":"levelo://app?vid=b961f592-5d1f-4315-a41b-7c71b5c3ec5e"},"vehicle_type_id":"4","last_reported":1736928738,"current_range_meters":11200,"station_id":"ce4bh392rcd13ifvqdm0","pricing_plan_id":"cebpf4jnsgd1na2vs0mg"},{"bike_id":"5ff5140a-2a8f-4905-8712-eb67584199e2","system_id":"levelo_inurba_marseille","lat":43.23959,"lon":5.36638,"is_reserved":false,"is_disabled":false,"rental_uris":{"android":"levelo://app?vid=5ff5140a-2a8f-4905-8712-eb67584199e2","ios":"levelo://app?vid=5ff5140a-2a8f-4905-8712-eb67584199e2"},"vehicle_type_id":"4","last_reported":1736928738,"current_range_meters":26000,"station_id":"ce4bhi12rcd13ifvqfp0","pricing_plan_id":"cebpf4jnsgd1na2vs0mg"},{"bike_id":"b9eed55d-5ba6-4dc4-a632-72e01b758f7a","system_id":"levelo_inurba_marseille","lat":43.30545,"lon":5.36556,"is_reserved":false,"is_disabled":true,"rental_uris":{"android":"levelo://app?vid=b9eed55d-5ba6-4dc4-a632-72e01b758f7a","ios":"levelo://app?vid=b9eed55d-5ba6-4dc4-a632-72e01b758f7a"},"vehicle_type_id":"4","last_reported":1736928738,"current_range_meters":800,"station_id":"ce4bgs12rcd13ifvqcag","pricing_plan_id":"cebpf4jnsgd1na2vs0mg"},{"bike_id":"ade37924-2114-4ba1-9b29-5d363346dd65","system_id":"levelo_inurba_marseille","lat":43.26925,"lon":5.38915,"is_reserved":false,"is_disabled":false,"rental_uris":{"android":"levelo://app?vid=ade37924-2114-4ba1-9b29-5d363346dd65","ios":"levelo://app?vid=ade37924-2114-4ba1-9b29-5d363346dd65"},"vehicle_type_id":"4","last_reported":1736928738,"current_range_meters":27200,"station_id":"ce4bhhh2rcd13ifvqfl0","pricing_plan_id":"cebpf4jnsgd1na2vs0mg"},{"bike_id":"ac93b4eb-0a30-4c23-8e23-ed807d8f13e8","system_id":"levelo_inurba_marseille","lat":43.2761,"lon":5.36107,"is_reserved":false,"is_disabled":false,"rental_uris":{"android":"levelo://app?vid=ac93b4eb-0a30-4c23-8e23-ed807d8f13e8","ios":"levelo://app?vid=ac93b4eb-0a30-4c23-8e23-ed807d8f13e8"},"vehicle_type_id":"4","last_reported":1736928738,"current_range_meters":39200,"station_id":"ce4bgj92rcd13ifvqbe0","pricing_plan_id":"cebpf4jnsgd1na2vs0mg"},{"bike_id":"51bb6953-dea8-4e82-96bf-52696267905f","system_id":"levelo_inurba_marseille","lat":43.23025,"lon":5.35506,"is_reserved":false,"is_disabled":false,"rental_uris":{"android":"levelo://app?vid=51bb6953-dea8-4e82-96bf-52696267905f","ios":"levelo://app?vid=51bb6953-dea8-4e82-96bf-52696267905f"},"vehicle_type_id":"4","last_reported":1736928738,"current_range_meters":6000,"station_id":"cpo3342slgdg3j2ifvpg","pricing_plan_id":"cebpf4jnsgd1na2vs0mg"},{"bike_id":"c6a41b3a-a7c4-4c32-9a9c-5597c68e3304","system_id":"levelo_inurba_marseille","lat":43.25106,"lon":5.40337,"is_reserved":false,"is_disabled":false,"rental_uris":{"android":"levelo://app?vid=c6a41b3a-a7c4-4c32-9a9c-5597c68e3304","ios":"levelo://app?vid=c6a41b3a-a7c4-4c32-9a9c-5597c68e3304"},"vehicle_type_id":"4","last_reported":1736928738,"current_range_meters":25600,"station_id":"ce4bhlh2rcd13ifvqgig","pricing_plan_id":"cebpf4jnsgd1na2vs0mg"},{"bike_id":"0c4dc621-e525-4719-883f-96a7d84144cd","system_id":"levelo_inurba_marseille","lat":43.30277,"lon":5.37702,"is_reserved":false,"is_disabled":false,"rental_uris":{"android":"levelo://app?vid=0c4dc621-e525-4719-883f-96a7d84144cd","ios":"levelo://app?vid=0c4dc621-e525-4719-883f-96a7d84144cd"},"vehicle_type_id":"4","last_reported":1736928738,"current_range_meters":32400,"station_id":"ce4bguh2rcd13ifvqcj0","pricing_plan_id":"cebpf4jnsgd1na2vs0mg"},{"bike_id":"1a254b72-f4cd-4890-bb1c-09da725a3c24","system_id":"levelo_inurba_marseille","lat":43.2695,"lon":5.38634,"is_reserved":false,"is_disabled":false,"rental_uris":{"android":"levelo://app?vid=1a254b72-f4cd-4890-bb1c-09da725a3c24","ios":"levelo://app?vid=1a254b72-f4cd-4890-bb1c-09da725a3c24"},"vehicle_type_id":"4","last_reported":1736928738,"current_range_meters":34000,"station_id":"ce4bhh92rcd13ifvqfh0","pricing_plan_id":"cebpf4jnsgd1na2vs0mg"},{"bike_id":"c3fd4a15-54c7-4bf7-8e92-aec52d2a8162","system_id":"levelo_inurba_marseille","lat":43.26673,"lon":5.38269,"is_reserved":false,"is_disabled":false,"rental_uris":{"android":"levelo://app?vid=c3fd4a15-54c7-4bf7-8e92-aec52d2a8162","ios":"levelo://app?vid=c3fd4a15-54c7-4bf7-8e92-aec52d2a8162"},"vehicle_type_id":"4","last_reported":1736928738,"current_range_meters":33200,"station_id":"ce4bhg92rcd13ifvqf90","pricing_plan_id":"cebpf4jnsgd1na2vs0mg"},{"bike_id":"8e3a7d2a-be13-4527-a83a-81aa9043e98d","system_id":"levelo_inurba_marseille","lat":43.29265,"lon":5.36847,"is_reserved":false,"is_disabled":false,"rental_uris":{"android":"levelo://app?vid=8e3a7d2a-be13-4527-a83a-81aa9043e98d","ios":"levelo://app?vid=8e3a7d2a-be13-4527-a83a-81aa9043e98d"},"vehicle_type_id":"4","last_reported":1736928738,"current_range_meters":10800,"station_id":"ce4bhbp2rcd13ifvqesg","pricing_plan_id":"cebpf4jnsgd1na2vs0mg"},{"bike_id":"2f4e407b-a800-464e-b727-fbf86976d858","system_id":"levelo_inurba_marseille","lat":43.30309,"lon":5.37934,"is_reserved":false,"is_disabled":false,"rental_uris":{"android":"levelo://app?vid=2f4e407b-a800-464e-b727-fbf86976d858","ios":"levelo://app?vid=2f4e407b-a800-464e-b727-fbf86976d858"},"vehicle_type_id":"4","last_reported":1736928738,"current_range_meters":38800,"station_id":"ce4bgs12rcd13ifvqcag","pricing_plan_id":"cebpf4jnsgd1na2vs0mg"},{"bike_id":"c4a8dadf-2d26-4438-8022-6780136cb89c","system_id":"levelo_inurba_marseille","lat":43.2761,"lon":5.36112,"is_reserved":false,"is_disabled":true,"rental_uris":{"android":"levelo://app?vid=c4a8dadf-2d26-4438-8022-6780136cb89c","ios":"levelo://app?vid=c4a8dadf-2d26-4438-8022-6780136cb89c"},"vehicle_type_id":"4","last_reported":1736928738,"current_range_meters":34000,"station_id":"ce4bgj92rcd13ifvqbe0","pricing_plan_id":"cebpf4jnsgd1na2vs0mg"},{"bike_id":"f6b5a21b-caca-4bab-9767-62a516c88435","system_id":"levelo_inurba_marseille","lat":43.24652,"lon":5.3889,"is_reserved":false,"is_disabled":false,"rental_uris":{"android":"levelo://app?vid=f6b5a21b-caca-4bab-9767-62a516c88435","ios":"levelo://app?vid=f6b5a21b-caca-4bab-9767-62a516c88435"},"vehicle_type_id":"4","last_reported":1736928738,"current_range_meters":38800,"station_id":"ce4bhg12rcd13ifvqf60","pricing_plan_id":"cebpf4jnsgd1na2vs0mg"},{"bike_id":"1ab3f322-8e8f-40bf-b46a-ad736fdeffee","system_id":"levelo_inurba_marseille","lat":43.231538,"lon":5.437195,"is_reserved":false,"is_disabled":false,"rental_uris":{"android":"levelo://app?vid=1ab3f322-8e8f-40bf-b46a-ad736fdeffee","ios":"levelo://app?vid=1ab3f322-8e8f-40bf-b46a-ad736fdeffee"},"vehicle_type_id":"4","last_reported":1736928738,"current_range_meters":38800,"station_id":"ce4bhmp2rcd13ifvqgog","pricing_plan_id":"cebpf4jnsgd1na2vs0mg"},{"bike_id":"f03b5fc9-22ba-4ddf-b60c-2674110a32a3","system_id":"levelo_inurba_marseille","lat":43.28472,"lon":5.38424,"is_reserved":false,"is_disabled":false,"rental_uris":{"android":"levelo://app?vid=f03b5fc9-22ba-4ddf-b60c-2674110a32a3","ios":"levelo://app?vid=f03b5fc9-22ba-4ddf-b60c-2674110a32a3"},"vehicle_type_id":"4","last_reported":1736928738,"current_range_meters":28400,"station_id":"ce4bh512rcd13ifvqe3g","pricing_plan_id":"cebpf4jnsgd1na2vs0mg"},{"bike_id":"1aaa5e7a-c52b-4de0-b54a-8e59351b329d","system_id":"levelo_inurba_marseille","lat":43.27474,"lon":5.42398,"is_reserved":false,"is_disabled":false,"rental_uris":{"android":"levelo://app?vid=1aaa5e7a-c52b-4de0-b54a-8e59351b329d","ios":"levelo://app?vid=1aaa5e7a-c52b-4de0-b54a-8e59351b329d"},"vehicle_type_id":"4","last_reported":1736928738,"current_range_meters":9600,"station_id":"","pricing_plan_id":"cebpf4jnsgd1na2vs0mg"},{"bike_id":"7d7c456a-9cec-4962-9d23-1f9fd38c798d","system_id":"levelo_inurba_marseille","lat":43.24679,"lon":5.38164,"is_reserved":false,"is_disabled":false,"rental_uris":{"android":"levelo://app?vid=7d7c456a-9cec-4962-9d23-1f9fd38c798d","ios":"levelo://app?vid=7d7c456a-9cec-4962-9d23-1f9fd38c798d"},"vehicle_type_id":"4","last_reported":1736928738,"current_range_meters":23200,"station_id":"ce4bhih2rcd13ifvqfr0","pricing_plan_id":"cebpf4jnsgd1na2vs0mg"},{"bike_id":"53206026-addf-4a65-8fa0-3fc174184ef4","system_id":"levelo_inurba_marseille","lat":43.31755,"lon":5.39018,"is_reserved":false,"is_disabled":false,"rental_uris":{"android":"levelo://app?vid=53206026-addf-4a65-8fa0-3fc174184ef4","ios":"levelo://app?vid=53206026-addf-4a65-8fa0-3fc174184ef4"},"vehicle_type_id":"4","last_reported":1736928738,"current_range_meters":29600,"station_id":"ce4bhqp2rcd13ifvqhng","pricing_plan_id":"cebpf4jnsgd1na2vs0mg"},{"bike_id":"b328758c-1306-4f48-9fa3-7f9b48fccfe1","system_id":"levelo_inurba_marseille","lat":43.23189,"lon":5.39995,"is_reserved":false,"is_disabled":false,"rental_uris":{"android":"levelo://app?vid=b328758c-1306-4f48-9fa3-7f9b48fccfe1","ios":"levelo://app?vid=b328758c-1306-4f48-9fa3-7f9b48fccfe1"},"vehicle_type_id":"4","last_reported":1736928738,"current_range_meters":14800,"station_id":"ce4bhn12rcd13ifvqgqg","pricing_plan_id":"cebpf4jnsgd1na2vs0mg"},{"bike_id":"a56bdef2-14b8-4e02-b3bc-538917283971","system_id":"levelo_inurba_marseille","lat":43.25083,"lon":5.3951,"is_reserved":false,"is_disabled":false,"rental_uris":{"android":"levelo://app?vid=a56bdef2-14b8-4e02-b3bc-538917283971","ios":"levelo://app?vid=a56bdef2-14b8-4e02-b3bc-538917283971"},"vehicle_type_id":"4","last_reported":1736928738,"current_range_meters":28400,"station_id":"ce4bhm12rcd13ifvqgkg","pricing_plan_id":"cebpf4jnsgd1na2vs0mg"},{"bike_id":"595c43f9-e732-431c-b61a-7e3290289a54","system_id":"levelo_inurba_marseille","lat":43.30257,"lon":5.37744,"is_reserved":false,"is_disabled":false,"rental_uris":{"android":"levelo://app?vid=595c43f9-e732-431c-b61a-7e3290289a54","ios":"levelo://app?vid=595c43f9-e732-431c-b61a-7e3290289a54"},"vehicle_type_id":"4","last_reported":1736928738,"current_range_meters":38000,"station_id":"ce4bguh2rcd13ifvqcj0","pricing_plan_id":"cebpf4jnsgd1na2vs0mg"},{"bike_id":"f715cf70-da86-4eb8-be71-e08b36a5db0b","system_id":"levelo_inurba_marseille","lat":43.28933,"lon":5.39642,"is_reserved":false,"is_disabled":false,"rental_uris":{"android":"levelo://app?vid=f715cf70-da86-4eb8-be71-e08b36a5db0b","ios":"levelo://app?vid=f715cf70-da86-4eb8-be71-e08b36a5db0b"},"vehicle_type_id":"4","last_reported":1736928738,"current_range_meters":9600,"station_id":"ce4bh3h2rcd13ifvqdn0","pricing_plan_id":"cebpf4jnsgd1na2vs0mg"},{"bike_id":"46817450-1956-4426-b21c-78cce4d33319","system_id":"levelo_inurba_marseille","lat":43.26208,"lon":5.37444,"is_reserved":false,"is_disabled":false,"rental_uris":{"android":"levelo://app?vid=46817450-1956-4426-b21c-78cce4d33319","ios":"levelo://app?vid=46817450-1956-4426-b21c-78cce4d33319"},"vehicle_type_id":"4","last_reported":1736928738,"current_range_meters":12000,"station_id":"ce4bhgp2rcd13ifvqfc0","pricing_plan_id":"cebpf4jnsgd1na2vs0mg"},{"bike_id":"1f03113e-6eec-4a9f-abd4-643c38e758f9","system_id":"levelo_inurba_marseille","lat":43.30249,"lon":5.40085,"is_reserved":false,"is_disabled":false,"rental_uris":{"android":"levelo://app?vid=1f03113e-6eec-4a9f-abd4-643c38e758f9","ios":"levelo://app?vid=1f03113e-6eec-4a9f-abd4-643c38e758f9"},"vehicle_type_id":"4","last_reported":1736928738,"current_range_meters":39200,"station_id":"ce4bgvh2rcd13ifvqcs0","pricing_plan_id":"cebpf4jnsgd1na2vs0mg"},{"bike_id":"189b91da-1948-445e-9093-262835d0177a","system_id":"levelo_inurba_marseille","lat":43.2897,"lon":5.37836,"is_reserved":false,"is_disabled":false,"rental_uris":{"android":"levelo://app?vid=189b91da-1948-445e-9093-262835d0177a","ios":"levelo://app?vid=189b91da-1948-445e-9093-262835d0177a"},"vehicle_type_id":"4","last_reported":1736928738,"current_range_meters":23200,"station_id":"ce4bh9p2rcd13ifvqed0","pricing_plan_id":"cebpf4jnsgd1na2vs0mg"},{"bike_id":"b51b8509-c21e-40ac-802b-edd56e55cdd0","system_id":"levelo_inurba_marseille","lat":43.30353,"lon":5.41888,"is_reserved":false,"is_disabled":true,"rental_uris":{"android":"levelo://app?vid=b51b8509-c21e-40ac-802b-edd56e55cdd0","ios":"levelo://app?vid=b51b8509-c21e-40ac-802b-edd56e55cdd0"},"vehicle_type_id":"4","last_reported":1736928738,"current_range_meters":17600,"station_id":"ce4bhop2rcd13ifvqh7g","pricing_plan_id":"cebpf4jnsgd1na2vs0mg"},{"bike_id":"393f2a4c-f92f-4c75-a253-e1e1fb37fb35","system_id":"levelo_inurba_marseille","lat":43.24066,"lon":5.3775,"is_reserved":false,"is_disabled":false,"rental_uris":{"android":"levelo://app?vid=393f2a4c-f92f-4c75-a253-e1e1fb37fb35","ios":"levelo://app?vid=393f2a4c-f92f-4c75-a253-e1e1fb37fb35"},"vehicle_type_id":"4","last_reported":1736928738,"current_range_meters":32400,"station_id":"ce4bhnp2rcd13ifvqgvg","pricing_plan_id":"cebpf4jnsgd1na2vs0mg"},{"bike_id":"30cc888a-fdf7-41aa-8fb2-d46ec5802ae1","system_id":"levelo_inurba_marseille","lat":43.328527,"lon":5.399747,"is_reserved":false,"is_disabled":true,"rental_uris":{"android":"levelo://app?vid=30cc888a-fdf7-41aa-8fb2-d46ec5802ae1","ios":"levelo://app?vid=30cc888a-fdf7-41aa-8fb2-d46ec5802ae1"},"vehicle_type_id":"4","last_reported":1736928738,"current_range_meters":0,"station_id":"","pricing_plan_id":"cebpf4jnsgd1na2vs0mg"},{"bike_id":"341e93f3-1ec5-467a-853c-df4e0eb9b641","system_id":"levelo_inurba_marseille","lat":43.27062,"lon":5.40261,"is_reserved":false,"is_disabled":true,"rental_uris":{"android":"levelo://app?vid=341e93f3-1ec5-467a-853c-df4e0eb9b641","ios":"levelo://app?vid=341e93f3-1ec5-467a-853c-df4e0eb9b641"},"vehicle_type_id":"4","last_reported":1736928738,"current_range_meters":28000,"station_id":"ce4bhk92rcd13ifvqgc0","pricing_plan_id":"cebpf4jnsgd1na2vs0mg"},{"bike_id":"acd6e51c-78e5-413e-8a2a-311846f22b7d","system_id":"levelo_inurba_marseille","lat":43.27068,"lon":5.40256,"is_reserved":false,"is_disabled":false,"rental_uris":{"android":"levelo://app?vid=acd6e51c-78e5-413e-8a2a-311846f22b7d","ios":"levelo://app?vid=acd6e51c-78e5-413e-8a2a-311846f22b7d"},"vehicle_type_id":"4","last_reported":1736928738,"current_range_meters":36800,"station_id":"ce4bhk92rcd13ifvqgc0","pricing_plan_id":"cebpf4jnsgd1na2vs0mg"},{"bike_id":"13d8461e-0932-4011-b23f-f1f784c30a3e","system_id":"levelo_inurba_marseille","lat":43.25,"lon":5.38895,"is_reserved":false,"is_disabled":true,"rental_uris":{"android":"levelo://app?vid=13d8461e-0932-4011-b23f-f1f784c30a3e","ios":"levelo://app?vid=13d8461e-0932-4011-b23f-f1f784c30a3e"},"vehicle_type_id":"4","last_reported":1736928738,"current_range_meters":38800,"station_id":"ce4bhgp2rcd13ifvqfd0","pricing_plan_id":"cebpf4jnsgd1na2vs0mg"},{"bike_id":"0adbfa65-465c-487a-8c44-6247250163c9","system_id":"levelo_inurba_marseille","lat":43.31224,"lon":5.36847,"is_reserved":false,"is_disabled":true,"rental_uris":{"android":"levelo://app?vid=0adbfa65-465c-487a-8c44-6247250163c9","ios":"levelo://app?vid=0adbfa65-465c-487a-8c44-6247250163c9"},"vehicle_type_id":"4","last_reported":1736928738,"current_range_meters":6800,"station_id":"ce4bgl92rcd13ifvqbq0","pricing_plan_id":"cebpf4jnsgd1na2vs0mg"},{"bike_id":"04deccb6-f313-44bf-8fcb-bffda4962049","system_id":"levelo_inurba_marseille","lat":43.27931,"lon":5.41047,"is_reserved":false,"is_disabled":false,"rental_uris":{"android":"levelo://app?vid=04deccb6-f313-44bf-8fcb-bffda4962049","ios":"levelo://app?vid=04deccb6-f313-44bf-8fcb-bffda4962049"},"vehicle_type_id":"4","last_reported":1736928738,"current_range_meters":27200,"station_id":"ce4bhnp2rcd13ifvqh0g","pricing_plan_id":"cebpf4jnsgd1na2vs0mg"},{"bike_id":"d8e3941b-0cae-4b8e-ae3c-c34a4b3b2c65","system_id":"levelo_inurba_marseille","lat":43.31993,"lon":5.38152,"is_reserved":false,"is_disabled":false,"rental_uris":{"android":"levelo://app?vid=d8e3941b-0cae-4b8e-ae3c-c34a4b3b2c65","ios":"levelo://app?vid=d8e3941b-0cae-4b8e-ae3c-c34a4b3b2c65"},"vehicle_type_id":"4","last_reported":1736928738,"current_range_meters":38800,"station_id":"ce4bhr12rcd13ifvqhpg","pricing_plan_id":"cebpf4jnsgd1na2vs0mg"},{"bike_id":"7c14d5c3-ce5a-4bd4-83e5-ff6c90da96df","system_id":"levelo_inurba_marseille","lat":43.28566,"lon":5.38406,"is_reserved":false,"is_disabled":true,"rental_uris":{"android":"levelo://app?vid=7c14d5c3-ce5a-4bd4-83e5-ff6c90da96df","ios":"levelo://app?vid=7c14d5c3-ce5a-4bd4-83e5-ff6c90da96df"},"vehicle_type_id":"4","last_reported":1736928738,"current_range_meters":0,"station_id":"","pricing_plan_id":"cebpf4jnsgd1na2vs0mg"},{"bike_id":"129e4d81-493a-4b9b-a359-ecc30b6b83bf","system_id":"levelo_inurba_marseille","lat":43.26949,"lon":5.38629,"is_reserved":false,"is_disabled":false,"rental_uris":{"android":"levelo://app?vid=129e4d81-493a-4b9b-a359-ecc30b6b83bf","ios":"levelo://app?vid=129e4d81-493a-4b9b-a359-ecc30b6b83bf"},"vehicle_type_id":"4","last_reported":1736928738,"current_range_meters":32400,"station_id":"ce4bhh92rcd13ifvqfh0","pricing_plan_id":"cebpf4jnsgd1na2vs0mg"},{"bike_id":"fb51c046-9b95-427f-9f9f-1bb865f88d6b","system_id":"levelo_inurba_marseille","lat":43.32286,"lon":5.38262,"is_reserved":false,"is_disabled":false,"rental_uris":{"android":"levelo://app?vid=fb51c046-9b95-427f-9f9f-1bb865f88d6b","ios":"levelo://app?vid=fb51c046-9b95-427f-9f9f-1bb865f88d6b"},"vehicle_type_id":"4","last_reported":1736928738,"current_range_meters":14000,"station_id":"ce4bhr12rcd13ifvqhqg","pricing_plan_id":"cebpf4jnsgd1na2vs0mg"},{"bike_id":"04687878-28f0-4113-b3ce-450990473717","system_id":"levelo_inurba_marseille","lat":43.30421,"lon":5.39746,"is_reserved":false,"is_disabled":false,"rental_uris":{"android":"levelo://app?vid=04687878-28f0-4113-b3ce-450990473717","ios":"levelo://app?vid=04687878-28f0-4113-b3ce-450990473717"},"vehicle_type_id":"4","last_reported":1736928738,"current_range_meters":8400,"station_id":"ce4bh092rcd13ifvqd20","pricing_plan_id":"cebpf4jnsgd1na2vs0mg"},{"bike_id":"54562beb-d62d-45a9-aee6-6ac8321e0e4a","system_id":"levelo_inurba_marseille","lat":43.29802,"lon":5.40418,"is_reserved":false,"is_disabled":false,"rental_uris":{"android":"levelo://app?vid=54562beb-d62d-45a9-aee6-6ac8321e0e4a","ios":"levelo://app?vid=54562beb-d62d-45a9-aee6-6ac8321e0e4a"},"vehicle_type_id":"4","last_reported":1736928738,"current_range_meters":37600,"station_id":"ce4bh112rcd13ifvqd90","pricing_plan_id":"cebpf4jnsgd1na2vs0mg"},{"bike_id":"1dc448a0-ee33-4a06-b8c4-96265dcf9cdd","system_id":"levelo_inurba_marseille","lat":43.32534,"lon":5.4144,"is_reserved":false,"is_disabled":false,"rental_uris":{"android":"levelo://app?vid=1dc448a0-ee33-4a06-b8c4-96265dcf9cdd","ios":"levelo://app?vid=1dc448a0-ee33-4a06-b8c4-96265dcf9cdd"},"vehicle_type_id":"4","last_reported":1736928738,"current_range_meters":38400,"station_id":"ce4bhq12rcd13ifvqhhg","pricing_plan_id":"cebpf4jnsgd1na2vs0mg"},{"bike_id":"733c84d1-b906-45a9-b7c5-d0ec2361f65c","system_id":"levelo_inurba_marseille","lat":43.24666,"lon":5.38174,"is_reserved":false,"is_disabled":false,"rental_uris":{"android":"levelo://app?vid=733c84d1-b906-45a9-b7c5-d0ec2361f65c","ios":"levelo://app?vid=733c84d1-b906-45a9-b7c5-d0ec2361f65c"},"vehicle_type_id":"4","last_reported":1736928738,"current_range_meters":13600,"station_id":"ce4bhih2rcd13ifvqfr0","pricing_plan_id":"cebpf4jnsgd1na2vs0mg"},{"bike_id":"a1cbf57f-0d37-4cde-a4f4-e53c7978be93","system_id":"levelo_inurba_marseille","lat":43.26065,"lon":5.39399,"is_reserved":false,"is_disabled":false,"rental_uris":{"android":"levelo://app?vid=a1cbf57f-0d37-4cde-a4f4-e53c7978be93","ios":"levelo://app?vid=a1cbf57f-0d37-4cde-a4f4-e53c7978be93"},"vehicle_type_id":"4","last_reported":1736928738,"current_range_meters":8000,"station_id":"ce4bhh92rcd13ifvqfj0","pricing_plan_id":"cebpf4jnsgd1na2vs0mg"},{"bike_id":"92c3a895-32f3-4b8c-ae2f-02ef468241dd","system_id":"levelo_inurba_marseille","lat":43.29372,"lon":5.37845,"is_reserved":false,"is_disabled":false,"rental_uris":{"android":"levelo://app?vid=92c3a895-32f3-4b8c-ae2f-02ef468241dd","ios":"levelo://app?vid=92c3a895-32f3-4b8c-ae2f-02ef468241dd"},"vehicle_type_id":"4","last_reported":1736928738,"current_range_meters":38800,"station_id":"ce4bgjh2rcd13ifvqbf0","pricing_plan_id":"cebpf4jnsgd1na2vs0mg"},{"bike_id":"20b42ccb-0411-4ccb-9208-7ac954900656","system_id":"levelo_inurba_marseille","lat":43.31421,"lon":5.36645,"is_reserved":false,"is_disabled":false,"rental_uris":{"android":"levelo://app?vid=20b42ccb-0411-4ccb-9208-7ac954900656","ios":"levelo://app?vid=20b42ccb-0411-4ccb-9208-7ac954900656"},"vehicle_type_id":"4","last_reported":1736928738,"current_range_meters":8800,"station_id":"ce4bgr92rcd13ifvqc6g","pricing_plan_id":"cebpf4jnsgd1na2vs0mg"},{"bike_id":"a74f57c6-4c9f-45e1-ba75-05ac5722b7c2","system_id":"levelo_inurba_marseille","lat":43.31102,"lon":5.37778,"is_reserved":false,"is_disabled":false,"rental_uris":{"android":"levelo://app?vid=a74f57c6-4c9f-45e1-ba75-05ac5722b7c2","ios":"levelo://app?vid=a74f57c6-4c9f-45e1-ba75-05ac5722b7c2"},"vehicle_type_id":"4","last_reported":1736928738,"current_range_meters":35200,"station_id":"ce4bgt92rcd13ifvqcg0","pricing_plan_id":"cebpf4jnsgd1na2vs0mg"},{"bike_id":"08a9da6b-453a-4588-b4c7-de457da481e2","system_id":"levelo_inurba_marseille","lat":43.30936,"lon":5.40151,"is_reserved":false,"is_disabled":false,"rental_uris":{"android":"levelo://app?vid=08a9da6b-453a-4588-b4c7-de457da481e2","ios":"levelo://app?vid=08a9da6b-453a-4588-b4c7-de457da481e2"},"vehicle_type_id":"4","last_reported":1736928738,"current_range_meters":37600,"station_id":"ce4bgvp2rcd13ifvqct0","pricing_plan_id":"cebpf4jnsgd1na2vs0mg"},{"bike_id":"a01de448-cffe-4357-8cb3-2d9c061a5f52","system_id":"levelo_inurba_marseille","lat":43.29305,"lon":5.37172,"is_reserved":false,"is_disabled":true,"rental_uris":{"android":"levelo://app?vid=a01de448-cffe-4357-8cb3-2d9c061a5f52","ios":"levelo://app?vid=a01de448-cffe-4357-8cb3-2d9c061a5f52"},"vehicle_type_id":"4","last_reported":1736928738,"current_range_meters":6400,"station_id":"ce4bgh92rcd13ifvqb40","pricing_plan_id":"cebpf4jnsgd1na2vs0mg"},{"bike_id":"7bd45f2d-29a0-4d81-b39a-d674c96bf547","system_id":"levelo_inurba_marseille","lat":43.29529,"lon":5.38537,"is_reserved":false,"is_disabled":false,"rental_uris":{"android":"levelo://app?vid=7bd45f2d-29a0-4d81-b39a-d674c96bf547","ios":"levelo://app?vid=7bd45f2d-29a0-4d81-b39a-d674c96bf547"},"vehicle_type_id":"4","last_reported":1736928738,"current_range_meters":23200,"station_id":"ce4bgih2rcd13ifvqba0","pricing_plan_id":"cebpf4jnsgd1na2vs0mg"},{"bike_id":"92cbda44-c363-4032-b96e-eec4a483ec63","system_id":"levelo_inurba_marseille","lat":43.27755,"lon":5.41146,"is_reserved":false,"is_disabled":false,"rental_uris":{"android":"levelo://app?vid=92cbda44-c363-4032-b96e-eec4a483ec63","ios":"levelo://app?vid=92cbda44-c363-4032-b96e-eec4a483ec63"},"vehicle_type_id":"4","last_reported":1736928738,"current_range_meters":24400,"station_id":"","pricing_plan_id":"cebpf4jnsgd1na2vs0mg"},{"bike_id":"5f750d13-c3ed-401c-a261-41279e59c801","system_id":"levelo_inurba_marseille","lat":43.30925,"lon":5.40151,"is_reserved":false,"is_disabled":false,"rental_uris":{"android":"levelo://app?vid=5f750d13-c3ed-401c-a261-41279e59c801","ios":"levelo://app?vid=5f750d13-c3ed-401c-a261-41279e59c801"},"vehicle_type_id":"4","last_reported":1736928738,"current_range_meters":37600,"station_id":"ce4bgvp2rcd13ifvqct0","pricing_plan_id":"cebpf4jnsgd1na2vs0mg"},{"bike_id":"99aa8ece-0a04-440f-9f1e-f2aa239777c0","system_id":"levelo_inurba_marseille","lat":43.29559,"lon":5.4227,"is_reserved":false,"is_disabled":false,"rental_uris":{"android":"levelo://app?vid=99aa8ece-0a04-440f-9f1e-f2aa239777c0","ios":"levelo://app?vid=99aa8ece-0a04-440f-9f1e-f2aa239777c0"},"vehicle_type_id":"4","last_reported":1736928738,"current_range_meters":31200,"station_id":"ce4bhph2rcd13ifvqhdg","pricing_plan_id":"cebpf4jnsgd1na2vs0mg"},{"bike_id":"57e14091-c14e-4979-a5fb-d74103e86ffe","system_id":"levelo_inurba_marseille","lat":43.26945,"lon":5.38638,"is_reserved":false,"is_disabled":false,"rental_uris":{"android":"levelo://app?vid=57e14091-c14e-4979-a5fb-d74103e86ffe","ios":"levelo://app?vid=57e14091-c14e-4979-a5fb-d74103e86ffe"},"vehicle_type_id":"4","last_reported":1736928738,"current_range_meters":30800,"station_id":"ce4bhh92rcd13ifvqfh0","pricing_plan_id":"cebpf4jnsgd1na2vs0mg"},{"bike_id":"5f23a61a-7e7d-465e-942d-98e84a6e0f49","system_id":"levelo_inurba_marseille","lat":43.24818,"lon":5.37475,"is_reserved":false,"is_disabled":false,"rental_uris":{"android":"levelo://app?vid=5f23a61a-7e7d-465e-942d-98e84a6e0f49","ios":"levelo://app?vid=5f23a61a-7e7d-465e-942d-98e84a6e0f49"},"vehicle_type_id":"4","last_reported":1736928738,"current_range_meters":30400,"station_id":"ce4bhgh2rcd13ifvqfb0","pricing_plan_id":"cebpf4jnsgd1na2vs0mg"},{"bike_id":"8d08fa75-e041-4b5c-90f2-d9e65958237e","system_id":"levelo_inurba_marseille","lat":43.26951,"lon":5.38632,"is_reserved":false,"is_disabled":false,"rental_uris":{"android":"levelo://app?vid=8d08fa75-e041-4b5c-90f2-d9e65958237e","ios":"levelo://app?vid=8d08fa75-e041-4b5c-90f2-d9e65958237e"},"vehicle_type_id":"4","last_reported":1736928738,"current_range_meters":38000,"station_id":"ce4bhh92rcd13ifvqfh0","pricing_plan_id":"cebpf4jnsgd1na2vs0mg"},{"bike_id":"b9ac007f-9c07-4428-bb38-b7e0f3045614","system_id":"levelo_inurba_marseille","lat":43.25081,"lon":5.39527,"is_reserved":false,"is_disabled":false,"rental_uris":{"android":"levelo://app?vid=b9ac007f-9c07-4428-bb38-b7e0f3045614","ios":"levelo://app?vid=b9ac007f-9c07-4428-bb38-b7e0f3045614"},"vehicle_type_id":"4","last_reported":1736928738,"current_range_meters":3200,"station_id":"ce4bhm12rcd13ifvqgkg","pricing_plan_id":"cebpf4jnsgd1na2vs0mg"},{"bike_id":"7d557bd5-882f-42d6-a268-2c58470560f6","system_id":"levelo_inurba_marseille","lat":43.29096,"lon":5.38153,"is_reserved":false,"is_disabled":false,"rental_uris":{"android":"levelo://app?vid=7d557bd5-882f-42d6-a268-2c58470560f6","ios":"levelo://app?vid=7d557bd5-882f-42d6-a268-2c58470560f6"},"vehicle_type_id":"4","last_reported":1736928738,"current_range_meters":36800,"station_id":"ce4bh512rcd13ifvqe2g","pricing_plan_id":"cebpf4jnsgd1na2vs0mg"},{"bike_id":"82b8a09a-15c7-49de-9368-5c5aead156b1","system_id":"levelo_inurba_marseille","lat":43.26947,"lon":5.38629,"is_reserved":false,"is_disabled":false,"rental_uris":{"android":"levelo://app?vid=82b8a09a-15c7-49de-9368-5c5aead156b1","ios":"levelo://app?vid=82b8a09a-15c7-49de-9368-5c5aead156b1"},"vehicle_type_id":"4","last_reported":1736928738,"current_range_meters":38000,"station_id":"ce4bhh92rcd13ifvqfh0","pricing_plan_id":"cebpf4jnsgd1na2vs0mg"},{"bike_id":"0bb787af-c506-4390-b3e4-3d6116cc8d06","system_id":"levelo_inurba_marseille","lat":43.2921,"lon":5.4354,"is_reserved":false,"is_disabled":false,"rental_uris":{"android":"levelo://app?vid=0bb787af-c506-4390-b3e4-3d6116cc8d06","ios":"levelo://app?vid=0bb787af-c506-4390-b3e4-3d6116cc8d06"},"vehicle_type_id":"4","last_reported":1736928738,"current_range_meters":12800,"station_id":"","pricing_plan_id":"cebpf4jnsgd1na2vs0mg"},{"bike_id":"ae6a24c6-71f9-417a-adfe-c09c90280637","system_id":"levelo_inurba_marseille","lat":43.26524,"lon":5.37325,"is_reserved":false,"is_disabled":false,"rental_uris":{"android":"levelo://app?vid=ae6a24c6-71f9-417a-adfe-c09c90280637","ios":"levelo://app?vid=ae6a24c6-71f9-417a-adfe-c09c90280637"},"vehicle_type_id":"4","last_reported":1736928738,"current_range_meters":38000,"station_id":"","pricing_plan_id":"cebpf4jnsgd1na2vs0mg"},{"bike_id":"fd0727d7-9811-48e0-9045-09629f68dc59","system_id":"levelo_inurba_marseille","lat":43.30296,"lon":5.39208,"is_reserved":false,"is_disabled":false,"rental_uris":{"android":"levelo://app?vid=fd0727d7-9811-48e0-9045-09629f68dc59","ios":"levelo://app?vid=fd0727d7-9811-48e0-9045-09629f68dc59"},"vehicle_type_id":"4","last_reported":1736928738,"current_range_meters":38800,"station_id":"ce4bgkh2rcd13ifvqbk0","pricing_plan_id":"cebpf4jnsgd1na2vs0mg"},{"bike_id":"31ca8b0e-c72e-47d4-a59b-a2766db72931","system_id":"levelo_inurba_marseille","lat":43.28432,"lon":5.4093,"is_reserved":false,"is_disabled":true,"rental_uris":{"android":"levelo://app?vid=31ca8b0e-c72e-47d4-a59b-a2766db72931","ios":"levelo://app?vid=31ca8b0e-c72e-47d4-a59b-a2766db72931"},"vehicle_type_id":"4","last_reported":1736928738,"current_range_meters":31200,"station_id":"","pricing_plan_id":"cebpf4jnsgd1na2vs0mg"},{"bike_id":"edd42b2d-e956-4e3a-82d3-8a14b48c70f7","system_id":"levelo_inurba_marseille","lat":43.26214,"lon":5.37916,"is_reserved":false,"is_disabled":false,"rental_uris":{"android":"levelo://app?vid=edd42b2d-e956-4e3a-82d3-8a14b48c70f7","ios":"levelo://app?vid=edd42b2d-e956-4e3a-82d3-8a14b48c70f7"},"vehicle_type_id":"4","last_reported":1736928738,"current_range_meters":37600,"station_id":"ce4bhjp2rcd13ifvqg90","pricing_plan_id":"cebpf4jnsgd1na2vs0mg"},{"bike_id":"60c48e84-151f-4edd-83cd-789ff87c7f63","system_id":"levelo_inurba_marseille","lat":43.28699,"lon":5.37399,"is_reserved":false,"is_disabled":true,"rental_uris":{"android":"levelo://app?vid=60c48e84-151f-4edd-83cd-789ff87c7f63","ios":"levelo://app?vid=60c48e84-151f-4edd-83cd-789ff87c7f63"},"vehicle_type_id":"4","last_reported":1736928738,"current_range_meters":29600,"station_id":"ce4bh3p2rcd13ifvqdq0","pricing_plan_id":"cebpf4jnsgd1na2vs0mg"},{"bike_id":"697eca9a-2e89-4ffe-831c-9c1d7258fe89","system_id":"levelo_inurba_marseille","lat":43.29807,"lon":5.38071,"is_reserved":false,"is_disabled":false,"rental_uris":{"android":"levelo://app?vid=697eca9a-2e89-4ffe-831c-9c1d7258fe89","ios":"levelo://app?vid=697eca9a-2e89-4ffe-831c-9c1d7258fe89"},"vehicle_type_id":"4","last_reported":1736928738,"current_range_meters":3200,"station_id":"","pricing_plan_id":"cebpf4jnsgd1na2vs0mg"},{"bike_id":"882b3779-be3e-4adb-b81b-335e1c6b4988","system_id":"levelo_inurba_marseille","lat":43.32527,"lon":5.41456,"is_reserved":false,"is_disabled":false,"rental_uris":{"android":"levelo://app?vid=882b3779-be3e-4adb-b81b-335e1c6b4988","ios":"levelo://app?vid=882b3779-be3e-4adb-b81b-335e1c6b4988"},"vehicle_type_id":"4","last_reported":1736928738,"current_range_meters":28400,"station_id":"ce4bhq12rcd13ifvqhhg","pricing_plan_id":"cebpf4jnsgd1na2vs0mg"},{"bike_id":"e05770dc-4ca5-42f6-8928-9e060772c93d","system_id":"levelo_inurba_marseille","lat":43.32357,"lon":5.38865,"is_reserved":false,"is_disabled":false,"rental_uris":{"android":"levelo://app?vid=e05770dc-4ca5-42f6-8928-9e060772c93d","ios":"levelo://app?vid=e05770dc-4ca5-42f6-8928-9e060772c93d"},"vehicle_type_id":"4","last_reported":1736928738,"current_range_meters":37600,"station_id":"ce4bhqp2rcd13ifvqhog","pricing_plan_id":"cebpf4jnsgd1na2vs0mg"},{"bike_id":"f5783b8d-b90c-479c-a268-6281988c9ab0","system_id":"levelo_inurba_marseille","lat":43.31753,"lon":5.39003,"is_reserved":false,"is_disabled":false,"rental_uris":{"android":"levelo://app?vid=f5783b8d-b90c-479c-a268-6281988c9ab0","ios":"levelo://app?vid=f5783b8d-b90c-479c-a268-6281988c9ab0"},"vehicle_type_id":"4","last_reported":1736928738,"current_range_meters":20400,"station_id":"ce4bhqp2rcd13ifvqhng","pricing_plan_id":"cebpf4jnsgd1na2vs0mg"},{"bike_id":"de05f028-7450-4792-8d5b-e268410faa9d","system_id":"levelo_inurba_marseille","lat":43.32097,"lon":5.36771,"is_reserved":false,"is_disabled":false,"rental_uris":{"android":"levelo://app?vid=de05f028-7450-4792-8d5b-e268410faa9d","ios":"levelo://app?vid=de05f028-7450-4792-8d5b-e268410faa9d"},"vehicle_type_id":"4","last_reported":1736928738,"current_range_meters":26000,"station_id":"ce4bhrh2rcd13ifvqhug","pricing_plan_id":"cebpf4jnsgd1na2vs0mg"},{"bike_id":"e8a7b18f-324f-4d29-886f-77b85b80b2c6","system_id":"levelo_inurba_marseille","lat":43.24091,"lon":5.37724,"is_reserved":false,"is_disabled":true,"rental_uris":{"android":"levelo://app?vid=e8a7b18f-324f-4d29-886f-77b85b80b2c6","ios":"levelo://app?vid=e8a7b18f-324f-4d29-886f-77b85b80b2c6"},"vehicle_type_id":"4","last_reported":1736928738,"current_range_meters":36400,"station_id":"ce4bhnp2rcd13ifvqgvg","pricing_plan_id":"cebpf4jnsgd1na2vs0mg"},{"bike_id":"79566bed-a01a-4650-86b1-450c24a558a7","system_id":"levelo_inurba_marseille","lat":43.30526,"lon":5.36542,"is_reserved":false,"is_disabled":false,"rental_uris":{"android":"levelo://app?vid=79566bed-a01a-4650-86b1-450c24a558a7","ios":"levelo://app?vid=79566bed-a01a-4650-86b1-450c24a558a7"},"vehicle_type_id":"4","last_reported":1736928738,"current_range_meters":38800,"station_id":"ce4bgs12rcd13ifvqcag","pricing_plan_id":"cebpf4jnsgd1na2vs0mg"},{"bike_id":"20fac074-0402-43b0-8570-bcc0c51122b5","system_id":"levelo_inurba_marseille","lat":43.27554,"lon":5.38431,"is_reserved":false,"is_disabled":false,"rental_uris":{"android":"levelo://app?vid=20fac074-0402-43b0-8570-bcc0c51122b5","ios":"levelo://app?vid=20fac074-0402-43b0-8570-bcc0c51122b5"},"vehicle_type_id":"4","last_reported":1736928738,"current_range_meters":6400,"station_id":"ce4bhhh2rcd13ifvqfl0","pricing_plan_id":"cebpf4jnsgd1na2vs0mg"},{"bike_id":"d85168cd-cda5-48df-a191-5048004ec8d2","system_id":"levelo_inurba_marseille","lat":43.25085,"lon":5.39508,"is_reserved":false,"is_disabled":false,"rental_uris":{"android":"levelo://app?vid=d85168cd-cda5-48df-a191-5048004ec8d2","ios":"levelo://app?vid=d85168cd-cda5-48df-a191-5048004ec8d2"},"vehicle_type_id":"4","last_reported":1736928738,"current_range_meters":37600,"station_id":"ce4bhm12rcd13ifvqgkg","pricing_plan_id":"cebpf4jnsgd1na2vs0mg"},{"bike_id":"5c92db62-e3f3-4b6d-aac2-cec3e6e60fa6","system_id":"levelo_inurba_marseille","lat":43.29964,"lon":5.37175,"is_reserved":false,"is_disabled":false,"rental_uris":{"android":"levelo://app?vid=5c92db62-e3f3-4b6d-aac2-cec3e6e60fa6","ios":"levelo://app?vid=5c92db62-e3f3-4b6d-aac2-cec3e6e60fa6"},"vehicle_type_id":"4","last_reported":1736928738,"current_range_meters":6800,"station_id":"ce4bgr92rcd13ifvqc7g","pricing_plan_id":"cebpf4jnsgd1na2vs0mg"},{"bike_id":"dbe1eda4-ae8d-4de5-817d-b38e9991bc1d","system_id":"levelo_inurba_marseille","lat":43.30904,"lon":5.36844,"is_reserved":false,"is_disabled":false,"rental_uris":{"android":"levelo://app?vid=dbe1eda4-ae8d-4de5-817d-b38e9991bc1d","ios":"levelo://app?vid=dbe1eda4-ae8d-4de5-817d-b38e9991bc1d"},"vehicle_type_id":"4","last_reported":1736928738,"current_range_meters":36800,"station_id":"ce4bgn92rcd13ifvqbvg","pricing_plan_id":"cebpf4jnsgd1na2vs0mg"},{"bike_id":"e7389ad4-9ac1-4074-9c50-e576296642fb","system_id":"levelo_inurba_marseille","lat":43.26932,"lon":5.38631,"is_reserved":false,"is_disabled":false,"rental_uris":{"android":"levelo://app?vid=e7389ad4-9ac1-4074-9c50-e576296642fb","ios":"levelo://app?vid=e7389ad4-9ac1-4074-9c50-e576296642fb"},"vehicle_type_id":"4","last_reported":1736928738,"current_range_meters":16400,"station_id":"ce4bhh92rcd13ifvqfh0","pricing_plan_id":"cebpf4jnsgd1na2vs0mg"},{"bike_id":"2d7f3353-743b-41e1-85f2-e32181d4ae48","system_id":"levelo_inurba_marseille","lat":43.31979,"lon":5.38141,"is_reserved":false,"is_disabled":false,"rental_uris":{"android":"levelo://app?vid=2d7f3353-743b-41e1-85f2-e32181d4ae48","ios":"levelo://app?vid=2d7f3353-743b-41e1-85f2-e32181d4ae48"},"vehicle_type_id":"4","last_reported":1736928738,"current_range_meters":38000,"station_id":"ce4bhr12rcd13ifvqhpg","pricing_plan_id":"cebpf4jnsgd1na2vs0mg"},{"bike_id":"01e1bd3c-cc17-41e2-88ff-d228178374cd","system_id":"levelo_inurba_marseille","lat":43.28143,"lon":5.42651,"is_reserved":false,"is_disabled":false,"rental_uris":{"android":"levelo://app?vid=01e1bd3c-cc17-41e2-88ff-d228178374cd","ios":"levelo://app?vid=01e1bd3c-cc17-41e2-88ff-d228178374cd"},"vehicle_type_id":"4","last_reported":1736928738,"current_range_meters":36400,"station_id":"ce4bhnh2rcd13ifvqgug","pricing_plan_id":"cebpf4jnsgd1na2vs0mg"},{"bike_id":"10cf3f44-efc7-4ac0-9299-ce9e5eaff490","system_id":"levelo_inurba_marseille","lat":43.30281,"lon":5.37704,"is_reserved":false,"is_disabled":false,"rental_uris":{"android":"levelo://app?vid=10cf3f44-efc7-4ac0-9299-ce9e5eaff490","ios":"levelo://app?vid=10cf3f44-efc7-4ac0-9299-ce9e5eaff490"},"vehicle_type_id":"4","last_reported":1736928738,"current_range_meters":6400,"station_id":"ce4bguh2rcd13ifvqcj0","pricing_plan_id":"cebpf4jnsgd1na2vs0mg"},{"bike_id":"a2416806-79c7-43e5-806b-68ab3111f8b7","system_id":"levelo_inurba_marseille","lat":43.25932,"lon":5.4091,"is_reserved":false,"is_disabled":false,"rental_uris":{"android":"levelo://app?vid=a2416806-79c7-43e5-806b-68ab3111f8b7","ios":"levelo://app?vid=a2416806-79c7-43e5-806b-68ab3111f8b7"},"vehicle_type_id":"4","last_reported":1736928738,"current_range_meters":20800,"station_id":"ce4bhm92rcd13ifvqglg","pricing_plan_id":"cebpf4jnsgd1na2vs0mg"},{"bike_id":"0d3724dc-69eb-4e45-abac-1643303bb051","system_id":"levelo_inurba_marseille","lat":43.27941,"lon":5.41046,"is_reserved":false,"is_disabled":false,"rental_uris":{"android":"levelo://app?vid=0d3724dc-69eb-4e45-abac-1643303bb051","ios":"levelo://app?vid=0d3724dc-69eb-4e45-abac-1643303bb051"},"vehicle_type_id":"4","last_reported":1736928738,"current_range_meters":24400,"station_id":"ce4bhnp2rcd13ifvqh0g","pricing_plan_id":"cebpf4jnsgd1na2vs0mg"},{"bike_id":"711c4655-59f8-48d6-895f-e834e0049338","system_id":"levelo_inurba_marseille","lat":43.27918,"lon":5.39581,"is_reserved":false,"is_disabled":true,"rental_uris":{"android":"levelo://app?vid=711c4655-59f8-48d6-895f-e834e0049338","ios":"levelo://app?vid=711c4655-59f8-48d6-895f-e834e0049338"},"vehicle_type_id":"4","last_reported":1736928738,"current_range_meters":20000,"station_id":"ce4bhf92rcd13ifvqf40","pricing_plan_id":"cebpf4jnsgd1na2vs0mg"},{"bike_id":"4467d7f9-67af-4647-b1b3-f3a1d228515b","system_id":"levelo_inurba_marseille","lat":43.26937,"lon":5.38636,"is_reserved":false,"is_disabled":true,"rental_uris":{"android":"levelo://app?vid=4467d7f9-67af-4647-b1b3-f3a1d228515b","ios":"levelo://app?vid=4467d7f9-67af-4647-b1b3-f3a1d228515b"},"vehicle_type_id":"4","last_reported":1736928738,"current_range_meters":0,"station_id":"ce4bhh92rcd13ifvqfh0","pricing_plan_id":"cebpf4jnsgd1na2vs0mg"},{"bike_id":"42ad9691-4c6c-4318-adca-49de4591d0db","system_id":"levelo_inurba_marseille","lat":43.30265,"lon":5.3771,"is_reserved":false,"is_disabled":false,"rental_uris":{"android":"levelo://app?vid=42ad9691-4c6c-4318-adca-49de4591d0db","ios":"levelo://app?vid=42ad9691-4c6c-4318-adca-49de4591d0db"},"vehicle_type_id":"4","last_reported":1736928738,"current_range_meters":38800,"station_id":"ce4bguh2rcd13ifvqcj0","pricing_plan_id":"cebpf4jnsgd1na2vs0mg"},{"bike_id":"5b7d1c92-dc02-4f30-9ffe-85ba5225870b","system_id":"levelo_inurba_marseille","lat":43.28168,"lon":5.42626,"is_reserved":false,"is_disabled":false,"rental_uris":{"android":"levelo://app?vid=5b7d1c92-dc02-4f30-9ffe-85ba5225870b","ios":"levelo://app?vid=5b7d1c92-dc02-4f30-9ffe-85ba5225870b"},"vehicle_type_id":"4","last_reported":1736928738,"current_range_meters":36800,"station_id":"ce4bhnh2rcd13ifvqgug","pricing_plan_id":"cebpf4jnsgd1na2vs0mg"},{"bike_id":"814058f3-33e8-4073-903c-6cb4fd8e0776","system_id":"levelo_inurba_marseille","lat":43.28943,"lon":5.36405,"is_reserved":false,"is_disabled":false,"rental_uris":{"android":"levelo://app?vid=814058f3-33e8-4073-903c-6cb4fd8e0776","ios":"levelo://app?vid=814058f3-33e8-4073-903c-6cb4fd8e0776"},"vehicle_type_id":"4","last_reported":1736928738,"current_range_meters":30400,"station_id":"ce4bhc92rcd13ifvqetg","pricing_plan_id":"cebpf4jnsgd1na2vs0mg"},{"bike_id":"bdbd16f5-cde6-4c85-958e-8f9700189ae9","system_id":"levelo_inurba_marseille","lat":43.31374,"lon":5.3669,"is_reserved":false,"is_disabled":false,"rental_uris":{"android":"levelo://app?vid=bdbd16f5-cde6-4c85-958e-8f9700189ae9","ios":"levelo://app?vid=bdbd16f5-cde6-4c85-958e-8f9700189ae9"},"vehicle_type_id":"4","last_reported":1736928738,"current_range_meters":36000,"station_id":"ce4bgr92rcd13ifvqc6g","pricing_plan_id":"cebpf4jnsgd1na2vs0mg"},{"bike_id":"1f6b470d-baa0-403f-9f5e-cf2c4a414869","system_id":"levelo_inurba_marseille","lat":43.26954,"lon":5.38623,"is_reserved":false,"is_disabled":false,"rental_uris":{"android":"levelo://app?vid=1f6b470d-baa0-403f-9f5e-cf2c4a414869","ios":"levelo://app?vid=1f6b470d-baa0-403f-9f5e-cf2c4a414869"},"vehicle_type_id":"4","last_reported":1736928738,"current_range_meters":34000,"station_id":"ce4bhh92rcd13ifvqfh0","pricing_plan_id":"cebpf4jnsgd1na2vs0mg"},{"bike_id":"8534aaf4-535f-4db5-8998-0f97ef68ef36","system_id":"levelo_inurba_marseille","lat":43.24386,"lon":5.37064,"is_reserved":false,"is_disabled":false,"rental_uris":{"android":"levelo://app?vid=8534aaf4-535f-4db5-8998-0f97ef68ef36","ios":"levelo://app?vid=8534aaf4-535f-4db5-8998-0f97ef68ef36"},"vehicle_type_id":"4","last_reported":1736928738,"current_range_meters":16400,"station_id":"ce4bhhh2rcd13ifvqfk0","pricing_plan_id":"cebpf4jnsgd1na2vs0mg"},{"bike_id":"b21e8ecc-0df2-42ee-a184-5097ec4833be","system_id":"levelo_inurba_marseille","lat":43.28684,"lon":5.386663,"is_reserved":false,"is_disabled":true,"rental_uris":{"android":"levelo://app?vid=b21e8ecc-0df2-42ee-a184-5097ec4833be","ios":"levelo://app?vid=b21e8ecc-0df2-42ee-a184-5097ec4833be"},"vehicle_type_id":"4","last_reported":1736928738,"current_range_meters":36400,"station_id":"ce4bh492rcd13ifvqdug","pricing_plan_id":"cebpf4jnsgd1na2vs0mg"},{"bike_id":"b2c33e7b-da8a-4cda-ab12-4bcf5000aca5","system_id":"levelo_inurba_marseille","lat":43.27628,"lon":5.36095,"is_reserved":false,"is_disabled":false,"rental_uris":{"android":"levelo://app?vid=b2c33e7b-da8a-4cda-ab12-4bcf5000aca5","ios":"levelo://app?vid=b2c33e7b-da8a-4cda-ab12-4bcf5000aca5"},"vehicle_type_id":"4","last_reported":1736928738,"current_range_meters":28800,"station_id":"ce4bgj92rcd13ifvqbe0","pricing_plan_id":"cebpf4jnsgd1na2vs0mg"},{"bike_id":"d752f7d2-eb3f-4c60-a25b-f81f5a6f4344","system_id":"levelo_inurba_marseille","lat":43.30556,"lon":5.36703,"is_reserved":false,"is_disabled":false,"rental_uris":{"android":"levelo://app?vid=d752f7d2-eb3f-4c60-a25b-f81f5a6f4344","ios":"levelo://app?vid=d752f7d2-eb3f-4c60-a25b-f81f5a6f4344"},"vehicle_type_id":"4","last_reported":1736928738,"current_range_meters":11200,"station_id":"ce4bgrp2rcd13ifvqc9g","pricing_plan_id":"cebpf4jnsgd1na2vs0mg"},{"bike_id":"99eb4eff-294d-410c-b7a7-c74c6b4f2ac0","system_id":"levelo_inurba_marseille","lat":43.29011,"lon":5.39995,"is_reserved":false,"is_disabled":false,"rental_uris":{"android":"levelo://app?vid=99eb4eff-294d-410c-b7a7-c74c6b4f2ac0","ios":"levelo://app?vid=99eb4eff-294d-410c-b7a7-c74c6b4f2ac0"},"vehicle_type_id":"4","last_reported":1736928738,"current_range_meters":28400,"station_id":"ce4bh392rcd13ifvqdm0","pricing_plan_id":"cebpf4jnsgd1na2vs0mg"},{"bike_id":"6c02ae22-4e33-4b73-a0d5-7fa499611cc2","system_id":"levelo_inurba_marseille","lat":43.23136,"lon":5.43703,"is_reserved":false,"is_disabled":false,"rental_uris":{"android":"levelo://app?vid=6c02ae22-4e33-4b73-a0d5-7fa499611cc2","ios":"levelo://app?vid=6c02ae22-4e33-4b73-a0d5-7fa499611cc2"},"vehicle_type_id":"4","last_reported":1736928738,"current_range_meters":38000,"station_id":"ce4bhmp2rcd13ifvqgog","pricing_plan_id":"cebpf4jnsgd1na2vs0mg"},{"bike_id":"02908220-1c55-4c15-9a97-ca442f0ecb98","system_id":"levelo_inurba_marseille","lat":43.23161,"lon":5.43703,"is_reserved":false,"is_disabled":false,"rental_uris":{"android":"levelo://app?vid=02908220-1c55-4c15-9a97-ca442f0ecb98","ios":"levelo://app?vid=02908220-1c55-4c15-9a97-ca442f0ecb98"},"vehicle_type_id":"4","last_reported":1736928738,"current_range_meters":38800,"station_id":"ce4bhmp2rcd13ifvqgog","pricing_plan_id":"cebpf4jnsgd1na2vs0mg"},{"bike_id":"0335b373-0bf4-4881-b490-d237d5bb6bc8","system_id":"levelo_inurba_marseille","lat":43.24078,"lon":5.37741,"is_reserved":false,"is_disabled":false,"rental_uris":{"android":"levelo://app?vid=0335b373-0bf4-4881-b490-d237d5bb6bc8","ios":"levelo://app?vid=0335b373-0bf4-4881-b490-d237d5bb6bc8"},"vehicle_type_id":"4","last_reported":1736928738,"current_range_meters":38800,"station_id":"ce4bhnp2rcd13ifvqgvg","pricing_plan_id":"cebpf4jnsgd1na2vs0mg"},{"bike_id":"1ac66b2f-3713-43a8-bee1-1a7f413f5233","system_id":"levelo_inurba_marseille","lat":43.24178,"lon":5.39732,"is_reserved":false,"is_disabled":false,"rental_uris":{"android":"levelo://app?vid=1ac66b2f-3713-43a8-bee1-1a7f413f5233","ios":"levelo://app?vid=1ac66b2f-3713-43a8-bee1-1a7f413f5233"},"vehicle_type_id":"4","last_reported":1736928738,"current_range_meters":32800,"station_id":"ce4bhn12rcd13ifvqgpg","pricing_plan_id":"cebpf4jnsgd1na2vs0mg"},{"bike_id":"4a9abfc0-9b52-42e8-bf4a-31cde586685b","system_id":"levelo_inurba_marseille","lat":43.3049,"lon":5.37888,"is_reserved":false,"is_disabled":true,"rental_uris":{"android":"levelo://app?vid=4a9abfc0-9b52-42e8-bf4a-31cde586685b","ios":"levelo://app?vid=4a9abfc0-9b52-42e8-bf4a-31cde586685b"},"vehicle_type_id":"4","last_reported":1736928738,"current_range_meters":38800,"station_id":"ce4bgup2rcd13ifvqcn0","pricing_plan_id":"cebpf4jnsgd1na2vs0mg"},{"bike_id":"ddd6eed0-645d-4415-9793-92bbd79ee54e","system_id":"levelo_inurba_marseille","lat":43.32475,"lon":5.36568,"is_reserved":false,"is_disabled":false,"rental_uris":{"android":"levelo://app?vid=ddd6eed0-645d-4415-9793-92bbd79ee54e","ios":"levelo://app?vid=ddd6eed0-645d-4415-9793-92bbd79ee54e"},"vehicle_type_id":"4","last_reported":1736928738,"current_range_meters":26000,"station_id":"ce4bhs12rcd13ifvqhvg","pricing_plan_id":"cebpf4jnsgd1na2vs0mg"},{"bike_id":"c15f24fd-270c-49ce-be5d-511315904b57","system_id":"levelo_inurba_marseille","lat":43.29873,"lon":5.43668,"is_reserved":false,"is_disabled":true,"rental_uris":{"android":"levelo://app?vid=c15f24fd-270c-49ce-be5d-511315904b57","ios":"levelo://app?vid=c15f24fd-270c-49ce-be5d-511315904b57"},"vehicle_type_id":"4","last_reported":1736928738,"current_range_meters":0,"station_id":"ce4bhpp2rcd13ifvqhfg","pricing_plan_id":"cebpf4jnsgd1na2vs0mg"},{"bike_id":"0a3d4dfc-a4b7-4922-9ef4-32b1386df5d7","system_id":"levelo_inurba_marseille","lat":43.30897,"lon":5.3691,"is_reserved":false,"is_disabled":false,"rental_uris":{"android":"levelo://app?vid=0a3d4dfc-a4b7-4922-9ef4-32b1386df5d7","ios":"levelo://app?vid=0a3d4dfc-a4b7-4922-9ef4-32b1386df5d7"},"vehicle_type_id":"4","last_reported":1736928738,"current_range_meters":38800,"station_id":"ce4bgn92rcd13ifvqbvg","pricing_plan_id":"cebpf4jnsgd1na2vs0mg"},{"bike_id":"41922604-c7b8-4e93-9da5-3903771d7233","system_id":"levelo_inurba_marseille","lat":43.24827,"lon":5.37446,"is_reserved":false,"is_disabled":false,"rental_uris":{"android":"levelo://app?vid=41922604-c7b8-4e93-9da5-3903771d7233","ios":"levelo://app?vid=41922604-c7b8-4e93-9da5-3903771d7233"},"vehicle_type_id":"4","last_reported":1736928738,"current_range_meters":17600,"station_id":"ce4bhgh2rcd13ifvqfb0","pricing_plan_id":"cebpf4jnsgd1na2vs0mg"},{"bike_id":"f0e30617-a36d-498e-834f-c89fc54c5029","system_id":"levelo_inurba_marseille","lat":43.28109,"lon":5.37845,"is_reserved":false,"is_disabled":false,"rental_uris":{"android":"levelo://app?vid=f0e30617-a36d-498e-834f-c89fc54c5029","ios":"levelo://app?vid=f0e30617-a36d-498e-834f-c89fc54c5029"},"vehicle_type_id":"4","last_reported":1736928738,"current_range_meters":17200,"station_id":"ce4bha12rcd13ifvqee0","pricing_plan_id":"cebpf4jnsgd1na2vs0mg"},{"bike_id":"f94df94d-bc8f-423a-851a-769fb61ed24d","system_id":"levelo_inurba_marseille","lat":43.2655,"lon":5.37302,"is_reserved":false,"is_disabled":true,"rental_uris":{"android":"levelo://app?vid=f94df94d-bc8f-423a-851a-769fb61ed24d","ios":"levelo://app?vid=f94df94d-bc8f-423a-851a-769fb61ed24d"},"vehicle_type_id":"4","last_reported":1736928738,"current_range_meters":25200,"station_id":"ce4bhg12rcd13ifvqf70","pricing_plan_id":"cebpf4jnsgd1na2vs0mg"},{"bike_id":"2982e47e-b157-4639-9da7-2a9115edb480","system_id":"levelo_inurba_marseille","lat":43.28698,"lon":5.39989,"is_reserved":false,"is_disabled":false,"rental_uris":{"android":"levelo://app?vid=2982e47e-b157-4639-9da7-2a9115edb480","ios":"levelo://app?vid=2982e47e-b157-4639-9da7-2a9115edb480"},"vehicle_type_id":"4","last_reported":1736928738,"current_range_meters":26800,"station_id":"ce4bho92rcd13ifvqh3g","pricing_plan_id":"cebpf4jnsgd1na2vs0mg"},{"bike_id":"cd00a00c-ff06-437a-a737-456c3235295a","system_id":"levelo_inurba_marseille","lat":43.32535,"lon":5.41427,"is_reserved":false,"is_disabled":false,"rental_uris":{"android":"levelo://app?vid=cd00a00c-ff06-437a-a737-456c3235295a","ios":"levelo://app?vid=cd00a00c-ff06-437a-a737-456c3235295a"},"vehicle_type_id":"4","last_reported":1736928738,"current_range_meters":34800,"station_id":"ce4bhq12rcd13ifvqhhg","pricing_plan_id":"cebpf4jnsgd1na2vs0mg"},{"bike_id":"a453d14a-62a0-4422-a85b-bf35c65835ba","system_id":"levelo_inurba_marseille","lat":43.29367,"lon":5.37842,"is_reserved":false,"is_disabled":false,"rental_uris":{"android":"levelo://app?vid=a453d14a-62a0-4422-a85b-bf35c65835ba","ios":"levelo://app?vid=a453d14a-62a0-4422-a85b-bf35c65835ba"},"vehicle_type_id":"4","last_reported":1736928738,"current_range_meters":36000,"station_id":"ce4bgjh2rcd13ifvqbf0","pricing_plan_id":"cebpf4jnsgd1na2vs0mg"},{"bike_id":"b22d77c3-f37f-47b6-bfd3-17f35050e9db","system_id":"levelo_inurba_marseille","lat":43.27607,"lon":5.36114,"is_reserved":false,"is_disabled":false,"rental_uris":{"android":"levelo://app?vid=b22d77c3-f37f-47b6-bfd3-17f35050e9db","ios":"levelo://app?vid=b22d77c3-f37f-47b6-bfd3-17f35050e9db"},"vehicle_type_id":"4","last_reported":1736928738,"current_range_meters":3600,"station_id":"ce4bgj92rcd13ifvqbe0","pricing_plan_id":"cebpf4jnsgd1na2vs0mg"},{"bike_id":"c744ca31-159b-40e6-a6bf-a78cd1bd93f4","system_id":"levelo_inurba_marseille","lat":43.32525,"lon":5.41386,"is_reserved":false,"is_disabled":false,"rental_uris":{"android":"levelo://app?vid=c744ca31-159b-40e6-a6bf-a78cd1bd93f4","ios":"levelo://app?vid=c744ca31-159b-40e6-a6bf-a78cd1bd93f4"},"vehicle_type_id":"4","last_reported":1736928738,"current_range_meters":30400,"station_id":"ce4bhq12rcd13ifvqhhg","pricing_plan_id":"cebpf4jnsgd1na2vs0mg"},{"bike_id":"751fa9d6-7ccb-441b-8cef-6967bec6fd96","system_id":"levelo_inurba_marseille","lat":43.24806,"lon":5.37457,"is_reserved":false,"is_disabled":false,"rental_uris":{"android":"levelo://app?vid=751fa9d6-7ccb-441b-8cef-6967bec6fd96","ios":"levelo://app?vid=751fa9d6-7ccb-441b-8cef-6967bec6fd96"},"vehicle_type_id":"4","last_reported":1736928738,"current_range_meters":28800,"station_id":"ce4bhgh2rcd13ifvqfb0","pricing_plan_id":"cebpf4jnsgd1na2vs0mg"},{"bike_id":"edcfc371-a2f9-4342-8bc8-f4d85c8844cd","system_id":"levelo_inurba_marseille","lat":43.29024,"lon":5.3813,"is_reserved":false,"is_disabled":false,"rental_uris":{"android":"levelo://app?vid=edcfc371-a2f9-4342-8bc8-f4d85c8844cd","ios":"levelo://app?vid=edcfc371-a2f9-4342-8bc8-f4d85c8844cd"},"vehicle_type_id":"4","last_reported":1736928738,"current_range_meters":11200,"station_id":"ce4bh4p2rcd13ifvqe1g","pricing_plan_id":"cebpf4jnsgd1na2vs0mg"},{"bike_id":"17fbe066-9bc9-4967-80bc-cbe70e18d732","system_id":"levelo_inurba_marseille","lat":43.23192,"lon":5.39995,"is_reserved":false,"is_disabled":false,"rental_uris":{"android":"levelo://app?vid=17fbe066-9bc9-4967-80bc-cbe70e18d732","ios":"levelo://app?vid=17fbe066-9bc9-4967-80bc-cbe70e18d732"},"vehicle_type_id":"4","last_reported":1736928738,"current_range_meters":34800,"station_id":"ce4bhn12rcd13ifvqgqg","pricing_plan_id":"cebpf4jnsgd1na2vs0mg"},{"bike_id":"50434e67-9533-4a76-b193-31fac01668f6","system_id":"levelo_inurba_marseille","lat":43.27317,"lon":5.39102,"is_reserved":false,"is_disabled":false,"rental_uris":{"android":"levelo://app?vid=50434e67-9533-4a76-b193-31fac01668f6","ios":"levelo://app?vid=50434e67-9533-4a76-b193-31fac01668f6"},"vehicle_type_id":"4","last_reported":1736928738,"current_range_meters":38800,"station_id":"ce4bhgp2rcd13ifvqfe0","pricing_plan_id":"cebpf4jnsgd1na2vs0mg"},{"bike_id":"ad83a575-8989-4fa5-a0e2-fa9d37be30f2","system_id":"levelo_inurba_marseille","lat":43.29366,"lon":5.37851,"is_reserved":false,"is_disabled":false,"rental_uris":{"android":"levelo://app?vid=ad83a575-8989-4fa5-a0e2-fa9d37be30f2","ios":"levelo://app?vid=ad83a575-8989-4fa5-a0e2-fa9d37be30f2"},"vehicle_type_id":"4","last_reported":1736928738,"current_range_meters":22400,"station_id":"ce4bgjh2rcd13ifvqbf0","pricing_plan_id":"cebpf4jnsgd1na2vs0mg"},{"bike_id":"dc49e1db-bead-444a-bbf8-a19de758039b","system_id":"levelo_inurba_marseille","lat":43.33093,"lon":5.38221,"is_reserved":false,"is_disabled":false,"rental_uris":{"android":"levelo://app?vid=dc49e1db-bead-444a-bbf8-a19de758039b","ios":"levelo://app?vid=dc49e1db-bead-444a-bbf8-a19de758039b"},"vehicle_type_id":"4","last_reported":1736928738,"current_range_meters":24400,"station_id":"","pricing_plan_id":"cebpf4jnsgd1na2vs0mg"},{"bike_id":"53fbd4a9-b7ba-4cbd-9368-b31aaad79b93","system_id":"levelo_inurba_marseille","lat":43.30282,"lon":5.37697,"is_reserved":false,"is_disabled":false,"rental_uris":{"android":"levelo://app?vid=53fbd4a9-b7ba-4cbd-9368-b31aaad79b93","ios":"levelo://app?vid=53fbd4a9-b7ba-4cbd-9368-b31aaad79b93"},"vehicle_type_id":"4","last_reported":1736928738,"current_range_meters":36400,"station_id":"ce4bguh2rcd13ifvqcj0","pricing_plan_id":"cebpf4jnsgd1na2vs0mg"},{"bike_id":"79f187c5-74be-479d-97f4-06afc9ac4d15","system_id":"levelo_inurba_marseille","lat":43.26546,"lon":5.37287,"is_reserved":false,"is_disabled":true,"rental_uris":{"android":"levelo://app?vid=79f187c5-74be-479d-97f4-06afc9ac4d15","ios":"levelo://app?vid=79f187c5-74be-479d-97f4-06afc9ac4d15"},"vehicle_type_id":"4","last_reported":1736928738,"current_range_meters":0,"station_id":"ce4bhg12rcd13ifvqf70","pricing_plan_id":"cebpf4jnsgd1na2vs0mg"},{"bike_id":"f15d55d3-6b0a-4ea3-b664-c2a77586c703","system_id":"levelo_inurba_marseille","lat":43.31218,"lon":5.36843,"is_reserved":false,"is_disabled":false,"rental_uris":{"android":"levelo://app?vid=f15d55d3-6b0a-4ea3-b664-c2a77586c703","ios":"levelo://app?vid=f15d55d3-6b0a-4ea3-b664-c2a77586c703"},"vehicle_type_id":"4","last_reported":1736928738,"current_range_meters":28400,"station_id":"ce4bgl92rcd13ifvqbq0","pricing_plan_id":"cebpf4jnsgd1na2vs0mg"},{"bike_id":"9441fc5f-3584-4397-ab17-f0b1ab0bc3d9","system_id":"levelo_inurba_marseille","lat":43.30247,"lon":5.40078,"is_reserved":false,"is_disabled":false,"rental_uris":{"android":"levelo://app?vid=9441fc5f-3584-4397-ab17-f0b1ab0bc3d9","ios":"levelo://app?vid=9441fc5f-3584-4397-ab17-f0b1ab0bc3d9"},"vehicle_type_id":"4","last_reported":1736928738,"current_range_meters":38400,"station_id":"ce4bgvh2rcd13ifvqcs0","pricing_plan_id":"cebpf4jnsgd1na2vs0mg"},{"bike_id":"0c89731d-97cf-4a18-8868-b121b4bb2b51","system_id":"levelo_inurba_marseille","lat":43.29572,"lon":5.37522,"is_reserved":false,"is_disabled":false,"rental_uris":{"android":"levelo://app?vid=0c89731d-97cf-4a18-8868-b121b4bb2b51","ios":"levelo://app?vid=0c89731d-97cf-4a18-8868-b121b4bb2b51"},"vehicle_type_id":"4","last_reported":1736928738,"current_range_meters":8000,"station_id":"ce4bgh92rcd13ifvqb50","pricing_plan_id":"cebpf4jnsgd1na2vs0mg"},{"bike_id":"30290618-ebdd-418c-aa09-50db74d34543","system_id":"levelo_inurba_marseille","lat":43.26206,"lon":5.37905,"is_reserved":false,"is_disabled":false,"rental_uris":{"android":"levelo://app?vid=30290618-ebdd-418c-aa09-50db74d34543","ios":"levelo://app?vid=30290618-ebdd-418c-aa09-50db74d34543"},"vehicle_type_id":"4","last_reported":1736928738,"current_range_meters":36400,"station_id":"ce4bhjp2rcd13ifvqg90","pricing_plan_id":"cebpf4jnsgd1na2vs0mg"},{"bike_id":"c71089b0-1c8e-4542-86ef-931ca82d50dd","system_id":"levelo_inurba_marseille","lat":43.25572,"lon":5.3823,"is_reserved":false,"is_disabled":false,"rental_uris":{"android":"levelo://app?vid=c71089b0-1c8e-4542-86ef-931ca82d50dd","ios":"levelo://app?vid=c71089b0-1c8e-4542-86ef-931ca82d50dd"},"vehicle_type_id":"4","last_reported":1736928738,"current_range_meters":38800,"station_id":"ce4bhih2rcd13ifvqfs0","pricing_plan_id":"cebpf4jnsgd1na2vs0mg"},{"bike_id":"67ffec4f-3496-4558-ad1c-034bd82844ab","system_id":"levelo_inurba_marseille","lat":43.30947,"lon":5.39033,"is_reserved":false,"is_disabled":false,"rental_uris":{"android":"levelo://app?vid=67ffec4f-3496-4558-ad1c-034bd82844ab","ios":"levelo://app?vid=67ffec4f-3496-4558-ad1c-034bd82844ab"},"vehicle_type_id":"4","last_reported":1736928738,"current_range_meters":10000,"station_id":"ce4bgup2rcd13ifvqco0","pricing_plan_id":"cebpf4jnsgd1na2vs0mg"},{"bike_id":"5c465767-7514-4f5e-9022-19ed51b6f9c5","system_id":"levelo_inurba_marseille","lat":43.27977,"lon":5.40998,"is_reserved":false,"is_disabled":false,"rental_uris":{"android":"levelo://app?vid=5c465767-7514-4f5e-9022-19ed51b6f9c5","ios":"levelo://app?vid=5c465767-7514-4f5e-9022-19ed51b6f9c5"},"vehicle_type_id":"4","last_reported":1736928738,"current_range_meters":33200,"station_id":"","pricing_plan_id":"cebpf4jnsgd1na2vs0mg"},{"bike_id":"a2acbd59-835d-49a5-be65-bf1391599127","system_id":"levelo_inurba_marseille","lat":43.25915,"lon":5.409,"is_reserved":false,"is_disabled":false,"rental_uris":{"android":"levelo://app?vid=a2acbd59-835d-49a5-be65-bf1391599127","ios":"levelo://app?vid=a2acbd59-835d-49a5-be65-bf1391599127"},"vehicle_type_id":"4","last_reported":1736928738,"current_range_meters":18000,"station_id":"ce4bhm92rcd13ifvqglg","pricing_plan_id":"cebpf4jnsgd1na2vs0mg"},{"bike_id":"c0fd2063-31ae-4171-af17-771dbb4fa212","system_id":"levelo_inurba_marseille","lat":43.22924,"lon":5.35379,"is_reserved":false,"is_disabled":false,"rental_uris":{"android":"levelo://app?vid=c0fd2063-31ae-4171-af17-771dbb4fa212","ios":"levelo://app?vid=c0fd2063-31ae-4171-af17-771dbb4fa212"},"vehicle_type_id":"4","last_reported":1736928738,"current_range_meters":38800,"station_id":"cpo3532slgdg3j2ikp40","pricing_plan_id":"cebpf4jnsgd1na2vs0mg"},{"bike_id":"7b2751da-c371-44e2-98c9-6eeeee6b9d45","system_id":"levelo_inurba_marseille","lat":43.25919,"lon":5.40914,"is_reserved":false,"is_disabled":false,"rental_uris":{"android":"levelo://app?vid=7b2751da-c371-44e2-98c9-6eeeee6b9d45","ios":"levelo://app?vid=7b2751da-c371-44e2-98c9-6eeeee6b9d45"},"vehicle_type_id":"4","last_reported":1736928738,"current_range_meters":32800,"station_id":"ce4bhm92rcd13ifvqglg","pricing_plan_id":"cebpf4jnsgd1na2vs0mg"},{"bike_id":"4d0938b3-a451-4607-a64f-5df0176b41a2","system_id":"levelo_inurba_marseille","lat":43.31349,"lon":5.36719,"is_reserved":false,"is_disabled":false,"rental_uris":{"android":"levelo://app?vid=4d0938b3-a451-4607-a64f-5df0176b41a2","ios":"levelo://app?vid=4d0938b3-a451-4607-a64f-5df0176b41a2"},"vehicle_type_id":"4","last_reported":1736928738,"current_range_meters":10800,"station_id":"ce4bgr92rcd13ifvqc6g","pricing_plan_id":"cebpf4jnsgd1na2vs0mg"},{"bike_id":"49859924-9449-4404-b4e0-04b6ddce7f36","system_id":"levelo_inurba_marseille","lat":43.27361,"lon":5.36249,"is_reserved":false,"is_disabled":false,"rental_uris":{"android":"levelo://app?vid=49859924-9449-4404-b4e0-04b6ddce7f36","ios":"levelo://app?vid=49859924-9449-4404-b4e0-04b6ddce7f36"},"vehicle_type_id":"4","last_reported":1736928738,"current_range_meters":38800,"station_id":"ce4bhbh2rcd13ifvqeo0","pricing_plan_id":"cebpf4jnsgd1na2vs0mg"},{"bike_id":"1ee4cfa5-4bb0-4d23-8a4a-5592b371ea00","system_id":"levelo_inurba_marseille","lat":43.29185,"lon":5.39318,"is_reserved":false,"is_disabled":false,"rental_uris":{"android":"levelo://app?vid=1ee4cfa5-4bb0-4d23-8a4a-5592b371ea00","ios":"levelo://app?vid=1ee4cfa5-4bb0-4d23-8a4a-5592b371ea00"},"vehicle_type_id":"4","last_reported":1736928738,"current_range_meters":7200,"station_id":"ce4bhk92rcd13ifvqgb0","pricing_plan_id":"cebpf4jnsgd1na2vs0mg"},{"bike_id":"1b22370e-68ef-49e7-8d36-f18a88671a32","system_id":"levelo_inurba_marseille","lat":43.31754,"lon":5.39022,"is_reserved":false,"is_disabled":false,"rental_uris":{"android":"levelo://app?vid=1b22370e-68ef-49e7-8d36-f18a88671a32","ios":"levelo://app?vid=1b22370e-68ef-49e7-8d36-f18a88671a32"},"vehicle_type_id":"4","last_reported":1736928738,"current_range_meters":14800,"station_id":"ce4bhqp2rcd13ifvqhng","pricing_plan_id":"cebpf4jnsgd1na2vs0mg"},{"bike_id":"4fcc1908-dbb1-4637-a5c7-041abdcb6bdd","system_id":"levelo_inurba_marseille","lat":43.3055,"lon":5.36534,"is_reserved":false,"is_disabled":false,"rental_uris":{"android":"levelo://app?vid=4fcc1908-dbb1-4637-a5c7-041abdcb6bdd","ios":"levelo://app?vid=4fcc1908-dbb1-4637-a5c7-041abdcb6bdd"},"vehicle_type_id":"4","last_reported":1736928738,"current_range_meters":37600,"station_id":"ce4bgs12rcd13ifvqcag","pricing_plan_id":"cebpf4jnsgd1na2vs0mg"},{"bike_id":"8e1700e2-2825-47f3-9373-6fc227095b7d","system_id":"levelo_inurba_marseille","lat":43.24164,"lon":5.3638,"is_reserved":false,"is_disabled":false,"rental_uris":{"android":"levelo://app?vid=8e1700e2-2825-47f3-9373-6fc227095b7d","ios":"levelo://app?vid=8e1700e2-2825-47f3-9373-6fc227095b7d"},"vehicle_type_id":"4","last_reported":1736928738,"current_range_meters":36400,"station_id":"cpo36qri1sfpv3e86is0","pricing_plan_id":"cebpf4jnsgd1na2vs0mg"},{"bike_id":"f0a5246f-a04e-4913-a007-7b1de0fa333b","system_id":"levelo_inurba_marseille","lat":43.31229,"lon":5.3687,"is_reserved":false,"is_disabled":false,"rental_uris":{"android":"levelo://app?vid=f0a5246f-a04e-4913-a007-7b1de0fa333b","ios":"levelo://app?vid=f0a5246f-a04e-4913-a007-7b1de0fa333b"},"vehicle_type_id":"4","last_reported":1736928738,"current_range_meters":35600,"station_id":"ce4bgl92rcd13ifvqbq0","pricing_plan_id":"cebpf4jnsgd1na2vs0mg"},{"bike_id":"4227d04e-ee50-4c33-b4c5-f2ee5772724b","system_id":"levelo_inurba_marseille","lat":43.248,"lon":5.37456,"is_reserved":false,"is_disabled":false,"rental_uris":{"android":"levelo://app?vid=4227d04e-ee50-4c33-b4c5-f2ee5772724b","ios":"levelo://app?vid=4227d04e-ee50-4c33-b4c5-f2ee5772724b"},"vehicle_type_id":"4","last_reported":1736928738,"current_range_meters":17200,"station_id":"ce4bhgh2rcd13ifvqfb0","pricing_plan_id":"cebpf4jnsgd1na2vs0mg"},{"bike_id":"5511bfab-2933-449b-8226-efdf625b9601","system_id":"levelo_inurba_marseille","lat":43.25106,"lon":5.40327,"is_reserved":false,"is_disabled":true,"rental_uris":{"android":"levelo://app?vid=5511bfab-2933-449b-8226-efdf625b9601","ios":"levelo://app?vid=5511bfab-2933-449b-8226-efdf625b9601"},"vehicle_type_id":"4","last_reported":1736928738,"current_range_meters":10800,"station_id":"ce4bhlh2rcd13ifvqgig","pricing_plan_id":"cebpf4jnsgd1na2vs0mg"},{"bike_id":"4a4d296c-e71a-4d73-8515-0b49a9079d8d","system_id":"levelo_inurba_marseille","lat":43.23186,"lon":5.39982,"is_reserved":false,"is_disabled":false,"rental_uris":{"android":"levelo://app?vid=4a4d296c-e71a-4d73-8515-0b49a9079d8d","ios":"levelo://app?vid=4a4d296c-e71a-4d73-8515-0b49a9079d8d"},"vehicle_type_id":"4","last_reported":1736928738,"current_range_meters":26800,"station_id":"ce4bhn12rcd13ifvqgqg","pricing_plan_id":"cebpf4jnsgd1na2vs0mg"},{"bike_id":"d28c64db-672d-4dc2-9aa8-36d7327fadae","system_id":"levelo_inurba_marseille","lat":43.31431,"lon":5.37402,"is_reserved":false,"is_disabled":false,"rental_uris":{"android":"levelo://app?vid=d28c64db-672d-4dc2-9aa8-36d7327fadae","ios":"levelo://app?vid=d28c64db-672d-4dc2-9aa8-36d7327fadae"},"vehicle_type_id":"4","last_reported":1736928738,"current_range_meters":8400,"station_id":"","pricing_plan_id":"cebpf4jnsgd1na2vs0mg"},{"bike_id":"b438a536-2826-455d-89c2-219747efc24e","system_id":"levelo_inurba_marseille","lat":43.2736,"lon":5.36248,"is_reserved":false,"is_disabled":false,"rental_uris":{"android":"levelo://app?vid=b438a536-2826-455d-89c2-219747efc24e","ios":"levelo://app?vid=b438a536-2826-455d-89c2-219747efc24e"},"vehicle_type_id":"4","last_reported":1736928738,"current_range_meters":8800,"station_id":"ce4bhbh2rcd13ifvqeo0","pricing_plan_id":"cebpf4jnsgd1na2vs0mg"},{"bike_id":"6027163c-6e0b-44a2-bfed-3a477a83b455","system_id":"levelo_inurba_marseille","lat":43.31725,"lon":5.37783,"is_reserved":false,"is_disabled":true,"rental_uris":{"android":"levelo://app?vid=6027163c-6e0b-44a2-bfed-3a477a83b455","ios":"levelo://app?vid=6027163c-6e0b-44a2-bfed-3a477a83b455"},"vehicle_type_id":"4","last_reported":1736928738,"current_range_meters":38800,"station_id":"ce4bgth2rcd13ifvqch0","pricing_plan_id":"cebpf4jnsgd1na2vs0mg"},{"bike_id":"2844aa67-b0f7-4161-97a2-3f752cc8a5b0","system_id":"levelo_inurba_marseille","lat":43.29545,"lon":5.42282,"is_reserved":false,"is_disabled":false,"rental_uris":{"android":"levelo://app?vid=2844aa67-b0f7-4161-97a2-3f752cc8a5b0","ios":"levelo://app?vid=2844aa67-b0f7-4161-97a2-3f752cc8a5b0"},"vehicle_type_id":"4","last_reported":1736928738,"current_range_meters":32800,"station_id":"ce4bhph2rcd13ifvqhdg","pricing_plan_id":"cebpf4jnsgd1na2vs0mg"},{"bike_id":"12a85257-fc68-45c5-a9cd-062ce4709e6f","system_id":"levelo_inurba_marseille","lat":43.26942,"lon":5.38632,"is_reserved":false,"is_disabled":false,"rental_uris":{"android":"levelo://app?vid=12a85257-fc68-45c5-a9cd-062ce4709e6f","ios":"levelo://app?vid=12a85257-fc68-45c5-a9cd-062ce4709e6f"},"vehicle_type_id":"4","last_reported":1736928738,"current_range_meters":16400,"station_id":"ce4bhh92rcd13ifvqfh0","pricing_plan_id":"cebpf4jnsgd1na2vs0mg"},{"bike_id":"100ca39d-2ece-4755-a16f-6e08b6d46318","system_id":"levelo_inurba_marseille","lat":43.29553,"lon":5.42287,"is_reserved":false,"is_disabled":false,"rental_uris":{"android":"levelo://app?vid=100ca39d-2ece-4755-a16f-6e08b6d46318","ios":"levelo://app?vid=100ca39d-2ece-4755-a16f-6e08b6d46318"},"vehicle_type_id":"4","last_reported":1736928738,"current_range_meters":8000,"station_id":"ce4bhph2rcd13ifvqhdg","pricing_plan_id":"cebpf4jnsgd1na2vs0mg"},{"bike_id":"4725ae05-b600-47b7-ba70-7352c8181ea5","system_id":"levelo_inurba_marseille","lat":43.27969,"lon":5.41005,"is_reserved":false,"is_disabled":true,"rental_uris":{"android":"levelo://app?vid=4725ae05-b600-47b7-ba70-7352c8181ea5","ios":"levelo://app?vid=4725ae05-b600-47b7-ba70-7352c8181ea5"},"vehicle_type_id":"4","last_reported":1736928738,"current_range_meters":0,"station_id":"","pricing_plan_id":"cebpf4jnsgd1na2vs0mg"},