{"last_updated":1721934359,"ttl":30,"version":"2.2","data":{"bikes":[{"bike_id":"3b3e6e07-a077-49e7-b598-833f79e261f0","system_id":"levelo_inurba_marseille","lat":43.31341,"lon":5.367098,"is_reserved":false,"is_disabled":false,"rental_uris":{"android":"levelo://app?vid=3b3e6e07-a077-49e7-b598-833f79e261f0","ios":"levelo://app?vid=3b3e6e07-a077-49e7-b598-833f79e261f0"},"vehicle_type_id":"4","last_reported":1721934359,"current_range_meters":15200,"station_id":"ce4bgr92rcd13ifvqc6g","pricing_plan_id":"cebpf4jnsgd1na2vs0mg"},{"bike_id":"225f7201-c00a-48d8-8e66-9c61792f14c1","system_id":"levelo_inurba_marseille","lat":43.31243,"lon":5.36825,"is_reserved":false,"is_disabled":false,"rental_uris":{"android":"levelo://app?vid=225f7201-c00a-48d8-8e66-9c61792f14c1","ios":"levelo://app?vid=225f7201-c00a-48d8-8e66-9c61792f14c1"},"vehicle_type_id":"4","last_reported":1721934359,"current_range_meters":17600,"station_id":"ce4bgl92rcd13ifvqbq0","pricing_plan_id":"cebpf4jnsgd1na2vs0mg"},{"bike_id":"313d6760-796d-4033-bd5e-d8aac6cbab17","system_id":"levelo_inurba_marseille","lat":43.31225,"lon":5.36842,"is_reserved":false,"is_disabled":false,"rental_uris":{"android":"levelo://app?vid=313d6760-796d-4033-bd5e-d8aac6cbab17","ios":"levelo://app?vid=313d6760-796d-4033-bd5e-d8aac6cbab17"},"vehicle_type_id":"4","last_reported":1721934359,"current_range_meters":8400,"station_id":"ce4bgl92rcd13ifvqbq0","pricing_plan_id":"cebpf4jnsgd1na2vs0mg"},{"bike_id":"dcbab786-12f1-4933-8854-ee59cb4d5a4e","system_id":"levelo_inurba_marseille","lat":43.312239,"lon":5.368562,"is_reserved":false,"is_disabled":false,"rental_uris":{"android":"levelo://app?vid=dcbab786-12f1-4933-8854-ee59cb4d5a4e","ios":"levelo://app?vid=dcbab786-12f1-4933-8854-ee59cb4d5a4e"},"vehicle_type_id":"4","last_reported":1721934359,"current_range_meters":8000,"station_id":"ce4bgl92rcd13ifvqbq0","pricing_plan_id":"cebpf4jnsgd1na2vs0mg"},{"bike_id":"3f204dea-fa59-44df-b797-01b171310caa","system_id":"levelo_inurba_marseille","lat":43.312223,"lon":5.368478,"is_reserved":false,"is_disabled":false,"rental_uris":{"android":"levelo://app?vid=3f204dea-fa59-44df-b797-01b171310caa","ios":"levelo://app?vid=3f204dea-fa59-44df-b797-01b171310caa"},"vehicle_type_id":"4","last_reported":1721934359,"current_range_meters":18400,"station_id":"ce4bgl92rcd13ifvqbq0","pricing_plan_id":"cebpf4jnsgd1na2vs0mg"},{"bike_id":"72479fb0-423f-42ee-86e1-274b9675b043","system_id":"levelo_inurba_marseille","lat":43.31232,"lon":5.36854,"is_reserved":false,"is_disabled":false,"rental_uris":{"android":"levelo://app?vid=72479fb0-423f-42ee-86e1-274b9675b043","ios":"levelo://app?vid=72479fb0-423f-42ee-86e1-274b9675b043"},"vehicle_type_id":"4","last_reported":1721934359,"current_range_meters":24800,"station_id":"ce4bgl92rcd13ifvqbq0","pricing_plan_id":"cebpf4jnsgd1na2vs0mg"},{"bike_id":"9ca90cb6-d5ec-4086-9aad-ef19dee435e0","system_id":"levelo_inurba_marseille","lat":43.312239,"lon":5.368562,"is_reserved":false,"is_disabled":false,"rental_uris":{"android":"levelo://app?vid=9ca90cb6-d5ec-4086-9aad-ef19dee435e0","ios":"levelo://app?vid=9ca90cb6-d5ec-4086-9aad-ef19dee435e0"},"vehicle_type_id":"4","last_reported":1721934359,"current_range_meters":21200,"station_id":"ce4bgl92rcd13ifvqbq0","pricing_plan_id":"cebpf4jnsgd1na2vs0mg"},{"bike_id":"e3a0c723-3e33-4f8f-a391-15d95c91d8d9","system_id":"levelo_inurba_marseille","lat":43.312239,"lon":5.368562,"is_reserved":false,"is_disabled":false,"rental_uris":{"android":"levelo://app?vid=e3a0c723-3e33-4f8f-a391-15d95c91d8d9","ios":"levelo://app?vid=e3a0c723-3e33-4f8f-a391-15d95c91d8d9"},"vehicle_type_id":"4","last_reported":1721934359,"current_range_meters":15600,"station_id":"ce4bgl92rcd13ifvqbq0","pricing_plan_id":"cebpf4jnsgd1na2vs0mg"},{"bike_id":"b5ea5c86-d2cd-4570-90fa-ae47f3cde1c5","system_id":"levelo_inurba_marseille","lat":43.312239,"lon":5.368562,"is_reserved":false,"is_disabled":false,"rental_uris":{"android":"levelo://app?vid=b5ea5c86-d2cd-4570-90fa-ae47f3cde1c5","ios":"levelo://app?vid=b5ea5c86-d2cd-4570-90fa-ae47f3cde1c5"},"vehicle_type_id":"4","last_reported":1721934359,"current_range_meters":16000,"station_id":"ce4bgl92rcd13ifvqbq0","pricing_plan_id":"cebpf4jnsgd1na2vs0mg"},{"bike_id":"11c41e81-8b82-41a7-8b72-548bbcecfc68","system_id":"levelo_inurba_marseille","lat":43.31232,"lon":5.3687,"is_reserved":false,"is_disabled":false,"rental_uris":{"android":"levelo://app?vid=11c41e81-8b82-41a7-8b72-548bbcecfc68","ios":"levelo://app?vid=11c41e81-8b82-41a7-8b72-548bbcecfc68"},"vehicle_type_id":"4","last_reported":1721934359,"current_range_meters":24000,"station_id":"ce4bgl92rcd13ifvqbq0","pricing_plan_id":"cebpf4jnsgd1na2vs0mg"},{"bike_id":"0c3e9618-8c83-4a4d-9549-2172b96fe26d","system_id":"levelo_inurba_marseille","lat":43.312239,"lon":5.368562,"is_reserved":false,"is_disabled":false,"rental_uris":{"android":"levelo://app?vid=0c3e9618-8c83-4a4d-9549-2172b96fe26d","ios":"levelo://app?vid=0c3e9618-8c83-4a4d-9549-2172b96fe26d"},"vehicle_type_id":"4","last_reported":1721934359,"current_range_meters":27200,"station_id":"ce4bgl92rcd13ifvqbq0","pricing_plan_id":"cebpf4jnsgd1na2vs0mg"},{"bike_id":"fbc13cd0-d6dc-4294-8249-b5b655f881c3","system_id":"levelo_inurba_marseille","lat":43.309076,"lon":5.368465,"is_reserved":false,"is_disabled":false,"rental_uris":{"android":"levelo://app?vid=fbc13cd0-d6dc-4294-8249-b5b655f881c3","ios":"levelo://app?vid=fbc13cd0-d6dc-4294-8249-b5b655f881c3"},"vehicle_type_id":"4","last_reported":1721934359,"current_range_meters":0,"station_id":"ce4bgn92rcd13ifvqbvg","pricing_plan_id":"cebpf4jnsgd1na2vs0mg"},{"bike_id":"b40a4fb1-b47e-4ebc-9df9-c0a47c4062fb","system_id":"levelo_inurba_marseille","lat":43.30538,"lon":5.36712,"is_reserved":false,"is_disabled":false,"rental_uris":{"android":"levelo://app?vid=b40a4fb1-b47e-4ebc-9df9-c0a47c4062fb","ios":"levelo://app?vid=b40a4fb1-b47e-4ebc-9df9-c0a47c4062fb"},"vehicle_type_id":"4","last_reported":1721934359,"current_range_meters":17600,"station_id":"ce4bgrp2rcd13ifvqc9g","pricing_plan_id":"cebpf4jnsgd1na2vs0mg"},{"bike_id":"3aee5085-7e82-4bb3-95b7-11e9bb3f709d","system_id":"levelo_inurba_marseille","lat":43.305368,"lon":5.367343,"is_reserved":false,"is_disabled":false,"rental_uris":{"android":"levelo://app?vid=3aee5085-7e82-4bb3-95b7-11e9bb3f709d","ios":"levelo://app?vid=3aee5085-7e82-4bb3-95b7-11e9bb3f709d"},"vehicle_type_id":"4","last_reported":1721934359,"current_range_meters":31600,"station_id":"ce4bgrp2rcd13ifvqc9g","pricing_plan_id":"cebpf4jnsgd1na2vs0mg"},{"bike_id":"88490351-0f3d-44c1-aa5c-54c5ddc3f1dc","system_id":"levelo_inurba_marseille","lat":43.305714,"lon":5.365633,"is_reserved":false,"is_disabled":false,"rental_uris":{"android":"levelo://app?vid=88490351-0f3d-44c1-aa5c-54c5ddc3f1dc","ios":"levelo://app?vid=88490351-0f3d-44c1-aa5c-54c5ddc3f1dc"},"vehicle_type_id":"4","last_reported":1721934359,"current_range_meters":22400,"station_id":"ce4bgs12rcd13ifvqcag","pricing_plan_id":"cebpf4jnsgd1na2vs0mg"},{"bike_id":"dea5c605-4cba-4f75-af23-11a6acbc9da1","system_id":"levelo_inurba_marseille","lat":43.29041,"lon":5.399634,"is_reserved":false,"is_disabled":false,"rental_uris":{"android":"levelo://app?vid=dea5c605-4cba-4f75-af23-11a6acbc9da1","ios":"levelo://app?vid=dea5c605-4cba-4f75-af23-11a6acbc9da1"},"vehicle_type_id":"4","last_reported":1721934359,"current_range_meters":800,"station_id":"ce4bh392rcd13ifvqdm0","pricing_plan_id":"cebpf4jnsgd1na2vs0mg"},{"bike_id":"e12f6fd4-d5cc-4aee-b313-fca1eedd140a","system_id":"levelo_inurba_marseille","lat":43.305989,"lon":5.37225,"is_reserved":false,"is_disabled":false,"rental_uris":{"android":"levelo://app?vid=e12f6fd4-d5cc-4aee-b313-fca1eedd140a","ios":"levelo://app?vid=e12f6fd4-d5cc-4aee-b313-fca1eedd140a"},"vehicle_type_id":"4","last_reported":1721934359,"current_range_meters":11200,"station_id":"ce4bgqh2rcd13ifvqc4g","pricing_plan_id":"cebpf4jnsgd1na2vs0mg"},{"bike_id":"cefa1e58-7952-4a8b-9271-3643e8b03b11","system_id":"levelo_inurba_marseille","lat":43.305989,"lon":5.37225,"is_reserved":false,"is_disabled":false,"rental_uris":{"android":"levelo://app?vid=cefa1e58-7952-4a8b-9271-3643e8b03b11","ios":"levelo://app?vid=cefa1e58-7952-4a8b-9271-3643e8b03b11"},"vehicle_type_id":"4","last_reported":1721934359,"current_range_meters":11600,"station_id":"ce4bgqh2rcd13ifvqc4g","pricing_plan_id":"cebpf4jnsgd1na2vs0mg"},{"bike_id":"fee9ab30-5301-4508-81c1-2ddbd8be9d17","system_id":"levelo_inurba_marseille","lat":43.311131,"lon":5.377651,"is_reserved":false,"is_disabled":false,"rental_uris":{"android":"levelo://app?vid=fee9ab30-5301-4508-81c1-2ddbd8be9d17","ios":"levelo://app?vid=fee9ab30-5301-4508-81c1-2ddbd8be9d17"},"vehicle_type_id":"4","last_reported":1721934359,"current_range_meters":0,"station_id":"ce4bgt92rcd13ifvqcg0","pricing_plan_id":"cebpf4jnsgd1na2vs0mg"},{"bike_id":"679c4fb3-9363-4157-8f52-33ca86a44812","system_id":"levelo_inurba_marseille","lat":43.30844,"lon":5.37694,"is_reserved":false,"is_disabled":false,"rental_uris":{"android":"levelo://app?vid=679c4fb3-9363-4157-8f52-33ca86a44812","ios":"levelo://app?vid=679c4fb3-9363-4157-8f52-33ca86a44812"},"vehicle_type_id":"4","last_reported":1721934359,"current_range_meters":18000,"station_id":"","pricing_plan_id":"cebpf4jnsgd1na2vs0mg"},{"bike_id":"27792423-070d-4c4c-b523-83401b526eb0","system_id":"levelo_inurba_marseille","lat":43.317075,"lon":5.377367,"is_reserved":false,"is_disabled":false,"rental_uris":{"android":"levelo://app?vid=27792423-070d-4c4c-b523-83401b526eb0","ios":"levelo://app?vid=27792423-070d-4c4c-b523-83401b526eb0"},"vehicle_type_id":"4","last_reported":1721934359,"current_range_meters":5200,"station_id":"ce4bgth2rcd13ifvqch0","pricing_plan_id":"cebpf4jnsgd1na2vs0mg"},{"bike_id":"51fe2f7f-c03c-4317-b47a-0d6c013b66eb","system_id":"levelo_inurba_marseille","lat":43.30304,"lon":5.368987,"is_reserved":false,"is_disabled":false,"rental_uris":{"android":"levelo://app?vid=51fe2f7f-c03c-4317-b47a-0d6c013b66eb","ios":"levelo://app?vid=51fe2f7f-c03c-4317-b47a-0d6c013b66eb"},"vehicle_type_id":"4","last_reported":1721934359,"current_range_meters":30400,"station_id":"ce4bgqh2rcd13ifvqc5g","pricing_plan_id":"cebpf4jnsgd1na2vs0mg"},{"bike_id":"55f51ed9-f7a7-4789-a207-7beb0bc20fbf","system_id":"levelo_inurba_marseille","lat":43.31557,"lon":5.38058,"is_reserved":false,"is_disabled":false,"rental_uris":{"android":"levelo://app?vid=55f51ed9-f7a7-4789-a207-7beb0bc20fbf","ios":"levelo://app?vid=55f51ed9-f7a7-4789-a207-7beb0bc20fbf"},"vehicle_type_id":"4","last_reported":1721934359,"current_range_meters":23600,"station_id":"ce4bhsp2rcd13ifvqi50","pricing_plan_id":"cebpf4jnsgd1na2vs0mg"},{"bike_id":"579fcc33-3322-44d8-93ad-2a34c9cfb0f2","system_id":"levelo_inurba_marseille","lat":43.308012,"lon":5.381511,"is_reserved":false,"is_disabled":false,"rental_uris":{"android":"levelo://app?vid=579fcc33-3322-44d8-93ad-2a34c9cfb0f2","ios":"levelo://app?vid=579fcc33-3322-44d8-93ad-2a34c9cfb0f2"},"vehicle_type_id":"4","last_reported":1721934359,"current_range_meters":31200,"station_id":"ce4bgt12rcd13ifvqce0","pricing_plan_id":"cebpf4jnsgd1na2vs0mg"},{"bike_id":"5b9e47f1-9f57-4878-849d-6792a84f12f4","system_id":"levelo_inurba_marseille","lat":43.324771,"lon":5.36557,"is_reserved":false,"is_disabled":false,"rental_uris":{"android":"levelo://app?vid=5b9e47f1-9f57-4878-849d-6792a84f12f4","ios":"levelo://app?vid=5b9e47f1-9f57-4878-849d-6792a84f12f4"},"vehicle_type_id":"4","last_reported":1721934359,"current_range_meters":19200,"station_id":"ce4bhs12rcd13ifvqhvg","pricing_plan_id":"cebpf4jnsgd1na2vs0mg"},{"bike_id":"e0ac4db4-8cf7-4453-9661-fcfb8ae2eef3","system_id":"levelo_inurba_marseille","lat":43.324771,"lon":5.36557,"is_reserved":false,"is_disabled":false,"rental_uris":{"android":"levelo://app?vid=e0ac4db4-8cf7-4453-9661-fcfb8ae2eef3","ios":"levelo://app?vid=e0ac4db4-8cf7-4453-9661-fcfb8ae2eef3"},"vehicle_type_id":"4","last_reported":1721934359,"current_range_meters":20000,"station_id":"ce4bhs12rcd13ifvqhvg","pricing_plan_id":"cebpf4jnsgd1na2vs0mg"},{"bike_id":"7f457a74-410e-4dea-816d-4110f48bb5db","system_id":"levelo_inurba_marseille","lat":43.310804,"lon":5.38359,"is_reserved":false,"is_disabled":false,"rental_uris":{"android":"levelo://app?vid=7f457a74-410e-4dea-816d-4110f48bb5db","ios":"levelo://app?vid=7f457a74-410e-4dea-816d-4110f48bb5db"},"vehicle_type_id":"4","last_reported":1721934359,"current_range_meters":2800,"station_id":"ce4bgv92rcd13ifvqcr0","pricing_plan_id":"cebpf4jnsgd1na2vs0mg"},{"bike_id":"2aae57b5-16c6-423c-bbfe-d924ea7f98ed","system_id":"levelo_inurba_marseille","lat":43.310804,"lon":5.38359,"is_reserved":false,"is_disabled":false,"rental_uris":{"android":"levelo://app?vid=2aae57b5-16c6-423c-bbfe-d924ea7f98ed","ios":"levelo://app?vid=2aae57b5-16c6-423c-bbfe-d924ea7f98ed"},"vehicle_type_id":"4","last_reported":1721934359,"current_range_meters":31200,"station_id":"ce4bgv92rcd13ifvqcr0","pricing_plan_id":"cebpf4jnsgd1na2vs0mg"},{"bike_id":"6b061d0f-1165-4637-8581-00acd400e64e","system_id":"levelo_inurba_marseille","lat":43.310804,"lon":5.38359,"is_reserved":false,"is_disabled":false,"rental_uris":{"android":"levelo://app?vid=6b061d0f-1165-4637-8581-00acd400e64e","ios":"levelo://app?vid=6b061d0f-1165-4637-8581-00acd400e64e"},"vehicle_type_id":"4","last_reported":1721934359,"current_range_meters":30000,"station_id":"ce4bgv92rcd13ifvqcr0","pricing_plan_id":"cebpf4jnsgd1na2vs0mg"},{"bike_id":"47d2c9d1-59cb-4860-b95d-b34d323e7e50","system_id":"levelo_inurba_marseille","lat":43.310804,"lon":5.38359,"is_reserved":false,"is_disabled":false,"rental_uris":{"android":"levelo://app?vid=47d2c9d1-59cb-4860-b95d-b34d323e7e50","ios":"levelo://app?vid=47d2c9d1-59cb-4860-b95d-b34d323e7e50"},"vehicle_type_id":"4","last_reported":1721934359,"current_range_meters":800,"station_id":"ce4bgv92rcd13ifvqcr0","pricing_plan_id":"cebpf4jnsgd1na2vs0mg"},{"bike_id":"147d491a-caa7-431a-9d33-adfa281ae212","system_id":"levelo_inurba_marseille","lat":43.302784,"lon":5.377158,"is_reserved":false,"is_disabled":false,"rental_uris":{"android":"levelo://app?vid=147d491a-caa7-431a-9d33-adfa281ae212","ios":"levelo://app?vid=147d491a-caa7-431a-9d33-adfa281ae212"},"vehicle_type_id":"4","last_reported":1721934359,"current_range_meters":7200,"station_id":"ce4bguh2rcd13ifvqcj0","pricing_plan_id":"cebpf4jnsgd1na2vs0mg"},{"bike_id":"9d983dff-0da7-4c49-90de-f50813d4ca6c","system_id":"levelo_inurba_marseille","lat":43.30143,"lon":5.37413,"is_reserved":false,"is_disabled":false,"rental_uris":{"android":"levelo://app?vid=9d983dff-0da7-4c49-90de-f50813d4ca6c","ios":"levelo://app?vid=9d983dff-0da7-4c49-90de-f50813d4ca6c"},"vehicle_type_id":"4","last_reported":1721934359,"current_range_meters":20000,"station_id":"ce4bgs92rcd13ifvqcc0","pricing_plan_id":"cebpf4jnsgd1na2vs0mg"},{"bike_id":"c17f7ecb-d87c-4dc1-b403-8fb278ad39ac","system_id":"levelo_inurba_marseille","lat":43.301429,"lon":5.37413,"is_reserved":false,"is_disabled":false,"rental_uris":{"android":"levelo://app?vid=c17f7ecb-d87c-4dc1-b403-8fb278ad39ac","ios":"levelo://app?vid=c17f7ecb-d87c-4dc1-b403-8fb278ad39ac"},"vehicle_type_id":"4","last_reported":1721934359,"current_range_meters":0,"station_id":"ce4bgs92rcd13ifvqcc0","pricing_plan_id":"cebpf4jnsgd1na2vs0mg"},{"bike_id":"dc07f39f-d11b-43f3-aeae-4307fed9c82a","system_id":"levelo_inurba_marseille","lat":43.301429,"lon":5.37413,"is_reserved":false,"is_disabled":false,"rental_uris":{"android":"levelo://app?vid=dc07f39f-d11b-43f3-aeae-4307fed9c82a","ios":"levelo://app?vid=dc07f39f-d11b-43f3-aeae-4307fed9c82a"},"vehicle_type_id":"4","last_reported":1721934359,"current_range_meters":30400,"station_id":"ce4bgs92rcd13ifvqcc0","pricing_plan_id":"cebpf4jnsgd1na2vs0mg"},{"bike_id":"c3117a0e-7c19-42a7-9d26-f2c99fa92df1","system_id":"levelo_inurba_marseille","lat":43.300237,"lon":5.365571,"is_reserved":false,"is_disabled":false,"rental_uris":{"android":"levelo://app?vid=c3117a0e-7c19-42a7-9d26-f2c99fa92df1","ios":"levelo://app?vid=c3117a0e-7c19-42a7-9d26-f2c99fa92df1"},"vehicle_type_id":"4","last_reported":1721934359,"current_range_meters":0,"station_id":"","pricing_plan_id":"cebpf4jnsgd1na2vs0mg"},{"bike_id":"730f683c-5ab4-4897-9ca4-f287c26d70d2","system_id":"levelo_inurba_marseille","lat":43.31995,"lon":5.38149,"is_reserved":false,"is_disabled":false,"rental_uris":{"android":"levelo://app?vid=730f683c-5ab4-4897-9ca4-f287c26d70d2","ios":"levelo://app?vid=730f683c-5ab4-4897-9ca4-f287c26d70d2"},"vehicle_type_id":"4","last_reported":1721934359,"current_range_meters":28000,"station_id":"ce4bhr12rcd13ifvqhpg","pricing_plan_id":"cebpf4jnsgd1na2vs0mg"},{"bike_id":"db69cf9b-347f-4bf7-a167-1baf57a6f084","system_id":"levelo_inurba_marseille","lat":43.319935,"lon":5.381699,"is_reserved":false,"is_disabled":false,"rental_uris":{"android":"levelo://app?vid=db69cf9b-347f-4bf7-a167-1baf57a6f084","ios":"levelo://app?vid=db69cf9b-347f-4bf7-a167-1baf57a6f084"},"vehicle_type_id":"4","last_reported":1721934359,"current_range_meters":22000,"station_id":"ce4bhr12rcd13ifvqhpg","pricing_plan_id":"cebpf4jnsgd1na2vs0mg"},{"bike_id":"ebc74894-d107-4ab8-a393-c7bc80bc29ca","system_id":"levelo_inurba_marseille","lat":43.299209,"lon":5.365547,"is_reserved":false,"is_disabled":false,"rental_uris":{"android":"levelo://app?vid=ebc74894-d107-4ab8-a393-c7bc80bc29ca","ios":"levelo://app?vid=ebc74894-d107-4ab8-a393-c7bc80bc29ca"},"vehicle_type_id":"4","last_reported":1721934359,"current_range_meters":26000,"station_id":"ce4bgm92rcd13ifvqbr0","pricing_plan_id":"cebpf4jnsgd1na2vs0mg"},{"bike_id":"0b5dcdb8-00f2-47a8-b1c1-ba1996befeb3","system_id":"levelo_inurba_marseille","lat":43.299724,"lon":5.371829,"is_reserved":false,"is_disabled":false,"rental_uris":{"android":"levelo://app?vid=0b5dcdb8-00f2-47a8-b1c1-ba1996befeb3","ios":"levelo://app?vid=0b5dcdb8-00f2-47a8-b1c1-ba1996befeb3"},"vehicle_type_id":"4","last_reported":1721934359,"current_range_meters":1600,"station_id":"ce4bgr92rcd13ifvqc7g","pricing_plan_id":"cebpf4jnsgd1na2vs0mg"},{"bike_id":"1f45577c-f468-4fce-95a7-2b0b8dd7cc49","system_id":"levelo_inurba_marseille","lat":43.299209,"lon":5.365547,"is_reserved":false,"is_disabled":false,"rental_uris":{"android":"levelo://app?vid=1f45577c-f468-4fce-95a7-2b0b8dd7cc49","ios":"levelo://app?vid=1f45577c-f468-4fce-95a7-2b0b8dd7cc49"},"vehicle_type_id":"4","last_reported":1721934359,"current_range_meters":21200,"station_id":"ce4bgm92rcd13ifvqbr0","pricing_plan_id":"cebpf4jnsgd1na2vs0mg"},{"bike_id":"c8db4c04-1a1e-4a52-b281-a769f5d31d80","system_id":"levelo_inurba_marseille","lat":43.299222,"lon":5.365554,"is_reserved":false,"is_disabled":false,"rental_uris":{"android":"levelo://app?vid=c8db4c04-1a1e-4a52-b281-a769f5d31d80","ios":"levelo://app?vid=c8db4c04-1a1e-4a52-b281-a769f5d31d80"},"vehicle_type_id":"4","last_reported":1721934359,"current_range_meters":26800,"station_id":"ce4bgm92rcd13ifvqbr0","pricing_plan_id":"cebpf4jnsgd1na2vs0mg"},{"bike_id":"c51a512c-7005-4fd9-9bab-0c7b1927507a","system_id":"levelo_inurba_marseille","lat":43.299724,"lon":5.371829,"is_reserved":false,"is_disabled":false,"rental_uris":{"android":"levelo://app?vid=c51a512c-7005-4fd9-9bab-0c7b1927507a","ios":"levelo://app?vid=c51a512c-7005-4fd9-9bab-0c7b1927507a"},"vehicle_type_id":"4","last_reported":1721934359,"current_range_meters":5600,"station_id":"ce4bgr92rcd13ifvqc7g","pricing_plan_id":"cebpf4jnsgd1na2vs0mg"},{"bike_id":"ada93d85-f42c-4db4-b5b1-0536c40167f6","system_id":"levelo_inurba_marseille","lat":43.298433,"lon":5.362774,"is_reserved":false,"is_disabled":false,"rental_uris":{"android":"levelo://app?vid=ada93d85-f42c-4db4-b5b1-0536c40167f6","ios":"levelo://app?vid=ada93d85-f42c-4db4-b5b1-0536c40167f6"},"vehicle_type_id":"4","last_reported":1721934359,"current_range_meters":30400,"station_id":"ce4bgpp2rcd13ifvqc3g","pricing_plan_id":"cebpf4jnsgd1na2vs0mg"},{"bike_id":"e09fb7f7-6cad-48d7-9c94-8fcbe236ec84","system_id":"levelo_inurba_marseille","lat":43.298433,"lon":5.362774,"is_reserved":false,"is_disabled":false,"rental_uris":{"android":"levelo://app?vid=e09fb7f7-6cad-48d7-9c94-8fcbe236ec84","ios":"levelo://app?vid=e09fb7f7-6cad-48d7-9c94-8fcbe236ec84"},"vehicle_type_id":"4","last_reported":1721934359,"current_range_meters":29600,"station_id":"ce4bgpp2rcd13ifvqc3g","pricing_plan_id":"cebpf4jnsgd1na2vs0mg"},{"bike_id":"78085be5-9e2c-4a52-83dc-cb18cfd46677","system_id":"levelo_inurba_marseille","lat":43.305364,"lon":5.384119,"is_reserved":false,"is_disabled":false,"rental_uris":{"android":"levelo://app?vid=78085be5-9e2c-4a52-83dc-cb18cfd46677","ios":"levelo://app?vid=78085be5-9e2c-4a52-83dc-cb18cfd46677"},"vehicle_type_id":"4","last_reported":1721934359,"current_range_meters":30800,"station_id":"ce4bgg92rcd13ifvqb30","pricing_plan_id":"cebpf4jnsgd1na2vs0mg"},{"bike_id":"453e1f54-bc1c-4482-b2b0-5f555e221259","system_id":"levelo_inurba_marseille","lat":43.311722,"lon":5.387247,"is_reserved":false,"is_disabled":false,"rental_uris":{"android":"levelo://app?vid=453e1f54-bc1c-4482-b2b0-5f555e221259","ios":"levelo://app?vid=453e1f54-bc1c-4482-b2b0-5f555e221259"},"vehicle_type_id":"4","last_reported":1721934359,"current_range_meters":20800,"station_id":"ce4bgv12rcd13ifvqcp0","pricing_plan_id":"cebpf4jnsgd1na2vs0mg"},{"bike_id":"a2ea553e-322a-425e-b3a6-795aa1254aa6","system_id":"levelo_inurba_marseille","lat":43.311722,"lon":5.387247,"is_reserved":false,"is_disabled":false,"rental_uris":{"android":"levelo://app?vid=a2ea553e-322a-425e-b3a6-795aa1254aa6","ios":"levelo://app?vid=a2ea553e-322a-425e-b3a6-795aa1254aa6"},"vehicle_type_id":"4","last_reported":1721934359,"current_range_meters":24400,"station_id":"ce4bgv12rcd13ifvqcp0","pricing_plan_id":"cebpf4jnsgd1na2vs0mg"},{"bike_id":"af902747-d193-4a94-a6fe-a8a55b5c3866","system_id":"levelo_inurba_marseille","lat":43.311722,"lon":5.387247,"is_reserved":false,"is_disabled":false,"rental_uris":{"android":"levelo://app?vid=af902747-d193-4a94-a6fe-a8a55b5c3866","ios":"levelo://app?vid=af902747-d193-4a94-a6fe-a8a55b5c3866"},"vehicle_type_id":"4","last_reported":1721934359,"current_range_meters":5200,"station_id":"ce4bgv12rcd13ifvqcp0","pricing_plan_id":"cebpf4jnsgd1na2vs0mg"},{"bike_id":"d0f73b66-2114-466b-b24a-8b193bac197d","system_id":"levelo_inurba_marseille","lat":43.299243,"lon":5.37481,"is_reserved":false,"is_disabled":false,"rental_uris":{"android":"levelo://app?vid=d0f73b66-2114-466b-b24a-8b193bac197d","ios":"levelo://app?vid=d0f73b66-2114-466b-b24a-8b193bac197d"},"vehicle_type_id":"4","last_reported":1721934359,"current_range_meters":17600,"station_id":"ce4bgjh2rcd13ifvqbg0","pricing_plan_id":"cebpf4jnsgd1na2vs0mg"},{"bike_id":"8e96cd63-98cd-492c-98b5-7b95487468a4","system_id":"levelo_inurba_marseille","lat":43.31177,"lon":5.38712,"is_reserved":false,"is_disabled":false,"rental_uris":{"android":"levelo://app?vid=8e96cd63-98cd-492c-98b5-7b95487468a4","ios":"levelo://app?vid=8e96cd63-98cd-492c-98b5-7b95487468a4"},"vehicle_type_id":"4","last_reported":1721934359,"current_range_meters":25600,"station_id":"ce4bgv12rcd13ifvqcp0","pricing_plan_id":"cebpf4jnsgd1na2vs0mg"},{"bike_id":"69ea121f-95cc-4724-9c5a-83c41de66230","system_id":"levelo_inurba_marseille","lat":43.311722,"lon":5.387247,"is_reserved":false,"is_disabled":false,"rental_uris":{"android":"levelo://app?vid=69ea121f-95cc-4724-9c5a-83c41de66230","ios":"levelo://app?vid=69ea121f-95cc-4724-9c5a-83c41de66230"},"vehicle_type_id":"4","last_reported":1721934359,"current_range_meters":26000,"station_id":"ce4bgv12rcd13ifvqcp0","pricing_plan_id":"cebpf4jnsgd1na2vs0mg"},{"bike_id":"d6496aec-b6ae-4f0a-b7f0-c99152dfa7a5","system_id":"levelo_inurba_marseille","lat":43.311722,"lon":5.387247,"is_reserved":false,"is_disabled":false,"rental_uris":{"android":"levelo://app?vid=d6496aec-b6ae-4f0a-b7f0-c99152dfa7a5","ios":"levelo://app?vid=d6496aec-b6ae-4f0a-b7f0-c99152dfa7a5"},"vehicle_type_id":"4","last_reported":1721934359,"current_range_meters":22400,"station_id":"ce4bgv12rcd13ifvqcp0","pricing_plan_id":"cebpf4jnsgd1na2vs0mg"},{"bike_id":"fbdbc67f-d5fd-42f2-95b8-e5f945477838","system_id":"levelo_inurba_marseille","lat":43.311722,"lon":5.387247,"is_reserved":false,"is_disabled":false,"rental_uris":{"android":"levelo://app?vid=fbdbc67f-d5fd-42f2-95b8-e5f945477838","ios":"levelo://app?vid=fbdbc67f-d5fd-42f2-95b8-e5f945477838"},"vehicle_type_id":"4","last_reported":1721934359,"current_range_meters":31600,"station_id":"ce4bgv12rcd13ifvqcp0","pricing_plan_id":"cebpf4jnsgd1na2vs0mg"},{"bike_id":"1c7f4287-a367-45bc-a350-35acbc7e80ee","system_id":"levelo_inurba_marseille","lat":43.299243,"lon":5.374807,"is_reserved":false,"is_disabled":false,"rental_uris":{"android":"levelo://app?vid=1c7f4287-a367-45bc-a350-35acbc7e80ee","ios":"levelo://app?vid=1c7f4287-a367-45bc-a350-35acbc7e80ee"},"vehicle_type_id":"4","last_reported":1721934359,"current_range_meters":10800,"station_id":"ce4bgjh2rcd13ifvqbg0","pricing_plan_id":"cebpf4jnsgd1na2vs0mg"},{"bike_id":"9511b561-8cf4-41f0-a004-49a4c673ea1e","system_id":"levelo_inurba_marseille","lat":43.311722,"lon":5.387247,"is_reserved":false,"is_disabled":false,"rental_uris":{"android":"levelo://app?vid=9511b561-8cf4-41f0-a004-49a4c673ea1e","ios":"levelo://app?vid=9511b561-8cf4-41f0-a004-49a4c673ea1e"},"vehicle_type_id":"4","last_reported":1721934359,"current_range_meters":31200,"station_id":"ce4bgv12rcd13ifvqcp0","pricing_plan_id":"cebpf4jnsgd1na2vs0mg"},{"bike_id":"820cf143-a90c-4fc7-b872-e91fea12ec24","system_id":"levelo_inurba_marseille","lat":43.3117,"lon":5.38719,"is_reserved":false,"is_disabled":false,"rental_uris":{"android":"levelo://app?vid=820cf143-a90c-4fc7-b872-e91fea12ec24","ios":"levelo://app?vid=820cf143-a90c-4fc7-b872-e91fea12ec24"},"vehicle_type_id":"4","last_reported":1721934359,"current_range_meters":16400,"station_id":"ce4bgv12rcd13ifvqcp0","pricing_plan_id":"cebpf4jnsgd1na2vs0mg"},{"bike_id":"25bf7ddf-56ca-4541-8ed0-9b93f6e50d2c","system_id":"levelo_inurba_marseille","lat":43.31171,"lon":5.3872,"is_reserved":false,"is_disabled":false,"rental_uris":{"android":"levelo://app?vid=25bf7ddf-56ca-4541-8ed0-9b93f6e50d2c","ios":"levelo://app?vid=25bf7ddf-56ca-4541-8ed0-9b93f6e50d2c"},"vehicle_type_id":"4","last_reported":1721934359,"current_range_meters":0,"station_id":"ce4bgv12rcd13ifvqcp0","pricing_plan_id":"cebpf4jnsgd1na2vs0mg"},{"bike_id":"62c85cd2-e156-4d48-b323-b497afcf0e3b","system_id":"levelo_inurba_marseille","lat":43.311722,"lon":5.387247,"is_reserved":false,"is_disabled":false,"rental_uris":{"android":"levelo://app?vid=62c85cd2-e156-4d48-b323-b497afcf0e3b","ios":"levelo://app?vid=62c85cd2-e156-4d48-b323-b497afcf0e3b"},"vehicle_type_id":"4","last_reported":1721934359,"current_range_meters":12000,"station_id":"ce4bgv12rcd13ifvqcp0","pricing_plan_id":"cebpf4jnsgd1na2vs0mg"},{"bike_id":"8baffaad-80c0-4b72-8710-9e15eb282a9c","system_id":"levelo_inurba_marseille","lat":43.311722,"lon":5.387247,"is_reserved":false,"is_disabled":false,"rental_uris":{"android":"levelo://app?vid=8baffaad-80c0-4b72-8710-9e15eb282a9c","ios":"levelo://app?vid=8baffaad-80c0-4b72-8710-9e15eb282a9c"},"vehicle_type_id":"4","last_reported":1721934359,"current_range_meters":6000,"station_id":"ce4bgv12rcd13ifvqcp0","pricing_plan_id":"cebpf4jnsgd1na2vs0mg"},{"bike_id":"a0beacc6-5b2d-4854-87d2-762f4128e860","system_id":"levelo_inurba_marseille","lat":43.3015,"lon":5.38071,"is_reserved":false,"is_disabled":false,"rental_uris":{"android":"levelo://app?vid=a0beacc6-5b2d-4854-87d2-762f4128e860","ios":"levelo://app?vid=a0beacc6-5b2d-4854-87d2-762f4128e860"},"vehicle_type_id":"4","last_reported":1721934359,"current_range_meters":8000,"station_id":"","pricing_plan_id":"cebpf4jnsgd1na2vs0mg"},{"bike_id":"e5e7a712-06cc-432e-8017-20cd8330c96b","system_id":"levelo_inurba_marseille","lat":43.301439,"lon":5.380837,"is_reserved":false,"is_disabled":false,"rental_uris":{"android":"levelo://app?vid=e5e7a712-06cc-432e-8017-20cd8330c96b","ios":"levelo://app?vid=e5e7a712-06cc-432e-8017-20cd8330c96b"},"vehicle_type_id":"4","last_reported":1721934359,"current_range_meters":0,"station_id":"","pricing_plan_id":"cebpf4jnsgd1na2vs0mg"},{"bike_id":"cdfb6b3f-d6fb-4d7e-9a55-66403d9de1cd","system_id":"levelo_inurba_marseille","lat":43.32288,"lon":5.38256,"is_reserved":false,"is_disabled":false,"rental_uris":{"android":"levelo://app?vid=cdfb6b3f-d6fb-4d7e-9a55-66403d9de1cd","ios":"levelo://app?vid=cdfb6b3f-d6fb-4d7e-9a55-66403d9de1cd"},"vehicle_type_id":"4","last_reported":1721934359,"current_range_meters":5600,"station_id":"ce4bhr12rcd13ifvqhqg","pricing_plan_id":"cebpf4jnsgd1na2vs0mg"},{"bike_id":"f2d9fa02-73b3-4c0b-b068-549cbcae3f51","system_id":"levelo_inurba_marseille","lat":43.322872,"lon":5.382756,"is_reserved":false,"is_disabled":false,"rental_uris":{"android":"levelo://app?vid=f2d9fa02-73b3-4c0b-b068-549cbcae3f51","ios":"levelo://app?vid=f2d9fa02-73b3-4c0b-b068-549cbcae3f51"},"vehicle_type_id":"4","last_reported":1721934359,"current_range_meters":31200,"station_id":"ce4bhr12rcd13ifvqhqg","pricing_plan_id":"cebpf4jnsgd1na2vs0mg"},{"bike_id":"b447b52e-92af-46a1-b100-c7b84c2e780b","system_id":"levelo_inurba_marseille","lat":43.322872,"lon":5.382756,"is_reserved":false,"is_disabled":false,"rental_uris":{"android":"levelo://app?vid=b447b52e-92af-46a1-b100-c7b84c2e780b","ios":"levelo://app?vid=b447b52e-92af-46a1-b100-c7b84c2e780b"},"vehicle_type_id":"4","last_reported":1721934359,"current_range_meters":12400,"station_id":"ce4bhr12rcd13ifvqhqg","pricing_plan_id":"cebpf4jnsgd1na2vs0mg"},{"bike_id":"b7c473da-ed72-448f-ba2b-17a09e628aa2","system_id":"levelo_inurba_marseille","lat":43.322872,"lon":5.382756,"is_reserved":false,"is_disabled":false,"rental_uris":{"android":"levelo://app?vid=b7c473da-ed72-448f-ba2b-17a09e628aa2","ios":"levelo://app?vid=b7c473da-ed72-448f-ba2b-17a09e628aa2"},"vehicle_type_id":"4","last_reported":1721934359,"current_range_meters":28800,"station_id":"ce4bhr12rcd13ifvqhqg","pricing_plan_id":"cebpf4jnsgd1na2vs0mg"},{"bike_id":"898cb95f-5acd-4fb4-85c6-f5849b77df15","system_id":"levelo_inurba_marseille","lat":43.297163,"lon":5.365866,"is_reserved":false,"is_disabled":false,"rental_uris":{"android":"levelo://app?vid=898cb95f-5acd-4fb4-85c6-f5849b77df15","ios":"levelo://app?vid=898cb95f-5acd-4fb4-85c6-f5849b77df15"},"vehicle_type_id":"4","last_reported":1721934359,"current_range_meters":7600,"station_id":"ce4bgn12rcd13ifvqbt0","pricing_plan_id":"cebpf4jnsgd1na2vs0mg"},{"bike_id":"b17928e9-91b5-42cb-b8ed-520e10c0329f","system_id":"levelo_inurba_marseille","lat":43.29573,"lon":5.367355,"is_reserved":false,"is_disabled":false,"rental_uris":{"android":"levelo://app?vid=b17928e9-91b5-42cb-b8ed-520e10c0329f","ios":"levelo://app?vid=b17928e9-91b5-42cb-b8ed-520e10c0329f"},"vehicle_type_id":"4","last_reported":1721934359,"current_range_meters":31600,"station_id":"ce4bgph2rcd13ifvqc2g","pricing_plan_id":"cebpf4jnsgd1na2vs0mg"},{"bike_id":"03337411-b9b6-4117-89ac-6a782840128e","system_id":"levelo_inurba_marseille","lat":43.296129,"lon":5.370777,"is_reserved":false,"is_disabled":false,"rental_uris":{"android":"levelo://app?vid=03337411-b9b6-4117-89ac-6a782840128e","ios":"levelo://app?vid=03337411-b9b6-4117-89ac-6a782840128e"},"vehicle_type_id":"4","last_reported":1721934359,"current_range_meters":5200,"station_id":"ce4bgnh2rcd13ifvqc0g","pricing_plan_id":"cebpf4jnsgd1na2vs0mg"},{"bike_id":"6724a692-9701-4b15-828d-08078ebc7e2a","system_id":"levelo_inurba_marseille","lat":43.299028,"lon":5.381509,"is_reserved":false,"is_disabled":false,"rental_uris":{"android":"levelo://app?vid=6724a692-9701-4b15-828d-08078ebc7e2a","ios":"levelo://app?vid=6724a692-9701-4b15-828d-08078ebc7e2a"},"vehicle_type_id":"4","last_reported":1721934359,"current_range_meters":11200,"station_id":"ce4bgj12rcd13ifvqbc0","pricing_plan_id":"cebpf4jnsgd1na2vs0mg"},{"bike_id":"ea5715db-81d7-4833-8ffa-0d021627eac2","system_id":"levelo_inurba_marseille","lat":43.299028,"lon":5.381509,"is_reserved":false,"is_disabled":false,"rental_uris":{"android":"levelo://app?vid=ea5715db-81d7-4833-8ffa-0d021627eac2","ios":"levelo://app?vid=ea5715db-81d7-4833-8ffa-0d021627eac2"},"vehicle_type_id":"4","last_reported":1721934359,"current_range_meters":2400,"station_id":"ce4bgj12rcd13ifvqbc0","pricing_plan_id":"cebpf4jnsgd1na2vs0mg"},{"bike_id":"e0c6f5d4-a071-445c-b9d3-da4ddc33494f","system_id":"levelo_inurba_marseille","lat":43.309589,"lon":5.390258,"is_reserved":false,"is_disabled":false,"rental_uris":{"android":"levelo://app?vid=e0c6f5d4-a071-445c-b9d3-da4ddc33494f","ios":"levelo://app?vid=e0c6f5d4-a071-445c-b9d3-da4ddc33494f"},"vehicle_type_id":"4","last_reported":1721934359,"current_range_meters":18000,"station_id":"ce4bgup2rcd13ifvqco0","pricing_plan_id":"cebpf4jnsgd1na2vs0mg"},{"bike_id":"c2cde880-dbbe-4682-8c19-b21a6732d372","system_id":"levelo_inurba_marseille","lat":43.309589,"lon":5.390258,"is_reserved":false,"is_disabled":false,"rental_uris":{"android":"levelo://app?vid=c2cde880-dbbe-4682-8c19-b21a6732d372","ios":"levelo://app?vid=c2cde880-dbbe-4682-8c19-b21a6732d372"},"vehicle_type_id":"4","last_reported":1721934359,"current_range_meters":0,"station_id":"ce4bgup2rcd13ifvqco0","pricing_plan_id":"cebpf4jnsgd1na2vs0mg"},{"bike_id":"d5dea0ab-7c27-42c9-9a46-bc704bafd2bb","system_id":"levelo_inurba_marseille","lat":43.309589,"lon":5.390258,"is_reserved":false,"is_disabled":false,"rental_uris":{"android":"levelo://app?vid=d5dea0ab-7c27-42c9-9a46-bc704bafd2bb","ios":"levelo://app?vid=d5dea0ab-7c27-42c9-9a46-bc704bafd2bb"},"vehicle_type_id":"4","last_reported":1721934359,"current_range_meters":2400,"station_id":"ce4bgup2rcd13ifvqco0","pricing_plan_id":"cebpf4jnsgd1na2vs0mg"},{"bike_id":"7ae844be-febd-4376-a285-c5268036ba77","system_id":"levelo_inurba_marseille","lat":43.299028,"lon":5.381509,"is_reserved":false,"is_disabled":false,"rental_uris":{"android":"levelo://app?vid=7ae844be-febd-4376-a285-c5268036ba77","ios":"levelo://app?vid=7ae844be-febd-4376-a285-c5268036ba77"},"vehicle_type_id":"4","last_reported":1721934359,"current_range_meters":1200,"station_id":"ce4bgj12rcd13ifvqbc0","pricing_plan_id":"cebpf4jnsgd1na2vs0mg"},{"bike_id":"dc80e0e2-ec6b-4174-a12d-54effa365ab3","system_id":"levelo_inurba_marseille","lat":43.309589,"lon":5.390258,"is_reserved":false,"is_disabled":false,"rental_uris":{"android":"levelo://app?vid=dc80e0e2-ec6b-4174-a12d-54effa365ab3","ios":"levelo://app?vid=dc80e0e2-ec6b-4174-a12d-54effa365ab3"},"vehicle_type_id":"4","last_reported":1721934359,"current_range_meters":31200,"station_id":"ce4bgup2rcd13ifvqco0","pricing_plan_id":"cebpf4jnsgd1na2vs0mg"},{"bike_id":"35553e69-33f3-4b82-b8c7-72c965f7b5e0","system_id":"levelo_inurba_marseille","lat":43.309589,"lon":5.390258,"is_reserved":false,"is_disabled":false,"rental_uris":{"android":"levelo://app?vid=35553e69-33f3-4b82-b8c7-72c965f7b5e0","ios":"levelo://app?vid=35553e69-33f3-4b82-b8c7-72c965f7b5e0"},"vehicle_type_id":"4","last_reported":1721934359,"current_range_meters":16800,"station_id":"ce4bgup2rcd13ifvqco0","pricing_plan_id":"cebpf4jnsgd1na2vs0mg"},{"bike_id":"c128ccb9-f491-4c5f-99b9-ddd5551222dc","system_id":"levelo_inurba_marseille","lat":43.309589,"lon":5.390258,"is_reserved":false,"is_disabled":false,"rental_uris":{"android":"levelo://app?vid=c128ccb9-f491-4c5f-99b9-ddd5551222dc","ios":"levelo://app?vid=c128ccb9-f491-4c5f-99b9-ddd5551222dc"},"vehicle_type_id":"4","last_reported":1721934359,"current_range_meters":28800,"station_id":"ce4bgup2rcd13ifvqco0","pricing_plan_id":"cebpf4jnsgd1na2vs0mg"},{"bike_id":"94f7ec61-d2af-427d-befb-4c284f71aebc","system_id":"levelo_inurba_marseille","lat":43.309589,"lon":5.390258,"is_reserved":false,"is_disabled":false,"rental_uris":{"android":"levelo://app?vid=94f7ec61-d2af-427d-befb-4c284f71aebc","ios":"levelo://app?vid=94f7ec61-d2af-427d-befb-4c284f71aebc"},"vehicle_type_id":"4","last_reported":1721934359,"current_range_meters":20000,"station_id":"ce4bgup2rcd13ifvqco0","pricing_plan_id":"cebpf4jnsgd1na2vs0mg"},{"bike_id":"53e1e4ca-9601-4bcd-8354-ab2e7b09567e","system_id":"levelo_inurba_marseille","lat":43.309589,"lon":5.390258,"is_reserved":false,"is_disabled":false,"rental_uris":{"android":"levelo://app?vid=53e1e4ca-9601-4bcd-8354-ab2e7b09567e","ios":"levelo://app?vid=53e1e4ca-9601-4bcd-8354-ab2e7b09567e"},"vehicle_type_id":"4","last_reported":1721934359,"current_range_meters":5600,"station_id":"ce4bgup2rcd13ifvqco0","pricing_plan_id":"cebpf4jnsgd1na2vs0mg"},{"bike_id":"70b1e0b4-9f3f-4598-bd43-fdfcb745a820","system_id":"levelo_inurba_marseille","lat":43.309589,"lon":5.390258,"is_reserved":false,"is_disabled":false,"rental_uris":{"android":"levelo://app?vid=70b1e0b4-9f3f-4598-bd43-fdfcb745a820","ios":"levelo://app?vid=70b1e0b4-9f3f-4598-bd43-fdfcb745a820"},"vehicle_type_id":"4","last_reported":1721934359,"current_range_meters":31600,"station_id":"ce4bgup2rcd13ifvqco0","pricing_plan_id":"cebpf4jnsgd1na2vs0mg"},{"bike_id":"6e331f5d-bc4d-476f-90ca-b4458ab8107f","system_id":"levelo_inurba_marseille","lat":43.309589,"lon":5.390258,"is_reserved":false,"is_disabled":false,"rental_uris":{"android":"levelo://app?vid=6e331f5d-bc4d-476f-90ca-b4458ab8107f","ios":"levelo://app?vid=6e331f5d-bc4d-476f-90ca-b4458ab8107f"},"vehicle_type_id":"4","last_reported":1721934359,"current_range_meters":22000,"station_id":"ce4bgup2rcd13ifvqco0","pricing_plan_id":"cebpf4jnsgd1na2vs0mg"},{"bike_id":"12633fb0-8c16-4445-9176-71aa1d4e0b3c","system_id":"levelo_inurba_marseille","lat":43.309589,"lon":5.390258,"is_reserved":false,"is_disabled":false,"rental_uris":{"android":"levelo://app?vid=12633fb0-8c16-4445-9176-71aa1d4e0b3c","ios":"levelo://app?vid=12633fb0-8c16-4445-9176-71aa1d4e0b3c"},"vehicle_type_id":"4","last_reported":1721934359,"current_range_meters":19600,"station_id":"ce4bgup2rcd13ifvqco0","pricing_plan_id":"cebpf4jnsgd1na2vs0mg"},{"bike_id":"574c7af5-f70a-41d8-a69d-405bd61c7a6d","system_id":"levelo_inurba_marseille","lat":43.309589,"lon":5.390258,"is_reserved":false,"is_disabled":false,"rental_uris":{"android":"levelo://app?vid=574c7af5-f70a-41d8-a69d-405bd61c7a6d","ios":"levelo://app?vid=574c7af5-f70a-41d8-a69d-405bd61c7a6d"},"vehicle_type_id":"4","last_reported":1721934359,"current_range_meters":19200,"station_id":"ce4bgup2rcd13ifvqco0","pricing_plan_id":"cebpf4jnsgd1na2vs0mg"},{"bike_id":"43164aee-32de-49e6-81eb-758430fa961a","system_id":"levelo_inurba_marseille","lat":43.309589,"lon":5.390258,"is_reserved":false,"is_disabled":false,"rental_uris":{"android":"levelo://app?vid=43164aee-32de-49e6-81eb-758430fa961a","ios":"levelo://app?vid=43164aee-32de-49e6-81eb-758430fa961a"},"vehicle_type_id":"4","last_reported":1721934359,"current_range_meters":10800,"station_id":"ce4bgup2rcd13ifvqco0","pricing_plan_id":"cebpf4jnsgd1na2vs0mg"},{"bike_id":"7a3f8dba-584e-4cc9-9faf-7fd04b899f7e","system_id":"levelo_inurba_marseille","lat":43.309589,"lon":5.390258,"is_reserved":false,"is_disabled":false,"rental_uris":{"android":"levelo://app?vid=7a3f8dba-584e-4cc9-9faf-7fd04b899f7e","ios":"levelo://app?vid=7a3f8dba-584e-4cc9-9faf-7fd04b899f7e"},"vehicle_type_id":"4","last_reported":1721934359,"current_range_meters":7600,"station_id":"ce4bgup2rcd13ifvqco0","pricing_plan_id":"cebpf4jnsgd1na2vs0mg"},{"bike_id":"51341d4d-d562-414b-b8b8-4901c61eb52d","system_id":"levelo_inurba_marseille","lat":43.309589,"lon":5.390258,"is_reserved":false,"is_disabled":false,"rental_uris":{"android":"levelo://app?vid=51341d4d-d562-414b-b8b8-4901c61eb52d","ios":"levelo://app?vid=51341d4d-d562-414b-b8b8-4901c61eb52d"},"vehicle_type_id":"4","last_reported":1721934359,"current_range_meters":5600,"station_id":"ce4bgup2rcd13ifvqco0","pricing_plan_id":"cebpf4jnsgd1na2vs0mg"},{"bike_id":"dc7e82d0-be87-4811-9f5e-1800dffb3f7e","system_id":"levelo_inurba_marseille","lat":43.309589,"lon":5.390258,"is_reserved":false,"is_disabled":false,"rental_uris":{"android":"levelo://app?vid=dc7e82d0-be87-4811-9f5e-1800dffb3f7e","ios":"levelo://app?vid=dc7e82d0-be87-4811-9f5e-1800dffb3f7e"},"vehicle_type_id":"4","last_reported":1721934359,"current_range_meters":0,"station_id":"ce4bgup2rcd13ifvqco0","pricing_plan_id":"cebpf4jnsgd1na2vs0mg"},{"bike_id":"c9a93e44-4f1b-4241-a976-a3520f07299e","system_id":"levelo_inurba_marseille","lat":43.309589,"lon":5.390258,"is_reserved":false,"is_disabled":false,"rental_uris":{"android":"levelo://app?vid=c9a93e44-4f1b-4241-a976-a3520f07299e","ios":"levelo://app?vid=c9a93e44-4f1b-4241-a976-a3520f07299e"},"vehicle_type_id":"4","last_reported":1721934359,"current_range_meters":4000,"station_id":"ce4bgup2rcd13ifvqco0","pricing_plan_id":"cebpf4jnsgd1na2vs0mg"},{"bike_id":"745ec319-a734-4f0e-a598-55dfa22eb8eb","system_id":"levelo_inurba_marseille","lat":43.309589,"lon":5.390258,"is_reserved":false,"is_disabled":false,"rental_uris":{"android":"levelo://app?vid=745ec319-a734-4f0e-a598-55dfa22eb8eb","ios":"levelo://app?vid=745ec319-a734-4f0e-a598-55dfa22eb8eb"},"vehicle_type_id":"4","last_reported":1721934359,"current_range_meters":25200,"station_id":"ce4bgup2rcd13ifvqco0","pricing_plan_id":"cebpf4jnsgd1na2vs0mg"},{"bike_id":"b01f8e05-9d76-470e-aeb8-27e49b6d698d","system_id":"levelo_inurba_marseille","lat":43.309589,"lon":5.390258,"is_reserved":false,"is_disabled":false,"rental_uris":{"android":"levelo://app?vid=b01f8e05-9d76-470e-aeb8-27e49b6d698d","ios":"levelo://app?vid=b01f8e05-9d76-470e-aeb8-27e49b6d698d"},"vehicle_type_id":"4","last_reported":1721934359,"current_range_meters":800,"station_id":"ce4bgup2rcd13ifvqco0","pricing_plan_id":"cebpf4jnsgd1na2vs0mg"},{"bike_id":"cedca486-48ae-49e3-a3c7-f4ffe30022fb","system_id":"levelo_inurba_marseille","lat":43.309589,"lon":5.390258,"is_reserved":false,"is_disabled":false,"rental_uris":{"android":"levelo://app?vid=cedca486-48ae-49e3-a3c7-f4ffe30022fb","ios":"levelo://app?vid=cedca486-48ae-49e3-a3c7-f4ffe30022fb"},"vehicle_type_id":"4","last_reported":1721934359,"current_range_meters":2400,"station_id":"ce4bgup2rcd13ifvqco0","pricing_plan_id":"cebpf4jnsgd1na2vs0mg"},{"bike_id":"9f3c496a-2bb8-4a3b-9916-aeaa7ad39f28","system_id":"levelo_inurba_marseille","lat":43.309589,"lon":5.390258,"is_reserved":false,"is_disabled":false,"rental_uris":{"android":"levelo://app?vid=9f3c496a-2bb8-4a3b-9916-aeaa7ad39f28","ios":"levelo://app?vid=9f3c496a-2bb8-4a3b-9916-aeaa7ad39f28"},"vehicle_type_id":"4","last_reported":1721934359,"current_range_meters":9200,"station_id":"ce4bgup2rcd13ifvqco0","pricing_plan_id":"cebpf4jnsgd1na2vs0mg"},{"bike_id":"11e14b06-a9c5-44bb-b3b5-4c23a6a9b3ee","system_id":"levelo_inurba_marseille","lat":43.309589,"lon":5.390258,"is_reserved":false,"is_disabled":false,"rental_uris":{"android":"levelo://app?vid=11e14b06-a9c5-44bb-b3b5-4c23a6a9b3ee","ios":"levelo://app?vid=11e14b06-a9c5-44bb-b3b5-4c23a6a9b3ee"},"vehicle_type_id":"4","last_reported":1721934359,"current_range_meters":30000,"station_id":"ce4bgup2rcd13ifvqco0","pricing_plan_id":"cebpf4jnsgd1na2vs0mg"},{"bike_id":"0acababc-e9a3-409a-9a4e-bd6c45ba86cd","system_id":"levelo_inurba_marseille","lat":43.309589,"lon":5.390258,"is_reserved":false,"is_disabled":false,"rental_uris":{"android":"levelo://app?vid=0acababc-e9a3-409a-9a4e-bd6c45ba86cd","ios":"levelo://app?vid=0acababc-e9a3-409a-9a4e-bd6c45ba86cd"},"vehicle_type_id":"4","last_reported":1721934359,"current_range_meters":0,"station_id":"ce4bgup2rcd13ifvqco0","pricing_plan_id":"cebpf4jnsgd1na2vs0mg"},{"bike_id":"79248592-d9de-4241-bf5e-37b5cd5cb962","system_id":"levelo_inurba_marseille","lat":43.317557,"lon":5.390173,"is_reserved":false,"is_disabled":false,"rental_uris":{"android":"levelo://app?vid=79248592-d9de-4241-bf5e-37b5cd5cb962","ios":"levelo://app?vid=79248592-d9de-4241-bf5e-37b5cd5cb962"},"vehicle_type_id":"4","last_reported":1721934359,"current_range_meters":8800,"station_id":"ce4bhqp2rcd13ifvqhng","pricing_plan_id":"cebpf4jnsgd1na2vs0mg"},{"bike_id":"90519bc8-1a7d-40bd-99d3-e02e0a21f5de","system_id":"levelo_inurba_marseille","lat":43.317557,"lon":5.390173,"is_reserved":false,"is_disabled":false,"rental_uris":{"android":"levelo://app?vid=90519bc8-1a7d-40bd-99d3-e02e0a21f5de","ios":"levelo://app?vid=90519bc8-1a7d-40bd-99d3-e02e0a21f5de"},"vehicle_type_id":"4","last_reported":1721934359,"current_range_meters":22400,"station_id":"ce4bhqp2rcd13ifvqhng","pricing_plan_id":"cebpf4jnsgd1na2vs0mg"},{"bike_id":"4482e20a-0fcb-4b7b-8391-771ea310870e","system_id":"levelo_inurba_marseille","lat":43.299028,"lon":5.381509,"is_reserved":false,"is_disabled":false,"rental_uris":{"android":"levelo://app?vid=4482e20a-0fcb-4b7b-8391-771ea310870e","ios":"levelo://app?vid=4482e20a-0fcb-4b7b-8391-771ea310870e"},"vehicle_type_id":"4","last_reported":1721934359,"current_range_meters":20000,"station_id":"ce4bgj12rcd13ifvqbc0","pricing_plan_id":"cebpf4jnsgd1na2vs0mg"},{"bike_id":"20eb2448-4cc8-4262-86a9-0058ec4cbf15","system_id":"levelo_inurba_marseille","lat":43.29504,"lon":5.36327,"is_reserved":false,"is_disabled":false,"rental_uris":{"android":"levelo://app?vid=20eb2448-4cc8-4262-86a9-0058ec4cbf15","ios":"levelo://app?vid=20eb2448-4cc8-4262-86a9-0058ec4cbf15"},"vehicle_type_id":"4","last_reported":1721934359,"current_range_meters":0,"station_id":"","pricing_plan_id":"cebpf4jnsgd1na2vs0mg"},{"bike_id":"93c405bb-f3b5-4841-a570-a36cb7fc1ea8","system_id":"levelo_inurba_marseille","lat":43.30441,"lon":5.38889,"is_reserved":false,"is_disabled":false,"rental_uris":{"android":"levelo://app?vid=93c405bb-f3b5-4841-a570-a36cb7fc1ea8","ios":"levelo://app?vid=93c405bb-f3b5-4841-a570-a36cb7fc1ea8"},"vehicle_type_id":"4","last_reported":1721934359,"current_range_meters":12400,"station_id":"ce4bgk12rcd13ifvqbi0","pricing_plan_id":"cebpf4jnsgd1na2vs0mg"},{"bike_id":"2565f953-27b5-47ca-af10-35665a6a4123","system_id":"levelo_inurba_marseille","lat":43.304274,"lon":5.388873,"is_reserved":false,"is_disabled":false,"rental_uris":{"android":"levelo://app?vid=2565f953-27b5-47ca-af10-35665a6a4123","ios":"levelo://app?vid=2565f953-27b5-47ca-af10-35665a6a4123"},"vehicle_type_id":"4","last_reported":1721934359,"current_range_meters":31200,"station_id":"ce4bgk12rcd13ifvqbi0","pricing_plan_id":"cebpf4jnsgd1na2vs0mg"},{"bike_id":"01e0abb6-77da-47cf-8a9f-94c4d226ea65","system_id":"levelo_inurba_marseille","lat":43.304274,"lon":5.388873,"is_reserved":false,"is_disabled":false,"rental_uris":{"android":"levelo://app?vid=01e0abb6-77da-47cf-8a9f-94c4d226ea65","ios":"levelo://app?vid=01e0abb6-77da-47cf-8a9f-94c4d226ea65"},"vehicle_type_id":"4","last_reported":1721934359,"current_range_meters":26000,"station_id":"ce4bgk12rcd13ifvqbi0","pricing_plan_id":"cebpf4jnsgd1na2vs0mg"},{"bike_id":"eed9dc8e-ee71-4b15-81e2-37addb80790d","system_id":"levelo_inurba_marseille","lat":43.297906,"lon":5.381025,"is_reserved":false,"is_disabled":false,"rental_uris":{"android":"levelo://app?vid=eed9dc8e-ee71-4b15-81e2-37addb80790d","ios":"levelo://app?vid=eed9dc8e-ee71-4b15-81e2-37addb80790d"},"vehicle_type_id":"4","last_reported":1721934359,"current_range_meters":25600,"station_id":"ce4bhch2rcd13ifvqeug","pricing_plan_id":"cebpf4jnsgd1na2vs0mg"},{"bike_id":"d7a1e463-f1ae-4f2c-8710-797eed4c237c","system_id":"levelo_inurba_marseille","lat":43.304274,"lon":5.388873,"is_reserved":false,"is_disabled":false,"rental_uris":{"android":"levelo://app?vid=d7a1e463-f1ae-4f2c-8710-797eed4c237c","ios":"levelo://app?vid=d7a1e463-f1ae-4f2c-8710-797eed4c237c"},"vehicle_type_id":"4","last_reported":1721934359,"current_range_meters":31600,"station_id":"ce4bgk12rcd13ifvqbi0","pricing_plan_id":"cebpf4jnsgd1na2vs0mg"},{"bike_id":"e3f0e1c4-d976-4f01-8dd6-1174aae14b0e","system_id":"levelo_inurba_marseille","lat":43.304274,"lon":5.388873,"is_reserved":false,"is_disabled":false,"rental_uris":{"android":"levelo://app?vid=e3f0e1c4-d976-4f01-8dd6-1174aae14b0e","ios":"levelo://app?vid=e3f0e1c4-d976-4f01-8dd6-1174aae14b0e"},"vehicle_type_id":"4","last_reported":1721934359,"current_range_meters":800,"station_id":"ce4bgk12rcd13ifvqbi0","pricing_plan_id":"cebpf4jnsgd1na2vs0mg"},{"bike_id":"0a0c2ad3-9d17-464c-bc49-98a7db02cf57","system_id":"levelo_inurba_marseille","lat":43.30432,"lon":5.38891,"is_reserved":false,"is_disabled":false,"rental_uris":{"android":"levelo://app?vid=0a0c2ad3-9d17-464c-bc49-98a7db02cf57","ios":"levelo://app?vid=0a0c2ad3-9d17-464c-bc49-98a7db02cf57"},"vehicle_type_id":"4","last_reported":1721934359,"current_range_meters":30000,"station_id":"ce4bgk12rcd13ifvqbi0","pricing_plan_id":"cebpf4jnsgd1na2vs0mg"},{"bike_id":"b40d04a1-4eea-4e75-9e79-33278e144f20","system_id":"levelo_inurba_marseille","lat":43.29783,"lon":5.38107,"is_reserved":false,"is_disabled":false,"rental_uris":{"android":"levelo://app?vid=b40d04a1-4eea-4e75-9e79-33278e144f20","ios":"levelo://app?vid=b40d04a1-4eea-4e75-9e79-33278e144f20"},"vehicle_type_id":"4","last_reported":1721934359,"current_range_meters":29200,"station_id":"ce4bgip2rcd13ifvqbb0","pricing_plan_id":"cebpf4jnsgd1na2vs0mg"},{"bike_id":"86a82b7d-375f-4e30-b140-58bce917af3f","system_id":"levelo_inurba_marseille","lat":43.296263,"lon":5.377094,"is_reserved":false,"is_disabled":false,"rental_uris":{"android":"levelo://app?vid=86a82b7d-375f-4e30-b140-58bce917af3f","ios":"levelo://app?vid=86a82b7d-375f-4e30-b140-58bce917af3f"},"vehicle_type_id":"4","last_reported":1721934359,"current_range_meters":31600,"station_id":"ce4bgi92rcd13ifvqb90","pricing_plan_id":"cebpf4jnsgd1na2vs0mg"},{"bike_id":"3dedd3ca-5c11-44be-bde2-674990afac3b","system_id":"levelo_inurba_marseille","lat":43.299724,"lon":5.384848,"is_reserved":false,"is_disabled":false,"rental_uris":{"android":"levelo://app?vid=3dedd3ca-5c11-44be-bde2-674990afac3b","ios":"levelo://app?vid=3dedd3ca-5c11-44be-bde2-674990afac3b"},"vehicle_type_id":"4","last_reported":1721934359,"current_range_meters":23600,"station_id":"ce4bgj92rcd13ifvqbd0","pricing_plan_id":"cebpf4jnsgd1na2vs0mg"},{"bike_id":"6dd17991-2360-476e-9cc4-394838b49cfc","system_id":"levelo_inurba_marseille","lat":43.29663,"lon":5.37955,"is_reserved":false,"is_disabled":false,"rental_uris":{"android":"levelo://app?vid=6dd17991-2360-476e-9cc4-394838b49cfc","ios":"levelo://app?vid=6dd17991-2360-476e-9cc4-394838b49cfc"},"vehicle_type_id":"4","last_reported":1721934359,"current_range_meters":1200,"station_id":"","pricing_plan_id":"cebpf4jnsgd1na2vs0mg"},{"bike_id":"25ccff13-901c-4170-a3a2-1f5cdeb5342d","system_id":"levelo_inurba_marseille","lat":43.2972,"lon":5.38106,"is_reserved":false,"is_disabled":false,"rental_uris":{"android":"levelo://app?vid=25ccff13-901c-4170-a3a2-1f5cdeb5342d","ios":"levelo://app?vid=25ccff13-901c-4170-a3a2-1f5cdeb5342d"},"vehicle_type_id":"4","last_reported":1721934359,"current_range_meters":0,"station_id":"","pricing_plan_id":"cebpf4jnsgd1na2vs0mg"},{"bike_id":"2234f9fc-2c7f-4b27-b9d0-6e83d32907c9","system_id":"levelo_inurba_marseille","lat":43.301115,"lon":5.387367,"is_reserved":false,"is_disabled":false,"rental_uris":{"android":"levelo://app?vid=2234f9fc-2c7f-4b27-b9d0-6e83d32907c9","ios":"levelo://app?vid=2234f9fc-2c7f-4b27-b9d0-6e83d32907c9"},"vehicle_type_id":"4","last_reported":1721934359,"current_range_meters":29200,"station_id":"ce4bghh2rcd13ifvqb60","pricing_plan_id":"cebpf4jnsgd1na2vs0mg"},{"bike_id":"0e3165dc-7ae1-4cca-8bad-4933586c1f83","system_id":"levelo_inurba_marseille","lat":43.301396,"lon":5.387812,"is_reserved":false,"is_disabled":false,"rental_uris":{"android":"levelo://app?vid=0e3165dc-7ae1-4cca-8bad-4933586c1f83","ios":"levelo://app?vid=0e3165dc-7ae1-4cca-8bad-4933586c1f83"},"vehicle_type_id":"4","last_reported":1721934359,"current_range_meters":1600,"station_id":"ce4bghh2rcd13ifvqb60","pricing_plan_id":"cebpf4jnsgd1na2vs0mg"},{"bike_id":"861ac1dd-7395-49cd-9974-b2429ec1e7db","system_id":"levelo_inurba_marseille","lat":43.301396,"lon":5.387812,"is_reserved":false,"is_disabled":false,"rental_uris":{"android":"levelo://app?vid=861ac1dd-7395-49cd-9974-b2429ec1e7db","ios":"levelo://app?vid=861ac1dd-7395-49cd-9974-b2429ec1e7db"},"vehicle_type_id":"4","last_reported":1721934359,"current_range_meters":3200,"station_id":"ce4bghh2rcd13ifvqb60","pricing_plan_id":"cebpf4jnsgd1na2vs0mg"},{"bike_id":"115797ea-d335-4c59-acaf-9a485d6b5abb","system_id":"levelo_inurba_marseille","lat":43.301396,"lon":5.387812,"is_reserved":false,"is_disabled":false,"rental_uris":{"android":"levelo://app?vid=115797ea-d335-4c59-acaf-9a485d6b5abb","ios":"levelo://app?vid=115797ea-d335-4c59-acaf-9a485d6b5abb"},"vehicle_type_id":"4","last_reported":1721934359,"current_range_meters":31200,"station_id":"ce4bghh2rcd13ifvqb60","pricing_plan_id":"cebpf4jnsgd1na2vs0mg"},{"bike_id":"731a8d85-e464-4549-8b48-02be6f4953ee","system_id":"levelo_inurba_marseille","lat":43.301396,"lon":5.387812,"is_reserved":false,"is_disabled":false,"rental_uris":{"android":"levelo://app?vid=731a8d85-e464-4549-8b48-02be6f4953ee","ios":"levelo://app?vid=731a8d85-e464-4549-8b48-02be6f4953ee"},"vehicle_type_id":"4","last_reported":1721934359,"current_range_meters":28400,"station_id":"ce4bghh2rcd13ifvqb60","pricing_plan_id":"cebpf4jnsgd1na2vs0mg"},{"bike_id":"f0fb6f09-eb92-47fc-b661-2f6c427e82e9","system_id":"levelo_inurba_marseille","lat":43.32367,"lon":5.388836,"is_reserved":false,"is_disabled":false,"rental_uris":{"android":"levelo://app?vid=f0fb6f09-eb92-47fc-b661-2f6c427e82e9","ios":"levelo://app?vid=f0fb6f09-eb92-47fc-b661-2f6c427e82e9"},"vehicle_type_id":"4","last_reported":1721934359,"current_range_meters":22000,"station_id":"ce4bhqp2rcd13ifvqhog","pricing_plan_id":"cebpf4jnsgd1na2vs0mg"},{"bike_id":"41c8a164-4a6f-4dd6-9b59-a07169df2954","system_id":"levelo_inurba_marseille","lat":43.32367,"lon":5.388836,"is_reserved":false,"is_disabled":false,"rental_uris":{"android":"levelo://app?vid=41c8a164-4a6f-4dd6-9b59-a07169df2954","ios":"levelo://app?vid=41c8a164-4a6f-4dd6-9b59-a07169df2954"},"vehicle_type_id":"4","last_reported":1721934359,"current_range_meters":31600,"station_id":"ce4bhqp2rcd13ifvqhog","pricing_plan_id":"cebpf4jnsgd1na2vs0mg"},{"bike_id":"e7fa3156-09f2-41b5-b8f6-cc641eb2cccf","system_id":"levelo_inurba_marseille","lat":43.32367,"lon":5.388836,"is_reserved":false,"is_disabled":false,"rental_uris":{"android":"levelo://app?vid=e7fa3156-09f2-41b5-b8f6-cc641eb2cccf","ios":"levelo://app?vid=e7fa3156-09f2-41b5-b8f6-cc641eb2cccf"},"vehicle_type_id":"4","last_reported":1721934359,"current_range_meters":14400,"station_id":"ce4bhqp2rcd13ifvqhog","pricing_plan_id":"cebpf4jnsgd1na2vs0mg"},{"bike_id":"f3d689ce-6fcc-4fa4-beb2-f3c36a0bbebc","system_id":"levelo_inurba_marseille","lat":43.32367,"lon":5.388836,"is_reserved":false,"is_disabled":false,"rental_uris":{"android":"levelo://app?vid=f3d689ce-6fcc-4fa4-beb2-f3c36a0bbebc","ios":"levelo://app?vid=f3d689ce-6fcc-4fa4-beb2-f3c36a0bbebc"},"vehicle_type_id":"4","last_reported":1721934359,"current_range_meters":8000,"station_id":"ce4bhqp2rcd13ifvqhog","pricing_plan_id":"cebpf4jnsgd1na2vs0mg"},{"bike_id":"eb16e139-9e93-45f4-a7a6-1f1bea722756","system_id":"levelo_inurba_marseille","lat":43.32367,"lon":5.388836,"is_reserved":false,"is_disabled":false,"rental_uris":{"android":"levelo://app?vid=eb16e139-9e93-45f4-a7a6-1f1bea722756","ios":"levelo://app?vid=eb16e139-9e93-45f4-a7a6-1f1bea722756"},"vehicle_type_id":"4","last_reported":1721934359,"current_range_meters":31600,"station_id":"ce4bhqp2rcd13ifvqhog","pricing_plan_id":"cebpf4jnsgd1na2vs0mg"},{"bike_id":"129d6b55-f3cd-4031-98a2-e4a864f43be5","system_id":"levelo_inurba_marseille","lat":43.293259,"lon":5.371586,"is_reserved":false,"is_disabled":false,"rental_uris":{"android":"levelo://app?vid=129d6b55-f3cd-4031-98a2-e4a864f43be5","ios":"levelo://app?vid=129d6b55-f3cd-4031-98a2-e4a864f43be5"},"vehicle_type_id":"4","last_reported":1721934359,"current_range_meters":6800,"station_id":"ce4bgh92rcd13ifvqb40","pricing_plan_id":"cebpf4jnsgd1na2vs0mg"},{"bike_id":"148796ae-d89a-44e0-8752-d7fb74b19659","system_id":"levelo_inurba_marseille","lat":43.293259,"lon":5.371586,"is_reserved":false,"is_disabled":false,"rental_uris":{"android":"levelo://app?vid=148796ae-d89a-44e0-8752-d7fb74b19659","ios":"levelo://app?vid=148796ae-d89a-44e0-8752-d7fb74b19659"},"vehicle_type_id":"4","last_reported":1721934359,"current_range_meters":31200,"station_id":"ce4bgh92rcd13ifvqb40","pricing_plan_id":"cebpf4jnsgd1na2vs0mg"},{"bike_id":"81a6c796-eb40-4104-9ede-921dc1d88917","system_id":"levelo_inurba_marseille","lat":43.293259,"lon":5.371586,"is_reserved":false,"is_disabled":false,"rental_uris":{"android":"levelo://app?vid=81a6c796-eb40-4104-9ede-921dc1d88917","ios":"levelo://app?vid=81a6c796-eb40-4104-9ede-921dc1d88917"},"vehicle_type_id":"4","last_reported":1721934359,"current_range_meters":24400,"station_id":"ce4bgh92rcd13ifvqb40","pricing_plan_id":"cebpf4jnsgd1na2vs0mg"},{"bike_id":"0e64bf9b-fcd0-47c4-8669-c8f27838d2d5","system_id":"levelo_inurba_marseille","lat":43.29304,"lon":5.37457,"is_reserved":false,"is_disabled":false,"rental_uris":{"android":"levelo://app?vid=0e64bf9b-fcd0-47c4-8669-c8f27838d2d5","ios":"levelo://app?vid=0e64bf9b-fcd0-47c4-8669-c8f27838d2d5"},"vehicle_type_id":"4","last_reported":1721934359,"current_range_meters":0,"station_id":"ce4bgi12rcd13ifvqb70","pricing_plan_id":"cebpf4jnsgd1na2vs0mg"},{"bike_id":"ab8f529c-9deb-4eef-a453-3285e31b7c73","system_id":"levelo_inurba_marseille","lat":43.30483,"lon":5.39289,"is_reserved":false,"is_disabled":false,"rental_uris":{"android":"levelo://app?vid=ab8f529c-9deb-4eef-a453-3285e31b7c73","ios":"levelo://app?vid=ab8f529c-9deb-4eef-a453-3285e31b7c73"},"vehicle_type_id":"4","last_reported":1721934359,"current_range_meters":25200,"station_id":"","pricing_plan_id":"cebpf4jnsgd1na2vs0mg"},{"bike_id":"95406292-8c6f-4363-a047-77b4dff7b7b1","system_id":"levelo_inurba_marseille","lat":43.30596,"lon":5.39358,"is_reserved":false,"is_disabled":false,"rental_uris":{"android":"levelo://app?vid=95406292-8c6f-4363-a047-77b4dff7b7b1","ios":"levelo://app?vid=95406292-8c6f-4363-a047-77b4dff7b7b1"},"vehicle_type_id":"4","last_reported":1721934359,"current_range_meters":31600,"station_id":"","pricing_plan_id":"cebpf4jnsgd1na2vs0mg"},{"bike_id":"211b605c-c39f-41ae-90df-2fac4e9fcff3","system_id":"levelo_inurba_marseille","lat":43.305994,"lon":5.393687,"is_reserved":false,"is_disabled":false,"rental_uris":{"android":"levelo://app?vid=211b605c-c39f-41ae-90df-2fac4e9fcff3","ios":"levelo://app?vid=211b605c-c39f-41ae-90df-2fac4e9fcff3"},"vehicle_type_id":"4","last_reported":1721934359,"current_range_meters":8000,"station_id":"ce4bh0p2rcd13ifvqd80","pricing_plan_id":"cebpf4jnsgd1na2vs0mg"},{"bike_id":"7c1f68d7-da6a-4a22-a59d-916ac0dd30f7","system_id":"levelo_inurba_marseille","lat":43.303002,"lon":5.392142,"is_reserved":false,"is_disabled":false,"rental_uris":{"android":"levelo://app?vid=7c1f68d7-da6a-4a22-a59d-916ac0dd30f7","ios":"levelo://app?vid=7c1f68d7-da6a-4a22-a59d-916ac0dd30f7"},"vehicle_type_id":"4","last_reported":1721934359,"current_range_meters":21600,"station_id":"ce4bgkh2rcd13ifvqbk0","pricing_plan_id":"cebpf4jnsgd1na2vs0mg"},{"bike_id":"4ec39322-50aa-456d-b616-8f2e7b4c741b","system_id":"levelo_inurba_marseille","lat":43.2936,"lon":5.37835,"is_reserved":false,"is_disabled":false,"rental_uris":{"android":"levelo://app?vid=4ec39322-50aa-456d-b616-8f2e7b4c741b","ios":"levelo://app?vid=4ec39322-50aa-456d-b616-8f2e7b4c741b"},"vehicle_type_id":"4","last_reported":1721934359,"current_range_meters":27200,"station_id":"ce4bgjh2rcd13ifvqbf0","pricing_plan_id":"cebpf4jnsgd1na2vs0mg"},{"bike_id":"00dcbeda-8280-4da8-9f0a-d4d1a05f269e","system_id":"levelo_inurba_marseille","lat":43.302992,"lon":5.392136,"is_reserved":false,"is_disabled":false,"rental_uris":{"android":"levelo://app?vid=00dcbeda-8280-4da8-9f0a-d4d1a05f269e","ios":"levelo://app?vid=00dcbeda-8280-4da8-9f0a-d4d1a05f269e"},"vehicle_type_id":"4","last_reported":1721934359,"current_range_meters":18800,"station_id":"ce4bgkh2rcd13ifvqbk0","pricing_plan_id":"cebpf4jnsgd1na2vs0mg"},{"bike_id":"eb8564a0-08cc-4ca7-bb41-10ff23cc311d","system_id":"levelo_inurba_marseille","lat":43.2936,"lon":5.37835,"is_reserved":false,"is_disabled":false,"rental_uris":{"android":"levelo://app?vid=eb8564a0-08cc-4ca7-bb41-10ff23cc311d","ios":"levelo://app?vid=eb8564a0-08cc-4ca7-bb41-10ff23cc311d"},"vehicle_type_id":"4","last_reported":1721934359,"current_range_meters":24000,"station_id":"ce4bgjh2rcd13ifvqbf0","pricing_plan_id":"cebpf4jnsgd1na2vs0mg"},{"bike_id":"3df24694-2ca7-4d20-b604-adb34048e23c","system_id":"levelo_inurba_marseille","lat":43.284793,"lon":5.384119,"is_reserved":false,"is_disabled":false,"rental_uris":{"android":"levelo://app?vid=3df24694-2ca7-4d20-b604-adb34048e23c","ios":"levelo://app?vid=3df24694-2ca7-4d20-b604-adb34048e23c"},"vehicle_type_id":"4","last_reported":1721934359,"current_range_meters":0,"station_id":"ce4bh512rcd13ifvqe3g","pricing_plan_id":"cebpf4jnsgd1na2vs0mg"},{"bike_id":"353629b3-29a1-4020-8940-aeec8fbcd65e","system_id":"levelo_inurba_marseille","lat":43.292311,"lon":5.360731,"is_reserved":false,"is_disabled":false,"rental_uris":{"android":"levelo://app?vid=353629b3-29a1-4020-8940-aeec8fbcd65e","ios":"levelo://app?vid=353629b3-29a1-4020-8940-aeec8fbcd65e"},"vehicle_type_id":"4","last_reported":1721934359,"current_range_meters":13200,"station_id":"ce4bhbh2rcd13ifvqeqg","pricing_plan_id":"cebpf4jnsgd1na2vs0mg"},{"bike_id":"623b2926-e369-435a-8fce-3d17e1caa6cc","system_id":"levelo_inurba_marseille","lat":43.30085,"lon":5.390856,"is_reserved":false,"is_disabled":false,"rental_uris":{"android":"levelo://app?vid=623b2926-e369-435a-8fce-3d17e1caa6cc","ios":"levelo://app?vid=623b2926-e369-435a-8fce-3d17e1caa6cc"},"vehicle_type_id":"4","last_reported":1721934359,"current_range_meters":1600,"station_id":"ce4bh192rcd13ifvqdb0","pricing_plan_id":"cebpf4jnsgd1na2vs0mg"},{"bike_id":"4f7b9bfa-d081-4884-9c74-a0e3a6a18fee","system_id":"levelo_inurba_marseille","lat":43.29227,"lon":5.3606,"is_reserved":false,"is_disabled":false,"rental_uris":{"android":"levelo://app?vid=4f7b9bfa-d081-4884-9c74-a0e3a6a18fee","ios":"levelo://app?vid=4f7b9bfa-d081-4884-9c74-a0e3a6a18fee"},"vehicle_type_id":"4","last_reported":1721934359,"current_range_meters":2000,"station_id":"ce4bhbh2rcd13ifvqeqg","pricing_plan_id":"cebpf4jnsgd1na2vs0mg"},{"bike_id":"9ddd19f6-f80b-4baf-a141-539f6ce3d16b","system_id":"levelo_inurba_marseille","lat":43.30085,"lon":5.390856,"is_reserved":false,"is_disabled":false,"rental_uris":{"android":"levelo://app?vid=9ddd19f6-f80b-4baf-a141-539f6ce3d16b","ios":"levelo://app?vid=9ddd19f6-f80b-4baf-a141-539f6ce3d16b"},"vehicle_type_id":"4","last_reported":1721934359,"current_range_meters":30400,"station_id":"ce4bh192rcd13ifvqdb0","pricing_plan_id":"cebpf4jnsgd1na2vs0mg"},{"bike_id":"276f0b5a-a0a9-4809-a7a7-8cd6d76d8ced","system_id":"levelo_inurba_marseille","lat":43.29227,"lon":5.3605,"is_reserved":false,"is_disabled":false,"rental_uris":{"android":"levelo://app?vid=276f0b5a-a0a9-4809-a7a7-8cd6d76d8ced","ios":"levelo://app?vid=276f0b5a-a0a9-4809-a7a7-8cd6d76d8ced"},"vehicle_type_id":"4","last_reported":1721934359,"current_range_meters":26800,"station_id":"ce4bhbh2rcd13ifvqeqg","pricing_plan_id":"cebpf4jnsgd1na2vs0mg"},{"bike_id":"308b6063-c104-462c-aa80-926888d59ead","system_id":"levelo_inurba_marseille","lat":43.29226,"lon":5.36046,"is_reserved":false,"is_disabled":false,"rental_uris":{"android":"levelo://app?vid=308b6063-c104-462c-aa80-926888d59ead","ios":"levelo://app?vid=308b6063-c104-462c-aa80-926888d59ead"},"vehicle_type_id":"4","last_reported":1721934359,"current_range_meters":0,"station_id":"ce4bhbh2rcd13ifvqeqg","pricing_plan_id":"cebpf4jnsgd1na2vs0mg"},{"bike_id":"6ea89313-7956-470c-8678-ab38d66b8c19","system_id":"levelo_inurba_marseille","lat":43.29222,"lon":5.36052,"is_reserved":false,"is_disabled":false,"rental_uris":{"android":"levelo://app?vid=6ea89313-7956-470c-8678-ab38d66b8c19","ios":"levelo://app?vid=6ea89313-7956-470c-8678-ab38d66b8c19"},"vehicle_type_id":"4","last_reported":1721934359,"current_range_meters":0,"station_id":"ce4bhbh2rcd13ifvqeqg","pricing_plan_id":"cebpf4jnsgd1na2vs0mg"},{"bike_id":"83d0e3fd-ebe4-4a67-b489-86253863e861","system_id":"levelo_inurba_marseille","lat":43.29223,"lon":5.36045,"is_reserved":false,"is_disabled":false,"rental_uris":{"android":"levelo://app?vid=83d0e3fd-ebe4-4a67-b489-86253863e861","ios":"levelo://app?vid=83d0e3fd-ebe4-4a67-b489-86253863e861"},"vehicle_type_id":"4","last_reported":1721934359,"current_range_meters":13600,"station_id":"ce4bhbh2rcd13ifvqeqg","pricing_plan_id":"cebpf4jnsgd1na2vs0mg"},{"bike_id":"38d76c8b-310d-4ac6-bd32-d78cdae6dace","system_id":"levelo_inurba_marseille","lat":43.30085,"lon":5.390856,"is_reserved":false,"is_disabled":false,"rental_uris":{"android":"levelo://app?vid=38d76c8b-310d-4ac6-bd32-d78cdae6dace","ios":"levelo://app?vid=38d76c8b-310d-4ac6-bd32-d78cdae6dace"},"vehicle_type_id":"4","last_reported":1721934359,"current_range_meters":14000,"station_id":"ce4bh192rcd13ifvqdb0","pricing_plan_id":"cebpf4jnsgd1na2vs0mg"},{"bike_id":"5bc6ffb5-8fa4-41c1-927a-f04ace349668","system_id":"levelo_inurba_marseille","lat":43.298764,"lon":5.388973,"is_reserved":false,"is_disabled":false,"rental_uris":{"android":"levelo://app?vid=5bc6ffb5-8fa4-41c1-927a-f04ace349668","ios":"levelo://app?vid=5bc6ffb5-8fa4-41c1-927a-f04ace349668"},"vehicle_type_id":"4","last_reported":1721934359,"current_range_meters":9200,"station_id":"ce4bh392rcd13ifvqdl0","pricing_plan_id":"cebpf4jnsgd1na2vs0mg"},{"bike_id":"63f6e38c-1699-4351-aeb3-98e1742cbf90","system_id":"levelo_inurba_marseille","lat":43.291671,"lon":5.371575,"is_reserved":false,"is_disabled":false,"rental_uris":{"android":"levelo://app?vid=63f6e38c-1699-4351-aeb3-98e1742cbf90","ios":"levelo://app?vid=63f6e38c-1699-4351-aeb3-98e1742cbf90"},"vehicle_type_id":"4","last_reported":1721934359,"current_range_meters":28000,"station_id":"ce4bha92rcd13ifvqeh0","pricing_plan_id":"cebpf4jnsgd1na2vs0mg"},{"bike_id":"fc9fe961-0e7b-45dd-a15d-8550f9b1398a","system_id":"levelo_inurba_marseille","lat":43.291671,"lon":5.371575,"is_reserved":false,"is_disabled":false,"rental_uris":{"android":"levelo://app?vid=fc9fe961-0e7b-45dd-a15d-8550f9b1398a","ios":"levelo://app?vid=fc9fe961-0e7b-45dd-a15d-8550f9b1398a"},"vehicle_type_id":"4","last_reported":1721934359,"current_range_meters":16400,"station_id":"ce4bha92rcd13ifvqeh0","pricing_plan_id":"cebpf4jnsgd1na2vs0mg"},{"bike_id":"bb3423ff-e9d9-4fdc-9770-3d38bfafad60","system_id":"levelo_inurba_marseille","lat":43.291671,"lon":5.371575,"is_reserved":false,"is_disabled":false,"rental_uris":{"android":"levelo://app?vid=bb3423ff-e9d9-4fdc-9770-3d38bfafad60","ios":"levelo://app?vid=bb3423ff-e9d9-4fdc-9770-3d38bfafad60"},"vehicle_type_id":"4","last_reported":1721934359,"current_range_meters":400,"station_id":"ce4bha92rcd13ifvqeh0","pricing_plan_id":"cebpf4jnsgd1na2vs0mg"},{"bike_id":"fcce02eb-1a52-4fa9-b0ef-00984416f50c","system_id":"levelo_inurba_marseille","lat":43.313291,"lon":5.396838,"is_reserved":false,"is_disabled":false,"rental_uris":{"android":"levelo://app?vid=fcce02eb-1a52-4fa9-b0ef-00984416f50c","ios":"levelo://app?vid=fcce02eb-1a52-4fa9-b0ef-00984416f50c"},"vehicle_type_id":"4","last_reported":1721934359,"current_range_meters":0,"station_id":"ce4bgvp2rcd13ifvqcu0","pricing_plan_id":"cebpf4jnsgd1na2vs0mg"},{"bike_id":"f20e58e4-d902-4559-a3da-7018a54e8264","system_id":"levelo_inurba_marseille","lat":43.313291,"lon":5.396838,"is_reserved":false,"is_disabled":false,"rental_uris":{"android":"levelo://app?vid=f20e58e4-d902-4559-a3da-7018a54e8264","ios":"levelo://app?vid=f20e58e4-d902-4559-a3da-7018a54e8264"},"vehicle_type_id":"4","last_reported":1721934359,"current_range_meters":800,"station_id":"ce4bgvp2rcd13ifvqcu0","pricing_plan_id":"cebpf4jnsgd1na2vs0mg"},{"bike_id":"59da5bd8-8465-4a50-bc63-ff8e2f44455f","system_id":"levelo_inurba_marseille","lat":43.313291,"lon":5.396838,"is_reserved":false,"is_disabled":false,"rental_uris":{"android":"levelo://app?vid=59da5bd8-8465-4a50-bc63-ff8e2f44455f","ios":"levelo://app?vid=59da5bd8-8465-4a50-bc63-ff8e2f44455f"},"vehicle_type_id":"4","last_reported":1721934359,"current_range_meters":8000,"station_id":"ce4bgvp2rcd13ifvqcu0","pricing_plan_id":"cebpf4jnsgd1na2vs0mg"},{"bike_id":"465503a3-97db-42bf-8732-653ecaec8e51","system_id":"levelo_inurba_marseille","lat":43.313291,"lon":5.396838,"is_reserved":false,"is_disabled":false,"rental_uris":{"android":"levelo://app?vid=465503a3-97db-42bf-8732-653ecaec8e51","ios":"levelo://app?vid=465503a3-97db-42bf-8732-653ecaec8e51"},"vehicle_type_id":"4","last_reported":1721934359,"current_range_meters":14000,"station_id":"ce4bgvp2rcd13ifvqcu0","pricing_plan_id":"cebpf4jnsgd1na2vs0mg"},{"bike_id":"89d9bbeb-32fc-4600-a355-2bffb5a1e810","system_id":"levelo_inurba_marseille","lat":43.291917,"lon":5.358023,"is_reserved":false,"is_disabled":false,"rental_uris":{"android":"levelo://app?vid=89d9bbeb-32fc-4600-a355-2bffb5a1e810","ios":"levelo://app?vid=89d9bbeb-32fc-4600-a355-2bffb5a1e810"},"vehicle_type_id":"4","last_reported":1721934359,"current_range_meters":0,"station_id":"ce4bhb12rcd13ifvqel0","pricing_plan_id":"cebpf4jnsgd1na2vs0mg"},{"bike_id":"135f5fe9-9a09-4a11-8037-5343c014f8f8","system_id":"levelo_inurba_marseille","lat":43.313291,"lon":5.396838,"is_reserved":false,"is_disabled":false,"rental_uris":{"android":"levelo://app?vid=135f5fe9-9a09-4a11-8037-5343c014f8f8","ios":"levelo://app?vid=135f5fe9-9a09-4a11-8037-5343c014f8f8"},"vehicle_type_id":"4","last_reported":1721934359,"current_range_meters":14800,"station_id":"ce4bgvp2rcd13ifvqcu0","pricing_plan_id":"cebpf4jnsgd1na2vs0mg"},{"bike_id":"baba0ba9-a920-4331-a9a9-11449985bab6","system_id":"levelo_inurba_marseille","lat":43.30882,"lon":5.39656,"is_reserved":false,"is_disabled":false,"rental_uris":{"android":"levelo://app?vid=baba0ba9-a920-4331-a9a9-11449985bab6","ios":"levelo://app?vid=baba0ba9-a920-4331-a9a9-11449985bab6"},"vehicle_type_id":"4","last_reported":1721934359,"current_range_meters":4000,"station_id":"ce4bh012rcd13ifvqcv0","pricing_plan_id":"cebpf4jnsgd1na2vs0mg"},{"bike_id":"cbfaf428-64f7-43af-a19b-b7d6b11c4db7","system_id":"levelo_inurba_marseille","lat":43.309038,"lon":5.396546,"is_reserved":false,"is_disabled":false,"rental_uris":{"android":"levelo://app?vid=cbfaf428-64f7-43af-a19b-b7d6b11c4db7","ios":"levelo://app?vid=cbfaf428-64f7-43af-a19b-b7d6b11c4db7"},"vehicle_type_id":"4","last_reported":1721934359,"current_range_meters":30000,"station_id":"ce4bh012rcd13ifvqcv0","pricing_plan_id":"cebpf4jnsgd1na2vs0mg"},{"bike_id":"48ccfd36-be9e-452d-95b2-efea95c28c41","system_id":"levelo_inurba_marseille","lat":43.29531,"lon":5.38533,"is_reserved":false,"is_disabled":false,"rental_uris":{"android":"levelo://app?vid=48ccfd36-be9e-452d-95b2-efea95c28c41","ios":"levelo://app?vid=48ccfd36-be9e-452d-95b2-efea95c28c41"},"vehicle_type_id":"4","last_reported":1721934359,"current_range_meters":0,"station_id":"ce4bgih2rcd13ifvqba0","pricing_plan_id":"cebpf4jnsgd1na2vs0mg"},{"bike_id":"76ac8210-92c0-42c5-b524-bd8249809476","system_id":"levelo_inurba_marseille","lat":43.29529,"lon":5.385581,"is_reserved":false,"is_disabled":false,"rental_uris":{"android":"levelo://app?vid=76ac8210-92c0-42c5-b524-bd8249809476","ios":"levelo://app?vid=76ac8210-92c0-42c5-b524-bd8249809476"},"vehicle_type_id":"4","last_reported":1721934359,"current_range_meters":0,"station_id":"ce4bgih2rcd13ifvqba0","pricing_plan_id":"cebpf4jnsgd1na2vs0mg"},{"bike_id":"5ae07c1d-c72a-4429-8c31-e7a64d7ec283","system_id":"levelo_inurba_marseille","lat":43.29529,"lon":5.385581,"is_reserved":false,"is_disabled":false,"rental_uris":{"android":"levelo://app?vid=5ae07c1d-c72a-4429-8c31-e7a64d7ec283","ios":"levelo://app?vid=5ae07c1d-c72a-4429-8c31-e7a64d7ec283"},"vehicle_type_id":"4","last_reported":1721934359,"current_range_meters":4400,"station_id":"ce4bgih2rcd13ifvqba0","pricing_plan_id":"cebpf4jnsgd1na2vs0mg"},{"bike_id":"1b122bda-b370-4f61-8e7b-d85a5107afbe","system_id":"levelo_inurba_marseille","lat":43.290779,"lon":5.371482,"is_reserved":false,"is_disabled":false,"rental_uris":{"android":"levelo://app?vid=1b122bda-b370-4f61-8e7b-d85a5107afbe","ios":"levelo://app?vid=1b122bda-b370-4f61-8e7b-d85a5107afbe"},"vehicle_type_id":"4","last_reported":1721934359,"current_range_meters":2000,"station_id":"ce4bh5p2rcd13ifvqe4g","pricing_plan_id":"cebpf4jnsgd1na2vs0mg"},{"bike_id":"6c03b4a3-80ed-4e8b-ad72-3176c1a8432b","system_id":"levelo_inurba_marseille","lat":43.290779,"lon":5.371482,"is_reserved":false,"is_disabled":false,"rental_uris":{"android":"levelo://app?vid=6c03b4a3-80ed-4e8b-ad72-3176c1a8432b","ios":"levelo://app?vid=6c03b4a3-80ed-4e8b-ad72-3176c1a8432b"},"vehicle_type_id":"4","last_reported":1721934359,"current_range_meters":0,"station_id":"ce4bh5p2rcd13ifvqe4g","pricing_plan_id":"cebpf4jnsgd1na2vs0mg"},{"bike_id":"53e29e06-82ea-4922-b8c9-fde6cf235a20","system_id":"levelo_inurba_marseille","lat":43.290779,"lon":5.371482,"is_reserved":false,"is_disabled":false,"rental_uris":{"android":"levelo://app?vid=53e29e06-82ea-4922-b8c9-fde6cf235a20","ios":"levelo://app?vid=53e29e06-82ea-4922-b8c9-fde6cf235a20"},"vehicle_type_id":"4","last_reported":1721934359,"current_range_meters":29200,"station_id":"ce4bh5p2rcd13ifvqe4g","pricing_plan_id":"cebpf4jnsgd1na2vs0mg"},{"bike_id":"cf9f088e-d61f-4207-bc1e-6faac008be1f","system_id":"levelo_inurba_marseille","lat":43.302008,"lon":5.394694,"is_reserved":false,"is_disabled":false,"rental_uris":{"android":"levelo://app?vid=cf9f088e-d61f-4207-bc1e-6faac008be1f","ios":"levelo://app?vid=cf9f088e-d61f-4207-bc1e-6faac008be1f"},"vehicle_type_id":"4","last_reported":1721934359,"current_range_meters":5200,"station_id":"ce4bh0p2rcd13ifvqd70","pricing_plan_id":"cebpf4jnsgd1na2vs0mg"},{"bike_id":"49d1fe8b-bc2f-447a-a0d7-f4faa1b92d30","system_id":"levelo_inurba_marseille","lat":43.302008,"lon":5.394694,"is_reserved":false,"is_disabled":false,"rental_uris":{"android":"levelo://app?vid=49d1fe8b-bc2f-447a-a0d7-f4faa1b92d30","ios":"levelo://app?vid=49d1fe8b-bc2f-447a-a0d7-f4faa1b92d30"},"vehicle_type_id":"4","last_reported":1721934359,"current_range_meters":28800,"station_id":"ce4bh0p2rcd13ifvqd70","pricing_plan_id":"cebpf4jnsgd1na2vs0mg"},{"bike_id":"41c5170b-568d-4619-b33a-33e49ac831c2","system_id":"levelo_inurba_marseille","lat":43.29054,"lon":5.35914,"is_reserved":false,"is_disabled":false,"rental_uris":{"android":"levelo://app?vid=41c5170b-568d-4619-b33a-33e49ac831c2","ios":"levelo://app?vid=41c5170b-568d-4619-b33a-33e49ac831c2"},"vehicle_type_id":"4","last_reported":1721934359,"current_range_meters":23600,"station_id":"ce4bha92rcd13ifvqeg0","pricing_plan_id":"cebpf4jnsgd1na2vs0mg"},{"bike_id":"301b7ae5-6064-4ab6-8dda-f06df99ae0cd","system_id":"levelo_inurba_marseille","lat":43.290505,"lon":5.35897,"is_reserved":false,"is_disabled":false,"rental_uris":{"android":"levelo://app?vid=301b7ae5-6064-4ab6-8dda-f06df99ae0cd","ios":"levelo://app?vid=301b7ae5-6064-4ab6-8dda-f06df99ae0cd"},"vehicle_type_id":"4","last_reported":1721934359,"current_range_meters":0,"station_id":"ce4bha92rcd13ifvqeg0","pricing_plan_id":"cebpf4jnsgd1na2vs0mg"},{"bike_id":"82911dc2-4f8e-4d3f-9dce-cf7536a832c6","system_id":"levelo_inurba_marseille","lat":43.29044,"lon":5.35916,"is_reserved":false,"is_disabled":false,"rental_uris":{"android":"levelo://app?vid=82911dc2-4f8e-4d3f-9dce-cf7536a832c6","ios":"levelo://app?vid=82911dc2-4f8e-4d3f-9dce-cf7536a832c6"},"vehicle_type_id":"4","last_reported":1721934359,"current_range_meters":0,"station_id":"ce4bha92rcd13ifvqeg0","pricing_plan_id":"cebpf4jnsgd1na2vs0mg"},{"bike_id":"0634ba74-66a3-49a3-9f50-fc8a30eb2c96","system_id":"levelo_inurba_marseille","lat":43.290631,"lon":5.359244,"is_reserved":false,"is_disabled":false,"rental_uris":{"android":"levelo://app?vid=0634ba74-66a3-49a3-9f50-fc8a30eb2c96","ios":"levelo://app?vid=0634ba74-66a3-49a3-9f50-fc8a30eb2c96"},"vehicle_type_id":"4","last_reported":1721934359,"current_range_meters":22400,"station_id":"ce4bha92rcd13ifvqeg0","pricing_plan_id":"cebpf4jnsgd1na2vs0mg"},{"bike_id":"e3c9a465-b4d7-4b98-a272-49d6d49ba4af","system_id":"levelo_inurba_marseille","lat":43.290319,"lon":5.375732,"is_reserved":false,"is_disabled":false,"rental_uris":{"android":"levelo://app?vid=e3c9a465-b4d7-4b98-a272-49d6d49ba4af","ios":"levelo://app?vid=e3c9a465-b4d7-4b98-a272-49d6d49ba4af"},"vehicle_type_id":"4","last_reported":1721934359,"current_range_meters":18000,"station_id":"ce4bh692rcd13ifvqe90","pricing_plan_id":"cebpf4jnsgd1na2vs0mg"},{"bike_id":"b805fd5f-8fa7-4b6f-abe3-0bcc0880bd33","system_id":"levelo_inurba_marseille","lat":43.294153,"lon":5.386305,"is_reserved":false,"is_disabled":false,"rental_uris":{"android":"levelo://app?vid=b805fd5f-8fa7-4b6f-abe3-0bcc0880bd33","ios":"levelo://app?vid=b805fd5f-8fa7-4b6f-abe3-0bcc0880bd33"},"vehicle_type_id":"4","last_reported":1721934359,"current_range_meters":0,"station_id":"ce4bh2h2rcd13ifvqdh0","pricing_plan_id":"cebpf4jnsgd1na2vs0mg"},{"bike_id":"f3e24f91-21ff-4fd7-a79b-e34e22f9d99d","system_id":"levelo_inurba_marseille","lat":43.2904,"lon":5.37567,"is_reserved":false,"is_disabled":false,"rental_uris":{"android":"levelo://app?vid=f3e24f91-21ff-4fd7-a79b-e34e22f9d99d","ios":"levelo://app?vid=f3e24f91-21ff-4fd7-a79b-e34e22f9d99d"},"vehicle_type_id":"4","last_reported":1721934359,"current_range_meters":25200,"station_id":"ce4bh692rcd13ifvqe90","pricing_plan_id":"cebpf4jnsgd1na2vs0mg"},{"bike_id":"281cca65-c304-4150-ad01-a3a261b05fff","system_id":"levelo_inurba_marseille","lat":43.290319,"lon":5.375732,"is_reserved":false,"is_disabled":false,"rental_uris":{"android":"levelo://app?vid=281cca65-c304-4150-ad01-a3a261b05fff","ios":"levelo://app?vid=281cca65-c304-4150-ad01-a3a261b05fff"},"vehicle_type_id":"4","last_reported":1721934359,"current_range_meters":25600,"station_id":"ce4bh692rcd13ifvqe90","pricing_plan_id":"cebpf4jnsgd1na2vs0mg"},{"bike_id":"f1b2b1ce-97b5-4b63-b2f4-74d6fa321cd5","system_id":"levelo_inurba_marseille","lat":43.294162,"lon":5.386292,"is_reserved":false,"is_disabled":false,"rental_uris":{"android":"levelo://app?vid=f1b2b1ce-97b5-4b63-b2f4-74d6fa321cd5","ios":"levelo://app?vid=f1b2b1ce-97b5-4b63-b2f4-74d6fa321cd5"},"vehicle_type_id":"4","last_reported":1721934359,"current_range_meters":7600,"station_id":"ce4bh2h2rcd13ifvqdh0","pricing_plan_id":"cebpf4jnsgd1na2vs0mg"},{"bike_id":"d5063d2f-9569-49b8-9df4-702c4c8c5381","system_id":"levelo_inurba_marseille","lat":43.294162,"lon":5.386292,"is_reserved":false,"is_disabled":false,"rental_uris":{"android":"levelo://app?vid=d5063d2f-9569-49b8-9df4-702c4c8c5381","ios":"levelo://app?vid=d5063d2f-9569-49b8-9df4-702c4c8c5381"},"vehicle_type_id":"4","last_reported":1721934359,"current_range_meters":4000,"station_id":"ce4bh2h2rcd13ifvqdh0","pricing_plan_id":"cebpf4jnsgd1na2vs0mg"},{"bike_id":"78237274-6413-43ea-893e-f35724150359","system_id":"levelo_inurba_marseille","lat":43.294153,"lon":5.386305,"is_reserved":false,"is_disabled":false,"rental_uris":{"android":"levelo://app?vid=78237274-6413-43ea-893e-f35724150359","ios":"levelo://app?vid=78237274-6413-43ea-893e-f35724150359"},"vehicle_type_id":"4","last_reported":1721934359,"current_range_meters":16000,"station_id":"ce4bh2h2rcd13ifvqdh0","pricing_plan_id":"cebpf4jnsgd1na2vs0mg"},{"bike_id":"244dece6-054d-43be-8ef4-1d775bd54fc9","system_id":"levelo_inurba_marseille","lat":43.294162,"lon":5.386292,"is_reserved":false,"is_disabled":false,"rental_uris":{"android":"levelo://app?vid=244dece6-054d-43be-8ef4-1d775bd54fc9","ios":"levelo://app?vid=244dece6-054d-43be-8ef4-1d775bd54fc9"},"vehicle_type_id":"4","last_reported":1721934359,"current_range_meters":0,"station_id":"ce4bh2h2rcd13ifvqdh0","pricing_plan_id":"cebpf4jnsgd1na2vs0mg"},{"bike_id":"919ebce1-7d3f-432c-9e13-df2f34cad735","system_id":"levelo_inurba_marseille","lat":43.28946,"lon":5.36632,"is_reserved":false,"is_disabled":false,"rental_uris":{"android":"levelo://app?vid=919ebce1-7d3f-432c-9e13-df2f34cad735","ios":"levelo://app?vid=919ebce1-7d3f-432c-9e13-df2f34cad735"},"vehicle_type_id":"4","last_reported":1721934359,"current_range_meters":0,"station_id":"ce4bhap2rcd13ifvqek0","pricing_plan_id":"cebpf4jnsgd1na2vs0mg"},{"bike_id":"0e36c7eb-338f-40ea-b744-36420454fdc3","system_id":"levelo_inurba_marseille","lat":43.290319,"lon":5.375732,"is_reserved":false,"is_disabled":false,"rental_uris":{"android":"levelo://app?vid=0e36c7eb-338f-40ea-b744-36420454fdc3","ios":"levelo://app?vid=0e36c7eb-338f-40ea-b744-36420454fdc3"},"vehicle_type_id":"4","last_reported":1721934359,"current_range_meters":14000,"station_id":"ce4bh692rcd13ifvqe90","pricing_plan_id":"cebpf4jnsgd1na2vs0mg"},{"bike_id":"98efdce5-dff4-4f57-b50f-7bd9784dc436","system_id":"levelo_inurba_marseille","lat":43.294162,"lon":5.386292,"is_reserved":false,"is_disabled":false,"rental_uris":{"android":"levelo://app?vid=98efdce5-dff4-4f57-b50f-7bd9784dc436","ios":"levelo://app?vid=98efdce5-dff4-4f57-b50f-7bd9784dc436"},"vehicle_type_id":"4","last_reported":1721934359,"current_range_meters":800,"station_id":"ce4bh2h2rcd13ifvqdh0","pricing_plan_id":"cebpf4jnsgd1na2vs0mg"},{"bike_id":"970b6d90-8248-4882-bad4-ad10c108e6d2","system_id":"levelo_inurba_marseille","lat":43.294162,"lon":5.386292,"is_reserved":false,"is_disabled":false,"rental_uris":{"android":"levelo://app?vid=970b6d90-8248-4882-bad4-ad10c108e6d2","ios":"levelo://app?vid=970b6d90-8248-4882-bad4-ad10c108e6d2"},"vehicle_type_id":"4","last_reported":1721934359,"current_range_meters":3600,"station_id":"ce4bh2h2rcd13ifvqdh0","pricing_plan_id":"cebpf4jnsgd1na2vs0mg"},{"bike_id":"7b993c68-234d-48f9-9bca-502ca0a0cd57","system_id":"levelo_inurba_marseille","lat":43.294162,"lon":5.386292,"is_reserved":false,"is_disabled":false,"rental_uris":{"android":"levelo://app?vid=7b993c68-234d-48f9-9bca-502ca0a0cd57","ios":"levelo://app?vid=7b993c68-234d-48f9-9bca-502ca0a0cd57"},"vehicle_type_id":"4","last_reported":1721934359,"current_range_meters":22000,"station_id":"ce4bh2h2rcd13ifvqdh0","pricing_plan_id":"cebpf4jnsgd1na2vs0mg"},{"bike_id":"2e029e54-1a32-459c-9a6c-2799e9287a10","system_id":"levelo_inurba_marseille","lat":43.290319,"lon":5.375732,"is_reserved":false,"is_disabled":false,"rental_uris":{"android":"levelo://app?vid=2e029e54-1a32-459c-9a6c-2799e9287a10","ios":"levelo://app?vid=2e029e54-1a32-459c-9a6c-2799e9287a10"},"vehicle_type_id":"4","last_reported":1721934359,"current_range_meters":19600,"station_id":"ce4bh692rcd13ifvqe90","pricing_plan_id":"cebpf4jnsgd1na2vs0mg"},{"bike_id":"73194638-262c-4909-a6c8-f573bfd22414","system_id":"levelo_inurba_marseille","lat":43.294153,"lon":5.386305,"is_reserved":false,"is_disabled":false,"rental_uris":{"android":"levelo://app?vid=73194638-262c-4909-a6c8-f573bfd22414","ios":"levelo://app?vid=73194638-262c-4909-a6c8-f573bfd22414"},"vehicle_type_id":"4","last_reported":1721934359,"current_range_meters":6800,"station_id":"ce4bh2h2rcd13ifvqdh0","pricing_plan_id":"cebpf4jnsgd1na2vs0mg"},{"bike_id":"798623a9-8b84-45f8-a31a-18bcf3c1f76a","system_id":"levelo_inurba_marseille","lat":43.289184,"lon":5.366408,"is_reserved":false,"is_disabled":false,"rental_uris":{"android":"levelo://app?vid=798623a9-8b84-45f8-a31a-18bcf3c1f76a","ios":"levelo://app?vid=798623a9-8b84-45f8-a31a-18bcf3c1f76a"},"vehicle_type_id":"4","last_reported":1721934359,"current_range_meters":400,"station_id":"ce4bhap2rcd13ifvqek0","pricing_plan_id":"cebpf4jnsgd1na2vs0mg"},{"bike_id":"86932962-0a94-4d02-9662-62167d2cf131","system_id":"levelo_inurba_marseille","lat":43.28931,"lon":5.36388,"is_reserved":false,"is_disabled":false,"rental_uris":{"android":"levelo://app?vid=86932962-0a94-4d02-9662-62167d2cf131","ios":"levelo://app?vid=86932962-0a94-4d02-9662-62167d2cf131"},"vehicle_type_id":"4","last_reported":1721934359,"current_range_meters":0,"station_id":"ce4bhc92rcd13ifvqetg","pricing_plan_id":"cebpf4jnsgd1na2vs0mg"},{"bike_id":"03e0462f-b465-4c38-8a9e-df4fcc2753f0","system_id":"levelo_inurba_marseille","lat":43.290157,"lon":5.357207,"is_reserved":false,"is_disabled":false,"rental_uris":{"android":"levelo://app?vid=03e0462f-b465-4c38-8a9e-df4fcc2753f0","ios":"levelo://app?vid=03e0462f-b465-4c38-8a9e-df4fcc2753f0"},"vehicle_type_id":"4","last_reported":1721934359,"current_range_meters":0,"station_id":"","pricing_plan_id":"cebpf4jnsgd1na2vs0mg"},{"bike_id":"f2da921f-65b5-44d4-bbc7-530b6da45fa6","system_id":"levelo_inurba_marseille","lat":43.304296,"lon":5.397513,"is_reserved":false,"is_disabled":false,"rental_uris":{"android":"levelo://app?vid=f2da921f-65b5-44d4-bbc7-530b6da45fa6","ios":"levelo://app?vid=f2da921f-65b5-44d4-bbc7-530b6da45fa6"},"vehicle_type_id":"4","last_reported":1721934359,"current_range_meters":7600,"station_id":"ce4bh092rcd13ifvqd20","pricing_plan_id":"cebpf4jnsgd1na2vs0mg"},{"bike_id":"bda27bbd-9554-4a3c-84ff-eddeb8d57ebf","system_id":"levelo_inurba_marseille","lat":43.304296,"lon":5.397513,"is_reserved":false,"is_disabled":false,"rental_uris":{"android":"levelo://app?vid=bda27bbd-9554-4a3c-84ff-eddeb8d57ebf","ios":"levelo://app?vid=bda27bbd-9554-4a3c-84ff-eddeb8d57ebf"},"vehicle_type_id":"4","last_reported":1721934359,"current_range_meters":18000,"station_id":"ce4bh092rcd13ifvqd20","pricing_plan_id":"cebpf4jnsgd1na2vs0mg"},{"bike_id":"e75a7dee-151e-483b-b9ab-9c3ec4c4af15","system_id":"levelo_inurba_marseille","lat":43.292644,"lon":5.384257,"is_reserved":false,"is_disabled":false,"rental_uris":{"android":"levelo://app?vid=e75a7dee-151e-483b-b9ab-9c3ec4c4af15","ios":"levelo://app?vid=e75a7dee-151e-483b-b9ab-9c3ec4c4af15"},"vehicle_type_id":"4","last_reported":1721934359,"current_range_meters":16000,"station_id":"ce4bh692rcd13ifvqea0","pricing_plan_id":"cebpf4jnsgd1na2vs0mg"},{"bike_id":"821665cb-4d55-4e08-aef4-e754c569fbdb","system_id":"levelo_inurba_marseille","lat":43.292644,"lon":5.384257,"is_reserved":false,"is_disabled":false,"rental_uris":{"android":"levelo://app?vid=821665cb-4d55-4e08-aef4-e754c569fbdb","ios":"levelo://app?vid=821665cb-4d55-4e08-aef4-e754c569fbdb"},"vehicle_type_id":"4","last_reported":1721934359,"current_range_meters":13600,"station_id":"ce4bh692rcd13ifvqea0","pricing_plan_id":"cebpf4jnsgd1na2vs0mg"},{"bike_id":"d946cd5d-393c-4fbd-89ba-5d45b6e93e56","system_id":"levelo_inurba_marseille","lat":43.304296,"lon":5.397513,"is_reserved":false,"is_disabled":false,"rental_uris":{"android":"levelo://app?vid=d946cd5d-393c-4fbd-89ba-5d45b6e93e56","ios":"levelo://app?vid=d946cd5d-393c-4fbd-89ba-5d45b6e93e56"},"vehicle_type_id":"4","last_reported":1721934359,"current_range_meters":2000,"station_id":"ce4bh092rcd13ifvqd20","pricing_plan_id":"cebpf4jnsgd1na2vs0mg"},{"bike_id":"47ca14a4-49e3-4a32-b8e6-431180e94f44","system_id":"levelo_inurba_marseille","lat":43.292644,"lon":5.384257,"is_reserved":false,"is_disabled":false,"rental_uris":{"android":"levelo://app?vid=47ca14a4-49e3-4a32-b8e6-431180e94f44","ios":"levelo://app?vid=47ca14a4-49e3-4a32-b8e6-431180e94f44"},"vehicle_type_id":"4","last_reported":1721934359,"current_range_meters":0,"station_id":"ce4bh692rcd13ifvqea0","pricing_plan_id":"cebpf4jnsgd1na2vs0mg"},{"bike_id":"ff5f1b7e-9af1-4a26-9a22-deeab09c3016","system_id":"levelo_inurba_marseille","lat":43.292644,"lon":5.384257,"is_reserved":false,"is_disabled":false,"rental_uris":{"android":"levelo://app?vid=ff5f1b7e-9af1-4a26-9a22-deeab09c3016","ios":"levelo://app?vid=ff5f1b7e-9af1-4a26-9a22-deeab09c3016"},"vehicle_type_id":"4","last_reported":1721934359,"current_range_meters":7600,"station_id":"ce4bh692rcd13ifvqea0","pricing_plan_id":"cebpf4jnsgd1na2vs0mg"},{"bike_id":"631c5da4-6a9e-4856-8f3b-f0f9b60df915","system_id":"levelo_inurba_marseille","lat":43.292644,"lon":5.384257,"is_reserved":false,"is_disabled":false,"rental_uris":{"android":"levelo://app?vid=631c5da4-6a9e-4856-8f3b-f0f9b60df915","ios":"levelo://app?vid=631c5da4-6a9e-4856-8f3b-f0f9b60df915"},"vehicle_type_id":"4","last_reported":1721934359,"current_range_meters":0,"station_id":"ce4bh692rcd13ifvqea0","pricing_plan_id":"cebpf4jnsgd1na2vs0mg"},{"bike_id":"089e3bd2-a6c3-4f30-a029-65f3d8c3314d","system_id":"levelo_inurba_marseille","lat":43.304274,"lon":5.397513,"is_reserved":false,"is_disabled":false,"rental_uris":{"android":"levelo://app?vid=089e3bd2-a6c3-4f30-a029-65f3d8c3314d","ios":"levelo://app?vid=089e3bd2-a6c3-4f30-a029-65f3d8c3314d"},"vehicle_type_id":"4","last_reported":1721934359,"current_range_meters":26400,"station_id":"ce4bh092rcd13ifvqd20","pricing_plan_id":"cebpf4jnsgd1na2vs0mg"},{"bike_id":"0e7e0d0f-eb67-4ba2-8549-5c7d508ea16e","system_id":"levelo_inurba_marseille","lat":43.292644,"lon":5.384257,"is_reserved":false,"is_disabled":false,"rental_uris":{"android":"levelo://app?vid=0e7e0d0f-eb67-4ba2-8549-5c7d508ea16e","ios":"levelo://app?vid=0e7e0d0f-eb67-4ba2-8549-5c7d508ea16e"},"vehicle_type_id":"4","last_reported":1721934359,"current_range_meters":3200,"station_id":"ce4bh692rcd13ifvqea0","pricing_plan_id":"cebpf4jnsgd1na2vs0mg"},{"bike_id":"0eac813a-0ab0-4e6e-a9c5-99cf904161cb","system_id":"levelo_inurba_marseille","lat":43.292644,"lon":5.384257,"is_reserved":false,"is_disabled":false,"rental_uris":{"android":"levelo://app?vid=0eac813a-0ab0-4e6e-a9c5-99cf904161cb","ios":"levelo://app?vid=0eac813a-0ab0-4e6e-a9c5-99cf904161cb"},"vehicle_type_id":"4","last_reported":1721934359,"current_range_meters":18000,"station_id":"ce4bh692rcd13ifvqea0","pricing_plan_id":"cebpf4jnsgd1na2vs0mg"},{"bike_id":"3c8df4e2-9368-42b8-be9b-8c7116c4b781","system_id":"levelo_inurba_marseille","lat":43.292644,"lon":5.384257,"is_reserved":false,"is_disabled":false,"rental_uris":{"android":"levelo://app?vid=3c8df4e2-9368-42b8-be9b-8c7116c4b781","ios":"levelo://app?vid=3c8df4e2-9368-42b8-be9b-8c7116c4b781"},"vehicle_type_id":"4","last_reported":1721934359,"current_range_meters":22800,"station_id":"ce4bh692rcd13ifvqea0","pricing_plan_id":"cebpf4jnsgd1na2vs0mg"},{"bike_id":"66f264a8-2971-460a-9e3f-252e91d814bb","system_id":"levelo_inurba_marseille","lat":43.292643,"lon":5.384385,"is_reserved":false,"is_disabled":false,"rental_uris":{"android":"levelo://app?vid=66f264a8-2971-460a-9e3f-252e91d814bb","ios":"levelo://app?vid=66f264a8-2971-460a-9e3f-252e91d814bb"},"vehicle_type_id":"4","last_reported":1721934359,"current_range_meters":0,"station_id":"ce4bh692rcd13ifvqea0","pricing_plan_id":"cebpf4jnsgd1na2vs0mg"},{"bike_id":"96cd63b4-3874-4fc1-8210-02d86a9d1657","system_id":"levelo_inurba_marseille","lat":43.2926,"lon":5.38435,"is_reserved":false,"is_disabled":false,"rental_uris":{"android":"levelo://app?vid=96cd63b4-3874-4fc1-8210-02d86a9d1657","ios":"levelo://app?vid=96cd63b4-3874-4fc1-8210-02d86a9d1657"},"vehicle_type_id":"4","last_reported":1721934359,"current_range_meters":0,"station_id":"ce4bh692rcd13ifvqea0","pricing_plan_id":"cebpf4jnsgd1na2vs0mg"},{"bike_id":"6e0772fa-9d1a-478c-920a-f45a17d04b43","system_id":"levelo_inurba_marseille","lat":43.292644,"lon":5.384257,"is_reserved":false,"is_disabled":false,"rental_uris":{"android":"levelo://app?vid=6e0772fa-9d1a-478c-920a-f45a17d04b43","ios":"levelo://app?vid=6e0772fa-9d1a-478c-920a-f45a17d04b43"},"vehicle_type_id":"4","last_reported":1721934359,"current_range_meters":27600,"station_id":"ce4bh692rcd13ifvqea0","pricing_plan_id":"cebpf4jnsgd1na2vs0mg"},{"bike_id":"0e3d41d2-7d40-4907-b4eb-60a41c25e0fc","system_id":"levelo_inurba_marseille","lat":43.304296,"lon":5.397513,"is_reserved":false,"is_disabled":false,"rental_uris":{"android":"levelo://app?vid=0e3d41d2-7d40-4907-b4eb-60a41c25e0fc","ios":"levelo://app?vid=0e3d41d2-7d40-4907-b4eb-60a41c25e0fc"},"vehicle_type_id":"4","last_reported":1721934359,"current_range_meters":27200,"station_id":"ce4bh092rcd13ifvqd20","pricing_plan_id":"cebpf4jnsgd1na2vs0mg"},{"bike_id":"9bbeb3e8-5589-49d3-8100-670a5fa88be5","system_id":"levelo_inurba_marseille","lat":43.290104,"lon":5.356111,"is_reserved":false,"is_disabled":false,"rental_uris":{"android":"levelo://app?vid=9bbeb3e8-5589-49d3-8100-670a5fa88be5","ios":"levelo://app?vid=9bbeb3e8-5589-49d3-8100-670a5fa88be5"},"vehicle_type_id":"4","last_reported":1721934359,"current_range_meters":0,"station_id":"ce4bhb92rcd13ifvqen0","pricing_plan_id":"cebpf4jnsgd1na2vs0mg"},{"bike_id":"3d07087d-a51b-48d2-a937-65956f6c5bea","system_id":"levelo_inurba_marseille","lat":43.290104,"lon":5.356111,"is_reserved":false,"is_disabled":false,"rental_uris":{"android":"levelo://app?vid=3d07087d-a51b-48d2-a937-65956f6c5bea","ios":"levelo://app?vid=3d07087d-a51b-48d2-a937-65956f6c5bea"},"vehicle_type_id":"4","last_reported":1721934359,"current_range_meters":4800,"station_id":"ce4bhb92rcd13ifvqen0","pricing_plan_id":"cebpf4jnsgd1na2vs0mg"},{"bike_id":"3e59bd4f-ed3b-488a-8327-e1b457c1cb4e","system_id":"levelo_inurba_marseille","lat":43.290104,"lon":5.356111,"is_reserved":false,"is_disabled":false,"rental_uris":{"android":"levelo://app?vid=3e59bd4f-ed3b-488a-8327-e1b457c1cb4e","ios":"levelo://app?vid=3e59bd4f-ed3b-488a-8327-e1b457c1cb4e"},"vehicle_type_id":"4","last_reported":1721934359,"current_range_meters":0,"station_id":"ce4bhb92rcd13ifvqen0","pricing_plan_id":"cebpf4jnsgd1na2vs0mg"},{"bike_id":"477a6f48-aaaf-40aa-b653-1891a29f984a","system_id":"levelo_inurba_marseille","lat":43.290104,"lon":5.356111,"is_reserved":false,"is_disabled":false,"rental_uris":{"android":"levelo://app?vid=477a6f48-aaaf-40aa-b653-1891a29f984a","ios":"levelo://app?vid=477a6f48-aaaf-40aa-b653-1891a29f984a"},"vehicle_type_id":"4","last_reported":1721934359,"current_range_meters":10400,"station_id":"ce4bhb92rcd13ifvqen0","pricing_plan_id":"cebpf4jnsgd1na2vs0mg"},{"bike_id":"6ccc8cee-4b6a-48ce-8637-29f287a6ab56","system_id":"levelo_inurba_marseille","lat":43.290995,"lon":5.381361,"is_reserved":false,"is_disabled":false,"rental_uris":{"android":"levelo://app?vid=6ccc8cee-4b6a-48ce-8637-29f287a6ab56","ios":"levelo://app?vid=6ccc8cee-4b6a-48ce-8637-29f287a6ab56"},"vehicle_type_id":"4","last_reported":1721934359,"current_range_meters":0,"station_id":"ce4bh512rcd13ifvqe2g","pricing_plan_id":"cebpf4jnsgd1na2vs0mg"},{"bike_id":"74fe9767-de9e-4333-b1e9-267af113bfea","system_id":"levelo_inurba_marseille","lat":43.290995,"lon":5.381361,"is_reserved":false,"is_disabled":false,"rental_uris":{"android":"levelo://app?vid=74fe9767-de9e-4333-b1e9-267af113bfea","ios":"levelo://app?vid=74fe9767-de9e-4333-b1e9-267af113bfea"},"vehicle_type_id":"4","last_reported":1721934359,"current_range_meters":0,"station_id":"ce4bh512rcd13ifvqe2g","pricing_plan_id":"cebpf4jnsgd1na2vs0mg"},{"bike_id":"7ed8151d-1187-46e2-b053-4d75a3db1fc7","system_id":"levelo_inurba_marseille","lat":43.295169,"lon":5.390426,"is_reserved":false,"is_disabled":false,"rental_uris":{"android":"levelo://app?vid=7ed8151d-1187-46e2-b053-4d75a3db1fc7","ios":"levelo://app?vid=7ed8151d-1187-46e2-b053-4d75a3db1fc7"},"vehicle_type_id":"4","last_reported":1721934359,"current_range_meters":10800,"station_id":"ce4bh3p2rcd13ifvqdp0","pricing_plan_id":"cebpf4jnsgd1na2vs0mg"},{"bike_id":"b887be8f-c09d-4f79-8816-5a5d22d949e6","system_id":"levelo_inurba_marseille","lat":43.297807,"lon":5.393533,"is_reserved":false,"is_disabled":false,"rental_uris":{"android":"levelo://app?vid=b887be8f-c09d-4f79-8816-5a5d22d949e6","ios":"levelo://app?vid=b887be8f-c09d-4f79-8816-5a5d22d949e6"},"vehicle_type_id":"4","last_reported":1721934359,"current_range_meters":0,"station_id":"chh1huq6cuj3fo74tm60","pricing_plan_id":"cebpf4jnsgd1na2vs0mg"},{"bike_id":"90bb070f-386a-4c1e-aeb5-337598a3d04f","system_id":"levelo_inurba_marseille","lat":43.295169,"lon":5.390426,"is_reserved":false,"is_disabled":false,"rental_uris":{"android":"levelo://app?vid=90bb070f-386a-4c1e-aeb5-337598a3d04f","ios":"levelo://app?vid=90bb070f-386a-4c1e-aeb5-337598a3d04f"},"vehicle_type_id":"4","last_reported":1721934359,"current_range_meters":14400,"station_id":"ce4bh3p2rcd13ifvqdp0","pricing_plan_id":"cebpf4jnsgd1na2vs0mg"},{"bike_id":"c89e0366-e2b6-4c56-940f-68c4bd54281e","system_id":"levelo_inurba_marseille","lat":43.297807,"lon":5.393533,"is_reserved":false,"is_disabled":false,"rental_uris":{"android":"levelo://app?vid=c89e0366-e2b6-4c56-940f-68c4bd54281e","ios":"levelo://app?vid=c89e0366-e2b6-4c56-940f-68c4bd54281e"},"vehicle_type_id":"4","last_reported":1721934359,"current_range_meters":14800,"station_id":"chh1huq6cuj3fo74tm60","pricing_plan_id":"cebpf4jnsgd1na2vs0mg"},{"bike_id":"91af2add-aab7-4faa-b769-fa31664e67c7","system_id":"levelo_inurba_marseille","lat":43.295169,"lon":5.390426,"is_reserved":false,"is_disabled":false,"rental_uris":{"android":"levelo://app?vid=91af2add-aab7-4faa-b769-fa31664e67c7","ios":"levelo://app?vid=91af2add-aab7-4faa-b769-fa31664e67c7"},"vehicle_type_id":"4","last_reported":1721934359,"current_range_meters":22000,"station_id":"ce4bh3p2rcd13ifvqdp0","pricing_plan_id":"cebpf4jnsgd1na2vs0mg"},{"bike_id":"246c041d-72bc-4b2f-a6aa-f2abfb8a44f9","system_id":"levelo_inurba_marseille","lat":43.295169,"lon":5.390426,"is_reserved":false,"is_disabled":false,"rental_uris":{"android":"levelo://app?vid=246c041d-72bc-4b2f-a6aa-f2abfb8a44f9","ios":"levelo://app?vid=246c041d-72bc-4b2f-a6aa-f2abfb8a44f9"},"vehicle_type_id":"4","last_reported":1721934359,"current_range_meters":19200,"station_id":"ce4bh3p2rcd13ifvqdp0","pricing_plan_id":"cebpf4jnsgd1na2vs0mg"},{"bike_id":"a3349157-0244-46d3-93c0-a21236267144","system_id":"levelo_inurba_marseille","lat":43.295169,"lon":5.390426,"is_reserved":false,"is_disabled":false,"rental_uris":{"android":"levelo://app?vid=a3349157-0244-46d3-93c0-a21236267144","ios":"levelo://app?vid=a3349157-0244-46d3-93c0-a21236267144"},"vehicle_type_id":"4","last_reported":1721934359,"current_range_meters":800,"station_id":"ce4bh3p2rcd13ifvqdp0","pricing_plan_id":"cebpf4jnsgd1na2vs0mg"},{"bike_id":"87739140-b5e4-47e2-a25d-2df0e3a57ec2","system_id":"levelo_inurba_marseille","lat":43.295169,"lon":5.390426,"is_reserved":false,"is_disabled":false,"rental_uris":{"android":"levelo://app?vid=87739140-b5e4-47e2-a25d-2df0e3a57ec2","ios":"levelo://app?vid=87739140-b5e4-47e2-a25d-2df0e3a57ec2"},"vehicle_type_id":"4","last_reported":1721934359,"current_range_meters":1200,"station_id":"ce4bh3p2rcd13ifvqdp0","pricing_plan_id":"cebpf4jnsgd1na2vs0mg"},{"bike_id":"bdaf6742-8731-41b0-aebc-ed7f1dfca2d0","system_id":"levelo_inurba_marseille","lat":43.295169,"lon":5.390426,"is_reserved":false,"is_disabled":false,"rental_uris":{"android":"levelo://app?vid=bdaf6742-8731-41b0-aebc-ed7f1dfca2d0","ios":"levelo://app?vid=bdaf6742-8731-41b0-aebc-ed7f1dfca2d0"},"vehicle_type_id":"4","last_reported":1721934359,"current_range_meters":27200,"station_id":"ce4bh3p2rcd13ifvqdp0","pricing_plan_id":"cebpf4jnsgd1na2vs0mg"},{"bike_id":"a585d16b-4ce5-4034-9247-934dbdb502ad","system_id":"levelo_inurba_marseille","lat":43.295169,"lon":5.390426,"is_reserved":false,"is_disabled":false,"rental_uris":{"android":"levelo://app?vid=a585d16b-4ce5-4034-9247-934dbdb502ad","ios":"levelo://app?vid=a585d16b-4ce5-4034-9247-934dbdb502ad"},"vehicle_type_id":"4","last_reported":1721934359,"current_range_meters":9600,"station_id":"ce4bh3p2rcd13ifvqdp0","pricing_plan_id":"cebpf4jnsgd1na2vs0mg"},{"bike_id":"0dc809a7-d4e9-4abe-a6dd-b5df367903d2","system_id":"levelo_inurba_marseille","lat":43.330442,"lon":5.389148,"is_reserved":false,"is_disabled":false,"rental_uris":{"android":"levelo://app?vid=0dc809a7-d4e9-4abe-a6dd-b5df367903d2","ios":"levelo://app?vid=0dc809a7-d4e9-4abe-a6dd-b5df367903d2"},"vehicle_type_id":"4","last_reported":1721934359,"current_range_meters":4800,"station_id":"ce4bhr92rcd13ifvqhrg","pricing_plan_id":"cebpf4jnsgd1na2vs0mg"},{"bike_id":"4adb3e69-07a5-4034-925a-065c84716be5","system_id":"levelo_inurba_marseille","lat":43.29782,"lon":5.393535,"is_reserved":false,"is_disabled":false,"rental_uris":{"android":"levelo://app?vid=4adb3e69-07a5-4034-925a-065c84716be5","ios":"levelo://app?vid=4adb3e69-07a5-4034-925a-065c84716be5"},"vehicle_type_id":"4","last_reported":1721934359,"current_range_meters":31200,"station_id":"chh1huq6cuj3fo74tm60","pricing_plan_id":"cebpf4jnsgd1na2vs0mg"},{"bike_id":"d67a4ec9-1581-425e-b537-a76a1a04b454","system_id":"levelo_inurba_marseille","lat":43.33024,"lon":5.39039,"is_reserved":false,"is_disabled":false,"rental_uris":{"android":"levelo://app?vid=d67a4ec9-1581-425e-b537-a76a1a04b454","ios":"levelo://app?vid=d67a4ec9-1581-425e-b537-a76a1a04b454"},"vehicle_type_id":"4","last_reported":1721934359,"current_range_meters":4000,"station_id":"ce4bhr92rcd13ifvqhrg","pricing_plan_id":"cebpf4jnsgd1na2vs0mg"},{"bike_id":"bb5f456d-ee63-4e3b-8d75-82cc99775af1","system_id":"levelo_inurba_marseille","lat":43.289743,"lon":5.378304,"is_reserved":false,"is_disabled":false,"rental_uris":{"android":"levelo://app?vid=bb5f456d-ee63-4e3b-8d75-82cc99775af1","ios":"levelo://app?vid=bb5f456d-ee63-4e3b-8d75-82cc99775af1"},