{"last_updated":1773164260,"ttl":60,"version":"2.2","data":{"bikes":[{"bike_id":"d836b3f9-d22b-4e36-9788-587fa8497bc6","system_id":"levelo_inurba_marseille","lat":43.24168,"lon":5.36392,"is_reserved":false,"is_disabled":false,"rental_uris":{"android":"levelo://app?vid=d836b3f9-d22b-4e36-9788-587fa8497bc6","ios":"levelo://app?vid=d836b3f9-d22b-4e36-9788-587fa8497bc6"},"vehicle_type_id":"4","last_reported":1773164261,"current_range_meters":9600,"station_id":"cpo36qri1sfpv3e86is0","pricing_plan_id":"cebpf4jnsgd1na2vs0mg"},{"bike_id":"550f0157-9dee-4681-8f50-3896b766742f","system_id":"levelo_inurba_marseille","lat":43.25908,"lon":5.39924,"is_reserved":false,"is_disabled":false,"rental_uris":{"android":"levelo://app?vid=550f0157-9dee-4681-8f50-3896b766742f","ios":"levelo://app?vid=550f0157-9dee-4681-8f50-3896b766742f"},"vehicle_type_id":"4","last_reported":1773164261,"current_range_meters":39200,"station_id":"","pricing_plan_id":"cebpf4jnsgd1na2vs0mg"},{"bike_id":"0d48f89b-e3f0-414c-ad21-b9d26e02c61b","system_id":"levelo_inurba_marseille","lat":43.29729,"lon":5.36598,"is_reserved":false,"is_disabled":false,"rental_uris":{"android":"levelo://app?vid=0d48f89b-e3f0-414c-ad21-b9d26e02c61b","ios":"levelo://app?vid=0d48f89b-e3f0-414c-ad21-b9d26e02c61b"},"vehicle_type_id":"4","last_reported":1773164261,"current_range_meters":36400,"station_id":"ce4bgn12rcd13ifvqbt0","pricing_plan_id":"cebpf4jnsgd1na2vs0mg"},{"bike_id":"dcb476bc-523e-425a-9356-29a2d8b88b51","system_id":"levelo_inurba_marseille","lat":43.29032,"lon":5.38632,"is_reserved":false,"is_disabled":false,"rental_uris":{"android":"levelo://app?vid=dcb476bc-523e-425a-9356-29a2d8b88b51","ios":"levelo://app?vid=dcb476bc-523e-425a-9356-29a2d8b88b51"},"vehicle_type_id":"4","last_reported":1773164261,"current_range_meters":19600,"station_id":"ce4bh4p2rcd13ifvqe0g","pricing_plan_id":"cebpf4jnsgd1na2vs0mg"},{"bike_id":"6d047b3e-dc25-476a-b970-647f0cf67272","system_id":"levelo_inurba_marseille","lat":43.30864,"lon":5.39615,"is_reserved":false,"is_disabled":false,"rental_uris":{"android":"levelo://app?vid=6d047b3e-dc25-476a-b970-647f0cf67272","ios":"levelo://app?vid=6d047b3e-dc25-476a-b970-647f0cf67272"},"vehicle_type_id":"4","last_reported":1773164261,"current_range_meters":39200,"station_id":"","pricing_plan_id":"cebpf4jnsgd1na2vs0mg"},{"bike_id":"aaa57c9c-a5dc-480c-97b9-d3c8d31e41e6","system_id":"levelo_inurba_marseille","lat":43.30527,"lon":5.36547,"is_reserved":false,"is_disabled":false,"rental_uris":{"android":"levelo://app?vid=aaa57c9c-a5dc-480c-97b9-d3c8d31e41e6","ios":"levelo://app?vid=aaa57c9c-a5dc-480c-97b9-d3c8d31e41e6"},"vehicle_type_id":"4","last_reported":1773164261,"current_range_meters":37600,"station_id":"ce4bgs12rcd13ifvqcag","pricing_plan_id":"cebpf4jnsgd1na2vs0mg"},{"bike_id":"bc51ce21-8f59-4dff-816b-f1d6d16e19a8","system_id":"levelo_inurba_marseille","lat":43.29276,"lon":5.40135,"is_reserved":false,"is_disabled":false,"rental_uris":{"android":"levelo://app?vid=bc51ce21-8f59-4dff-816b-f1d6d16e19a8","ios":"levelo://app?vid=bc51ce21-8f59-4dff-816b-f1d6d16e19a8"},"vehicle_type_id":"4","last_reported":1773164261,"current_range_meters":16400,"station_id":"ce4bh312rcd13ifvqdk0","pricing_plan_id":"cebpf4jnsgd1na2vs0mg"},{"bike_id":"957d5153-e7e5-4874-9557-99dd830de934","system_id":"levelo_inurba_marseille","lat":43.3464,"lon":5.36722,"is_reserved":false,"is_disabled":false,"rental_uris":{"android":"levelo://app?vid=957d5153-e7e5-4874-9557-99dd830de934","ios":"levelo://app?vid=957d5153-e7e5-4874-9557-99dd830de934"},"vehicle_type_id":"4","last_reported":1773164261,"current_range_meters":33200,"station_id":"","pricing_plan_id":"cebpf4jnsgd1na2vs0mg"},{"bike_id":"48248475-a727-4ca7-9600-917761979a9d","system_id":"levelo_inurba_marseille","lat":43.2742,"lon":5.39411,"is_reserved":false,"is_disabled":false,"rental_uris":{"android":"levelo://app?vid=48248475-a727-4ca7-9600-917761979a9d","ios":"levelo://app?vid=48248475-a727-4ca7-9600-917761979a9d"},"vehicle_type_id":"4","last_reported":1773164261,"current_range_meters":34000,"station_id":"ce4bhdp2rcd13ifvqf20","pricing_plan_id":"cebpf4jnsgd1na2vs0mg"},{"bike_id":"4b816d63-fc3c-45dd-aea6-96b4203fe4c8","system_id":"levelo_inurba_marseille","lat":43.28482,"lon":5.48392,"is_reserved":false,"is_disabled":false,"rental_uris":{"android":"levelo://app?vid=4b816d63-fc3c-45dd-aea6-96b4203fe4c8","ios":"levelo://app?vid=4b816d63-fc3c-45dd-aea6-96b4203fe4c8"},"vehicle_type_id":"4","last_reported":1773164261,"current_range_meters":38000,"station_id":"st_d3svhcjqgbts73a3dn0g","pricing_plan_id":"cebpf4jnsgd1na2vs0mg"},{"bike_id":"147b7a0d-c9c2-4d1a-85c3-f032c493c4e5","system_id":"levelo_inurba_marseille","lat":43.29098,"lon":5.38138,"is_reserved":false,"is_disabled":false,"rental_uris":{"android":"levelo://app?vid=147b7a0d-c9c2-4d1a-85c3-f032c493c4e5","ios":"levelo://app?vid=147b7a0d-c9c2-4d1a-85c3-f032c493c4e5"},"vehicle_type_id":"4","last_reported":1773164261,"current_range_meters":4400,"station_id":"ce4bh512rcd13ifvqe2g","pricing_plan_id":"cebpf4jnsgd1na2vs0mg"},{"bike_id":"9548c5b7-5eac-46d1-8ff7-8823f888763f","system_id":"levelo_inurba_marseille","lat":43.33175,"lon":5.37697,"is_reserved":false,"is_disabled":false,"rental_uris":{"android":"levelo://app?vid=9548c5b7-5eac-46d1-8ff7-8823f888763f","ios":"levelo://app?vid=9548c5b7-5eac-46d1-8ff7-8823f888763f"},"vehicle_type_id":"4","last_reported":1773164261,"current_range_meters":33200,"station_id":"st_d46cu089ee8s73dldbu0","pricing_plan_id":"cebpf4jnsgd1na2vs0mg"},{"bike_id":"7f4a5dc3-3d0c-42cb-90e4-9c2d478919d0","system_id":"levelo_inurba_marseille","lat":43.29633,"lon":5.37151,"is_reserved":false,"is_disabled":false,"rental_uris":{"android":"levelo://app?vid=7f4a5dc3-3d0c-42cb-90e4-9c2d478919d0","ios":"levelo://app?vid=7f4a5dc3-3d0c-42cb-90e4-9c2d478919d0"},"vehicle_type_id":"4","last_reported":1773164261,"current_range_meters":36400,"station_id":"ce4bgnh2rcd13ifvqc0g","pricing_plan_id":"cebpf4jnsgd1na2vs0mg"},{"bike_id":"45e85bbe-c2c3-4b30-afec-a40f7bfe2803","system_id":"levelo_inurba_marseille","lat":43.279905,"lon":5.4001,"is_reserved":false,"is_disabled":false,"rental_uris":{"android":"levelo://app?vid=45e85bbe-c2c3-4b30-afec-a40f7bfe2803","ios":"levelo://app?vid=45e85bbe-c2c3-4b30-afec-a40f7bfe2803"},"vehicle_type_id":"4","last_reported":1773164261,"current_range_meters":20400,"station_id":"ce4bho92rcd13ifvqh4g","pricing_plan_id":"cebpf4jnsgd1na2vs0mg"},{"bike_id":"2ad2c9e9-a88b-42c7-9d72-8e66d8be4004","system_id":"levelo_inurba_marseille","lat":43.25834,"lon":5.39428,"is_reserved":false,"is_disabled":false,"rental_uris":{"android":"levelo://app?vid=2ad2c9e9-a88b-42c7-9d72-8e66d8be4004","ios":"levelo://app?vid=2ad2c9e9-a88b-42c7-9d72-8e66d8be4004"},"vehicle_type_id":"4","last_reported":1773164261,"current_range_meters":29600,"station_id":"ce4bhip2rcd13ifvqft0","pricing_plan_id":"cebpf4jnsgd1na2vs0mg"},{"bike_id":"a8c8cdb1-ae95-4e02-aac9-d9f56c4e0944","system_id":"levelo_inurba_marseille","lat":43.28631,"lon":5.35102,"is_reserved":false,"is_disabled":false,"rental_uris":{"android":"levelo://app?vid=a8c8cdb1-ae95-4e02-aac9-d9f56c4e0944","ios":"levelo://app?vid=a8c8cdb1-ae95-4e02-aac9-d9f56c4e0944"},"vehicle_type_id":"4","last_reported":1773164261,"current_range_meters":25200,"station_id":"ce4bhch2rcd13ifvqeug","pricing_plan_id":"cebpf4jnsgd1na2vs0mg"},{"bike_id":"2e3bdd21-d806-4d6a-9aef-090b2353cdc7","system_id":"levelo_inurba_marseille","lat":43.29083,"lon":5.37149,"is_reserved":false,"is_disabled":false,"rental_uris":{"android":"levelo://app?vid=2e3bdd21-d806-4d6a-9aef-090b2353cdc7","ios":"levelo://app?vid=2e3bdd21-d806-4d6a-9aef-090b2353cdc7"},"vehicle_type_id":"4","last_reported":1773164261,"current_range_meters":36800,"station_id":"ce4bh5p2rcd13ifvqe4g","pricing_plan_id":"cebpf4jnsgd1na2vs0mg"},{"bike_id":"4a58236a-bfdd-4080-905c-95d2f2c8d0d2","system_id":"levelo_inurba_marseille","lat":43.28232,"lon":5.39064,"is_reserved":false,"is_disabled":false,"rental_uris":{"android":"levelo://app?vid=4a58236a-bfdd-4080-905c-95d2f2c8d0d2","ios":"levelo://app?vid=4a58236a-bfdd-4080-905c-95d2f2c8d0d2"},"vehicle_type_id":"4","last_reported":1773164261,"current_range_meters":26800,"station_id":"ce4bhn92rcd13ifvqgsg","pricing_plan_id":"cebpf4jnsgd1na2vs0mg"},{"bike_id":"b32e1fec-13ae-4c1f-b583-73be3e302a01","system_id":"levelo_inurba_marseille","lat":43.24823,"lon":5.37459,"is_reserved":false,"is_disabled":false,"rental_uris":{"android":"levelo://app?vid=b32e1fec-13ae-4c1f-b583-73be3e302a01","ios":"levelo://app?vid=b32e1fec-13ae-4c1f-b583-73be3e302a01"},"vehicle_type_id":"4","last_reported":1773164261,"current_range_meters":35200,"station_id":"ce4bhgh2rcd13ifvqfb0","pricing_plan_id":"cebpf4jnsgd1na2vs0mg"},{"bike_id":"bc144952-33ac-45a1-a00a-a72ef67b40b7","system_id":"levelo_inurba_marseille","lat":43.30544,"lon":5.36718,"is_reserved":false,"is_disabled":false,"rental_uris":{"android":"levelo://app?vid=bc144952-33ac-45a1-a00a-a72ef67b40b7","ios":"levelo://app?vid=bc144952-33ac-45a1-a00a-a72ef67b40b7"},"vehicle_type_id":"4","last_reported":1773164261,"current_range_meters":20800,"station_id":"ce4bgrp2rcd13ifvqc9g","pricing_plan_id":"cebpf4jnsgd1na2vs0mg"},{"bike_id":"323faba3-8759-487f-b1a9-0d4cac89e696","system_id":"levelo_inurba_marseille","lat":43.28463,"lon":5.35871,"is_reserved":false,"is_disabled":false,"rental_uris":{"android":"levelo://app?vid=323faba3-8759-487f-b1a9-0d4cac89e696","ios":"levelo://app?vid=323faba3-8759-487f-b1a9-0d4cac89e696"},"vehicle_type_id":"4","last_reported":1773164261,"current_range_meters":24000,"station_id":"ce4bhah2rcd13ifvqei0","pricing_plan_id":"cebpf4jnsgd1na2vs0mg"},{"bike_id":"573fa6af-c1f0-4de6-b7c9-eb65db8ef214","system_id":"levelo_inurba_marseille","lat":43.29798,"lon":5.37121,"is_reserved":false,"is_disabled":false,"rental_uris":{"android":"levelo://app?vid=573fa6af-c1f0-4de6-b7c9-eb65db8ef214","ios":"levelo://app?vid=573fa6af-c1f0-4de6-b7c9-eb65db8ef214"},"vehicle_type_id":"4","last_reported":1773164261,"current_range_meters":32000,"station_id":"ce4bgop2rcd13ifvqc1g","pricing_plan_id":"cebpf4jnsgd1na2vs0mg"},{"bike_id":"abd13d01-d3b3-4b8f-a3f9-05a8c130dea1","system_id":"levelo_inurba_marseille","lat":43.28086,"lon":5.3966,"is_reserved":false,"is_disabled":false,"rental_uris":{"android":"levelo://app?vid=abd13d01-d3b3-4b8f-a3f9-05a8c130dea1","ios":"levelo://app?vid=abd13d01-d3b3-4b8f-a3f9-05a8c130dea1"},"vehicle_type_id":"4","last_reported":1773164261,"current_range_meters":37600,"station_id":"ce4bho12rcd13ifvqh2g","pricing_plan_id":"cebpf4jnsgd1na2vs0mg"},{"bike_id":"cdbdca19-fc21-4706-8259-1f61d6e2fc5c","system_id":"levelo_inurba_marseille","lat":43.30378,"lon":5.41869,"is_reserved":false,"is_disabled":false,"rental_uris":{"android":"levelo://app?vid=cdbdca19-fc21-4706-8259-1f61d6e2fc5c","ios":"levelo://app?vid=cdbdca19-fc21-4706-8259-1f61d6e2fc5c"},"vehicle_type_id":"4","last_reported":1773164261,"current_range_meters":36000,"station_id":"ce4bhop2rcd13ifvqh7g","pricing_plan_id":"cebpf4jnsgd1na2vs0mg"},{"bike_id":"bcd27a1d-25c8-40a5-b9e7-b0f8934b6110","system_id":"levelo_inurba_marseille","lat":43.28935,"lon":5.38381,"is_reserved":false,"is_disabled":false,"rental_uris":{"android":"levelo://app?vid=bcd27a1d-25c8-40a5-b9e7-b0f8934b6110","ios":"levelo://app?vid=bcd27a1d-25c8-40a5-b9e7-b0f8934b6110"},"vehicle_type_id":"4","last_reported":1773164261,"current_range_meters":32400,"station_id":"ce4bh612rcd13ifvqe6g","pricing_plan_id":"cebpf4jnsgd1na2vs0mg"},{"bike_id":"9cc09629-76f8-46a4-a76a-172ee2993776","system_id":"levelo_inurba_marseille","lat":43.32099,"lon":5.36816,"is_reserved":false,"is_disabled":false,"rental_uris":{"android":"levelo://app?vid=9cc09629-76f8-46a4-a76a-172ee2993776","ios":"levelo://app?vid=9cc09629-76f8-46a4-a76a-172ee2993776"},"vehicle_type_id":"4","last_reported":1773164261,"current_range_meters":31200,"station_id":"ce4bhrh2rcd13ifvqhug","pricing_plan_id":"cebpf4jnsgd1na2vs0mg"},{"bike_id":"8b0f1346-6330-4238-948b-5b6886eebaf3","system_id":"levelo_inurba_marseille","lat":43.32295,"lon":5.38258,"is_reserved":false,"is_disabled":false,"rental_uris":{"android":"levelo://app?vid=8b0f1346-6330-4238-948b-5b6886eebaf3","ios":"levelo://app?vid=8b0f1346-6330-4238-948b-5b6886eebaf3"},"vehicle_type_id":"4","last_reported":1773164261,"current_range_meters":40000,"station_id":"ce4bhr12rcd13ifvqhqg","pricing_plan_id":"cebpf4jnsgd1na2vs0mg"},{"bike_id":"f472922e-3918-465e-8921-8220b570c110","system_id":"levelo_inurba_marseille","lat":43.28728,"lon":5.3609,"is_reserved":false,"is_disabled":false,"rental_uris":{"android":"levelo://app?vid=f472922e-3918-465e-8921-8220b570c110","ios":"levelo://app?vid=f472922e-3918-465e-8921-8220b570c110"},"vehicle_type_id":"4","last_reported":1773164261,"current_range_meters":38400,"station_id":"cki0cbj6b192h4jlfktg","pricing_plan_id":"cebpf4jnsgd1na2vs0mg"},{"bike_id":"c2db0a79-0714-4c66-aded-0338661c3b6b","system_id":"levelo_inurba_marseille","lat":43.26562,"lon":5.39,"is_reserved":false,"is_disabled":false,"rental_uris":{"android":"levelo://app?vid=c2db0a79-0714-4c66-aded-0338661c3b6b","ios":"levelo://app?vid=c2db0a79-0714-4c66-aded-0338661c3b6b"},"vehicle_type_id":"4","last_reported":1773164261,"current_range_meters":3600,"station_id":"ce4bhe12rcd13ifvqf30","pricing_plan_id":"cebpf4jnsgd1na2vs0mg"},{"bike_id":"b5369474-d595-42d6-ba6e-c39f04602da0","system_id":"levelo_inurba_marseille","lat":43.22563,"lon":5.41626,"is_reserved":false,"is_disabled":false,"rental_uris":{"android":"levelo://app?vid=b5369474-d595-42d6-ba6e-c39f04602da0","ios":"levelo://app?vid=b5369474-d595-42d6-ba6e-c39f04602da0"},"vehicle_type_id":"4","last_reported":1773164261,"current_range_meters":38800,"station_id":"st_d2o4gvlbi1j2169b742g","pricing_plan_id":"cebpf4jnsgd1na2vs0mg"},{"bike_id":"044a058b-5857-4eb2-8f0c-15043c5a6c86","system_id":"levelo_inurba_marseille","lat":43.28415,"lon":5.34982,"is_reserved":false,"is_disabled":false,"rental_uris":{"android":"levelo://app?vid=044a058b-5857-4eb2-8f0c-15043c5a6c86","ios":"levelo://app?vid=044a058b-5857-4eb2-8f0c-15043c5a6c86"},"vehicle_type_id":"4","last_reported":1773164261,"current_range_meters":38000,"station_id":"ce4bhbh2rcd13ifvqepg","pricing_plan_id":"cebpf4jnsgd1na2vs0mg"},{"bike_id":"5c75f21b-7e95-43b6-a338-699ae6c6da3a","system_id":"levelo_inurba_marseille","lat":43.25848,"lon":5.39493,"is_reserved":false,"is_disabled":false,"rental_uris":{"android":"levelo://app?vid=5c75f21b-7e95-43b6-a338-699ae6c6da3a","ios":"levelo://app?vid=5c75f21b-7e95-43b6-a338-699ae6c6da3a"},"vehicle_type_id":"4","last_reported":1773164261,"current_range_meters":10800,"station_id":"","pricing_plan_id":"cebpf4jnsgd1na2vs0mg"},{"bike_id":"defb3785-ffdb-45c6-b37a-b3aa30aa857c","system_id":"levelo_inurba_marseille","lat":43.24186,"lon":5.39735,"is_reserved":false,"is_disabled":false,"rental_uris":{"android":"levelo://app?vid=defb3785-ffdb-45c6-b37a-b3aa30aa857c","ios":"levelo://app?vid=defb3785-ffdb-45c6-b37a-b3aa30aa857c"},"vehicle_type_id":"4","last_reported":1773164261,"current_range_meters":38000,"station_id":"ce4bhn12rcd13ifvqgpg","pricing_plan_id":"cebpf4jnsgd1na2vs0mg"},{"bike_id":"f28c80a2-6a38-42f3-a709-f7aee0492e2f","system_id":"levelo_inurba_marseille","lat":43.28842,"lon":5.35863,"is_reserved":false,"is_disabled":false,"rental_uris":{"android":"levelo://app?vid=f28c80a2-6a38-42f3-a709-f7aee0492e2f","ios":"levelo://app?vid=f28c80a2-6a38-42f3-a709-f7aee0492e2f"},"vehicle_type_id":"4","last_reported":1773164261,"current_range_meters":38800,"station_id":"ce4bhb12rcd13ifvqem0","pricing_plan_id":"cebpf4jnsgd1na2vs0mg"},{"bike_id":"7bc032b5-3a10-4548-b05e-5996df999bba","system_id":"levelo_inurba_marseille","lat":43.255835,"lon":5.382332,"is_reserved":false,"is_disabled":false,"rental_uris":{"android":"levelo://app?vid=7bc032b5-3a10-4548-b05e-5996df999bba","ios":"levelo://app?vid=7bc032b5-3a10-4548-b05e-5996df999bba"},"vehicle_type_id":"4","last_reported":1773164261,"current_range_meters":28400,"station_id":"ce4bhih2rcd13ifvqfs0","pricing_plan_id":"cebpf4jnsgd1na2vs0mg"},{"bike_id":"4879d3c3-e3b5-42ca-ab65-740f4f2a8681","system_id":"levelo_inurba_marseille","lat":43.24158,"lon":5.36412,"is_reserved":false,"is_disabled":false,"rental_uris":{"android":"levelo://app?vid=4879d3c3-e3b5-42ca-ab65-740f4f2a8681","ios":"levelo://app?vid=4879d3c3-e3b5-42ca-ab65-740f4f2a8681"},"vehicle_type_id":"4","last_reported":1773164261,"current_range_meters":15200,"station_id":"cpo36qri1sfpv3e86is0","pricing_plan_id":"cebpf4jnsgd1na2vs0mg"},{"bike_id":"406dc9a2-14d2-43f3-b09a-1270cddb760c","system_id":"levelo_inurba_marseille","lat":43.2992,"lon":5.37495,"is_reserved":false,"is_disabled":false,"rental_uris":{"android":"levelo://app?vid=406dc9a2-14d2-43f3-b09a-1270cddb760c","ios":"levelo://app?vid=406dc9a2-14d2-43f3-b09a-1270cddb760c"},"vehicle_type_id":"4","last_reported":1773164261,"current_range_meters":38800,"station_id":"ce4bgjh2rcd13ifvqbg0","pricing_plan_id":"cebpf4jnsgd1na2vs0mg"},{"bike_id":"59862629-4538-419f-a9cc-f126e502e10a","system_id":"levelo_inurba_marseille","lat":43.29004,"lon":5.35614,"is_reserved":false,"is_disabled":false,"rental_uris":{"android":"levelo://app?vid=59862629-4538-419f-a9cc-f126e502e10a","ios":"levelo://app?vid=59862629-4538-419f-a9cc-f126e502e10a"},"vehicle_type_id":"4","last_reported":1773164261,"current_range_meters":25200,"station_id":"ce4bhb92rcd13ifvqen0","pricing_plan_id":"cebpf4jnsgd1na2vs0mg"},{"bike_id":"05681e4e-87b0-4520-8776-5b1952252019","system_id":"levelo_inurba_marseille","lat":43.30317,"lon":5.36885,"is_reserved":false,"is_disabled":false,"rental_uris":{"android":"levelo://app?vid=05681e4e-87b0-4520-8776-5b1952252019","ios":"levelo://app?vid=05681e4e-87b0-4520-8776-5b1952252019"},"vehicle_type_id":"4","last_reported":1773164261,"current_range_meters":32000,"station_id":"ce4bgqh2rcd13ifvqc5g","pricing_plan_id":"cebpf4jnsgd1na2vs0mg"},{"bike_id":"3062cf51-6152-4122-9f46-cc0a14d156db","system_id":"levelo_inurba_marseille","lat":43.31219,"lon":5.36867,"is_reserved":false,"is_disabled":false,"rental_uris":{"android":"levelo://app?vid=3062cf51-6152-4122-9f46-cc0a14d156db","ios":"levelo://app?vid=3062cf51-6152-4122-9f46-cc0a14d156db"},"vehicle_type_id":"4","last_reported":1773164261,"current_range_meters":10800,"station_id":"ce4bgl92rcd13ifvqbq0","pricing_plan_id":"cebpf4jnsgd1na2vs0mg"},{"bike_id":"842e27a6-5d76-45f6-9bcb-6e4a753be90c","system_id":"levelo_inurba_marseille","lat":43.29544,"lon":5.374,"is_reserved":false,"is_disabled":false,"rental_uris":{"android":"levelo://app?vid=842e27a6-5d76-45f6-9bcb-6e4a753be90c","ios":"levelo://app?vid=842e27a6-5d76-45f6-9bcb-6e4a753be90c"},"vehicle_type_id":"4","last_reported":1773164261,"current_range_meters":7200,"station_id":"","pricing_plan_id":"cebpf4jnsgd1na2vs0mg"},{"bike_id":"8c7782e1-107f-434e-a211-e451e78368f1","system_id":"levelo_inurba_marseille","lat":43.25874,"lon":5.39923,"is_reserved":false,"is_disabled":false,"rental_uris":{"android":"levelo://app?vid=8c7782e1-107f-434e-a211-e451e78368f1","ios":"levelo://app?vid=8c7782e1-107f-434e-a211-e451e78368f1"},"vehicle_type_id":"4","last_reported":1773164261,"current_range_meters":27200,"station_id":"ce4bhl92rcd13ifvqghg","pricing_plan_id":"cebpf4jnsgd1na2vs0mg"},{"bike_id":"9492c710-7e95-430f-98d3-f1e4634dcfdf","system_id":"levelo_inurba_marseille","lat":43.25122,"lon":5.4033,"is_reserved":false,"is_disabled":false,"rental_uris":{"android":"levelo://app?vid=9492c710-7e95-430f-98d3-f1e4634dcfdf","ios":"levelo://app?vid=9492c710-7e95-430f-98d3-f1e4634dcfdf"},"vehicle_type_id":"4","last_reported":1773164261,"current_range_meters":36800,"station_id":"ce4bhlh2rcd13ifvqgig","pricing_plan_id":"cebpf4jnsgd1na2vs0mg"},{"bike_id":"05a6aeb6-8ecc-444c-a68d-cdb267f43480","system_id":"levelo_inurba_marseille","lat":43.24662,"lon":5.38905,"is_reserved":false,"is_disabled":false,"rental_uris":{"android":"levelo://app?vid=05a6aeb6-8ecc-444c-a68d-cdb267f43480","ios":"levelo://app?vid=05a6aeb6-8ecc-444c-a68d-cdb267f43480"},"vehicle_type_id":"4","last_reported":1773164261,"current_range_meters":39200,"station_id":"ce4bhg12rcd13ifvqf60","pricing_plan_id":"cebpf4jnsgd1na2vs0mg"},{"bike_id":"941ec6ae-979a-4205-b2af-d407a3814e27","system_id":"levelo_inurba_marseille","lat":43.29037,"lon":5.37569,"is_reserved":false,"is_disabled":false,"rental_uris":{"android":"levelo://app?vid=941ec6ae-979a-4205-b2af-d407a3814e27","ios":"levelo://app?vid=941ec6ae-979a-4205-b2af-d407a3814e27"},"vehicle_type_id":"4","last_reported":1773164261,"current_range_meters":30000,"station_id":"ce4bh692rcd13ifvqe90","pricing_plan_id":"cebpf4jnsgd1na2vs0mg"},{"bike_id":"a5642da5-590f-492f-89f9-0fbe17148ab4","system_id":"levelo_inurba_marseille","lat":43.2381,"lon":5.36647,"is_reserved":false,"is_disabled":false,"rental_uris":{"android":"levelo://app?vid=a5642da5-590f-492f-89f9-0fbe17148ab4","ios":"levelo://app?vid=a5642da5-590f-492f-89f9-0fbe17148ab4"},"vehicle_type_id":"4","last_reported":1773164261,"current_range_meters":17200,"station_id":"st_d3nk18o9ro0c73en2l3g","pricing_plan_id":"cebpf4jnsgd1na2vs0mg"},{"bike_id":"ed8dec86-aa91-45f9-93c0-8464f27d0f2d","system_id":"levelo_inurba_marseille","lat":43.29572,"lon":5.38482,"is_reserved":false,"is_disabled":false,"rental_uris":{"android":"levelo://app?vid=ed8dec86-aa91-45f9-93c0-8464f27d0f2d","ios":"levelo://app?vid=ed8dec86-aa91-45f9-93c0-8464f27d0f2d"},"vehicle_type_id":"4","last_reported":1773164261,"current_range_meters":24800,"station_id":"","pricing_plan_id":"cebpf4jnsgd1na2vs0mg"},{"bike_id":"8e86e171-e3fe-46cf-aab7-4999979364d8","system_id":"levelo_inurba_marseille","lat":43.26202,"lon":5.37923,"is_reserved":false,"is_disabled":false,"rental_uris":{"android":"levelo://app?vid=8e86e171-e3fe-46cf-aab7-4999979364d8","ios":"levelo://app?vid=8e86e171-e3fe-46cf-aab7-4999979364d8"},"vehicle_type_id":"4","last_reported":1773164261,"current_range_meters":10000,"station_id":"ce4bhjp2rcd13ifvqg90","pricing_plan_id":"cebpf4jnsgd1na2vs0mg"},{"bike_id":"df886b00-826e-49db-96f3-02ffa5c8e117","system_id":"levelo_inurba_marseille","lat":43.28272,"lon":5.35059,"is_reserved":false,"is_disabled":false,"rental_uris":{"android":"levelo://app?vid=df886b00-826e-49db-96f3-02ffa5c8e117","ios":"levelo://app?vid=df886b00-826e-49db-96f3-02ffa5c8e117"},"vehicle_type_id":"4","last_reported":1773164261,"current_range_meters":23200,"station_id":"ce4bhbp2rcd13ifvqerg","pricing_plan_id":"cebpf4jnsgd1na2vs0mg"},{"bike_id":"525d593e-e5ab-4f9b-a084-f494d61aa115","system_id":"levelo_inurba_marseille","lat":43.30355,"lon":5.41871,"is_reserved":false,"is_disabled":false,"rental_uris":{"android":"levelo://app?vid=525d593e-e5ab-4f9b-a084-f494d61aa115","ios":"levelo://app?vid=525d593e-e5ab-4f9b-a084-f494d61aa115"},"vehicle_type_id":"4","last_reported":1773164261,"current_range_meters":39200,"station_id":"ce4bhop2rcd13ifvqh7g","pricing_plan_id":"cebpf4jnsgd1na2vs0mg"},{"bike_id":"37aea754-58d3-485a-a8ae-ff52a49b08d0","system_id":"levelo_inurba_marseille","lat":43.27201,"lon":5.40997,"is_reserved":false,"is_disabled":false,"rental_uris":{"android":"levelo://app?vid=37aea754-58d3-485a-a8ae-ff52a49b08d0","ios":"levelo://app?vid=37aea754-58d3-485a-a8ae-ff52a49b08d0"},"vehicle_type_id":"4","last_reported":1773164261,"current_range_meters":39200,"station_id":"ce4bhl12rcd13ifvqgf0","pricing_plan_id":"cebpf4jnsgd1na2vs0mg"},{"bike_id":"e07c8a4d-7c0b-425f-b967-0ea81b913cdb","system_id":"levelo_inurba_marseille","lat":43.31276,"lon":5.4016,"is_reserved":false,"is_disabled":false,"rental_uris":{"android":"levelo://app?vid=e07c8a4d-7c0b-425f-b967-0ea81b913cdb","ios":"levelo://app?vid=e07c8a4d-7c0b-425f-b967-0ea81b913cdb"},"vehicle_type_id":"4","last_reported":1773164261,"current_range_meters":26800,"station_id":"ce4bh092rcd13ifvqd30","pricing_plan_id":"cebpf4jnsgd1na2vs0mg"},{"bike_id":"19978875-9c6e-45ef-ae36-aa9c375e7262","system_id":"levelo_inurba_marseille","lat":43.26597,"lon":5.37309,"is_reserved":false,"is_disabled":false,"rental_uris":{"android":"levelo://app?vid=19978875-9c6e-45ef-ae36-aa9c375e7262","ios":"levelo://app?vid=19978875-9c6e-45ef-ae36-aa9c375e7262"},"vehicle_type_id":"4","last_reported":1773164261,"current_range_meters":18000,"station_id":"ce4bhg12rcd13ifvqf70","pricing_plan_id":"cebpf4jnsgd1na2vs0mg"},{"bike_id":"584f94a8-9738-4289-81b1-d1bf00e66289","system_id":"levelo_inurba_marseille","lat":43.29826,"lon":5.42167,"is_reserved":false,"is_disabled":false,"rental_uris":{"android":"levelo://app?vid=584f94a8-9738-4289-81b1-d1bf00e66289","ios":"levelo://app?vid=584f94a8-9738-4289-81b1-d1bf00e66289"},"vehicle_type_id":"4","last_reported":1773164261,"current_range_meters":38400,"station_id":"","pricing_plan_id":"cebpf4jnsgd1na2vs0mg"},{"bike_id":"05ec2ed9-d3b8-45aa-8136-afe753cd886b","system_id":"levelo_inurba_marseille","lat":43.27508,"lon":5.41584,"is_reserved":false,"is_disabled":false,"rental_uris":{"android":"levelo://app?vid=05ec2ed9-d3b8-45aa-8136-afe753cd886b","ios":"levelo://app?vid=05ec2ed9-d3b8-45aa-8136-afe753cd886b"},"vehicle_type_id":"4","last_reported":1773164261,"current_range_meters":22800,"station_id":"st_d6im8g6chgec73a5pndg","pricing_plan_id":"cebpf4jnsgd1na2vs0mg"},{"bike_id":"c7ebcb10-e005-458a-b417-1dde5e562ec0","system_id":"levelo_inurba_marseille","lat":43.29597,"lon":5.37244,"is_reserved":false,"is_disabled":false,"rental_uris":{"android":"levelo://app?vid=c7ebcb10-e005-458a-b417-1dde5e562ec0","ios":"levelo://app?vid=c7ebcb10-e005-458a-b417-1dde5e562ec0"},"vehicle_type_id":"4","last_reported":1773164261,"current_range_meters":28000,"station_id":"","pricing_plan_id":"cebpf4jnsgd1na2vs0mg"},{"bike_id":"f3711349-3e20-461a-bd4e-fc3af2d6debc","system_id":"levelo_inurba_marseille","lat":43.28554,"lon":5.44144,"is_reserved":false,"is_disabled":false,"rental_uris":{"android":"levelo://app?vid=f3711349-3e20-461a-bd4e-fc3af2d6debc","ios":"levelo://app?vid=f3711349-3e20-461a-bd4e-fc3af2d6debc"},"vehicle_type_id":"4","last_reported":1773164261,"current_range_meters":8800,"station_id":"st_d3j3df2ikq2c7380ej80","pricing_plan_id":"cebpf4jnsgd1na2vs0mg"},{"bike_id":"8e08ad00-e7d7-4dec-8db0-0d297195d95b","system_id":"levelo_inurba_marseille","lat":43.3012,"lon":5.43122,"is_reserved":false,"is_disabled":false,"rental_uris":{"android":"levelo://app?vid=8e08ad00-e7d7-4dec-8db0-0d297195d95b","ios":"levelo://app?vid=8e08ad00-e7d7-4dec-8db0-0d297195d95b"},"vehicle_type_id":"4","last_reported":1773164261,"current_range_meters":25600,"station_id":"st_d3js3co5814s73ftftug","pricing_plan_id":"cebpf4jnsgd1na2vs0mg"},{"bike_id":"146fdbe8-7e75-426c-9732-45b5ee14bcc0","system_id":"levelo_inurba_marseille","lat":43.23193,"lon":5.39991,"is_reserved":false,"is_disabled":false,"rental_uris":{"android":"levelo://app?vid=146fdbe8-7e75-426c-9732-45b5ee14bcc0","ios":"levelo://app?vid=146fdbe8-7e75-426c-9732-45b5ee14bcc0"},"vehicle_type_id":"4","last_reported":1773164261,"current_range_meters":40000,"station_id":"ce4bhn12rcd13ifvqgqg","pricing_plan_id":"cebpf4jnsgd1na2vs0mg"},{"bike_id":"622e5860-5704-4572-9f37-ca7b41d86075","system_id":"levelo_inurba_marseille","lat":43.321,"lon":5.36775,"is_reserved":false,"is_disabled":false,"rental_uris":{"android":"levelo://app?vid=622e5860-5704-4572-9f37-ca7b41d86075","ios":"levelo://app?vid=622e5860-5704-4572-9f37-ca7b41d86075"},"vehicle_type_id":"4","last_reported":1773164261,"current_range_meters":39200,"station_id":"ce4bhrh2rcd13ifvqhug","pricing_plan_id":"cebpf4jnsgd1na2vs0mg"},{"bike_id":"df54282d-462c-4c9d-8e19-ace663d2371a","system_id":"levelo_inurba_marseille","lat":43.30207,"lon":5.39438,"is_reserved":false,"is_disabled":false,"rental_uris":{"android":"levelo://app?vid=df54282d-462c-4c9d-8e19-ace663d2371a","ios":"levelo://app?vid=df54282d-462c-4c9d-8e19-ace663d2371a"},"vehicle_type_id":"4","last_reported":1773164261,"current_range_meters":27600,"station_id":"ce4bh0p2rcd13ifvqd70","pricing_plan_id":"cebpf4jnsgd1na2vs0mg"},{"bike_id":"50f5dd10-198d-4bca-9bd8-0b5f78f3555f","system_id":"levelo_inurba_marseille","lat":43.30526,"lon":5.36742,"is_reserved":false,"is_disabled":false,"rental_uris":{"android":"levelo://app?vid=50f5dd10-198d-4bca-9bd8-0b5f78f3555f","ios":"levelo://app?vid=50f5dd10-198d-4bca-9bd8-0b5f78f3555f"},"vehicle_type_id":"4","last_reported":1773164261,"current_range_meters":39200,"station_id":"ce4bgrp2rcd13ifvqc9g","pricing_plan_id":"cebpf4jnsgd1na2vs0mg"},{"bike_id":"ba73a012-feeb-47aa-a729-e6a647324b84","system_id":"levelo_inurba_marseille","lat":43.2928,"lon":5.36843,"is_reserved":false,"is_disabled":false,"rental_uris":{"android":"levelo://app?vid=ba73a012-feeb-47aa-a729-e6a647324b84","ios":"levelo://app?vid=ba73a012-feeb-47aa-a729-e6a647324b84"},"vehicle_type_id":"4","last_reported":1773164261,"current_range_meters":38400,"station_id":"ce4bhbp2rcd13ifvqesg","pricing_plan_id":"cebpf4jnsgd1na2vs0mg"},{"bike_id":"ece9f64a-e9d7-49b5-ae3f-2c6dc9247f4c","system_id":"levelo_inurba_marseille","lat":43.25117,"lon":5.40317,"is_reserved":false,"is_disabled":false,"rental_uris":{"android":"levelo://app?vid=ece9f64a-e9d7-49b5-ae3f-2c6dc9247f4c","ios":"levelo://app?vid=ece9f64a-e9d7-49b5-ae3f-2c6dc9247f4c"},"vehicle_type_id":"4","last_reported":1773164261,"current_range_meters":27600,"station_id":"ce4bhlh2rcd13ifvqgig","pricing_plan_id":"cebpf4jnsgd1na2vs0mg"},{"bike_id":"4790e813-52a2-4cc0-a6f6-f563da90463d","system_id":"levelo_inurba_marseille","lat":43.28927,"lon":5.3837,"is_reserved":false,"is_disabled":false,"rental_uris":{"android":"levelo://app?vid=4790e813-52a2-4cc0-a6f6-f563da90463d","ios":"levelo://app?vid=4790e813-52a2-4cc0-a6f6-f563da90463d"},"vehicle_type_id":"4","last_reported":1773164261,"current_range_meters":35600,"station_id":"ce4bh612rcd13ifvqe6g","pricing_plan_id":"cebpf4jnsgd1na2vs0mg"},{"bike_id":"c362226c-b2de-4377-a9e9-4f9590f8d22f","system_id":"levelo_inurba_marseille","lat":43.28843,"lon":5.35852,"is_reserved":false,"is_disabled":false,"rental_uris":{"android":"levelo://app?vid=c362226c-b2de-4377-a9e9-4f9590f8d22f","ios":"levelo://app?vid=c362226c-b2de-4377-a9e9-4f9590f8d22f"},"vehicle_type_id":"4","last_reported":1773164261,"current_range_meters":30800,"station_id":"ce4bhb12rcd13ifvqem0","pricing_plan_id":"cebpf4jnsgd1na2vs0mg"},{"bike_id":"531e89df-7d89-4282-92a7-19804985cdf6","system_id":"levelo_inurba_marseille","lat":43.24809,"lon":5.37436,"is_reserved":false,"is_disabled":false,"rental_uris":{"android":"levelo://app?vid=531e89df-7d89-4282-92a7-19804985cdf6","ios":"levelo://app?vid=531e89df-7d89-4282-92a7-19804985cdf6"},"vehicle_type_id":"4","last_reported":1773164261,"current_range_meters":38800,"station_id":"ce4bhgh2rcd13ifvqfb0","pricing_plan_id":"cebpf4jnsgd1na2vs0mg"},{"bike_id":"9b48402e-3ef0-4e83-aa48-db41cf0891a9","system_id":"levelo_inurba_marseille","lat":43.27064,"lon":5.38306,"is_reserved":false,"is_disabled":false,"rental_uris":{"android":"levelo://app?vid=9b48402e-3ef0-4e83-aa48-db41cf0891a9","ios":"levelo://app?vid=9b48402e-3ef0-4e83-aa48-db41cf0891a9"},"vehicle_type_id":"4","last_reported":1773164261,"current_range_meters":22800,"station_id":"st_d3n2fo6cfp8s73cte1j0","pricing_plan_id":"cebpf4jnsgd1na2vs0mg"},{"bike_id":"0467b541-4bf0-4418-a0e4-d7f3716ba3eb","system_id":"levelo_inurba_marseille","lat":43.29846,"lon":5.36223,"is_reserved":false,"is_disabled":false,"rental_uris":{"android":"levelo://app?vid=0467b541-4bf0-4418-a0e4-d7f3716ba3eb","ios":"levelo://app?vid=0467b541-4bf0-4418-a0e4-d7f3716ba3eb"},"vehicle_type_id":"4","last_reported":1773164261,"current_range_meters":37600,"station_id":"ce4bgpp2rcd13ifvqc3g","pricing_plan_id":"cebpf4jnsgd1na2vs0mg"},{"bike_id":"bbac7ab7-f577-4448-a003-18fc85206414","system_id":"levelo_inurba_marseille","lat":43.28676,"lon":5.38664,"is_reserved":false,"is_disabled":false,"rental_uris":{"android":"levelo://app?vid=bbac7ab7-f577-4448-a003-18fc85206414","ios":"levelo://app?vid=bbac7ab7-f577-4448-a003-18fc85206414"},"vehicle_type_id":"4","last_reported":1773164261,"current_range_meters":12800,"station_id":"ce4bh492rcd13ifvqdug","pricing_plan_id":"cebpf4jnsgd1na2vs0mg"},{"bike_id":"776c7139-46f9-4661-9648-a6d21904bde0","system_id":"levelo_inurba_marseille","lat":43.2954,"lon":5.38534,"is_reserved":false,"is_disabled":false,"rental_uris":{"android":"levelo://app?vid=776c7139-46f9-4661-9648-a6d21904bde0","ios":"levelo://app?vid=776c7139-46f9-4661-9648-a6d21904bde0"},"vehicle_type_id":"4","last_reported":1773164261,"current_range_meters":25200,"station_id":"ce4bgih2rcd13ifvqba0","pricing_plan_id":"cebpf4jnsgd1na2vs0mg"},{"bike_id":"93610280-3e40-40c2-8a0c-0a8ce5075865","system_id":"levelo_inurba_marseille","lat":43.29727,"lon":5.41059,"is_reserved":false,"is_disabled":false,"rental_uris":{"android":"levelo://app?vid=93610280-3e40-40c2-8a0c-0a8ce5075865","ios":"levelo://app?vid=93610280-3e40-40c2-8a0c-0a8ce5075865"},"vehicle_type_id":"4","last_reported":1773164261,"current_range_meters":32800,"station_id":"","pricing_plan_id":"cebpf4jnsgd1na2vs0mg"},{"bike_id":"fa1e7c5c-404c-4548-9815-ed84fd2d7320","system_id":"levelo_inurba_marseille","lat":43.24072,"lon":5.37764,"is_reserved":false,"is_disabled":false,"rental_uris":{"android":"levelo://app?vid=fa1e7c5c-404c-4548-9815-ed84fd2d7320","ios":"levelo://app?vid=fa1e7c5c-404c-4548-9815-ed84fd2d7320"},"vehicle_type_id":"4","last_reported":1773164261,"current_range_meters":25600,"station_id":"ce4bhnp2rcd13ifvqgvg","pricing_plan_id":"cebpf4jnsgd1na2vs0mg"},{"bike_id":"f5b3d1eb-9a86-4abc-aa3a-c86a7de75526","system_id":"levelo_inurba_marseille","lat":43.29776,"lon":5.37102,"is_reserved":false,"is_disabled":false,"rental_uris":{"android":"levelo://app?vid=f5b3d1eb-9a86-4abc-aa3a-c86a7de75526","ios":"levelo://app?vid=f5b3d1eb-9a86-4abc-aa3a-c86a7de75526"},"vehicle_type_id":"4","last_reported":1773164261,"current_range_meters":17600,"station_id":"ce4bgop2rcd13ifvqc1g","pricing_plan_id":"cebpf4jnsgd1na2vs0mg"},{"bike_id":"e93f4d41-dbf7-460f-8e93-0ef17e5cb265","system_id":"levelo_inurba_marseille","lat":43.29632,"lon":5.37725,"is_reserved":false,"is_disabled":false,"rental_uris":{"android":"levelo://app?vid=e93f4d41-dbf7-460f-8e93-0ef17e5cb265","ios":"levelo://app?vid=e93f4d41-dbf7-460f-8e93-0ef17e5cb265"},"vehicle_type_id":"4","last_reported":1773164261,"current_range_meters":31200,"station_id":"ce4bgi92rcd13ifvqb90","pricing_plan_id":"cebpf4jnsgd1na2vs0mg"},{"bike_id":"905cd94e-2347-4c21-891c-949be2f37f85","system_id":"levelo_inurba_marseille","lat":43.29811,"lon":5.4188,"is_reserved":false,"is_disabled":false,"rental_uris":{"android":"levelo://app?vid=905cd94e-2347-4c21-891c-949be2f37f85","ios":"levelo://app?vid=905cd94e-2347-4c21-891c-949be2f37f85"},"vehicle_type_id":"4","last_reported":1773164261,"current_range_meters":33200,"station_id":"","pricing_plan_id":"cebpf4jnsgd1na2vs0mg"},{"bike_id":"e0dc69a6-751b-446d-8ea4-e240757d48e0","system_id":"levelo_inurba_marseille","lat":43.29614,"lon":5.37495,"is_reserved":false,"is_disabled":false,"rental_uris":{"android":"levelo://app?vid=e0dc69a6-751b-446d-8ea4-e240757d48e0","ios":"levelo://app?vid=e0dc69a6-751b-446d-8ea4-e240757d48e0"},"vehicle_type_id":"4","last_reported":1773164261,"current_range_meters":12400,"station_id":"ce4bgh92rcd13ifvqb50","pricing_plan_id":"cebpf4jnsgd1na2vs0mg"},{"bike_id":"f42a059e-5e42-45f9-b8d1-8a99d9e87c13","system_id":"levelo_inurba_marseille","lat":43.2961,"lon":5.38101,"is_reserved":false,"is_disabled":false,"rental_uris":{"android":"levelo://app?vid=f42a059e-5e42-45f9-b8d1-8a99d9e87c13","ios":"levelo://app?vid=f42a059e-5e42-45f9-b8d1-8a99d9e87c13"},"vehicle_type_id":"4","last_reported":1773164261,"current_range_meters":3200,"station_id":"ce4bgl12rcd13ifvqbo0","pricing_plan_id":"cebpf4jnsgd1na2vs0mg"},{"bike_id":"20b79eb8-e78d-4f06-9f31-d6b6c4b067a2","system_id":"levelo_inurba_marseille","lat":43.26069,"lon":5.39363,"is_reserved":false,"is_disabled":false,"rental_uris":{"android":"levelo://app?vid=20b79eb8-e78d-4f06-9f31-d6b6c4b067a2","ios":"levelo://app?vid=20b79eb8-e78d-4f06-9f31-d6b6c4b067a2"},"vehicle_type_id":"4","last_reported":1773164261,"current_range_meters":20400,"station_id":"ce4bhh92rcd13ifvqfj0","pricing_plan_id":"cebpf4jnsgd1na2vs0mg"},{"bike_id":"9dcd69a8-245d-4121-a0fa-05057d3d8876","system_id":"levelo_inurba_marseille","lat":43.28164,"lon":5.42671,"is_reserved":false,"is_disabled":false,"rental_uris":{"android":"levelo://app?vid=9dcd69a8-245d-4121-a0fa-05057d3d8876","ios":"levelo://app?vid=9dcd69a8-245d-4121-a0fa-05057d3d8876"},"vehicle_type_id":"4","last_reported":1773164261,"current_range_meters":25600,"station_id":"ce4bhnh2rcd13ifvqgug","pricing_plan_id":"cebpf4jnsgd1na2vs0mg"},{"bike_id":"413c5488-8e0c-42a5-9c2a-f5011c038966","system_id":"levelo_inurba_marseille","lat":43.2558,"lon":5.38232,"is_reserved":false,"is_disabled":false,"rental_uris":{"android":"levelo://app?vid=413c5488-8e0c-42a5-9c2a-f5011c038966","ios":"levelo://app?vid=413c5488-8e0c-42a5-9c2a-f5011c038966"},"vehicle_type_id":"4","last_reported":1773164261,"current_range_meters":39200,"station_id":"ce4bhih2rcd13ifvqfs0","pricing_plan_id":"cebpf4jnsgd1na2vs0mg"},{"bike_id":"746e0eb6-cb0e-42a4-8d32-3df772ab60dc","system_id":"levelo_inurba_marseille","lat":43.28433,"lon":5.34978,"is_reserved":false,"is_disabled":false,"rental_uris":{"android":"levelo://app?vid=746e0eb6-cb0e-42a4-8d32-3df772ab60dc","ios":"levelo://app?vid=746e0eb6-cb0e-42a4-8d32-3df772ab60dc"},"vehicle_type_id":"4","last_reported":1773164261,"current_range_meters":39200,"station_id":"ce4bhbh2rcd13ifvqepg","pricing_plan_id":"cebpf4jnsgd1na2vs0mg"},{"bike_id":"d9084fab-d9aa-4edd-8989-c2edf4959f5d","system_id":"levelo_inurba_marseille","lat":43.26649,"lon":5.38296,"is_reserved":false,"is_disabled":false,"rental_uris":{"android":"levelo://app?vid=d9084fab-d9aa-4edd-8989-c2edf4959f5d","ios":"levelo://app?vid=d9084fab-d9aa-4edd-8989-c2edf4959f5d"},"vehicle_type_id":"4","last_reported":1773164261,"current_range_meters":39200,"station_id":"ce4bhg92rcd13ifvqf90","pricing_plan_id":"cebpf4jnsgd1na2vs0mg"},{"bike_id":"d600fe0a-56d2-4a7b-8c97-cc5010c8cd24","system_id":"levelo_inurba_marseille","lat":43.3378,"lon":5.3747,"is_reserved":false,"is_disabled":true,"rental_uris":{"android":"levelo://app?vid=d600fe0a-56d2-4a7b-8c97-cc5010c8cd24","ios":"levelo://app?vid=d600fe0a-56d2-4a7b-8c97-cc5010c8cd24"},"vehicle_type_id":"4","last_reported":1773164261,"current_range_meters":38000,"station_id":"","pricing_plan_id":"cebpf4jnsgd1na2vs0mg"},{"bike_id":"6896d8eb-6c9e-4011-bd7c-c8043863197c","system_id":"levelo_inurba_marseille","lat":43.2483,"lon":5.37494,"is_reserved":false,"is_disabled":false,"rental_uris":{"android":"levelo://app?vid=6896d8eb-6c9e-4011-bd7c-c8043863197c","ios":"levelo://app?vid=6896d8eb-6c9e-4011-bd7c-c8043863197c"},"vehicle_type_id":"4","last_reported":1773164261,"current_range_meters":24000,"station_id":"","pricing_plan_id":"cebpf4jnsgd1na2vs0mg"},{"bike_id":"5c62e568-d02b-4a90-93ef-f8e3b6ced1b9","system_id":"levelo_inurba_marseille","lat":43.31874,"lon":5.40012,"is_reserved":false,"is_disabled":false,"rental_uris":{"android":"levelo://app?vid=5c62e568-d02b-4a90-93ef-f8e3b6ced1b9","ios":"levelo://app?vid=5c62e568-d02b-4a90-93ef-f8e3b6ced1b9"},"vehicle_type_id":"4","last_reported":1773164261,"current_range_meters":3600,"station_id":"","pricing_plan_id":"cebpf4jnsgd1na2vs0mg"},{"bike_id":"b18ed379-ba44-425b-aad6-27e68dd68c4b","system_id":"levelo_inurba_marseille","lat":43.29449,"lon":5.39742,"is_reserved":false,"is_disabled":false,"rental_uris":{"android":"levelo://app?vid=b18ed379-ba44-425b-aad6-27e68dd68c4b","ios":"levelo://app?vid=b18ed379-ba44-425b-aad6-27e68dd68c4b"},"vehicle_type_id":"4","last_reported":1773164261,"current_range_meters":38400,"station_id":"ce4bh3h2rcd13ifvqdo0","pricing_plan_id":"cebpf4jnsgd1na2vs0mg"},{"bike_id":"edff2cc4-a071-4a15-bf25-7895bd87b49e","system_id":"levelo_inurba_marseille","lat":43.22571,"lon":5.41628,"is_reserved":false,"is_disabled":false,"rental_uris":{"android":"levelo://app?vid=edff2cc4-a071-4a15-bf25-7895bd87b49e","ios":"levelo://app?vid=edff2cc4-a071-4a15-bf25-7895bd87b49e"},"vehicle_type_id":"4","last_reported":1773164261,"current_range_meters":38800,"station_id":"st_d2o4gvlbi1j2169b742g","pricing_plan_id":"cebpf4jnsgd1na2vs0mg"},{"bike_id":"e4897773-fef9-446d-a205-6ea4308f3d60","system_id":"levelo_inurba_marseille","lat":43.22557,"lon":5.4163,"is_reserved":false,"is_disabled":false,"rental_uris":{"android":"levelo://app?vid=e4897773-fef9-446d-a205-6ea4308f3d60","ios":"levelo://app?vid=e4897773-fef9-446d-a205-6ea4308f3d60"},"vehicle_type_id":"4","last_reported":1773164261,"current_range_meters":4800,"station_id":"st_d2o4gvlbi1j2169b742g","pricing_plan_id":"cebpf4jnsgd1na2vs0mg"},{"bike_id":"33eb8fb3-603e-4c84-a933-cc95f133c3af","system_id":"levelo_inurba_marseille","lat":43.29601,"lon":5.37586,"is_reserved":false,"is_disabled":false,"rental_uris":{"android":"levelo://app?vid=33eb8fb3-603e-4c84-a933-cc95f133c3af","ios":"levelo://app?vid=33eb8fb3-603e-4c84-a933-cc95f133c3af"},"vehicle_type_id":"4","last_reported":1773164261,"current_range_meters":23200,"station_id":"","pricing_plan_id":"cebpf4jnsgd1na2vs0mg"},{"bike_id":"ab87e6ae-e537-453e-9b37-b773a1065a7e","system_id":"levelo_inurba_marseille","lat":43.2536,"lon":5.42223,"is_reserved":false,"is_disabled":false,"rental_uris":{"android":"levelo://app?vid=ab87e6ae-e537-453e-9b37-b773a1065a7e","ios":"levelo://app?vid=ab87e6ae-e537-453e-9b37-b773a1065a7e"},"vehicle_type_id":"4","last_reported":1773164261,"current_range_meters":33600,"station_id":"st_d2m65c5bi1j21697t3ng","pricing_plan_id":"cebpf4jnsgd1na2vs0mg"},{"bike_id":"ef43e318-c00c-44b5-9fb0-7afc200a5f51","system_id":"levelo_inurba_marseille","lat":43.29806,"lon":5.41431,"is_reserved":false,"is_disabled":false,"rental_uris":{"android":"levelo://app?vid=ef43e318-c00c-44b5-9fb0-7afc200a5f51","ios":"levelo://app?vid=ef43e318-c00c-44b5-9fb0-7afc200a5f51"},"vehicle_type_id":"4","last_reported":1773164261,"current_range_meters":38400,"station_id":"","pricing_plan_id":"cebpf4jnsgd1na2vs0mg"},{"bike_id":"2dd8ddd9-664e-4642-9240-247dbfabe4b0","system_id":"levelo_inurba_marseille","lat":43.2909,"lon":5.35585,"is_reserved":false,"is_disabled":false,"rental_uris":{"android":"levelo://app?vid=2dd8ddd9-664e-4642-9240-247dbfabe4b0","ios":"levelo://app?vid=2dd8ddd9-664e-4642-9240-247dbfabe4b0"},"vehicle_type_id":"4","last_reported":1773164261,"current_range_meters":12000,"station_id":"ce4bhb92rcd13ifvqen0","pricing_plan_id":"cebpf4jnsgd1na2vs0mg"},{"bike_id":"8e3c2f1a-8623-4c90-9593-ce76775dbeef","system_id":"levelo_inurba_marseille","lat":43.2708,"lon":5.40288,"is_reserved":false,"is_disabled":false,"rental_uris":{"android":"levelo://app?vid=8e3c2f1a-8623-4c90-9593-ce76775dbeef","ios":"levelo://app?vid=8e3c2f1a-8623-4c90-9593-ce76775dbeef"},"vehicle_type_id":"4","last_reported":1773164261,"current_range_meters":30000,"station_id":"ce4bhk92rcd13ifvqgc0","pricing_plan_id":"cebpf4jnsgd1na2vs0mg"},{"bike_id":"e594ab4f-99d7-486f-a0b3-3cdbb6a3f196","system_id":"levelo_inurba_marseille","lat":43.28473,"lon":5.48403,"is_reserved":false,"is_disabled":false,"rental_uris":{"android":"levelo://app?vid=e594ab4f-99d7-486f-a0b3-3cdbb6a3f196","ios":"levelo://app?vid=e594ab4f-99d7-486f-a0b3-3cdbb6a3f196"},"vehicle_type_id":"4","last_reported":1773164261,"current_range_meters":32800,"station_id":"","pricing_plan_id":"cebpf4jnsgd1na2vs0mg"},{"bike_id":"88f8f69f-0b19-4e26-b645-04516592598b","system_id":"levelo_inurba_marseille","lat":43.25334,"lon":5.42171,"is_reserved":false,"is_disabled":false,"rental_uris":{"android":"levelo://app?vid=88f8f69f-0b19-4e26-b645-04516592598b","ios":"levelo://app?vid=88f8f69f-0b19-4e26-b645-04516592598b"},"vehicle_type_id":"4","last_reported":1773164261,"current_range_meters":14400,"station_id":"st_d2m65c5bi1j21697t3ng","pricing_plan_id":"cebpf4jnsgd1na2vs0mg"},{"bike_id":"11f1fdce-9987-446d-9ecb-d09d969f4ba8","system_id":"levelo_inurba_marseille","lat":43.28436,"lon":5.48424,"is_reserved":false,"is_disabled":false,"rental_uris":{"android":"levelo://app?vid=11f1fdce-9987-446d-9ecb-d09d969f4ba8","ios":"levelo://app?vid=11f1fdce-9987-446d-9ecb-d09d969f4ba8"},"vehicle_type_id":"4","last_reported":1773164261,"current_range_meters":34800,"station_id":"","pricing_plan_id":"cebpf4jnsgd1na2vs0mg"},{"bike_id":"57da3ae9-5ad3-4451-a8fc-ae54a96ca841","system_id":"levelo_inurba_marseille","lat":43.28465,"lon":5.35873,"is_reserved":false,"is_disabled":false,"rental_uris":{"android":"levelo://app?vid=57da3ae9-5ad3-4451-a8fc-ae54a96ca841","ios":"levelo://app?vid=57da3ae9-5ad3-4451-a8fc-ae54a96ca841"},"vehicle_type_id":"4","last_reported":1773164261,"current_range_meters":39200,"station_id":"ce4bhah2rcd13ifvqei0","pricing_plan_id":"cebpf4jnsgd1na2vs0mg"},{"bike_id":"08c4662f-b8a6-4676-a2aa-27498ff34122","system_id":"levelo_inurba_marseille","lat":43.32091,"lon":5.36807,"is_reserved":false,"is_disabled":false,"rental_uris":{"android":"levelo://app?vid=08c4662f-b8a6-4676-a2aa-27498ff34122","ios":"levelo://app?vid=08c4662f-b8a6-4676-a2aa-27498ff34122"},"vehicle_type_id":"4","last_reported":1773164261,"current_range_meters":24800,"station_id":"ce4bhrh2rcd13ifvqhug","pricing_plan_id":"cebpf4jnsgd1na2vs0mg"},{"bike_id":"9a0031d7-25bf-4e8c-94ff-4784503d9cac","system_id":"levelo_inurba_marseille","lat":43.24355,"lon":5.44112,"is_reserved":false,"is_disabled":false,"rental_uris":{"android":"levelo://app?vid=9a0031d7-25bf-4e8c-94ff-4784503d9cac","ios":"levelo://app?vid=9a0031d7-25bf-4e8c-94ff-4784503d9cac"},"vehicle_type_id":"4","last_reported":1773164261,"current_range_meters":12000,"station_id":"","pricing_plan_id":"cebpf4jnsgd1na2vs0mg"},{"bike_id":"ecbe9c0d-9237-4615-9940-c3eb63842d13","system_id":"levelo_inurba_marseille","lat":43.25001,"lon":5.38947,"is_reserved":false,"is_disabled":false,"rental_uris":{"android":"levelo://app?vid=ecbe9c0d-9237-4615-9940-c3eb63842d13","ios":"levelo://app?vid=ecbe9c0d-9237-4615-9940-c3eb63842d13"},"vehicle_type_id":"4","last_reported":1773164261,"current_range_meters":16400,"station_id":"ce4bhgp2rcd13ifvqfd0","pricing_plan_id":"cebpf4jnsgd1na2vs0mg"},{"bike_id":"a4ac0994-f67b-418c-ae84-2c57373d3898","system_id":"levelo_inurba_marseille","lat":43.306433,"lon":5.401034,"is_reserved":false,"is_disabled":false,"rental_uris":{"android":"levelo://app?vid=a4ac0994-f67b-418c-ae84-2c57373d3898","ios":"levelo://app?vid=a4ac0994-f67b-418c-ae84-2c57373d3898"},"vehicle_type_id":"4","last_reported":1773164261,"current_range_meters":29600,"station_id":"ce4bh112rcd13ifvqda0","pricing_plan_id":"cebpf4jnsgd1na2vs0mg"},{"bike_id":"cad85399-ce9b-4502-a9d5-67d50bad52cc","system_id":"levelo_inurba_marseille","lat":43.22936,"lon":5.35377,"is_reserved":false,"is_disabled":false,"rental_uris":{"android":"levelo://app?vid=cad85399-ce9b-4502-a9d5-67d50bad52cc","ios":"levelo://app?vid=cad85399-ce9b-4502-a9d5-67d50bad52cc"},"vehicle_type_id":"4","last_reported":1773164261,"current_range_meters":18800,"station_id":"cpo3532slgdg3j2ikp40","pricing_plan_id":"cebpf4jnsgd1na2vs0mg"},{"bike_id":"233070bd-d63a-484b-ac5f-4e4cfc50e592","system_id":"levelo_inurba_marseille","lat":43.26674,"lon":5.38325,"is_reserved":false,"is_disabled":false,"rental_uris":{"android":"levelo://app?vid=233070bd-d63a-484b-ac5f-4e4cfc50e592","ios":"levelo://app?vid=233070bd-d63a-484b-ac5f-4e4cfc50e592"},"vehicle_type_id":"4","last_reported":1773164261,"current_range_meters":30400,"station_id":"ce4bhg92rcd13ifvqf90","pricing_plan_id":"cebpf4jnsgd1na2vs0mg"},{"bike_id":"f8dcf932-e5a5-4919-a259-b3f403784a9a","system_id":"levelo_inurba_marseille","lat":43.26931,"lon":5.40248,"is_reserved":false,"is_disabled":false,"rental_uris":{"android":"levelo://app?vid=f8dcf932-e5a5-4919-a259-b3f403784a9a","ios":"levelo://app?vid=f8dcf932-e5a5-4919-a259-b3f403784a9a"},"vehicle_type_id":"4","last_reported":1773164261,"current_range_meters":18000,"station_id":"cjm6bp8fraef2m0cb0m0","pricing_plan_id":"cebpf4jnsgd1na2vs0mg"},{"bike_id":"ea21537d-918a-492c-a00d-aa6c3e5c9df0","system_id":"levelo_inurba_marseille","lat":43.22566,"lon":5.41618,"is_reserved":false,"is_disabled":false,"rental_uris":{"android":"levelo://app?vid=ea21537d-918a-492c-a00d-aa6c3e5c9df0","ios":"levelo://app?vid=ea21537d-918a-492c-a00d-aa6c3e5c9df0"},"vehicle_type_id":"4","last_reported":1773164261,"current_range_meters":22000,"station_id":"st_d2o4gvlbi1j2169b742g","pricing_plan_id":"cebpf4jnsgd1na2vs0mg"},{"bike_id":"3887f0e5-b1a9-4a0a-b738-db47362e69b5","system_id":"levelo_inurba_marseille","lat":43.26493,"lon":5.39565,"is_reserved":false,"is_disabled":false,"rental_uris":{"android":"levelo://app?vid=3887f0e5-b1a9-4a0a-b738-db47362e69b5","ios":"levelo://app?vid=3887f0e5-b1a9-4a0a-b738-db47362e69b5"},"vehicle_type_id":"4","last_reported":1773164261,"current_range_meters":30400,"station_id":"ce4bhi12rcd13ifvqfq0","pricing_plan_id":"cebpf4jnsgd1na2vs0mg"},{"bike_id":"04d68502-e0df-44ef-98ff-8751e9131415","system_id":"levelo_inurba_marseille","lat":43.24161,"lon":5.364,"is_reserved":false,"is_disabled":false,"rental_uris":{"android":"levelo://app?vid=04d68502-e0df-44ef-98ff-8751e9131415","ios":"levelo://app?vid=04d68502-e0df-44ef-98ff-8751e9131415"},"vehicle_type_id":"4","last_reported":1773164261,"current_range_meters":19200,"station_id":"cpo36qri1sfpv3e86is0","pricing_plan_id":"cebpf4jnsgd1na2vs0mg"},{"bike_id":"53c3c43d-a8df-40a0-a9b7-1df58d7e3850","system_id":"levelo_inurba_marseille","lat":43.29528,"lon":5.39038,"is_reserved":false,"is_disabled":false,"rental_uris":{"android":"levelo://app?vid=53c3c43d-a8df-40a0-a9b7-1df58d7e3850","ios":"levelo://app?vid=53c3c43d-a8df-40a0-a9b7-1df58d7e3850"},"vehicle_type_id":"4","last_reported":1773164261,"current_range_meters":37600,"station_id":"ce4bh3p2rcd13ifvqdp0","pricing_plan_id":"cebpf4jnsgd1na2vs0mg"},{"bike_id":"6bf6f04e-8be7-4fd1-8df7-e0ba6996645a","system_id":"levelo_inurba_marseille","lat":43.29908,"lon":5.38142,"is_reserved":false,"is_disabled":false,"rental_uris":{"android":"levelo://app?vid=6bf6f04e-8be7-4fd1-8df7-e0ba6996645a","ios":"levelo://app?vid=6bf6f04e-8be7-4fd1-8df7-e0ba6996645a"},"vehicle_type_id":"4","last_reported":1773164261,"current_range_meters":21600,"station_id":"ce4bgj12rcd13ifvqbc0","pricing_plan_id":"cebpf4jnsgd1na2vs0mg"},{"bike_id":"75fdfb90-ee0d-47d3-af9a-0975dd074a09","system_id":"levelo_inurba_marseille","lat":43.23141,"lon":5.43744,"is_reserved":false,"is_disabled":false,"rental_uris":{"android":"levelo://app?vid=75fdfb90-ee0d-47d3-af9a-0975dd074a09","ios":"levelo://app?vid=75fdfb90-ee0d-47d3-af9a-0975dd074a09"},"vehicle_type_id":"4","last_reported":1773164261,"current_range_meters":25200,"station_id":"ce4bhmp2rcd13ifvqgog","pricing_plan_id":"cebpf4jnsgd1na2vs0mg"},{"bike_id":"e4fb4206-bd3b-4666-a857-d85bc7288c6f","system_id":"levelo_inurba_marseille","lat":43.30383,"lon":5.42494,"is_reserved":false,"is_disabled":false,"rental_uris":{"android":"levelo://app?vid=e4fb4206-bd3b-4666-a857-d85bc7288c6f","ios":"levelo://app?vid=e4fb4206-bd3b-4666-a857-d85bc7288c6f"},"vehicle_type_id":"4","last_reported":1773164261,"current_range_meters":36400,"station_id":"ce4bhoh2rcd13ifvqh6g","pricing_plan_id":"cebpf4jnsgd1na2vs0mg"},{"bike_id":"072f5be3-e2d3-4243-a280-aa67dfb573ae","system_id":"levelo_inurba_marseille","lat":43.31203,"lon":5.37693,"is_reserved":false,"is_disabled":false,"rental_uris":{"android":"levelo://app?vid=072f5be3-e2d3-4243-a280-aa67dfb573ae","ios":"levelo://app?vid=072f5be3-e2d3-4243-a280-aa67dfb573ae"},"vehicle_type_id":"4","last_reported":1773164261,"current_range_meters":34000,"station_id":"","pricing_plan_id":"cebpf4jnsgd1na2vs0mg"},{"bike_id":"f069985b-4c79-4175-9e28-889f5d37f2db","system_id":"levelo_inurba_marseille","lat":43.26665,"lon":5.38334,"is_reserved":false,"is_disabled":false,"rental_uris":{"android":"levelo://app?vid=f069985b-4c79-4175-9e28-889f5d37f2db","ios":"levelo://app?vid=f069985b-4c79-4175-9e28-889f5d37f2db"},"vehicle_type_id":"4","last_reported":1773164261,"current_range_meters":21600,"station_id":"","pricing_plan_id":"cebpf4jnsgd1na2vs0mg"},{"bike_id":"56c28435-14f4-4036-93e7-9a447a8b0e88","system_id":"levelo_inurba_marseille","lat":43.29377,"lon":5.37868,"is_reserved":false,"is_disabled":true,"rental_uris":{"android":"levelo://app?vid=56c28435-14f4-4036-93e7-9a447a8b0e88","ios":"levelo://app?vid=56c28435-14f4-4036-93e7-9a447a8b0e88"},"vehicle_type_id":"4","last_reported":1773164261,"current_range_meters":27600,"station_id":"ce4bgjh2rcd13ifvqbf0","pricing_plan_id":"cebpf4jnsgd1na2vs0mg"},{"bike_id":"e9fd6972-e022-4385-80c1-64b318e81f36","system_id":"levelo_inurba_marseille","lat":43.25478,"lon":5.37683,"is_reserved":false,"is_disabled":false,"rental_uris":{"android":"levelo://app?vid=e9fd6972-e022-4385-80c1-64b318e81f36","ios":"levelo://app?vid=e9fd6972-e022-4385-80c1-64b318e81f36"},"vehicle_type_id":"4","last_reported":1773164261,"current_range_meters":39200,"station_id":"ce4bhh12rcd13ifvqff0","pricing_plan_id":"cebpf4jnsgd1na2vs0mg"},{"bike_id":"41abed9b-3538-4422-a875-47428f666356","system_id":"levelo_inurba_marseille","lat":43.29535,"lon":5.39038,"is_reserved":false,"is_disabled":false,"rental_uris":{"android":"levelo://app?vid=41abed9b-3538-4422-a875-47428f666356","ios":"levelo://app?vid=41abed9b-3538-4422-a875-47428f666356"},"vehicle_type_id":"4","last_reported":1773164261,"current_range_meters":17600,"station_id":"ce4bh3p2rcd13ifvqdp0","pricing_plan_id":"cebpf4jnsgd1na2vs0mg"},{"bike_id":"fdf83602-b025-4213-81e9-4a92eba6752b","system_id":"levelo_inurba_marseille","lat":43.29629,"lon":5.37162,"is_reserved":false,"is_disabled":false,"rental_uris":{"android":"levelo://app?vid=fdf83602-b025-4213-81e9-4a92eba6752b","ios":"levelo://app?vid=fdf83602-b025-4213-81e9-4a92eba6752b"},"vehicle_type_id":"4","last_reported":1773164261,"current_range_meters":32000,"station_id":"ce4bgnh2rcd13ifvqc0g","pricing_plan_id":"cebpf4jnsgd1na2vs0mg"},{"bike_id":"7e3bb1c1-f504-4b29-b169-7e546daec31f","system_id":"levelo_inurba_marseille","lat":43.24807,"lon":5.3744,"is_reserved":false,"is_disabled":false,"rental_uris":{"android":"levelo://app?vid=7e3bb1c1-f504-4b29-b169-7e546daec31f","ios":"levelo://app?vid=7e3bb1c1-f504-4b29-b169-7e546daec31f"},"vehicle_type_id":"4","last_reported":1773164261,"current_range_meters":35200,"station_id":"ce4bhgh2rcd13ifvqfb0","pricing_plan_id":"cebpf4jnsgd1na2vs0mg"},{"bike_id":"5ec941bb-869a-4f1b-aa5f-942521973d3a","system_id":"levelo_inurba_marseille","lat":43.28068,"lon":5.39644,"is_reserved":false,"is_disabled":false,"rental_uris":{"android":"levelo://app?vid=5ec941bb-869a-4f1b-aa5f-942521973d3a","ios":"levelo://app?vid=5ec941bb-869a-4f1b-aa5f-942521973d3a"},"vehicle_type_id":"4","last_reported":1773164261,"current_range_meters":25200,"station_id":"ce4bho12rcd13ifvqh2g","pricing_plan_id":"cebpf4jnsgd1na2vs0mg"},{"bike_id":"79ce6a44-61dd-477c-aa0b-1a849bd10fcb","system_id":"levelo_inurba_marseille","lat":43.28465,"lon":5.48379,"is_reserved":false,"is_disabled":false,"rental_uris":{"android":"levelo://app?vid=79ce6a44-61dd-477c-aa0b-1a849bd10fcb","ios":"levelo://app?vid=79ce6a44-61dd-477c-aa0b-1a849bd10fcb"},"vehicle_type_id":"4","last_reported":1773164261,"current_range_meters":25200,"station_id":"","pricing_plan_id":"cebpf4jnsgd1na2vs0mg"},{"bike_id":"ac8308a4-f739-4875-98d8-249fe4c0d891","system_id":"levelo_inurba_marseille","lat":43.32496,"lon":5.36574,"is_reserved":false,"is_disabled":false,"rental_uris":{"android":"levelo://app?vid=ac8308a4-f739-4875-98d8-249fe4c0d891","ios":"levelo://app?vid=ac8308a4-f739-4875-98d8-249fe4c0d891"},"vehicle_type_id":"4","last_reported":1773164261,"current_range_meters":39200,"station_id":"ce4bhs12rcd13ifvqhvg","pricing_plan_id":"cebpf4jnsgd1na2vs0mg"},{"bike_id":"fa1cdcc0-5784-43e4-8fa1-da0327b3cd8e","system_id":"levelo_inurba_marseille","lat":43.28628,"lon":5.35101,"is_reserved":false,"is_disabled":false,"rental_uris":{"android":"levelo://app?vid=fa1cdcc0-5784-43e4-8fa1-da0327b3cd8e","ios":"levelo://app?vid=fa1cdcc0-5784-43e4-8fa1-da0327b3cd8e"},"vehicle_type_id":"4","last_reported":1773164261,"current_range_meters":21600,"station_id":"ce4bhch2rcd13ifvqeug","pricing_plan_id":"cebpf4jnsgd1na2vs0mg"},{"bike_id":"56e934f8-1611-4f0a-86cb-381dca45d0d4","system_id":"levelo_inurba_marseille","lat":43.30448,"lon":5.37907,"is_reserved":false,"is_disabled":false,"rental_uris":{"android":"levelo://app?vid=56e934f8-1611-4f0a-86cb-381dca45d0d4","ios":"levelo://app?vid=56e934f8-1611-4f0a-86cb-381dca45d0d4"},"vehicle_type_id":"4","last_reported":1773164261,"current_range_meters":39200,"station_id":"ce4bgup2rcd13ifvqcn0","pricing_plan_id":"cebpf4jnsgd1na2vs0mg"},{"bike_id":"b90f38ee-f54f-4d3b-8466-f61d97e001ad","system_id":"levelo_inurba_marseille","lat":43.30147,"lon":5.374129,"is_reserved":false,"is_disabled":false,"rental_uris":{"android":"levelo://app?vid=b90f38ee-f54f-4d3b-8466-f61d97e001ad","ios":"levelo://app?vid=b90f38ee-f54f-4d3b-8466-f61d97e001ad"},"vehicle_type_id":"4","last_reported":1773164261,"current_range_meters":28800,"station_id":"ce4bgs92rcd13ifvqcc0","pricing_plan_id":"cebpf4jnsgd1na2vs0mg"},{"bike_id":"6966191e-2a59-4d90-83f5-9dbb328087a0","system_id":"levelo_inurba_marseille","lat":43.28475,"lon":5.4839,"is_reserved":false,"is_disabled":false,"rental_uris":{"android":"levelo://app?vid=6966191e-2a59-4d90-83f5-9dbb328087a0","ios":"levelo://app?vid=6966191e-2a59-4d90-83f5-9dbb328087a0"},"vehicle_type_id":"4","last_reported":1773164261,"current_range_meters":4400,"station_id":"","pricing_plan_id":"cebpf4jnsgd1na2vs0mg"},{"bike_id":"7d9f1061-bd43-4605-8e4f-ccef667472c2","system_id":"levelo_inurba_marseille","lat":43.2656,"lon":5.39035,"is_reserved":false,"is_disabled":false,"rental_uris":{"android":"levelo://app?vid=7d9f1061-bd43-4605-8e4f-ccef667472c2","ios":"levelo://app?vid=7d9f1061-bd43-4605-8e4f-ccef667472c2"},"vehicle_type_id":"4","last_reported":1773164261,"current_range_meters":34800,"station_id":"ce4bhe12rcd13ifvqf30","pricing_plan_id":"cebpf4jnsgd1na2vs0mg"},{"bike_id":"ae8c2c59-9028-42e6-91ce-13800f4d3d68","system_id":"levelo_inurba_marseille","lat":43.2901,"lon":5.38129,"is_reserved":false,"is_disabled":false,"rental_uris":{"android":"levelo://app?vid=ae8c2c59-9028-42e6-91ce-13800f4d3d68","ios":"levelo://app?vid=ae8c2c59-9028-42e6-91ce-13800f4d3d68"},"vehicle_type_id":"4","last_reported":1773164261,"current_range_meters":6000,"station_id":"ce4bh4p2rcd13ifvqe1g","pricing_plan_id":"cebpf4jnsgd1na2vs0mg"},{"bike_id":"c67245cb-2170-4bce-8da2-b23385e30ee9","system_id":"levelo_inurba_marseille","lat":43.29706,"lon":5.42538,"is_reserved":false,"is_disabled":false,"rental_uris":{"android":"levelo://app?vid=c67245cb-2170-4bce-8da2-b23385e30ee9","ios":"levelo://app?vid=c67245cb-2170-4bce-8da2-b23385e30ee9"},"vehicle_type_id":"4","last_reported":1773164261,"current_range_meters":14800,"station_id":"","pricing_plan_id":"cebpf4jnsgd1na2vs0mg"},{"bike_id":"7efcf4c7-49f4-4be3-9e95-91715385053b","system_id":"levelo_inurba_marseille","lat":43.30342,"lon":5.36927,"is_reserved":false,"is_disabled":false,"rental_uris":{"android":"levelo://app?vid=7efcf4c7-49f4-4be3-9e95-91715385053b","ios":"levelo://app?vid=7efcf4c7-49f4-4be3-9e95-91715385053b"},"vehicle_type_id":"4","last_reported":1773164261,"current_range_meters":17200,"station_id":"ce4bgqh2rcd13ifvqc5g","pricing_plan_id":"cebpf4jnsgd1na2vs0mg"},{"bike_id":"b7e35d72-969e-4bf5-a3a7-5c6489e97a1a","system_id":"levelo_inurba_marseille","lat":43.23202,"lon":5.35543,"is_reserved":false,"is_disabled":false,"rental_uris":{"android":"levelo://app?vid=b7e35d72-969e-4bf5-a3a7-5c6489e97a1a","ios":"levelo://app?vid=b7e35d72-969e-4bf5-a3a7-5c6489e97a1a"},"vehicle_type_id":"4","last_reported":1773164261,"current_range_meters":38400,"station_id":"ce4bhu92rcd13ifvqi70","pricing_plan_id":"cebpf4jnsgd1na2vs0mg"},{"bike_id":"80dfbe66-fa9a-47b5-a214-6418b9c10c14","system_id":"levelo_inurba_marseille","lat":43.31328,"lon":5.3969,"is_reserved":false,"is_disabled":false,"rental_uris":{"android":"levelo://app?vid=80dfbe66-fa9a-47b5-a214-6418b9c10c14","ios":"levelo://app?vid=80dfbe66-fa9a-47b5-a214-6418b9c10c14"},"vehicle_type_id":"4","last_reported":1773164261,"current_range_meters":19600,"station_id":"ce4bgvp2rcd13ifvqcu0","pricing_plan_id":"cebpf4jnsgd1na2vs0mg"},{"bike_id":"d216debe-13ad-497c-9809-383a47cc5ef9","system_id":"levelo_inurba_marseille","lat":43.32359,"lon":5.36753,"is_reserved":false,"is_disabled":false,"rental_uris":{"android":"levelo://app?vid=d216debe-13ad-497c-9809-383a47cc5ef9","ios":"levelo://app?vid=d216debe-13ad-497c-9809-383a47cc5ef9"},"vehicle_type_id":"4","last_reported":1773164261,"current_range_meters":38000,"station_id":"ce4bhsh2rcd13ifvqi2g","pricing_plan_id":"cebpf4jnsgd1na2vs0mg"},{"bike_id":"e93e4b05-492f-4c51-865b-dc3c2bd2e4bd","system_id":"levelo_inurba_marseille","lat":43.25346,"lon":5.42171,"is_reserved":false,"is_disabled":false,"rental_uris":{"android":"levelo://app?vid=e93e4b05-492f-4c51-865b-dc3c2bd2e4bd","ios":"levelo://app?vid=e93e4b05-492f-4c51-865b-dc3c2bd2e4bd"},"vehicle_type_id":"4","last_reported":1773164261,"current_range_meters":30800,"station_id":"st_d2m65c5bi1j21697t3ng","pricing_plan_id":"cebpf4jnsgd1na2vs0mg"},{"bike_id":"77cce443-3f90-4239-836a-70a21471f733","system_id":"levelo_inurba_marseille","lat":43.27063,"lon":5.38302,"is_reserved":false,"is_disabled":false,"rental_uris":{"android":"levelo://app?vid=77cce443-3f90-4239-836a-70a21471f733","ios":"levelo://app?vid=77cce443-3f90-4239-836a-70a21471f733"},"vehicle_type_id":"4","last_reported":1773164261,"current_range_meters":33200,"station_id":"st_d3n2fo6cfp8s73cte1j0","pricing_plan_id":"cebpf4jnsgd1na2vs0mg"},{"bike_id":"5dc10d3b-d152-4b43-a148-8bf3d9e14a39","system_id":"levelo_inurba_marseille","lat":43.24184,"lon":5.36436,"is_reserved":false,"is_disabled":false,"rental_uris":{"android":"levelo://app?vid=5dc10d3b-d152-4b43-a148-8bf3d9e14a39","ios":"levelo://app?vid=5dc10d3b-d152-4b43-a148-8bf3d9e14a39"},"vehicle_type_id":"4","last_reported":1773164261,"current_range_meters":20400,"station_id":"cpo36qri1sfpv3e86is0","pricing_plan_id":"cebpf4jnsgd1na2vs0mg"},{"bike_id":"b1b72e65-4541-4aa5-9464-619c22b58492","system_id":"levelo_inurba_marseille","lat":43.27574,"lon":5.39623,"is_reserved":false,"is_disabled":false,"rental_uris":{"android":"levelo://app?vid=b1b72e65-4541-4aa5-9464-619c22b58492","ios":"levelo://app?vid=b1b72e65-4541-4aa5-9464-619c22b58492"},"vehicle_type_id":"4","last_reported":1773164261,"current_range_meters":27200,"station_id":"","pricing_plan_id":"cebpf4jnsgd1na2vs0mg"},{"bike_id":"f9a68242-23fc-4cd9-b53d-f178755c0970","system_id":"levelo_inurba_marseille","lat":43.244,"lon":5.3704,"is_reserved":false,"is_disabled":false,"rental_uris":{"android":"levelo://app?vid=f9a68242-23fc-4cd9-b53d-f178755c0970","ios":"levelo://app?vid=f9a68242-23fc-4cd9-b53d-f178755c0970"},"vehicle_type_id":"4","last_reported":1773164261,"current_range_meters":12000,"station_id":"ce4bhhh2rcd13ifvqfk0","pricing_plan_id":"cebpf4jnsgd1na2vs0mg"},{"bike_id":"2882ff64-4b69-4646-94c7-860d0be78035","system_id":"levelo_inurba_marseille","lat":43.29288,"lon":5.37427,"is_reserved":false,"is_disabled":false,"rental_uris":{"android":"levelo://app?vid=2882ff64-4b69-4646-94c7-860d0be78035","ios":"levelo://app?vid=2882ff64-4b69-4646-94c7-860d0be78035"},"vehicle_type_id":"4","last_reported":1773164261,"current_range_meters":28400,"station_id":"ce4bgi12rcd13ifvqb70","pricing_plan_id":"cebpf4jnsgd1na2vs0mg"},{"bike_id":"beae6932-1cb2-42f4-a0be-e7fa4a6e5cad","system_id":"levelo_inurba_marseille","lat":43.25007,"lon":5.38945,"is_reserved":false,"is_disabled":false,"rental_uris":{"android":"levelo://app?vid=beae6932-1cb2-42f4-a0be-e7fa4a6e5cad","ios":"levelo://app?vid=beae6932-1cb2-42f4-a0be-e7fa4a6e5cad"},"vehicle_type_id":"4","last_reported":1773164261,"current_range_meters":39200,"station_id":"ce4bhgp2rcd13ifvqfd0","pricing_plan_id":"cebpf4jnsgd1na2vs0mg"},{"bike_id":"cbef5c0b-d109-4c17-ab0b-db0d45f1dcb1","system_id":"levelo_inurba_marseille","lat":43.30531,"lon":5.36732,"is_reserved":false,"is_disabled":false,"rental_uris":{"android":"levelo://app?vid=cbef5c0b-d109-4c17-ab0b-db0d45f1dcb1","ios":"levelo://app?vid=cbef5c0b-d109-4c17-ab0b-db0d45f1dcb1"},"vehicle_type_id":"4","last_reported":1773164261,"current_range_meters":12000,"station_id":"ce4bgrp2rcd13ifvqc9g","pricing_plan_id":"cebpf4jnsgd1na2vs0mg"},{"bike_id":"0976d995-0bd5-4a37-a12f-7573097cdbbf","system_id":"levelo_inurba_marseille","lat":43.24401,"lon":5.37097,"is_reserved":false,"is_disabled":false,"rental_uris":{"android":"levelo://app?vid=0976d995-0bd5-4a37-a12f-7573097cdbbf","ios":"levelo://app?vid=0976d995-0bd5-4a37-a12f-7573097cdbbf"},"vehicle_type_id":"4","last_reported":1773164261,"current_range_meters":37600,"station_id":"ce4bhhh2rcd13ifvqfk0","pricing_plan_id":"cebpf4jnsgd1na2vs0mg"},{"bike_id":"d3b471e2-eaea-40d6-b207-95b0d07845f0","system_id":"levelo_inurba_marseille","lat":43.27946,"lon":5.41048,"is_reserved":false,"is_disabled":false,"rental_uris":{"android":"levelo://app?vid=d3b471e2-eaea-40d6-b207-95b0d07845f0","ios":"levelo://app?vid=d3b471e2-eaea-40d6-b207-95b0d07845f0"},"vehicle_type_id":"4","last_reported":1773164261,"current_range_meters":5600,"station_id":"ce4bhnp2rcd13ifvqh0g","pricing_plan_id":"cebpf4jnsgd1na2vs0mg"},{"bike_id":"6adc31c4-5cfa-4d5b-a4ca-9f1f649c5b2c","system_id":"levelo_inurba_marseille","lat":43.29799,"lon":5.42687,"is_reserved":false,"is_disabled":false,"rental_uris":{"android":"levelo://app?vid=6adc31c4-5cfa-4d5b-a4ca-9f1f649c5b2c","ios":"levelo://app?vid=6adc31c4-5cfa-4d5b-a4ca-9f1f649c5b2c"},"vehicle_type_id":"4","last_reported":1773164261,"current_range_meters":4000,"station_id":"","pricing_plan_id":"cebpf4jnsgd1na2vs0mg"},{"bike_id":"e7508d4d-eb46-4bdd-b604-ab6ac41759c5","system_id":"levelo_inurba_marseille","lat":43.27376,"lon":5.36257,"is_reserved":false,"is_disabled":false,"rental_uris":{"android":"levelo://app?vid=e7508d4d-eb46-4bdd-b604-ab6ac41759c5","ios":"levelo://app?vid=e7508d4d-eb46-4bdd-b604-ab6ac41759c5"},"vehicle_type_id":"4","last_reported":1773164261,"current_range_meters":2800,"station_id":"ce4bhbh2rcd13ifvqeo0","pricing_plan_id":"cebpf4jnsgd1na2vs0mg"},{"bike_id":"f6bf9564-52b6-4a7a-a275-e35fdff422de","system_id":"levelo_inurba_marseille","lat":43.3237,"lon":5.36764,"is_reserved":false,"is_disabled":false,"rental_uris":{"android":"levelo://app?vid=f6bf9564-52b6-4a7a-a275-e35fdff422de","ios":"levelo://app?vid=f6bf9564-52b6-4a7a-a275-e35fdff422de"},"vehicle_type_id":"4","last_reported":1773164261,"current_range_meters":4000,"station_id":"ce4bhsh2rcd13ifvqi2g","pricing_plan_id":"cebpf4jnsgd1na2vs0mg"},{"bike_id":"6aa36d9f-70c1-4c9d-8b61-bc5c0dc04dda","system_id":"levelo_inurba_marseille","lat":43.28839,"lon":5.35902,"is_reserved":false,"is_disabled":false,"rental_uris":{"android":"levelo://app?vid=6aa36d9f-70c1-4c9d-8b61-bc5c0dc04dda","ios":"levelo://app?vid=6aa36d9f-70c1-4c9d-8b61-bc5c0dc04dda"},"vehicle_type_id":"4","last_reported":1773164261,"current_range_meters":36400,"station_id":"","pricing_plan_id":"cebpf4jnsgd1na2vs0mg"},{"bike_id":"2564c1c9-01d0-4cc8-af33-cb04d53dfb74","system_id":"levelo_inurba_marseille","lat":43.27075,"lon":5.42297,"is_reserved":false,"is_disabled":false,"rental_uris":{"android":"levelo://app?vid=2564c1c9-01d0-4cc8-af33-cb04d53dfb74","ios":"levelo://app?vid=2564c1c9-01d0-4cc8-af33-cb04d53dfb74"},"vehicle_type_id":"4","last_reported":1773164261,"current_range_meters":10800,"station_id":"ce4bhk92rcd13ifvqgb0","pricing_plan_id":"cebpf4jnsgd1na2vs0mg"},{"bike_id":"e0895cfa-58f2-410b-9447-f6faa5ea96de","system_id":"levelo_inurba_marseille","lat":43.29541,"lon":5.38545,"is_reserved":false,"is_disabled":false,"rental_uris":{"android":"levelo://app?vid=e0895cfa-58f2-410b-9447-f6faa5ea96de","ios":"levelo://app?vid=e0895cfa-58f2-410b-9447-f6faa5ea96de"},"vehicle_type_id":"4","last_reported":1773164261,"current_range_meters":39200,"station_id":"ce4bgih2rcd13ifvqba0","pricing_plan_id":"cebpf4jnsgd1na2vs0mg"},{"bike_id":"1ed78316-1378-4cf1-89dc-82486992174d","system_id":"levelo_inurba_marseille","lat":43.279694,"lon":5.387333,"is_reserved":false,"is_disabled":false,"rental_uris":{"android":"levelo://app?vid=1ed78316-1378-4cf1-89dc-82486992174d","ios":"levelo://app?vid=1ed78316-1378-4cf1-89dc-82486992174d"},"vehicle_type_id":"4","last_reported":1773164261,"current_range_meters":17600,"station_id":"ce4bhg12rcd13ifvqf80","pricing_plan_id":"cebpf4jnsgd1na2vs0mg"},{"bike_id":"d11c2b21-3699-4e7d-a1d0-26a0401e2028","system_id":"levelo_inurba_marseille","lat":43.29286,"lon":5.36855,"is_reserved":false,"is_disabled":false,"rental_uris":{"android":"levelo://app?vid=d11c2b21-3699-4e7d-a1d0-26a0401e2028","ios":"levelo://app?vid=d11c2b21-3699-4e7d-a1d0-26a0401e2028"},"vehicle_type_id":"4","last_reported":1773164261,"current_range_meters":14800,"station_id":"ce4bhbp2rcd13ifvqesg","pricing_plan_id":"cebpf4jnsgd1na2vs0mg"},{"bike_id":"1894cbdf-95b2-416a-a4e6-2db6e1035c00","system_id":"levelo_inurba_marseille","lat":43.23191,"lon":5.39984,"is_reserved":false,"is_disabled":false,"rental_uris":{"android":"levelo://app?vid=1894cbdf-95b2-416a-a4e6-2db6e1035c00","ios":"levelo://app?vid=1894cbdf-95b2-416a-a4e6-2db6e1035c00"},"vehicle_type_id":"4","last_reported":1773164261,"current_range_meters":34800,"station_id":"ce4bhn12rcd13ifvqgqg","pricing_plan_id":"cebpf4jnsgd1na2vs0mg"},{"bike_id":"aa7846f4-b1ad-4842-94ec-40bb6540815a","system_id":"levelo_inurba_marseille","lat":43.25125,"lon":5.40314,"is_reserved":false,"is_disabled":false,"rental_uris":{"android":"levelo://app?vid=aa7846f4-b1ad-4842-94ec-40bb6540815a","ios":"levelo://app?vid=aa7846f4-b1ad-4842-94ec-40bb6540815a"},"vehicle_type_id":"4","last_reported":1773164261,"current_range_meters":18000,"station_id":"ce4bhlh2rcd13ifvqgig","pricing_plan_id":"cebpf4jnsgd1na2vs0mg"},{"bike_id":"71b9343c-1a8e-45a2-b779-3627b4118083","system_id":"levelo_inurba_marseille","lat":43.27849,"lon":5.39196,"is_reserved":false,"is_disabled":false,"rental_uris":{"android":"levelo://app?vid=71b9343c-1a8e-45a2-b779-3627b4118083","ios":"levelo://app?vid=71b9343c-1a8e-45a2-b779-3627b4118083"},"vehicle_type_id":"4","last_reported":1773164261,"current_range_meters":29600,"station_id":"ce4bhjp2rcd13ifvqga0","pricing_plan_id":"cebpf4jnsgd1na2vs0mg"},{"bike_id":"a16a2959-e5d2-4671-b078-3e895cfcf901","system_id":"levelo_inurba_marseille","lat":43.24664,"lon":5.38156,"is_reserved":false,"is_disabled":false,"rental_uris":{"android":"levelo://app?vid=a16a2959-e5d2-4671-b078-3e895cfcf901","ios":"levelo://app?vid=a16a2959-e5d2-4671-b078-3e895cfcf901"},"vehicle_type_id":"4","last_reported":1773164261,"current_range_meters":12400,"station_id":"ce4bhih2rcd13ifvqfr0","pricing_plan_id":"cebpf4jnsgd1na2vs0mg"},{"bike_id":"f6bdd654-2c17-4423-a6da-56551502bd1c","system_id":"levelo_inurba_marseille","lat":43.31195,"lon":5.36817,"is_reserved":false,"is_disabled":false,"rental_uris":{"android":"levelo://app?vid=f6bdd654-2c17-4423-a6da-56551502bd1c","ios":"levelo://app?vid=f6bdd654-2c17-4423-a6da-56551502bd1c"},"vehicle_type_id":"4","last_reported":1773164261,"current_range_meters":28000,"station_id":"ce4bgl92rcd13ifvqbq0","pricing_plan_id":"cebpf4jnsgd1na2vs0mg"},{"bike_id":"76f825c1-b417-47c0-b6b3-8f37f69498f4","system_id":"levelo_inurba_marseille","lat":43.29799,"lon":5.40409,"is_reserved":false,"is_disabled":false,"rental_uris":{"android":"levelo://app?vid=76f825c1-b417-47c0-b6b3-8f37f69498f4","ios":"levelo://app?vid=76f825c1-b417-47c0-b6b3-8f37f69498f4"},"vehicle_type_id":"4","last_reported":1773164261,"current_range_meters":24400,"station_id":"ce4bh112rcd13ifvqd90","pricing_plan_id":"cebpf4jnsgd1na2vs0mg"},{"bike_id":"36185798-542b-4b93-bc3e-cbff3e1de22d","system_id":"levelo_inurba_marseille","lat":43.30375,"lon":5.42491,"is_reserved":false,"is_disabled":false,"rental_uris":{"android":"levelo://app?vid=36185798-542b-4b93-bc3e-cbff3e1de22d","ios":"levelo://app?vid=36185798-542b-4b93-bc3e-cbff3e1de22d"},"vehicle_type_id":"4","last_reported":1773164261,"current_range_meters":38800,"station_id":"ce4bhoh2rcd13ifvqh6g","pricing_plan_id":"cebpf4jnsgd1na2vs0mg"},{"bike_id":"6292764a-36d3-4177-868b-8d28df16d07a","system_id":"levelo_inurba_marseille","lat":43.25091,"lon":5.39537,"is_reserved":false,"is_disabled":false,"rental_uris":{"android":"levelo://app?vid=6292764a-36d3-4177-868b-8d28df16d07a","ios":"levelo://app?vid=6292764a-36d3-4177-868b-8d28df16d07a"},"vehicle_type_id":"4","last_reported":1773164261,"current_range_meters":39200,"station_id":"ce4bhm12rcd13ifvqgkg","pricing_plan_id":"cebpf4jnsgd1na2vs0mg"},{"bike_id":"b5031150-212c-46d1-8fce-204661d26643","system_id":"levelo_inurba_marseille","lat":43.27182,"lon":5.40987,"is_reserved":false,"is_disabled":false,"rental_uris":{"android":"levelo://app?vid=b5031150-212c-46d1-8fce-204661d26643","ios":"levelo://app?vid=b5031150-212c-46d1-8fce-204661d26643"},"vehicle_type_id":"4","last_reported":1773164261,"current_range_meters":24400,"station_id":"ce4bhl12rcd13ifvqgf0","pricing_plan_id":"cebpf4jnsgd1na2vs0mg"},{"bike_id":"155701bd-eb61-4942-8b53-e5cd5b347b9a","system_id":"levelo_inurba_marseille","lat":43.23789,"lon":5.36619,"is_reserved":false,"is_disabled":false,"rental_uris":{"android":"levelo://app?vid=155701bd-eb61-4942-8b53-e5cd5b347b9a","ios":"levelo://app?vid=155701bd-eb61-4942-8b53-e5cd5b347b9a"},"vehicle_type_id":"4","last_reported":1773164261,"current_range_meters":34800,"station_id":"st_d3nk18o9ro0c73en2l3g","pricing_plan_id":"cebpf4jnsgd1na2vs0mg"},{"bike_id":"3f813cae-35f7-4984-9f1c-a6e1c5afe8e2","system_id":"levelo_inurba_marseille","lat":43.25048,"lon":5.38988,"is_reserved":false,"is_disabled":false,"rental_uris":{"android":"levelo://app?vid=3f813cae-35f7-4984-9f1c-a6e1c5afe8e2","ios":"levelo://app?vid=3f813cae-35f7-4984-9f1c-a6e1c5afe8e2"},"vehicle_type_id":"4","last_reported":1773164261,"current_range_meters":28800,"station_id":"","pricing_plan_id":"cebpf4jnsgd1na2vs0mg"},{"bike_id":"3ed9dacd-47d5-473e-a4ab-a372d8e4176a","system_id":"levelo_inurba_marseille","lat":43.30141,"lon":5.39886,"is_reserved":false,"is_disabled":true,"rental_uris":{"android":"levelo://app?vid=3ed9dacd-47d5-473e-a4ab-a372d8e4176a","ios":"levelo://app?vid=3ed9dacd-47d5-473e-a4ab-a372d8e4176a"},"vehicle_type_id":"4","last_reported":1773164261,"current_range_meters":24800,"station_id":"ce4bh0h2rcd13ifvqd40","pricing_plan_id":"cebpf4jnsgd1na2vs0mg"},{"bike_id":"886c2525-0660-4804-abab-93e69c48e04e","system_id":"levelo_inurba_marseille","lat":43.29545,"lon":5.38551,"is_reserved":false,"is_disabled":false,"rental_uris":{"android":"levelo://app?vid=886c2525-0660-4804-abab-93e69c48e04e","ios":"levelo://app?vid=886c2525-0660-4804-abab-93e69c48e04e"},"vehicle_type_id":"4","last_reported":1773164261,"current_range_meters":22000,"station_id":"ce4bgih2rcd13ifvqba0","pricing_plan_id":"cebpf4jnsgd1na2vs0mg"},{"bike_id":"c1796c4e-0e6c-454a-909e-d26cc94e6bbb","system_id":"levelo_inurba_marseille","lat":43.28568,"lon":5.39473,"is_reserved":false,"is_disabled":false,"rental_uris":{"android":"levelo://app?vid=c1796c4e-0e6c-454a-909e-d26cc94e6bbb","ios":"levelo://app?vid=c1796c4e-0e6c-454a-909e-d26cc94e6bbb"},"vehicle_type_id":"4","last_reported":1773164261,"current_range_meters":40000,"station_id":"ce4bh292rcd13ifvqdg0","pricing_plan_id":"cebpf4jnsgd1na2vs0mg"},{"bike_id":"54ed4b66-382c-4a4f-becf-8ccf68951db4","system_id":"levelo_inurba_marseille","lat":43.24547,"lon":5.39526,"is_reserved":false,"is_disabled":true,"rental_uris":{"android":"levelo://app?vid=54ed4b66-382c-4a4f-becf-8ccf68951db4","ios":"levelo://app?vid=54ed4b66-382c-4a4f-becf-8ccf68951db4"},"vehicle_type_id":"4","last_reported":1773164261,"current_range_meters":30400,"station_id":"ce4bhlp2rcd13ifvqgjg","pricing_plan_id":"cebpf4jnsgd1na2vs0mg"},{"bike_id":"0ec30d5d-8776-4cb3-b419-ed959c955851","system_id":"levelo_inurba_marseille","lat":43.28609,"lon":5.37065,"is_reserved":false,"is_disabled":false,"rental_uris":{"android":"levelo://app?vid=0ec30d5d-8776-4cb3-b419-ed959c955851","ios":"levelo://app?vid=0ec30d5d-8776-4cb3-b419-ed959c955851"},"vehicle_type_id":"4","last_reported":1773164261,"current_range_meters":28000,"station_id":"ce4bht12rcd13ifvqi60","pricing_plan_id":"cebpf4jnsgd1na2vs0mg"},{"bike_id":"22023508-02cc-4452-ab4d-1b3c9f8551f1","system_id":"levelo_inurba_marseille","lat":43.26787,"lon":5.39408,"is_reserved":false,"is_disabled":false,"rental_uris":{"android":"levelo://app?vid=22023508-02cc-4452-ab4d-1b3c9f8551f1","ios":"levelo://app?vid=22023508-02cc-4452-ab4d-1b3c9f8551f1"},"vehicle_type_id":"4","last_reported":1773164261,"current_range_meters":8800,"station_id":"ce4bhh12rcd13ifvqfg0","pricing_plan_id":"cebpf4jnsgd1na2vs0mg"},{"bike_id":"f209da0e-c66e-4d4b-8b80-d2a5b00bf540","system_id":"levelo_inurba_marseille","lat":43.28415,"lon":5.3496,"is_reserved":false,"is_disabled":false,"rental_uris":{"android":"levelo://app?vid=f209da0e-c66e-4d4b-8b80-d2a5b00bf540","ios":"levelo://app?vid=f209da0e-c66e-4d4b-8b80-d2a5b00bf540"},"vehicle_type_id":"4","last_reported":1773164261,"current_range_meters":33200,"station_id":"ce4bhbh2rcd13ifvqepg","pricing_plan_id":"cebpf4jnsgd1na2vs0mg"},{"bike_id":"51bda1bd-6bc4-4bfc-831f-4faf0d9deb17","system_id":"levelo_inurba_marseille","lat":43.2606,"lon":5.3941,"is_reserved":false,"is_disabled":false,"rental_uris":{"android":"levelo://app?vid=51bda1bd-6bc4-4bfc-831f-4faf0d9deb17","ios":"levelo://app?vid=51bda1bd-6bc4-4bfc-831f-4faf0d9deb17"},"vehicle_type_id":"4","last_reported":1773164261,"current_range_meters":40000,"station_id":"ce4bhh92rcd13ifvqfj0","pricing_plan_id":"cebpf4jnsgd1na2vs0mg"},{"bike_id":"7a48aa37-47dc-42ed-a3e8-fdbe67199869","system_id":"levelo_inurba_marseille","lat":43.2733,"lon":5.39119,"is_reserved":false,"is_disabled":false,"rental_uris":{"android":"levelo://app?vid=7a48aa37-47dc-42ed-a3e8-fdbe67199869","ios":"levelo://app?vid=7a48aa37-47dc-42ed-a3e8-fdbe67199869"},"vehicle_type_id":"4","last_reported":1773164261,"current_range_meters":28000,"station_id":"ce4bhgp2rcd13ifvqfe0","pricing_plan_id":"cebpf4jnsgd1na2vs0mg"},{"bike_id":"e3fd0344-afb6-4093-9f58-ba314c1615b0","system_id":"levelo_inurba_marseille","lat":43.29551,"lon":5.38533,"is_reserved":false,"is_disabled":false,"rental_uris":{"android":"levelo://app?vid=e3fd0344-afb6-4093-9f58-ba314c1615b0","ios":"levelo://app?vid=e3fd0344-afb6-4093-9f58-ba314c1615b0"},"vehicle_type_id":"4","last_reported":1773164261,"current_range_meters":39200,"station_id":"ce4bgih2rcd13ifvqba0","pricing_plan_id":"cebpf4jnsgd1na2vs0mg"},{"bike_id":"f780a682-e0f8-417c-aace-a2c147eaf4c1","system_id":"levelo_inurba_marseille","lat":43.25831,"lon":5.39437,"is_reserved":false,"is_disabled":false,"rental_uris":{"android":"levelo://app?vid=f780a682-e0f8-417c-aace-a2c147eaf4c1","ios":"levelo://app?vid=f780a682-e0f8-417c-aace-a2c147eaf4c1"},"vehicle_type_id":"4","last_reported":1773164261,"current_range_meters":39200,"station_id":"ce4bhip2rcd13ifvqft0","pricing_plan_id":"cebpf4jnsgd1na2vs0mg"},{"bike_id":"204d42a9-563d-4c76-915f-f87f91c21570","system_id":"levelo_inurba_marseille","lat":43.31513,"lon":5.373,"is_reserved":false,"is_disabled":false,"rental_uris":{"android":"levelo://app?vid=204d42a9-563d-4c76-915f-f87f91c21570","ios":"levelo://app?vid=204d42a9-563d-4c76-915f-f87f91c21570"},"vehicle_type_id":"4","last_reported":1773164261,"current_range_meters":30800,"station_id":"ce4bgt12rcd13ifvqcd0","pricing_plan_id":"cebpf4jnsgd1na2vs0mg"},{"bike_id":"60f5ca51-64d7-4f98-b4d5-86edecffe2cc","system_id":"levelo_inurba_marseille","lat":43.27188,"lon":5.39236,"is_reserved":false,"is_disabled":false,"rental_uris":{"android":"levelo://app?vid=60f5ca51-64d7-4f98-b4d5-86edecffe2cc","ios":"levelo://app?vid=60f5ca51-64d7-4f98-b4d5-86edecffe2cc"},"vehicle_type_id":"4","last_reported":1773164261,"current_range_meters":17600,"station_id":"","pricing_plan_id":"cebpf4jnsgd1na2vs0mg"},{"bike_id":"7c8ef971-aaf4-4bc3-8f60-c961aa05120c","system_id":"levelo_inurba_marseille","lat":43.29367,"lon":5.37836,"is_reserved":false,"is_disabled":false,"rental_uris":{"android":"levelo://app?vid=7c8ef971-aaf4-4bc3-8f60-c961aa05120c","ios":"levelo://app?vid=7c8ef971-aaf4-4bc3-8f60-c961aa05120c"},"vehicle_type_id":"4","last_reported":1773164261,"current_range_meters":36400,"station_id":"ce4bgjh2rcd13ifvqbf0","pricing_plan_id":"cebpf4jnsgd1na2vs0mg"},{"bike_id":"82f61968-7bee-4992-be3e-c90a688d004c","system_id":"levelo_inurba_marseille","lat":43.28208,"lon":5.39093,"is_reserved":false,"is_disabled":false,"rental_uris":{"android":"levelo://app?vid=82f61968-7bee-4992-be3e-c90a688d004c","ios":"levelo://app?vid=82f61968-7bee-4992-be3e-c90a688d004c"},"vehicle_type_id":"4","last_reported":1773164261,"current_range_meters":14000,"station_id":"ce4bhn92rcd13ifvqgsg","pricing_plan_id":"cebpf4jnsgd1na2vs0mg"},{"bike_id":"23fc598d-f808-4287-a2fb-dcbe6bd11524","system_id":"levelo_inurba_marseille","lat":43.2849,"lon":5.48413,"is_reserved":false,"is_disabled":false,"rental_uris":{"android":"levelo://app?vid=23fc598d-f808-4287-a2fb-dcbe6bd11524","ios":"levelo://app?vid=23fc598d-f808-4287-a2fb-dcbe6bd11524"},"vehicle_type_id":"4","last_reported":1773164261,"current_range_meters":38400,"station_id":"","pricing_plan_id":"cebpf4jnsgd1na2vs0mg"},{"bike_id":"f0d85e77-c78a-4899-b931-126b1bdccc38","system_id":"levelo_inurba_marseille","lat":43.22576,"lon":5.41639,"is_reserved":false,"is_disabled":false,"rental_uris":{"android":"levelo://app?vid=f0d85e77-c78a-4899-b931-126b1bdccc38","ios":"levelo://app?vid=f0d85e77-c78a-4899-b931-126b1bdccc38"},"vehicle_type_id":"4","last_reported":1773164261,"current_range_meters":10000,"station_id":"st_d2o4gvlbi1j2169b742g","pricing_plan_id":"cebpf4jnsgd1na2vs0mg"},{"bike_id":"5cc41755-622f-43f0-bf63-96397bacfedb","system_id":"levelo_inurba_marseille","lat":43.27914,"lon":5.39592,"is_reserved":false,"is_disabled":false,"rental_uris":{"android":"levelo://app?vid=5cc41755-622f-43f0-bf63-96397bacfedb","ios":"levelo://app?vid=5cc41755-622f-43f0-bf63-96397bacfedb"},"vehicle_type_id":"4","last_reported":1773164261,"current_range_meters":18800,"station_id":"ce4bhf92rcd13ifvqf40","pricing_plan_id":"cebpf4jnsgd1na2vs0mg"},{"bike_id":"3afa846a-3499-402e-8576-cc13bd78fadf","system_id":"levelo_inurba_marseille","lat":43.29596,"lon":5.38087,"is_reserved":false,"is_disabled":true,"rental_uris":{"android":"levelo://app?vid=3afa846a-3499-402e-8576-cc13bd78fadf","ios":"levelo://app?vid=3afa846a-3499-402e-8576-cc13bd78fadf"},"vehicle_type_id":"4","last_reported":1773164261,"current_range_meters":8800,"station_id":"ce4bgl12rcd13ifvqbo0","pricing_plan_id":"cebpf4jnsgd1na2vs0mg"},{"bike_id":"e908eecd-35a2-4531-9960-1a51a5026415","system_id":"levelo_inurba_marseille","lat":43.29737,"lon":5.37691,"is_reserved":false,"is_disabled":false,"rental_uris":{"android":"levelo://app?vid=e908eecd-35a2-4531-9960-1a51a5026415","ios":"levelo://app?vid=e908eecd-35a2-4531-9960-1a51a5026415"},"vehicle_type_id":"4","last_reported":1773164261,"current_range_meters":36800,"station_id":"ce4bgkh2rcd13ifvqbl0","pricing_plan_id":"cebpf4jnsgd1na2vs0mg"},{"bike_id":"41f5cbc8-3931-4343-9d0c-20d53996ae1f","system_id":"levelo_inurba_marseille","lat":43.26801,"lon":5.39456,"is_reserved":false,"is_disabled":false,"rental_uris":{"android":"levelo://app?vid=41f5cbc8-3931-4343-9d0c-20d53996ae1f","ios":"levelo://app?vid=41f5cbc8-3931-4343-9d0c-20d53996ae1f"},"vehicle_type_id":"4","last_reported":1773164261,"current_range_meters":38000,"station_id":"ce4bhh12rcd13ifvqfg0","pricing_plan_id":"cebpf4jnsgd1na2vs0mg"},{"bike_id":"d847e106-f4a4-4ad9-a368-60f92acf97c7","system_id":"levelo_inurba_marseille","lat":43.287,"lon":5.38681,"is_reserved":false,"is_disabled":false,"rental_uris":{"android":"levelo://app?vid=d847e106-f4a4-4ad9-a368-60f92acf97c7","ios":"levelo://app?vid=d847e106-f4a4-4ad9-a368-60f92acf97c7"},"vehicle_type_id":"4","last_reported":1773164261,"current_range_meters":38000,"station_id":"ce4bh492rcd13ifvqdug","pricing_plan_id":"cebpf4jnsgd1na2vs0mg"},{"bike_id":"0be1578d-7b76-4f05-919a-fbdc689d3564","system_id":"levelo_inurba_marseille","lat":43.27847,"lon":5.40707,"is_reserved":false,"is_disabled":false,"rental_uris":{"android":"levelo://app?vid=0be1578d-7b76-4f05-919a-fbdc689d3564","ios":"levelo://app?vid=0be1578d-7b76-4f05-919a-fbdc689d3564"},"vehicle_type_id":"4","last_reported":1773164261,"current_range_meters":39200,"station_id":"ce4bhnh2rcd13ifvqgtg","pricing_plan_id":"cebpf4jnsgd1na2vs0mg"},{"bike_id":"75dd6f48-9e58-4a2e-8511-b43b3b22edee","system_id":"levelo_inurba_marseille","lat":43.29691,"lon":5.38812,"is_reserved":false,"is_disabled":false,"rental_uris":{"android":"levelo://app?vid=75dd6f48-9e58-4a2e-8511-b43b3b22edee","ios":"levelo://app?vid=75dd6f48-9e58-4a2e-8511-b43b3b22edee"},"vehicle_type_id":"4","last_reported":1773164261,"current_range_meters":8400,"station_id":"","pricing_plan_id":"cebpf4jnsgd1na2vs0mg"},{"bike_id":"ba507c30-906c-40f1-aadb-8529095e4aa8","system_id":"levelo_inurba_marseille","lat":43.24808,"lon":5.37434,"is_reserved":false,"is_disabled":false,"rental_uris":{"android":"levelo://app?vid=ba507c30-906c-40f1-aadb-8529095e4aa8","ios":"levelo://app?vid=ba507c30-906c-40f1-aadb-8529095e4aa8"},"vehicle_type_id":"4","last_reported":1773164261,"current_range_meters":16400,"station_id":"ce4bhgh2rcd13ifvqfb0","pricing_plan_id":"cebpf4jnsgd1na2vs0mg"},{"bike_id":"d59f6bda-e40b-42f3-90c3-d9ad1181f0c5","system_id":"levelo_inurba_marseille","lat":43.24644,"lon":5.38891,"is_reserved":false,"is_disabled":false,"rental_uris":{"android":"levelo://app?vid=d59f6bda-e40b-42f3-90c3-d9ad1181f0c5","ios":"levelo://app?vid=d59f6bda-e40b-42f3-90c3-d9ad1181f0c5"},"vehicle_type_id":"4","last_reported":1773164261,"current_range_meters":17200,"station_id":"ce4bhg12rcd13ifvqf60","pricing_plan_id":"cebpf4jnsgd1na2vs0mg"},{"bike_id":"0dc7d051-af04-437a-b2fa-8ebd74a906d3","system_id":"levelo_inurba_marseille","lat":43.29638,"lon":5.40584,"is_reserved":false,"is_disabled":false,"rental_uris":{"android":"levelo://app?vid=0dc7d051-af04-437a-b2fa-8ebd74a906d3","ios":"levelo://app?vid=0dc7d051-af04-437a-b2fa-8ebd74a906d3"},"vehicle_type_id":"4","last_reported":1773164261,"current_range_meters":27600,"station_id":"ce4bh0h2rcd13ifvqd60","pricing_plan_id":"cebpf4jnsgd1na2vs0mg"},{"bike_id":"9a4c9fe6-93e6-431c-8db6-1a67b0134b2c","system_id":"levelo_inurba_marseille","lat":43.26542,"lon":5.37303,"is_reserved":false,"is_disabled":false,"rental_uris":{"android":"levelo://app?vid=9a4c9fe6-93e6-431c-8db6-1a67b0134b2c","ios":"levelo://app?vid=9a4c9fe6-93e6-431c-8db6-1a67b0134b2c"},"vehicle_type_id":"4","last_reported":1773164261,"current_range_meters":38000,"station_id":"ce4bhg12rcd13ifvqf70","pricing_plan_id":"cebpf4jnsgd1na2vs0mg"},{"bike_id":"54aa5aea-6018-471a-96e1-3c75b95f3618","system_id":"levelo_inurba_marseille","lat":43.29911,"lon":5.38621,"is_reserved":false,"is_disabled":false,"rental_uris":{"android":"levelo://app?vid=54aa5aea-6018-471a-96e1-3c75b95f3618","ios":"levelo://app?vid=54aa5aea-6018-471a-96e1-3c75b95f3618"},"vehicle_type_id":"4","last_reported":1773164261,"current_range_meters":30000,"station_id":"","pricing_plan_id":"cebpf4jnsgd1na2vs0mg"},{"bike_id":"8999fafd-32f3-45bd-83e4-89aff47247e5","system_id":"levelo_inurba_marseille","lat":43.23193,"lon":5.39983,"is_reserved":false,"is_disabled":false,"rental_uris":{"android":"levelo://app?vid=8999fafd-32f3-45bd-83e4-89aff47247e5","ios":"levelo://app?vid=8999fafd-32f3-45bd-83e4-89aff47247e5"},"vehicle_type_id":"4","last_reported":1773164261,"current_range_meters":38800,"station_id":"ce4bhn12rcd13ifvqgqg","pricing_plan_id":"cebpf4jnsgd1na2vs0mg"},{"bike_id":"4d650b84-4c87-42d2-8dd7-e4c822bb0148","system_id":"levelo_inurba_marseille","lat":43.29566,"lon":5.37558,"is_reserved":false,"is_disabled":false,"rental_uris":{"android":"levelo://app?vid=4d650b84-4c87-42d2-8dd7-e4c822bb0148","ios":"levelo://app?vid=4d650b84-4c87-42d2-8dd7-e4c822bb0148"},"vehicle_type_id":"4","last_reported":1773164261,"current_range_meters":28000,"station_id":"ce4bgh92rcd13ifvqb50","pricing_plan_id":"cebpf4jnsgd1na2vs0mg"},{"bike_id":"722e8238-9d78-49f1-bac9-481dd12057ce","system_id":"levelo_inurba_marseille","lat":43.30696,"lon":5.40052,"is_reserved":false,"is_disabled":false,"rental_uris":{"android":"levelo://app?vid=722e8238-9d78-49f1-bac9-481dd12057ce","ios":"levelo://app?vid=722e8238-9d78-49f1-bac9-481dd12057ce"},"vehicle_type_id":"4","last_reported":1773164261,"current_range_meters":21600,"station_id":"","pricing_plan_id":"cebpf4jnsgd1na2vs0mg"},{"bike_id":"0b395ff4-c873-4b2f-9ea7-2d652ba5bbce","system_id":"levelo_inurba_marseille","lat":43.29057,"lon":5.38695,"is_reserved":false,"is_disabled":false,"rental_uris":{"android":"levelo://app?vid=0b395ff4-c873-4b2f-9ea7-2d652ba5bbce","ios":"levelo://app?vid=0b395ff4-c873-4b2f-9ea7-2d652ba5bbce"},"vehicle_type_id":"4","last_reported":1773164261,"current_range_meters":4000,"station_id":"ce4bh4p2rcd13ifvqe0g","pricing_plan_id":"cebpf4jnsgd1na2vs0mg"},{"bike_id":"ef3e784d-faaa-410e-844e-37fda79e5481","system_id":"levelo_inurba_marseille","lat":43.3189,"lon":5.4074,"is_reserved":false,"is_disabled":false,"rental_uris":{"android":"levelo://app?vid=ef3e784d-faaa-410e-844e-37fda79e5481","ios":"levelo://app?vid=ef3e784d-faaa-410e-844e-37fda79e5481"},"vehicle_type_id":"4","last_reported":1773164261,"current_range_meters":38800,"station_id":"ce4bhq12rcd13ifvqhig","pricing_plan_id":"cebpf4jnsgd1na2vs0mg"},{"bike_id":"cca3107e-b6e5-411a-ab67-5f1f1145f0fc","system_id":"levelo_inurba_marseille","lat":43.29571,"lon":5.3751,"is_reserved":false,"is_disabled":false,"rental_uris":{"android":"levelo://app?vid=cca3107e-b6e5-411a-ab67-5f1f1145f0fc","ios":"levelo://app?vid=cca3107e-b6e5-411a-ab67-5f1f1145f0fc"},"vehicle_type_id":"4","last_reported":1773164261,"current_range_meters":38400,"station_id":"ce4bgh92rcd13ifvqb50","pricing_plan_id":"cebpf4jnsgd1na2vs0mg"},{"bike_id":"86a27d56-a425-48ed-be8d-deb254057217","system_id":"levelo_inurba_marseille","lat":43.29278,"lon":5.37436,"is_reserved":false,"is_disabled":false,"rental_uris":{"android":"levelo://app?vid=86a27d56-a425-48ed-be8d-deb254057217","ios":"levelo://app?vid=86a27d56-a425-48ed-be8d-deb254057217"},"vehicle_type_id":"4","last_reported":1773164261,"current_range_meters":12000,"station_id":"ce4bgi12rcd13ifvqb70","pricing_plan_id":"cebpf4jnsgd1na2vs0mg"},{"bike_id":"7a3b5875-f1e8-4acd-acbf-c2a29528e4b7","system_id":"levelo_inurba_marseille","lat":43.2851,"lon":5.48405,"is_reserved":false,"is_disabled":false,"rental_uris":{"android":"levelo://app?vid=7a3b5875-f1e8-4acd-acbf-c2a29528e4b7","ios":"levelo://app?vid=7a3b5875-f1e8-4acd-acbf-c2a29528e4b7"},"vehicle_type_id":"4","last_reported":1773164261,"current_range_meters":10800,"station_id":"st_d3svhcjqgbts73a3dn0g","pricing_plan_id":"cebpf4jnsgd1na2vs0mg"},{"bike_id":"9cd21b4f-5b91-47c4-9f59-c7c5557c0e8a","system_id":"levelo_inurba_marseille","lat":43.31248,"lon":5.36873,"is_reserved":false,"is_disabled":false,"rental_uris":{"android":"levelo://app?vid=9cd21b4f-5b91-47c4-9f59-c7c5557c0e8a","ios":"levelo://app?vid=9cd21b4f-5b91-47c4-9f59-c7c5557c0e8a"},"vehicle_type_id":"4","last_reported":1773164261,"current_range_meters":39200,"station_id":"ce4bgl92rcd13ifvqbq0","pricing_plan_id":"cebpf4jnsgd1na2vs0mg"},{"bike_id":"ae4181aa-8dc8-4249-8735-32d22936bfd0","system_id":"levelo_inurba_marseille","lat":43.23189,"lon":5.35567,"is_reserved":false,"is_disabled":false,"rental_uris":{"android":"levelo://app?vid=ae4181aa-8dc8-4249-8735-32d22936bfd0","ios":"levelo://app?vid=ae4181aa-8dc8-4249-8735-32d22936bfd0"},"vehicle_type_id":"4","last_reported":1773164261,"current_range_meters":28000,"station_id":"ce4bhu92rcd13ifvqi70","pricing_plan_id":"cebpf4jnsgd1na2vs0mg"},{"bike_id":"e7b6972b-117e-47e0-9f41-cbcc9b6a3781","system_id":"levelo_inurba_marseille","lat":43.32113,"lon":5.36773,"is_reserved":false,"is_disabled":false,"rental_uris":{"android":"levelo://app?vid=e7b6972b-117e-47e0-9f41-cbcc9b6a3781","ios":"levelo://app?vid=e7b6972b-117e-47e0-9f41-cbcc9b6a3781"},"vehicle_type_id":"4","last_reported":1773164261,"current_range_meters":6000,"station_id":"ce4bhrh2rcd13ifvqhug","pricing_plan_id":"cebpf4jnsgd1na2vs0mg"},{"bike_id":"40d58693-caa6-4f95-8833-c68d594858aa","system_id":"levelo_inurba_marseille","lat":43.29205,"lon":5.38356,"is_reserved":false,"is_disabled":false,"rental_uris":{"android":"levelo://app?vid=40d58693-caa6-4f95-8833-c68d594858aa","ios":"levelo://app?vid=40d58693-caa6-4f95-8833-c68d594858aa"},"vehicle_type_id":"4","last_reported":1773164261,"current_range_meters":37600,"station_id":"","pricing_plan_id":"cebpf4jnsgd1na2vs0mg"},{"bike_id":"9c33e85f-6842-4cea-9345-c75ac0f45e33","system_id":"levelo_inurba_marseille","lat":43.28853,"lon":5.35835,"is_reserved":false,"is_disabled":false,"rental_uris":{"android":"levelo://app?vid=9c33e85f-6842-4cea-9345-c75ac0f45e33","ios":"levelo://app?vid=9c33e85f-6842-4cea-9345-c75ac0f45e33"},"vehicle_type_id":"4","last_reported":1773164261,"current_range_meters":28400,"station_id":"ce4bhb12rcd13ifvqem0","pricing_plan_id":"cebpf4jnsgd1na2vs0mg"},{"bike_id":"544c9ad3-98a3-471d-9bed-9e707fb7cdbc","system_id":"levelo_inurba_marseille","lat":43.29926,"lon":5.38148,"is_reserved":false,"is_disabled":false,"rental_uris":{"android":"levelo://app?vid=544c9ad3-98a3-471d-9bed-9e707fb7cdbc","ios":"levelo://app?vid=544c9ad3-98a3-471d-9bed-9e707fb7cdbc"},"vehicle_type_id":"4","last_reported":1773164261,"current_range_meters":36800,"station_id":"ce4bgj12rcd13ifvqbc0","pricing_plan_id":"cebpf4jnsgd1na2vs0mg"},{"bike_id":"c0a268ef-3df0-48cf-b8ff-5d785a90bfac","system_id":"levelo_inurba_marseille","lat":43.28463,"lon":5.35873,"is_reserved":false,"is_disabled":false,"rental_uris":{"android":"levelo://app?vid=c0a268ef-3df0-48cf-b8ff-5d785a90bfac","ios":"levelo://app?vid=c0a268ef-3df0-48cf-b8ff-5d785a90bfac"},"vehicle_type_id":"4","last_reported":1773164261,"current_range_meters":19200,"station_id":"ce4bhah2rcd13ifvqei0","pricing_plan_id":"cebpf4jnsgd1na2vs0mg"},{"bike_id":"dff627b8-e846-4bdc-9ada-a335ec273009","system_id":"levelo_inurba_marseille","lat":43.30519,"lon":5.36713,"is_reserved":false,"is_disabled":false,"rental_uris":{"android":"levelo://app?vid=dff627b8-e846-4bdc-9ada-a335ec273009","ios":"levelo://app?vid=dff627b8-e846-4bdc-9ada-a335ec273009"},"vehicle_type_id":"4","last_reported":1773164261,"current_range_meters":27600,"station_id":"ce4bgrp2rcd13ifvqc9g","pricing_plan_id":"cebpf4jnsgd1na2vs0mg"},{"bike_id":"95c838b6-559a-4f36-bfca-f3c07c27cd05","system_id":"levelo_inurba_marseille","lat":43.31221,"lon":5.36838,"is_reserved":false,"is_disabled":false,"rental_uris":{"android":"levelo://app?vid=95c838b6-559a-4f36-bfca-f3c07c27cd05","ios":"levelo://app?vid=95c838b6-559a-4f36-bfca-f3c07c27cd05"},"vehicle_type_id":"4","last_reported":1773164261,"current_range_meters":38000,"station_id":"ce4bgl92rcd13ifvqbq0","pricing_plan_id":"cebpf4jnsgd1na2vs0mg"},{"bike_id":"6ed774aa-58ca-468f-a182-875ede51e8eb","system_id":"levelo_inurba_marseille","lat":43.23787,"lon":5.36626,"is_reserved":false,"is_disabled":false,"rental_uris":{"android":"levelo://app?vid=6ed774aa-58ca-468f-a182-875ede51e8eb","ios":"levelo://app?vid=6ed774aa-58ca-468f-a182-875ede51e8eb"},"vehicle_type_id":"4","last_reported":1773164261,"current_range_meters":27200,"station_id":"st_d3nk18o9ro0c73en2l3g","pricing_plan_id":"cebpf4jnsgd1na2vs0mg"},{"bike_id":"9d35e768-173e-4f08-9c10-937cc61fdb33","system_id":"levelo_inurba_marseille","lat":43.26795,"lon":5.39425,"is_reserved":false,"is_disabled":false,"rental_uris":{"android":"levelo://app?vid=9d35e768-173e-4f08-9c10-937cc61fdb33","ios":"levelo://app?vid=9d35e768-173e-4f08-9c10-937cc61fdb33"},"vehicle_type_id":"4","last_reported":1773164261,"current_range_meters":39200,"station_id":"ce4bhh12rcd13ifvqfg0","pricing_plan_id":"cebpf4jnsgd1na2vs0mg"},{"bike_id":"ca5ec5a0-afef-4cf5-af3f-37cc7af0adb0","system_id":"levelo_inurba_marseille","lat":43.29798,"lon":5.44049,"is_reserved":false,"is_disabled":false,"rental_uris":{"android":"levelo://app?vid=ca5ec5a0-afef-4cf5-af3f-37cc7af0adb0","ios":"levelo://app?vid=ca5ec5a0-afef-4cf5-af3f-37cc7af0adb0"},"vehicle_type_id":"4","last_reported":1773164261,"current_range_meters":9600,"station_id":"st_d3jp68qikq2c7381ktn0","pricing_plan_id":"cebpf4jnsgd1na2vs0mg"},{"bike_id":"d6c67f91-8250-42ed-b6f1-df3535fe79ae","system_id":"levelo_inurba_marseille","lat":43.30886,"lon":5.37194,"is_reserved":false,"is_disabled":false,"rental_uris":{"android":"levelo://app?vid=d6c67f91-8250-42ed-b6f1-df3535fe79ae","ios":"levelo://app?vid=d6c67f91-8250-42ed-b6f1-df3535fe79ae"},"vehicle_type_id":"4","last_reported":1773164261,"current_range_meters":16400,"station_id":"ce4bguh2rcd13ifvqckg","pricing_plan_id":"cebpf4jnsgd1na2vs0mg"},{"bike_id":"16fca746-db2b-4325-9b35-d5b1120f9b27","system_id":"levelo_inurba_marseille","lat":43.24823,"lon":5.37456,"is_reserved":false,"is_disabled":false,"rental_uris":{"android":"levelo://app?vid=16fca746-db2b-4325-9b35-d5b1120f9b27","ios":"levelo://app?vid=16fca746-db2b-4325-9b35-d5b1120f9b27"},"vehicle_type_id":"4","last_reported":1773164261,"current_range_meters":37600,"station_id":"ce4bhgh2rcd13ifvqfb0","pricing_plan_id":"cebpf4jnsgd1na2vs0mg"},{"bike_id":"b7c2588a-7465-4d85-8ea1-9c390bd05d5f","system_id":"levelo_inurba_marseille","lat":43.29986,"lon":5.38492,"is_reserved":false,"is_disabled":false,"rental_uris":{"android":"levelo://app?vid=b7c2588a-7465-4d85-8ea1-9c390bd05d5f","ios":"levelo://app?vid=b7c2588a-7465-4d85-8ea1-9c390bd05d5f"},"vehicle_type_id":"4","last_reported":1773164261,"current_range_meters":14800,"station_id":"ce4bgj92rcd13ifvqbd0","pricing_plan_id":"cebpf4jnsgd1na2vs0mg"},{"bike_id":"eb538419-99b1-4f9d-804a-4c88c4eaa422","system_id":"levelo_inurba_marseille","lat":43.30308,"lon":5.39214,"is_reserved":false,"is_disabled":false,"rental_uris":{"android":"levelo://app?vid=eb538419-99b1-4f9d-804a-4c88c4eaa422","ios":"levelo://app?vid=eb538419-99b1-4f9d-804a-4c88c4eaa422"},"vehicle_type_id":"4","last_reported":1773164261,"current_range_meters":14800,"station_id":"ce4bgkh2rcd13ifvqbk0","pricing_plan_id":"cebpf4jnsgd1na2vs0mg"},{"bike_id":"f744b058-869a-4309-b7a3-346185addabf","system_id":"levelo_inurba_marseille","lat":43.28856,"lon":5.35839,"is_reserved":false,"is_disabled":false,"rental_uris":{"android":"levelo://app?vid=f744b058-869a-4309-b7a3-346185addabf","ios":"levelo://app?vid=f744b058-869a-4309-b7a3-346185addabf"},"vehicle_type_id":"4","last_reported":1773164261,"current_range_meters":34800,"station_id":"ce4bhb12rcd13ifvqem0","pricing_plan_id":"cebpf4jnsgd1na2vs0mg"},{"bike_id":"e194b9dd-ba26-47fb-82be-2bd044515e32","system_id":"levelo_inurba_marseille","lat":43.26037,"lon":5.39429,"is_reserved":false,"is_disabled":false,"rental_uris":{"android":"levelo://app?vid=e194b9dd-ba26-47fb-82be-2bd044515e32","ios":"levelo://app?vid=e194b9dd-ba26-47fb-82be-2bd044515e32"},"vehicle_type_id":"4","last_reported":1773164261,"current_range_meters":34800,"station_id":"ce4bhh92rcd13ifvqfj0","pricing_plan_id":"cebpf4jnsgd1na2vs0mg"},{"bike_id":"ad634767-f5a6-44ed-9e7c-31e61c152056","system_id":"levelo_inurba_marseille","lat":43.25155,"lon":5.39568,"is_reserved":false,"is_disabled":true,"rental_uris":{"android":"levelo://app?vid=ad634767-f5a6-44ed-9e7c-31e61c152056","ios":"levelo://app?vid=ad634767-f5a6-44ed-9e7c-31e61c152056"},"vehicle_type_id":"4","last_reported":1773164261,"current_range_meters":1200,"station_id":"ce4bhm12rcd13ifvqgkg","pricing_plan_id":"cebpf4jnsgd1na2vs0mg"},{"bike_id":"ba1bacf8-2043-4fd1-8e1d-80abbe8a45d4","system_id":"levelo_inurba_marseille","lat":43.27972,"lon":5.40028,"is_reserved":false,"is_disabled":false,"rental_uris":{"android":"levelo://app?vid=ba1bacf8-2043-4fd1-8e1d-80abbe8a45d4","ios":"levelo://app?vid=ba1bacf8-2043-4fd1-8e1d-80abbe8a45d4"},"vehicle_type_id":"4","last_reported":1773164261,"current_range_meters":23200,"station_id":"ce4bho92rcd13ifvqh4g","pricing_plan_id":"cebpf4jnsgd1na2vs0mg"},{"bike_id":"38e327ec-96cd-495d-8603-363acb557dc8","system_id":"levelo_inurba_marseille","lat":43.27947,"lon":5.41043,"is_reserved":false,"is_disabled":false,"rental_uris":{"android":"levelo://app?vid=38e327ec-96cd-495d-8603-363acb557dc8","ios":"levelo://app?vid=38e327ec-96cd-495d-8603-363acb557dc8"},"vehicle_type_id":"4","last_reported":1773164261,"current_range_meters":40000,"station_id":"ce4bhnp2rcd13ifvqh0g","pricing_plan_id":"cebpf4jnsgd1na2vs0mg"},