{"last_updated":1680257239,"ttl":30,"version":"2.2","data":{"bikes":[{"bike_id":"96cd7b53-8aa7-4470-8c9a-b95690470eef","system_id":"levelo_inurba_marseille","lat":43.31204,"lon":5.3683,"is_reserved":false,"is_disabled":false,"rental_uris":{"android":"levelo://app?vid=96cd7b53-8aa7-4470-8c9a-b95690470eef","ios":"levelo://app?vid=96cd7b53-8aa7-4470-8c9a-b95690470eef"},"vehicle_type_id":"4","last_reported":1680257239,"current_range_meters":28400,"station_id":"ce4bgl92rcd13ifvqbq0","pricing_plan_id":"free"},{"bike_id":"17089594-f6be-4bf6-b8d7-487287fd46a7","system_id":"levelo_inurba_marseille","lat":43.312239,"lon":5.368562,"is_reserved":false,"is_disabled":false,"rental_uris":{"android":"levelo://app?vid=17089594-f6be-4bf6-b8d7-487287fd46a7","ios":"levelo://app?vid=17089594-f6be-4bf6-b8d7-487287fd46a7"},"vehicle_type_id":"4","last_reported":1680257239,"current_range_meters":9600,"station_id":"ce4bgl92rcd13ifvqbq0","pricing_plan_id":"free"},{"bike_id":"27a16c08-79a4-4b21-8f39-94ab8cbc7d2c","system_id":"levelo_inurba_marseille","lat":43.314811,"lon":5.373104,"is_reserved":false,"is_disabled":false,"rental_uris":{"android":"levelo://app?vid=27a16c08-79a4-4b21-8f39-94ab8cbc7d2c","ios":"levelo://app?vid=27a16c08-79a4-4b21-8f39-94ab8cbc7d2c"},"vehicle_type_id":"4","last_reported":1680257239,"current_range_meters":17600,"station_id":"ce4bgt12rcd13ifvqcd0","pricing_plan_id":"free"},{"bike_id":"7c1288a5-b4f2-45c5-85b8-38d1679ba30a","system_id":"levelo_inurba_marseille","lat":43.309076,"lon":5.368465,"is_reserved":false,"is_disabled":false,"rental_uris":{"android":"levelo://app?vid=7c1288a5-b4f2-45c5-85b8-38d1679ba30a","ios":"levelo://app?vid=7c1288a5-b4f2-45c5-85b8-38d1679ba30a"},"vehicle_type_id":"4","last_reported":1680257239,"current_range_meters":21200,"station_id":"ce4bgn92rcd13ifvqbvg","pricing_plan_id":"free"},{"bike_id":"1de8c80b-f071-410f-a0ec-27d7b70b834e","system_id":"levelo_inurba_marseille","lat":43.309076,"lon":5.368465,"is_reserved":false,"is_disabled":false,"rental_uris":{"android":"levelo://app?vid=1de8c80b-f071-410f-a0ec-27d7b70b834e","ios":"levelo://app?vid=1de8c80b-f071-410f-a0ec-27d7b70b834e"},"vehicle_type_id":"4","last_reported":1680257239,"current_range_meters":26000,"station_id":"ce4bgn92rcd13ifvqbvg","pricing_plan_id":"free"},{"bike_id":"056b1423-9476-4d36-a6e2-9995afdf0770","system_id":"levelo_inurba_marseille","lat":43.314811,"lon":5.373103,"is_reserved":false,"is_disabled":false,"rental_uris":{"android":"levelo://app?vid=056b1423-9476-4d36-a6e2-9995afdf0770","ios":"levelo://app?vid=056b1423-9476-4d36-a6e2-9995afdf0770"},"vehicle_type_id":"4","last_reported":1680257239,"current_range_meters":6000,"station_id":"ce4bgt12rcd13ifvqcd0","pricing_plan_id":"free"},{"bike_id":"fcdd72ce-eab3-45ef-a2bd-beef42eb73ec","system_id":"levelo_inurba_marseille","lat":43.314811,"lon":5.373103,"is_reserved":false,"is_disabled":false,"rental_uris":{"android":"levelo://app?vid=fcdd72ce-eab3-45ef-a2bd-beef42eb73ec","ios":"levelo://app?vid=fcdd72ce-eab3-45ef-a2bd-beef42eb73ec"},"vehicle_type_id":"4","last_reported":1680257239,"current_range_meters":4000,"station_id":"ce4bgt12rcd13ifvqcd0","pricing_plan_id":"free"},{"bike_id":"e4ab1068-dd3a-4427-9461-fcec01eedfe0","system_id":"levelo_inurba_marseille","lat":43.314811,"lon":5.373104,"is_reserved":false,"is_disabled":false,"rental_uris":{"android":"levelo://app?vid=e4ab1068-dd3a-4427-9461-fcec01eedfe0","ios":"levelo://app?vid=e4ab1068-dd3a-4427-9461-fcec01eedfe0"},"vehicle_type_id":"4","last_reported":1680257239,"current_range_meters":18800,"station_id":"ce4bgt12rcd13ifvqcd0","pricing_plan_id":"free"},{"bike_id":"a7199948-a375-4896-9509-3ca317437c41","system_id":"levelo_inurba_marseille","lat":43.314811,"lon":5.373104,"is_reserved":false,"is_disabled":false,"rental_uris":{"android":"levelo://app?vid=a7199948-a375-4896-9509-3ca317437c41","ios":"levelo://app?vid=a7199948-a375-4896-9509-3ca317437c41"},"vehicle_type_id":"4","last_reported":1680257239,"current_range_meters":18400,"station_id":"ce4bgt12rcd13ifvqcd0","pricing_plan_id":"free"},{"bike_id":"52e2ec13-438c-497f-80d3-d8883488e275","system_id":"levelo_inurba_marseille","lat":43.30894,"lon":5.37177,"is_reserved":false,"is_disabled":false,"rental_uris":{"android":"levelo://app?vid=52e2ec13-438c-497f-80d3-d8883488e275","ios":"levelo://app?vid=52e2ec13-438c-497f-80d3-d8883488e275"},"vehicle_type_id":"4","last_reported":1680257239,"current_range_meters":14000,"station_id":"","pricing_plan_id":"free"},{"bike_id":"e7022a0c-c058-43fb-98fb-da0f08c29038","system_id":"levelo_inurba_marseille","lat":43.30881,"lon":5.37192,"is_reserved":false,"is_disabled":false,"rental_uris":{"android":"levelo://app?vid=e7022a0c-c058-43fb-98fb-da0f08c29038","ios":"levelo://app?vid=e7022a0c-c058-43fb-98fb-da0f08c29038"},"vehicle_type_id":"4","last_reported":1680257239,"current_range_meters":1200,"station_id":"","pricing_plan_id":"free"},{"bike_id":"2b8382d4-fa99-45d8-9c4a-7d93ada260b6","system_id":"levelo_inurba_marseille","lat":43.30532,"lon":5.36697,"is_reserved":false,"is_disabled":false,"rental_uris":{"android":"levelo://app?vid=2b8382d4-fa99-45d8-9c4a-7d93ada260b6","ios":"levelo://app?vid=2b8382d4-fa99-45d8-9c4a-7d93ada260b6"},"vehicle_type_id":"4","last_reported":1680257239,"current_range_meters":14400,"station_id":"","pricing_plan_id":"free"},{"bike_id":"9ac68e93-1c0a-4676-b292-15a02b15c8c3","system_id":"levelo_inurba_marseille","lat":43.30527,"lon":5.36709,"is_reserved":false,"is_disabled":false,"rental_uris":{"android":"levelo://app?vid=9ac68e93-1c0a-4676-b292-15a02b15c8c3","ios":"levelo://app?vid=9ac68e93-1c0a-4676-b292-15a02b15c8c3"},"vehicle_type_id":"4","last_reported":1680257239,"current_range_meters":4400,"station_id":"","pricing_plan_id":"free"},{"bike_id":"78708cac-3f2c-4f4e-8577-3c1ba7dbe05f","system_id":"levelo_inurba_marseille","lat":43.32108,"lon":5.36763,"is_reserved":false,"is_disabled":false,"rental_uris":{"android":"levelo://app?vid=78708cac-3f2c-4f4e-8577-3c1ba7dbe05f","ios":"levelo://app?vid=78708cac-3f2c-4f4e-8577-3c1ba7dbe05f"},"vehicle_type_id":"4","last_reported":1680257239,"current_range_meters":7200,"station_id":"","pricing_plan_id":"free"},{"bike_id":"f0b15fd7-c178-48ea-a02c-4ab711e4ac4b","system_id":"levelo_inurba_marseille","lat":43.317075,"lon":5.377367,"is_reserved":false,"is_disabled":false,"rental_uris":{"android":"levelo://app?vid=f0b15fd7-c178-48ea-a02c-4ab711e4ac4b","ios":"levelo://app?vid=f0b15fd7-c178-48ea-a02c-4ab711e4ac4b"},"vehicle_type_id":"4","last_reported":1680257239,"current_range_meters":19200,"station_id":"ce4bgth2rcd13ifvqch0","pricing_plan_id":"free"},{"bike_id":"c3720595-835f-4673-8fdc-0ce07f63bec5","system_id":"levelo_inurba_marseille","lat":43.32152,"lon":5.36774,"is_reserved":false,"is_disabled":false,"rental_uris":{"android":"levelo://app?vid=c3720595-835f-4673-8fdc-0ce07f63bec5","ios":"levelo://app?vid=c3720595-835f-4673-8fdc-0ce07f63bec5"},"vehicle_type_id":"4","last_reported":1680257239,"current_range_meters":12000,"station_id":"","pricing_plan_id":"free"},{"bike_id":"1d146612-9a32-47ac-aef1-d4b8c85521ea","system_id":"levelo_inurba_marseille","lat":43.317075,"lon":5.377367,"is_reserved":false,"is_disabled":false,"rental_uris":{"android":"levelo://app?vid=1d146612-9a32-47ac-aef1-d4b8c85521ea","ios":"levelo://app?vid=1d146612-9a32-47ac-aef1-d4b8c85521ea"},"vehicle_type_id":"4","last_reported":1680257239,"current_range_meters":24000,"station_id":"ce4bgth2rcd13ifvqch0","pricing_plan_id":"free"},{"bike_id":"39482317-b558-45a1-ad68-c0bb9b32b433","system_id":"levelo_inurba_marseille","lat":43.30576,"lon":5.37539,"is_reserved":false,"is_disabled":false,"rental_uris":{"android":"levelo://app?vid=39482317-b558-45a1-ad68-c0bb9b32b433","ios":"levelo://app?vid=39482317-b558-45a1-ad68-c0bb9b32b433"},"vehicle_type_id":"4","last_reported":1680257239,"current_range_meters":4000,"station_id":"","pricing_plan_id":"free"},{"bike_id":"bec45b28-1c6b-4a92-bfb2-f9bf99c70754","system_id":"levelo_inurba_marseille","lat":43.303046,"lon":5.368981,"is_reserved":false,"is_disabled":false,"rental_uris":{"android":"levelo://app?vid=bec45b28-1c6b-4a92-bfb2-f9bf99c70754","ios":"levelo://app?vid=bec45b28-1c6b-4a92-bfb2-f9bf99c70754"},"vehicle_type_id":"4","last_reported":1680257239,"current_range_meters":800,"station_id":"ce4bgqh2rcd13ifvqc5g","pricing_plan_id":"free"},{"bike_id":"a7d98e8b-159a-408d-b685-47984502655d","system_id":"levelo_inurba_marseille","lat":43.31534,"lon":5.38023,"is_reserved":false,"is_disabled":false,"rental_uris":{"android":"levelo://app?vid=a7d98e8b-159a-408d-b685-47984502655d","ios":"levelo://app?vid=a7d98e8b-159a-408d-b685-47984502655d"},"vehicle_type_id":"4","last_reported":1680257239,"current_range_meters":24400,"station_id":"","pricing_plan_id":"free"},{"bike_id":"74114171-c70e-4d07-af0d-8fcc35739e99","system_id":"levelo_inurba_marseille","lat":43.30194,"lon":5.36637,"is_reserved":false,"is_disabled":false,"rental_uris":{"android":"levelo://app?vid=74114171-c70e-4d07-af0d-8fcc35739e99","ios":"levelo://app?vid=74114171-c70e-4d07-af0d-8fcc35739e99"},"vehicle_type_id":"4","last_reported":1680257239,"current_range_meters":26400,"station_id":"","pricing_plan_id":"free"},{"bike_id":"f8a0a2b5-5745-409a-97ab-5aad89186791","system_id":"levelo_inurba_marseille","lat":43.301939,"lon":5.366286,"is_reserved":false,"is_disabled":false,"rental_uris":{"android":"levelo://app?vid=f8a0a2b5-5745-409a-97ab-5aad89186791","ios":"levelo://app?vid=f8a0a2b5-5745-409a-97ab-5aad89186791"},"vehicle_type_id":"4","last_reported":1680257239,"current_range_meters":14800,"station_id":"ce4bgrh2rcd13ifvqc8g","pricing_plan_id":"free"},{"bike_id":"404d81de-1448-4ad8-8041-0d0ffd79cb29","system_id":"levelo_inurba_marseille","lat":43.301939,"lon":5.366286,"is_reserved":false,"is_disabled":false,"rental_uris":{"android":"levelo://app?vid=404d81de-1448-4ad8-8041-0d0ffd79cb29","ios":"levelo://app?vid=404d81de-1448-4ad8-8041-0d0ffd79cb29"},"vehicle_type_id":"4","last_reported":1680257239,"current_range_meters":25200,"station_id":"ce4bgrh2rcd13ifvqc8g","pricing_plan_id":"free"},{"bike_id":"9e349196-2693-4d6c-b00d-e47757cdffc7","system_id":"levelo_inurba_marseille","lat":43.30178,"lon":5.36835,"is_reserved":false,"is_disabled":false,"rental_uris":{"android":"levelo://app?vid=9e349196-2693-4d6c-b00d-e47757cdffc7","ios":"levelo://app?vid=9e349196-2693-4d6c-b00d-e47757cdffc7"},"vehicle_type_id":"4","last_reported":1680257239,"current_range_meters":1200,"station_id":"","pricing_plan_id":"free"},{"bike_id":"1c0f25c5-6006-4db0-ad17-e4c1d4be0132","system_id":"levelo_inurba_marseille","lat":43.308012,"lon":5.381511,"is_reserved":false,"is_disabled":false,"rental_uris":{"android":"levelo://app?vid=1c0f25c5-6006-4db0-ad17-e4c1d4be0132","ios":"levelo://app?vid=1c0f25c5-6006-4db0-ad17-e4c1d4be0132"},"vehicle_type_id":"4","last_reported":1680257239,"current_range_meters":12000,"station_id":"ce4bgt12rcd13ifvqce0","pricing_plan_id":"free"},{"bike_id":"7e570451-778e-4d9d-bda4-afb1ac5661e9","system_id":"levelo_inurba_marseille","lat":43.308012,"lon":5.381511,"is_reserved":false,"is_disabled":false,"rental_uris":{"android":"levelo://app?vid=7e570451-778e-4d9d-bda4-afb1ac5661e9","ios":"levelo://app?vid=7e570451-778e-4d9d-bda4-afb1ac5661e9"},"vehicle_type_id":"4","last_reported":1680257239,"current_range_meters":0,"station_id":"ce4bgt12rcd13ifvqce0","pricing_plan_id":"free"},{"bike_id":"43542f14-fa58-418f-ab14-1bcc8502b96a","system_id":"levelo_inurba_marseille","lat":43.308012,"lon":5.381511,"is_reserved":false,"is_disabled":false,"rental_uris":{"android":"levelo://app?vid=43542f14-fa58-418f-ab14-1bcc8502b96a","ios":"levelo://app?vid=43542f14-fa58-418f-ab14-1bcc8502b96a"},"vehicle_type_id":"4","last_reported":1680257239,"current_range_meters":9200,"station_id":"ce4bgt12rcd13ifvqce0","pricing_plan_id":"free"},{"bike_id":"39328570-da2f-4f62-8125-5bebf165b5da","system_id":"levelo_inurba_marseille","lat":43.30142,"lon":5.37406,"is_reserved":false,"is_disabled":false,"rental_uris":{"android":"levelo://app?vid=39328570-da2f-4f62-8125-5bebf165b5da","ios":"levelo://app?vid=39328570-da2f-4f62-8125-5bebf165b5da"},"vehicle_type_id":"4","last_reported":1680257239,"current_range_meters":6800,"station_id":"ce4bgs92rcd13ifvqcc0","pricing_plan_id":"free"},{"bike_id":"ac2d3fe6-c30c-4401-8721-cbfa9cf695eb","system_id":"levelo_inurba_marseille","lat":43.30141,"lon":5.37409,"is_reserved":false,"is_disabled":false,"rental_uris":{"android":"levelo://app?vid=ac2d3fe6-c30c-4401-8721-cbfa9cf695eb","ios":"levelo://app?vid=ac2d3fe6-c30c-4401-8721-cbfa9cf695eb"},"vehicle_type_id":"4","last_reported":1680257239,"current_range_meters":9200,"station_id":"ce4bgs92rcd13ifvqcc0","pricing_plan_id":"free"},{"bike_id":"71ae81f5-e857-4627-9df4-3ad353c10769","system_id":"levelo_inurba_marseille","lat":43.30142,"lon":5.37419,"is_reserved":false,"is_disabled":false,"rental_uris":{"android":"levelo://app?vid=71ae81f5-e857-4627-9df4-3ad353c10769","ios":"levelo://app?vid=71ae81f5-e857-4627-9df4-3ad353c10769"},"vehicle_type_id":"4","last_reported":1680257239,"current_range_meters":22000,"station_id":"ce4bgs92rcd13ifvqcc0","pricing_plan_id":"free"},{"bike_id":"cd2b83a4-bd48-485b-9635-1b48f60a92b6","system_id":"levelo_inurba_marseille","lat":43.3012,"lon":5.37352,"is_reserved":false,"is_disabled":false,"rental_uris":{"android":"levelo://app?vid=cd2b83a4-bd48-485b-9635-1b48f60a92b6","ios":"levelo://app?vid=cd2b83a4-bd48-485b-9635-1b48f60a92b6"},"vehicle_type_id":"4","last_reported":1680257239,"current_range_meters":27600,"station_id":"","pricing_plan_id":"free"},{"bike_id":"813465e8-446f-43dd-9081-04c1313a2495","system_id":"levelo_inurba_marseille","lat":43.31323,"lon":5.38456,"is_reserved":false,"is_disabled":false,"rental_uris":{"android":"levelo://app?vid=813465e8-446f-43dd-9081-04c1313a2495","ios":"levelo://app?vid=813465e8-446f-43dd-9081-04c1313a2495"},"vehicle_type_id":"4","last_reported":1680257239,"current_range_meters":1200,"station_id":"","pricing_plan_id":"free"},{"bike_id":"632f2327-1985-4706-a648-e691e4559e14","system_id":"levelo_inurba_marseille","lat":43.313571,"lon":5.384829,"is_reserved":false,"is_disabled":false,"rental_uris":{"android":"levelo://app?vid=632f2327-1985-4706-a648-e691e4559e14","ios":"levelo://app?vid=632f2327-1985-4706-a648-e691e4559e14"},"vehicle_type_id":"4","last_reported":1680257239,"current_range_meters":25200,"station_id":"ce4bgt92rcd13ifvqcf0","pricing_plan_id":"free"},{"bike_id":"adfab6fd-082a-458b-be7f-3dd2d6a7036e","system_id":"levelo_inurba_marseille","lat":43.299094,"lon":5.365415,"is_reserved":false,"is_disabled":false,"rental_uris":{"android":"levelo://app?vid=adfab6fd-082a-458b-be7f-3dd2d6a7036e","ios":"levelo://app?vid=adfab6fd-082a-458b-be7f-3dd2d6a7036e"},"vehicle_type_id":"4","last_reported":1680257239,"current_range_meters":30000,"station_id":"ce4bgm92rcd13ifvqbr0","pricing_plan_id":"free"},{"bike_id":"d910ea96-70d4-4979-816e-066409a36f14","system_id":"levelo_inurba_marseille","lat":43.299094,"lon":5.365415,"is_reserved":false,"is_disabled":false,"rental_uris":{"android":"levelo://app?vid=d910ea96-70d4-4979-816e-066409a36f14","ios":"levelo://app?vid=d910ea96-70d4-4979-816e-066409a36f14"},"vehicle_type_id":"4","last_reported":1680257239,"current_range_meters":6800,"station_id":"ce4bgm92rcd13ifvqbr0","pricing_plan_id":"free"},{"bike_id":"1f8e97db-0330-4b24-8b30-9f8014d0c4f7","system_id":"levelo_inurba_marseille","lat":43.299094,"lon":5.365415,"is_reserved":false,"is_disabled":false,"rental_uris":{"android":"levelo://app?vid=1f8e97db-0330-4b24-8b30-9f8014d0c4f7","ios":"levelo://app?vid=1f8e97db-0330-4b24-8b30-9f8014d0c4f7"},"vehicle_type_id":"4","last_reported":1680257239,"current_range_meters":20800,"station_id":"ce4bgm92rcd13ifvqbr0","pricing_plan_id":"free"},{"bike_id":"78d2ad93-a348-461a-8495-be1b6bf0a749","system_id":"levelo_inurba_marseille","lat":43.299094,"lon":5.365415,"is_reserved":false,"is_disabled":false,"rental_uris":{"android":"levelo://app?vid=78d2ad93-a348-461a-8495-be1b6bf0a749","ios":"levelo://app?vid=78d2ad93-a348-461a-8495-be1b6bf0a749"},"vehicle_type_id":"4","last_reported":1680257239,"current_range_meters":4800,"station_id":"ce4bgm92rcd13ifvqbr0","pricing_plan_id":"free"},{"bike_id":"56442ec3-2047-4927-ae5a-0e0024b4352c","system_id":"levelo_inurba_marseille","lat":43.298433,"lon":5.362774,"is_reserved":false,"is_disabled":false,"rental_uris":{"android":"levelo://app?vid=56442ec3-2047-4927-ae5a-0e0024b4352c","ios":"levelo://app?vid=56442ec3-2047-4927-ae5a-0e0024b4352c"},"vehicle_type_id":"4","last_reported":1680257239,"current_range_meters":21600,"station_id":"ce4bgpp2rcd13ifvqc3g","pricing_plan_id":"free"},{"bike_id":"07b3d63a-2b1d-4829-ba6c-08c8e329d70b","system_id":"levelo_inurba_marseille","lat":43.298433,"lon":5.362774,"is_reserved":false,"is_disabled":false,"rental_uris":{"android":"levelo://app?vid=07b3d63a-2b1d-4829-ba6c-08c8e329d70b","ios":"levelo://app?vid=07b3d63a-2b1d-4829-ba6c-08c8e329d70b"},"vehicle_type_id":"4","last_reported":1680257239,"current_range_meters":30000,"station_id":"ce4bgpp2rcd13ifvqc3g","pricing_plan_id":"free"},{"bike_id":"60596e00-e787-41cc-bfb9-6bdee7bd85dc","system_id":"levelo_inurba_marseille","lat":43.298433,"lon":5.362774,"is_reserved":false,"is_disabled":false,"rental_uris":{"android":"levelo://app?vid=60596e00-e787-41cc-bfb9-6bdee7bd85dc","ios":"levelo://app?vid=60596e00-e787-41cc-bfb9-6bdee7bd85dc"},"vehicle_type_id":"4","last_reported":1680257239,"current_range_meters":31200,"station_id":"ce4bgpp2rcd13ifvqc3g","pricing_plan_id":"free"},{"bike_id":"a33d93f1-7910-45a9-bb0a-085ec8f77b19","system_id":"levelo_inurba_marseille","lat":43.298433,"lon":5.362774,"is_reserved":false,"is_disabled":false,"rental_uris":{"android":"levelo://app?vid=a33d93f1-7910-45a9-bb0a-085ec8f77b19","ios":"levelo://app?vid=a33d93f1-7910-45a9-bb0a-085ec8f77b19"},"vehicle_type_id":"4","last_reported":1680257239,"current_range_meters":24000,"station_id":"ce4bgpp2rcd13ifvqc3g","pricing_plan_id":"free"},{"bike_id":"af4de017-5659-4e10-af99-a9226ca7a274","system_id":"levelo_inurba_marseille","lat":43.298433,"lon":5.362774,"is_reserved":false,"is_disabled":false,"rental_uris":{"android":"levelo://app?vid=af4de017-5659-4e10-af99-a9226ca7a274","ios":"levelo://app?vid=af4de017-5659-4e10-af99-a9226ca7a274"},"vehicle_type_id":"4","last_reported":1680257239,"current_range_meters":31200,"station_id":"ce4bgpp2rcd13ifvqc3g","pricing_plan_id":"free"},{"bike_id":"854b9367-0145-4ca9-9a9c-d01c4bc0ad2a","system_id":"levelo_inurba_marseille","lat":43.298433,"lon":5.362774,"is_reserved":false,"is_disabled":false,"rental_uris":{"android":"levelo://app?vid=854b9367-0145-4ca9-9a9c-d01c4bc0ad2a","ios":"levelo://app?vid=854b9367-0145-4ca9-9a9c-d01c4bc0ad2a"},"vehicle_type_id":"4","last_reported":1680257239,"current_range_meters":30800,"station_id":"ce4bgpp2rcd13ifvqc3g","pricing_plan_id":"free"},{"bike_id":"d39421f3-0fea-4caa-adb9-7eb964035e1a","system_id":"levelo_inurba_marseille","lat":43.298433,"lon":5.362774,"is_reserved":false,"is_disabled":false,"rental_uris":{"android":"levelo://app?vid=d39421f3-0fea-4caa-adb9-7eb964035e1a","ios":"levelo://app?vid=d39421f3-0fea-4caa-adb9-7eb964035e1a"},"vehicle_type_id":"4","last_reported":1680257239,"current_range_meters":26000,"station_id":"ce4bgpp2rcd13ifvqc3g","pricing_plan_id":"free"},{"bike_id":"c9e4aea1-6547-45bf-877d-8ba7fb6cfa65","system_id":"levelo_inurba_marseille","lat":43.298433,"lon":5.362774,"is_reserved":false,"is_disabled":false,"rental_uris":{"android":"levelo://app?vid=c9e4aea1-6547-45bf-877d-8ba7fb6cfa65","ios":"levelo://app?vid=c9e4aea1-6547-45bf-877d-8ba7fb6cfa65"},"vehicle_type_id":"4","last_reported":1680257239,"current_range_meters":31200,"station_id":"ce4bgpp2rcd13ifvqc3g","pricing_plan_id":"free"},{"bike_id":"822dfcc0-0598-4144-b8a7-3f5a0c81e03c","system_id":"levelo_inurba_marseille","lat":43.298433,"lon":5.362774,"is_reserved":false,"is_disabled":false,"rental_uris":{"android":"levelo://app?vid=822dfcc0-0598-4144-b8a7-3f5a0c81e03c","ios":"levelo://app?vid=822dfcc0-0598-4144-b8a7-3f5a0c81e03c"},"vehicle_type_id":"4","last_reported":1680257239,"current_range_meters":31200,"station_id":"ce4bgpp2rcd13ifvqc3g","pricing_plan_id":"free"},{"bike_id":"37a61459-aab2-4ad0-a560-dfbda6f1fcf8","system_id":"levelo_inurba_marseille","lat":43.298433,"lon":5.362774,"is_reserved":false,"is_disabled":false,"rental_uris":{"android":"levelo://app?vid=37a61459-aab2-4ad0-a560-dfbda6f1fcf8","ios":"levelo://app?vid=37a61459-aab2-4ad0-a560-dfbda6f1fcf8"},"vehicle_type_id":"4","last_reported":1680257239,"current_range_meters":30800,"station_id":"ce4bgpp2rcd13ifvqc3g","pricing_plan_id":"free"},{"bike_id":"0ff38bdf-d81a-4246-a7bf-12ffccda3f19","system_id":"levelo_inurba_marseille","lat":43.298433,"lon":5.362774,"is_reserved":false,"is_disabled":false,"rental_uris":{"android":"levelo://app?vid=0ff38bdf-d81a-4246-a7bf-12ffccda3f19","ios":"levelo://app?vid=0ff38bdf-d81a-4246-a7bf-12ffccda3f19"},"vehicle_type_id":"4","last_reported":1680257239,"current_range_meters":1200,"station_id":"ce4bgpp2rcd13ifvqc3g","pricing_plan_id":"free"},{"bike_id":"11ebbbca-2f81-491a-891d-74653fd68c0f","system_id":"levelo_inurba_marseille","lat":43.298433,"lon":5.362774,"is_reserved":false,"is_disabled":false,"rental_uris":{"android":"levelo://app?vid=11ebbbca-2f81-491a-891d-74653fd68c0f","ios":"levelo://app?vid=11ebbbca-2f81-491a-891d-74653fd68c0f"},"vehicle_type_id":"4","last_reported":1680257239,"current_range_meters":23600,"station_id":"ce4bgpp2rcd13ifvqc3g","pricing_plan_id":"free"},{"bike_id":"087d7a51-bfe0-441c-9954-2845c0fe2d90","system_id":"levelo_inurba_marseille","lat":43.298433,"lon":5.362774,"is_reserved":false,"is_disabled":false,"rental_uris":{"android":"levelo://app?vid=087d7a51-bfe0-441c-9954-2845c0fe2d90","ios":"levelo://app?vid=087d7a51-bfe0-441c-9954-2845c0fe2d90"},"vehicle_type_id":"4","last_reported":1680257239,"current_range_meters":31200,"station_id":"ce4bgpp2rcd13ifvqc3g","pricing_plan_id":"free"},{"bike_id":"5a8c555d-010c-4f88-9ab5-d539407722dc","system_id":"levelo_inurba_marseille","lat":43.298433,"lon":5.362774,"is_reserved":false,"is_disabled":false,"rental_uris":{"android":"levelo://app?vid=5a8c555d-010c-4f88-9ab5-d539407722dc","ios":"levelo://app?vid=5a8c555d-010c-4f88-9ab5-d539407722dc"},"vehicle_type_id":"4","last_reported":1680257239,"current_range_meters":9600,"station_id":"ce4bgpp2rcd13ifvqc3g","pricing_plan_id":"free"},{"bike_id":"63d069b2-1369-4cb7-ac7c-4eb5e0887316","system_id":"levelo_inurba_marseille","lat":43.298433,"lon":5.362774,"is_reserved":false,"is_disabled":false,"rental_uris":{"android":"levelo://app?vid=63d069b2-1369-4cb7-ac7c-4eb5e0887316","ios":"levelo://app?vid=63d069b2-1369-4cb7-ac7c-4eb5e0887316"},"vehicle_type_id":"4","last_reported":1680257239,"current_range_meters":31200,"station_id":"ce4bgpp2rcd13ifvqc3g","pricing_plan_id":"free"},{"bike_id":"447763f0-d216-4c6d-b65a-92f0002f943c","system_id":"levelo_inurba_marseille","lat":43.298433,"lon":5.362774,"is_reserved":false,"is_disabled":false,"rental_uris":{"android":"levelo://app?vid=447763f0-d216-4c6d-b65a-92f0002f943c","ios":"levelo://app?vid=447763f0-d216-4c6d-b65a-92f0002f943c"},"vehicle_type_id":"4","last_reported":1680257239,"current_range_meters":10000,"station_id":"ce4bgpp2rcd13ifvqc3g","pricing_plan_id":"free"},{"bike_id":"afbb50cb-df6f-466e-8f1a-ae39b2253973","system_id":"levelo_inurba_marseille","lat":43.298433,"lon":5.362774,"is_reserved":false,"is_disabled":false,"rental_uris":{"android":"levelo://app?vid=afbb50cb-df6f-466e-8f1a-ae39b2253973","ios":"levelo://app?vid=afbb50cb-df6f-466e-8f1a-ae39b2253973"},"vehicle_type_id":"4","last_reported":1680257239,"current_range_meters":27200,"station_id":"ce4bgpp2rcd13ifvqc3g","pricing_plan_id":"free"},{"bike_id":"37b0d573-a014-466f-bd12-b553a0208b25","system_id":"levelo_inurba_marseille","lat":43.298433,"lon":5.362774,"is_reserved":false,"is_disabled":false,"rental_uris":{"android":"levelo://app?vid=37b0d573-a014-466f-bd12-b553a0208b25","ios":"levelo://app?vid=37b0d573-a014-466f-bd12-b553a0208b25"},"vehicle_type_id":"4","last_reported":1680257239,"current_range_meters":25200,"station_id":"ce4bgpp2rcd13ifvqc3g","pricing_plan_id":"free"},{"bike_id":"d1157ba4-064b-4ba6-a8a2-2ce582daa25e","system_id":"levelo_inurba_marseille","lat":43.298433,"lon":5.362774,"is_reserved":false,"is_disabled":false,"rental_uris":{"android":"levelo://app?vid=d1157ba4-064b-4ba6-a8a2-2ce582daa25e","ios":"levelo://app?vid=d1157ba4-064b-4ba6-a8a2-2ce582daa25e"},"vehicle_type_id":"4","last_reported":1680257239,"current_range_meters":25200,"station_id":"ce4bgpp2rcd13ifvqc3g","pricing_plan_id":"free"},{"bike_id":"8114cedf-c15d-4d5c-afc5-971541006afe","system_id":"levelo_inurba_marseille","lat":43.299243,"lon":5.37481,"is_reserved":false,"is_disabled":false,"rental_uris":{"android":"levelo://app?vid=8114cedf-c15d-4d5c-afc5-971541006afe","ios":"levelo://app?vid=8114cedf-c15d-4d5c-afc5-971541006afe"},"vehicle_type_id":"4","last_reported":1680257239,"current_range_meters":0,"station_id":"ce4bgjh2rcd13ifvqbg0","pricing_plan_id":"free"},{"bike_id":"cbd4155a-4172-4eb1-94c9-9f1fef503a0b","system_id":"levelo_inurba_marseille","lat":43.311722,"lon":5.387247,"is_reserved":false,"is_disabled":false,"rental_uris":{"android":"levelo://app?vid=cbd4155a-4172-4eb1-94c9-9f1fef503a0b","ios":"levelo://app?vid=cbd4155a-4172-4eb1-94c9-9f1fef503a0b"},"vehicle_type_id":"4","last_reported":1680257239,"current_range_meters":26800,"station_id":"ce4bgv12rcd13ifvqcp0","pricing_plan_id":"free"},{"bike_id":"271d06c3-6c4d-4e13-80d8-67f48b5db8cc","system_id":"levelo_inurba_marseille","lat":43.311722,"lon":5.387247,"is_reserved":false,"is_disabled":false,"rental_uris":{"android":"levelo://app?vid=271d06c3-6c4d-4e13-80d8-67f48b5db8cc","ios":"levelo://app?vid=271d06c3-6c4d-4e13-80d8-67f48b5db8cc"},"vehicle_type_id":"4","last_reported":1680257239,"current_range_meters":18000,"station_id":"ce4bgv12rcd13ifvqcp0","pricing_plan_id":"free"},{"bike_id":"6cd6e7c4-4871-48fe-b7e2-9e8caa86c69a","system_id":"levelo_inurba_marseille","lat":43.297774,"lon":5.370875,"is_reserved":false,"is_disabled":false,"rental_uris":{"android":"levelo://app?vid=6cd6e7c4-4871-48fe-b7e2-9e8caa86c69a","ios":"levelo://app?vid=6cd6e7c4-4871-48fe-b7e2-9e8caa86c69a"},"vehicle_type_id":"4","last_reported":1680257239,"current_range_meters":25600,"station_id":"ce4bgop2rcd13ifvqc1g","pricing_plan_id":"free"},{"bike_id":"ed21b2d3-6be9-4a13-9819-c8721e7d2974","system_id":"levelo_inurba_marseille","lat":43.328371,"lon":5.366909,"is_reserved":false,"is_disabled":false,"rental_uris":{"android":"levelo://app?vid=ed21b2d3-6be9-4a13-9819-c8721e7d2974","ios":"levelo://app?vid=ed21b2d3-6be9-4a13-9819-c8721e7d2974"},"vehicle_type_id":"4","last_reported":1680257239,"current_range_meters":5600,"station_id":"ce4bhs92rcd13ifvqi0g","pricing_plan_id":"free"},{"bike_id":"9d7ac0d2-1638-4c35-aaae-8509844a9646","system_id":"levelo_inurba_marseille","lat":43.328371,"lon":5.366909,"is_reserved":false,"is_disabled":false,"rental_uris":{"android":"levelo://app?vid=9d7ac0d2-1638-4c35-aaae-8509844a9646","ios":"levelo://app?vid=9d7ac0d2-1638-4c35-aaae-8509844a9646"},"vehicle_type_id":"4","last_reported":1680257239,"current_range_meters":7600,"station_id":"ce4bhs92rcd13ifvqi0g","pricing_plan_id":"free"},{"bike_id":"93387397-e1cc-4c38-a022-416664727463","system_id":"levelo_inurba_marseille","lat":43.328371,"lon":5.366909,"is_reserved":false,"is_disabled":false,"rental_uris":{"android":"levelo://app?vid=93387397-e1cc-4c38-a022-416664727463","ios":"levelo://app?vid=93387397-e1cc-4c38-a022-416664727463"},"vehicle_type_id":"4","last_reported":1680257239,"current_range_meters":20800,"station_id":"ce4bhs92rcd13ifvqi0g","pricing_plan_id":"free"},{"bike_id":"6e9fd02f-0088-4765-aeaf-39608ac8479f","system_id":"levelo_inurba_marseille","lat":43.328371,"lon":5.366909,"is_reserved":false,"is_disabled":false,"rental_uris":{"android":"levelo://app?vid=6e9fd02f-0088-4765-aeaf-39608ac8479f","ios":"levelo://app?vid=6e9fd02f-0088-4765-aeaf-39608ac8479f"},"vehicle_type_id":"4","last_reported":1680257239,"current_range_meters":17200,"station_id":"ce4bhs92rcd13ifvqi0g","pricing_plan_id":"free"},{"bike_id":"e2851f0f-5734-4058-90d0-ed1db3eba5aa","system_id":"levelo_inurba_marseille","lat":43.29683,"lon":5.3729,"is_reserved":false,"is_disabled":false,"rental_uris":{"android":"levelo://app?vid=e2851f0f-5734-4058-90d0-ed1db3eba5aa","ios":"levelo://app?vid=e2851f0f-5734-4058-90d0-ed1db3eba5aa"},"vehicle_type_id":"4","last_reported":1680257239,"current_range_meters":13200,"station_id":"","pricing_plan_id":"free"},{"bike_id":"03cbe7ae-839a-4fc0-a807-d9f7fe014a84","system_id":"levelo_inurba_marseille","lat":43.29573,"lon":5.367355,"is_reserved":false,"is_disabled":false,"rental_uris":{"android":"levelo://app?vid=03cbe7ae-839a-4fc0-a807-d9f7fe014a84","ios":"levelo://app?vid=03cbe7ae-839a-4fc0-a807-d9f7fe014a84"},"vehicle_type_id":"4","last_reported":1680257239,"current_range_meters":15200,"station_id":"ce4bgph2rcd13ifvqc2g","pricing_plan_id":"free"},{"bike_id":"5d1837ad-5261-407c-a593-470fa1ea5ce4","system_id":"levelo_inurba_marseille","lat":43.29573,"lon":5.367355,"is_reserved":false,"is_disabled":false,"rental_uris":{"android":"levelo://app?vid=5d1837ad-5261-407c-a593-470fa1ea5ce4","ios":"levelo://app?vid=5d1837ad-5261-407c-a593-470fa1ea5ce4"},"vehicle_type_id":"4","last_reported":1680257239,"current_range_meters":6400,"station_id":"ce4bgph2rcd13ifvqc2g","pricing_plan_id":"free"},{"bike_id":"c2b0c3d8-0c23-4080-a95f-2c1732c672b3","system_id":"levelo_inurba_marseille","lat":43.29573,"lon":5.367355,"is_reserved":false,"is_disabled":false,"rental_uris":{"android":"levelo://app?vid=c2b0c3d8-0c23-4080-a95f-2c1732c672b3","ios":"levelo://app?vid=c2b0c3d8-0c23-4080-a95f-2c1732c672b3"},"vehicle_type_id":"4","last_reported":1680257239,"current_range_meters":27200,"station_id":"ce4bgph2rcd13ifvqc2g","pricing_plan_id":"free"},{"bike_id":"383b9a89-2857-4393-9503-d207448d9b54","system_id":"levelo_inurba_marseille","lat":43.29582,"lon":5.36738,"is_reserved":false,"is_disabled":false,"rental_uris":{"android":"levelo://app?vid=383b9a89-2857-4393-9503-d207448d9b54","ios":"levelo://app?vid=383b9a89-2857-4393-9503-d207448d9b54"},"vehicle_type_id":"4","last_reported":1680257239,"current_range_meters":25200,"station_id":"ce4bgph2rcd13ifvqc2g","pricing_plan_id":"free"},{"bike_id":"bdf96e27-5710-4e61-b13b-b277547609d3","system_id":"levelo_inurba_marseille","lat":43.29573,"lon":5.367355,"is_reserved":false,"is_disabled":false,"rental_uris":{"android":"levelo://app?vid=bdf96e27-5710-4e61-b13b-b277547609d3","ios":"levelo://app?vid=bdf96e27-5710-4e61-b13b-b277547609d3"},"vehicle_type_id":"4","last_reported":1680257239,"current_range_meters":20800,"station_id":"ce4bgph2rcd13ifvqc2g","pricing_plan_id":"free"},{"bike_id":"b8488b21-ff8f-42d6-ab7c-f3bda2410821","system_id":"levelo_inurba_marseille","lat":43.296921,"lon":5.376579,"is_reserved":false,"is_disabled":false,"rental_uris":{"android":"levelo://app?vid=b8488b21-ff8f-42d6-ab7c-f3bda2410821","ios":"levelo://app?vid=b8488b21-ff8f-42d6-ab7c-f3bda2410821"},"vehicle_type_id":"4","last_reported":1680257239,"current_range_meters":18000,"station_id":"ce4bgkh2rcd13ifvqbl0","pricing_plan_id":"free"},{"bike_id":"8cf5d931-aa2f-42a7-adc8-9adaad001fa0","system_id":"levelo_inurba_marseille","lat":43.296921,"lon":5.376579,"is_reserved":false,"is_disabled":false,"rental_uris":{"android":"levelo://app?vid=8cf5d931-aa2f-42a7-adc8-9adaad001fa0","ios":"levelo://app?vid=8cf5d931-aa2f-42a7-adc8-9adaad001fa0"},"vehicle_type_id":"4","last_reported":1680257239,"current_range_meters":18000,"station_id":"ce4bgkh2rcd13ifvqbl0","pricing_plan_id":"free"},{"bike_id":"8771821c-0e7a-4d61-926d-77141c2df875","system_id":"levelo_inurba_marseille","lat":43.296921,"lon":5.376579,"is_reserved":false,"is_disabled":false,"rental_uris":{"android":"levelo://app?vid=8771821c-0e7a-4d61-926d-77141c2df875","ios":"levelo://app?vid=8771821c-0e7a-4d61-926d-77141c2df875"},"vehicle_type_id":"4","last_reported":1680257239,"current_range_meters":12800,"station_id":"ce4bgkh2rcd13ifvqbl0","pricing_plan_id":"free"},{"bike_id":"c6eecca3-3bfb-4add-a03b-22d138100088","system_id":"levelo_inurba_marseille","lat":43.309589,"lon":5.390258,"is_reserved":false,"is_disabled":false,"rental_uris":{"android":"levelo://app?vid=c6eecca3-3bfb-4add-a03b-22d138100088","ios":"levelo://app?vid=c6eecca3-3bfb-4add-a03b-22d138100088"},"vehicle_type_id":"4","last_reported":1680257239,"current_range_meters":22000,"station_id":"ce4bgup2rcd13ifvqco0","pricing_plan_id":"free"},{"bike_id":"4ab3a487-5b58-4309-925e-00cccad851d0","system_id":"levelo_inurba_marseille","lat":43.298037,"lon":5.381066,"is_reserved":false,"is_disabled":false,"rental_uris":{"android":"levelo://app?vid=4ab3a487-5b58-4309-925e-00cccad851d0","ios":"levelo://app?vid=4ab3a487-5b58-4309-925e-00cccad851d0"},"vehicle_type_id":"4","last_reported":1680257239,"current_range_meters":14800,"station_id":"ce4bgip2rcd13ifvqbb0","pricing_plan_id":"free"},{"bike_id":"49e5fab1-474d-4961-b3e3-20ee0709be06","system_id":"levelo_inurba_marseille","lat":43.298037,"lon":5.381066,"is_reserved":false,"is_disabled":false,"rental_uris":{"android":"levelo://app?vid=49e5fab1-474d-4961-b3e3-20ee0709be06","ios":"levelo://app?vid=49e5fab1-474d-4961-b3e3-20ee0709be06"},"vehicle_type_id":"4","last_reported":1680257239,"current_range_meters":26000,"station_id":"ce4bgip2rcd13ifvqbb0","pricing_plan_id":"free"},{"bike_id":"d51b449a-c100-4b4c-ba7d-bfbc78511ed2","system_id":"levelo_inurba_marseille","lat":43.298037,"lon":5.381066,"is_reserved":false,"is_disabled":false,"rental_uris":{"android":"levelo://app?vid=d51b449a-c100-4b4c-ba7d-bfbc78511ed2","ios":"levelo://app?vid=d51b449a-c100-4b4c-ba7d-bfbc78511ed2"},"vehicle_type_id":"4","last_reported":1680257239,"current_range_meters":31200,"station_id":"ce4bgip2rcd13ifvqbb0","pricing_plan_id":"free"},{"bike_id":"73476a15-7e77-4e74-b4fa-8a5798608b86","system_id":"levelo_inurba_marseille","lat":43.298037,"lon":5.381066,"is_reserved":false,"is_disabled":false,"rental_uris":{"android":"levelo://app?vid=73476a15-7e77-4e74-b4fa-8a5798608b86","ios":"levelo://app?vid=73476a15-7e77-4e74-b4fa-8a5798608b86"},"vehicle_type_id":"4","last_reported":1680257239,"current_range_meters":18800,"station_id":"ce4bgip2rcd13ifvqbb0","pricing_plan_id":"free"},{"bike_id":"3213a4c2-4076-4231-b396-78d4d4ddc308","system_id":"levelo_inurba_marseille","lat":43.298037,"lon":5.381066,"is_reserved":false,"is_disabled":false,"rental_uris":{"android":"levelo://app?vid=3213a4c2-4076-4231-b396-78d4d4ddc308","ios":"levelo://app?vid=3213a4c2-4076-4231-b396-78d4d4ddc308"},"vehicle_type_id":"4","last_reported":1680257239,"current_range_meters":19200,"station_id":"ce4bgip2rcd13ifvqbb0","pricing_plan_id":"free"},{"bike_id":"70c4fdb7-0b20-4406-8292-7111bb488a7f","system_id":"levelo_inurba_marseille","lat":43.298037,"lon":5.381066,"is_reserved":false,"is_disabled":false,"rental_uris":{"android":"levelo://app?vid=70c4fdb7-0b20-4406-8292-7111bb488a7f","ios":"levelo://app?vid=70c4fdb7-0b20-4406-8292-7111bb488a7f"},"vehicle_type_id":"4","last_reported":1680257239,"current_range_meters":31200,"station_id":"ce4bgip2rcd13ifvqbb0","pricing_plan_id":"free"},{"bike_id":"3fdd8844-4454-461b-91c1-403831a9b848","system_id":"levelo_inurba_marseille","lat":43.29565,"lon":5.37505,"is_reserved":false,"is_disabled":false,"rental_uris":{"android":"levelo://app?vid=3fdd8844-4454-461b-91c1-403831a9b848","ios":"levelo://app?vid=3fdd8844-4454-461b-91c1-403831a9b848"},"vehicle_type_id":"4","last_reported":1680257239,"current_range_meters":30800,"station_id":"ce4bgh92rcd13ifvqb50","pricing_plan_id":"free"},{"bike_id":"df6c0b36-1700-4d49-bbd3-6601c8f81343","system_id":"levelo_inurba_marseille","lat":43.29563,"lon":5.37508,"is_reserved":false,"is_disabled":false,"rental_uris":{"android":"levelo://app?vid=df6c0b36-1700-4d49-bbd3-6601c8f81343","ios":"levelo://app?vid=df6c0b36-1700-4d49-bbd3-6601c8f81343"},"vehicle_type_id":"4","last_reported":1680257239,"current_range_meters":27200,"station_id":"ce4bgh92rcd13ifvqb50","pricing_plan_id":"free"},{"bike_id":"cf946883-714a-43c6-8706-fb0f1e45d92d","system_id":"levelo_inurba_marseille","lat":43.298037,"lon":5.381066,"is_reserved":false,"is_disabled":false,"rental_uris":{"android":"levelo://app?vid=cf946883-714a-43c6-8706-fb0f1e45d92d","ios":"levelo://app?vid=cf946883-714a-43c6-8706-fb0f1e45d92d"},"vehicle_type_id":"4","last_reported":1680257239,"current_range_meters":18400,"station_id":"ce4bgip2rcd13ifvqbb0","pricing_plan_id":"free"},{"bike_id":"da433a10-98df-46e8-9f0e-37ca35220d00","system_id":"levelo_inurba_marseille","lat":43.298037,"lon":5.381066,"is_reserved":false,"is_disabled":false,"rental_uris":{"android":"levelo://app?vid=da433a10-98df-46e8-9f0e-37ca35220d00","ios":"levelo://app?vid=da433a10-98df-46e8-9f0e-37ca35220d00"},"vehicle_type_id":"4","last_reported":1680257239,"current_range_meters":20800,"station_id":"ce4bgip2rcd13ifvqbb0","pricing_plan_id":"free"},{"bike_id":"4a15f699-85dc-49fd-97d0-a5b748b8d5ac","system_id":"levelo_inurba_marseille","lat":43.295748,"lon":5.37522,"is_reserved":false,"is_disabled":false,"rental_uris":{"android":"levelo://app?vid=4a15f699-85dc-49fd-97d0-a5b748b8d5ac","ios":"levelo://app?vid=4a15f699-85dc-49fd-97d0-a5b748b8d5ac"},"vehicle_type_id":"4","last_reported":1680257239,"current_range_meters":30400,"station_id":"ce4bgh92rcd13ifvqb50","pricing_plan_id":"free"},{"bike_id":"ddbcea04-125c-4c66-8f9e-9271af3d07b0","system_id":"levelo_inurba_marseille","lat":43.295748,"lon":5.37522,"is_reserved":false,"is_disabled":false,"rental_uris":{"android":"levelo://app?vid=ddbcea04-125c-4c66-8f9e-9271af3d07b0","ios":"levelo://app?vid=ddbcea04-125c-4c66-8f9e-9271af3d07b0"},"vehicle_type_id":"4","last_reported":1680257239,"current_range_meters":31600,"station_id":"ce4bgh92rcd13ifvqb50","pricing_plan_id":"free"},{"bike_id":"e76799cb-2634-43af-83eb-05045f0d8ca9","system_id":"levelo_inurba_marseille","lat":43.295279,"lon":5.375048,"is_reserved":false,"is_disabled":false,"rental_uris":{"android":"levelo://app?vid=e76799cb-2634-43af-83eb-05045f0d8ca9","ios":"levelo://app?vid=e76799cb-2634-43af-83eb-05045f0d8ca9"},"vehicle_type_id":"4","last_reported":1680257239,"current_range_meters":12000,"station_id":"ce4bgkp2rcd13ifvqbmg","pricing_plan_id":"free"},{"bike_id":"0a3ab21f-a0a9-4cd4-b7da-40c98355b513","system_id":"levelo_inurba_marseille","lat":43.29972,"lon":5.38483,"is_reserved":false,"is_disabled":false,"rental_uris":{"android":"levelo://app?vid=0a3ab21f-a0a9-4cd4-b7da-40c98355b513","ios":"levelo://app?vid=0a3ab21f-a0a9-4cd4-b7da-40c98355b513"},"vehicle_type_id":"4","last_reported":1680257239,"current_range_meters":5200,"station_id":"ce4bgj92rcd13ifvqbd0","pricing_plan_id":"free"},{"bike_id":"12ed6dc1-6b7e-4c85-93a4-39adbf46109c","system_id":"levelo_inurba_marseille","lat":43.32435,"lon":5.38814,"is_reserved":false,"is_disabled":false,"rental_uris":{"android":"levelo://app?vid=12ed6dc1-6b7e-4c85-93a4-39adbf46109c","ios":"levelo://app?vid=12ed6dc1-6b7e-4c85-93a4-39adbf46109c"},"vehicle_type_id":"4","last_reported":1680257239,"current_range_meters":18400,"station_id":"","pricing_plan_id":"free"},{"bike_id":"f31ffdc1-8829-4676-b6ea-43e9239f552a","system_id":"levelo_inurba_marseille","lat":43.293009,"lon":5.374584,"is_reserved":false,"is_disabled":false,"rental_uris":{"android":"levelo://app?vid=f31ffdc1-8829-4676-b6ea-43e9239f552a","ios":"levelo://app?vid=f31ffdc1-8829-4676-b6ea-43e9239f552a"},"vehicle_type_id":"4","last_reported":1680257239,"current_range_meters":22400,"station_id":"ce4bgi12rcd13ifvqb70","pricing_plan_id":"free"},{"bike_id":"7cff0608-3b68-4369-8309-9f6cd0de1a51","system_id":"levelo_inurba_marseille","lat":43.293009,"lon":5.374584,"is_reserved":false,"is_disabled":false,"rental_uris":{"android":"levelo://app?vid=7cff0608-3b68-4369-8309-9f6cd0de1a51","ios":"levelo://app?vid=7cff0608-3b68-4369-8309-9f6cd0de1a51"},"vehicle_type_id":"4","last_reported":1680257239,"current_range_meters":31200,"station_id":"ce4bgi12rcd13ifvqb70","pricing_plan_id":"free"},{"bike_id":"400c7110-d8a3-4da4-9a71-21b4f06808c4","system_id":"levelo_inurba_marseille","lat":43.2936,"lon":5.37835,"is_reserved":false,"is_disabled":false,"rental_uris":{"android":"levelo://app?vid=400c7110-d8a3-4da4-9a71-21b4f06808c4","ios":"levelo://app?vid=400c7110-d8a3-4da4-9a71-21b4f06808c4"},"vehicle_type_id":"4","last_reported":1680257239,"current_range_meters":24000,"station_id":"ce4bgjh2rcd13ifvqbf0","pricing_plan_id":"free"},{"bike_id":"87d42b16-f593-40c6-be7d-80394e848830","system_id":"levelo_inurba_marseille","lat":43.2936,"lon":5.37835,"is_reserved":false,"is_disabled":false,"rental_uris":{"android":"levelo://app?vid=87d42b16-f593-40c6-be7d-80394e848830","ios":"levelo://app?vid=87d42b16-f593-40c6-be7d-80394e848830"},"vehicle_type_id":"4","last_reported":1680257239,"current_range_meters":25200,"station_id":"ce4bgjh2rcd13ifvqbf0","pricing_plan_id":"free"},{"bike_id":"1497bc2d-5b0f-4c32-9914-d5bb8f071eb8","system_id":"levelo_inurba_marseille","lat":43.2936,"lon":5.37835,"is_reserved":false,"is_disabled":false,"rental_uris":{"android":"levelo://app?vid=1497bc2d-5b0f-4c32-9914-d5bb8f071eb8","ios":"levelo://app?vid=1497bc2d-5b0f-4c32-9914-d5bb8f071eb8"},"vehicle_type_id":"4","last_reported":1680257239,"current_range_meters":28400,"station_id":"ce4bgjh2rcd13ifvqbf0","pricing_plan_id":"free"},{"bike_id":"f8075538-b90e-4064-857c-fc1f844bf222","system_id":"levelo_inurba_marseille","lat":43.2936,"lon":5.37835,"is_reserved":false,"is_disabled":false,"rental_uris":{"android":"levelo://app?vid=f8075538-b90e-4064-857c-fc1f844bf222","ios":"levelo://app?vid=f8075538-b90e-4064-857c-fc1f844bf222"},"vehicle_type_id":"4","last_reported":1680257239,"current_range_meters":27200,"station_id":"ce4bgjh2rcd13ifvqbf0","pricing_plan_id":"free"},{"bike_id":"3229ad07-ab70-476d-9f93-b43a515aa36f","system_id":"levelo_inurba_marseille","lat":43.300852,"lon":5.390859,"is_reserved":false,"is_disabled":false,"rental_uris":{"android":"levelo://app?vid=3229ad07-ab70-476d-9f93-b43a515aa36f","ios":"levelo://app?vid=3229ad07-ab70-476d-9f93-b43a515aa36f"},"vehicle_type_id":"4","last_reported":1680257239,"current_range_meters":0,"station_id":"ce4bh192rcd13ifvqdb0","pricing_plan_id":"free"},{"bike_id":"91583f8c-1752-462c-a6e4-0236c176153e","system_id":"levelo_inurba_marseille","lat":43.298764,"lon":5.388973,"is_reserved":false,"is_disabled":false,"rental_uris":{"android":"levelo://app?vid=91583f8c-1752-462c-a6e4-0236c176153e","ios":"levelo://app?vid=91583f8c-1752-462c-a6e4-0236c176153e"},"vehicle_type_id":"4","last_reported":1680257239,"current_range_meters":0,"station_id":"ce4bh392rcd13ifvqdl0","pricing_plan_id":"free"},{"bike_id":"e3022575-a2f3-4b0a-aea6-faca3975c149","system_id":"levelo_inurba_marseille","lat":43.29165,"lon":5.37162,"is_reserved":false,"is_disabled":false,"rental_uris":{"android":"levelo://app?vid=e3022575-a2f3-4b0a-aea6-faca3975c149","ios":"levelo://app?vid=e3022575-a2f3-4b0a-aea6-faca3975c149"},"vehicle_type_id":"4","last_reported":1680257239,"current_range_meters":25200,"station_id":"ce4bha92rcd13ifvqeh0","pricing_plan_id":"free"},{"bike_id":"c40f9525-11a6-4bd0-b173-f55eb3ff8933","system_id":"levelo_inurba_marseille","lat":43.313291,"lon":5.396838,"is_reserved":false,"is_disabled":false,"rental_uris":{"android":"levelo://app?vid=c40f9525-11a6-4bd0-b173-f55eb3ff8933","ios":"levelo://app?vid=c40f9525-11a6-4bd0-b173-f55eb3ff8933"},"vehicle_type_id":"4","last_reported":1680257239,"current_range_meters":0,"station_id":"ce4bgvp2rcd13ifvqcu0","pricing_plan_id":"free"},{"bike_id":"96e14547-a645-42ae-a525-45648301c018","system_id":"levelo_inurba_marseille","lat":43.290779,"lon":5.371482,"is_reserved":false,"is_disabled":false,"rental_uris":{"android":"levelo://app?vid=96e14547-a645-42ae-a525-45648301c018","ios":"levelo://app?vid=96e14547-a645-42ae-a525-45648301c018"},"vehicle_type_id":"4","last_reported":1680257239,"current_range_meters":2400,"station_id":"ce4bh5p2rcd13ifvqe4g","pricing_plan_id":"free"},{"bike_id":"3cc8f52c-2255-4463-96ad-dc0e40ea600f","system_id":"levelo_inurba_marseille","lat":43.30202,"lon":5.39461,"is_reserved":false,"is_disabled":false,"rental_uris":{"android":"levelo://app?vid=3cc8f52c-2255-4463-96ad-dc0e40ea600f","ios":"levelo://app?vid=3cc8f52c-2255-4463-96ad-dc0e40ea600f"},"vehicle_type_id":"4","last_reported":1680257239,"current_range_meters":0,"station_id":"ce4bh0p2rcd13ifvqd70","pricing_plan_id":"free"},{"bike_id":"61759f98-20b1-4644-b2a1-c758d2555678","system_id":"levelo_inurba_marseille","lat":43.290624,"lon":5.359245,"is_reserved":false,"is_disabled":false,"rental_uris":{"android":"levelo://app?vid=61759f98-20b1-4644-b2a1-c758d2555678","ios":"levelo://app?vid=61759f98-20b1-4644-b2a1-c758d2555678"},"vehicle_type_id":"4","last_reported":1680257239,"current_range_meters":22800,"station_id":"ce4bha92rcd13ifvqeg0","pricing_plan_id":"free"},{"bike_id":"294a0d42-2eb0-426f-bfaa-740dcde47f17","system_id":"levelo_inurba_marseille","lat":43.284217,"lon":5.349697,"is_reserved":false,"is_disabled":false,"rental_uris":{"android":"levelo://app?vid=294a0d42-2eb0-426f-bfaa-740dcde47f17","ios":"levelo://app?vid=294a0d42-2eb0-426f-bfaa-740dcde47f17"},"vehicle_type_id":"4","last_reported":1680257239,"current_range_meters":30400,"station_id":"ce4bhbh2rcd13ifvqepg","pricing_plan_id":"free"},{"bike_id":"d33235ba-ade2-4519-9932-cb874ce90fac","system_id":"levelo_inurba_marseille","lat":43.304274,"lon":5.397513,"is_reserved":false,"is_disabled":false,"rental_uris":{"android":"levelo://app?vid=d33235ba-ade2-4519-9932-cb874ce90fac","ios":"levelo://app?vid=d33235ba-ade2-4519-9932-cb874ce90fac"},"vehicle_type_id":"4","last_reported":1680257239,"current_range_meters":23600,"station_id":"ce4bh092rcd13ifvqd20","pricing_plan_id":"free"},{"bike_id":"7e8ddb49-911d-47e4-8f23-5436f30571b8","system_id":"levelo_inurba_marseille","lat":43.304296,"lon":5.397513,"is_reserved":false,"is_disabled":false,"rental_uris":{"android":"levelo://app?vid=7e8ddb49-911d-47e4-8f23-5436f30571b8","ios":"levelo://app?vid=7e8ddb49-911d-47e4-8f23-5436f30571b8"},"vehicle_type_id":"4","last_reported":1680257239,"current_range_meters":11600,"station_id":"ce4bh092rcd13ifvqd20","pricing_plan_id":"free"},{"bike_id":"a71c1754-9218-4d33-8da9-5340fe9277ee","system_id":"levelo_inurba_marseille","lat":43.292644,"lon":5.384257,"is_reserved":false,"is_disabled":false,"rental_uris":{"android":"levelo://app?vid=a71c1754-9218-4d33-8da9-5340fe9277ee","ios":"levelo://app?vid=a71c1754-9218-4d33-8da9-5340fe9277ee"},"vehicle_type_id":"4","last_reported":1680257239,"current_range_meters":24800,"station_id":"ce4bh692rcd13ifvqea0","pricing_plan_id":"free"},{"bike_id":"13f66134-15f5-4b9b-9668-13853a6bf045","system_id":"levelo_inurba_marseille","lat":43.30426,"lon":5.39747,"is_reserved":false,"is_disabled":false,"rental_uris":{"android":"levelo://app?vid=13f66134-15f5-4b9b-9668-13853a6bf045","ios":"levelo://app?vid=13f66134-15f5-4b9b-9668-13853a6bf045"},"vehicle_type_id":"4","last_reported":1680257239,"current_range_meters":28000,"station_id":"ce4bh092rcd13ifvqd20","pricing_plan_id":"free"},{"bike_id":"c9dd3fa3-abdc-4a94-b105-ecf4cb738587","system_id":"levelo_inurba_marseille","lat":43.292644,"lon":5.384257,"is_reserved":false,"is_disabled":false,"rental_uris":{"android":"levelo://app?vid=c9dd3fa3-abdc-4a94-b105-ecf4cb738587","ios":"levelo://app?vid=c9dd3fa3-abdc-4a94-b105-ecf4cb738587"},"vehicle_type_id":"4","last_reported":1680257239,"current_range_meters":18800,"station_id":"ce4bh692rcd13ifvqea0","pricing_plan_id":"free"},{"bike_id":"64686ebe-dc65-4fe4-887b-48a3df8885f3","system_id":"levelo_inurba_marseille","lat":43.292644,"lon":5.384257,"is_reserved":false,"is_disabled":false,"rental_uris":{"android":"levelo://app?vid=64686ebe-dc65-4fe4-887b-48a3df8885f3","ios":"levelo://app?vid=64686ebe-dc65-4fe4-887b-48a3df8885f3"},"vehicle_type_id":"4","last_reported":1680257239,"current_range_meters":24800,"station_id":"ce4bh692rcd13ifvqea0","pricing_plan_id":"free"},{"bike_id":"cf5307f7-9220-43b5-bda4-d3f1dcdda2fb","system_id":"levelo_inurba_marseille","lat":43.304274,"lon":5.397513,"is_reserved":false,"is_disabled":false,"rental_uris":{"android":"levelo://app?vid=cf5307f7-9220-43b5-bda4-d3f1dcdda2fb","ios":"levelo://app?vid=cf5307f7-9220-43b5-bda4-d3f1dcdda2fb"},"vehicle_type_id":"4","last_reported":1680257239,"current_range_meters":400,"station_id":"ce4bh092rcd13ifvqd20","pricing_plan_id":"free"},{"bike_id":"477c3408-891f-4899-832a-1622ddbb6b56","system_id":"levelo_inurba_marseille","lat":43.33038,"lon":5.38912,"is_reserved":false,"is_disabled":false,"rental_uris":{"android":"levelo://app?vid=477c3408-891f-4899-832a-1622ddbb6b56","ios":"levelo://app?vid=477c3408-891f-4899-832a-1622ddbb6b56"},"vehicle_type_id":"4","last_reported":1680257239,"current_range_meters":26000,"station_id":"ce4bhr92rcd13ifvqhrg","pricing_plan_id":"free"},{"bike_id":"35e866f3-6152-4e04-ae44-c46e052537a0","system_id":"levelo_inurba_marseille","lat":43.3304,"lon":5.38916,"is_reserved":false,"is_disabled":false,"rental_uris":{"android":"levelo://app?vid=35e866f3-6152-4e04-ae44-c46e052537a0","ios":"levelo://app?vid=35e866f3-6152-4e04-ae44-c46e052537a0"},"vehicle_type_id":"4","last_reported":1680257239,"current_range_meters":21600,"station_id":"ce4bhr92rcd13ifvqhrg","pricing_plan_id":"free"},{"bike_id":"90381898-e3cf-47e3-b0b1-0c564e9826b4","system_id":"levelo_inurba_marseille","lat":43.33043,"lon":5.38915,"is_reserved":false,"is_disabled":false,"rental_uris":{"android":"levelo://app?vid=90381898-e3cf-47e3-b0b1-0c564e9826b4","ios":"levelo://app?vid=90381898-e3cf-47e3-b0b1-0c564e9826b4"},"vehicle_type_id":"4","last_reported":1680257239,"current_range_meters":3600,"station_id":"ce4bhr92rcd13ifvqhrg","pricing_plan_id":"free"},{"bike_id":"825c3953-e9f5-4347-97dd-595768ca1f90","system_id":"levelo_inurba_marseille","lat":43.33042,"lon":5.38918,"is_reserved":false,"is_disabled":false,"rental_uris":{"android":"levelo://app?vid=825c3953-e9f5-4347-97dd-595768ca1f90","ios":"levelo://app?vid=825c3953-e9f5-4347-97dd-595768ca1f90"},"vehicle_type_id":"4","last_reported":1680257239,"current_range_meters":12800,"station_id":"ce4bhr92rcd13ifvqhrg","pricing_plan_id":"free"},{"bike_id":"c5683c88-ba27-4d9d-8de5-1c420aa06720","system_id":"levelo_inurba_marseille","lat":43.33044,"lon":5.38918,"is_reserved":false,"is_disabled":false,"rental_uris":{"android":"levelo://app?vid=c5683c88-ba27-4d9d-8de5-1c420aa06720","ios":"levelo://app?vid=c5683c88-ba27-4d9d-8de5-1c420aa06720"},"vehicle_type_id":"4","last_reported":1680257239,"current_range_meters":800,"station_id":"ce4bhr92rcd13ifvqhrg","pricing_plan_id":"free"},{"bike_id":"ac070f9a-8712-4d72-ab03-39c09b790e6a","system_id":"levelo_inurba_marseille","lat":43.290103,"lon":5.356114,"is_reserved":false,"is_disabled":false,"rental_uris":{"android":"levelo://app?vid=ac070f9a-8712-4d72-ab03-39c09b790e6a","ios":"levelo://app?vid=ac070f9a-8712-4d72-ab03-39c09b790e6a"},"vehicle_type_id":"4","last_reported":1680257239,"current_range_meters":18000,"station_id":"ce4bhb92rcd13ifvqen0","pricing_plan_id":"free"},{"bike_id":"b6696453-13a3-4542-8b89-096072fe8486","system_id":"levelo_inurba_marseille","lat":43.33048,"lon":5.38915,"is_reserved":false,"is_disabled":false,"rental_uris":{"android":"levelo://app?vid=b6696453-13a3-4542-8b89-096072fe8486","ios":"levelo://app?vid=b6696453-13a3-4542-8b89-096072fe8486"},"vehicle_type_id":"4","last_reported":1680257239,"current_range_meters":3600,"station_id":"ce4bhr92rcd13ifvqhrg","pricing_plan_id":"free"},{"bike_id":"d325c193-bd89-435a-b0ce-c91203cb4259","system_id":"levelo_inurba_marseille","lat":43.29336,"lon":5.3864,"is_reserved":false,"is_disabled":false,"rental_uris":{"android":"levelo://app?vid=d325c193-bd89-435a-b0ce-c91203cb4259","ios":"levelo://app?vid=d325c193-bd89-435a-b0ce-c91203cb4259"},"vehicle_type_id":"4","last_reported":1680257239,"current_range_meters":0,"station_id":"","pricing_plan_id":"free"},{"bike_id":"475dc6d0-1d05-470d-a611-dc0237667d0b","system_id":"levelo_inurba_marseille","lat":43.290104,"lon":5.356111,"is_reserved":false,"is_disabled":false,"rental_uris":{"android":"levelo://app?vid=475dc6d0-1d05-470d-a611-dc0237667d0b","ios":"levelo://app?vid=475dc6d0-1d05-470d-a611-dc0237667d0b"},"vehicle_type_id":"4","last_reported":1680257239,"current_range_meters":30000,"station_id":"ce4bhb92rcd13ifvqen0","pricing_plan_id":"free"},{"bike_id":"5b6d5d90-554a-454d-9135-be91066c83a4","system_id":"levelo_inurba_marseille","lat":43.29098,"lon":5.38134,"is_reserved":false,"is_disabled":false,"rental_uris":{"android":"levelo://app?vid=5b6d5d90-554a-454d-9135-be91066c83a4","ios":"levelo://app?vid=5b6d5d90-554a-454d-9135-be91066c83a4"},"vehicle_type_id":"4","last_reported":1680257239,"current_range_meters":3200,"station_id":"ce4bh512rcd13ifvqe2g","pricing_plan_id":"free"},{"bike_id":"d580df43-dadd-40e8-8247-6941bf4253a2","system_id":"levelo_inurba_marseille","lat":43.29095,"lon":5.3813,"is_reserved":false,"is_disabled":false,"rental_uris":{"android":"levelo://app?vid=d580df43-dadd-40e8-8247-6941bf4253a2","ios":"levelo://app?vid=d580df43-dadd-40e8-8247-6941bf4253a2"},"vehicle_type_id":"4","last_reported":1680257239,"current_range_meters":3600,"station_id":"ce4bh512rcd13ifvqe2g","pricing_plan_id":"free"},{"bike_id":"8a4d78f6-9c4a-4942-a881-dc828a079baa","system_id":"levelo_inurba_marseille","lat":43.33754,"lon":5.37459,"is_reserved":false,"is_disabled":false,"rental_uris":{"android":"levelo://app?vid=8a4d78f6-9c4a-4942-a881-dc828a079baa","ios":"levelo://app?vid=8a4d78f6-9c4a-4942-a881-dc828a079baa"},"vehicle_type_id":"4","last_reported":1680257239,"current_range_meters":18000,"station_id":"","pricing_plan_id":"free"},{"bike_id":"9f186915-d0ac-4d58-8da4-09999d2cd3e6","system_id":"levelo_inurba_marseille","lat":43.33756,"lon":5.37457,"is_reserved":false,"is_disabled":false,"rental_uris":{"android":"levelo://app?vid=9f186915-d0ac-4d58-8da4-09999d2cd3e6","ios":"levelo://app?vid=9f186915-d0ac-4d58-8da4-09999d2cd3e6"},"vehicle_type_id":"4","last_reported":1680257239,"current_range_meters":30400,"station_id":"","pricing_plan_id":"free"},{"bike_id":"0cb2d042-89db-45b2-a19e-f14c63896901","system_id":"levelo_inurba_marseille","lat":43.28813,"lon":5.3567,"is_reserved":false,"is_disabled":false,"rental_uris":{"android":"levelo://app?vid=0cb2d042-89db-45b2-a19e-f14c63896901","ios":"levelo://app?vid=0cb2d042-89db-45b2-a19e-f14c63896901"},"vehicle_type_id":"4","last_reported":1680257239,"current_range_meters":0,"station_id":"","pricing_plan_id":"free"},{"bike_id":"000d7aa8-ab2b-424f-9b5a-f845f7018614","system_id":"levelo_inurba_marseille","lat":43.301117,"lon":5.398795,"is_reserved":false,"is_disabled":false,"rental_uris":{"android":"levelo://app?vid=000d7aa8-ab2b-424f-9b5a-f845f7018614","ios":"levelo://app?vid=000d7aa8-ab2b-424f-9b5a-f845f7018614"},"vehicle_type_id":"4","last_reported":1680257239,"current_range_meters":19600,"station_id":"ce4bh0h2rcd13ifvqd40","pricing_plan_id":"free"},{"bike_id":"a1f99fc7-1a5a-4f7f-aca0-67ce66d1c544","system_id":"levelo_inurba_marseille","lat":43.301117,"lon":5.398795,"is_reserved":false,"is_disabled":false,"rental_uris":{"android":"levelo://app?vid=a1f99fc7-1a5a-4f7f-aca0-67ce66d1c544","ios":"levelo://app?vid=a1f99fc7-1a5a-4f7f-aca0-67ce66d1c544"},"vehicle_type_id":"4","last_reported":1680257239,"current_range_meters":800,"station_id":"ce4bh0h2rcd13ifvqd40","pricing_plan_id":"free"},{"bike_id":"08d7addc-a968-46d2-9a8e-601560991fa5","system_id":"levelo_inurba_marseille","lat":43.30132,"lon":5.39864,"is_reserved":false,"is_disabled":false,"rental_uris":{"android":"levelo://app?vid=08d7addc-a968-46d2-9a8e-601560991fa5","ios":"levelo://app?vid=08d7addc-a968-46d2-9a8e-601560991fa5"},"vehicle_type_id":"4","last_reported":1680257239,"current_range_meters":17600,"station_id":"","pricing_plan_id":"free"},{"bike_id":"6f6a1c88-e547-4730-997d-adba3c82382c","system_id":"levelo_inurba_marseille","lat":43.30135,"lon":5.39875,"is_reserved":false,"is_disabled":false,"rental_uris":{"android":"levelo://app?vid=6f6a1c88-e547-4730-997d-adba3c82382c","ios":"levelo://app?vid=6f6a1c88-e547-4730-997d-adba3c82382c"},"vehicle_type_id":"4","last_reported":1680257239,"current_range_meters":1200,"station_id":"ce4bh0h2rcd13ifvqd40","pricing_plan_id":"free"},{"bike_id":"c6b58c98-371c-45db-a602-318fdbf26956","system_id":"levelo_inurba_marseille","lat":43.302759,"lon":5.400793,"is_reserved":false,"is_disabled":false,"rental_uris":{"android":"levelo://app?vid=c6b58c98-371c-45db-a602-318fdbf26956","ios":"levelo://app?vid=c6b58c98-371c-45db-a602-318fdbf26956"},"vehicle_type_id":"4","last_reported":1680257239,"current_range_meters":14400,"station_id":"ce4bgvh2rcd13ifvqcs0","pricing_plan_id":"free"},{"bike_id":"8781d538-bea1-4dfd-8368-fbeba5ab2958","system_id":"levelo_inurba_marseille","lat":43.29026,"lon":5.38648,"is_reserved":false,"is_disabled":false,"rental_uris":{"android":"levelo://app?vid=8781d538-bea1-4dfd-8368-fbeba5ab2958","ios":"levelo://app?vid=8781d538-bea1-4dfd-8368-fbeba5ab2958"},"vehicle_type_id":"4","last_reported":1680257239,"current_range_meters":26000,"station_id":"ce4bh4p2rcd13ifvqe0g","pricing_plan_id":"free"},{"bike_id":"5c8ec9d7-46b5-4c42-b4ba-92bf7ebec2d8","system_id":"levelo_inurba_marseille","lat":43.302759,"lon":5.400793,"is_reserved":false,"is_disabled":false,"rental_uris":{"android":"levelo://app?vid=5c8ec9d7-46b5-4c42-b4ba-92bf7ebec2d8","ios":"levelo://app?vid=5c8ec9d7-46b5-4c42-b4ba-92bf7ebec2d8"},"vehicle_type_id":"4","last_reported":1680257239,"current_range_meters":24800,"station_id":"ce4bgvh2rcd13ifvqcs0","pricing_plan_id":"free"},{"bike_id":"25d9c2bb-35fb-4f1e-b28b-dab2faf79965","system_id":"levelo_inurba_marseille","lat":43.28613,"lon":5.370599,"is_reserved":false,"is_disabled":false,"rental_uris":{"android":"levelo://app?vid=25d9c2bb-35fb-4f1e-b28b-dab2faf79965","ios":"levelo://app?vid=25d9c2bb-35fb-4f1e-b28b-dab2faf79965"},"vehicle_type_id":"4","last_reported":1680257239,"current_range_meters":28000,"station_id":"","pricing_plan_id":"free"},{"bike_id":"9399c659-070b-4a0f-b857-40eab6282dc3","system_id":"levelo_inurba_marseille","lat":43.286039,"lon":5.370679,"is_reserved":false,"is_disabled":false,"rental_uris":{"android":"levelo://app?vid=9399c659-070b-4a0f-b857-40eab6282dc3","ios":"levelo://app?vid=9399c659-070b-4a0f-b857-40eab6282dc3"},"vehicle_type_id":"4","last_reported":1680257239,"current_range_meters":20000,"station_id":"ce4bht12rcd13ifvqi60","pricing_plan_id":"free"},{"bike_id":"87a5f08e-af74-49ed-8d7a-82594e3fadb0","system_id":"levelo_inurba_marseille","lat":43.28719,"lon":5.3793,"is_reserved":false,"is_disabled":false,"rental_uris":{"android":"levelo://app?vid=87a5f08e-af74-49ed-8d7a-82594e3fadb0","ios":"levelo://app?vid=87a5f08e-af74-49ed-8d7a-82594e3fadb0"},"vehicle_type_id":"4","last_reported":1680257239,"current_range_meters":26400,"station_id":"ce4bh9p2rcd13ifvqec0","pricing_plan_id":"free"},{"bike_id":"45ff6165-4a18-4295-bf8c-2dfcfbf40350","system_id":"levelo_inurba_marseille","lat":43.284534,"lon":5.358662,"is_reserved":false,"is_disabled":false,"rental_uris":{"android":"levelo://app?vid=45ff6165-4a18-4295-bf8c-2dfcfbf40350","ios":"levelo://app?vid=45ff6165-4a18-4295-bf8c-2dfcfbf40350"},"vehicle_type_id":"4","last_reported":1680257239,"current_range_meters":24000,"station_id":"ce4bhah2rcd13ifvqei0","pricing_plan_id":"free"},{"bike_id":"80ab27bb-256b-4fc4-bcb6-20dee689c47a","system_id":"levelo_inurba_marseille","lat":43.284534,"lon":5.358662,"is_reserved":false,"is_disabled":false,"rental_uris":{"android":"levelo://app?vid=80ab27bb-256b-4fc4-bcb6-20dee689c47a","ios":"levelo://app?vid=80ab27bb-256b-4fc4-bcb6-20dee689c47a"},"vehicle_type_id":"4","last_reported":1680257239,"current_range_meters":18000,"station_id":"ce4bhah2rcd13ifvqei0","pricing_plan_id":"free"},{"bike_id":"61b6c5b6-a819-48dc-849a-bb23b929b8d4","system_id":"levelo_inurba_marseille","lat":43.286595,"lon":5.386795,"is_reserved":false,"is_disabled":false,"rental_uris":{"android":"levelo://app?vid=61b6c5b6-a819-48dc-849a-bb23b929b8d4","ios":"levelo://app?vid=61b6c5b6-a819-48dc-849a-bb23b929b8d4"},"vehicle_type_id":"4","last_reported":1680257239,"current_range_meters":26800,"station_id":"ce4bh492rcd13ifvqdug","pricing_plan_id":"free"},{"bike_id":"3a514631-a4cf-4f53-9ed0-5e1dfeba2c0d","system_id":"levelo_inurba_marseille","lat":43.33717,"lon":5.391857,"is_reserved":false,"is_disabled":false,"rental_uris":{"android":"levelo://app?vid=3a514631-a4cf-4f53-9ed0-5e1dfeba2c0d","ios":"levelo://app?vid=3a514631-a4cf-4f53-9ed0-5e1dfeba2c0d"},"vehicle_type_id":"4","last_reported":1680257239,"current_range_meters":20400,"station_id":"ce4bhr92rcd13ifvqhsg","pricing_plan_id":"free"},{"bike_id":"d00a114f-d806-4e3b-bdf0-54a512689595","system_id":"levelo_inurba_marseille","lat":43.284787,"lon":5.384116,"is_reserved":false,"is_disabled":false,"rental_uris":{"android":"levelo://app?vid=d00a114f-d806-4e3b-bdf0-54a512689595","ios":"levelo://app?vid=d00a114f-d806-4e3b-bdf0-54a512689595"},"vehicle_type_id":"4","last_reported":1680257239,"current_range_meters":9600,"station_id":"ce4bh512rcd13ifvqe3g","pricing_plan_id":"free"},{"bike_id":"636614d0-fd9e-42fc-af8a-99446296a5bc","system_id":"levelo_inurba_marseille","lat":43.284219,"lon":5.3497,"is_reserved":false,"is_disabled":false,"rental_uris":{"android":"levelo://app?vid=636614d0-fd9e-42fc-af8a-99446296a5bc","ios":"levelo://app?vid=636614d0-fd9e-42fc-af8a-99446296a5bc"},"vehicle_type_id":"4","last_reported":1680257239,"current_range_meters":28400,"station_id":"ce4bhbh2rcd13ifvqepg","pricing_plan_id":"free"},{"bike_id":"c6bbf058-79a4-4911-89f3-cd8b3b05992d","system_id":"levelo_inurba_marseille","lat":43.284217,"lon":5.349697,"is_reserved":false,"is_disabled":false,"rental_uris":{"android":"levelo://app?vid=c6bbf058-79a4-4911-89f3-cd8b3b05992d","ios":"levelo://app?vid=c6bbf058-79a4-4911-89f3-cd8b3b05992d"},"vehicle_type_id":"4","last_reported":1680257239,"current_range_meters":12000,"station_id":"ce4bhbh2rcd13ifvqepg","pricing_plan_id":"free"},{"bike_id":"42f0cedd-5be5-4d37-9084-73c9e6a6d924","system_id":"levelo_inurba_marseille","lat":43.284462,"lon":5.392121,"is_reserved":false,"is_disabled":false,"rental_uris":{"android":"levelo://app?vid=42f0cedd-5be5-4d37-9084-73c9e6a6d924","ios":"levelo://app?vid=42f0cedd-5be5-4d37-9084-73c9e6a6d924"},"vehicle_type_id":"4","last_reported":1680257239,"current_range_meters":29600,"station_id":"ce4bhoh2rcd13ifvqh5g","pricing_plan_id":"free"},{"bike_id":"b17e4a83-bb6b-43e7-835a-21958497984f","system_id":"levelo_inurba_marseille","lat":43.28434,"lon":5.39187,"is_reserved":false,"is_disabled":false,"rental_uris":{"android":"levelo://app?vid=b17e4a83-bb6b-43e7-835a-21958497984f","ios":"levelo://app?vid=b17e4a83-bb6b-43e7-835a-21958497984f"},"vehicle_type_id":"4","last_reported":1680257239,"current_range_meters":31200,"station_id":"","pricing_plan_id":"free"},{"bike_id":"243a1cee-09e5-471c-b7c7-c4fb51306708","system_id":"levelo_inurba_marseille","lat":43.304188,"lon":5.412904,"is_reserved":false,"is_disabled":false,"rental_uris":{"android":"levelo://app?vid=243a1cee-09e5-471c-b7c7-c4fb51306708","ios":"levelo://app?vid=243a1cee-09e5-471c-b7c7-c4fb51306708"},"vehicle_type_id":"4","last_reported":1680257239,"current_range_meters":24000,"station_id":"ce4bhop2rcd13ifvqh8g","pricing_plan_id":"free"},{"bike_id":"fc3b5456-3be2-44d0-829a-97ef34aed5a8","system_id":"levelo_inurba_marseille","lat":43.287154,"lon":5.399979,"is_reserved":false,"is_disabled":false,"rental_uris":{"android":"levelo://app?vid=fc3b5456-3be2-44d0-829a-97ef34aed5a8","ios":"levelo://app?vid=fc3b5456-3be2-44d0-829a-97ef34aed5a8"},"vehicle_type_id":"4","last_reported":1680257239,"current_range_meters":18000,"station_id":"ce4bho92rcd13ifvqh3g","pricing_plan_id":"free"},{"bike_id":"57323d31-76db-4e5b-bf3c-869d0a3212d0","system_id":"levelo_inurba_marseille","lat":43.299579,"lon":5.413255,"is_reserved":false,"is_disabled":false,"rental_uris":{"android":"levelo://app?vid=57323d31-76db-4e5b-bf3c-869d0a3212d0","ios":"levelo://app?vid=57323d31-76db-4e5b-bf3c-869d0a3212d0"},"vehicle_type_id":"4","last_reported":1680257239,"current_range_meters":20800,"station_id":"ce4bhp12rcd13ifvqh9g","pricing_plan_id":"free"},{"bike_id":"b3960ab1-5d19-41fd-b304-05cdb119595d","system_id":"levelo_inurba_marseille","lat":43.279742,"lon":5.38744,"is_reserved":false,"is_disabled":false,"rental_uris":{"android":"levelo://app?vid=b3960ab1-5d19-41fd-b304-05cdb119595d","ios":"levelo://app?vid=b3960ab1-5d19-41fd-b304-05cdb119595d"},"vehicle_type_id":"4","last_reported":1680257239,"current_range_meters":22400,"station_id":"ce4bhg12rcd13ifvqf80","pricing_plan_id":"free"},{"bike_id":"32ad68d5-f5e5-4606-aeb4-c92efa9a136c","system_id":"levelo_inurba_marseille","lat":43.279742,"lon":5.38744,"is_reserved":false,"is_disabled":false,"rental_uris":{"android":"levelo://app?vid=32ad68d5-f5e5-4606-aeb4-c92efa9a136c","ios":"levelo://app?vid=32ad68d5-f5e5-4606-aeb4-c92efa9a136c"},"vehicle_type_id":"4","last_reported":1680257239,"current_range_meters":4000,"station_id":"ce4bhg12rcd13ifvqf80","pricing_plan_id":"free"},{"bike_id":"5de78c2f-c9fc-4f38-9603-7bccd641f3e6","system_id":"levelo_inurba_marseille","lat":43.279742,"lon":5.38744,"is_reserved":false,"is_disabled":false,"rental_uris":{"android":"levelo://app?vid=5de78c2f-c9fc-4f38-9603-7bccd641f3e6","ios":"levelo://app?vid=5de78c2f-c9fc-4f38-9603-7bccd641f3e6"},"vehicle_type_id":"4","last_reported":1680257239,"current_range_meters":16400,"station_id":"ce4bhg12rcd13ifvqf80","pricing_plan_id":"free"},{"bike_id":"e2aaec95-decf-4d7b-9f32-0f9047655644","system_id":"levelo_inurba_marseille","lat":43.279742,"lon":5.38744,"is_reserved":false,"is_disabled":false,"rental_uris":{"android":"levelo://app?vid=e2aaec95-decf-4d7b-9f32-0f9047655644","ios":"levelo://app?vid=e2aaec95-decf-4d7b-9f32-0f9047655644"},"vehicle_type_id":"4","last_reported":1680257239,"current_range_meters":31200,"station_id":"ce4bhg12rcd13ifvqf80","pricing_plan_id":"free"},{"bike_id":"41ba89dc-ff7b-423b-b466-4bc6d0b46598","system_id":"levelo_inurba_marseille","lat":43.325233,"lon":5.414318,"is_reserved":false,"is_disabled":false,"rental_uris":{"android":"levelo://app?vid=41ba89dc-ff7b-423b-b466-4bc6d0b46598","ios":"levelo://app?vid=41ba89dc-ff7b-423b-b466-4bc6d0b46598"},"vehicle_type_id":"4","last_reported":1680257239,"current_range_meters":0,"station_id":"ce4bhq12rcd13ifvqhhg","pricing_plan_id":"free"},{"bike_id":"4d8aab9f-523a-4c21-ab24-a897b0b1cdb1","system_id":"levelo_inurba_marseille","lat":43.29258,"lon":5.40913,"is_reserved":false,"is_disabled":false,"rental_uris":{"android":"levelo://app?vid=4d8aab9f-523a-4c21-ab24-a897b0b1cdb1","ios":"levelo://app?vid=4d8aab9f-523a-4c21-ab24-a897b0b1cdb1"},"vehicle_type_id":"4","last_reported":1680257239,"current_range_meters":27200,"station_id":"ce4bh192rcd13ifvqdc0","pricing_plan_id":"free"},{"bike_id":"bb0a66a1-47b6-41b3-b32c-f2b8e43462bb","system_id":"levelo_inurba_marseille","lat":43.292569,"lon":5.409107,"is_reserved":false,"is_disabled":false,"rental_uris":{"android":"levelo://app?vid=bb0a66a1-47b6-41b3-b32c-f2b8e43462bb","ios":"levelo://app?vid=bb0a66a1-47b6-41b3-b32c-f2b8e43462bb"},"vehicle_type_id":"4","last_reported":1680257239,"current_range_meters":22000,"station_id":"ce4bh192rcd13ifvqdc0","pricing_plan_id":"free"},{"bike_id":"a8a32849-5ed3-43f2-b4eb-e183ce857bbb","system_id":"levelo_inurba_marseille","lat":43.280784,"lon":5.396622,"is_reserved":false,"is_disabled":false,"rental_uris":{"android":"levelo://app?vid=a8a32849-5ed3-43f2-b4eb-e183ce857bbb","ios":"levelo://app?vid=a8a32849-5ed3-43f2-b4eb-e183ce857bbb"},"vehicle_type_id":"4","last_reported":1680257239,"current_range_meters":15200,"station_id":"ce4bho12rcd13ifvqh2g","pricing_plan_id":"free"},{"bike_id":"f4d5fa0b-c022-4c36-b965-5a15bc676478","system_id":"levelo_inurba_marseille","lat":43.280784,"lon":5.396622,"is_reserved":false,"is_disabled":false,"rental_uris":{"android":"levelo://app?vid=f4d5fa0b-c022-4c36-b965-5a15bc676478","ios":"levelo://app?vid=f4d5fa0b-c022-4c36-b965-5a15bc676478"},"vehicle_type_id":"4","last_reported":1680257239,"current_range_meters":18400,"station_id":"ce4bho12rcd13ifvqh2g","pricing_plan_id":"free"},{"bike_id":"bdf6f6da-c216-4c1c-b497-b0724457b0de","system_id":"levelo_inurba_marseille","lat":43.273613,"lon":5.362705,"is_reserved":false,"is_disabled":false,"rental_uris":{"android":"levelo://app?vid=bdf6f6da-c216-4c1c-b497-b0724457b0de","ios":"levelo://app?vid=bdf6f6da-c216-4c1c-b497-b0724457b0de"},"vehicle_type_id":"4","last_reported":1680257239,"current_range_meters":6800,"station_id":"ce4bhbh2rcd13ifvqeo0","pricing_plan_id":"free"},{"bike_id":"ce3d48c6-2a03-4992-b3d6-cd9e0d264637","system_id":"levelo_inurba_marseille","lat":43.273613,"lon":5.362705,"is_reserved":false,"is_disabled":false,"rental_uris":{"android":"levelo://app?vid=ce3d48c6-2a03-4992-b3d6-cd9e0d264637","ios":"levelo://app?vid=ce3d48c6-2a03-4992-b3d6-cd9e0d264637"},"vehicle_type_id":"4","last_reported":1680257239,"current_range_meters":28800,"station_id":"ce4bhbh2rcd13ifvqeo0","pricing_plan_id":"free"},{"bike_id":"0a39764e-ebcf-44ae-ad42-1216be873c5d","system_id":"levelo_inurba_marseille","lat":43.273613,"lon":5.362705,"is_reserved":false,"is_disabled":false,"rental_uris":{"android":"levelo://app?vid=0a39764e-ebcf-44ae-ad42-1216be873c5d","ios":"levelo://app?vid=0a39764e-ebcf-44ae-ad42-1216be873c5d"},"vehicle_type_id":"4","last_reported":1680257239,"current_range_meters":31200,"station_id":"ce4bhbh2rcd13ifvqeo0","pricing_plan_id":"free"},{"bike_id":"17d12846-0f0f-4a70-bf8e-cc206cc74a6c","system_id":"levelo_inurba_marseille","lat":43.273613,"lon":5.362705,"is_reserved":false,"is_disabled":false,"rental_uris":{"android":"levelo://app?vid=17d12846-0f0f-4a70-bf8e-cc206cc74a6c","ios":"levelo://app?vid=17d12846-0f0f-4a70-bf8e-cc206cc74a6c"},"vehicle_type_id":"4","last_reported":1680257239,"current_range_meters":31200,"station_id":"ce4bhbh2rcd13ifvqeo0","pricing_plan_id":"free"},{"bike_id":"6fa104e1-b522-4cfc-a459-2f958f0a8c2a","system_id":"levelo_inurba_marseille","lat":43.273613,"lon":5.362705,"is_reserved":false,"is_disabled":false,"rental_uris":{"android":"levelo://app?vid=6fa104e1-b522-4cfc-a459-2f958f0a8c2a","ios":"levelo://app?vid=6fa104e1-b522-4cfc-a459-2f958f0a8c2a"},"vehicle_type_id":"4","last_reported":1680257239,"current_range_meters":30400,"station_id":"ce4bhbh2rcd13ifvqeo0","pricing_plan_id":"free"},{"bike_id":"877ac934-9485-455c-a910-17744c02c6dc","system_id":"levelo_inurba_marseille","lat":43.273609,"lon":5.362708,"is_reserved":false,"is_disabled":false,"rental_uris":{"android":"levelo://app?vid=877ac934-9485-455c-a910-17744c02c6dc","ios":"levelo://app?vid=877ac934-9485-455c-a910-17744c02c6dc"},"vehicle_type_id":"4","last_reported":1680257239,"current_range_meters":8000,"station_id":"ce4bhbh2rcd13ifvqeo0","pricing_plan_id":"free"},{"bike_id":"33e43a09-3cee-4e7f-a93a-b54c54aa5a16","system_id":"levelo_inurba_marseille","lat":43.273609,"lon":5.362708,"is_reserved":false,"is_disabled":false,"rental_uris":{"android":"levelo://app?vid=33e43a09-3cee-4e7f-a93a-b54c54aa5a16","ios":"levelo://app?vid=33e43a09-3cee-4e7f-a93a-b54c54aa5a16"},"vehicle_type_id":"4","last_reported":1680257239,"current_range_meters":21200,"station_id":"ce4bhbh2rcd13ifvqeo0","pricing_plan_id":"free"},{"bike_id":"30e89403-52dd-4900-8242-2ef42ddd1699","system_id":"levelo_inurba_marseille","lat":43.276771,"lon":5.388799,"is_reserved":false,"is_disabled":false,"rental_uris":{"android":"levelo://app?vid=30e89403-52dd-4900-8242-2ef42ddd1699","ios":"levelo://app?vid=30e89403-52dd-4900-8242-2ef42ddd1699"},"vehicle_type_id":"4","last_reported":1680257239,"current_range_meters":10000,"station_id":"ce4bhi12rcd13ifvqfo0","pricing_plan_id":"free"},{"bike_id":"6db8d266-4a22-4d70-8476-c520f782eb8e","system_id":"levelo_inurba_marseille","lat":43.276771,"lon":5.388799,"is_reserved":false,"is_disabled":false,"rental_uris":{"android":"levelo://app?vid=6db8d266-4a22-4d70-8476-c520f782eb8e","ios":"levelo://app?vid=6db8d266-4a22-4d70-8476-c520f782eb8e"},"vehicle_type_id":"4","last_reported":1680257239,"current_range_meters":10000,"station_id":"ce4bhi12rcd13ifvqfo0","pricing_plan_id":"free"},{"bike_id":"1510c32e-38d9-4acd-8bf3-d818af0f4cc6","system_id":"levelo_inurba_marseille","lat":43.276769,"lon":5.388787,"is_reserved":false,"is_disabled":false,"rental_uris":{"android":"levelo://app?vid=1510c32e-38d9-4acd-8bf3-d818af0f4cc6","ios":"levelo://app?vid=1510c32e-38d9-4acd-8bf3-d818af0f4cc6"},"vehicle_type_id":"4","last_reported":1680257239,"current_range_meters":2000,"station_id":"ce4bhi12rcd13ifvqfo0","pricing_plan_id":"free"},{"bike_id":"a6995bb0-6b7e-4ec4-a8b7-a1f693cb9ae3","system_id":"levelo_inurba_marseille","lat":43.28217,"lon":5.40259,"is_reserved":false,"is_disabled":false,"rental_uris":{"android":"levelo://app?vid=a6995bb0-6b7e-4ec4-a8b7-a1f693cb9ae3","ios":"levelo://app?vid=a6995bb0-6b7e-4ec4-a8b7-a1f693cb9ae3"},"vehicle_type_id":"4","last_reported":1680257239,"current_range_meters":0,"station_id":"","pricing_plan_id":"free"},{"bike_id":"a692e16e-cfba-42f9-b599-cffe22b8b5c3","system_id":"levelo_inurba_marseille","lat":43.27474,"lon":5.3898,"is_reserved":false,"is_disabled":false,"rental_uris":{"android":"levelo://app?vid=a692e16e-cfba-42f9-b599-cffe22b8b5c3","ios":"levelo://app?vid=a692e16e-cfba-42f9-b599-cffe22b8b5c3"},"vehicle_type_id":"4","last_reported":1680257239,"current_range_meters":25600,"station_id":"","pricing_plan_id":"free"},{"bike_id":"d72c8d26-2216-472c-90fe-c98363a9f449","system_id":"levelo_inurba_marseille","lat":43.295523,"lon":5.422926,"is_reserved":false,"is_disabled":false,"rental_uris":{"android":"levelo://app?vid=d72c8d26-2216-472c-90fe-c98363a9f449","ios":"levelo://app?vid=d72c8d26-2216-472c-90fe-c98363a9f449"},"vehicle_type_id":"4","last_reported":1680257239,"current_range_meters":10800,"station_id":"ce4bhph2rcd13ifvqhdg","pricing_plan_id":"free"},{"bike_id":"d90c26bf-8a59-4d30-be10-45a0447efaed","system_id":"levelo_inurba_marseille","lat":43.295511,"lon":5.422926,"is_reserved":false,"is_disabled":false,"rental_uris":{"android":"levelo://app?vid=d90c26bf-8a59-4d30-be10-45a0447efaed","ios":"levelo://app?vid=d90c26bf-8a59-4d30-be10-45a0447efaed"},"vehicle_type_id":"4","last_reported":1680257239,"current_range_meters":2400,"station_id":"ce4bhph2rcd13ifvqhdg","pricing_plan_id":"free"},{"bike_id":"4366abd8-d72b-4b64-9e56-4d48b1da0944","system_id":"levelo_inurba_marseille","lat":43.272116,"lon":5.391747,"is_reserved":false,"is_disabled":false,"rental_uris":{"android":"levelo://app?vid=4366abd8-d72b-4b64-9e56-4d48b1da0944","ios":"levelo://app?vid=4366abd8-d72b-4b64-9e56-4d48b1da0944"},"vehicle_type_id":"4","last_reported":1680257239,"current_range_meters":11200,"station_id":"ce4bhhp2rcd13ifvqfm0","pricing_plan_id":"free"},{"bike_id":"f6e2fc45-5392-48ff-953b-765e1aaf0850","system_id":"levelo_inurba_marseille","lat":43.27879,"lon":5.40734,"is_reserved":false,"is_disabled":false,"rental_uris":{"android":"levelo://app?vid=f6e2fc45-5392-48ff-953b-765e1aaf0850","ios":"levelo://app?vid=f6e2fc45-5392-48ff-953b-765e1aaf0850"},"vehicle_type_id":"4","last_reported":1680257239,"current_range_meters":800,"station_id":"","pricing_plan_id":"free"},{"bike_id":"431294fa-cfdf-45c0-97e0-eabbca5ca628","system_id":"levelo_inurba_marseille","lat":43.265714,"lon":5.372891,"is_reserved":false,"is_disabled":false,"rental_uris":{"android":"levelo://app?vid=431294fa-cfdf-45c0-97e0-eabbca5ca628","ios":"levelo://app?vid=431294fa-cfdf-45c0-97e0-eabbca5ca628"},"vehicle_type_id":"4","last_reported":1680257239,"current_range_meters":28000,"station_id":"ce4bhg12rcd13ifvqf70","pricing_plan_id":"free"},{"bike_id":"9808eb43-6f75-4be0-92b3-ecd749ef92a5","system_id":"levelo_inurba_marseille","lat":43.266878,"lon":5.382957,"is_reserved":false,"is_disabled":false,"rental_uris":{"android":"levelo://app?vid=9808eb43-6f75-4be0-92b3-ecd749ef92a5","ios":"levelo://app?vid=9808eb43-6f75-4be0-92b3-ecd749ef92a5"},"vehicle_type_id":"4","last_reported":1680257239,"current_range_meters":26400,"station_id":"ce4bhg92rcd13ifvqf90","pricing_plan_id":"free"},{"bike_id":"2ddcb6f6-7314-475b-930d-d8a906178814","system_id":"levelo_inurba_marseille","lat":43.26681,"lon":5.382694,"is_reserved":false,"is_disabled":false,"rental_uris":{"android":"levelo://app?vid=2ddcb6f6-7314-475b-930d-d8a906178814","ios":"levelo://app?vid=2ddcb6f6-7314-475b-930d-d8a906178814"},"vehicle_type_id":"4","last_reported":1680257239,"current_range_meters":30800,"station_id":"ce4bhg92rcd13ifvqf90","pricing_plan_id":"free"},{"bike_id":"29a6ff4c-def0-4450-ab84-43f06584868a","system_id":"levelo_inurba_marseille","lat":43.26681,"lon":5.382694,"is_reserved":false,"is_disabled":false,"rental_uris":{"android":"levelo://app?vid=29a6ff4c-def0-4450-ab84-43f06584868a","ios":"levelo://app?vid=29a6ff4c-def0-4450-ab84-43f06584868a"},"vehicle_type_id":"4","last_reported":1680257239,"current_range_meters":31200,"station_id":"ce4bhg92rcd13ifvqf90","pricing_plan_id":"free"},{"bike_id":"fc9cca77-ef14-4630-9b63-6a83b33dddd3","system_id":"levelo_inurba_marseille","lat":43.26681,"lon":5.382694,"is_reserved":false,"is_disabled":false,"rental_uris":{"android":"levelo://app?vid=fc9cca77-ef14-4630-9b63-6a83b33dddd3","ios":"levelo://app?vid=fc9cca77-ef14-4630-9b63-6a83b33dddd3"},"vehicle_type_id":"4","last_reported":1680257239,"current_range_meters":29200,"station_id":"ce4bhg92rcd13ifvqf90","pricing_plan_id":"free"},{"bike_id":"55363217-a982-43e5-a0a9-2a5996cda685","system_id":"levelo_inurba_marseille","lat":43.265714,"lon":5.372891,"is_reserved":false,"is_disabled":false,"rental_uris":{"android":"levelo://app?vid=55363217-a982-43e5-a0a9-2a5996cda685","ios":"levelo://app?vid=55363217-a982-43e5-a0a9-2a5996cda685"},"vehicle_type_id":"4","last_reported":1680257239,"current_range_meters":28800,"station_id":"ce4bhg12rcd13ifvqf70","pricing_plan_id":"free"},{"bike_id":"b49cccff-ad97-43e0-84f5-48e3c7bcffe2","system_id":"levelo_inurba_marseille","lat":43.2655,"lon":5.37286,"is_reserved":false,"is_disabled":false,"rental_uris":{"android":"levelo://app?vid=b49cccff-ad97-43e0-84f5-48e3c7bcffe2","ios":"levelo://app?vid=b49cccff-ad97-43e0-84f5-48e3c7bcffe2"},"vehicle_type_id":"4","last_reported":1680257239,"current_range_meters":13600,"station_id":"ce4bhg12rcd13ifvqf70","pricing_plan_id":"free"},{"bike_id":"f14cbb71-fc63-4060-b3d2-7e6e12fb2118","system_id":"levelo_inurba_marseille","lat":43.27934,"lon":5.4141,"is_reserved":false,"is_disabled":false,"rental_uris":{"android":"levelo://app?vid=f14cbb71-fc63-4060-b3d2-7e6e12fb2118","ios":"levelo://app?vid=f14cbb71-fc63-4060-b3d2-7e6e12fb2118"},"vehicle_type_id":"4","last_reported":1680257239,"current_range_meters":0,"station_id":"","pricing_plan_id":"free"},{"bike_id":"401cb8d8-221a-4345-bb03-288f5824d151","system_id":"levelo_inurba_marseille","lat":43.30799,"lon":5.43249,"is_reserved":false,"is_disabled":false,"rental_uris":{"android":"levelo://app?vid=401cb8d8-221a-4345-bb03-288f5824d151","ios":"levelo://app?vid=401cb8d8-221a-4345-bb03-288f5824d151"},"vehicle_type_id":"4","last_reported":1680257239,"current_range_meters":26800,"station_id":"ce4bhph2rcd13ifvqheg","pricing_plan_id":"free"},{"bike_id":"dd19979d-43c1-46b8-8d6b-6f795776a64d","system_id":"levelo_inurba_marseille","lat":43.267966,"lon":5.393976,"is_reserved":false,"is_disabled":false,"rental_uris":{"android":"levelo://app?vid=dd19979d-43c1-46b8-8d6b-6f795776a64d","ios":"levelo://app?vid=dd19979d-43c1-46b8-8d6b-6f795776a64d"},"vehicle_type_id":"4","last_reported":1680257239,"current_range_meters":12400,"station_id":"ce4bhh12rcd13ifvqfg0","pricing_plan_id":"free"},{"bike_id":"489dd7ef-a015-45b2-8fe7-4447a3bbdd1c","system_id":"levelo_inurba_marseille","lat":43.30794,"lon":5.43525,"is_reserved":false,"is_disabled":false,"rental_uris":{"android":"levelo://app?vid=489dd7ef-a015-45b2-8fe7-4447a3bbdd1c","ios":"levelo://app?vid=489dd7ef-a015-45b2-8fe7-4447a3bbdd1c"},"vehicle_type_id":"4","last_reported":1680257239,"current_range_meters":9200,"station_id":"ce4bhph2rcd13ifvqheg","pricing_plan_id":"free"},{"bike_id":"b4c73bfa-1796-497d-b59f-36a70da6d996","system_id":"levelo_inurba_marseille","lat":43.30796,"lon":5.43528,"is_reserved":false,"is_disabled":false,"rental_uris":{"android":"levelo://app?vid=b4c73bfa-1796-497d-b59f-36a70da6d996","ios":"levelo://app?vid=b4c73bfa-1796-497d-b59f-36a70da6d996"},"vehicle_type_id":"4","last_reported":1680257239,"current_range_meters":25600,"station_id":"ce4bhph2rcd13ifvqheg","pricing_plan_id":"free"},{"bike_id":"c8ea8206-901a-488c-ac4b-8b1e01485d14","system_id":"levelo_inurba_marseille","lat":43.331864,"lon":5.431794,"is_reserved":false,"is_disabled":false,"rental_uris":{"android":"levelo://app?vid=c8ea8206-901a-488c-ac4b-8b1e01485d14","ios":"levelo://app?vid=c8ea8206-901a-488c-ac4b-8b1e01485d14"},"vehicle_type_id":"4","last_reported":1680257239,"current_range_meters":0,"station_id":"","pricing_plan_id":"free"},{"bike_id":"b7e9e508-a3c9-4573-a862-4492450b7cde","system_id":"levelo_inurba_marseille","lat":43.261782,"lon":5.374515,"is_reserved":false,"is_disabled":false,"rental_uris":{"android":"levelo://app?vid=b7e9e508-a3c9-4573-a862-4492450b7cde","ios":"levelo://app?vid=b7e9e508-a3c9-4573-a862-4492450b7cde"},"vehicle_type_id":"4","last_reported":1680257239,"current_range_meters":7200,"station_id":"ce4bhgp2rcd13ifvqfc0","pricing_plan_id":"free"},{"bike_id":"01f5f6c9-37a3-442f-b2c3-4a4aa0365621","system_id":"levelo_inurba_marseille","lat":43.261782,"lon":5.374515,"is_reserved":false,"is_disabled":false,"rental_uris":{"android":"levelo://app?vid=01f5f6c9-37a3-442f-b2c3-4a4aa0365621","ios":"levelo://app?vid=01f5f6c9-37a3-442f-b2c3-4a4aa0365621"},"vehicle_type_id":"4","last_reported":1680257239,"current_range_meters":400,"station_id":"ce4bhgp2rcd13ifvqfc0","pricing_plan_id":"free"},{"bike_id":"36edba41-5d95-4566-9dc8-74a2cc319f5e","system_id":"levelo_inurba_marseille","lat":43.317104,"lon":5.436818,"is_reserved":false,"is_disabled":false,"rental_uris":{"android":"levelo://app?vid=36edba41-5d95-4566-9dc8-74a2cc319f5e","ios":"levelo://app?vid=36edba41-5d95-4566-9dc8-74a2cc319f5e"},"vehicle_type_id":"4","last_reported":1680257239,"current_range_meters":31200,"station_id":"ce4bhp92rcd13ifvqhcg","pricing_plan_id":"free"},{"bike_id":"deece9c4-f26c-4a9e-a22d-6105fa236372","system_id":"levelo_inurba_marseille","lat":43.26181,"lon":5.3745,"is_reserved":false,"is_disabled":false,"rental_uris":{"android":"levelo://app?vid=deece9c4-f26c-4a9e-a22d-6105fa236372","ios":"levelo://app?vid=deece9c4-f26c-4a9e-a22d-6105fa236372"},"vehicle_type_id":"4","last_reported":1680257239,"current_range_meters":27600,"station_id":"ce4bhgp2rcd13ifvqfc0","pricing_plan_id":"free"},{"bike_id":"b7b9014b-4837-4d11-95bd-91d0badc9603","system_id":"levelo_inurba_marseille","lat":43.267959,"lon":5.402687,"is_reserved":false,"is_disabled":false,"rental_uris":{"android":"levelo://app?vid=b7b9014b-4837-4d11-95bd-91d0badc9603","ios":"levelo://app?vid=b7b9014b-4837-4d11-95bd-91d0badc9603"},"vehicle_type_id":"4","last_reported":1680257239,"current_range_meters":18400,"station_id":"ce501612rcd8frsf0b60","pricing_plan_id":"free"},{"bike_id":"b313b3e8-5940-4e29-b2d1-6a65cb3ef5f6","system_id":"levelo_inurba_marseille","lat":43.26803,"lon":5.40268,"is_reserved":false,"is_disabled":false,"rental_uris":{"android":"levelo://app?vid=b313b3e8-5940-4e29-b2d1-6a65cb3ef5f6","ios":"levelo://app?vid=b313b3e8-5940-4e29-b2d1-6a65cb3ef5f6"},"vehicle_type_id":"4","last_reported":1680257239,"current_range_meters":21600,"station_id":"ce501612rcd8frsf0b60","pricing_plan_id":"free"},{"bike_id":"eaa6ae49-3619-47ef-be23-da8ec72b304b","system_id":"levelo_inurba_marseille","lat":43.298768,"lon":5.43643,"is_reserved":false,"is_disabled":false,"rental_uris":{"android":"levelo://app?vid=eaa6ae49-3619-47ef-be23-da8ec72b304b","ios":"levelo://app?vid=eaa6ae49-3619-47ef-be23-da8ec72b304b"},"vehicle_type_id":"4","last_reported":1680257239,"current_range_meters":31200,"station_id":"ce4bhpp2rcd13ifvqhfg","pricing_plan_id":"free"},{"bike_id":"2bb73173-a41b-4285-8e20-043bcf72074b","system_id":"levelo_inurba_marseille","lat":43.298768,"lon":5.43643,"is_reserved":false,"is_disabled":false,"rental_uris":{"android":"levelo://app?vid=2bb73173-a41b-4285-8e20-043bcf72074b","ios":"levelo://app?vid=2bb73173-a41b-4285-8e20-043bcf72074b"},"vehicle_type_id":"4","last_reported":1680257239,"current_range_meters":31200,"station_id":"ce4bhpp2rcd13ifvqhfg","pricing_plan_id":"free"},{"bike_id":"1197afde-10bc-4368-9168-0f78ad734fcd","system_id":"levelo_inurba_marseille","lat":43.29897,"lon":5.43671,"is_reserved":false,"is_disabled":false,"rental_uris":{"android":"levelo://app?vid=1197afde-10bc-4368-9168-0f78ad734fcd","ios":"levelo://app?vid=1197afde-10bc-4368-9168-0f78ad734fcd"},"vehicle_type_id":"4","last_reported":1680257239,"current_range_meters":28000,"station_id":"","pricing_plan_id":"free"},{"bike_id":"80d7c2ff-6ce9-43c5-8cea-71ef73cf3615","system_id":"levelo_inurba_marseille","lat":43.260219,"lon":5.37546,"is_reserved":false,"is_disabled":false,"rental_uris":{"android":"levelo://app?vid=80d7c2ff-6ce9-43c5-8cea-71ef73cf3615","ios":"levelo://app?vid=80d7c2ff-6ce9-43c5-8cea-71ef73cf3615"},"vehicle_type_id":"4","last_reported":1680257239,"current_range_meters":21600,"station_id":"ce4bhgh2rcd13ifvqfa0","pricing_plan_id":"free"},{"bike_id":"8ad6bebd-df2b-469e-adff-aa899a94c0d1","system_id":"levelo_inurba_marseille","lat":43.260912,"lon":5.397584,"is_reserved":false,"is_disabled":false,"rental_uris":{"android":"levelo://app?vid=8ad6bebd-df2b-469e-adff-aa899a94c0d1","ios":"levelo://app?vid=8ad6bebd-df2b-469e-adff-aa899a94c0d1"},"vehicle_type_id":"4","last_reported":1680257239,"current_range_meters":16400,"station_id":"ce4bhi12rcd13ifvqfq0","pricing_plan_id":"free"},{"bike_id":"19ccd932-5883-40f1-9a2a-b64e4d82e079","system_id":"levelo_inurba_marseille","lat":43.29242,"lon":5.44128,"is_reserved":false,"is_disabled":false,"rental_uris":{"android":"levelo://app?vid=19ccd932-5883-40f1-9a2a-b64e4d82e079","ios":"levelo://app?vid=19ccd932-5883-40f1-9a2a-b64e4d82e079"},"vehicle_type_id":"4","last_reported":1680257239,"current_range_meters":800,"station_id":"","pricing_plan_id":"free"},{"bike_id":"1ab58086-ef87-41a6-82ef-d730ebcb5be8","system_id":"levelo_inurba_marseille","lat":43.254947,"lon":5.376454,"is_reserved":false,"is_disabled":false,"rental_uris":{"android":"levelo://app?vid=1ab58086-ef87-41a6-82ef-d730ebcb5be8","ios":"levelo://app?vid=1ab58086-ef87-41a6-82ef-d730ebcb5be8"},"vehicle_type_id":"4","last_reported":1680257239,"current_range_meters":29600,"station_id":"ce4bhh12rcd13ifvqff0","pricing_plan_id":"free"},{"bike_id":"eba1f641-033f-4cf0-9773-efe6e2043dc8","system_id":"levelo_inurba_marseille","lat":43.2707,"lon":5.42283,"is_reserved":false,"is_disabled":false,"rental_uris":{"android":"levelo://app?vid=eba1f641-033f-4cf0-9773-efe6e2043dc8","ios":"levelo://app?vid=eba1f641-033f-4cf0-9773-efe6e2043dc8"},"vehicle_type_id":"4","last_reported":1680257239,"current_range_meters":24000,"station_id":"ce4bhk92rcd13ifvqgb0","pricing_plan_id":"free"},{"bike_id":"71415454-0cc6-4499-8f42-ef3f5ce4fafb","system_id":"levelo_inurba_marseille","lat":43.258658,"lon":5.398935,"is_reserved":false,"is_disabled":false,"rental_uris":{"android":"levelo://app?vid=71415454-0cc6-4499-8f42-ef3f5ce4fafb","ios":"levelo://app?vid=71415454-0cc6-4499-8f42-ef3f5ce4fafb"},"vehicle_type_id":"4","last_reported":1680257239,"current_range_meters":16000,"station_id":"ce4bhl92rcd13ifvqghg","pricing_plan_id":"free"},{"bike_id":"ae54124e-1bea-4ad8-88c3-333e0c734666","system_id":"levelo_inurba_marseille","lat":43.250009,"lon":5.389195,"is_reserved":false,"is_disabled":false,"rental_uris":{"android":"levelo://app?vid=ae54124e-1bea-4ad8-88c3-333e0c734666","ios":"levelo://app?vid=ae54124e-1bea-4ad8-88c3-333e0c734666"},"vehicle_type_id":"4","last_reported":1680257239,"current_range_meters":11200,"station_id":"ce4bhgp2rcd13ifvqfd0","pricing_plan_id":"free"},{"bike_id":"efc26d56-971d-448c-896c-40fb30b08349","system_id":"levelo_inurba_marseille","lat":43.2479,"lon":5.374457,"is_reserved":false,"is_disabled":false,"rental_uris":{"android":"levelo://app?vid=efc26d56-971d-448c-896c-40fb30b08349","ios":"levelo://app?vid=efc26d56-971d-448c-896c-40fb30b08349"},"vehicle_type_id":"4","last_reported":1680257239,"current_range_meters":8000,"station_id":"ce4bhgh2rcd13ifvqfb0","pricing_plan_id":"free"},{"bike_id":"c4720042-27ea-47fa-a7dd-bcac77a9456e","system_id":"levelo_inurba_marseille","lat":43.2479,"lon":5.374457,"is_reserved":false,"is_disabled":false,"rental_uris":{"android":"levelo://app?vid=c4720042-27ea-47fa-a7dd-bcac77a9456e","ios":"levelo://app?vid=c4720042-27ea-47fa-a7dd-bcac77a9456e"},"vehicle_type_id":"4","last_reported":1680257239,"current_range_meters":20000,"station_id":"ce4bhgh2rcd13ifvqfb0","pricing_plan_id":"free"},{"bike_id":"95e6cca4-191c-4378-8d78-53ed3219bc72","system_id":"levelo_inurba_marseille","lat":43.250966,"lon":5.395186,"is_reserved":false,"is_disabled":false,"rental_uris":{"android":"levelo://app?vid=95e6cca4-191c-4378-8d78-53ed3219bc72","ios":"levelo://app?vid=95e6cca4-191c-4378-8d78-53ed3219bc72"},"vehicle_type_id":"4","last_reported":1680257239,"current_range_meters":23600,"station_id":"ce4bhm12rcd13ifvqgkg","pricing_plan_id":"free"},{"bike_id":"239408dd-1b22-41e3-83f3-e161032662aa","system_id":"levelo_inurba_marseille","lat":43.250966,"lon":5.395186,"is_reserved":false,"is_disabled":false,"rental_uris":{"android":"levelo://app?vid=239408dd-1b22-41e3-83f3-e161032662aa","ios":"levelo://app?vid=239408dd-1b22-41e3-83f3-e161032662aa"},"vehicle_type_id":"4","last_reported":1680257239,"current_range_meters":16000,"station_id":"ce4bhm12rcd13ifvqgkg","pricing_plan_id":"free"},{"bike_id":"bf6f949f-22a6-474b-8bc5-112c347d7b2f","system_id":"levelo_inurba_marseille","lat":43.25102,"lon":5.403214,"is_reserved":false,"is_disabled":false,"rental_uris":{"android":"levelo://app?vid=bf6f949f-22a6-474b-8bc5-112c347d7b2f","ios":"levelo://app?vid=bf6f949f-22a6-474b-8bc5-112c347d7b2f"},"vehicle_type_id":"4","last_reported":1680257239,"current_range_meters":14400,"station_id":"ce4bhlh2rcd13ifvqgig","pricing_plan_id":"free"},{"bike_id":"593c2940-602b-49be-b6fc-e178f3cf18c6","system_id":"levelo_inurba_marseille","lat":43.246655,"lon":5.381656,"is_reserved":false,"is_disabled":false,"rental_uris":{"android":"levelo://app?vid=593c2940-602b-49be-b6fc-e178f3cf18c6","ios":"levelo://app?vid=593c2940-602b-49be-b6fc-e178f3cf18c6"},"vehicle_type_id":"4","last_reported":1680257239,"current_range_meters":30800,"station_id":"","pricing_plan_id":"free"},{"bike_id":"f1422974-bf14-4355-9b1a-d2c7ee655f86","system_id":"levelo_inurba_marseille","lat":43.24693,"lon":5.382096,"is_reserved":false,"is_disabled":false,"rental_uris":{"android":"levelo://app?vid=f1422974-bf14-4355-9b1a-d2c7ee655f86","ios":"levelo://app?vid=f1422974-bf14-4355-9b1a-d2c7ee655f86"},"vehicle_type_id":"4","last_reported":1680257239,"current_range_meters":28400,"station_id":"ce4bhih2rcd13ifvqfr0","pricing_plan_id":"free"},{"bike_id":"332e66fa-e947-4e10-8729-a89c34f1adc8","system_id":"levelo_inurba_marseille","lat":43.246637,"lon":5.381697,"is_reserved":false,"is_disabled":false,"rental_uris":{"android":"levelo://app?vid=332e66fa-e947-4e10-8729-a89c34f1adc8","ios":"levelo://app?vid=332e66fa-e947-4e10-8729-a89c34f1adc8"},"vehicle_type_id":"4","last_reported":1680257239,"current_range_meters":27600,"station_id":"","pricing_plan_id":"free"},{"bike_id":"015fec14-9e50-4e39-add5-c1f9568e1ee9","system_id":"levelo_inurba_marseille","lat":43.24693,"lon":5.382096,"is_reserved":false,"is_disabled":false,"rental_uris":{"android":"levelo://app?vid=015fec14-9e50-4e39-add5-c1f9568e1ee9","ios":"levelo://app?vid=015fec14-9e50-4e39-add5-c1f9568e1ee9"},"vehicle_type_id":"4","last_reported":1680257239,"current_range_meters":20800,"station_id":"ce4bhih2rcd13ifvqfr0","pricing_plan_id":"free"},{"bike_id":"903c925a-3e30-4b64-b134-eaef05c02165","system_id":"levelo_inurba_marseille","lat":43.25102,"lon":5.403214,"is_reserved":false,"is_disabled":false,"rental_uris":{"android":"levelo://app?vid=903c925a-3e30-4b64-b134-eaef05c02165","ios":"levelo://app?vid=903c925a-3e30-4b64-b134-eaef05c02165"},"vehicle_type_id":"4","last_reported":1680257239,"current_range_meters":25200,"station_id":"ce4bhlh2rcd13ifvqgig","pricing_plan_id":"free"},{"bike_id":"80b99107-25a8-4cea-a07f-81d1372b3a54","system_id":"levelo_inurba_marseille","lat":43.243884,"lon":5.370736,"is_reserved":false,"is_disabled":false,"rental_uris":{"android":"levelo://app?vid=80b99107-25a8-4cea-a07f-81d1372b3a54","ios":"levelo://app?vid=80b99107-25a8-4cea-a07f-81d1372b3a54"},"vehicle_type_id":"4","last_reported":1680257239,"current_range_meters":24400,"station_id":"ce4bhhh2rcd13ifvqfk0","pricing_plan_id":"free"},{"bike_id":"b5bcadd2-eb24-4f58-a395-ecd622d1af3b","system_id":"levelo_inurba_marseille","lat":43.243884,"lon":5.370736,"is_reserved":false,"is_disabled":false,"rental_uris":{"android":"levelo://app?vid=b5bcadd2-eb24-4f58-a395-ecd622d1af3b","ios":"levelo://app?vid=b5bcadd2-eb24-4f58-a395-ecd622d1af3b"},"vehicle_type_id":"4","last_reported":1680257239,"current_range_meters":18400,"station_id":"ce4bhhh2rcd13ifvqfk0","pricing_plan_id":"free"},{"bike_id":"836b13a6-e2d4-4489-b379-c38e49bdadf3","system_id":"levelo_inurba_marseille","lat":43.245581,"lon":5.395069,"is_reserved":false,"is_disabled":false,"rental_uris":{"android":"levelo://app?vid=836b13a6-e2d4-4489-b379-c38e49bdadf3","ios":"levelo://app?vid=836b13a6-e2d4-4489-b379-c38e49bdadf3"},"vehicle_type_id":"4","last_reported":1680257239,"current_range_meters":22800,"station_id":"ce4bhlp2rcd13ifvqgjg","pricing_plan_id":"free"},{"bike_id":"2553e504-d446-41c6-b318-5052bc8255c8","system_id":"levelo_inurba_marseille","lat":43.28503,"lon":5.45983,"is_reserved":false,"is_disabled":false,"rental_uris":{"android":"levelo://app?vid=2553e504-d446-41c6-b318-5052bc8255c8","ios":"levelo://app?vid=2553e504-d446-41c6-b318-5052bc8255c8"},"vehicle_type_id":"4","last_reported":1680257239,"current_range_meters":12000,"station_id":"","pricing_plan_id":"free"},{"bike_id":"d1cdfa87-a455-4126-a92b-37664bfa9276","system_id":"levelo_inurba_marseille","lat":43.24561,"lon":5.41511,"is_reserved":false,"is_disabled":false,"rental_uris":{"android":"levelo://app?vid=d1cdfa87-a455-4126-a92b-37664bfa9276","ios":"levelo://app?vid=d1cdfa87-a455-4126-a92b-37664bfa9276"},"vehicle_type_id":"4","last_reported":1680257239,"current_range_meters":15200,"station_id":"","pricing_plan_id":"free"}]}}