{"last_updated":1702055186,"ttl":30,"version":"2.2","data":{"bikes":[{"bike_id":"38b5fd07-5319-44c1-852f-c18ae35fa6b0","system_id":"levelo_inurba_marseille","lat":43.311125,"lon":5.377624,"is_reserved":false,"is_disabled":false,"rental_uris":{"android":"levelo://app?vid=38b5fd07-5319-44c1-852f-c18ae35fa6b0","ios":"levelo://app?vid=38b5fd07-5319-44c1-852f-c18ae35fa6b0"},"vehicle_type_id":"4","last_reported":1702055186,"current_range_meters":7600,"station_id":"ce4bgt92rcd13ifvqcg0","pricing_plan_id":"free"},{"bike_id":"bd8e3d7f-8826-4900-aa2d-66c8876b5518","system_id":"levelo_inurba_marseille","lat":43.311125,"lon":5.377624,"is_reserved":false,"is_disabled":false,"rental_uris":{"android":"levelo://app?vid=bd8e3d7f-8826-4900-aa2d-66c8876b5518","ios":"levelo://app?vid=bd8e3d7f-8826-4900-aa2d-66c8876b5518"},"vehicle_type_id":"4","last_reported":1702055186,"current_range_meters":0,"station_id":"ce4bgt92rcd13ifvqcg0","pricing_plan_id":"free"},{"bike_id":"980691b1-fac3-4f67-ac2f-f3cb5bed87c2","system_id":"levelo_inurba_marseille","lat":43.303046,"lon":5.368981,"is_reserved":false,"is_disabled":false,"rental_uris":{"android":"levelo://app?vid=980691b1-fac3-4f67-ac2f-f3cb5bed87c2","ios":"levelo://app?vid=980691b1-fac3-4f67-ac2f-f3cb5bed87c2"},"vehicle_type_id":"4","last_reported":1702055186,"current_range_meters":4800,"station_id":"ce4bgqh2rcd13ifvqc5g","pricing_plan_id":"free"},{"bike_id":"1ea60f58-75f7-4484-b705-1156df4b02ad","system_id":"levelo_inurba_marseille","lat":43.30287,"lon":5.37338,"is_reserved":false,"is_disabled":false,"rental_uris":{"android":"levelo://app?vid=1ea60f58-75f7-4484-b705-1156df4b02ad","ios":"levelo://app?vid=1ea60f58-75f7-4484-b705-1156df4b02ad"},"vehicle_type_id":"4","last_reported":1702055186,"current_range_meters":0,"station_id":"","pricing_plan_id":"free"},{"bike_id":"d8c0054e-c542-438b-b686-09152b761ea1","system_id":"levelo_inurba_marseille","lat":43.30803,"lon":5.38143,"is_reserved":false,"is_disabled":false,"rental_uris":{"android":"levelo://app?vid=d8c0054e-c542-438b-b686-09152b761ea1","ios":"levelo://app?vid=d8c0054e-c542-438b-b686-09152b761ea1"},"vehicle_type_id":"4","last_reported":1702055186,"current_range_meters":15600,"station_id":"ce4bgt12rcd13ifvqce0","pricing_plan_id":"free"},{"bike_id":"f6a8017a-dcaa-411c-b50b-004305faa356","system_id":"levelo_inurba_marseille","lat":43.308052,"lon":5.381539,"is_reserved":false,"is_disabled":false,"rental_uris":{"android":"levelo://app?vid=f6a8017a-dcaa-411c-b50b-004305faa356","ios":"levelo://app?vid=f6a8017a-dcaa-411c-b50b-004305faa356"},"vehicle_type_id":"4","last_reported":1702055186,"current_range_meters":30400,"station_id":"ce4bgt12rcd13ifvqce0","pricing_plan_id":"free"},{"bike_id":"fc5a00d8-0539-4238-8e43-978912f970d8","system_id":"levelo_inurba_marseille","lat":43.304606,"lon":5.379026,"is_reserved":false,"is_disabled":false,"rental_uris":{"android":"levelo://app?vid=fc5a00d8-0539-4238-8e43-978912f970d8","ios":"levelo://app?vid=fc5a00d8-0539-4238-8e43-978912f970d8"},"vehicle_type_id":"4","last_reported":1702055186,"current_range_meters":28400,"station_id":"ce4bgup2rcd13ifvqcn0","pricing_plan_id":"free"},{"bike_id":"8f03530b-eb7b-4440-86de-cb349da05c78","system_id":"levelo_inurba_marseille","lat":43.301429,"lon":5.37413,"is_reserved":false,"is_disabled":false,"rental_uris":{"android":"levelo://app?vid=8f03530b-eb7b-4440-86de-cb349da05c78","ios":"levelo://app?vid=8f03530b-eb7b-4440-86de-cb349da05c78"},"vehicle_type_id":"4","last_reported":1702055186,"current_range_meters":6800,"station_id":"ce4bgs92rcd13ifvqcc0","pricing_plan_id":"free"},{"bike_id":"a49b99ee-38eb-49b5-978d-00cf198fff08","system_id":"levelo_inurba_marseille","lat":43.299614,"lon":5.366329,"is_reserved":false,"is_disabled":false,"rental_uris":{"android":"levelo://app?vid=a49b99ee-38eb-49b5-978d-00cf198fff08","ios":"levelo://app?vid=a49b99ee-38eb-49b5-978d-00cf198fff08"},"vehicle_type_id":"4","last_reported":1702055186,"current_range_meters":19200,"station_id":"","pricing_plan_id":"free"},{"bike_id":"50c03040-0d2a-43ae-af6f-e4f0303e8022","system_id":"levelo_inurba_marseille","lat":43.299222,"lon":5.365554,"is_reserved":false,"is_disabled":false,"rental_uris":{"android":"levelo://app?vid=50c03040-0d2a-43ae-af6f-e4f0303e8022","ios":"levelo://app?vid=50c03040-0d2a-43ae-af6f-e4f0303e8022"},"vehicle_type_id":"4","last_reported":1702055186,"current_range_meters":20400,"station_id":"ce4bgm92rcd13ifvqbr0","pricing_plan_id":"free"},{"bike_id":"8a51d873-c2c5-4670-a7f8-c15f01ea25fb","system_id":"levelo_inurba_marseille","lat":43.30534,"lon":5.38422,"is_reserved":false,"is_disabled":false,"rental_uris":{"android":"levelo://app?vid=8a51d873-c2c5-4670-a7f8-c15f01ea25fb","ios":"levelo://app?vid=8a51d873-c2c5-4670-a7f8-c15f01ea25fb"},"vehicle_type_id":"4","last_reported":1702055186,"current_range_meters":18000,"station_id":"ce4bgg92rcd13ifvqb30","pricing_plan_id":"free"},{"bike_id":"40761665-98ab-4043-95a1-4ae93b3d876a","system_id":"levelo_inurba_marseille","lat":43.311777,"lon":5.387173,"is_reserved":false,"is_disabled":false,"rental_uris":{"android":"levelo://app?vid=40761665-98ab-4043-95a1-4ae93b3d876a","ios":"levelo://app?vid=40761665-98ab-4043-95a1-4ae93b3d876a"},"vehicle_type_id":"4","last_reported":1702055186,"current_range_meters":15600,"station_id":"ce4bgv12rcd13ifvqcp0","pricing_plan_id":"free"},{"bike_id":"a8150a82-2e4e-4d0b-a057-fd6e1d73ce21","system_id":"levelo_inurba_marseille","lat":43.311722,"lon":5.387247,"is_reserved":false,"is_disabled":false,"rental_uris":{"android":"levelo://app?vid=a8150a82-2e4e-4d0b-a057-fd6e1d73ce21","ios":"levelo://app?vid=a8150a82-2e4e-4d0b-a057-fd6e1d73ce21"},"vehicle_type_id":"4","last_reported":1702055186,"current_range_meters":19200,"station_id":"ce4bgv12rcd13ifvqcp0","pricing_plan_id":"free"},{"bike_id":"7b04c468-d67d-486d-aa31-b467eddee7c0","system_id":"levelo_inurba_marseille","lat":43.322872,"lon":5.382756,"is_reserved":false,"is_disabled":false,"rental_uris":{"android":"levelo://app?vid=7b04c468-d67d-486d-aa31-b467eddee7c0","ios":"levelo://app?vid=7b04c468-d67d-486d-aa31-b467eddee7c0"},"vehicle_type_id":"4","last_reported":1702055186,"current_range_meters":0,"station_id":"ce4bhr12rcd13ifvqhqg","pricing_plan_id":"free"},{"bike_id":"b02c1507-9dbb-4af4-a5b4-17e953e90f78","system_id":"levelo_inurba_marseille","lat":43.297163,"lon":5.365866,"is_reserved":false,"is_disabled":false,"rental_uris":{"android":"levelo://app?vid=b02c1507-9dbb-4af4-a5b4-17e953e90f78","ios":"levelo://app?vid=b02c1507-9dbb-4af4-a5b4-17e953e90f78"},"vehicle_type_id":"4","last_reported":1702055186,"current_range_meters":17600,"station_id":"ce4bgn12rcd13ifvqbt0","pricing_plan_id":"free"},{"bike_id":"f38bbe0c-e13e-41ce-886f-8e2e5db64f60","system_id":"levelo_inurba_marseille","lat":43.297163,"lon":5.365866,"is_reserved":false,"is_disabled":false,"rental_uris":{"android":"levelo://app?vid=f38bbe0c-e13e-41ce-886f-8e2e5db64f60","ios":"levelo://app?vid=f38bbe0c-e13e-41ce-886f-8e2e5db64f60"},"vehicle_type_id":"4","last_reported":1702055186,"current_range_meters":11200,"station_id":"ce4bgn12rcd13ifvqbt0","pricing_plan_id":"free"},{"bike_id":"92dc65d6-6823-4de3-93d4-056f738f090c","system_id":"levelo_inurba_marseille","lat":43.316538,"lon":5.38954,"is_reserved":false,"is_disabled":false,"rental_uris":{"android":"levelo://app?vid=92dc65d6-6823-4de3-93d4-056f738f090c","ios":"levelo://app?vid=92dc65d6-6823-4de3-93d4-056f738f090c"},"vehicle_type_id":"4","last_reported":1702055186,"current_range_meters":1200,"station_id":"","pricing_plan_id":"free"},{"bike_id":"bc5a607e-fcde-43dd-8bc8-6de5989826e9","system_id":"levelo_inurba_marseille","lat":43.317557,"lon":5.390173,"is_reserved":false,"is_disabled":false,"rental_uris":{"android":"levelo://app?vid=bc5a607e-fcde-43dd-8bc8-6de5989826e9","ios":"levelo://app?vid=bc5a607e-fcde-43dd-8bc8-6de5989826e9"},"vehicle_type_id":"4","last_reported":1702055186,"current_range_meters":26400,"station_id":"ce4bhqp2rcd13ifvqhng","pricing_plan_id":"free"},{"bike_id":"1ac0b244-68f8-45b7-8d82-864156d78203","system_id":"levelo_inurba_marseille","lat":43.317557,"lon":5.390173,"is_reserved":false,"is_disabled":false,"rental_uris":{"android":"levelo://app?vid=1ac0b244-68f8-45b7-8d82-864156d78203","ios":"levelo://app?vid=1ac0b244-68f8-45b7-8d82-864156d78203"},"vehicle_type_id":"4","last_reported":1702055186,"current_range_meters":30000,"station_id":"ce4bhqp2rcd13ifvqhng","pricing_plan_id":"free"},{"bike_id":"2c27a24c-d816-4b8c-ba25-dc2e19315dd2","system_id":"levelo_inurba_marseille","lat":43.295748,"lon":5.37522,"is_reserved":false,"is_disabled":false,"rental_uris":{"android":"levelo://app?vid=2c27a24c-d816-4b8c-ba25-dc2e19315dd2","ios":"levelo://app?vid=2c27a24c-d816-4b8c-ba25-dc2e19315dd2"},"vehicle_type_id":"4","last_reported":1702055186,"current_range_meters":18000,"station_id":"ce4bgh92rcd13ifvqb50","pricing_plan_id":"free"},{"bike_id":"0c36b66f-c435-491f-9e1c-abd1cf7e6d7b","system_id":"levelo_inurba_marseille","lat":43.294779,"lon":5.375799,"is_reserved":false,"is_disabled":false,"rental_uris":{"android":"levelo://app?vid=0c36b66f-c435-491f-9e1c-abd1cf7e6d7b","ios":"levelo://app?vid=0c36b66f-c435-491f-9e1c-abd1cf7e6d7b"},"vehicle_type_id":"4","last_reported":1702055186,"current_range_meters":27200,"station_id":"","pricing_plan_id":"free"},{"bike_id":"e67cc6d6-f79f-40e3-811a-942765cd19ce","system_id":"levelo_inurba_marseille","lat":43.293259,"lon":5.371586,"is_reserved":false,"is_disabled":false,"rental_uris":{"android":"levelo://app?vid=e67cc6d6-f79f-40e3-811a-942765cd19ce","ios":"levelo://app?vid=e67cc6d6-f79f-40e3-811a-942765cd19ce"},"vehicle_type_id":"4","last_reported":1702055186,"current_range_meters":14400,"station_id":"ce4bgh92rcd13ifvqb40","pricing_plan_id":"free"},{"bike_id":"2fdd2699-c7f7-4f54-b169-0a768d111b9c","system_id":"levelo_inurba_marseille","lat":43.305994,"lon":5.393687,"is_reserved":false,"is_disabled":false,"rental_uris":{"android":"levelo://app?vid=2fdd2699-c7f7-4f54-b169-0a768d111b9c","ios":"levelo://app?vid=2fdd2699-c7f7-4f54-b169-0a768d111b9c"},"vehicle_type_id":"4","last_reported":1702055186,"current_range_meters":0,"station_id":"ce4bh0p2rcd13ifvqd80","pricing_plan_id":"free"},{"bike_id":"01a4e698-6c74-4b18-b5be-7d91292672ad","system_id":"levelo_inurba_marseille","lat":43.2936,"lon":5.37835,"is_reserved":false,"is_disabled":false,"rental_uris":{"android":"levelo://app?vid=01a4e698-6c74-4b18-b5be-7d91292672ad","ios":"levelo://app?vid=01a4e698-6c74-4b18-b5be-7d91292672ad"},"vehicle_type_id":"4","last_reported":1702055186,"current_range_meters":21600,"station_id":"ce4bgjh2rcd13ifvqbf0","pricing_plan_id":"free"},{"bike_id":"4248a868-c108-4b7f-aa7b-98325d62892a","system_id":"levelo_inurba_marseille","lat":43.300852,"lon":5.390859,"is_reserved":false,"is_disabled":false,"rental_uris":{"android":"levelo://app?vid=4248a868-c108-4b7f-aa7b-98325d62892a","ios":"levelo://app?vid=4248a868-c108-4b7f-aa7b-98325d62892a"},"vehicle_type_id":"4","last_reported":1702055186,"current_range_meters":24800,"station_id":"ce4bh192rcd13ifvqdb0","pricing_plan_id":"free"},{"bike_id":"704677f2-7715-43f6-97f0-ebc5c588463c","system_id":"levelo_inurba_marseille","lat":43.300852,"lon":5.390859,"is_reserved":false,"is_disabled":false,"rental_uris":{"android":"levelo://app?vid=704677f2-7715-43f6-97f0-ebc5c588463c","ios":"levelo://app?vid=704677f2-7715-43f6-97f0-ebc5c588463c"},"vehicle_type_id":"4","last_reported":1702055186,"current_range_meters":1600,"station_id":"ce4bh192rcd13ifvqdb0","pricing_plan_id":"free"},{"bike_id":"d26678d2-3a95-4b23-9276-772334705b3f","system_id":"levelo_inurba_marseille","lat":43.29893,"lon":5.38907,"is_reserved":false,"is_disabled":false,"rental_uris":{"android":"levelo://app?vid=d26678d2-3a95-4b23-9276-772334705b3f","ios":"levelo://app?vid=d26678d2-3a95-4b23-9276-772334705b3f"},"vehicle_type_id":"4","last_reported":1702055186,"current_range_meters":13600,"station_id":"","pricing_plan_id":"free"},{"bike_id":"49654420-d6c0-40ce-ac56-6c2697764b73","system_id":"levelo_inurba_marseille","lat":43.29878,"lon":5.3891,"is_reserved":false,"is_disabled":false,"rental_uris":{"android":"levelo://app?vid=49654420-d6c0-40ce-ac56-6c2697764b73","ios":"levelo://app?vid=49654420-d6c0-40ce-ac56-6c2697764b73"},"vehicle_type_id":"4","last_reported":1702055186,"current_range_meters":17200,"station_id":"","pricing_plan_id":"free"},{"bike_id":"a239753e-f563-4ff9-92df-88cefd618ada","system_id":"levelo_inurba_marseille","lat":43.29871,"lon":5.38902,"is_reserved":false,"is_disabled":false,"rental_uris":{"android":"levelo://app?vid=a239753e-f563-4ff9-92df-88cefd618ada","ios":"levelo://app?vid=a239753e-f563-4ff9-92df-88cefd618ada"},"vehicle_type_id":"4","last_reported":1702055186,"current_range_meters":18000,"station_id":"","pricing_plan_id":"free"},{"bike_id":"42de2727-3f9b-45ef-9d3a-8a96cfe69d50","system_id":"levelo_inurba_marseille","lat":43.31326,"lon":5.39687,"is_reserved":false,"is_disabled":false,"rental_uris":{"android":"levelo://app?vid=42de2727-3f9b-45ef-9d3a-8a96cfe69d50","ios":"levelo://app?vid=42de2727-3f9b-45ef-9d3a-8a96cfe69d50"},"vehicle_type_id":"4","last_reported":1702055186,"current_range_meters":22400,"station_id":"ce4bgvp2rcd13ifvqcu0","pricing_plan_id":"free"},{"bike_id":"2da630e5-e5c4-4180-8b0b-1dd66b2ec632","system_id":"levelo_inurba_marseille","lat":43.29189,"lon":5.3581,"is_reserved":false,"is_disabled":false,"rental_uris":{"android":"levelo://app?vid=2da630e5-e5c4-4180-8b0b-1dd66b2ec632","ios":"levelo://app?vid=2da630e5-e5c4-4180-8b0b-1dd66b2ec632"},"vehicle_type_id":"4","last_reported":1702055186,"current_range_meters":18800,"station_id":"ce4bhb12rcd13ifvqel0","pricing_plan_id":"free"},{"bike_id":"3f1994e1-d6f4-4aef-86e8-01f3490ceee3","system_id":"levelo_inurba_marseille","lat":43.291994,"lon":5.357886,"is_reserved":false,"is_disabled":false,"rental_uris":{"android":"levelo://app?vid=3f1994e1-d6f4-4aef-86e8-01f3490ceee3","ios":"levelo://app?vid=3f1994e1-d6f4-4aef-86e8-01f3490ceee3"},"vehicle_type_id":"4","last_reported":1702055186,"current_range_meters":10800,"station_id":"ce4bhb12rcd13ifvqel0","pricing_plan_id":"free"},{"bike_id":"8b000a14-cf0d-46f7-9370-4f433e4ebb20","system_id":"levelo_inurba_marseille","lat":43.29187,"lon":5.35797,"is_reserved":false,"is_disabled":false,"rental_uris":{"android":"levelo://app?vid=8b000a14-cf0d-46f7-9370-4f433e4ebb20","ios":"levelo://app?vid=8b000a14-cf0d-46f7-9370-4f433e4ebb20"},"vehicle_type_id":"4","last_reported":1702055186,"current_range_meters":20000,"station_id":"ce4bhb12rcd13ifvqel0","pricing_plan_id":"free"},{"bike_id":"958b4183-68d6-4df7-b3de-892581fefd85","system_id":"levelo_inurba_marseille","lat":43.31325,"lon":5.39699,"is_reserved":false,"is_disabled":false,"rental_uris":{"android":"levelo://app?vid=958b4183-68d6-4df7-b3de-892581fefd85","ios":"levelo://app?vid=958b4183-68d6-4df7-b3de-892581fefd85"},"vehicle_type_id":"4","last_reported":1702055186,"current_range_meters":7200,"station_id":"ce4bgvp2rcd13ifvqcu0","pricing_plan_id":"free"},{"bike_id":"87717013-4c3c-45e7-b68a-34bf19fff4f7","system_id":"levelo_inurba_marseille","lat":43.29529,"lon":5.385581,"is_reserved":false,"is_disabled":false,"rental_uris":{"android":"levelo://app?vid=87717013-4c3c-45e7-b68a-34bf19fff4f7","ios":"levelo://app?vid=87717013-4c3c-45e7-b68a-34bf19fff4f7"},"vehicle_type_id":"4","last_reported":1702055186,"current_range_meters":30800,"station_id":"ce4bgih2rcd13ifvqba0","pricing_plan_id":"free"},{"bike_id":"dfbfe25d-9a51-423d-bc45-178bb92110f5","system_id":"levelo_inurba_marseille","lat":43.302008,"lon":5.394694,"is_reserved":false,"is_disabled":false,"rental_uris":{"android":"levelo://app?vid=dfbfe25d-9a51-423d-bc45-178bb92110f5","ios":"levelo://app?vid=dfbfe25d-9a51-423d-bc45-178bb92110f5"},"vehicle_type_id":"4","last_reported":1702055186,"current_range_meters":1600,"station_id":"ce4bh0p2rcd13ifvqd70","pricing_plan_id":"free"},{"bike_id":"1210703c-78fc-4106-9a31-fb62674dd9fd","system_id":"levelo_inurba_marseille","lat":43.294162,"lon":5.386292,"is_reserved":false,"is_disabled":false,"rental_uris":{"android":"levelo://app?vid=1210703c-78fc-4106-9a31-fb62674dd9fd","ios":"levelo://app?vid=1210703c-78fc-4106-9a31-fb62674dd9fd"},"vehicle_type_id":"4","last_reported":1702055186,"current_range_meters":3600,"station_id":"ce4bh2h2rcd13ifvqdh0","pricing_plan_id":"free"},{"bike_id":"d1086258-1ce6-4989-b060-81b1cdedb2f0","system_id":"levelo_inurba_marseille","lat":43.294162,"lon":5.386292,"is_reserved":false,"is_disabled":false,"rental_uris":{"android":"levelo://app?vid=d1086258-1ce6-4989-b060-81b1cdedb2f0","ios":"levelo://app?vid=d1086258-1ce6-4989-b060-81b1cdedb2f0"},"vehicle_type_id":"4","last_reported":1702055186,"current_range_meters":11200,"station_id":"ce4bh2h2rcd13ifvqdh0","pricing_plan_id":"free"},{"bike_id":"6fa5afbc-f4b2-48f4-a7db-3e38702ac496","system_id":"levelo_inurba_marseille","lat":43.294162,"lon":5.386292,"is_reserved":false,"is_disabled":false,"rental_uris":{"android":"levelo://app?vid=6fa5afbc-f4b2-48f4-a7db-3e38702ac496","ios":"levelo://app?vid=6fa5afbc-f4b2-48f4-a7db-3e38702ac496"},"vehicle_type_id":"4","last_reported":1702055186,"current_range_meters":9600,"station_id":"ce4bh2h2rcd13ifvqdh0","pricing_plan_id":"free"},{"bike_id":"2dc6f3c2-245c-4855-bad4-109c6bd6aabf","system_id":"levelo_inurba_marseille","lat":43.28947,"lon":5.36384,"is_reserved":false,"is_disabled":false,"rental_uris":{"android":"levelo://app?vid=2dc6f3c2-245c-4855-bad4-109c6bd6aabf","ios":"levelo://app?vid=2dc6f3c2-245c-4855-bad4-109c6bd6aabf"},"vehicle_type_id":"4","last_reported":1702055186,"current_range_meters":10800,"station_id":"ce4bhc92rcd13ifvqetg","pricing_plan_id":"free"},{"bike_id":"d1a76664-2e2f-4492-8982-336f110e2a47","system_id":"levelo_inurba_marseille","lat":43.289184,"lon":5.366408,"is_reserved":false,"is_disabled":false,"rental_uris":{"android":"levelo://app?vid=d1a76664-2e2f-4492-8982-336f110e2a47","ios":"levelo://app?vid=d1a76664-2e2f-4492-8982-336f110e2a47"},"vehicle_type_id":"4","last_reported":1702055186,"current_range_meters":10800,"station_id":"ce4bhap2rcd13ifvqek0","pricing_plan_id":"free"},{"bike_id":"bfcd77c0-96c5-4197-815b-9891cc936dd0","system_id":"levelo_inurba_marseille","lat":43.290161,"lon":5.375651,"is_reserved":false,"is_disabled":false,"rental_uris":{"android":"levelo://app?vid=bfcd77c0-96c5-4197-815b-9891cc936dd0","ios":"levelo://app?vid=bfcd77c0-96c5-4197-815b-9891cc936dd0"},"vehicle_type_id":"4","last_reported":1702055186,"current_range_meters":16800,"station_id":"","pricing_plan_id":"free"},{"bike_id":"e0c36195-950a-4f08-991e-d771992873a2","system_id":"levelo_inurba_marseille","lat":43.289357,"lon":5.364022,"is_reserved":false,"is_disabled":false,"rental_uris":{"android":"levelo://app?vid=e0c36195-950a-4f08-991e-d771992873a2","ios":"levelo://app?vid=e0c36195-950a-4f08-991e-d771992873a2"},"vehicle_type_id":"4","last_reported":1702055186,"current_range_meters":9200,"station_id":"ce4bhc92rcd13ifvqetg","pricing_plan_id":"free"},{"bike_id":"a02a1b20-1fb1-4951-988a-77389649024d","system_id":"levelo_inurba_marseille","lat":43.289259,"lon":5.366364,"is_reserved":false,"is_disabled":false,"rental_uris":{"android":"levelo://app?vid=a02a1b20-1fb1-4951-988a-77389649024d","ios":"levelo://app?vid=a02a1b20-1fb1-4951-988a-77389649024d"},"vehicle_type_id":"4","last_reported":1702055186,"current_range_meters":15200,"station_id":"","pricing_plan_id":"free"},{"bike_id":"a99dd9b6-3fd7-4a31-8d24-a751688c73dc","system_id":"levelo_inurba_marseille","lat":43.330442,"lon":5.389148,"is_reserved":false,"is_disabled":false,"rental_uris":{"android":"levelo://app?vid=a99dd9b6-3fd7-4a31-8d24-a751688c73dc","ios":"levelo://app?vid=a99dd9b6-3fd7-4a31-8d24-a751688c73dc"},"vehicle_type_id":"4","last_reported":1702055186,"current_range_meters":0,"station_id":"ce4bhr92rcd13ifvqhrg","pricing_plan_id":"free"},{"bike_id":"a7cd26e9-56ad-40ec-949a-b4d3d9b5950b","system_id":"levelo_inurba_marseille","lat":43.29786,"lon":5.39348,"is_reserved":false,"is_disabled":false,"rental_uris":{"android":"levelo://app?vid=a7cd26e9-56ad-40ec-949a-b4d3d9b5950b","ios":"levelo://app?vid=a7cd26e9-56ad-40ec-949a-b4d3d9b5950b"},"vehicle_type_id":"4","last_reported":1702055186,"current_range_meters":17200,"station_id":"chh1huq6cuj3fo74tm60","pricing_plan_id":"free"},{"bike_id":"abd7808c-9018-4c3e-8861-22808dda313a","system_id":"levelo_inurba_marseille","lat":43.295169,"lon":5.390426,"is_reserved":false,"is_disabled":false,"rental_uris":{"android":"levelo://app?vid=abd7808c-9018-4c3e-8861-22808dda313a","ios":"levelo://app?vid=abd7808c-9018-4c3e-8861-22808dda313a"},"vehicle_type_id":"4","last_reported":1702055186,"current_range_meters":14000,"station_id":"ce4bh3p2rcd13ifvqdp0","pricing_plan_id":"free"},{"bike_id":"7c41cc07-f05e-4794-83eb-57a6c3332f36","system_id":"levelo_inurba_marseille","lat":43.337465,"lon":5.374545,"is_reserved":false,"is_disabled":false,"rental_uris":{"android":"levelo://app?vid=7c41cc07-f05e-4794-83eb-57a6c3332f36","ios":"levelo://app?vid=7c41cc07-f05e-4794-83eb-57a6c3332f36"},"vehicle_type_id":"4","last_reported":1702055186,"current_range_meters":30400,"station_id":"","pricing_plan_id":"free"},{"bike_id":"e5d48a4e-3473-4941-a064-e7019fc4501a","system_id":"levelo_inurba_marseille","lat":43.309208,"lon":5.401474,"is_reserved":false,"is_disabled":false,"rental_uris":{"android":"levelo://app?vid=e5d48a4e-3473-4941-a064-e7019fc4501a","ios":"levelo://app?vid=e5d48a4e-3473-4941-a064-e7019fc4501a"},"vehicle_type_id":"4","last_reported":1702055186,"current_range_meters":30400,"station_id":"ce4bgvp2rcd13ifvqct0","pricing_plan_id":"free"},{"bike_id":"14974721-73bf-4125-8ca9-80a72a6153d0","system_id":"levelo_inurba_marseille","lat":43.28727,"lon":5.36078,"is_reserved":false,"is_disabled":false,"rental_uris":{"android":"levelo://app?vid=14974721-73bf-4125-8ca9-80a72a6153d0","ios":"levelo://app?vid=14974721-73bf-4125-8ca9-80a72a6153d0"},"vehicle_type_id":"4","last_reported":1702055186,"current_range_meters":5600,"station_id":"cki0cbj6b192h4jlfktg","pricing_plan_id":"free"},{"bike_id":"62db9187-8030-4d61-a62f-6c94ebf35dcd","system_id":"levelo_inurba_marseille","lat":43.298681,"lon":5.397225,"is_reserved":false,"is_disabled":false,"rental_uris":{"android":"levelo://app?vid=62db9187-8030-4d61-a62f-6c94ebf35dcd","ios":"levelo://app?vid=62db9187-8030-4d61-a62f-6c94ebf35dcd"},"vehicle_type_id":"4","last_reported":1702055186,"current_range_meters":21200,"station_id":"ce4bh0h2rcd13ifvqd50","pricing_plan_id":"free"},{"bike_id":"41113a1d-06c3-41ef-87cd-4bf80eadeaad","system_id":"levelo_inurba_marseille","lat":43.302759,"lon":5.400793,"is_reserved":false,"is_disabled":false,"rental_uris":{"android":"levelo://app?vid=41113a1d-06c3-41ef-87cd-4bf80eadeaad","ios":"levelo://app?vid=41113a1d-06c3-41ef-87cd-4bf80eadeaad"},"vehicle_type_id":"4","last_reported":1702055186,"current_range_meters":0,"station_id":"ce4bgvh2rcd13ifvqcs0","pricing_plan_id":"free"},{"bike_id":"6808aaa3-4576-4daa-bd2b-0b46d30ee08e","system_id":"levelo_inurba_marseille","lat":43.28914,"lon":5.38417,"is_reserved":false,"is_disabled":false,"rental_uris":{"android":"levelo://app?vid=6808aaa3-4576-4daa-bd2b-0b46d30ee08e","ios":"levelo://app?vid=6808aaa3-4576-4daa-bd2b-0b46d30ee08e"},"vehicle_type_id":"4","last_reported":1702055186,"current_range_meters":2000,"station_id":"ce4bh612rcd13ifvqe6g","pricing_plan_id":"free"},{"bike_id":"30f946f0-c7cb-462e-bff2-dc4805d2693d","system_id":"levelo_inurba_marseille","lat":43.286039,"lon":5.370681,"is_reserved":false,"is_disabled":false,"rental_uris":{"android":"levelo://app?vid=30f946f0-c7cb-462e-bff2-dc4805d2693d","ios":"levelo://app?vid=30f946f0-c7cb-462e-bff2-dc4805d2693d"},"vehicle_type_id":"4","last_reported":1702055186,"current_range_meters":14800,"station_id":"ce4bht12rcd13ifvqi60","pricing_plan_id":"free"},{"bike_id":"b517815a-704d-4afe-a6df-b5cd7f238c00","system_id":"levelo_inurba_marseille","lat":43.291994,"lon":5.392907,"is_reserved":false,"is_disabled":false,"rental_uris":{"android":"levelo://app?vid=b517815a-704d-4afe-a6df-b5cd7f238c00","ios":"levelo://app?vid=b517815a-704d-4afe-a6df-b5cd7f238c00"},"vehicle_type_id":"4","last_reported":1702055186,"current_range_meters":11600,"station_id":"ce4bh192rcd13ifvqdd0","pricing_plan_id":"free"},{"bike_id":"47870ef9-05bb-45a0-b9f0-bcc8aca10f59","system_id":"levelo_inurba_marseille","lat":43.284534,"lon":5.358662,"is_reserved":false,"is_disabled":false,"rental_uris":{"android":"levelo://app?vid=47870ef9-05bb-45a0-b9f0-bcc8aca10f59","ios":"levelo://app?vid=47870ef9-05bb-45a0-b9f0-bcc8aca10f59"},"vehicle_type_id":"4","last_reported":1702055186,"current_range_meters":4800,"station_id":"ce4bhah2rcd13ifvqei0","pricing_plan_id":"free"},{"bike_id":"3de0270f-fef0-443e-aedf-7abe1214c613","system_id":"levelo_inurba_marseille","lat":43.285856,"lon":5.350771,"is_reserved":false,"is_disabled":false,"rental_uris":{"android":"levelo://app?vid=3de0270f-fef0-443e-aedf-7abe1214c613","ios":"levelo://app?vid=3de0270f-fef0-443e-aedf-7abe1214c613"},"vehicle_type_id":"4","last_reported":1702055186,"current_range_meters":28000,"station_id":"ce4bhch2rcd13ifvqeug","pricing_plan_id":"free"},{"bike_id":"ab98ea44-0675-4a1c-9cd0-435f91805a47","system_id":"levelo_inurba_marseille","lat":43.295713,"lon":5.399639,"is_reserved":false,"is_disabled":false,"rental_uris":{"android":"levelo://app?vid=ab98ea44-0675-4a1c-9cd0-435f91805a47","ios":"levelo://app?vid=ab98ea44-0675-4a1c-9cd0-435f91805a47"},"vehicle_type_id":"4","last_reported":1702055186,"current_range_meters":14400,"station_id":"ce4bh312rcd13ifvqdj0","pricing_plan_id":"free"},{"bike_id":"230a9bf4-ac2d-4698-8dc7-2ab006fbda86","system_id":"levelo_inurba_marseille","lat":43.319179,"lon":5.407725,"is_reserved":false,"is_disabled":false,"rental_uris":{"android":"levelo://app?vid=230a9bf4-ac2d-4698-8dc7-2ab006fbda86","ios":"levelo://app?vid=230a9bf4-ac2d-4698-8dc7-2ab006fbda86"},"vehicle_type_id":"4","last_reported":1702055186,"current_range_meters":6400,"station_id":"ce4bhq12rcd13ifvqhig","pricing_plan_id":"free"},{"bike_id":"efe9d2cc-d0eb-4e85-b313-6bf62b4d4d4c","system_id":"levelo_inurba_marseille","lat":43.337329,"lon":5.391845,"is_reserved":false,"is_disabled":false,"rental_uris":{"android":"levelo://app?vid=efe9d2cc-d0eb-4e85-b313-6bf62b4d4d4c","ios":"levelo://app?vid=efe9d2cc-d0eb-4e85-b313-6bf62b4d4d4c"},"vehicle_type_id":"4","last_reported":1702055186,"current_range_meters":3200,"station_id":"ce4bhr92rcd13ifvqhsg","pricing_plan_id":"free"},{"bike_id":"74f8468f-1c18-4719-9aa7-fca538494199","system_id":"levelo_inurba_marseille","lat":43.282754,"lon":5.350519,"is_reserved":false,"is_disabled":false,"rental_uris":{"android":"levelo://app?vid=74f8468f-1c18-4719-9aa7-fca538494199","ios":"levelo://app?vid=74f8468f-1c18-4719-9aa7-fca538494199"},"vehicle_type_id":"4","last_reported":1702055186,"current_range_meters":20400,"station_id":"ce4bhbp2rcd13ifvqerg","pricing_plan_id":"free"},{"bike_id":"7f4e197e-5a2d-4d49-a8c9-03ff02922ea1","system_id":"levelo_inurba_marseille","lat":43.282667,"lon":5.350687,"is_reserved":false,"is_disabled":false,"rental_uris":{"android":"levelo://app?vid=7f4e197e-5a2d-4d49-a8c9-03ff02922ea1","ios":"levelo://app?vid=7f4e197e-5a2d-4d49-a8c9-03ff02922ea1"},"vehicle_type_id":"4","last_reported":1702055186,"current_range_meters":10000,"station_id":"ce4bhbp2rcd13ifvqerg","pricing_plan_id":"free"},{"bike_id":"099d8551-7391-4404-85e1-352d07ea4b53","system_id":"levelo_inurba_marseille","lat":43.282754,"lon":5.350519,"is_reserved":false,"is_disabled":false,"rental_uris":{"android":"levelo://app?vid=099d8551-7391-4404-85e1-352d07ea4b53","ios":"levelo://app?vid=099d8551-7391-4404-85e1-352d07ea4b53"},"vehicle_type_id":"4","last_reported":1702055186,"current_range_meters":8800,"station_id":"ce4bhbp2rcd13ifvqerg","pricing_plan_id":"free"},{"bike_id":"9fc959e8-cee6-4d4e-890e-63520668efc7","system_id":"levelo_inurba_marseille","lat":43.282754,"lon":5.350519,"is_reserved":false,"is_disabled":false,"rental_uris":{"android":"levelo://app?vid=9fc959e8-cee6-4d4e-890e-63520668efc7","ios":"levelo://app?vid=9fc959e8-cee6-4d4e-890e-63520668efc7"},"vehicle_type_id":"4","last_reported":1702055186,"current_range_meters":17600,"station_id":"ce4bhbp2rcd13ifvqerg","pricing_plan_id":"free"},{"bike_id":"01e16f5d-6b05-4738-bd69-ea7d94e317fc","system_id":"levelo_inurba_marseille","lat":43.282754,"lon":5.350519,"is_reserved":false,"is_disabled":false,"rental_uris":{"android":"levelo://app?vid=01e16f5d-6b05-4738-bd69-ea7d94e317fc","ios":"levelo://app?vid=01e16f5d-6b05-4738-bd69-ea7d94e317fc"},"vehicle_type_id":"4","last_reported":1702055186,"current_range_meters":28800,"station_id":"ce4bhbp2rcd13ifvqerg","pricing_plan_id":"free"},{"bike_id":"29a2c77f-95f2-4b60-b979-8c910c93dc24","system_id":"levelo_inurba_marseille","lat":43.280375,"lon":5.369445,"is_reserved":false,"is_disabled":false,"rental_uris":{"android":"levelo://app?vid=29a2c77f-95f2-4b60-b979-8c910c93dc24","ios":"levelo://app?vid=29a2c77f-95f2-4b60-b979-8c910c93dc24"},"vehicle_type_id":"4","last_reported":1702055186,"current_range_meters":16400,"station_id":"ce4bha12rcd13ifvqef0","pricing_plan_id":"free"},{"bike_id":"7d6afa9a-2929-4189-ab76-6f7a34af73b3","system_id":"levelo_inurba_marseille","lat":43.280382,"lon":5.369291,"is_reserved":false,"is_disabled":false,"rental_uris":{"android":"levelo://app?vid=7d6afa9a-2929-4189-ab76-6f7a34af73b3","ios":"levelo://app?vid=7d6afa9a-2929-4189-ab76-6f7a34af73b3"},"vehicle_type_id":"4","last_reported":1702055186,"current_range_meters":13600,"station_id":"ce4bha12rcd13ifvqef0","pricing_plan_id":"free"},{"bike_id":"5df707fa-4d87-4b39-9640-252ebb7984bd","system_id":"levelo_inurba_marseille","lat":43.296263,"lon":5.40601,"is_reserved":false,"is_disabled":false,"rental_uris":{"android":"levelo://app?vid=5df707fa-4d87-4b39-9640-252ebb7984bd","ios":"levelo://app?vid=5df707fa-4d87-4b39-9640-252ebb7984bd"},"vehicle_type_id":"4","last_reported":1702055186,"current_range_meters":5600,"station_id":"ce4bh0h2rcd13ifvqd60","pricing_plan_id":"free"},{"bike_id":"fc5a49c1-a0f0-466e-8d28-55842eb33b56","system_id":"levelo_inurba_marseille","lat":43.284462,"lon":5.392121,"is_reserved":false,"is_disabled":false,"rental_uris":{"android":"levelo://app?vid=fc5a49c1-a0f0-466e-8d28-55842eb33b56","ios":"levelo://app?vid=fc5a49c1-a0f0-466e-8d28-55842eb33b56"},"vehicle_type_id":"4","last_reported":1702055186,"current_range_meters":21600,"station_id":"ce4bhoh2rcd13ifvqh5g","pricing_plan_id":"free"},{"bike_id":"35afe0c5-713e-4ec4-8400-c9923322f364","system_id":"levelo_inurba_marseille","lat":43.284462,"lon":5.392121,"is_reserved":false,"is_disabled":false,"rental_uris":{"android":"levelo://app?vid=35afe0c5-713e-4ec4-8400-c9923322f364","ios":"levelo://app?vid=35afe0c5-713e-4ec4-8400-c9923322f364"},"vehicle_type_id":"4","last_reported":1702055186,"current_range_meters":18400,"station_id":"ce4bhoh2rcd13ifvqh5g","pricing_plan_id":"free"},{"bike_id":"d7658057-ee26-470d-8813-abaedb0a0334","system_id":"levelo_inurba_marseille","lat":43.28573,"lon":5.394992,"is_reserved":false,"is_disabled":false,"rental_uris":{"android":"levelo://app?vid=d7658057-ee26-470d-8813-abaedb0a0334","ios":"levelo://app?vid=d7658057-ee26-470d-8813-abaedb0a0334"},"vehicle_type_id":"4","last_reported":1702055186,"current_range_meters":6800,"station_id":"ce4bh292rcd13ifvqdg0","pricing_plan_id":"free"},{"bike_id":"91e6cf88-83b2-4b8e-922e-2f7467998e37","system_id":"levelo_inurba_marseille","lat":43.287154,"lon":5.399979,"is_reserved":false,"is_disabled":false,"rental_uris":{"android":"levelo://app?vid=91e6cf88-83b2-4b8e-922e-2f7467998e37","ios":"levelo://app?vid=91e6cf88-83b2-4b8e-922e-2f7467998e37"},"vehicle_type_id":"4","last_reported":1702055186,"current_range_meters":17600,"station_id":"ce4bho92rcd13ifvqh3g","pricing_plan_id":"free"},{"bike_id":"8df9cc52-1ced-4099-9561-510e813b01fa","system_id":"levelo_inurba_marseille","lat":43.297946,"lon":5.404063,"is_reserved":false,"is_disabled":false,"rental_uris":{"android":"levelo://app?vid=8df9cc52-1ced-4099-9561-510e813b01fa","ios":"levelo://app?vid=8df9cc52-1ced-4099-9561-510e813b01fa"},"vehicle_type_id":"4","last_reported":1702055186,"current_range_meters":23600,"station_id":"ce4bh112rcd13ifvqd90","pricing_plan_id":"free"},{"bike_id":"73d8f6d9-a5f6-4801-abb1-bed58a917ae3","system_id":"levelo_inurba_marseille","lat":43.27612,"lon":5.36112,"is_reserved":false,"is_disabled":false,"rental_uris":{"android":"levelo://app?vid=73d8f6d9-a5f6-4801-abb1-bed58a917ae3","ios":"levelo://app?vid=73d8f6d9-a5f6-4801-abb1-bed58a917ae3"},"vehicle_type_id":"4","last_reported":1702055186,"current_range_meters":29600,"station_id":"ce4bgj92rcd13ifvqbe0","pricing_plan_id":"free"},{"bike_id":"987bec9a-0255-4757-acc6-5e808866d820","system_id":"levelo_inurba_marseille","lat":43.276115,"lon":5.36113,"is_reserved":false,"is_disabled":false,"rental_uris":{"android":"levelo://app?vid=987bec9a-0255-4757-acc6-5e808866d820","ios":"levelo://app?vid=987bec9a-0255-4757-acc6-5e808866d820"},"vehicle_type_id":"4","last_reported":1702055186,"current_range_meters":20000,"station_id":"ce4bgj92rcd13ifvqbe0","pricing_plan_id":"free"},{"bike_id":"dd860398-f66c-4ee2-9bf8-6345305d0079","system_id":"levelo_inurba_marseille","lat":43.33253,"lon":5.41013,"is_reserved":false,"is_disabled":false,"rental_uris":{"android":"levelo://app?vid=dd860398-f66c-4ee2-9bf8-6345305d0079","ios":"levelo://app?vid=dd860398-f66c-4ee2-9bf8-6345305d0079"},"vehicle_type_id":"4","last_reported":1702055186,"current_range_meters":2400,"station_id":"","pricing_plan_id":"free"},{"bike_id":"e86ab298-4c30-4f06-936a-2bc650da22d1","system_id":"levelo_inurba_marseille","lat":43.28076,"lon":5.39654,"is_reserved":false,"is_disabled":false,"rental_uris":{"android":"levelo://app?vid=e86ab298-4c30-4f06-936a-2bc650da22d1","ios":"levelo://app?vid=e86ab298-4c30-4f06-936a-2bc650da22d1"},"vehicle_type_id":"4","last_reported":1702055186,"current_range_meters":3600,"station_id":"ce4bho12rcd13ifvqh2g","pricing_plan_id":"free"},{"bike_id":"07130f68-c833-419a-b5e3-bee856f8b55a","system_id":"levelo_inurba_marseille","lat":43.280784,"lon":5.396622,"is_reserved":false,"is_disabled":false,"rental_uris":{"android":"levelo://app?vid=07130f68-c833-419a-b5e3-bee856f8b55a","ios":"levelo://app?vid=07130f68-c833-419a-b5e3-bee856f8b55a"},"vehicle_type_id":"4","last_reported":1702055186,"current_range_meters":17600,"station_id":"ce4bho12rcd13ifvqh2g","pricing_plan_id":"free"},{"bike_id":"4162a67d-6991-437e-b22b-0da9c6f09535","system_id":"levelo_inurba_marseille","lat":43.278401,"lon":5.392152,"is_reserved":false,"is_disabled":false,"rental_uris":{"android":"levelo://app?vid=4162a67d-6991-437e-b22b-0da9c6f09535","ios":"levelo://app?vid=4162a67d-6991-437e-b22b-0da9c6f09535"},"vehicle_type_id":"4","last_reported":1702055186,"current_range_meters":24400,"station_id":"ce4bhjp2rcd13ifvqga0","pricing_plan_id":"free"},{"bike_id":"986e2640-07f1-4aaf-ae9d-a0bb0a20f26c","system_id":"levelo_inurba_marseille","lat":43.279975,"lon":5.40009,"is_reserved":false,"is_disabled":false,"rental_uris":{"android":"levelo://app?vid=986e2640-07f1-4aaf-ae9d-a0bb0a20f26c","ios":"levelo://app?vid=986e2640-07f1-4aaf-ae9d-a0bb0a20f26c"},"vehicle_type_id":"4","last_reported":1702055186,"current_range_meters":23200,"station_id":"ce4bho92rcd13ifvqh4g","pricing_plan_id":"free"},{"bike_id":"fc4bcc5b-5f4e-42a1-8cca-78d5c651475f","system_id":"levelo_inurba_marseille","lat":43.317121,"lon":5.423936,"is_reserved":false,"is_disabled":false,"rental_uris":{"android":"levelo://app?vid=fc4bcc5b-5f4e-42a1-8cca-78d5c651475f","ios":"levelo://app?vid=fc4bcc5b-5f4e-42a1-8cca-78d5c651475f"},"vehicle_type_id":"4","last_reported":1702055186,"current_range_meters":0,"station_id":"ce4bhp92rcd13ifvqhbg","pricing_plan_id":"free"},{"bike_id":"63133364-316e-458e-b234-bbd4926c63fc","system_id":"levelo_inurba_marseille","lat":43.27583,"lon":5.39474,"is_reserved":false,"is_disabled":false,"rental_uris":{"android":"levelo://app?vid=63133364-316e-458e-b234-bbd4926c63fc","ios":"levelo://app?vid=63133364-316e-458e-b234-bbd4926c63fc"},"vehicle_type_id":"4","last_reported":1702055186,"current_range_meters":12000,"station_id":"","pricing_plan_id":"free"},{"bike_id":"8f021145-48f8-459b-aef0-f8921e18b0a0","system_id":"levelo_inurba_marseille","lat":43.27214,"lon":5.3925,"is_reserved":false,"is_disabled":false,"rental_uris":{"android":"levelo://app?vid=8f021145-48f8-459b-aef0-f8921e18b0a0","ios":"levelo://app?vid=8f021145-48f8-459b-aef0-f8921e18b0a0"},"vehicle_type_id":"4","last_reported":1702055186,"current_range_meters":4800,"station_id":"","pricing_plan_id":"free"},{"bike_id":"6874ff8c-1b2c-4898-8c8d-cf8f7ce6b855","system_id":"levelo_inurba_marseille","lat":43.279465,"lon":5.410561,"is_reserved":false,"is_disabled":false,"rental_uris":{"android":"levelo://app?vid=6874ff8c-1b2c-4898-8c8d-cf8f7ce6b855","ios":"levelo://app?vid=6874ff8c-1b2c-4898-8c8d-cf8f7ce6b855"},"vehicle_type_id":"4","last_reported":1702055186,"current_range_meters":11200,"station_id":"ce4bhnp2rcd13ifvqh0g","pricing_plan_id":"free"},{"bike_id":"f4a1556f-345d-4162-b0d2-7ce773fdc986","system_id":"levelo_inurba_marseille","lat":43.29281,"lon":5.42853,"is_reserved":false,"is_disabled":false,"rental_uris":{"android":"levelo://app?vid=f4a1556f-345d-4162-b0d2-7ce773fdc986","ios":"levelo://app?vid=f4a1556f-345d-4162-b0d2-7ce773fdc986"},"vehicle_type_id":"4","last_reported":1702055186,"current_range_meters":11600,"station_id":"","pricing_plan_id":"free"},{"bike_id":"ef6b80d3-79c1-4351-823d-ce86ba16e515","system_id":"levelo_inurba_marseille","lat":43.267966,"lon":5.393976,"is_reserved":false,"is_disabled":false,"rental_uris":{"android":"levelo://app?vid=ef6b80d3-79c1-4351-823d-ce86ba16e515","ios":"levelo://app?vid=ef6b80d3-79c1-4351-823d-ce86ba16e515"},"vehicle_type_id":"4","last_reported":1702055186,"current_range_meters":16400,"station_id":"ce4bhh12rcd13ifvqfg0","pricing_plan_id":"free"},{"bike_id":"22f62ba5-5a10-40be-a89a-55fb4954a47f","system_id":"levelo_inurba_marseille","lat":43.265571,"lon":5.390032,"is_reserved":false,"is_disabled":false,"rental_uris":{"android":"levelo://app?vid=22f62ba5-5a10-40be-a89a-55fb4954a47f","ios":"levelo://app?vid=22f62ba5-5a10-40be-a89a-55fb4954a47f"},"vehicle_type_id":"4","last_reported":1702055186,"current_range_meters":400,"station_id":"ce4bhe12rcd13ifvqf30","pricing_plan_id":"free"},{"bike_id":"45c3480f-21c4-453a-bee9-c03c7df6b387","system_id":"levelo_inurba_marseille","lat":43.308051,"lon":5.43527,"is_reserved":false,"is_disabled":false,"rental_uris":{"android":"levelo://app?vid=45c3480f-21c4-453a-bee9-c03c7df6b387","ios":"levelo://app?vid=45c3480f-21c4-453a-bee9-c03c7df6b387"},"vehicle_type_id":"4","last_reported":1702055186,"current_range_meters":30800,"station_id":"ce4bhph2rcd13ifvqheg","pricing_plan_id":"free"},{"bike_id":"c29ab976-c815-4a84-a186-bc29f881c042","system_id":"levelo_inurba_marseille","lat":43.308051,"lon":5.43527,"is_reserved":false,"is_disabled":false,"rental_uris":{"android":"levelo://app?vid=c29ab976-c815-4a84-a186-bc29f881c042","ios":"levelo://app?vid=c29ab976-c815-4a84-a186-bc29f881c042"},"vehicle_type_id":"4","last_reported":1702055186,"current_range_meters":23200,"station_id":"ce4bhph2rcd13ifvqheg","pricing_plan_id":"free"},{"bike_id":"0dc2300a-ca6e-40a3-8d88-7bc8077f675e","system_id":"levelo_inurba_marseille","lat":43.265571,"lon":5.390032,"is_reserved":false,"is_disabled":false,"rental_uris":{"android":"levelo://app?vid=0dc2300a-ca6e-40a3-8d88-7bc8077f675e","ios":"levelo://app?vid=0dc2300a-ca6e-40a3-8d88-7bc8077f675e"},"vehicle_type_id":"4","last_reported":1702055186,"current_range_meters":19200,"station_id":"ce4bhe12rcd13ifvqf30","pricing_plan_id":"free"},{"bike_id":"34c4e2ba-60e1-4ef0-bdfb-ee62c52aa344","system_id":"levelo_inurba_marseille","lat":43.26557,"lon":5.39013,"is_reserved":false,"is_disabled":false,"rental_uris":{"android":"levelo://app?vid=34c4e2ba-60e1-4ef0-bdfb-ee62c52aa344","ios":"levelo://app?vid=34c4e2ba-60e1-4ef0-bdfb-ee62c52aa344"},"vehicle_type_id":"4","last_reported":1702055186,"current_range_meters":10400,"station_id":"ce4bhe12rcd13ifvqf30","pricing_plan_id":"free"},{"bike_id":"ef389923-94e8-402d-ae03-517e2e172bde","system_id":"levelo_inurba_marseille","lat":43.261865,"lon":5.37443,"is_reserved":false,"is_disabled":false,"rental_uris":{"android":"levelo://app?vid=ef389923-94e8-402d-ae03-517e2e172bde","ios":"levelo://app?vid=ef389923-94e8-402d-ae03-517e2e172bde"},"vehicle_type_id":"4","last_reported":1702055186,"current_range_meters":29200,"station_id":"ce4bhgp2rcd13ifvqfc0","pricing_plan_id":"free"},{"bike_id":"ce0d22cc-be14-476c-935a-22ec92a7a92a","system_id":"levelo_inurba_marseille","lat":43.261782,"lon":5.374515,"is_reserved":false,"is_disabled":false,"rental_uris":{"android":"levelo://app?vid=ce0d22cc-be14-476c-935a-22ec92a7a92a","ios":"levelo://app?vid=ce0d22cc-be14-476c-935a-22ec92a7a92a"},"vehicle_type_id":"4","last_reported":1702055186,"current_range_meters":2400,"station_id":"ce4bhgp2rcd13ifvqfc0","pricing_plan_id":"free"},{"bike_id":"26a316ce-cbd3-4799-8b70-99bfb6f0c11e","system_id":"levelo_inurba_marseille","lat":43.317104,"lon":5.436818,"is_reserved":false,"is_disabled":false,"rental_uris":{"android":"levelo://app?vid=26a316ce-cbd3-4799-8b70-99bfb6f0c11e","ios":"levelo://app?vid=26a316ce-cbd3-4799-8b70-99bfb6f0c11e"},"vehicle_type_id":"4","last_reported":1702055186,"current_range_meters":23600,"station_id":"ce4bhp92rcd13ifvqhcg","pricing_plan_id":"free"},{"bike_id":"b0b68fc3-d4d4-4b41-94eb-02cc09b236d0","system_id":"levelo_inurba_marseille","lat":43.261782,"lon":5.374515,"is_reserved":false,"is_disabled":false,"rental_uris":{"android":"levelo://app?vid=b0b68fc3-d4d4-4b41-94eb-02cc09b236d0","ios":"levelo://app?vid=b0b68fc3-d4d4-4b41-94eb-02cc09b236d0"},"vehicle_type_id":"4","last_reported":1702055186,"current_range_meters":15600,"station_id":"ce4bhgp2rcd13ifvqfc0","pricing_plan_id":"free"},{"bike_id":"954923a7-c786-4ab6-9de2-b37cfc9510e6","system_id":"levelo_inurba_marseille","lat":43.271368,"lon":5.40928,"is_reserved":false,"is_disabled":false,"rental_uris":{"android":"levelo://app?vid=954923a7-c786-4ab6-9de2-b37cfc9510e6","ios":"levelo://app?vid=954923a7-c786-4ab6-9de2-b37cfc9510e6"},"vehicle_type_id":"4","last_reported":1702055186,"current_range_meters":30400,"station_id":"ce4bhl12rcd13ifvqgf0","pricing_plan_id":"free"},{"bike_id":"b55f1520-7d10-4662-a0d1-297eaf087bd5","system_id":"levelo_inurba_marseille","lat":43.26202,"lon":5.379299,"is_reserved":false,"is_disabled":false,"rental_uris":{"android":"levelo://app?vid=b55f1520-7d10-4662-a0d1-297eaf087bd5","ios":"levelo://app?vid=b55f1520-7d10-4662-a0d1-297eaf087bd5"},"vehicle_type_id":"4","last_reported":1702055186,"current_range_meters":20400,"station_id":"ce4bhjp2rcd13ifvqg90","pricing_plan_id":"free"},{"bike_id":"33ab4f75-5da3-49a2-97a5-c4af208bf946","system_id":"levelo_inurba_marseille","lat":43.267959,"lon":5.402687,"is_reserved":false,"is_disabled":false,"rental_uris":{"android":"levelo://app?vid=33ab4f75-5da3-49a2-97a5-c4af208bf946","ios":"levelo://app?vid=33ab4f75-5da3-49a2-97a5-c4af208bf946"},"vehicle_type_id":"4","last_reported":1702055186,"current_range_meters":21600,"station_id":"ce501612rcd8frsf0b60","pricing_plan_id":"free"},{"bike_id":"6b17b896-99f2-456b-929e-df3811eeb274","system_id":"levelo_inurba_marseille","lat":43.298768,"lon":5.43643,"is_reserved":false,"is_disabled":false,"rental_uris":{"android":"levelo://app?vid=6b17b896-99f2-456b-929e-df3811eeb274","ios":"levelo://app?vid=6b17b896-99f2-456b-929e-df3811eeb274"},"vehicle_type_id":"4","last_reported":1702055186,"current_range_meters":26800,"station_id":"ce4bhpp2rcd13ifvqhfg","pricing_plan_id":"free"},{"bike_id":"4f68f183-a711-4386-a731-e8ea8e2f115e","system_id":"levelo_inurba_marseille","lat":43.298768,"lon":5.43643,"is_reserved":false,"is_disabled":false,"rental_uris":{"android":"levelo://app?vid=4f68f183-a711-4386-a731-e8ea8e2f115e","ios":"levelo://app?vid=4f68f183-a711-4386-a731-e8ea8e2f115e"},"vehicle_type_id":"4","last_reported":1702055186,"current_range_meters":25200,"station_id":"ce4bhpp2rcd13ifvqhfg","pricing_plan_id":"free"},{"bike_id":"ca4db8a8-5b98-4b78-bc3d-514f38028a3d","system_id":"levelo_inurba_marseille","lat":43.298768,"lon":5.43643,"is_reserved":false,"is_disabled":false,"rental_uris":{"android":"levelo://app?vid=ca4db8a8-5b98-4b78-bc3d-514f38028a3d","ios":"levelo://app?vid=ca4db8a8-5b98-4b78-bc3d-514f38028a3d"},"vehicle_type_id":"4","last_reported":1702055186,"current_range_meters":30400,"station_id":"ce4bhpp2rcd13ifvqhfg","pricing_plan_id":"free"},{"bike_id":"5215ad78-0811-4492-88ee-04afc35bf3a5","system_id":"levelo_inurba_marseille","lat":43.298768,"lon":5.43643,"is_reserved":false,"is_disabled":false,"rental_uris":{"android":"levelo://app?vid=5215ad78-0811-4492-88ee-04afc35bf3a5","ios":"levelo://app?vid=5215ad78-0811-4492-88ee-04afc35bf3a5"},"vehicle_type_id":"4","last_reported":1702055186,"current_range_meters":30400,"station_id":"ce4bhpp2rcd13ifvqhfg","pricing_plan_id":"free"},{"bike_id":"83e2018e-7127-4415-8bbf-2e347a9c6750","system_id":"levelo_inurba_marseille","lat":43.298908,"lon":5.436721,"is_reserved":false,"is_disabled":false,"rental_uris":{"android":"levelo://app?vid=83e2018e-7127-4415-8bbf-2e347a9c6750","ios":"levelo://app?vid=83e2018e-7127-4415-8bbf-2e347a9c6750"},"vehicle_type_id":"4","last_reported":1702055186,"current_range_meters":2800,"station_id":"ce4bhpp2rcd13ifvqhfg","pricing_plan_id":"free"},{"bike_id":"859bd26f-b1bc-4130-b08c-db3bcadf880d","system_id":"levelo_inurba_marseille","lat":43.278128,"lon":5.407195,"is_reserved":false,"is_disabled":false,"rental_uris":{"android":"levelo://app?vid=859bd26f-b1bc-4130-b08c-db3bcadf880d","ios":"levelo://app?vid=859bd26f-b1bc-4130-b08c-db3bcadf880d"},"vehicle_type_id":"4","last_reported":1702055186,"current_range_meters":16400,"station_id":"ce4bhnh2rcd13ifvqgtg","pricing_plan_id":"free"},{"bike_id":"970313b1-677c-4f5d-813d-f21e70c11610","system_id":"levelo_inurba_marseille","lat":43.28156,"lon":5.42645,"is_reserved":false,"is_disabled":false,"rental_uris":{"android":"levelo://app?vid=970313b1-677c-4f5d-813d-f21e70c11610","ios":"levelo://app?vid=970313b1-677c-4f5d-813d-f21e70c11610"},"vehicle_type_id":"4","last_reported":1702055186,"current_range_meters":31200,"station_id":"ce4bhnh2rcd13ifvqgug","pricing_plan_id":"free"},{"bike_id":"f56607a5-8c0d-4214-a86e-b954d1fd309d","system_id":"levelo_inurba_marseille","lat":43.28151,"lon":5.42641,"is_reserved":false,"is_disabled":false,"rental_uris":{"android":"levelo://app?vid=f56607a5-8c0d-4214-a86e-b954d1fd309d","ios":"levelo://app?vid=f56607a5-8c0d-4214-a86e-b954d1fd309d"},"vehicle_type_id":"4","last_reported":1702055186,"current_range_meters":3600,"station_id":"ce4bhnh2rcd13ifvqgug","pricing_plan_id":"free"},{"bike_id":"c226204f-0f4e-4955-b3e1-64dc0be8bfe8","system_id":"levelo_inurba_marseille","lat":43.28151,"lon":5.42645,"is_reserved":false,"is_disabled":false,"rental_uris":{"android":"levelo://app?vid=c226204f-0f4e-4955-b3e1-64dc0be8bfe8","ios":"levelo://app?vid=c226204f-0f4e-4955-b3e1-64dc0be8bfe8"},"vehicle_type_id":"4","last_reported":1702055186,"current_range_meters":26800,"station_id":"ce4bhnh2rcd13ifvqgug","pricing_plan_id":"free"},{"bike_id":"6a8c64df-4f21-4e13-851c-650cde239b49","system_id":"levelo_inurba_marseille","lat":43.26065,"lon":5.39394,"is_reserved":false,"is_disabled":false,"rental_uris":{"android":"levelo://app?vid=6a8c64df-4f21-4e13-851c-650cde239b49","ios":"levelo://app?vid=6a8c64df-4f21-4e13-851c-650cde239b49"},"vehicle_type_id":"4","last_reported":1702055186,"current_range_meters":22800,"station_id":"ce4bhh92rcd13ifvqfj0","pricing_plan_id":"free"},{"bike_id":"bd8f69e1-6fec-4352-bebf-6ae1effdc410","system_id":"levelo_inurba_marseille","lat":43.25581,"lon":5.38218,"is_reserved":false,"is_disabled":false,"rental_uris":{"android":"levelo://app?vid=bd8f69e1-6fec-4352-bebf-6ae1effdc410","ios":"levelo://app?vid=bd8f69e1-6fec-4352-bebf-6ae1effdc410"},"vehicle_type_id":"4","last_reported":1702055186,"current_range_meters":4000,"station_id":"ce4bhih2rcd13ifvqfs0","pricing_plan_id":"free"},{"bike_id":"71ce4b2f-4335-4f99-be26-77a544bd8e34","system_id":"levelo_inurba_marseille","lat":43.255756,"lon":5.382303,"is_reserved":false,"is_disabled":false,"rental_uris":{"android":"levelo://app?vid=71ce4b2f-4335-4f99-be26-77a544bd8e34","ios":"levelo://app?vid=71ce4b2f-4335-4f99-be26-77a544bd8e34"},"vehicle_type_id":"4","last_reported":1702055186,"current_range_meters":24800,"station_id":"ce4bhih2rcd13ifvqfs0","pricing_plan_id":"free"},{"bike_id":"0b225907-c9e0-4600-b83c-d0406fae94b8","system_id":"levelo_inurba_marseille","lat":43.257079,"lon":5.411051,"is_reserved":false,"is_disabled":false,"rental_uris":{"android":"levelo://app?vid=0b225907-c9e0-4600-b83c-d0406fae94b8","ios":"levelo://app?vid=0b225907-c9e0-4600-b83c-d0406fae94b8"},"vehicle_type_id":"4","last_reported":1702055186,"current_range_meters":22000,"station_id":"ce4bhkp2rcd13ifvqgd0","pricing_plan_id":"free"},{"bike_id":"5b2bc537-1785-4d3a-808e-6069c26f1f56","system_id":"levelo_inurba_marseille","lat":43.257079,"lon":5.411051,"is_reserved":false,"is_disabled":false,"rental_uris":{"android":"levelo://app?vid=5b2bc537-1785-4d3a-808e-6069c26f1f56","ios":"levelo://app?vid=5b2bc537-1785-4d3a-808e-6069c26f1f56"},"vehicle_type_id":"4","last_reported":1702055186,"current_range_meters":28000,"station_id":"ce4bhkp2rcd13ifvqgd0","pricing_plan_id":"free"},{"bike_id":"4bea3748-70d0-4f45-9e78-0d35b55884f7","system_id":"levelo_inurba_marseille","lat":43.250009,"lon":5.389195,"is_reserved":false,"is_disabled":false,"rental_uris":{"android":"levelo://app?vid=4bea3748-70d0-4f45-9e78-0d35b55884f7","ios":"levelo://app?vid=4bea3748-70d0-4f45-9e78-0d35b55884f7"},"vehicle_type_id":"4","last_reported":1702055186,"current_range_meters":400,"station_id":"ce4bhgp2rcd13ifvqfd0","pricing_plan_id":"free"},{"bike_id":"e742488b-2fce-4073-9557-bb1eca2448bb","system_id":"levelo_inurba_marseille","lat":43.250966,"lon":5.395186,"is_reserved":false,"is_disabled":false,"rental_uris":{"android":"levelo://app?vid=e742488b-2fce-4073-9557-bb1eca2448bb","ios":"levelo://app?vid=e742488b-2fce-4073-9557-bb1eca2448bb"},"vehicle_type_id":"4","last_reported":1702055186,"current_range_meters":23600,"station_id":"ce4bhm12rcd13ifvqgkg","pricing_plan_id":"free"},{"bike_id":"0bd03824-9245-4880-842a-a0ef87e69368","system_id":"levelo_inurba_marseille","lat":43.250966,"lon":5.395186,"is_reserved":false,"is_disabled":false,"rental_uris":{"android":"levelo://app?vid=0bd03824-9245-4880-842a-a0ef87e69368","ios":"levelo://app?vid=0bd03824-9245-4880-842a-a0ef87e69368"},"vehicle_type_id":"4","last_reported":1702055186,"current_range_meters":4800,"station_id":"ce4bhm12rcd13ifvqgkg","pricing_plan_id":"free"},{"bike_id":"325cd06a-c392-461d-a6fb-2f82cff9cdd0","system_id":"levelo_inurba_marseille","lat":43.25102,"lon":5.403214,"is_reserved":false,"is_disabled":false,"rental_uris":{"android":"levelo://app?vid=325cd06a-c392-461d-a6fb-2f82cff9cdd0","ios":"levelo://app?vid=325cd06a-c392-461d-a6fb-2f82cff9cdd0"},"vehicle_type_id":"4","last_reported":1702055186,"current_range_meters":14800,"station_id":"ce4bhlh2rcd13ifvqgig","pricing_plan_id":"free"},{"bike_id":"1f7f2605-d14b-4381-8f1a-f2f1d368b836","system_id":"levelo_inurba_marseille","lat":43.245581,"lon":5.395069,"is_reserved":false,"is_disabled":false,"rental_uris":{"android":"levelo://app?vid=1f7f2605-d14b-4381-8f1a-f2f1d368b836","ios":"levelo://app?vid=1f7f2605-d14b-4381-8f1a-f2f1d368b836"},"vehicle_type_id":"4","last_reported":1702055186,"current_range_meters":2400,"station_id":"ce4bhlp2rcd13ifvqgjg","pricing_plan_id":"free"},{"bike_id":"b3705516-da65-4902-b345-4cc53e261fdf","system_id":"levelo_inurba_marseille","lat":43.2408,"lon":5.37759,"is_reserved":false,"is_disabled":false,"rental_uris":{"android":"levelo://app?vid=b3705516-da65-4902-b345-4cc53e261fdf","ios":"levelo://app?vid=b3705516-da65-4902-b345-4cc53e261fdf"},"vehicle_type_id":"4","last_reported":1702055186,"current_range_meters":21600,"station_id":"","pricing_plan_id":"free"},{"bike_id":"7d1b079b-6126-472b-bea2-f9f3ddfefcda","system_id":"levelo_inurba_marseille","lat":43.239588,"lon":5.366238,"is_reserved":false,"is_disabled":false,"rental_uris":{"android":"levelo://app?vid=7d1b079b-6126-472b-bea2-f9f3ddfefcda","ios":"levelo://app?vid=7d1b079b-6126-472b-bea2-f9f3ddfefcda"},"vehicle_type_id":"4","last_reported":1702055186,"current_range_meters":6400,"station_id":"ce4bhi12rcd13ifvqfp0","pricing_plan_id":"free"},{"bike_id":"93954539-37ab-42cb-8148-c6cd6174d0ce","system_id":"levelo_inurba_marseille","lat":43.239588,"lon":5.366238,"is_reserved":false,"is_disabled":false,"rental_uris":{"android":"levelo://app?vid=93954539-37ab-42cb-8148-c6cd6174d0ce","ios":"levelo://app?vid=93954539-37ab-42cb-8148-c6cd6174d0ce"},"vehicle_type_id":"4","last_reported":1702055186,"current_range_meters":29200,"station_id":"ce4bhi12rcd13ifvqfp0","pricing_plan_id":"free"},{"bike_id":"19de1d90-0ef7-4697-bd3a-3e98bd2bf2e7","system_id":"levelo_inurba_marseille","lat":43.239588,"lon":5.366238,"is_reserved":false,"is_disabled":false,"rental_uris":{"android":"levelo://app?vid=19de1d90-0ef7-4697-bd3a-3e98bd2bf2e7","ios":"levelo://app?vid=19de1d90-0ef7-4697-bd3a-3e98bd2bf2e7"},"vehicle_type_id":"4","last_reported":1702055186,"current_range_meters":30800,"station_id":"ce4bhi12rcd13ifvqfp0","pricing_plan_id":"free"},{"bike_id":"c9aa026e-6c6e-4034-bb0f-bfb42e60e8dc","system_id":"levelo_inurba_marseille","lat":43.231919,"lon":5.355532,"is_reserved":false,"is_disabled":false,"rental_uris":{"android":"levelo://app?vid=c9aa026e-6c6e-4034-bb0f-bfb42e60e8dc","ios":"levelo://app?vid=c9aa026e-6c6e-4034-bb0f-bfb42e60e8dc"},"vehicle_type_id":"4","last_reported":1702055186,"current_range_meters":14000,"station_id":"ce4bhu92rcd13ifvqi70","pricing_plan_id":"free"},{"bike_id":"c6004eb4-873a-4661-a0e7-ea9140f6bd61","system_id":"levelo_inurba_marseille","lat":43.231919,"lon":5.355532,"is_reserved":false,"is_disabled":false,"rental_uris":{"android":"levelo://app?vid=c6004eb4-873a-4661-a0e7-ea9140f6bd61","ios":"levelo://app?vid=c6004eb4-873a-4661-a0e7-ea9140f6bd61"},"vehicle_type_id":"4","last_reported":1702055186,"current_range_meters":20800,"station_id":"ce4bhu92rcd13ifvqi70","pricing_plan_id":"free"},{"bike_id":"be845917-f52e-4a9f-83ff-909546a09332","system_id":"levelo_inurba_marseille","lat":43.231794,"lon":5.400052,"is_reserved":false,"is_disabled":false,"rental_uris":{"android":"levelo://app?vid=be845917-f52e-4a9f-83ff-909546a09332","ios":"levelo://app?vid=be845917-f52e-4a9f-83ff-909546a09332"},"vehicle_type_id":"4","last_reported":1702055186,"current_range_meters":31200,"station_id":"ce4bhn12rcd13ifvqgqg","pricing_plan_id":"free"},{"bike_id":"1c690641-a72b-433d-b1af-d36beaec8f2e","system_id":"levelo_inurba_marseille","lat":43.231876,"lon":5.399904,"is_reserved":false,"is_disabled":false,"rental_uris":{"android":"levelo://app?vid=1c690641-a72b-433d-b1af-d36beaec8f2e","ios":"levelo://app?vid=1c690641-a72b-433d-b1af-d36beaec8f2e"},"vehicle_type_id":"4","last_reported":1702055186,"current_range_meters":30400,"station_id":"ce4bhn12rcd13ifvqgqg","pricing_plan_id":"free"},{"bike_id":"6c4620c0-0d4d-493f-9950-4fd3c4457696","system_id":"levelo_inurba_marseille","lat":43.231794,"lon":5.400052,"is_reserved":false,"is_disabled":false,"rental_uris":{"android":"levelo://app?vid=6c4620c0-0d4d-493f-9950-4fd3c4457696","ios":"levelo://app?vid=6c4620c0-0d4d-493f-9950-4fd3c4457696"},"vehicle_type_id":"4","last_reported":1702055186,"current_range_meters":31200,"station_id":"ce4bhn12rcd13ifvqgqg","pricing_plan_id":"free"},{"bike_id":"8d7f5f08-a516-4fdc-bf82-84bc042fb9c1","system_id":"levelo_inurba_marseille","lat":43.23182,"lon":5.39989,"is_reserved":false,"is_disabled":false,"rental_uris":{"android":"levelo://app?vid=8d7f5f08-a516-4fdc-bf82-84bc042fb9c1","ios":"levelo://app?vid=8d7f5f08-a516-4fdc-bf82-84bc042fb9c1"},"vehicle_type_id":"4","last_reported":1702055186,"current_range_meters":23600,"station_id":"ce4bhn12rcd13ifvqgqg","pricing_plan_id":"free"},{"bike_id":"1364bb53-1feb-4c66-bc1b-fe1d777b1c2f","system_id":"levelo_inurba_marseille","lat":43.23181,"lon":5.39992,"is_reserved":false,"is_disabled":false,"rental_uris":{"android":"levelo://app?vid=1364bb53-1feb-4c66-bc1b-fe1d777b1c2f","ios":"levelo://app?vid=1364bb53-1feb-4c66-bc1b-fe1d777b1c2f"},"vehicle_type_id":"4","last_reported":1702055186,"current_range_meters":8000,"station_id":"ce4bhn12rcd13ifvqgqg","pricing_plan_id":"free"},{"bike_id":"2b540392-a12e-4398-8c3c-b82b7fdd17be","system_id":"levelo_inurba_marseille","lat":43.231562,"lon":5.436933,"is_reserved":false,"is_disabled":false,"rental_uris":{"android":"levelo://app?vid=2b540392-a12e-4398-8c3c-b82b7fdd17be","ios":"levelo://app?vid=2b540392-a12e-4398-8c3c-b82b7fdd17be"},"vehicle_type_id":"4","last_reported":1702055186,"current_range_meters":15200,"station_id":"ce4bhmp2rcd13ifvqgog","pricing_plan_id":"free"},{"bike_id":"51a40f99-e7a3-404e-89d5-4c627a27a31d","system_id":"levelo_inurba_marseille","lat":43.231562,"lon":5.436933,"is_reserved":false,"is_disabled":false,"rental_uris":{"android":"levelo://app?vid=51a40f99-e7a3-404e-89d5-4c627a27a31d","ios":"levelo://app?vid=51a40f99-e7a3-404e-89d5-4c627a27a31d"},"vehicle_type_id":"4","last_reported":1702055186,"current_range_meters":23600,"station_id":"ce4bhmp2rcd13ifvqgog","pricing_plan_id":"free"},{"bike_id":"6c3e3c9e-4b18-4000-ba39-0358b7d7d901","system_id":"levelo_inurba_marseille","lat":43.231562,"lon":5.436933,"is_reserved":false,"is_disabled":false,"rental_uris":{"android":"levelo://app?vid=6c3e3c9e-4b18-4000-ba39-0358b7d7d901","ios":"levelo://app?vid=6c3e3c9e-4b18-4000-ba39-0358b7d7d901"},"vehicle_type_id":"4","last_reported":1702055186,"current_range_meters":30400,"station_id":"ce4bhmp2rcd13ifvqgog","pricing_plan_id":"free"}]}}